{"data": {"bikes": [{"fusion_lat": 0.0, "name": "124df2c80ab5febd86c6501343187bd6", "is_disabled": 0, "rental_uris": {"android": "https://dc.lft.to/lastmile_qr_scan", "ios": "https://dc.lft.to/lastmile_qr_scan"}, "fusion_lon": 0.0, "lat": 38.902129333333335, "bike_id": "124df2c80ab5febd86c6501343187bd6", "type": "electric_scooter", "is_reserved": 0, "lon": -76.97509616666666}, {"fusion_lat": 0.0, "name": "43cd3fd57064546e3dfee869541d5cad", "is_disabled": 0, "rental_uris": {"android": "https://dc.lft.to/lastmile_qr_scan", "ios": "https://dc.lft.to/lastmile_qr_scan"}, "fusion_lon": 0.0, "lat": 38.900378833333335, "bike_id": "43cd3fd57064546e3dfee869541d5cad", "type": "electric_scooter", "is_reserved": 0, "lon": -76.99251466666666}, {"fusion_lat": 0.0, "name": "44376761b1dd6d260b032fa335b78b03", "is_disabled": 0, "rental_uris": {"android": "https://dc.lft.to/lastmile_qr_scan", "ios": "https://dc.lft.to/lastmile_qr_scan"}, "fusion_lon": 0.0, "lat": 38.8947865, "bike_id": "44376761b1dd6d260b032fa335b78b03", "type": "electric_scooter", "is_reserved": 0, "lon": -77.02688183333333}, {"fusion_lat": 0.0, "name": "6db40f0c7318258848527f6f285bbf54", "is_disabled": 0, "rental_uris": {"android": "https://dc.lft.to/lastmile_qr_scan", "ios": "https://dc.lft.to/lastmile_qr_scan"}, "fusion_lon": 0.0, "lat": 38.907307, "bike_id": "6db40f0c7318258848527f6f285bbf54", "type": "electric_scooter", "is_reserved": 0, "lon": -77.03450033333333}, {"fusion_lat": 0.0, "name": "0066af7d13564699e8bca07bd56b89e4", "is_disabled": 0, "rental_uris": {"android": "https://dc.lft.to/lastmile_qr_scan", "ios": "https://dc.lft.to/lastmile_qr_scan"}, "fusion_lon": 0.0, "lat": 38.94291116666667, "bike_id": "0066af7d13564699e8bca07bd56b89e4", "type": "electric_scooter", "is_reserved": 0, "lon": -77.02169283333333}, {"fusion_lat": 0.0, "name": "5cdf79c6055e4417502e0ad0e8964ff1", "is_disabled": 0, "rental_uris": {"android": "https://dc.lft.to/lastmile_qr_scan", "ios": "https://dc.lft.to/lastmile_qr_scan"}, "fusion_lon": 0.0, "lat": 38.861396666666664, "bike_id": "5cdf79c6055e4417502e0ad0e8964ff1", "type": "electric_bike", "is_reserved": 0, "lon": -76.971709}, {"fusion_lat": 0.0, "name": "8b1f0a673a50c6df45228294be41b813", "is_disabled": 0, "rental_uris": {"android": "https://dc.lft.to/lastmile_qr_scan", "ios": "https://dc.lft.to/lastmile_qr_scan"}, "fusion_lon": 0.0, "lat": 38.89965683333333, "bike_id": "8b1f0a673a50c6df45228294be41b813", "type": "electric_scooter", "is_reserved": 0, "lon": -77.05569483333333}, {"fusion_lat": 0.0, "name": "638cbf0525e1e8cb5e49a1acd7bceb71", "is_disabled": 0, "rental_uris": {"android": "https://dc.lft.to/lastmile_qr_scan", "ios": "https://dc.lft.to/lastmile_qr_scan"}, "fusion_lon": 0.0, "lat": 38.92656933333333, "bike_id": "638cbf0525e1e8cb5e49a1acd7bceb71", "type": "electric_scooter", "is_reserved": 0, "lon": -77.02427183333333}, {"fusion_lat": 0.0, "name": "5db96d3993b76951198397afbda84604", "is_disabled": 0, "rental_uris": {"android": "https://dc.lft.to/lastmile_qr_scan", "ios": "https://dc.lft.to/lastmile_qr_scan"}, "fusion_lon": 0.0, "lat": 38.966061, "bike_id": "5db96d3993b76951198397afbda84604", "type": "electric_bike", "is_reserved": 0, "lon": -77.02809683333334}, {"fusion_lat": 0.0, "name": "a8cd2fce8858111870f95a188279b8a3", "is_disabled": 0, "rental_uris": {"android": "https://dc.lft.to/lastmile_qr_scan", "ios": "https://dc.lft.to/lastmile_qr_scan"}, "fusion_lon": 0.0, "lat": 38.91471416666667, "bike_id": "a8cd2fce8858111870f95a188279b8a3", "type": "electric_scooter", "is_reserved": 0, "lon": -77.03212816666667}, {"fusion_lat": 0.0, "name": "4b5e367f89e22af83ed813e3290c1f12", "is_disabled": 0, "rental_uris": {"android": "https://dc.lft.to/lastmile_qr_scan", "ios": "https://dc.lft.to/lastmile_qr_scan"}, "fusion_lon": 0.0, "lat": 38.9418945, "bike_id": "4b5e367f89e22af83ed813e3290c1f12", "type": "electric_scooter", "is_reserved": 0, "lon": -77.02406016666667}, {"fusion_lat": 0.0, "name": "0f86263a485aab2caa8976913329b7f7", "is_disabled": 0, "rental_uris": {"android": "https://dc.lft.to/lastmile_qr_scan", "ios": "https://dc.lft.to/lastmile_qr_scan"}, "fusion_lon": 0.0, "lat": 38.910385, "bike_id": "0f86263a485aab2caa8976913329b7f7", "type": "electric_scooter", "is_reserved": 0, "lon": -77.03836316666667}, {"fusion_lat": 0.0, "name": "e81d917b659791efa75cb0cf6467d8d3", "is_disabled": 0, "rental_uris": {"android": "https://dc.lft.to/lastmile_qr_scan", "ios": "https://dc.lft.to/lastmile_qr_scan"}, "fusion_lon": 0.0, "lat": 38.909519833333334, "bike_id": "e81d917b659791efa75cb0cf6467d8d3", "type": "electric_scooter", "is_reserved": 0, "lon": -77.0321105}, {"fusion_lat": 0.0, "name": "5ac92086f9e28f75838a1f8638a6009b", "is_disabled": 0, "rental_uris": {"android": "https://dc.lft.to/lastmile_qr_scan", "ios": "https://dc.lft.to/lastmile_qr_scan"}, "fusion_lon": 0.0, "lat": 38.89897533333333, "bike_id": "5ac92086f9e28f75838a1f8638a6009b", "type": "electric_scooter", "is_reserved": 0, "lon": -76.93364933333334}, {"fusion_lat": 0.0, "name": "c4db20a257852a758f4886691f7f7cbb", "is_disabled": 0, "rental_uris": {"android": "https://dc.lft.to/lastmile_qr_scan", "ios": "https://dc.lft.to/lastmile_qr_scan"}, "fusion_lon": 0.0, "lat": 38.900267666666664, "bike_id": "c4db20a257852a758f4886691f7f7cbb", "type": "electric_scooter", "is_reserved": 0, "lon": -77.05811033333333}, {"fusion_lat": 0.0, "name": "ae5f30c14574e1a6821cc1a16768bb63", "is_disabled": 0, "rental_uris": {"android": "https://dc.lft.to/lastmile_qr_scan", "ios": "https://dc.lft.to/lastmile_qr_scan"}, "fusion_lon": 0.0, "lat": 38.79469066666667, "bike_id": "ae5f30c14574e1a6821cc1a16768bb63", "type": "electric_bike", "is_reserved": 0, "lon": -76.9924825}, {"fusion_lat": 0.0, "name": "a0e100acfc0032e0e2a1d192912ca202", "is_disabled": 0, "rental_uris": {"android": "https://dc.lft.to/lastmile_qr_scan", "ios": "https://dc.lft.to/lastmile_qr_scan"}, "fusion_lon": 0.0, "lat": 38.897909166666665, "bike_id": "a0e100acfc0032e0e2a1d192912ca202", "type": "electric_scooter", "is_reserved": 0, "lon": -77.0466675}, {"fusion_lat": 0.0, "name": "855cd702253bc501a1afce03a63d7802", "is_disabled": 0, "rental_uris": {"android": "https://dc.lft.to/lastmile_qr_scan", "ios": "https://dc.lft.to/lastmile_qr_scan"}, "fusion_lon": 0.0, "lat": 38.94838133333333, "bike_id": "855cd702253bc501a1afce03a63d7802", "type": "electric_scooter", "is_reserved": 0, "lon": -77.025607}, {"fusion_lat": 0.0, "name": "da6a2a59474a2841e38a90e8b2c376f0", "is_disabled": 0, "rental_uris": {"android": "https://dc.lft.to/lastmile_qr_scan", "ios": "https://dc.lft.to/lastmile_qr_scan"}, "fusion_lon": 0.0, "lat": 38.909006166666664, "bike_id": "da6a2a59474a2841e38a90e8b2c376f0", "type": "electric_scooter", "is_reserved": 0, "lon": -77.04398966666666}, {"fusion_lat": 0.0, "name": "c439e7eff5c6f1e82bda3d02fb257d3d", "is_disabled": 0, "rental_uris": {"android": "https://dc.lft.to/lastmile_qr_scan", "ios": "https://dc.lft.to/lastmile_qr_scan"}, "fusion_lon": 0.0, "lat": 38.900398, "bike_id": "c439e7eff5c6f1e82bda3d02fb257d3d", "type": "electric_scooter", "is_reserved": 0, "lon": -77.05631616666666}, {"fusion_lat": 0.0, "name": "cb97a0291152720b9e96fae2cebc3df9", "is_disabled": 0, "rental_uris": {"android": "https://dc.lft.to/lastmile_qr_scan", "ios": "https://dc.lft.to/lastmile_qr_scan"}, "fusion_lon": 0.0, "lat": 38.91903766666667, "bike_id": "cb97a0291152720b9e96fae2cebc3df9", "type": "electric_scooter", "is_reserved": 0, "lon": -77.02766316666667}, {"fusion_lat": 0.0, "name": "3f4f88613dd128dfd09b4e6e9139bca3", "is_disabled": 0, "rental_uris": {"android": "https://dc.lft.to/lastmile_qr_scan", "ios": "https://dc.lft.to/lastmile_qr_scan"}, "fusion_lon": 0.0, "lat": 38.9225005, "bike_id": "3f4f88613dd128dfd09b4e6e9139bca3", "type": "electric_scooter", "is_reserved": 0, "lon": -77.02976383333333}, {"fusion_lat": 0.0, "name": "f16acf5fed4a5723af6af9e71a09f8e5", "is_disabled": 0, "rental_uris": {"android": "https://dc.lft.to/lastmile_qr_scan", "ios": "https://dc.lft.to/lastmile_qr_scan"}, "fusion_lon": 0.0, "lat": 38.9466075, "bike_id": "f16acf5fed4a5723af6af9e71a09f8e5", "type": "electric_bike", "is_reserved": 0, "lon": -76.9567245}, {"fusion_lat": 0.0, "name": "5e0f633e13af98e14a129142b83c7b11", "is_disabled": 0, "rental_uris": {"android": "https://dc.lft.to/lastmile_qr_scan", "ios": "https://dc.lft.to/lastmile_qr_scan"}, "fusion_lon": 0.0, "lat": 38.89304216666667, "bike_id": "5e0f633e13af98e14a129142b83c7b11", "type": "electric_scooter", "is_reserved": 0, "lon": -77.0214445}, {"fusion_lat": 0.0, "name": "47544c99c63535c3a29b8b46e6f7507b", "is_disabled": 0, "rental_uris": {"android": "https://dc.lft.to/lastmile_qr_scan", "ios": "https://dc.lft.to/lastmile_qr_scan"}, "fusion_lon": 0.0, "lat": 38.9174795, "bike_id": "47544c99c63535c3a29b8b46e6f7507b", "type": "electric_scooter", "is_reserved": 0, "lon": -77.04153383333333}, {"fusion_lat": 0.0, "name": "508bf49468762c8db8b569bc0163dd5e", "is_disabled": 0, "rental_uris": {"android": "https://dc.lft.to/lastmile_qr_scan", "ios": "https://dc.lft.to/lastmile_qr_scan"}, "fusion_lon": 0.0, "lat": 38.92105633333333, "bike_id": "508bf49468762c8db8b569bc0163dd5e", "type": "electric_scooter", "is_reserved": 0, "lon": -77.04694583333334}, {"fusion_lat": 0.0, "name": "fb5494e4c8f8e97a96740cafdc17b56e", "is_disabled": 0, "rental_uris": {"android": "https://dc.lft.to/lastmile_qr_scan", "ios": "https://dc.lft.to/lastmile_qr_scan"}, "fusion_lon": 0.0, "lat": 38.907604, "bike_id": "fb5494e4c8f8e97a96740cafdc17b56e", "type": "electric_scooter", "is_reserved": 0, "lon": -77.0383285}, {"fusion_lat": 0.0, "name": "3d66e0146508502972c939a94fc5c196", "is_disabled": 0, "rental_uris": {"android": "https://dc.lft.to/lastmile_qr_scan", "ios": "https://dc.lft.to/lastmile_qr_scan"}, "fusion_lon": 0.0, "lat": 38.911149333333334, "bike_id": "3d66e0146508502972c939a94fc5c196", "type": "electric_scooter", "is_reserved": 0, "lon": -77.03836016666666}, {"fusion_lat": 0.0, "name": "8b3a773983b5660206daa9acaad09549", "is_disabled": 0, "rental_uris": {"android": "https://dc.lft.to/lastmile_qr_scan", "ios": "https://dc.lft.to/lastmile_qr_scan"}, "fusion_lon": 0.0, "lat": 38.90134966666667, "bike_id": "8b3a773983b5660206daa9acaad09549", "type": "electric_scooter", "is_reserved": 0, "lon": -77.0025}, {"fusion_lat": 0.0, "name": "13c89a2d4a636e35c38f7a99267643b0", "is_disabled": 0, "rental_uris": {"android": "https://dc.lft.to/lastmile_qr_scan", "ios": "https://dc.lft.to/lastmile_qr_scan"}, "fusion_lon": 0.0, "lat": 38.924808, "bike_id": "13c89a2d4a636e35c38f7a99267643b0", "type": "electric_scooter", "is_reserved": 0, "lon": -77.0264775}, {"fusion_lat": 0.0, "name": "d2cc7a77f1a490c5258c0c8a4418bfee", "is_disabled": 0, "rental_uris": {"android": "https://dc.lft.to/lastmile_qr_scan", "ios": "https://dc.lft.to/lastmile_qr_scan"}, "fusion_lon": 0.0, "lat": 38.891656, "bike_id": "d2cc7a77f1a490c5258c0c8a4418bfee", "type": "electric_scooter", "is_reserved": 0, "lon": -76.99463716666666}, {"fusion_lat": 0.0, "name": "9e08bdd17df5a0547fab0cfb01a7137c", "is_disabled": 0, "rental_uris": {"android": "https://dc.lft.to/lastmile_qr_scan", "ios": "https://dc.lft.to/lastmile_qr_scan"}, "fusion_lon": 0.0, "lat": 38.899147166666665, "bike_id": "9e08bdd17df5a0547fab0cfb01a7137c", "type": "electric_scooter", "is_reserved": 0, "lon": -77.00350916666666}, {"fusion_lat": 0.0, "name": "7ea113d67b602243ea12dcd42c6da0eb", "is_disabled": 0, "rental_uris": {"android": "https://dc.lft.to/lastmile_qr_scan", "ios": "https://dc.lft.to/lastmile_qr_scan"}, "fusion_lon": 0.0, "lat": 38.91926616666667, "bike_id": "7ea113d67b602243ea12dcd42c6da0eb", "type": "electric_bike", "is_reserved": 0, "lon": -77.070244}, {"fusion_lat": 0.0, "name": "708a5047573e6a6f606e4a32ae7628f0", "is_disabled": 0, "rental_uris": {"android": "https://dc.lft.to/lastmile_qr_scan", "ios": "https://dc.lft.to/lastmile_qr_scan"}, "fusion_lon": 0.0, "lat": 38.93200383333333, "bike_id": "708a5047573e6a6f606e4a32ae7628f0", "type": "electric_scooter", "is_reserved": 0, "lon": -77.027951}, {"fusion_lat": 0.0, "name": "966d517f56cf17d5e32603238169cbb9", "is_disabled": 0, "rental_uris": {"android": "https://dc.lft.to/lastmile_qr_scan", "ios": "https://dc.lft.to/lastmile_qr_scan"}, "fusion_lon": 0.0, "lat": 38.895261, "bike_id": "966d517f56cf17d5e32603238169cbb9", "type": "electric_scooter", "is_reserved": 0, "lon": -77.01190966666667}, {"fusion_lat": 0.0, "name": "57b35fea2bb99ba945986b1421d4e42b", "is_disabled": 0, "rental_uris": {"android": "https://dc.lft.to/lastmile_qr_scan", "ios": "https://dc.lft.to/lastmile_qr_scan"}, "fusion_lon": 0.0, "lat": 38.890667666666666, "bike_id": "57b35fea2bb99ba945986b1421d4e42b", "type": "electric_scooter", "is_reserved": 0, "lon": -76.94457816666667}, {"fusion_lat": 0.0, "name": "6d5534b3d9738a7da9ba4eaffc3dda8e", "is_disabled": 0, "rental_uris": {"android": "https://dc.lft.to/lastmile_qr_scan", "ios": "https://dc.lft.to/lastmile_qr_scan"}, "fusion_lon": 0.0, "lat": 38.9252055, "bike_id": "6d5534b3d9738a7da9ba4eaffc3dda8e", "type": "electric_scooter", "is_reserved": 0, "lon": -76.99566466666667}, {"fusion_lat": 0.0, "name": "13d9a4754ee013c1016ba01b76d39171", "is_disabled": 0, "rental_uris": {"android": "https://dc.lft.to/lastmile_qr_scan", "ios": "https://dc.lft.to/lastmile_qr_scan"}, "fusion_lon": 0.0, "lat": 38.875541166666665, "bike_id": "13d9a4754ee013c1016ba01b76d39171", "type": "electric_scooter", "is_reserved": 0, "lon": -77.00567866666667}, {"fusion_lat": 0.0, "name": "ad100e30d1fc8b201d31c6ab4002181e", "is_disabled": 0, "rental_uris": {"android": "https://dc.lft.to/lastmile_qr_scan", "ios": "https://dc.lft.to/lastmile_qr_scan"}, "fusion_lon": 0.0, "lat": 38.91391733333333, "bike_id": "ad100e30d1fc8b201d31c6ab4002181e", "type": "electric_scooter", "is_reserved": 0, "lon": -77.033177}, {"fusion_lat": 0.0, "name": "6c683a2d44468ad7f8610b423ab5f228", "is_disabled": 0, "rental_uris": {"android": "https://dc.lft.to/lastmile_qr_scan", "ios": "https://dc.lft.to/lastmile_qr_scan"}, "fusion_lon": 0.0, "lat": 38.93777933333333, "bike_id": "6c683a2d44468ad7f8610b423ab5f228", "type": "electric_scooter", "is_reserved": 0, "lon": -77.02468516666667}, {"fusion_lat": 0.0, "name": "f28f7522691c47d4aed18709afa1c8fd", "is_disabled": 0, "rental_uris": {"android": "https://dc.lft.to/lastmile_qr_scan", "ios": "https://dc.lft.to/lastmile_qr_scan"}, "fusion_lon": 0.0, "lat": 38.930686666666666, "bike_id": "f28f7522691c47d4aed18709afa1c8fd", "type": "electric_scooter", "is_reserved": 0, "lon": -77.021905}, {"fusion_lat": 0.0, "name": "a0a37a46bdf7d1b5480fd1c788ecdbe8", "is_disabled": 0, "rental_uris": {"android": "https://dc.lft.to/lastmile_qr_scan", "ios": "https://dc.lft.to/lastmile_qr_scan"}, "fusion_lon": 0.0, "lat": 38.917731833333335, "bike_id": "a0a37a46bdf7d1b5480fd1c788ecdbe8", "type": "electric_scooter", "is_reserved": 0, "lon": -77.01919083333334}, {"fusion_lat": 0.0, "name": "fc48ef1fdc0fdb34f404230a140e9ae4", "is_disabled": 0, "rental_uris": {"android": "https://dc.lft.to/lastmile_qr_scan", "ios": "https://dc.lft.to/lastmile_qr_scan"}, "fusion_lon": 0.0, "lat": 38.88513066666667, "bike_id": "fc48ef1fdc0fdb34f404230a140e9ae4", "type": "electric_scooter", "is_reserved": 0, "lon": -76.92954166666667}, {"fusion_lat": 0.0, "name": "cb95021657a1b94b89ae1c36880c9f47", "is_disabled": 0, "rental_uris": {"android": "https://dc.lft.to/lastmile_qr_scan", "ios": "https://dc.lft.to/lastmile_qr_scan"}, "fusion_lon": 0.0, "lat": 38.908216333333336, "bike_id": "cb95021657a1b94b89ae1c36880c9f47", "type": "electric_scooter", "is_reserved": 0, "lon": -77.05495333333333}, {"fusion_lat": 0.0, "name": "10ec0a2f51c69ba5df24505ea5c2d1a4", "is_disabled": 0, "rental_uris": {"android": "https://dc.lft.to/lastmile_qr_scan", "ios": "https://dc.lft.to/lastmile_qr_scan"}, "fusion_lon": 0.0, "lat": 38.9112155, "bike_id": "10ec0a2f51c69ba5df24505ea5c2d1a4", "type": "electric_scooter", "is_reserved": 0, "lon": -77.03832116666666}, {"fusion_lat": 0.0, "name": "692612936931363b3461e86a345a69e4", "is_disabled": 0, "rental_uris": {"android": "https://dc.lft.to/lastmile_qr_scan", "ios": "https://dc.lft.to/lastmile_qr_scan"}, "fusion_lon": 0.0, "lat": 38.917184666666664, "bike_id": "692612936931363b3461e86a345a69e4", "type": "electric_scooter", "is_reserved": 0, "lon": -77.01208283333334}, {"fusion_lat": 0.0, "name": "238fa6fd8c2d05e137977e0175d7ca8d", "is_disabled": 0, "rental_uris": {"android": "https://dc.lft.to/lastmile_qr_scan", "ios": "https://dc.lft.to/lastmile_qr_scan"}, "fusion_lon": 0.0, "lat": 38.914530666666664, "bike_id": "238fa6fd8c2d05e137977e0175d7ca8d", "type": "electric_scooter", "is_reserved": 0, "lon": -77.0321535}, {"fusion_lat": 0.0, "name": "b7e76978eefda3f0bd2d6f55343e08ae", "is_disabled": 0, "rental_uris": {"android": "https://dc.lft.to/lastmile_qr_scan", "ios": "https://dc.lft.to/lastmile_qr_scan"}, "fusion_lon": 0.0, "lat": 38.918066, "bike_id": "b7e76978eefda3f0bd2d6f55343e08ae", "type": "electric_scooter", "is_reserved": 0, "lon": -76.99981266666667}, {"fusion_lat": 0.0, "name": "9798f034dc86d93e67a5337f5ee120a9", "is_disabled": 0, "rental_uris": {"android": "https://dc.lft.to/lastmile_qr_scan", "ios": "https://dc.lft.to/lastmile_qr_scan"}, "fusion_lon": 0.0, "lat": 38.9611605, "bike_id": "9798f034dc86d93e67a5337f5ee120a9", "type": "electric_scooter", "is_reserved": 0, "lon": -77.02866666666667}, {"fusion_lat": 0.0, "name": "a9c2dd59628a7dfbddc4fd7049b5f933", "is_disabled": 0, "rental_uris": {"android": "https://dc.lft.to/lastmile_qr_scan", "ios": "https://dc.lft.to/lastmile_qr_scan"}, "fusion_lon": 0.0, "lat": 38.95115966666667, "bike_id": "a9c2dd59628a7dfbddc4fd7049b5f933", "type": "electric_scooter", "is_reserved": 0, "lon": -77.01365116666666}, {"fusion_lat": 0.0, "name": "d52a6aac218e5d9d3fbd9f0926a3da05", "is_disabled": 0, "rental_uris": {"android": "https://dc.lft.to/lastmile_qr_scan", "ios": "https://dc.lft.to/lastmile_qr_scan"}, "fusion_lon": 0.0, "lat": 38.936742833333334, "bike_id": "d52a6aac218e5d9d3fbd9f0926a3da05", "type": "electric_scooter", "is_reserved": 0, "lon": -77.03593483333333}, {"fusion_lat": 0.0, "name": "02f4147f154281e3f39fc6e24ef99f7e", "is_disabled": 0, "rental_uris": {"android": "https://dc.lft.to/lastmile_qr_scan", "ios": "https://dc.lft.to/lastmile_qr_scan"}, "fusion_lon": 0.0, "lat": 38.94644483333333, "bike_id": "02f4147f154281e3f39fc6e24ef99f7e", "type": "electric_bike", "is_reserved": 0, "lon": -77.03050983333333}, {"fusion_lat": 0.0, "name": "bbf54d06d20440be493e5496105bc2f0", "is_disabled": 0, "rental_uris": {"android": "https://dc.lft.to/lastmile_qr_scan", "ios": "https://dc.lft.to/lastmile_qr_scan"}, "fusion_lon": 0.0, "lat": 38.97496366666667, "bike_id": "bbf54d06d20440be493e5496105bc2f0", "type": "electric_scooter", "is_reserved": 0, "lon": -77.01693366666667}, {"fusion_lat": 0.0, "name": "9c5fcbcd976814732f7e7627ed05bedc", "is_disabled": 0, "rental_uris": {"android": "https://dc.lft.to/lastmile_qr_scan", "ios": "https://dc.lft.to/lastmile_qr_scan"}, "fusion_lon": 0.0, "lat": 38.94705416666667, "bike_id": "9c5fcbcd976814732f7e7627ed05bedc", "type": "electric_scooter", "is_reserved": 0, "lon": -77.0194035}, {"fusion_lat": 0.0, "name": "063129bd190fc4cbfc6f8722c156e545", "is_disabled": 0, "rental_uris": {"android": "https://dc.lft.to/lastmile_qr_scan", "ios": "https://dc.lft.to/lastmile_qr_scan"}, "fusion_lon": 0.0, "lat": 38.93192066666667, "bike_id": "063129bd190fc4cbfc6f8722c156e545", "type": "electric_scooter", "is_reserved": 0, "lon": -77.04296833333333}, {"fusion_lat": 0.0, "name": "e3bdcd363c4495893a83ce764d72a161", "is_disabled": 0, "rental_uris": {"android": "https://dc.lft.to/lastmile_qr_scan", "ios": "https://dc.lft.to/lastmile_qr_scan"}, "fusion_lon": 0.0, "lat": 38.894916, "bike_id": "e3bdcd363c4495893a83ce764d72a161", "type": "electric_scooter", "is_reserved": 0, "lon": -77.01513516666667}, {"fusion_lat": 0.0, "name": "0716ae35fc3b1a07111bec86a88a8222", "is_disabled": 0, "rental_uris": {"android": "https://dc.lft.to/lastmile_qr_scan", "ios": "https://dc.lft.to/lastmile_qr_scan"}, "fusion_lon": 0.0, "lat": 38.88458266666667, "bike_id": "0716ae35fc3b1a07111bec86a88a8222", "type": "electric_scooter", "is_reserved": 0, "lon": -76.998448}, {"fusion_lat": 0.0, "name": "b64ee3fa28da08cfbc84141e83044945", "is_disabled": 0, "rental_uris": {"android": "https://dc.lft.to/lastmile_qr_scan", "ios": "https://dc.lft.to/lastmile_qr_scan"}, "fusion_lon": 0.0, "lat": 38.919116, "bike_id": "b64ee3fa28da08cfbc84141e83044945", "type": "electric_scooter", "is_reserved": 0, "lon": -77.033102}, {"fusion_lat": 0.0, "name": "70a45fa64b8962124acba6f0c7464a0a", "is_disabled": 0, "rental_uris": {"android": "https://dc.lft.to/lastmile_qr_scan", "ios": "https://dc.lft.to/lastmile_qr_scan"}, "fusion_lon": 0.0, "lat": 38.93301116666667, "bike_id": "70a45fa64b8962124acba6f0c7464a0a", "type": "electric_scooter", "is_reserved": 0, "lon": -77.02464016666667}, {"fusion_lat": 0.0, "name": "e4671be8d6b91b473ca6f6b44c657b4a", "is_disabled": 0, "rental_uris": {"android": "https://dc.lft.to/lastmile_qr_scan", "ios": "https://dc.lft.to/lastmile_qr_scan"}, "fusion_lon": 0.0, "lat": 38.873041, "bike_id": "e4671be8d6b91b473ca6f6b44c657b4a", "type": "electric_scooter", "is_reserved": 0, "lon": -77.00050666666667}, {"fusion_lat": 0.0, "name": "55f0bbc33f60414e69b1c420b0000036", "is_disabled": 0, "rental_uris": {"android": "https://dc.lft.to/lastmile_qr_scan", "ios": "https://dc.lft.to/lastmile_qr_scan"}, "fusion_lon": 0.0, "lat": 38.91036166666667, "bike_id": "55f0bbc33f60414e69b1c420b0000036", "type": "electric_scooter", "is_reserved": 0, "lon": -77.041067}, {"fusion_lat": 0.0, "name": "5984fed3904cce5ea2b3e3e01af1fe66", "is_disabled": 0, "rental_uris": {"android": "https://dc.lft.to/lastmile_qr_scan", "ios": "https://dc.lft.to/lastmile_qr_scan"}, "fusion_lon": 0.0, "lat": 38.923974, "bike_id": "5984fed3904cce5ea2b3e3e01af1fe66", "type": "electric_scooter", "is_reserved": 0, "lon": -77.0248565}, {"fusion_lat": 0.0, "name": "67880d225653a66fdcef86feb6e08aba", "is_disabled": 0, "rental_uris": {"android": "https://dc.lft.to/lastmile_qr_scan", "ios": "https://dc.lft.to/lastmile_qr_scan"}, "fusion_lon": 0.0, "lat": 38.89734116666666, "bike_id": "67880d225653a66fdcef86feb6e08aba", "type": "electric_scooter", "is_reserved": 0, "lon": -77.023264}, {"fusion_lat": 0.0, "name": "9eb103db0a481e86f2f86ac441fc4e38", "is_disabled": 0, "rental_uris": {"android": "https://dc.lft.to/lastmile_qr_scan", "ios": "https://dc.lft.to/lastmile_qr_scan"}, "fusion_lon": 0.0, "lat": 38.876380166666664, "bike_id": "9eb103db0a481e86f2f86ac441fc4e38", "type": "electric_scooter", "is_reserved": 0, "lon": -77.01577683333333}, {"fusion_lat": 0.0, "name": "a2a70b2662fb1508b23bd4bf53380f64", "is_disabled": 0, "rental_uris": {"android": "https://dc.lft.to/lastmile_qr_scan", "ios": "https://dc.lft.to/lastmile_qr_scan"}, "fusion_lon": 0.0, "lat": 38.95628816666667, "bike_id": "a2a70b2662fb1508b23bd4bf53380f64", "type": "electric_scooter", "is_reserved": 0, "lon": -77.09130433333333}, {"fusion_lat": 0.0, "name": "51db8adaaae0b599a849c0b85d53e4ec", "is_disabled": 0, "rental_uris": {"android": "https://dc.lft.to/lastmile_qr_scan", "ios": "https://dc.lft.to/lastmile_qr_scan"}, "fusion_lon": 0.0, "lat": 38.91922866666667, "bike_id": "51db8adaaae0b599a849c0b85d53e4ec", "type": "electric_scooter", "is_reserved": 0, "lon": -77.009799}, {"fusion_lat": 0.0, "name": "5e55cec6a389d87517e273d4e5ee7dcb", "is_disabled": 0, "rental_uris": {"android": "https://dc.lft.to/lastmile_qr_scan", "ios": "https://dc.lft.to/lastmile_qr_scan"}, "fusion_lon": 0.0, "lat": 38.864502, "bike_id": "5e55cec6a389d87517e273d4e5ee7dcb", "type": "electric_bike", "is_reserved": 0, "lon": -77.10685783333334}, {"fusion_lat": 0.0, "name": "aa53fca7ca68b92358fd4c9f66f12efa", "is_disabled": 0, "rental_uris": {"android": "https://dc.lft.to/lastmile_qr_scan", "ios": "https://dc.lft.to/lastmile_qr_scan"}, "fusion_lon": 0.0, "lat": 38.905971, "bike_id": "aa53fca7ca68b92358fd4c9f66f12efa", "type": "electric_scooter", "is_reserved": 0, "lon": -77.04035583333334}, {"fusion_lat": 0.0, "name": "dfd9e29baae3dc66333ee0e4976ead13", "is_disabled": 0, "rental_uris": {"android": "https://dc.lft.to/lastmile_qr_scan", "ios": "https://dc.lft.to/lastmile_qr_scan"}, "fusion_lon": 0.0, "lat": 38.87094783333333, "bike_id": "dfd9e29baae3dc66333ee0e4976ead13", "type": "electric_scooter", "is_reserved": 0, "lon": -77.01211866666667}, {"fusion_lat": 0.0, "name": "caf935a99be527b38eb94fdd0c3dc3bd", "is_disabled": 0, "rental_uris": {"android": "https://dc.lft.to/lastmile_qr_scan", "ios": "https://dc.lft.to/lastmile_qr_scan"}, "fusion_lon": 0.0, "lat": 38.9064555, "bike_id": "caf935a99be527b38eb94fdd0c3dc3bd", "type": "electric_scooter", "is_reserved": 0, "lon": -77.0103375}, {"fusion_lat": 0.0, "name": "2b8714c311914372c4850769f7b18025", "is_disabled": 0, "rental_uris": {"android": "https://dc.lft.to/lastmile_qr_scan", "ios": "https://dc.lft.to/lastmile_qr_scan"}, "fusion_lon": 0.0, "lat": 38.909691333333335, "bike_id": "2b8714c311914372c4850769f7b18025", "type": "electric_scooter", "is_reserved": 0, "lon": -77.04542766666667}, {"fusion_lat": 0.0, "name": "4d929f78609f79462709222de0a05981", "is_disabled": 0, "rental_uris": {"android": "https://dc.lft.to/lastmile_qr_scan", "ios": "https://dc.lft.to/lastmile_qr_scan"}, "fusion_lon": 0.0, "lat": 38.910006833333334, "bike_id": "4d929f78609f79462709222de0a05981", "type": "electric_scooter", "is_reserved": 0, "lon": -77.04477366666667}, {"fusion_lat": 0.0, "name": "df0fea84a59e17ad8a821a319bf3c651", "is_disabled": 0, "rental_uris": {"android": "https://dc.lft.to/lastmile_qr_scan", "ios": "https://dc.lft.to/lastmile_qr_scan"}, "fusion_lon": 0.0, "lat": 38.86556316666667, "bike_id": "df0fea84a59e17ad8a821a319bf3c651", "type": "electric_scooter", "is_reserved": 0, "lon": -76.98351283333334}, {"fusion_lat": 0.0, "name": "a96585cce04f42f1ddda5f1f1b2ea9aa", "is_disabled": 0, "rental_uris": {"android": "https://dc.lft.to/lastmile_qr_scan", "ios": "https://dc.lft.to/lastmile_qr_scan"}, "fusion_lon": 0.0, "lat": 38.86339233333333, "bike_id": "a96585cce04f42f1ddda5f1f1b2ea9aa", "type": "electric_bike", "is_reserved": 0, "lon": -76.98728966666667}, {"fusion_lat": 0.0, "name": "77cd6cca921ab7ef2d0ca4e69f590fac", "is_disabled": 0, "rental_uris": {"android": "https://dc.lft.to/lastmile_qr_scan", "ios": "https://dc.lft.to/lastmile_qr_scan"}, "fusion_lon": 0.0, "lat": 38.8961345, "bike_id": "77cd6cca921ab7ef2d0ca4e69f590fac", "type": "electric_scooter", "is_reserved": 0, "lon": -76.948112}, {"fusion_lat": 0.0, "name": "dc9bd74c8a9979db554ae1f0cb3dc525", "is_disabled": 0, "rental_uris": {"android": "https://dc.lft.to/lastmile_qr_scan", "ios": "https://dc.lft.to/lastmile_qr_scan"}, "fusion_lon": 0.0, "lat": 38.917051666666666, "bike_id": "dc9bd74c8a9979db554ae1f0cb3dc525", "type": "electric_scooter", "is_reserved": 0, "lon": -77.03104883333333}, {"fusion_lat": 0.0, "name": "6f9947f80bff48672fcb96f1fbba9a10", "is_disabled": 0, "rental_uris": {"android": "https://dc.lft.to/lastmile_qr_scan", "ios": "https://dc.lft.to/lastmile_qr_scan"}, "fusion_lon": 0.0, "lat": 38.908248666666665, "bike_id": "6f9947f80bff48672fcb96f1fbba9a10", "type": "electric_scooter", "is_reserved": 0, "lon": -77.03841816666667}, {"fusion_lat": 0.0, "name": "bbe22d763b0b2a76ed65ec3f1bf0ed22", "is_disabled": 0, "rental_uris": {"android": "https://dc.lft.to/lastmile_qr_scan", "ios": "https://dc.lft.to/lastmile_qr_scan"}, "fusion_lon": 0.0, "lat": 38.920928333333336, "bike_id": "bbe22d763b0b2a76ed65ec3f1bf0ed22", "type": "electric_scooter", "is_reserved": 0, "lon": -77.02421266666667}, {"fusion_lat": 0.0, "name": "aa5664d815e749c048803e0ef7d996c9", "is_disabled": 0, "rental_uris": {"android": "https://dc.lft.to/lastmile_qr_scan", "ios": "https://dc.lft.to/lastmile_qr_scan"}, "fusion_lon": 0.0, "lat": 38.905659, "bike_id": "aa5664d815e749c048803e0ef7d996c9", "type": "electric_scooter", "is_reserved": 0, "lon": -77.0415165}, {"fusion_lat": 0.0, "name": "1bd023c6a730e0b64bffca242560628b", "is_disabled": 0, "rental_uris": {"android": "https://dc.lft.to/lastmile_qr_scan", "ios": "https://dc.lft.to/lastmile_qr_scan"}, "fusion_lon": 0.0, "lat": 38.8825725, "bike_id": "1bd023c6a730e0b64bffca242560628b", "type": "electric_scooter", "is_reserved": 0, "lon": -76.99488466666666}, {"fusion_lat": 0.0, "name": "1d889bcbb32412817a5b17ce7a835a31", "is_disabled": 0, "rental_uris": {"android": "https://dc.lft.to/lastmile_qr_scan", "ios": "https://dc.lft.to/lastmile_qr_scan"}, "fusion_lon": 0.0, "lat": 38.91263883333333, "bike_id": "1d889bcbb32412817a5b17ce7a835a31", "type": "electric_scooter", "is_reserved": 0, "lon": -77.04738183333333}, {"fusion_lat": 0.0, "name": "2d73e01882b6679d217b15b9df6a3f6c", "is_disabled": 0, "rental_uris": {"android": "https://dc.lft.to/lastmile_qr_scan", "ios": "https://dc.lft.to/lastmile_qr_scan"}, "fusion_lon": 0.0, "lat": 38.926242333333334, "bike_id": "2d73e01882b6679d217b15b9df6a3f6c", "type": "electric_scooter", "is_reserved": 0, "lon": -77.03919566666667}, {"fusion_lat": 0.0, "name": "ac4530466d70cfb122eb61f0b25b7ea5", "is_disabled": 0, "rental_uris": {"android": "https://dc.lft.to/lastmile_qr_scan", "ios": "https://dc.lft.to/lastmile_qr_scan"}, "fusion_lon": 0.0, "lat": 38.92331516666667, "bike_id": "ac4530466d70cfb122eb61f0b25b7ea5", "type": "electric_scooter", "is_reserved": 0, "lon": -77.02969266666666}, {"fusion_lat": 0.0, "name": "3e3346e43a747340d8513af70e702ab8", "is_disabled": 0, "rental_uris": {"android": "https://dc.lft.to/lastmile_qr_scan", "ios": "https://dc.lft.to/lastmile_qr_scan"}, "fusion_lon": 0.0, "lat": 38.92273933333333, "bike_id": "3e3346e43a747340d8513af70e702ab8", "type": "electric_scooter", "is_reserved": 0, "lon": -76.99778966666666}, {"fusion_lat": 0.0, "name": "71ae28e96e631ce2c42648fdcc9f32c5", "is_disabled": 0, "rental_uris": {"android": "https://dc.lft.to/lastmile_qr_scan", "ios": "https://dc.lft.to/lastmile_qr_scan"}, "fusion_lon": 0.0, "lat": 38.92569366666667, "bike_id": "71ae28e96e631ce2c42648fdcc9f32c5", "type": "electric_scooter", "is_reserved": 0, "lon": -77.03777066666666}, {"fusion_lat": 0.0, "name": "5f7c26bfbe5cdf33bba6c637f3269019", "is_disabled": 0, "rental_uris": {"android": "https://dc.lft.to/lastmile_qr_scan", "ios": "https://dc.lft.to/lastmile_qr_scan"}, "fusion_lon": 0.0, "lat": 38.90156483333333, "bike_id": "5f7c26bfbe5cdf33bba6c637f3269019", "type": "electric_scooter", "is_reserved": 0, "lon": -76.9741175}, {"fusion_lat": 0.0, "name": "eb2743d916891f33c161c43d37731596", "is_disabled": 0, "rental_uris": {"android": "https://dc.lft.to/lastmile_qr_scan", "ios": "https://dc.lft.to/lastmile_qr_scan"}, "fusion_lon": 0.0, "lat": 38.9452095, "bike_id": "eb2743d916891f33c161c43d37731596", "type": "electric_scooter", "is_reserved": 0, "lon": -77.02270833333333}, {"fusion_lat": 0.0, "name": "7397461cb94caa36489875b2d2ad8629", "is_disabled": 0, "rental_uris": {"android": "https://dc.lft.to/lastmile_qr_scan", "ios": "https://dc.lft.to/lastmile_qr_scan"}, "fusion_lon": 0.0, "lat": 38.913303, "bike_id": "7397461cb94caa36489875b2d2ad8629", "type": "electric_scooter", "is_reserved": 0, "lon": -77.04857233333334}, {"fusion_lat": 0.0, "name": "0c319c24e6b0cb048076d3ff3cbcb0d3", "is_disabled": 0, "rental_uris": {"android": "https://dc.lft.to/lastmile_qr_scan", "ios": "https://dc.lft.to/lastmile_qr_scan"}, "fusion_lon": 0.0, "lat": 38.9111285, "bike_id": "0c319c24e6b0cb048076d3ff3cbcb0d3", "type": "electric_scooter", "is_reserved": 0, "lon": -77.03826866666667}, {"fusion_lat": 0.0, "name": "b2dd02c5b1d8f13174f28647fb50a925", "is_disabled": 0, "rental_uris": {"android": "https://dc.lft.to/lastmile_qr_scan", "ios": "https://dc.lft.to/lastmile_qr_scan"}, "fusion_lon": 0.0, "lat": 38.905332333333334, "bike_id": "b2dd02c5b1d8f13174f28647fb50a925", "type": "electric_scooter", "is_reserved": 0, "lon": -77.02205083333334}, {"fusion_lat": 0.0, "name": "b868ec343ee3a47d5b084d24d9fcda49", "is_disabled": 0, "rental_uris": {"android": "https://dc.lft.to/lastmile_qr_scan", "ios": "https://dc.lft.to/lastmile_qr_scan"}, "fusion_lon": 0.0, "lat": 38.902395, "bike_id": "b868ec343ee3a47d5b084d24d9fcda49", "type": "electric_scooter", "is_reserved": 0, "lon": -77.0604025}, {"fusion_lat": 0.0, "name": "f2ec918422972bb5d736559c5aa106fd", "is_disabled": 0, "rental_uris": {"android": "https://dc.lft.to/lastmile_qr_scan", "ios": "https://dc.lft.to/lastmile_qr_scan"}, "fusion_lon": 0.0, "lat": 38.9073205, "bike_id": "f2ec918422972bb5d736559c5aa106fd", "type": "electric_scooter", "is_reserved": 0, "lon": -77.0070255}, {"fusion_lat": 0.0, "name": "c760ab513581dd37bcf329d78239fc47", "is_disabled": 0, "rental_uris": {"android": "https://dc.lft.to/lastmile_qr_scan", "ios": "https://dc.lft.to/lastmile_qr_scan"}, "fusion_lon": 0.0, "lat": 38.91063116666667, "bike_id": "c760ab513581dd37bcf329d78239fc47", "type": "electric_scooter", "is_reserved": 0, "lon": -77.05269283333334}, {"fusion_lat": 0.0, "name": "2886bbaeb6295a6f24d672fbdd02365a", "is_disabled": 0, "rental_uris": {"android": "https://dc.lft.to/lastmile_qr_scan", "ios": "https://dc.lft.to/lastmile_qr_scan"}, "fusion_lon": 0.0, "lat": 38.911127, "bike_id": "2886bbaeb6295a6f24d672fbdd02365a", "type": "electric_scooter", "is_reserved": 0, "lon": -77.0217475}, {"fusion_lat": 0.0, "name": "8cf9189a8d9238c8efc978283e3db3dc", "is_disabled": 0, "rental_uris": {"android": "https://dc.lft.to/lastmile_qr_scan", "ios": "https://dc.lft.to/lastmile_qr_scan"}, "fusion_lon": 0.0, "lat": 38.907235, "bike_id": "8cf9189a8d9238c8efc978283e3db3dc", "type": "electric_scooter", "is_reserved": 0, "lon": -77.02960733333333}, {"fusion_lat": 0.0, "name": "68eb1f5658744c8aa30b80688b7a9ca2", "is_disabled": 0, "rental_uris": {"android": "https://dc.lft.to/lastmile_qr_scan", "ios": "https://dc.lft.to/lastmile_qr_scan"}, "fusion_lon": 0.0, "lat": 38.90063516666667, "bike_id": "68eb1f5658744c8aa30b80688b7a9ca2", "type": "electric_scooter", "is_reserved": 0, "lon": -76.98554266666666}, {"fusion_lat": 0.0, "name": "0ecbe3eeff071e232544989c8b4258fb", "is_disabled": 0, "rental_uris": {"android": "https://dc.lft.to/lastmile_qr_scan", "ios": "https://dc.lft.to/lastmile_qr_scan"}, "fusion_lon": 0.0, "lat": 38.90020483333333, "bike_id": "0ecbe3eeff071e232544989c8b4258fb", "type": "electric_scooter", "is_reserved": 0, "lon": -77.0003465}, {"fusion_lat": 0.0, "name": "6cacf731b7639f098c9d1ffa4bac7431", "is_disabled": 0, "rental_uris": {"android": "https://dc.lft.to/lastmile_qr_scan", "ios": "https://dc.lft.to/lastmile_qr_scan"}, "fusion_lon": 0.0, "lat": 38.94330683333333, "bike_id": "6cacf731b7639f098c9d1ffa4bac7431", "type": "electric_scooter", "is_reserved": 0, "lon": -77.0269245}, {"fusion_lat": 0.0, "name": "c09f3c60527718e16d7b4352b87d9396", "is_disabled": 0, "rental_uris": {"android": "https://dc.lft.to/lastmile_qr_scan", "ios": "https://dc.lft.to/lastmile_qr_scan"}, "fusion_lon": 0.0, "lat": 38.92880316666667, "bike_id": "c09f3c60527718e16d7b4352b87d9396", "type": "electric_scooter", "is_reserved": 0, "lon": -77.03788666666667}, {"fusion_lat": 0.0, "name": "9dd93f0616646026d7a43acb2bec6d15", "is_disabled": 0, "rental_uris": {"android": "https://dc.lft.to/lastmile_qr_scan", "ios": "https://dc.lft.to/lastmile_qr_scan"}, "fusion_lon": 0.0, "lat": 38.917001166666665, "bike_id": "9dd93f0616646026d7a43acb2bec6d15", "type": "electric_scooter", "is_reserved": 0, "lon": -77.0010945}, {"fusion_lat": 0.0, "name": "f25765b1026dd0b84a99ded1db8bef32", "is_disabled": 0, "rental_uris": {"android": "https://dc.lft.to/lastmile_qr_scan", "ios": "https://dc.lft.to/lastmile_qr_scan"}, "fusion_lon": 0.0, "lat": 38.898502, "bike_id": "f25765b1026dd0b84a99ded1db8bef32", "type": "electric_scooter", "is_reserved": 0, "lon": -76.99033083333333}, {"fusion_lat": 0.0, "name": "454d668e4299ef946a2061a6657218ca", "is_disabled": 0, "rental_uris": {"android": "https://dc.lft.to/lastmile_qr_scan", "ios": "https://dc.lft.to/lastmile_qr_scan"}, "fusion_lon": 0.0, "lat": 38.899242, "bike_id": "454d668e4299ef946a2061a6657218ca", "type": "electric_scooter", "is_reserved": 0, "lon": -77.0719285}, {"fusion_lat": 0.0, "name": "920e3d377d7b0e5382201fcf1490c42c", "is_disabled": 0, "rental_uris": {"android": "https://dc.lft.to/lastmile_qr_scan", "ios": "https://dc.lft.to/lastmile_qr_scan"}, "fusion_lon": 0.0, "lat": 38.9379535, "bike_id": "920e3d377d7b0e5382201fcf1490c42c", "type": "electric_scooter", "is_reserved": 0, "lon": -77.02445266666666}, {"fusion_lat": 0.0, "name": "36f3a87ac69d2ccd804f4a01aa1113c2", "is_disabled": 0, "rental_uris": {"android": "https://dc.lft.to/lastmile_qr_scan", "ios": "https://dc.lft.to/lastmile_qr_scan"}, "fusion_lon": 0.0, "lat": 38.92057333333333, "bike_id": "36f3a87ac69d2ccd804f4a01aa1113c2", "type": "electric_scooter", "is_reserved": 0, "lon": -77.02534133333333}, {"fusion_lat": 0.0, "name": "826c3bf24db605bf9a27c0acecac0eb5", "is_disabled": 0, "rental_uris": {"android": "https://dc.lft.to/lastmile_qr_scan", "ios": "https://dc.lft.to/lastmile_qr_scan"}, "fusion_lon": 0.0, "lat": 38.9387815, "bike_id": "826c3bf24db605bf9a27c0acecac0eb5", "type": "electric_scooter", "is_reserved": 0, "lon": -77.0307915}, {"fusion_lat": 0.0, "name": "01455a8549fe4473db35657e8c5960a6", "is_disabled": 0, "rental_uris": {"android": "https://dc.lft.to/lastmile_qr_scan", "ios": "https://dc.lft.to/lastmile_qr_scan"}, "fusion_lon": 0.0, "lat": 38.92837333333333, "bike_id": "01455a8549fe4473db35657e8c5960a6", "type": "electric_scooter", "is_reserved": 0, "lon": -77.059695}, {"fusion_lat": 0.0, "name": "791891da877d17e93d2f551c3982f841", "is_disabled": 0, "rental_uris": {"android": "https://dc.lft.to/lastmile_qr_scan", "ios": "https://dc.lft.to/lastmile_qr_scan"}, "fusion_lon": 0.0, "lat": 38.8998915, "bike_id": "791891da877d17e93d2f551c3982f841", "type": "electric_scooter", "is_reserved": 0, "lon": -76.98435583333334}, {"fusion_lat": 0.0, "name": "17d010f7c467b2b1d8d9d215e3bcfa46", "is_disabled": 0, "rental_uris": {"android": "https://dc.lft.to/lastmile_qr_scan", "ios": "https://dc.lft.to/lastmile_qr_scan"}, "fusion_lon": 0.0, "lat": 38.924113166666665, "bike_id": "17d010f7c467b2b1d8d9d215e3bcfa46", "type": "electric_scooter", "is_reserved": 0, "lon": -77.03636216666666}, {"fusion_lat": 0.0, "name": "3f36682b0e08ff3ea9d5a8084538bf79", "is_disabled": 0, "rental_uris": {"android": "https://dc.lft.to/lastmile_qr_scan", "ios": "https://dc.lft.to/lastmile_qr_scan"}, "fusion_lon": 0.0, "lat": 38.918181, "bike_id": "3f36682b0e08ff3ea9d5a8084538bf79", "type": "electric_scooter", "is_reserved": 0, "lon": -77.02649866666667}, {"fusion_lat": 0.0, "name": "c556eb81602e8d5aa02a69dde9f2b01e", "is_disabled": 0, "rental_uris": {"android": "https://dc.lft.to/lastmile_qr_scan", "ios": "https://dc.lft.to/lastmile_qr_scan"}, "fusion_lon": 0.0, "lat": 38.91719466666667, "bike_id": "c556eb81602e8d5aa02a69dde9f2b01e", "type": "electric_scooter", "is_reserved": 0, "lon": -77.02976}, {"fusion_lat": 0.0, "name": "4a333cd7a34f5655946dc15ad1d19155", "is_disabled": 0, "rental_uris": {"android": "https://dc.lft.to/lastmile_qr_scan", "ios": "https://dc.lft.to/lastmile_qr_scan"}, "fusion_lon": 0.0, "lat": 38.91696566666667, "bike_id": "4a333cd7a34f5655946dc15ad1d19155", "type": "electric_scooter", "is_reserved": 0, "lon": -77.04110616666667}, {"fusion_lat": 0.0, "name": "94df16a5febd38c6b4be8453e4b704f8", "is_disabled": 0, "rental_uris": {"android": "https://dc.lft.to/lastmile_qr_scan", "ios": "https://dc.lft.to/lastmile_qr_scan"}, "fusion_lon": 0.0, "lat": 38.90093983333333, "bike_id": "94df16a5febd38c6b4be8453e4b704f8", "type": "electric_bike", "is_reserved": 0, "lon": -76.97684266666667}, {"fusion_lat": 0.0, "name": "7075e637631475fe772dd3f917e27059", "is_disabled": 0, "rental_uris": {"android": "https://dc.lft.to/lastmile_qr_scan", "ios": "https://dc.lft.to/lastmile_qr_scan"}, "fusion_lon": 0.0, "lat": 38.906159333333335, "bike_id": "7075e637631475fe772dd3f917e27059", "type": "electric_scooter", "is_reserved": 0, "lon": -77.05901066666667}, {"fusion_lat": 0.0, "name": "17eb2f58d58eada22fbc21ec60d531fb", "is_disabled": 0, "rental_uris": {"android": "https://dc.lft.to/lastmile_qr_scan", "ios": "https://dc.lft.to/lastmile_qr_scan"}, "fusion_lon": 0.0, "lat": 39.03609383333333, "bike_id": "17eb2f58d58eada22fbc21ec60d531fb", "type": "electric_bike", "is_reserved": 0, "lon": -77.05535766666667}, {"fusion_lat": 0.0, "name": "89b6efd3f9c8e6fb4bc2450ded43c5ba", "is_disabled": 0, "rental_uris": {"android": "https://dc.lft.to/lastmile_qr_scan", "ios": "https://dc.lft.to/lastmile_qr_scan"}, "fusion_lon": 0.0, "lat": 38.899707, "bike_id": "89b6efd3f9c8e6fb4bc2450ded43c5ba", "type": "electric_scooter", "is_reserved": 0, "lon": -77.016229}, {"fusion_lat": 0.0, "name": "99d19ee58558e4db54063ba1ef677da6", "is_disabled": 0, "rental_uris": {"android": "https://dc.lft.to/lastmile_qr_scan", "ios": "https://dc.lft.to/lastmile_qr_scan"}, "fusion_lon": 0.0, "lat": 38.90102316666667, "bike_id": "99d19ee58558e4db54063ba1ef677da6", "type": "electric_scooter", "is_reserved": 0, "lon": -77.029362}, {"fusion_lat": 0.0, "name": "8f45329eec27efda9ea755e359c2814f", "is_disabled": 0, "rental_uris": {"android": "https://dc.lft.to/lastmile_qr_scan", "ios": "https://dc.lft.to/lastmile_qr_scan"}, "fusion_lon": 0.0, "lat": 38.93460116666667, "bike_id": "8f45329eec27efda9ea755e359c2814f", "type": "electric_scooter", "is_reserved": 0, "lon": -77.07263083333333}, {"fusion_lat": 0.0, "name": "83d64bc5b9727b1a848c6fc16f3f9585", "is_disabled": 0, "rental_uris": {"android": "https://dc.lft.to/lastmile_qr_scan", "ios": "https://dc.lft.to/lastmile_qr_scan"}, "fusion_lon": 0.0, "lat": 38.899912666666665, "bike_id": "83d64bc5b9727b1a848c6fc16f3f9585", "type": "electric_scooter", "is_reserved": 0, "lon": -77.0067095}, {"fusion_lat": 0.0, "name": "17564c2f6b9518efefd76232a833f337", "is_disabled": 0, "rental_uris": {"android": "https://dc.lft.to/lastmile_qr_scan", "ios": "https://dc.lft.to/lastmile_qr_scan"}, "fusion_lon": 0.0, "lat": 38.91822533333333, "bike_id": "17564c2f6b9518efefd76232a833f337", "type": "electric_scooter", "is_reserved": 0, "lon": -77.01213433333334}, {"fusion_lat": 0.0, "name": "88360f143decd1d128bc0397d35c527d", "is_disabled": 0, "rental_uris": {"android": "https://dc.lft.to/lastmile_qr_scan", "ios": "https://dc.lft.to/lastmile_qr_scan"}, "fusion_lon": 0.0, "lat": 38.9240205, "bike_id": "88360f143decd1d128bc0397d35c527d", "type": "electric_scooter", "is_reserved": 0, "lon": -77.042991}, {"fusion_lat": 0.0, "name": "fd7c0ca3a312f974f3e286e769657031", "is_disabled": 0, "rental_uris": {"android": "https://dc.lft.to/lastmile_qr_scan", "ios": "https://dc.lft.to/lastmile_qr_scan"}, "fusion_lon": 0.0, "lat": 38.904261, "bike_id": "fd7c0ca3a312f974f3e286e769657031", "type": "electric_scooter", "is_reserved": 0, "lon": -76.94975183333334}, {"fusion_lat": 0.0, "name": "47521afc614ece12de933e9bf52c6b8e", "is_disabled": 0, "rental_uris": {"android": "https://dc.lft.to/lastmile_qr_scan", "ios": "https://dc.lft.to/lastmile_qr_scan"}, "fusion_lon": 0.0, "lat": 38.8970375, "bike_id": "47521afc614ece12de933e9bf52c6b8e", "type": "electric_scooter", "is_reserved": 0, "lon": -77.01302883333334}, {"fusion_lat": 0.0, "name": "fe8fd3d450ac13271da2bdbd3057824a", "is_disabled": 0, "rental_uris": {"android": "https://dc.lft.to/lastmile_qr_scan", "ios": "https://dc.lft.to/lastmile_qr_scan"}, "fusion_lon": 0.0, "lat": 38.885151, "bike_id": "fe8fd3d450ac13271da2bdbd3057824a", "type": "electric_scooter", "is_reserved": 0, "lon": -77.01512066666666}, {"fusion_lat": 0.0, "name": "62d4a2a9a12e07bb669cd947d1f9779c", "is_disabled": 0, "rental_uris": {"android": "https://dc.lft.to/lastmile_qr_scan", "ios": "https://dc.lft.to/lastmile_qr_scan"}, "fusion_lon": 0.0, "lat": 38.90647516666667, "bike_id": "62d4a2a9a12e07bb669cd947d1f9779c", "type": "electric_scooter", "is_reserved": 0, "lon": -77.01144916666667}, {"fusion_lat": 0.0, "name": "1527b1957ac13ae0e44e62aac03898c3", "is_disabled": 0, "rental_uris": {"android": "https://dc.lft.to/lastmile_qr_scan", "ios": "https://dc.lft.to/lastmile_qr_scan"}, "fusion_lon": 0.0, "lat": 38.922876333333335, "bike_id": "1527b1957ac13ae0e44e62aac03898c3", "type": "electric_scooter", "is_reserved": 0, "lon": -77.03661433333333}, {"fusion_lat": 0.0, "name": "138a5c021fc429b07b10a0fb28746208", "is_disabled": 0, "rental_uris": {"android": "https://dc.lft.to/lastmile_qr_scan", "ios": "https://dc.lft.to/lastmile_qr_scan"}, "fusion_lon": 0.0, "lat": 38.939414, "bike_id": "138a5c021fc429b07b10a0fb28746208", "type": "electric_scooter", "is_reserved": 0, "lon": -77.03324466666666}, {"fusion_lat": 0.0, "name": "d82e4a8ef8737b4d9662fbfb2471270e", "is_disabled": 0, "rental_uris": {"android": "https://dc.lft.to/lastmile_qr_scan", "ios": "https://dc.lft.to/lastmile_qr_scan"}, "fusion_lon": 0.0, "lat": 38.8832345, "bike_id": "d82e4a8ef8737b4d9662fbfb2471270e", "type": "electric_scooter", "is_reserved": 0, "lon": -77.01770733333333}, {"fusion_lat": 0.0, "name": "483f1cdcfea8f2b198dd9baac2f421e1", "is_disabled": 0, "rental_uris": {"android": "https://dc.lft.to/lastmile_qr_scan", "ios": "https://dc.lft.to/lastmile_qr_scan"}, "fusion_lon": 0.0, "lat": 38.906744, "bike_id": "483f1cdcfea8f2b198dd9baac2f421e1", "type": "electric_scooter", "is_reserved": 0, "lon": -77.0749645}, {"fusion_lat": 0.0, "name": "61d9ffaee913dec52323e0afff8b83f1", "is_disabled": 0, "rental_uris": {"android": "https://dc.lft.to/lastmile_qr_scan", "ios": "https://dc.lft.to/lastmile_qr_scan"}, "fusion_lon": 0.0, "lat": 38.87300183333333, "bike_id": "61d9ffaee913dec52323e0afff8b83f1", "type": "electric_scooter", "is_reserved": 0, "lon": -77.00984}, {"fusion_lat": 0.0, "name": "2a22fd1cdb24d9dadb45695ad3c9f873", "is_disabled": 0, "rental_uris": {"android": "https://dc.lft.to/lastmile_qr_scan", "ios": "https://dc.lft.to/lastmile_qr_scan"}, "fusion_lon": 0.0, "lat": 38.90573666666667, "bike_id": "2a22fd1cdb24d9dadb45695ad3c9f873", "type": "electric_scooter", "is_reserved": 0, "lon": -77.0220755}, {"fusion_lat": 0.0, "name": "d2386b4de74030b8518c8f7212aa7bd7", "is_disabled": 0, "rental_uris": {"android": "https://dc.lft.to/lastmile_qr_scan", "ios": "https://dc.lft.to/lastmile_qr_scan"}, "fusion_lon": 0.0, "lat": 38.88489633333333, "bike_id": "d2386b4de74030b8518c8f7212aa7bd7", "type": "electric_scooter", "is_reserved": 0, "lon": -77.02089666666667}, {"fusion_lat": 0.0, "name": "98819b9aa986e3e1776d46d400526d95", "is_disabled": 0, "rental_uris": {"android": "https://dc.lft.to/lastmile_qr_scan", "ios": "https://dc.lft.to/lastmile_qr_scan"}, "fusion_lon": 0.0, "lat": 38.92014783333333, "bike_id": "98819b9aa986e3e1776d46d400526d95", "type": "electric_scooter", "is_reserved": 0, "lon": -77.01789166666667}, {"fusion_lat": 0.0, "name": "2160a83e95c73cd7d5656db081d2cd68", "is_disabled": 0, "rental_uris": {"android": "https://dc.lft.to/lastmile_qr_scan", "ios": "https://dc.lft.to/lastmile_qr_scan"}, "fusion_lon": 0.0, "lat": 38.909299833333336, "bike_id": "2160a83e95c73cd7d5656db081d2cd68", "type": "electric_scooter", "is_reserved": 0, "lon": -77.02127866666666}, {"fusion_lat": 0.0, "name": "a647886c41c1008bc932c20de9e90201", "is_disabled": 0, "rental_uris": {"android": "https://dc.lft.to/lastmile_qr_scan", "ios": "https://dc.lft.to/lastmile_qr_scan"}, "fusion_lon": 0.0, "lat": 38.889881333333335, "bike_id": "a647886c41c1008bc932c20de9e90201", "type": "electric_scooter", "is_reserved": 0, "lon": -76.98743316666666}, {"fusion_lat": 0.0, "name": "95a2c32a8afed307cd1fb31d0eb5e5c5", "is_disabled": 0, "rental_uris": {"android": "https://dc.lft.to/lastmile_qr_scan", "ios": "https://dc.lft.to/lastmile_qr_scan"}, "fusion_lon": 0.0, "lat": 38.898059333333336, "bike_id": "95a2c32a8afed307cd1fb31d0eb5e5c5", "type": "electric_scooter", "is_reserved": 0, "lon": -77.03142516666666}, {"fusion_lat": 0.0, "name": "21cf4c6ee41e98c5e8137e0344822bbe", "is_disabled": 0, "rental_uris": {"android": "https://dc.lft.to/lastmile_qr_scan", "ios": "https://dc.lft.to/lastmile_qr_scan"}, "fusion_lon": 0.0, "lat": 38.90378883333333, "bike_id": "21cf4c6ee41e98c5e8137e0344822bbe", "type": "electric_scooter", "is_reserved": 0, "lon": -77.01745416666667}, {"fusion_lat": 0.0, "name": "1c7755df34e0ba3893a8bd9434f32ab8", "is_disabled": 0, "rental_uris": {"android": "https://dc.lft.to/lastmile_qr_scan", "ios": "https://dc.lft.to/lastmile_qr_scan"}, "fusion_lon": 0.0, "lat": 38.9415265, "bike_id": "1c7755df34e0ba3893a8bd9434f32ab8", "type": "electric_scooter", "is_reserved": 0, "lon": -77.02625266666666}, {"fusion_lat": 0.0, "name": "f15fd0ac53291515381b7215c98dbcf8", "is_disabled": 0, "rental_uris": {"android": "https://dc.lft.to/lastmile_qr_scan", "ios": "https://dc.lft.to/lastmile_qr_scan"}, "fusion_lon": 0.0, "lat": 38.920799833333334, "bike_id": "f15fd0ac53291515381b7215c98dbcf8", "type": "electric_scooter", "is_reserved": 0, "lon": -77.02408683333333}, {"fusion_lat": 0.0, "name": "6999d891face9b495bd65da367526480", "is_disabled": 0, "rental_uris": {"android": "https://dc.lft.to/lastmile_qr_scan", "ios": "https://dc.lft.to/lastmile_qr_scan"}, "fusion_lon": 0.0, "lat": 38.8841595, "bike_id": "6999d891face9b495bd65da367526480", "type": "electric_scooter", "is_reserved": 0, "lon": -77.021592}, {"fusion_lat": 0.0, "name": "9c047d14433e56257f7966549c60d921", "is_disabled": 0, "rental_uris": {"android": "https://dc.lft.to/lastmile_qr_scan", "ios": "https://dc.lft.to/lastmile_qr_scan"}, "fusion_lon": 0.0, "lat": 38.93396716666667, "bike_id": "9c047d14433e56257f7966549c60d921", "type": "electric_scooter", "is_reserved": 0, "lon": -77.05747033333333}, {"fusion_lat": 0.0, "name": "36d1bc9565009f2fb061d4580d434e16", "is_disabled": 0, "rental_uris": {"android": "https://dc.lft.to/lastmile_qr_scan", "ios": "https://dc.lft.to/lastmile_qr_scan"}, "fusion_lon": 0.0, "lat": 38.905091166666665, "bike_id": "36d1bc9565009f2fb061d4580d434e16", "type": "electric_scooter", "is_reserved": 0, "lon": -77.01788783333333}, {"fusion_lat": 0.0, "name": "e8e7a0f7cfb7c5d04680d57c295467ee", "is_disabled": 0, "rental_uris": {"android": "https://dc.lft.to/lastmile_qr_scan", "ios": "https://dc.lft.to/lastmile_qr_scan"}, "fusion_lon": 0.0, "lat": 38.96207033333334, "bike_id": "e8e7a0f7cfb7c5d04680d57c295467ee", "type": "electric_scooter", "is_reserved": 0, "lon": -77.02235683333333}, {"fusion_lat": 0.0, "name": "02b996626b3fe87bef6117638f77c237", "is_disabled": 0, "rental_uris": {"android": "https://dc.lft.to/lastmile_qr_scan", "ios": "https://dc.lft.to/lastmile_qr_scan"}, "fusion_lon": 0.0, "lat": 38.887175166666665, "bike_id": "02b996626b3fe87bef6117638f77c237", "type": "electric_scooter", "is_reserved": 0, "lon": -77.01328266666667}, {"fusion_lat": 0.0, "name": "48b7b988dc765b7b1b4181156f97f150", "is_disabled": 0, "rental_uris": {"android": "https://dc.lft.to/lastmile_qr_scan", "ios": "https://dc.lft.to/lastmile_qr_scan"}, "fusion_lon": 0.0, "lat": 38.935369666666666, "bike_id": "48b7b988dc765b7b1b4181156f97f150", "type": "electric_scooter", "is_reserved": 0, "lon": -77.02345783333334}, {"fusion_lat": 0.0, "name": "e5315bb7aaba54d245047cbbb4cce468", "is_disabled": 0, "rental_uris": {"android": "https://dc.lft.to/lastmile_qr_scan", "ios": "https://dc.lft.to/lastmile_qr_scan"}, "fusion_lon": 0.0, "lat": 38.9094785, "bike_id": "e5315bb7aaba54d245047cbbb4cce468", "type": "electric_scooter", "is_reserved": 0, "lon": -77.03194883333333}, {"fusion_lat": 0.0, "name": "0f4730ec6482a8e3343d84353eda095e", "is_disabled": 0, "rental_uris": {"android": "https://dc.lft.to/lastmile_qr_scan", "ios": "https://dc.lft.to/lastmile_qr_scan"}, "fusion_lon": 0.0, "lat": 38.903054833333336, "bike_id": "0f4730ec6482a8e3343d84353eda095e", "type": "electric_bike", "is_reserved": 0, "lon": -76.97654966666667}, {"fusion_lat": 0.0, "name": "40de08e8d49556b4ceedc716486fcbfb", "is_disabled": 0, "rental_uris": {"android": "https://dc.lft.to/lastmile_qr_scan", "ios": "https://dc.lft.to/lastmile_qr_scan"}, "fusion_lon": 0.0, "lat": 38.99777433333333, "bike_id": "40de08e8d49556b4ceedc716486fcbfb", "type": "electric_bike", "is_reserved": 0, "lon": -77.04712983333333}, {"fusion_lat": 0.0, "name": "78a77cd42758abafa651f871c3b25d0a", "is_disabled": 0, "rental_uris": {"android": "https://dc.lft.to/lastmile_qr_scan", "ios": "https://dc.lft.to/lastmile_qr_scan"}, "fusion_lon": 0.0, "lat": 38.902917333333335, "bike_id": "78a77cd42758abafa651f871c3b25d0a", "type": "electric_scooter", "is_reserved": 0, "lon": -76.9763575}, {"fusion_lat": 0.0, "name": "a5ef8f47a9c4211d93bd342ac3eeb045", "is_disabled": 0, "rental_uris": {"android": "https://dc.lft.to/lastmile_qr_scan", "ios": "https://dc.lft.to/lastmile_qr_scan"}, "fusion_lon": 0.0, "lat": 38.926724166666666, "bike_id": "a5ef8f47a9c4211d93bd342ac3eeb045", "type": "electric_scooter", "is_reserved": 0, "lon": -77.03102733333333}, {"fusion_lat": 0.0, "name": "104bfa782e0751c0ea3bf26d2a86f1d3", "is_disabled": 0, "rental_uris": {"android": "https://dc.lft.to/lastmile_qr_scan", "ios": "https://dc.lft.to/lastmile_qr_scan"}, "fusion_lon": 0.0, "lat": 38.9223325, "bike_id": "104bfa782e0751c0ea3bf26d2a86f1d3", "type": "electric_scooter", "is_reserved": 0, "lon": -77.02331716666667}, {"fusion_lat": 0.0, "name": "6e3588db6567f82e6b8cd57824face23", "is_disabled": 0, "rental_uris": {"android": "https://dc.lft.to/lastmile_qr_scan", "ios": "https://dc.lft.to/lastmile_qr_scan"}, "fusion_lon": 0.0, "lat": 38.89599783333333, "bike_id": "6e3588db6567f82e6b8cd57824face23", "type": "electric_scooter", "is_reserved": 0, "lon": -77.03176416666666}, {"fusion_lat": 0.0, "name": "147b741d856b65d075b10fe680e67a87", "is_disabled": 0, "rental_uris": {"android": "https://dc.lft.to/lastmile_qr_scan", "ios": "https://dc.lft.to/lastmile_qr_scan"}, "fusion_lon": 0.0, "lat": 38.91827, "bike_id": "147b741d856b65d075b10fe680e67a87", "type": "electric_scooter", "is_reserved": 0, "lon": -77.03641166666667}, {"fusion_lat": 0.0, "name": "5d9439f86ff29c68bb5e997cb9ecaed1", "is_disabled": 0, "rental_uris": {"android": "https://dc.lft.to/lastmile_qr_scan", "ios": "https://dc.lft.to/lastmile_qr_scan"}, "fusion_lon": 0.0, "lat": 38.884001, "bike_id": "5d9439f86ff29c68bb5e997cb9ecaed1", "type": "electric_bike", "is_reserved": 0, "lon": -76.960545}, {"fusion_lat": 0.0, "name": "dc7d05fd79a29d6bdded93349d9e00d3", "is_disabled": 0, "rental_uris": {"android": "https://dc.lft.to/lastmile_qr_scan", "ios": "https://dc.lft.to/lastmile_qr_scan"}, "fusion_lon": 0.0, "lat": 38.91771083333333, "bike_id": "dc7d05fd79a29d6bdded93349d9e00d3", "type": "electric_scooter", "is_reserved": 0, "lon": -77.012364}, {"fusion_lat": 0.0, "name": "5bf64999d8afb2cc125e7f6631b3b537", "is_disabled": 0, "rental_uris": {"android": "https://dc.lft.to/lastmile_qr_scan", "ios": "https://dc.lft.to/lastmile_qr_scan"}, "fusion_lon": 0.0, "lat": 38.92825933333334, "bike_id": "5bf64999d8afb2cc125e7f6631b3b537", "type": "electric_scooter", "is_reserved": 0, "lon": -77.05437233333333}, {"fusion_lat": 0.0, "name": "548981e71df6dc3239ed8d9a3758ab54", "is_disabled": 0, "rental_uris": {"android": "https://dc.lft.to/lastmile_qr_scan", "ios": "https://dc.lft.to/lastmile_qr_scan"}, "fusion_lon": 0.0, "lat": 38.941955166666666, "bike_id": "548981e71df6dc3239ed8d9a3758ab54", "type": "electric_scooter", "is_reserved": 0, "lon": -77.02595466666666}, {"fusion_lat": 0.0, "name": "c73988b954b736d1e74f2257de46529d", "is_disabled": 0, "rental_uris": {"android": "https://dc.lft.to/lastmile_qr_scan", "ios": "https://dc.lft.to/lastmile_qr_scan"}, "fusion_lon": 0.0, "lat": 38.92065766666666, "bike_id": "c73988b954b736d1e74f2257de46529d", "type": "electric_scooter", "is_reserved": 0, "lon": -77.01427716666667}, {"fusion_lat": 0.0, "name": "857af145621823e18fd3e1e93a04dbc7", "is_disabled": 0, "rental_uris": {"android": "https://dc.lft.to/lastmile_qr_scan", "ios": "https://dc.lft.to/lastmile_qr_scan"}, "fusion_lon": 0.0, "lat": 38.894007, "bike_id": "857af145621823e18fd3e1e93a04dbc7", "type": "electric_scooter", "is_reserved": 0, "lon": -76.99492283333333}, {"fusion_lat": 0.0, "name": "3168c3082b4798026aa262330587edc9", "is_disabled": 0, "rental_uris": {"android": "https://dc.lft.to/lastmile_qr_scan", "ios": "https://dc.lft.to/lastmile_qr_scan"}, "fusion_lon": 0.0, "lat": 38.938419833333334, "bike_id": "3168c3082b4798026aa262330587edc9", "type": "electric_scooter", "is_reserved": 0, "lon": -77.0338855}, {"fusion_lat": 0.0, "name": "68a5b5349e1a7f9ec2e94c9ea9971c2d", "is_disabled": 0, "rental_uris": {"android": "https://dc.lft.to/lastmile_qr_scan", "ios": "https://dc.lft.to/lastmile_qr_scan"}, "fusion_lon": 0.0, "lat": 38.964067, "bike_id": "68a5b5349e1a7f9ec2e94c9ea9971c2d", "type": "electric_scooter", "is_reserved": 0, "lon": -77.07530933333334}, {"fusion_lat": 0.0, "name": "b69ca9fe855d041ce8c46424b650a085", "is_disabled": 0, "rental_uris": {"android": "https://dc.lft.to/lastmile_qr_scan", "ios": "https://dc.lft.to/lastmile_qr_scan"}, "fusion_lon": 0.0, "lat": 38.925447166666665, "bike_id": "b69ca9fe855d041ce8c46424b650a085", "type": "electric_bike", "is_reserved": 0, "lon": -77.00120566666666}, {"fusion_lat": 0.0, "name": "35e88727c99f052a01c961a63cb230ec", "is_disabled": 0, "rental_uris": {"android": "https://dc.lft.to/lastmile_qr_scan", "ios": "https://dc.lft.to/lastmile_qr_scan"}, "fusion_lon": 0.0, "lat": 38.92218066666667, "bike_id": "35e88727c99f052a01c961a63cb230ec", "type": "electric_bike", "is_reserved": 0, "lon": -77.201376}, {"fusion_lat": 0.0, "name": "6dd145c748a67153425274dc8029e79c", "is_disabled": 0, "rental_uris": {"android": "https://dc.lft.to/lastmile_qr_scan", "ios": "https://dc.lft.to/lastmile_qr_scan"}, "fusion_lon": 0.0, "lat": 38.8874065, "bike_id": "6dd145c748a67153425274dc8029e79c", "type": "electric_scooter", "is_reserved": 0, "lon": -77.0317325}, {"fusion_lat": 0.0, "name": "278edf5d674a39d4a0cb6ba0c1ddf84d", "is_disabled": 0, "rental_uris": {"android": "https://dc.lft.to/lastmile_qr_scan", "ios": "https://dc.lft.to/lastmile_qr_scan"}, "fusion_lon": 0.0, "lat": 38.91828966666667, "bike_id": "278edf5d674a39d4a0cb6ba0c1ddf84d", "type": "electric_scooter", "is_reserved": 0, "lon": -77.0253485}, {"fusion_lat": 0.0, "name": "7521eea1355d599c797694cde788fc4a", "is_disabled": 0, "rental_uris": {"android": "https://dc.lft.to/lastmile_qr_scan", "ios": "https://dc.lft.to/lastmile_qr_scan"}, "fusion_lon": 0.0, "lat": 38.8980325, "bike_id": "7521eea1355d599c797694cde788fc4a", "type": "electric_scooter", "is_reserved": 0, "lon": -77.0476425}, {"fusion_lat": 0.0, "name": "5ab9a99d0a89750e308f405ce36a1a73", "is_disabled": 0, "rental_uris": {"android": "https://dc.lft.to/lastmile_qr_scan", "ios": "https://dc.lft.to/lastmile_qr_scan"}, "fusion_lon": 0.0, "lat": 38.929721666666666, "bike_id": "5ab9a99d0a89750e308f405ce36a1a73", "type": "electric_scooter", "is_reserved": 0, "lon": -77.0309965}, {"fusion_lat": 0.0, "name": "33cd4ca8178eb0411e22398cdc6d4e10", "is_disabled": 0, "rental_uris": {"android": "https://dc.lft.to/lastmile_qr_scan", "ios": "https://dc.lft.to/lastmile_qr_scan"}, "fusion_lon": 0.0, "lat": 38.89827583333334, "bike_id": "33cd4ca8178eb0411e22398cdc6d4e10", "type": "electric_scooter", "is_reserved": 0, "lon": -76.94651466666667}, {"fusion_lat": 0.0, "name": "02806862ee488d5b834603551385cc84", "is_disabled": 0, "rental_uris": {"android": "https://dc.lft.to/lastmile_qr_scan", "ios": "https://dc.lft.to/lastmile_qr_scan"}, "fusion_lon": 0.0, "lat": 38.906887833333336, "bike_id": "02806862ee488d5b834603551385cc84", "type": "electric_scooter", "is_reserved": 0, "lon": -77.04733416666667}, {"fusion_lat": 0.0, "name": "e96d8645d3c73afad4fc6c8d706845a3", "is_disabled": 0, "rental_uris": {"android": "https://dc.lft.to/lastmile_qr_scan", "ios": "https://dc.lft.to/lastmile_qr_scan"}, "fusion_lon": 0.0, "lat": 38.878994166666665, "bike_id": "e96d8645d3c73afad4fc6c8d706845a3", "type": "electric_scooter", "is_reserved": 0, "lon": -77.01361866666667}, {"fusion_lat": 0.0, "name": "133ea8620294c64874bf8e9e7241fb72", "is_disabled": 0, "rental_uris": {"android": "https://dc.lft.to/lastmile_qr_scan", "ios": "https://dc.lft.to/lastmile_qr_scan"}, "fusion_lon": 0.0, "lat": 38.90500633333333, "bike_id": "133ea8620294c64874bf8e9e7241fb72", "type": "electric_scooter", "is_reserved": 0, "lon": -77.01017066666667}, {"fusion_lat": 0.0, "name": "ad0f476c7c4fd711e508e9a90dbb0c74", "is_disabled": 0, "rental_uris": {"android": "https://dc.lft.to/lastmile_qr_scan", "ios": "https://dc.lft.to/lastmile_qr_scan"}, "fusion_lon": 0.0, "lat": 38.91769583333333, "bike_id": "ad0f476c7c4fd711e508e9a90dbb0c74", "type": "electric_scooter", "is_reserved": 0, "lon": -77.01492883333333}, {"fusion_lat": 0.0, "name": "d671cf3bac68cf647ca47eb7ee8cf02e", "is_disabled": 0, "rental_uris": {"android": "https://dc.lft.to/lastmile_qr_scan", "ios": "https://dc.lft.to/lastmile_qr_scan"}, "fusion_lon": 0.0, "lat": 38.944107333333335, "bike_id": "d671cf3bac68cf647ca47eb7ee8cf02e", "type": "electric_scooter", "is_reserved": 0, "lon": -77.032041}, {"fusion_lat": 0.0, "name": "1856d07ad7cff2de72d6d309363c75b9", "is_disabled": 0, "rental_uris": {"android": "https://dc.lft.to/lastmile_qr_scan", "ios": "https://dc.lft.to/lastmile_qr_scan"}, "fusion_lon": 0.0, "lat": 38.9096815, "bike_id": "1856d07ad7cff2de72d6d309363c75b9", "type": "electric_scooter", "is_reserved": 0, "lon": -77.008844}, {"fusion_lat": 0.0, "name": "4f4e231f590b8539c76a4953e5488501", "is_disabled": 0, "rental_uris": {"android": "https://dc.lft.to/lastmile_qr_scan", "ios": "https://dc.lft.to/lastmile_qr_scan"}, "fusion_lon": 0.0, "lat": 38.905766666666665, "bike_id": "4f4e231f590b8539c76a4953e5488501", "type": "electric_scooter", "is_reserved": 0, "lon": -77.00881916666667}, {"fusion_lat": 0.0, "name": "caabd8f9569d798fbbf4430def0e3547", "is_disabled": 0, "rental_uris": {"android": "https://dc.lft.to/lastmile_qr_scan", "ios": "https://dc.lft.to/lastmile_qr_scan"}, "fusion_lon": 0.0, "lat": 38.86243983333333, "bike_id": "caabd8f9569d798fbbf4430def0e3547", "type": "electric_scooter", "is_reserved": 0, "lon": -76.994968}, {"fusion_lat": 0.0, "name": "d6a278036e1bb801f031d322c1316424", "is_disabled": 0, "rental_uris": {"android": "https://dc.lft.to/lastmile_qr_scan", "ios": "https://dc.lft.to/lastmile_qr_scan"}, "fusion_lon": 0.0, "lat": 38.91979766666667, "bike_id": "d6a278036e1bb801f031d322c1316424", "type": "electric_scooter", "is_reserved": 0, "lon": -77.04166133333334}, {"fusion_lat": 0.0, "name": "6e48d263f62cbf4295a27b21d2140295", "is_disabled": 0, "rental_uris": {"android": "https://dc.lft.to/lastmile_qr_scan", "ios": "https://dc.lft.to/lastmile_qr_scan"}, "fusion_lon": 0.0, "lat": 38.905156, "bike_id": "6e48d263f62cbf4295a27b21d2140295", "type": "electric_scooter", "is_reserved": 0, "lon": -77.06381683333333}, {"fusion_lat": 0.0, "name": "4cfdfbb78f82278c3e96be3097b16885", "is_disabled": 0, "rental_uris": {"android": "https://dc.lft.to/lastmile_qr_scan", "ios": "https://dc.lft.to/lastmile_qr_scan"}, "fusion_lon": 0.0, "lat": 38.90568283333333, "bike_id": "4cfdfbb78f82278c3e96be3097b16885", "type": "electric_scooter", "is_reserved": 0, "lon": -77.03455483333333}, {"fusion_lat": 0.0, "name": "e8fb740a48afe52c8b5994e010651f86", "is_disabled": 0, "rental_uris": {"android": "https://dc.lft.to/lastmile_qr_scan", "ios": "https://dc.lft.to/lastmile_qr_scan"}, "fusion_lon": 0.0, "lat": 38.91725533333333, "bike_id": "e8fb740a48afe52c8b5994e010651f86", "type": "electric_scooter", "is_reserved": 0, "lon": -77.04594483333334}, {"fusion_lat": 0.0, "name": "082efd8819902cdbdb200dd7da2f9e97", "is_disabled": 0, "rental_uris": {"android": "https://dc.lft.to/lastmile_qr_scan", "ios": "https://dc.lft.to/lastmile_qr_scan"}, "fusion_lon": 0.0, "lat": 38.954042, "bike_id": "082efd8819902cdbdb200dd7da2f9e97", "type": "electric_scooter", "is_reserved": 0, "lon": -77.02749066666667}, {"fusion_lat": 0.0, "name": "0a11b6c16f8232b8381edae8ab61a840", "is_disabled": 0, "rental_uris": {"android": "https://dc.lft.to/lastmile_qr_scan", "ios": "https://dc.lft.to/lastmile_qr_scan"}, "fusion_lon": 0.0, "lat": 38.903601, "bike_id": "0a11b6c16f8232b8381edae8ab61a840", "type": "electric_scooter", "is_reserved": 0, "lon": -77.00345416666667}, {"fusion_lat": 0.0, "name": "e8351630584015fe50610a36b252cf46", "is_disabled": 0, "rental_uris": {"android": "https://dc.lft.to/lastmile_qr_scan", "ios": "https://dc.lft.to/lastmile_qr_scan"}, "fusion_lon": 0.0, "lat": 38.893862666666664, "bike_id": "e8351630584015fe50610a36b252cf46", "type": "electric_scooter", "is_reserved": 0, "lon": -76.92305966666666}, {"fusion_lat": 0.0, "name": "a2c2399f1fa707f3bc7408555e312b19", "is_disabled": 0, "rental_uris": {"android": "https://dc.lft.to/lastmile_qr_scan", "ios": "https://dc.lft.to/lastmile_qr_scan"}, "fusion_lon": 0.0, "lat": 38.898594833333334, "bike_id": "a2c2399f1fa707f3bc7408555e312b19", "type": "electric_scooter", "is_reserved": 0, "lon": -76.94639483333333}, {"fusion_lat": 0.0, "name": "ba6a34b4868aca936453390fc36f5130", "is_disabled": 0, "rental_uris": {"android": "https://dc.lft.to/lastmile_qr_scan", "ios": "https://dc.lft.to/lastmile_qr_scan"}, "fusion_lon": 0.0, "lat": 38.933859166666664, "bike_id": "ba6a34b4868aca936453390fc36f5130", "type": "electric_scooter", "is_reserved": 0, "lon": -77.026755}, {"fusion_lat": 0.0, "name": "aafc6af1cba6f381ef90217b5b065dc2", "is_disabled": 0, "rental_uris": {"android": "https://dc.lft.to/lastmile_qr_scan", "ios": "https://dc.lft.to/lastmile_qr_scan"}, "fusion_lon": 0.0, "lat": 38.912669, "bike_id": "aafc6af1cba6f381ef90217b5b065dc2", "type": "electric_scooter", "is_reserved": 0, "lon": -77.04927983333333}, {"fusion_lat": 0.0, "name": "f43eeba9e4ac9bf0b414b50d198c8bce", "is_disabled": 0, "rental_uris": {"android": "https://dc.lft.to/lastmile_qr_scan", "ios": "https://dc.lft.to/lastmile_qr_scan"}, "fusion_lon": 0.0, "lat": 38.91030883333333, "bike_id": "f43eeba9e4ac9bf0b414b50d198c8bce", "type": "electric_scooter", "is_reserved": 0, "lon": -77.0151305}, {"fusion_lat": 0.0, "name": "a104382d2c81ffab7d6c17efb89f3816", "is_disabled": 0, "rental_uris": {"android": "https://dc.lft.to/lastmile_qr_scan", "ios": "https://dc.lft.to/lastmile_qr_scan"}, "fusion_lon": 0.0, "lat": 38.8606005, "bike_id": "a104382d2c81ffab7d6c17efb89f3816", "type": "electric_scooter", "is_reserved": 0, "lon": -76.98508783333334}, {"fusion_lat": 0.0, "name": "9f97fd1d894fab138e7f0cef33dbd0e5", "is_disabled": 0, "rental_uris": {"android": "https://dc.lft.to/lastmile_qr_scan", "ios": "https://dc.lft.to/lastmile_qr_scan"}, "fusion_lon": 0.0, "lat": 38.93524566666667, "bike_id": "9f97fd1d894fab138e7f0cef33dbd0e5", "type": "electric_scooter", "is_reserved": 0, "lon": -77.02369633333333}, {"fusion_lat": 0.0, "name": "04b082afc3dc7d36213ea5ff1616c42e", "is_disabled": 0, "rental_uris": {"android": "https://dc.lft.to/lastmile_qr_scan", "ios": "https://dc.lft.to/lastmile_qr_scan"}, "fusion_lon": 0.0, "lat": 38.9136465, "bike_id": "04b082afc3dc7d36213ea5ff1616c42e", "type": "electric_scooter", "is_reserved": 0, "lon": -77.04877933333333}, {"fusion_lat": 0.0, "name": "a29662ac5e86a23dabc4538efbe99777", "is_disabled": 0, "rental_uris": {"android": "https://dc.lft.to/lastmile_qr_scan", "ios": "https://dc.lft.to/lastmile_qr_scan"}, "fusion_lon": 0.0, "lat": 38.8986275, "bike_id": "a29662ac5e86a23dabc4538efbe99777", "type": "electric_scooter", "is_reserved": 0, "lon": -77.028246}, {"fusion_lat": 0.0, "name": "cf25c5dd2576b9c66713ee3dafeb6c44", "is_disabled": 0, "rental_uris": {"android": "https://dc.lft.to/lastmile_qr_scan", "ios": "https://dc.lft.to/lastmile_qr_scan"}, "fusion_lon": 0.0, "lat": 38.90453633333333, "bike_id": "cf25c5dd2576b9c66713ee3dafeb6c44", "type": "electric_scooter", "is_reserved": 0, "lon": -77.03370966666667}, {"fusion_lat": 0.0, "name": "7d9f933b2b79e5069d0dbd40161e906b", "is_disabled": 0, "rental_uris": {"android": "https://dc.lft.to/lastmile_qr_scan", "ios": "https://dc.lft.to/lastmile_qr_scan"}, "fusion_lon": 0.0, "lat": 38.905058833333335, "bike_id": "7d9f933b2b79e5069d0dbd40161e906b", "type": "electric_scooter", "is_reserved": 0, "lon": -77.06873083333333}, {"fusion_lat": 0.0, "name": "9b3533375ffb44038e0f3324a32df38c", "is_disabled": 0, "rental_uris": {"android": "https://dc.lft.to/lastmile_qr_scan", "ios": "https://dc.lft.to/lastmile_qr_scan"}, "fusion_lon": 0.0, "lat": 38.90793933333333, "bike_id": "9b3533375ffb44038e0f3324a32df38c", "type": "electric_scooter", "is_reserved": 0, "lon": -77.03824466666667}, {"fusion_lat": 0.0, "name": "1f7e1ed54b1e2a3108eab447b3835c07", "is_disabled": 0, "rental_uris": {"android": "https://dc.lft.to/lastmile_qr_scan", "ios": "https://dc.lft.to/lastmile_qr_scan"}, "fusion_lon": 0.0, "lat": 38.927432833333334, "bike_id": "1f7e1ed54b1e2a3108eab447b3835c07", "type": "electric_scooter", "is_reserved": 0, "lon": -77.03449366666666}, {"fusion_lat": 0.0, "name": "8c1968e7274467b19d89fc2e06a85cad", "is_disabled": 0, "rental_uris": {"android": "https://dc.lft.to/lastmile_qr_scan", "ios": "https://dc.lft.to/lastmile_qr_scan"}, "fusion_lon": 0.0, "lat": 38.8843545, "bike_id": "8c1968e7274467b19d89fc2e06a85cad", "type": "electric_scooter", "is_reserved": 0, "lon": -77.0256695}, {"fusion_lat": 0.0, "name": "8d661889b74691a684cacf3fd67605b0", "is_disabled": 0, "rental_uris": {"android": "https://dc.lft.to/lastmile_qr_scan", "ios": "https://dc.lft.to/lastmile_qr_scan"}, "fusion_lon": 0.0, "lat": 39.05632766666667, "bike_id": "8d661889b74691a684cacf3fd67605b0", "type": "electric_bike", "is_reserved": 0, "lon": -77.12528266666666}, {"fusion_lat": 0.0, "name": "df3090274ae4f9279720653b2c95cb1b", "is_disabled": 0, "rental_uris": {"android": "https://dc.lft.to/lastmile_qr_scan", "ios": "https://dc.lft.to/lastmile_qr_scan"}, "fusion_lon": 0.0, "lat": 38.92522966666667, "bike_id": "df3090274ae4f9279720653b2c95cb1b", "type": "electric_scooter", "is_reserved": 0, "lon": -77.02284333333333}, {"fusion_lat": 0.0, "name": "710bfe7155fa6ba9468c36bf99743ec4", "is_disabled": 0, "rental_uris": {"android": "https://dc.lft.to/lastmile_qr_scan", "ios": "https://dc.lft.to/lastmile_qr_scan"}, "fusion_lon": 0.0, "lat": 38.95372966666667, "bike_id": "710bfe7155fa6ba9468c36bf99743ec4", "type": "electric_scooter", "is_reserved": 0, "lon": -77.02556516666667}, {"fusion_lat": 0.0, "name": "48ad25e8fbe5e28e098fe0ce6833c9ae", "is_disabled": 0, "rental_uris": {"android": "https://dc.lft.to/lastmile_qr_scan", "ios": "https://dc.lft.to/lastmile_qr_scan"}, "fusion_lon": 0.0, "lat": 38.92288166666667, "bike_id": "48ad25e8fbe5e28e098fe0ce6833c9ae", "type": "electric_scooter", "is_reserved": 0, "lon": -76.99778083333334}, {"fusion_lat": 0.0, "name": "5e55e366337e03f59894625a5fb0ab1c", "is_disabled": 0, "rental_uris": {"android": "https://dc.lft.to/lastmile_qr_scan", "ios": "https://dc.lft.to/lastmile_qr_scan"}, "fusion_lon": 0.0, "lat": 38.946618666666666, "bike_id": "5e55e366337e03f59894625a5fb0ab1c", "type": "electric_bike", "is_reserved": 0, "lon": -77.00702866666667}, {"fusion_lat": 0.0, "name": "9779ed22af09952e4cbcaf70f6c67de3", "is_disabled": 0, "rental_uris": {"android": "https://dc.lft.to/lastmile_qr_scan", "ios": "https://dc.lft.to/lastmile_qr_scan"}, "fusion_lon": 0.0, "lat": 38.92970916666667, "bike_id": "9779ed22af09952e4cbcaf70f6c67de3", "type": "electric_scooter", "is_reserved": 0, "lon": -77.02796483333333}, {"fusion_lat": 0.0, "name": "9b33e1fdd5b352eaec671484eb39c872", "is_disabled": 0, "rental_uris": {"android": "https://dc.lft.to/lastmile_qr_scan", "ios": "https://dc.lft.to/lastmile_qr_scan"}, "fusion_lon": 0.0, "lat": 38.92250966666667, "bike_id": "9b33e1fdd5b352eaec671484eb39c872", "type": "electric_scooter", "is_reserved": 0, "lon": -77.02995016666667}, {"fusion_lat": 0.0, "name": "100ccf3a9b212d5010a0914565c3c83a", "is_disabled": 0, "rental_uris": {"android": "https://dc.lft.to/lastmile_qr_scan", "ios": "https://dc.lft.to/lastmile_qr_scan"}, "fusion_lon": 0.0, "lat": 38.897168, "bike_id": "100ccf3a9b212d5010a0914565c3c83a", "type": "electric_scooter", "is_reserved": 0, "lon": -77.00844833333333}, {"fusion_lat": 0.0, "name": "abcea7d66eafc53d3b7d7bb164a153f7", "is_disabled": 0, "rental_uris": {"android": "https://dc.lft.to/lastmile_qr_scan", "ios": "https://dc.lft.to/lastmile_qr_scan"}, "fusion_lon": 0.0, "lat": 38.88112133333333, "bike_id": "abcea7d66eafc53d3b7d7bb164a153f7", "type": "electric_scooter", "is_reserved": 0, "lon": -76.99856083333333}, {"fusion_lat": 0.0, "name": "e09e2e0b2313cba1157791f408551858", "is_disabled": 0, "rental_uris": {"android": "https://dc.lft.to/lastmile_qr_scan", "ios": "https://dc.lft.to/lastmile_qr_scan"}, "fusion_lon": 0.0, "lat": 38.87925833333333, "bike_id": "e09e2e0b2313cba1157791f408551858", "type": "electric_bike", "is_reserved": 0, "lon": -77.007523}, {"fusion_lat": 0.0, "name": "d4c8cfdda767da58fc718eb2ac9b9b2c", "is_disabled": 0, "rental_uris": {"android": "https://dc.lft.to/lastmile_qr_scan", "ios": "https://dc.lft.to/lastmile_qr_scan"}, "fusion_lon": 0.0, "lat": 38.862643166666665, "bike_id": "d4c8cfdda767da58fc718eb2ac9b9b2c", "type": "electric_bike", "is_reserved": 0, "lon": -76.983519}, {"fusion_lat": 0.0, "name": "c5a7c4d753c4b9eaaf00b87edc6c6ee2", "is_disabled": 0, "rental_uris": {"android": "https://dc.lft.to/lastmile_qr_scan", "ios": "https://dc.lft.to/lastmile_qr_scan"}, "fusion_lon": 0.0, "lat": 38.88615133333333, "bike_id": "c5a7c4d753c4b9eaaf00b87edc6c6ee2", "type": "electric_scooter", "is_reserved": 0, "lon": -77.020001}, {"fusion_lat": 0.0, "name": "f6c680fba537f1d6b192f510d5758b8e", "is_disabled": 0, "rental_uris": {"android": "https://dc.lft.to/lastmile_qr_scan", "ios": "https://dc.lft.to/lastmile_qr_scan"}, "fusion_lon": 0.0, "lat": 38.936793333333334, "bike_id": "f6c680fba537f1d6b192f510d5758b8e", "type": "electric_scooter", "is_reserved": 0, "lon": -77.03593566666666}, {"fusion_lat": 0.0, "name": "d1f377fe369a15b23d4d6688a841ea48", "is_disabled": 0, "rental_uris": {"android": "https://dc.lft.to/lastmile_qr_scan", "ios": "https://dc.lft.to/lastmile_qr_scan"}, "fusion_lon": 0.0, "lat": 38.88724533333333, "bike_id": "d1f377fe369a15b23d4d6688a841ea48", "type": "electric_scooter", "is_reserved": 0, "lon": -77.01331183333333}, {"fusion_lat": 0.0, "name": "28c922cf722a70c6d6ec37cb792e34bf", "is_disabled": 0, "rental_uris": {"android": "https://dc.lft.to/lastmile_qr_scan", "ios": "https://dc.lft.to/lastmile_qr_scan"}, "fusion_lon": 0.0, "lat": 38.9212945, "bike_id": "28c922cf722a70c6d6ec37cb792e34bf", "type": "electric_scooter", "is_reserved": 0, "lon": -77.03215283333333}, {"fusion_lat": 0.0, "name": "c8f6031cc1bb7daef3676e895885e7bc", "is_disabled": 0, "rental_uris": {"android": "https://dc.lft.to/lastmile_qr_scan", "ios": "https://dc.lft.to/lastmile_qr_scan"}, "fusion_lon": 0.0, "lat": 38.92488633333333, "bike_id": "c8f6031cc1bb7daef3676e895885e7bc", "type": "electric_scooter", "is_reserved": 0, "lon": -77.026464}, {"fusion_lat": 0.0, "name": "95268e778a16e70b76a4dc253270a031", "is_disabled": 0, "rental_uris": {"android": "https://dc.lft.to/lastmile_qr_scan", "ios": "https://dc.lft.to/lastmile_qr_scan"}, "fusion_lon": 0.0, "lat": 38.90386083333333, "bike_id": "95268e778a16e70b76a4dc253270a031", "type": "electric_scooter", "is_reserved": 0, "lon": -77.04824566666667}, {"fusion_lat": 0.0, "name": "f02f59a92f0096b0fbe1f08dc6159c49", "is_disabled": 0, "rental_uris": {"android": "https://dc.lft.to/lastmile_qr_scan", "ios": "https://dc.lft.to/lastmile_qr_scan"}, "fusion_lon": 0.0, "lat": 38.93259966666667, "bike_id": "f02f59a92f0096b0fbe1f08dc6159c49", "type": "electric_scooter", "is_reserved": 0, "lon": -77.03264883333334}, {"fusion_lat": 0.0, "name": "7d1cff407a251383d6937941eeae68a5", "is_disabled": 0, "rental_uris": {"android": "https://dc.lft.to/lastmile_qr_scan", "ios": "https://dc.lft.to/lastmile_qr_scan"}, "fusion_lon": 0.0, "lat": 38.9588275, "bike_id": "7d1cff407a251383d6937941eeae68a5", "type": "electric_scooter", "is_reserved": 0, "lon": -77.011673}, {"fusion_lat": 0.0, "name": "3ac34148d91bf6cd58759daae1e90a73", "is_disabled": 0, "rental_uris": {"android": "https://dc.lft.to/lastmile_qr_scan", "ios": "https://dc.lft.to/lastmile_qr_scan"}, "fusion_lon": 0.0, "lat": 38.876581333333334, "bike_id": "3ac34148d91bf6cd58759daae1e90a73", "type": "electric_scooter", "is_reserved": 0, "lon": -77.009186}, {"fusion_lat": 0.0, "name": "ae91749c276abbecd1827a355df61560", "is_disabled": 0, "rental_uris": {"android": "https://dc.lft.to/lastmile_qr_scan", "ios": "https://dc.lft.to/lastmile_qr_scan"}, "fusion_lon": 0.0, "lat": 38.918502833333335, "bike_id": "ae91749c276abbecd1827a355df61560", "type": "electric_scooter", "is_reserved": 0, "lon": -77.02445633333333}, {"fusion_lat": 0.0, "name": "d3a9411d6ac80f23813f66aa20ea0eb3", "is_disabled": 0, "rental_uris": {"android": "https://dc.lft.to/lastmile_qr_scan", "ios": "https://dc.lft.to/lastmile_qr_scan"}, "fusion_lon": 0.0, "lat": 38.88231316666667, "bike_id": "d3a9411d6ac80f23813f66aa20ea0eb3", "type": "electric_scooter", "is_reserved": 0, "lon": -77.02615766666666}, {"fusion_lat": 0.0, "name": "718060de5f4bb1a867ffaebc43efae22", "is_disabled": 0, "rental_uris": {"android": "https://dc.lft.to/lastmile_qr_scan", "ios": "https://dc.lft.to/lastmile_qr_scan"}, "fusion_lon": 0.0, "lat": 38.8791045, "bike_id": "718060de5f4bb1a867ffaebc43efae22", "type": "electric_scooter", "is_reserved": 0, "lon": -77.0087775}, {"fusion_lat": 0.0, "name": "cac5ae404263bd04267127db95a9153a", "is_disabled": 0, "rental_uris": {"android": "https://dc.lft.to/lastmile_qr_scan", "ios": "https://dc.lft.to/lastmile_qr_scan"}, "fusion_lon": 0.0, "lat": 38.924880333333334, "bike_id": "cac5ae404263bd04267127db95a9153a", "type": "electric_scooter", "is_reserved": 0, "lon": -77.02550816666667}, {"fusion_lat": 0.0, "name": "78323202bcd48414492992cfbdbeac7a", "is_disabled": 0, "rental_uris": {"android": "https://dc.lft.to/lastmile_qr_scan", "ios": "https://dc.lft.to/lastmile_qr_scan"}, "fusion_lon": 0.0, "lat": 38.8973165, "bike_id": "78323202bcd48414492992cfbdbeac7a", "type": "electric_scooter", "is_reserved": 0, "lon": -76.94702983333333}, {"fusion_lat": 0.0, "name": "9b70396f9717225c04052dd1f97f15c4", "is_disabled": 0, "rental_uris": {"android": "https://dc.lft.to/lastmile_qr_scan", "ios": "https://dc.lft.to/lastmile_qr_scan"}, "fusion_lon": 0.0, "lat": 38.9078995, "bike_id": "9b70396f9717225c04052dd1f97f15c4", "type": "electric_scooter", "is_reserved": 0, "lon": -77.01107933333333}, {"fusion_lat": 0.0, "name": "8749a8d05cac4b7802cbe25fd19063aa", "is_disabled": 0, "rental_uris": {"android": "https://dc.lft.to/lastmile_qr_scan", "ios": "https://dc.lft.to/lastmile_qr_scan"}, "fusion_lon": 0.0, "lat": 38.883989166666666, "bike_id": "8749a8d05cac4b7802cbe25fd19063aa", "type": "electric_bike", "is_reserved": 0, "lon": -76.96064066666666}, {"fusion_lat": 0.0, "name": "ffe3bd061c646a8f8fa179af8eb0f71b", "is_disabled": 0, "rental_uris": {"android": "https://dc.lft.to/lastmile_qr_scan", "ios": "https://dc.lft.to/lastmile_qr_scan"}, "fusion_lon": 0.0, "lat": 38.895499666666666, "bike_id": "ffe3bd061c646a8f8fa179af8eb0f71b", "type": "electric_scooter", "is_reserved": 0, "lon": -77.0272725}, {"fusion_lat": 0.0, "name": "e46309a8a6501a89ec4b1a1b802a5c51", "is_disabled": 0, "rental_uris": {"android": "https://dc.lft.to/lastmile_qr_scan", "ios": "https://dc.lft.to/lastmile_qr_scan"}, "fusion_lon": 0.0, "lat": 38.897814, "bike_id": "e46309a8a6501a89ec4b1a1b802a5c51", "type": "electric_scooter", "is_reserved": 0, "lon": -77.01083516666667}, {"fusion_lat": 0.0, "name": "fa6fc0a15356501e7d5e57a560a274f8", "is_disabled": 0, "rental_uris": {"android": "https://dc.lft.to/lastmile_qr_scan", "ios": "https://dc.lft.to/lastmile_qr_scan"}, "fusion_lon": 0.0, "lat": 38.885032833333334, "bike_id": "fa6fc0a15356501e7d5e57a560a274f8", "type": "electric_scooter", "is_reserved": 0, "lon": -77.00697783333334}, {"fusion_lat": 0.0, "name": "04dd8f330d0cd97d755dc5748f50093b", "is_disabled": 0, "rental_uris": {"android": "https://dc.lft.to/lastmile_qr_scan", "ios": "https://dc.lft.to/lastmile_qr_scan"}, "fusion_lon": 0.0, "lat": 38.925835666666664, "bike_id": "04dd8f330d0cd97d755dc5748f50093b", "type": "electric_scooter", "is_reserved": 0, "lon": -77.03240516666666}, {"fusion_lat": 0.0, "name": "36b11c27ff170350f381e75333dc106d", "is_disabled": 0, "rental_uris": {"android": "https://dc.lft.to/lastmile_qr_scan", "ios": "https://dc.lft.to/lastmile_qr_scan"}, "fusion_lon": 0.0, "lat": 38.923444, "bike_id": "36b11c27ff170350f381e75333dc106d", "type": "electric_scooter", "is_reserved": 0, "lon": -77.02432033333334}, {"fusion_lat": 0.0, "name": "b6977bad4073554ccf13d3c8e41c4f07", "is_disabled": 0, "rental_uris": {"android": "https://dc.lft.to/lastmile_qr_scan", "ios": "https://dc.lft.to/lastmile_qr_scan"}, "fusion_lon": 0.0, "lat": 38.865573499999996, "bike_id": "b6977bad4073554ccf13d3c8e41c4f07", "type": "electric_scooter", "is_reserved": 0, "lon": -76.98350266666667}, {"fusion_lat": 0.0, "name": "b09bf9676fedc8940c8c4623dbefc876", "is_disabled": 0, "rental_uris": {"android": "https://dc.lft.to/lastmile_qr_scan", "ios": "https://dc.lft.to/lastmile_qr_scan"}, "fusion_lon": 0.0, "lat": 38.883162166666665, "bike_id": "b09bf9676fedc8940c8c4623dbefc876", "type": "electric_scooter", "is_reserved": 0, "lon": -77.01733233333333}, {"fusion_lat": 0.0, "name": "6c07efd174d4d7ad8e55b078bf82dc9f", "is_disabled": 0, "rental_uris": {"android": "https://dc.lft.to/lastmile_qr_scan", "ios": "https://dc.lft.to/lastmile_qr_scan"}, "fusion_lon": 0.0, "lat": 38.88736333333333, "bike_id": "6c07efd174d4d7ad8e55b078bf82dc9f", "type": "electric_scooter", "is_reserved": 0, "lon": -77.01534816666667}, {"fusion_lat": 0.0, "name": "cb73f60cd2124a606f92870907e75338", "is_disabled": 0, "rental_uris": {"android": "https://dc.lft.to/lastmile_qr_scan", "ios": "https://dc.lft.to/lastmile_qr_scan"}, "fusion_lon": 0.0, "lat": 38.920051666666666, "bike_id": "cb73f60cd2124a606f92870907e75338", "type": "electric_scooter", "is_reserved": 0, "lon": -76.99573083333334}, {"fusion_lat": 0.0, "name": "e39619ff40a386e965bc741c557e2d52", "is_disabled": 0, "rental_uris": {"android": "https://dc.lft.to/lastmile_qr_scan", "ios": "https://dc.lft.to/lastmile_qr_scan"}, "fusion_lon": 0.0, "lat": 38.935275, "bike_id": "e39619ff40a386e965bc741c557e2d52", "type": "electric_scooter", "is_reserved": 0, "lon": -77.0726185}, {"fusion_lat": 0.0, "name": "6d9522a8b38fa4880c6a8c58860f9a92", "is_disabled": 0, "rental_uris": {"android": "https://dc.lft.to/lastmile_qr_scan", "ios": "https://dc.lft.to/lastmile_qr_scan"}, "fusion_lon": 0.0, "lat": 38.86243483333333, "bike_id": "6d9522a8b38fa4880c6a8c58860f9a92", "type": "electric_scooter", "is_reserved": 0, "lon": -76.9949765}, {"fusion_lat": 0.0, "name": "dbfb4f1dadedff47519f552770b84960", "is_disabled": 0, "rental_uris": {"android": "https://dc.lft.to/lastmile_qr_scan", "ios": "https://dc.lft.to/lastmile_qr_scan"}, "fusion_lon": 0.0, "lat": 38.920631, "bike_id": "dbfb4f1dadedff47519f552770b84960", "type": "electric_scooter", "is_reserved": 0, "lon": -77.02526966666667}, {"fusion_lat": 0.0, "name": "f7448f34520280a6436248eb528e0e19", "is_disabled": 0, "rental_uris": {"android": "https://dc.lft.to/lastmile_qr_scan", "ios": "https://dc.lft.to/lastmile_qr_scan"}, "fusion_lon": 0.0, "lat": 38.939927833333336, "bike_id": "f7448f34520280a6436248eb528e0e19", "type": "electric_bike", "is_reserved": 0, "lon": -77.03579566666667}, {"fusion_lat": 0.0, "name": "a1908501aad1a803ef611902bf27a933", "is_disabled": 0, "rental_uris": {"android": "https://dc.lft.to/lastmile_qr_scan", "ios": "https://dc.lft.to/lastmile_qr_scan"}, "fusion_lon": 0.0, "lat": 38.896229, "bike_id": "a1908501aad1a803ef611902bf27a933", "type": "electric_scooter", "is_reserved": 0, "lon": -77.00919383333333}, {"fusion_lat": 0.0, "name": "84bca427af803100ea333d5ad4fb56cf", "is_disabled": 0, "rental_uris": {"android": "https://dc.lft.to/lastmile_qr_scan", "ios": "https://dc.lft.to/lastmile_qr_scan"}, "fusion_lon": 0.0, "lat": 38.89765666666667, "bike_id": "84bca427af803100ea333d5ad4fb56cf", "type": "electric_scooter", "is_reserved": 0, "lon": -77.00896683333333}, {"fusion_lat": 0.0, "name": "401a35c665fd5793dbadc3882f7ed499", "is_disabled": 0, "rental_uris": {"android": "https://dc.lft.to/lastmile_qr_scan", "ios": "https://dc.lft.to/lastmile_qr_scan"}, "fusion_lon": 0.0, "lat": 38.89873216666667, "bike_id": "401a35c665fd5793dbadc3882f7ed499", "type": "electric_scooter", "is_reserved": 0, "lon": -76.93186883333334}, {"fusion_lat": 0.0, "name": "e2a41cf107ff82740df0b59b1c29589c", "is_disabled": 0, "rental_uris": {"android": "https://dc.lft.to/lastmile_qr_scan", "ios": "https://dc.lft.to/lastmile_qr_scan"}, "fusion_lon": 0.0, "lat": 38.8832355, "bike_id": "e2a41cf107ff82740df0b59b1c29589c", "type": "electric_scooter", "is_reserved": 0, "lon": -77.01760083333333}, {"fusion_lat": 0.0, "name": "7c61a6e6ef7f397faa6de8856f4f528d", "is_disabled": 0, "rental_uris": {"android": "https://dc.lft.to/lastmile_qr_scan", "ios": "https://dc.lft.to/lastmile_qr_scan"}, "fusion_lon": 0.0, "lat": 38.919088, "bike_id": "7c61a6e6ef7f397faa6de8856f4f528d", "type": "electric_scooter", "is_reserved": 0, "lon": -77.04107266666666}, {"fusion_lat": 0.0, "name": "bbc17620e218b6e04f0af74676dca3bd", "is_disabled": 0, "rental_uris": {"android": "https://dc.lft.to/lastmile_qr_scan", "ios": "https://dc.lft.to/lastmile_qr_scan"}, "fusion_lon": 0.0, "lat": 38.8717965, "bike_id": "bbc17620e218b6e04f0af74676dca3bd", "type": "electric_scooter", "is_reserved": 0, "lon": -77.00616933333333}, {"fusion_lat": 0.0, "name": "8250e6a56595083e89c6862f0e7237ff", "is_disabled": 0, "rental_uris": {"android": "https://dc.lft.to/lastmile_qr_scan", "ios": "https://dc.lft.to/lastmile_qr_scan"}, "fusion_lon": 0.0, "lat": 38.905749, "bike_id": "8250e6a56595083e89c6862f0e7237ff", "type": "electric_scooter", "is_reserved": 0, "lon": -77.007145}, {"fusion_lat": 0.0, "name": "ded9c8f1cebd9a6191e5be8f89995352", "is_disabled": 0, "rental_uris": {"android": "https://dc.lft.to/lastmile_qr_scan", "ios": "https://dc.lft.to/lastmile_qr_scan"}, "fusion_lon": 0.0, "lat": 39.0525365, "bike_id": "ded9c8f1cebd9a6191e5be8f89995352", "type": "electric_bike", "is_reserved": 0, "lon": -77.08066683333334}, {"fusion_lat": 0.0, "name": "307d67573fa2eeb190cf3ac8eec2d66d", "is_disabled": 0, "rental_uris": {"android": "https://dc.lft.to/lastmile_qr_scan", "ios": "https://dc.lft.to/lastmile_qr_scan"}, "fusion_lon": 0.0, "lat": 38.8922425, "bike_id": "307d67573fa2eeb190cf3ac8eec2d66d", "type": "electric_scooter", "is_reserved": 0, "lon": -77.02108533333333}, {"fusion_lat": 0.0, "name": "ce39e8bbf097e8f4b93ebd452c19ad31", "is_disabled": 0, "rental_uris": {"android": "https://dc.lft.to/lastmile_qr_scan", "ios": "https://dc.lft.to/lastmile_qr_scan"}, "fusion_lon": 0.0, "lat": 38.897874333333334, "bike_id": "ce39e8bbf097e8f4b93ebd452c19ad31", "type": "electric_scooter", "is_reserved": 0, "lon": -77.01201433333334}, {"fusion_lat": 0.0, "name": "a827e7603dfaea237df0337057faf50b", "is_disabled": 0, "rental_uris": {"android": "https://dc.lft.to/lastmile_qr_scan", "ios": "https://dc.lft.to/lastmile_qr_scan"}, "fusion_lon": 0.0, "lat": 38.89743166666667, "bike_id": "a827e7603dfaea237df0337057faf50b", "type": "electric_scooter", "is_reserved": 0, "lon": -77.04917333333333}, {"fusion_lat": 0.0, "name": "ce725a4ca8af6aac5c09c613bfe51571", "is_disabled": 0, "rental_uris": {"android": "https://dc.lft.to/lastmile_qr_scan", "ios": "https://dc.lft.to/lastmile_qr_scan"}, "fusion_lon": 0.0, "lat": 38.903311333333335, "bike_id": "ce725a4ca8af6aac5c09c613bfe51571", "type": "electric_scooter", "is_reserved": 0, "lon": -77.04505816666666}, {"fusion_lat": 0.0, "name": "2f8554760e14422e450272c69e11560c", "is_disabled": 0, "rental_uris": {"android": "https://dc.lft.to/lastmile_qr_scan", "ios": "https://dc.lft.to/lastmile_qr_scan"}, "fusion_lon": 0.0, "lat": 38.91287, "bike_id": "2f8554760e14422e450272c69e11560c", "type": "electric_scooter", "is_reserved": 0, "lon": -77.023014}, {"fusion_lat": 0.0, "name": "51993a68e96a78b54c74fdfd92e25f21", "is_disabled": 0, "rental_uris": {"android": "https://dc.lft.to/lastmile_qr_scan", "ios": "https://dc.lft.to/lastmile_qr_scan"}, "fusion_lon": 0.0, "lat": 38.899183, "bike_id": "51993a68e96a78b54c74fdfd92e25f21", "type": "electric_scooter", "is_reserved": 0, "lon": -76.985373}, {"fusion_lat": 0.0, "name": "cf5f613e3cdefe5fd6a2c5b6feab174d", "is_disabled": 0, "rental_uris": {"android": "https://dc.lft.to/lastmile_qr_scan", "ios": "https://dc.lft.to/lastmile_qr_scan"}, "fusion_lon": 0.0, "lat": 38.86054683333333, "bike_id": "cf5f613e3cdefe5fd6a2c5b6feab174d", "type": "electric_scooter", "is_reserved": 0, "lon": -76.971283}, {"fusion_lat": 0.0, "name": "ee42991ff547761b56ba13d932a0fae9", "is_disabled": 0, "rental_uris": {"android": "https://dc.lft.to/lastmile_qr_scan", "ios": "https://dc.lft.to/lastmile_qr_scan"}, "fusion_lon": 0.0, "lat": 38.914157, "bike_id": "ee42991ff547761b56ba13d932a0fae9", "type": "electric_scooter", "is_reserved": 0, "lon": -77.02211966666667}, {"fusion_lat": 0.0, "name": "7aca06ea8d82b62aabbc505efda29e75", "is_disabled": 0, "rental_uris": {"android": "https://dc.lft.to/lastmile_qr_scan", "ios": "https://dc.lft.to/lastmile_qr_scan"}, "fusion_lon": 0.0, "lat": 38.91334, "bike_id": "7aca06ea8d82b62aabbc505efda29e75", "type": "electric_scooter", "is_reserved": 0, "lon": -77.0427015}, {"fusion_lat": 0.0, "name": "54cf631cd9edbd6e605d5d262c839e42", "is_disabled": 0, "rental_uris": {"android": "https://dc.lft.to/lastmile_qr_scan", "ios": "https://dc.lft.to/lastmile_qr_scan"}, "fusion_lon": 0.0, "lat": 38.95284866666667, "bike_id": "54cf631cd9edbd6e605d5d262c839e42", "type": "electric_scooter", "is_reserved": 0, "lon": -77.06864666666667}, {"fusion_lat": 0.0, "name": "1b0ab8ea84d35d6eaed99f538cb7b384", "is_disabled": 0, "rental_uris": {"android": "https://dc.lft.to/lastmile_qr_scan", "ios": "https://dc.lft.to/lastmile_qr_scan"}, "fusion_lon": 0.0, "lat": 38.92895, "bike_id": "1b0ab8ea84d35d6eaed99f538cb7b384", "type": "electric_bike", "is_reserved": 0, "lon": -77.231788}, {"fusion_lat": 0.0, "name": "52a296551cb3edf9eed8ce6553d016d7", "is_disabled": 0, "rental_uris": {"android": "https://dc.lft.to/lastmile_qr_scan", "ios": "https://dc.lft.to/lastmile_qr_scan"}, "fusion_lon": 0.0, "lat": 38.90771, "bike_id": "52a296551cb3edf9eed8ce6553d016d7", "type": "electric_scooter", "is_reserved": 0, "lon": -77.03860883333333}, {"fusion_lat": 0.0, "name": "c8ba0b4788fa8d6230a2c320ae3a2ecf", "is_disabled": 0, "rental_uris": {"android": "https://dc.lft.to/lastmile_qr_scan", "ios": "https://dc.lft.to/lastmile_qr_scan"}, "fusion_lon": 0.0, "lat": 38.92376633333333, "bike_id": "c8ba0b4788fa8d6230a2c320ae3a2ecf", "type": "electric_scooter", "is_reserved": 0, "lon": -77.02135116666666}, {"fusion_lat": 0.0, "name": "01d2648170f3bae746b26eb4bd95d72a", "is_disabled": 0, "rental_uris": {"android": "https://dc.lft.to/lastmile_qr_scan", "ios": "https://dc.lft.to/lastmile_qr_scan"}, "fusion_lon": 0.0, "lat": 39.003797, "bike_id": "01d2648170f3bae746b26eb4bd95d72a", "type": "electric_bike", "is_reserved": 0, "lon": -77.01282766666667}, {"fusion_lat": 0.0, "name": "af3614b6f6e29c42d588aa800552df3b", "is_disabled": 0, "rental_uris": {"android": "https://dc.lft.to/lastmile_qr_scan", "ios": "https://dc.lft.to/lastmile_qr_scan"}, "fusion_lon": 0.0, "lat": 38.90795266666667, "bike_id": "af3614b6f6e29c42d588aa800552df3b", "type": "electric_scooter", "is_reserved": 0, "lon": -77.03443}, {"fusion_lat": 0.0, "name": "5b238ecb14d65b352108e5146082afdf", "is_disabled": 0, "rental_uris": {"android": "https://dc.lft.to/lastmile_qr_scan", "ios": "https://dc.lft.to/lastmile_qr_scan"}, "fusion_lon": 0.0, "lat": 38.929724, "bike_id": "5b238ecb14d65b352108e5146082afdf", "type": "electric_scooter", "is_reserved": 0, "lon": -77.02791166666667}, {"fusion_lat": 0.0, "name": "eeb81d2dab2ed1e802cfa9089dbbe370", "is_disabled": 0, "rental_uris": {"android": "https://dc.lft.to/lastmile_qr_scan", "ios": "https://dc.lft.to/lastmile_qr_scan"}, "fusion_lon": 0.0, "lat": 38.905778166666664, "bike_id": "eeb81d2dab2ed1e802cfa9089dbbe370", "type": "electric_scooter", "is_reserved": 0, "lon": -77.02209266666667}, {"fusion_lat": 0.0, "name": "27a3ddbda190ae514a8a3e3ebc7f1ca1", "is_disabled": 0, "rental_uris": {"android": "https://dc.lft.to/lastmile_qr_scan", "ios": "https://dc.lft.to/lastmile_qr_scan"}, "fusion_lon": 0.0, "lat": 38.88478883333333, "bike_id": "27a3ddbda190ae514a8a3e3ebc7f1ca1", "type": "electric_scooter", "is_reserved": 0, "lon": -77.01530333333334}, {"fusion_lat": 0.0, "name": "1da6fa2b485feb28674a1c070f5b4186", "is_disabled": 0, "rental_uris": {"android": "https://dc.lft.to/lastmile_qr_scan", "ios": "https://dc.lft.to/lastmile_qr_scan"}, "fusion_lon": 0.0, "lat": 38.931935833333334, "bike_id": "1da6fa2b485feb28674a1c070f5b4186", "type": "electric_scooter", "is_reserved": 0, "lon": -77.07324}, {"fusion_lat": 0.0, "name": "9105d42ce5e57077035dbc4ebf32b4e7", "is_disabled": 0, "rental_uris": {"android": "https://dc.lft.to/lastmile_qr_scan", "ios": "https://dc.lft.to/lastmile_qr_scan"}, "fusion_lon": 0.0, "lat": 38.884922333333336, "bike_id": "9105d42ce5e57077035dbc4ebf32b4e7", "type": "electric_scooter", "is_reserved": 0, "lon": -77.01086916666667}, {"fusion_lat": 0.0, "name": "4ad80cc45bba28e0dbbadc7e16b0f54b", "is_disabled": 0, "rental_uris": {"android": "https://dc.lft.to/lastmile_qr_scan", "ios": "https://dc.lft.to/lastmile_qr_scan"}, "fusion_lon": 0.0, "lat": 38.8833395, "bike_id": "4ad80cc45bba28e0dbbadc7e16b0f54b", "type": "electric_scooter", "is_reserved": 0, "lon": -77.01660033333333}, {"fusion_lat": 0.0, "name": "0b5ecf4c5701b38e9d7a5d4deda44501", "is_disabled": 0, "rental_uris": {"android": "https://dc.lft.to/lastmile_qr_scan", "ios": "https://dc.lft.to/lastmile_qr_scan"}, "fusion_lon": 0.0, "lat": 38.9198705, "bike_id": "0b5ecf4c5701b38e9d7a5d4deda44501", "type": "electric_scooter", "is_reserved": 0, "lon": -77.04162133333334}, {"fusion_lat": 0.0, "name": "ee77423a55bc03f754ce3b50f0217e89", "is_disabled": 0, "rental_uris": {"android": "https://dc.lft.to/lastmile_qr_scan", "ios": "https://dc.lft.to/lastmile_qr_scan"}, "fusion_lon": 0.0, "lat": 38.9001485, "bike_id": "ee77423a55bc03f754ce3b50f0217e89", "type": "electric_scooter", "is_reserved": 0, "lon": -77.0319125}, {"fusion_lat": 0.0, "name": "ef9c805d36fe8d4a724d1412ef53c48c", "is_disabled": 0, "rental_uris": {"android": "https://dc.lft.to/lastmile_qr_scan", "ios": "https://dc.lft.to/lastmile_qr_scan"}, "fusion_lon": 0.0, "lat": 38.93539633333333, "bike_id": "ef9c805d36fe8d4a724d1412ef53c48c", "type": "electric_scooter", "is_reserved": 0, "lon": -77.032635}, {"fusion_lat": 0.0, "name": "72af0e82c35016fbe308a8ba8bdf517f", "is_disabled": 0, "rental_uris": {"android": "https://dc.lft.to/lastmile_qr_scan", "ios": "https://dc.lft.to/lastmile_qr_scan"}, "fusion_lon": 0.0, "lat": 38.903802166666665, "bike_id": "72af0e82c35016fbe308a8ba8bdf517f", "type": "electric_scooter", "is_reserved": 0, "lon": -77.06715966666667}, {"fusion_lat": 0.0, "name": "24df5d223ede64dcf57e4f3d92ccc2fe", "is_disabled": 0, "rental_uris": {"android": "https://dc.lft.to/lastmile_qr_scan", "ios": "https://dc.lft.to/lastmile_qr_scan"}, "fusion_lon": 0.0, "lat": 38.92249416666667, "bike_id": "24df5d223ede64dcf57e4f3d92ccc2fe", "type": "electric_scooter", "is_reserved": 0, "lon": -77.08077183333333}, {"fusion_lat": 0.0, "name": "b9fab4e8b3614bf1f075b50f2813576a", "is_disabled": 0, "rental_uris": {"android": "https://dc.lft.to/lastmile_qr_scan", "ios": "https://dc.lft.to/lastmile_qr_scan"}, "fusion_lon": 0.0, "lat": 38.91560166666667, "bike_id": "b9fab4e8b3614bf1f075b50f2813576a", "type": "electric_scooter", "is_reserved": 0, "lon": -77.041128}, {"fusion_lat": 0.0, "name": "b8d6d005d388806f28df745989047276", "is_disabled": 0, "rental_uris": {"android": "https://dc.lft.to/lastmile_qr_scan", "ios": "https://dc.lft.to/lastmile_qr_scan"}, "fusion_lon": 0.0, "lat": 38.81330883333333, "bike_id": "b8d6d005d388806f28df745989047276", "type": "electric_bike", "is_reserved": 0, "lon": -77.050922}, {"fusion_lat": 0.0, "name": "e2a3ae2b090661f9520d4b0938584988", "is_disabled": 0, "rental_uris": {"android": "https://dc.lft.to/lastmile_qr_scan", "ios": "https://dc.lft.to/lastmile_qr_scan"}, "fusion_lon": 0.0, "lat": 38.896425, "bike_id": "e2a3ae2b090661f9520d4b0938584988", "type": "electric_scooter", "is_reserved": 0, "lon": -77.04999433333333}, {"fusion_lat": 0.0, "name": "721ac9d0f2d4fc785783921c79ac89de", "is_disabled": 0, "rental_uris": {"android": "https://dc.lft.to/lastmile_qr_scan", "ios": "https://dc.lft.to/lastmile_qr_scan"}, "fusion_lon": 0.0, "lat": 38.896737333333334, "bike_id": "721ac9d0f2d4fc785783921c79ac89de", "type": "electric_scooter", "is_reserved": 0, "lon": -77.00516883333333}, {"fusion_lat": 0.0, "name": "fd68cce2d26f6c5dbbb1544f81661c7a", "is_disabled": 0, "rental_uris": {"android": "https://dc.lft.to/lastmile_qr_scan", "ios": "https://dc.lft.to/lastmile_qr_scan"}, "fusion_lon": 0.0, "lat": 38.949646666666666, "bike_id": "fd68cce2d26f6c5dbbb1544f81661c7a", "type": "electric_scooter", "is_reserved": 0, "lon": -77.07523016666667}, {"fusion_lat": 0.0, "name": "93e9cb305de602900325f8842e55cc2e", "is_disabled": 0, "rental_uris": {"android": "https://dc.lft.to/lastmile_qr_scan", "ios": "https://dc.lft.to/lastmile_qr_scan"}, "fusion_lon": 0.0, "lat": 38.958945666666665, "bike_id": "93e9cb305de602900325f8842e55cc2e", "type": "electric_scooter", "is_reserved": 0, "lon": -77.0278105}, {"fusion_lat": 0.0, "name": "f7e6a95e4bffadfeff4578870c8b2708", "is_disabled": 0, "rental_uris": {"android": "https://dc.lft.to/lastmile_qr_scan", "ios": "https://dc.lft.to/lastmile_qr_scan"}, "fusion_lon": 0.0, "lat": 38.90517033333333, "bike_id": "f7e6a95e4bffadfeff4578870c8b2708", "type": "electric_scooter", "is_reserved": 0, "lon": -77.034862}, {"fusion_lat": 0.0, "name": "2767163f8662f53068877caab8fac7c2", "is_disabled": 0, "rental_uris": {"android": "https://dc.lft.to/lastmile_qr_scan", "ios": "https://dc.lft.to/lastmile_qr_scan"}, "fusion_lon": 0.0, "lat": 38.883913, "bike_id": "2767163f8662f53068877caab8fac7c2", "type": "electric_scooter", "is_reserved": 0, "lon": -76.93049833333333}, {"fusion_lat": 0.0, "name": "1be54fc4fe0cf2bf545d0289443c49ea", "is_disabled": 0, "rental_uris": {"android": "https://dc.lft.to/lastmile_qr_scan", "ios": "https://dc.lft.to/lastmile_qr_scan"}, "fusion_lon": 0.0, "lat": 38.8001515, "bike_id": "1be54fc4fe0cf2bf545d0289443c49ea", "type": "electric_bike", "is_reserved": 0, "lon": -77.05483383333333}, {"fusion_lat": 0.0, "name": "0631424a118dbd02699ba75213f6e442", "is_disabled": 0, "rental_uris": {"android": "https://dc.lft.to/lastmile_qr_scan", "ios": "https://dc.lft.to/lastmile_qr_scan"}, "fusion_lon": 0.0, "lat": 38.876969, "bike_id": "0631424a118dbd02699ba75213f6e442", "type": "electric_scooter", "is_reserved": 0, "lon": -77.01767716666667}, {"fusion_lat": 0.0, "name": "d734abdb4e1f6474d064d72f6f09c224", "is_disabled": 0, "rental_uris": {"android": "https://dc.lft.to/lastmile_qr_scan", "ios": "https://dc.lft.to/lastmile_qr_scan"}, "fusion_lon": 0.0, "lat": 38.9319575, "bike_id": "d734abdb4e1f6474d064d72f6f09c224", "type": "electric_scooter", "is_reserved": 0, "lon": -77.03754}, {"fusion_lat": 0.0, "name": "1412aca750ee9162daeecec9054c4bfb", "is_disabled": 0, "rental_uris": {"android": "https://dc.lft.to/lastmile_qr_scan", "ios": "https://dc.lft.to/lastmile_qr_scan"}, "fusion_lon": 0.0, "lat": 38.905878666666666, "bike_id": "1412aca750ee9162daeecec9054c4bfb", "type": "electric_scooter", "is_reserved": 0, "lon": -77.04151133333333}, {"fusion_lat": 0.0, "name": "6a10ffce565c09f25e2b208c553b4c4b", "is_disabled": 0, "rental_uris": {"android": "https://dc.lft.to/lastmile_qr_scan", "ios": "https://dc.lft.to/lastmile_qr_scan"}, "fusion_lon": 0.0, "lat": 38.909471333333336, "bike_id": "6a10ffce565c09f25e2b208c553b4c4b", "type": "electric_scooter", "is_reserved": 0, "lon": -77.031821},