{"data": {"bikes": [{"lat": 38.92300866666667, "is_disabled": 0, "type": "electric_scooter", "lon": -77.04145133333333, "bike_id": "d5a3c938e092823da48d912946730a53", "fusion_lat": 0.0, "name": "d5a3c938e092823da48d912946730a53", "is_reserved": 0, "rental_uris": {"android": "https://dc.lft.to/lastmile_qr_scan", "ios": "https://dc.lft.to/lastmile_qr_scan"}, "fusion_lon": 0.0}, {"lat": 38.92322816666667, "is_disabled": 0, "type": "electric_scooter", "lon": -77.03964116666667, "bike_id": "ff63c2c77e4cbb15788c75fd671e3674", "fusion_lat": 0.0, "name": "ff63c2c77e4cbb15788c75fd671e3674", "is_reserved": 0, "rental_uris": {"android": "https://dc.lft.to/lastmile_qr_scan", "ios": "https://dc.lft.to/lastmile_qr_scan"}, "fusion_lon": 0.0}, {"lat": 38.8665395, "is_disabled": 0, "type": "electric_scooter", "lon": -76.98887383333333, "bike_id": "7f2070af681ee37c4153aefe0f99ee7a", "fusion_lat": 0.0, "name": "7f2070af681ee37c4153aefe0f99ee7a", "is_reserved": 0, "rental_uris": {"android": "https://dc.lft.to/lastmile_qr_scan", "ios": "https://dc.lft.to/lastmile_qr_scan"}, "fusion_lon": 0.0}, {"lat": 38.917118, "is_disabled": 0, "type": "electric_scooter", "lon": -77.0321585, "bike_id": "62599bee142164316a9d33c380879ff3", "fusion_lat": 0.0, "name": "62599bee142164316a9d33c380879ff3", "is_reserved": 0, "rental_uris": {"android": "https://dc.lft.to/lastmile_qr_scan", "ios": "https://dc.lft.to/lastmile_qr_scan"}, "fusion_lon": 0.0}, {"lat": 38.92488433333333, "is_disabled": 0, "type": "electric_scooter", "lon": -77.05216183333333, "bike_id": "564cec2c40e5e22d6cc267e770e7c9d0", "fusion_lat": 0.0, "name": "564cec2c40e5e22d6cc267e770e7c9d0", "is_reserved": 0, "rental_uris": {"android": "https://dc.lft.to/lastmile_qr_scan", "ios": "https://dc.lft.to/lastmile_qr_scan"}, "fusion_lon": 0.0}, {"lat": 38.90570133333333, "is_disabled": 0, "type": "electric_scooter", "lon": -76.98873416666666, "bike_id": "639ab652ab94c5dec24eeee59d937ef4", "fusion_lat": 0.0, "name": "639ab652ab94c5dec24eeee59d937ef4", "is_reserved": 0, "rental_uris": {"android": "https://dc.lft.to/lastmile_qr_scan", "ios": "https://dc.lft.to/lastmile_qr_scan"}, "fusion_lon": 0.0}, {"lat": 38.9116955, "is_disabled": 0, "type": "electric_scooter", "lon": -77.038422, "bike_id": "8b472cd0c30752d45455f5d417b72c61", "fusion_lat": 0.0, "name": "8b472cd0c30752d45455f5d417b72c61", "is_reserved": 0, "rental_uris": {"android": "https://dc.lft.to/lastmile_qr_scan", "ios": "https://dc.lft.to/lastmile_qr_scan"}, "fusion_lon": 0.0}, {"lat": 38.8991905, "is_disabled": 0, "type": "electric_scooter", "lon": -77.021787, "bike_id": "16251bbc65ba2f118bf42a212e81e64a", "fusion_lat": 0.0, "name": "16251bbc65ba2f118bf42a212e81e64a", "is_reserved": 0, "rental_uris": {"android": "https://dc.lft.to/lastmile_qr_scan", "ios": "https://dc.lft.to/lastmile_qr_scan"}, "fusion_lon": 0.0}, {"lat": 38.933499166666664, "is_disabled": 0, "type": "electric_scooter", "lon": -77.05866733333333, "bike_id": "e352468204aaa4225b736ad48c2ff8dd", "fusion_lat": 0.0, "name": "e352468204aaa4225b736ad48c2ff8dd", "is_reserved": 0, "rental_uris": {"android": "https://dc.lft.to/lastmile_qr_scan", "ios": "https://dc.lft.to/lastmile_qr_scan"}, "fusion_lon": 0.0}, {"lat": 38.897817, "is_disabled": 0, "type": "electric_scooter", "lon": -77.05135333333334, "bike_id": "bf6e23c5e30fc13c5f0cd4e8cfbc527d", "fusion_lat": 0.0, "name": "bf6e23c5e30fc13c5f0cd4e8cfbc527d", "is_reserved": 0, "rental_uris": {"android": "https://dc.lft.to/lastmile_qr_scan", "ios": "https://dc.lft.to/lastmile_qr_scan"}, "fusion_lon": 0.0}, {"lat": 38.8970725, "is_disabled": 0, "type": "electric_scooter", "lon": -77.007287, "bike_id": "dfb3a1db89f61e467ee04fd24673fcd7", "fusion_lat": 0.0, "name": "dfb3a1db89f61e467ee04fd24673fcd7", "is_reserved": 0, "rental_uris": {"android": "https://dc.lft.to/lastmile_qr_scan", "ios": "https://dc.lft.to/lastmile_qr_scan"}, "fusion_lon": 0.0}, {"lat": 38.915538, "is_disabled": 0, "type": "electric_scooter", "lon": -77.03832166666666, "bike_id": "3d148252efe604db21dc530797988094", "fusion_lat": 0.0, "name": "3d148252efe604db21dc530797988094", "is_reserved": 0, "rental_uris": {"android": "https://dc.lft.to/lastmile_qr_scan", "ios": "https://dc.lft.to/lastmile_qr_scan"}, "fusion_lon": 0.0}, {"lat": 38.917160333333335, "is_disabled": 0, "type": "electric_scooter", "lon": -77.03859316666667, "bike_id": "73efa15a3e43269aac32b2ce9a76220a", "fusion_lat": 0.0, "name": "73efa15a3e43269aac32b2ce9a76220a", "is_reserved": 0, "rental_uris": {"android": "https://dc.lft.to/lastmile_qr_scan", "ios": "https://dc.lft.to/lastmile_qr_scan"}, "fusion_lon": 0.0}, {"lat": 38.91735516666667, "is_disabled": 0, "type": "electric_scooter", "lon": -77.03660333333333, "bike_id": "1a60ea50ead639d4acda8693f2fe7ef4", "fusion_lat": 0.0, "name": "1a60ea50ead639d4acda8693f2fe7ef4", "is_reserved": 0, "rental_uris": {"android": "https://dc.lft.to/lastmile_qr_scan", "ios": "https://dc.lft.to/lastmile_qr_scan"}, "fusion_lon": 0.0}, {"lat": 38.9271695, "is_disabled": 0, "type": "electric_scooter", "lon": -77.0209, "bike_id": "ea5c0dc1989d287481cab64b38cb30d0", "fusion_lat": 0.0, "name": "ea5c0dc1989d287481cab64b38cb30d0", "is_reserved": 0, "rental_uris": {"android": "https://dc.lft.to/lastmile_qr_scan", "ios": "https://dc.lft.to/lastmile_qr_scan"}, "fusion_lon": 0.0}, {"lat": 38.8924915, "is_disabled": 0, "type": "electric_scooter", "lon": -77.03959366666666, "bike_id": "782a089964dfd36a13ae99e5fbd1025c", "fusion_lat": 0.0, "name": "782a089964dfd36a13ae99e5fbd1025c", "is_reserved": 0, "rental_uris": {"android": "https://dc.lft.to/lastmile_qr_scan", "ios": "https://dc.lft.to/lastmile_qr_scan"}, "fusion_lon": 0.0}, {"lat": 38.900342333333334, "is_disabled": 0, "type": "electric_scooter", "lon": -77.00582783333333, "bike_id": "0f5dbf55c1be83026e47e27d10edbdef", "fusion_lat": 0.0, "name": "0f5dbf55c1be83026e47e27d10edbdef", "is_reserved": 0, "rental_uris": {"android": "https://dc.lft.to/lastmile_qr_scan", "ios": "https://dc.lft.to/lastmile_qr_scan"}, "fusion_lon": 0.0}, {"lat": 38.85808383333333, "is_disabled": 0, "type": "electric_scooter", "lon": -76.98655416666666, "bike_id": "c0ddbd472f09e19a6c261982ec417c30", "fusion_lat": 0.0, "name": "c0ddbd472f09e19a6c261982ec417c30", "is_reserved": 0, "rental_uris": {"android": "https://dc.lft.to/lastmile_qr_scan", "ios": "https://dc.lft.to/lastmile_qr_scan"}, "fusion_lon": 0.0}, {"lat": 38.94454566666667, "is_disabled": 0, "type": "electric_scooter", "lon": -77.06031516666667, "bike_id": "65ca6f79ec35d99387fea0c328a415ce", "fusion_lat": 0.0, "name": "65ca6f79ec35d99387fea0c328a415ce", "is_reserved": 0, "rental_uris": {"android": "https://dc.lft.to/lastmile_qr_scan", "ios": "https://dc.lft.to/lastmile_qr_scan"}, "fusion_lon": 0.0}, {"lat": 38.890889, "is_disabled": 0, "type": "electric_scooter", "lon": -76.94301366666667, "bike_id": "6d92ec58d6a272b3f2e375b5006aa311", "fusion_lat": 0.0, "name": "6d92ec58d6a272b3f2e375b5006aa311", "is_reserved": 0, "rental_uris": {"android": "https://dc.lft.to/lastmile_qr_scan", "ios": "https://dc.lft.to/lastmile_qr_scan"}, "fusion_lon": 0.0}, {"lat": 38.952774833333336, "is_disabled": 0, "type": "electric_scooter", "lon": -77.03653616666666, "bike_id": "d0d1832d953ba5b7224f71c0079f3502", "fusion_lat": 0.0, "name": "d0d1832d953ba5b7224f71c0079f3502", "is_reserved": 0, "rental_uris": {"android": "https://dc.lft.to/lastmile_qr_scan", "ios": "https://dc.lft.to/lastmile_qr_scan"}, "fusion_lon": 0.0}, {"lat": 38.915986833333335, "is_disabled": 0, "type": "electric_scooter", "lon": -77.07556283333334, "bike_id": "07cdb575a8eeed0cb169cbca45a297d4", "fusion_lat": 0.0, "name": "07cdb575a8eeed0cb169cbca45a297d4", "is_reserved": 0, "rental_uris": {"android": "https://dc.lft.to/lastmile_qr_scan", "ios": "https://dc.lft.to/lastmile_qr_scan"}, "fusion_lon": 0.0}, {"lat": 38.924585666666665, "is_disabled": 0, "type": "electric_bike", "lon": -77.208341, "bike_id": "4c08cb77abb9411dbec6fd3cc8b0eec0", "fusion_lat": 0.0, "name": "4c08cb77abb9411dbec6fd3cc8b0eec0", "is_reserved": 0, "rental_uris": {"android": "https://dc.lft.to/lastmile_qr_scan", "ios": "https://dc.lft.to/lastmile_qr_scan"}, "fusion_lon": 0.0}, {"lat": 38.92954966666667, "is_disabled": 0, "type": "electric_scooter", "lon": -77.07036316666667, "bike_id": "d91bf0106bec8cf3518348fe947b2120", "fusion_lat": 0.0, "name": "d91bf0106bec8cf3518348fe947b2120", "is_reserved": 0, "rental_uris": {"android": "https://dc.lft.to/lastmile_qr_scan", "ios": "https://dc.lft.to/lastmile_qr_scan"}, "fusion_lon": 0.0}, {"lat": 38.96398116666667, "is_disabled": 0, "type": "electric_scooter", "lon": -77.025919, "bike_id": "aa263bd1c094e1307ca8efde4c8e0ba1", "fusion_lat": 0.0, "name": "aa263bd1c094e1307ca8efde4c8e0ba1", "is_reserved": 0, "rental_uris": {"android": "https://dc.lft.to/lastmile_qr_scan", "ios": "https://dc.lft.to/lastmile_qr_scan"}, "fusion_lon": 0.0}, {"lat": 38.90224966666667, "is_disabled": 0, "type": "electric_scooter", "lon": -77.00543316666666, "bike_id": "b2aefe88c51473ca505d1914cd2d6f9f", "fusion_lat": 0.0, "name": "b2aefe88c51473ca505d1914cd2d6f9f", "is_reserved": 0, "rental_uris": {"android": "https://dc.lft.to/lastmile_qr_scan", "ios": "https://dc.lft.to/lastmile_qr_scan"}, "fusion_lon": 0.0}, {"lat": 38.92940316666667, "is_disabled": 0, "type": "electric_scooter", "lon": -77.03261433333333, "bike_id": "71567514543536ba6a2086786990996b", "fusion_lat": 0.0, "name": "71567514543536ba6a2086786990996b", "is_reserved": 0, "rental_uris": {"android": "https://dc.lft.to/lastmile_qr_scan", "ios": "https://dc.lft.to/lastmile_qr_scan"}, "fusion_lon": 0.0}, {"lat": 38.8774745, "is_disabled": 0, "type": "electric_bike", "lon": -76.99518266666666, "bike_id": "ba58f0632065e311e8c811ad4484f4e2", "fusion_lat": 0.0, "name": "ba58f0632065e311e8c811ad4484f4e2", "is_reserved": 0, "rental_uris": {"android": "https://dc.lft.to/lastmile_qr_scan", "ios": "https://dc.lft.to/lastmile_qr_scan"}, "fusion_lon": 0.0}, {"lat": 38.90779966666667, "is_disabled": 0, "type": "electric_scooter", "lon": -77.00385933333334, "bike_id": "f1f7276623595e4ebed4b88555a16c43", "fusion_lat": 0.0, "name": "f1f7276623595e4ebed4b88555a16c43", "is_reserved": 0, "rental_uris": {"android": "https://dc.lft.to/lastmile_qr_scan", "ios": "https://dc.lft.to/lastmile_qr_scan"}, "fusion_lon": 0.0}, {"lat": 38.928785, "is_disabled": 0, "type": "electric_scooter", "lon": -77.03298816666667, "bike_id": "fa0c3cbaef50fc62a4a6c4f5a1a4ed14", "fusion_lat": 0.0, "name": "fa0c3cbaef50fc62a4a6c4f5a1a4ed14", "is_reserved": 0, "rental_uris": {"android": "https://dc.lft.to/lastmile_qr_scan", "ios": "https://dc.lft.to/lastmile_qr_scan"}, "fusion_lon": 0.0}, {"lat": 38.865102666666665, "is_disabled": 0, "type": "electric_scooter", "lon": -76.9745315, "bike_id": "31497921e9cf363baec5f58331e1b04e", "fusion_lat": 0.0, "name": "31497921e9cf363baec5f58331e1b04e", "is_reserved": 0, "rental_uris": {"android": "https://dc.lft.to/lastmile_qr_scan", "ios": "https://dc.lft.to/lastmile_qr_scan"}, "fusion_lon": 0.0}, {"lat": 38.92411416666667, "is_disabled": 0, "type": "electric_scooter", "lon": -77.04437466666667, "bike_id": "8357ebab591608c1f82a00458b906b26", "fusion_lat": 0.0, "name": "8357ebab591608c1f82a00458b906b26", "is_reserved": 0, "rental_uris": {"android": "https://dc.lft.to/lastmile_qr_scan", "ios": "https://dc.lft.to/lastmile_qr_scan"}, "fusion_lon": 0.0}, {"lat": 38.87476866666667, "is_disabled": 0, "type": "electric_scooter", "lon": -77.0107085, "bike_id": "b5a53c3c3dd5deba454ffdc8d6cc4dba", "fusion_lat": 0.0, "name": "b5a53c3c3dd5deba454ffdc8d6cc4dba", "is_reserved": 0, "rental_uris": {"android": "https://dc.lft.to/lastmile_qr_scan", "ios": "https://dc.lft.to/lastmile_qr_scan"}, "fusion_lon": 0.0}, {"lat": 38.899495333333334, "is_disabled": 0, "type": "electric_scooter", "lon": -77.05171583333333, "bike_id": "b4893c01fbb5433555633167d51f2e14", "fusion_lat": 0.0, "name": "b4893c01fbb5433555633167d51f2e14", "is_reserved": 0, "rental_uris": {"android": "https://dc.lft.to/lastmile_qr_scan", "ios": "https://dc.lft.to/lastmile_qr_scan"}, "fusion_lon": 0.0}, {"lat": 38.902258, "is_disabled": 0, "type": "electric_scooter", "lon": -77.0282785, "bike_id": "db28d46dee125c648e5cc9dd240f5252", "fusion_lat": 0.0, "name": "db28d46dee125c648e5cc9dd240f5252", "is_reserved": 0, "rental_uris": {"android": "https://dc.lft.to/lastmile_qr_scan", "ios": "https://dc.lft.to/lastmile_qr_scan"}, "fusion_lon": 0.0}, {"lat": 38.908082666666665, "is_disabled": 0, "type": "electric_scooter", "lon": -76.98277833333333, "bike_id": "70e3165fb26005be1e61287f08f831af", "fusion_lat": 0.0, "name": "70e3165fb26005be1e61287f08f831af", "is_reserved": 0, "rental_uris": {"android": "https://dc.lft.to/lastmile_qr_scan", "ios": "https://dc.lft.to/lastmile_qr_scan"}, "fusion_lon": 0.0}, {"lat": 38.89985883333333, "is_disabled": 0, "type": "electric_scooter", "lon": -77.05090533333333, "bike_id": "a9cdba63432b3d9fbcebd8acd90cbe4b", "fusion_lat": 0.0, "name": "a9cdba63432b3d9fbcebd8acd90cbe4b", "is_reserved": 0, "rental_uris": {"android": "https://dc.lft.to/lastmile_qr_scan", "ios": "https://dc.lft.to/lastmile_qr_scan"}, "fusion_lon": 0.0}, {"lat": 38.89221933333334, "is_disabled": 0, "type": "electric_scooter", "lon": -77.02647266666666, "bike_id": "a5e0f91e3f8a49327e76b0f66488c512", "fusion_lat": 0.0, "name": "a5e0f91e3f8a49327e76b0f66488c512", "is_reserved": 0, "rental_uris": {"android": "https://dc.lft.to/lastmile_qr_scan", "ios": "https://dc.lft.to/lastmile_qr_scan"}, "fusion_lon": 0.0}, {"lat": 38.91255533333333, "is_disabled": 0, "type": "electric_scooter", "lon": -77.03864333333334, "bike_id": "e15fe553447596f49ad54d4dbe51292f", "fusion_lat": 0.0, "name": "e15fe553447596f49ad54d4dbe51292f", "is_reserved": 0, "rental_uris": {"android": "https://dc.lft.to/lastmile_qr_scan", "ios": "https://dc.lft.to/lastmile_qr_scan"}, "fusion_lon": 0.0}, {"lat": 38.87677883333333, "is_disabled": 0, "type": "electric_scooter", "lon": -77.01789833333333, "bike_id": "cf49a4f72af14d47223a2806cdf6130c", "fusion_lat": 0.0, "name": "cf49a4f72af14d47223a2806cdf6130c", "is_reserved": 0, "rental_uris": {"android": "https://dc.lft.to/lastmile_qr_scan", "ios": "https://dc.lft.to/lastmile_qr_scan"}, "fusion_lon": 0.0}, {"lat": 38.9036315, "is_disabled": 0, "type": "electric_scooter", "lon": -77.03877233333333, "bike_id": "fcd16958586288a1d3a8988f4083b6a0", "fusion_lat": 0.0, "name": "fcd16958586288a1d3a8988f4083b6a0", "is_reserved": 0, "rental_uris": {"android": "https://dc.lft.to/lastmile_qr_scan", "ios": "https://dc.lft.to/lastmile_qr_scan"}, "fusion_lon": 0.0}, {"lat": 38.877328166666665, "is_disabled": 0, "type": "electric_bike", "lon": -76.98108483333333, "bike_id": "d1bcce5b00b67b9702b6e64a9fb6918d", "fusion_lat": 0.0, "name": "d1bcce5b00b67b9702b6e64a9fb6918d", "is_reserved": 0, "rental_uris": {"android": "https://dc.lft.to/lastmile_qr_scan", "ios": "https://dc.lft.to/lastmile_qr_scan"}, "fusion_lon": 0.0}, {"lat": 38.92627616666667, "is_disabled": 0, "type": "electric_scooter", "lon": -77.0378765, "bike_id": "dd59bda125113f48bdaa94feebfe321c", "fusion_lat": 0.0, "name": "dd59bda125113f48bdaa94feebfe321c", "is_reserved": 0, "rental_uris": {"android": "https://dc.lft.to/lastmile_qr_scan", "ios": "https://dc.lft.to/lastmile_qr_scan"}, "fusion_lon": 0.0}, {"lat": 38.9104995, "is_disabled": 0, "type": "electric_scooter", "lon": -77.01517866666667, "bike_id": "ef9636c04e5dd181bef8491c45698b5c", "fusion_lat": 0.0, "name": "ef9636c04e5dd181bef8491c45698b5c", "is_reserved": 0, "rental_uris": {"android": "https://dc.lft.to/lastmile_qr_scan", "ios": "https://dc.lft.to/lastmile_qr_scan"}, "fusion_lon": 0.0}, {"lat": 38.9038665, "is_disabled": 0, "type": "electric_scooter", "lon": -77.0484405, "bike_id": "cf05fcf6bd19c7b3cbe13abdc95d2cb9", "fusion_lat": 0.0, "name": "cf05fcf6bd19c7b3cbe13abdc95d2cb9", "is_reserved": 0, "rental_uris": {"android": "https://dc.lft.to/lastmile_qr_scan", "ios": "https://dc.lft.to/lastmile_qr_scan"}, "fusion_lon": 0.0}, {"lat": 38.909637333333336, "is_disabled": 0, "type": "electric_scooter", "lon": -77.04051733333333, "bike_id": "83b2107ee7ebde8c159ce2dbd85ee037", "fusion_lat": 0.0, "name": "83b2107ee7ebde8c159ce2dbd85ee037", "is_reserved": 0, "rental_uris": {"android": "https://dc.lft.to/lastmile_qr_scan", "ios": "https://dc.lft.to/lastmile_qr_scan"}, "fusion_lon": 0.0}, {"lat": 38.91734366666667, "is_disabled": 0, "type": "electric_scooter", "lon": -77.03663266666666, "bike_id": "c036ed124251fe03e4a640ec361e1476", "fusion_lat": 0.0, "name": "c036ed124251fe03e4a640ec361e1476", "is_reserved": 0, "rental_uris": {"android": "https://dc.lft.to/lastmile_qr_scan", "ios": "https://dc.lft.to/lastmile_qr_scan"}, "fusion_lon": 0.0}, {"lat": 38.9003565, "is_disabled": 0, "type": "electric_scooter", "lon": -77.00198266666666, "bike_id": "cb1983f97f101d193682101ca9a2ca96", "fusion_lat": 0.0, "name": "cb1983f97f101d193682101ca9a2ca96", "is_reserved": 0, "rental_uris": {"android": "https://dc.lft.to/lastmile_qr_scan", "ios": "https://dc.lft.to/lastmile_qr_scan"}, "fusion_lon": 0.0}, {"lat": 38.9167985, "is_disabled": 0, "type": "electric_scooter", "lon": -77.041491, "bike_id": "80a20035e124fb8f60e3143a08871117", "fusion_lat": 0.0, "name": "80a20035e124fb8f60e3143a08871117", "is_reserved": 0, "rental_uris": {"android": "https://dc.lft.to/lastmile_qr_scan", "ios": "https://dc.lft.to/lastmile_qr_scan"}, "fusion_lon": 0.0}, {"lat": 38.957394666666666, "is_disabled": 0, "type": "electric_bike", "lon": -77.02323066666666, "bike_id": "232d8613cc18880c935b55a30b0ddeef", "fusion_lat": 0.0, "name": "232d8613cc18880c935b55a30b0ddeef", "is_reserved": 0, "rental_uris": {"android": "https://dc.lft.to/lastmile_qr_scan", "ios": "https://dc.lft.to/lastmile_qr_scan"}, "fusion_lon": 0.0}, {"lat": 38.9003605, "is_disabled": 0, "type": "electric_scooter", "lon": -77.00538283333333, "bike_id": "3ac38ab77b75d60cdd7d857c3458c5f0", "fusion_lat": 0.0, "name": "3ac38ab77b75d60cdd7d857c3458c5f0", "is_reserved": 0, "rental_uris": {"android": "https://dc.lft.to/lastmile_qr_scan", "ios": "https://dc.lft.to/lastmile_qr_scan"}, "fusion_lon": 0.0}, {"lat": 38.891435333333334, "is_disabled": 0, "type": "electric_bike", "lon": -77.1130595, "bike_id": "d05b575552eaacc874a2675c42bb51ff", "fusion_lat": 0.0, "name": "d05b575552eaacc874a2675c42bb51ff", "is_reserved": 0, "rental_uris": {"android": "https://dc.lft.to/lastmile_qr_scan", "ios": "https://dc.lft.to/lastmile_qr_scan"}, "fusion_lon": 0.0}, {"lat": 38.9082015, "is_disabled": 0, "type": "electric_scooter", "lon": -76.9967905, "bike_id": "833e74a5d9f310d9faf84cca4caef142", "fusion_lat": 0.0, "name": "833e74a5d9f310d9faf84cca4caef142", "is_reserved": 0, "rental_uris": {"android": "https://dc.lft.to/lastmile_qr_scan", "ios": "https://dc.lft.to/lastmile_qr_scan"}, "fusion_lon": 0.0}, {"lat": 38.88453533333333, "is_disabled": 0, "type": "electric_scooter", "lon": -77.015238, "bike_id": "2b65f3ceb9c1fc5a8c081ccf9df7f2e8", "fusion_lat": 0.0, "name": "2b65f3ceb9c1fc5a8c081ccf9df7f2e8", "is_reserved": 0, "rental_uris": {"android": "https://dc.lft.to/lastmile_qr_scan", "ios": "https://dc.lft.to/lastmile_qr_scan"}, "fusion_lon": 0.0}, {"lat": 38.92682666666666, "is_disabled": 0, "type": "electric_scooter", "lon": -77.00740166666667, "bike_id": "f209ed71e2c254c47c0becf463f382a3", "fusion_lat": 0.0, "name": "f209ed71e2c254c47c0becf463f382a3", "is_reserved": 0, "rental_uris": {"android": "https://dc.lft.to/lastmile_qr_scan", "ios": "https://dc.lft.to/lastmile_qr_scan"}, "fusion_lon": 0.0}, {"lat": 38.911183333333334, "is_disabled": 0, "type": "electric_scooter", "lon": -77.00940983333334, "bike_id": "eb3af49b54f047eba40af07846b9b683", "fusion_lat": 0.0, "name": "eb3af49b54f047eba40af07846b9b683", "is_reserved": 0, "rental_uris": {"android": "https://dc.lft.to/lastmile_qr_scan", "ios": "https://dc.lft.to/lastmile_qr_scan"}, "fusion_lon": 0.0}, {"lat": 38.892216166666664, "is_disabled": 0, "type": "electric_bike", "lon": -77.10781133333333, "bike_id": "615865455d3a0d3413e492a68b5af8f9", "fusion_lat": 0.0, "name": "615865455d3a0d3413e492a68b5af8f9", "is_reserved": 0, "rental_uris": {"android": "https://dc.lft.to/lastmile_qr_scan", "ios": "https://dc.lft.to/lastmile_qr_scan"}, "fusion_lon": 0.0}, {"lat": 38.90721766666667, "is_disabled": 0, "type": "electric_scooter", "lon": -77.01343816666666, "bike_id": "ea1e9496fa8d0ac851173ee3f9eed8ba", "fusion_lat": 0.0, "name": "ea1e9496fa8d0ac851173ee3f9eed8ba", "is_reserved": 0, "rental_uris": {"android": "https://dc.lft.to/lastmile_qr_scan", "ios": "https://dc.lft.to/lastmile_qr_scan"}, "fusion_lon": 0.0}, {"lat": 38.85790333333333, "is_disabled": 0, "type": "electric_bike", "lon": -77.09962183333333, "bike_id": "d0d13efd314440fb7e071f00dc51d2ea", "fusion_lat": 0.0, "name": "d0d13efd314440fb7e071f00dc51d2ea", "is_reserved": 0, "rental_uris": {"android": "https://dc.lft.to/lastmile_qr_scan", "ios": "https://dc.lft.to/lastmile_qr_scan"}, "fusion_lon": 0.0}, {"lat": 38.92208, "is_disabled": 0, "type": "electric_scooter", "lon": -77.03777333333333, "bike_id": "e677e56705ecb7ce485df673e95ea615", "fusion_lat": 0.0, "name": "e677e56705ecb7ce485df673e95ea615", "is_reserved": 0, "rental_uris": {"android": "https://dc.lft.to/lastmile_qr_scan", "ios": "https://dc.lft.to/lastmile_qr_scan"}, "fusion_lon": 0.0}, {"lat": 38.876903666666664, "is_disabled": 0, "type": "electric_scooter", "lon": -77.01756416666667, "bike_id": "05da7bfe6d374ab6b9f866a4206ad50f", "fusion_lat": 0.0, "name": "05da7bfe6d374ab6b9f866a4206ad50f", "is_reserved": 0, "rental_uris": {"android": "https://dc.lft.to/lastmile_qr_scan", "ios": "https://dc.lft.to/lastmile_qr_scan"}, "fusion_lon": 0.0}, {"lat": 38.915388, "is_disabled": 0, "type": "electric_scooter", "lon": -77.03178, "bike_id": "2925158c4633b95946dfb4bd07e77bf5", "fusion_lat": 0.0, "name": "2925158c4633b95946dfb4bd07e77bf5", "is_reserved": 0, "rental_uris": {"android": "https://dc.lft.to/lastmile_qr_scan", "ios": "https://dc.lft.to/lastmile_qr_scan"}, "fusion_lon": 0.0}, {"lat": 38.917041833333336, "is_disabled": 0, "type": "electric_scooter", "lon": -77.04598283333333, "bike_id": "1c9219265b6feca1cbd0d69a6d28fe08", "fusion_lat": 0.0, "name": "1c9219265b6feca1cbd0d69a6d28fe08", "is_reserved": 0, "rental_uris": {"android": "https://dc.lft.to/lastmile_qr_scan", "ios": "https://dc.lft.to/lastmile_qr_scan"}, "fusion_lon": 0.0}, {"lat": 38.932586666666666, "is_disabled": 0, "type": "electric_scooter", "lon": -77.0326185, "bike_id": "0d2c3c2083d3aedf3192479425c84c05", "fusion_lat": 0.0, "name": "0d2c3c2083d3aedf3192479425c84c05", "is_reserved": 0, "rental_uris": {"android": "https://dc.lft.to/lastmile_qr_scan", "ios": "https://dc.lft.to/lastmile_qr_scan"}, "fusion_lon": 0.0}, {"lat": 38.88235066666667, "is_disabled": 0, "type": "electric_scooter", "lon": -76.99091216666666, "bike_id": "18936ec6e71e3613f8e909dc3ad99c2d", "fusion_lat": 0.0, "name": "18936ec6e71e3613f8e909dc3ad99c2d", "is_reserved": 0, "rental_uris": {"android": "https://dc.lft.to/lastmile_qr_scan", "ios": "https://dc.lft.to/lastmile_qr_scan"}, "fusion_lon": 0.0}, {"lat": 38.915630166666666, "is_disabled": 0, "type": "electric_scooter", "lon": -77.0315005, "bike_id": "d350a48094d2d0f454bd6551612c1a2b", "fusion_lat": 0.0, "name": "d350a48094d2d0f454bd6551612c1a2b", "is_reserved": 0, "rental_uris": {"android": "https://dc.lft.to/lastmile_qr_scan", "ios": "https://dc.lft.to/lastmile_qr_scan"}, "fusion_lon": 0.0}, {"lat": 38.9110925, "is_disabled": 0, "type": "electric_scooter", "lon": -77.03084166666666, "bike_id": "3fc37bd812f8fee328eadad8be0286df", "fusion_lat": 0.0, "name": "3fc37bd812f8fee328eadad8be0286df", "is_reserved": 0, "rental_uris": {"android": "https://dc.lft.to/lastmile_qr_scan", "ios": "https://dc.lft.to/lastmile_qr_scan"}, "fusion_lon": 0.0}, {"lat": 38.8971435, "is_disabled": 0, "type": "electric_scooter", "lon": -77.00802266666666, "bike_id": "0ab1f20dd51608bb6828a9de0be4e249", "fusion_lat": 0.0, "name": "0ab1f20dd51608bb6828a9de0be4e249", "is_reserved": 0, "rental_uris": {"android": "https://dc.lft.to/lastmile_qr_scan", "ios": "https://dc.lft.to/lastmile_qr_scan"}, "fusion_lon": 0.0}, {"lat": 39.000050333333334, "is_disabled": 0, "type": "electric_bike", "lon": -76.91072883333334, "bike_id": "3dfde5a00e817537477eb8fad4a3a4c8", "fusion_lat": 0.0, "name": "3dfde5a00e817537477eb8fad4a3a4c8", "is_reserved": 0, "rental_uris": {"android": "https://dc.lft.to/lastmile_qr_scan", "ios": "https://dc.lft.to/lastmile_qr_scan"}, "fusion_lon": 0.0}, {"lat": 38.911157833333334, "is_disabled": 0, "type": "electric_scooter", "lon": -77.04501816666667, "bike_id": "cb4668424da8a68ddad56316dea4d1ab", "fusion_lat": 0.0, "name": "cb4668424da8a68ddad56316dea4d1ab", "is_reserved": 0, "rental_uris": {"android": "https://dc.lft.to/lastmile_qr_scan", "ios": "https://dc.lft.to/lastmile_qr_scan"}, "fusion_lon": 0.0}, {"lat": 38.90389, "is_disabled": 0, "type": "electric_scooter", "lon": -77.02166266666667, "bike_id": "7cc96c5608563a2bc8aecbb16e835d4d", "fusion_lat": 0.0, "name": "7cc96c5608563a2bc8aecbb16e835d4d", "is_reserved": 0, "rental_uris": {"android": "https://dc.lft.to/lastmile_qr_scan", "ios": "https://dc.lft.to/lastmile_qr_scan"}, "fusion_lon": 0.0}, {"lat": 38.92963133333333, "is_disabled": 0, "type": "electric_scooter", "lon": -77.03173116666666, "bike_id": "d758c7a7107ca41a5ed0a3bc8899c5b9", "fusion_lat": 0.0, "name": "d758c7a7107ca41a5ed0a3bc8899c5b9", "is_reserved": 0, "rental_uris": {"android": "https://dc.lft.to/lastmile_qr_scan", "ios": "https://dc.lft.to/lastmile_qr_scan"}, "fusion_lon": 0.0}, {"lat": 38.95622133333333, "is_disabled": 0, "type": "electric_scooter", "lon": -77.02788533333333, "bike_id": "a09e45011b344e6b4967542e13f5af8e", "fusion_lat": 0.0, "name": "a09e45011b344e6b4967542e13f5af8e", "is_reserved": 0, "rental_uris": {"android": "https://dc.lft.to/lastmile_qr_scan", "ios": "https://dc.lft.to/lastmile_qr_scan"}, "fusion_lon": 0.0}, {"lat": 38.901870833333334, "is_disabled": 0, "type": "electric_scooter", "lon": -77.02404083333333, "bike_id": "e0f56b24d1676d28f26d91332ca91868", "fusion_lat": 0.0, "name": "e0f56b24d1676d28f26d91332ca91868", "is_reserved": 0, "rental_uris": {"android": "https://dc.lft.to/lastmile_qr_scan", "ios": "https://dc.lft.to/lastmile_qr_scan"}, "fusion_lon": 0.0}, {"lat": 38.8287345, "is_disabled": 0, "type": "electric_bike", "lon": -77.1122125, "bike_id": "63061e43fc15e5802a412b9ac4dbd34f", "fusion_lat": 0.0, "name": "63061e43fc15e5802a412b9ac4dbd34f", "is_reserved": 0, "rental_uris": {"android": "https://dc.lft.to/lastmile_qr_scan", "ios": "https://dc.lft.to/lastmile_qr_scan"}, "fusion_lon": 0.0}, {"lat": 38.86653716666667, "is_disabled": 0, "type": "electric_scooter", "lon": -76.9888835, "bike_id": "e71b35acf1f790469d13b33d630245bb", "fusion_lat": 0.0, "name": "e71b35acf1f790469d13b33d630245bb", "is_reserved": 0, "rental_uris": {"android": "https://dc.lft.to/lastmile_qr_scan", "ios": "https://dc.lft.to/lastmile_qr_scan"}, "fusion_lon": 0.0}, {"lat": 38.91555833333334, "is_disabled": 0, "type": "electric_scooter", "lon": -77.03854916666667, "bike_id": "12495170b428f444609d2289e99fcee7", "fusion_lat": 0.0, "name": "12495170b428f444609d2289e99fcee7", "is_reserved": 0, "rental_uris": {"android": "https://dc.lft.to/lastmile_qr_scan", "ios": "https://dc.lft.to/lastmile_qr_scan"}, "fusion_lon": 0.0}, {"lat": 38.90370733333334, "is_disabled": 0, "type": "electric_scooter", "lon": -77.03851783333333, "bike_id": "1982b3562071b7dea8f3cab0ff947906", "fusion_lat": 0.0, "name": "1982b3562071b7dea8f3cab0ff947906", "is_reserved": 0, "rental_uris": {"android": "https://dc.lft.to/lastmile_qr_scan", "ios": "https://dc.lft.to/lastmile_qr_scan"}, "fusion_lon": 0.0}, {"lat": 38.909834333333336, "is_disabled": 0, "type": "electric_scooter", "lon": -76.99743316666667, "bike_id": "215dd413eaf0f2cb3645be4abf5077d9", "fusion_lat": 0.0, "name": "215dd413eaf0f2cb3645be4abf5077d9", "is_reserved": 0, "rental_uris": {"android": "https://dc.lft.to/lastmile_qr_scan", "ios": "https://dc.lft.to/lastmile_qr_scan"}, "fusion_lon": 0.0}, {"lat": 38.9199975, "is_disabled": 0, "type": "electric_scooter", "lon": -77.02392316666666, "bike_id": "aabbed4ac4f58638814e73f2bad5f0cd", "fusion_lat": 0.0, "name": "aabbed4ac4f58638814e73f2bad5f0cd", "is_reserved": 0, "rental_uris": {"android": "https://dc.lft.to/lastmile_qr_scan", "ios": "https://dc.lft.to/lastmile_qr_scan"}, "fusion_lon": 0.0}, {"lat": 38.893221833333335, "is_disabled": 0, "type": "electric_bike", "lon": -77.02227283333333, "bike_id": "d24f09f04c8fab9cefaae7780eff34f5", "fusion_lat": 0.0, "name": "d24f09f04c8fab9cefaae7780eff34f5", "is_reserved": 0, "rental_uris": {"android": "https://dc.lft.to/lastmile_qr_scan", "ios": "https://dc.lft.to/lastmile_qr_scan"}, "fusion_lon": 0.0}, {"lat": 38.918133, "is_disabled": 0, "type": "electric_scooter", "lon": -77.03179866666666, "bike_id": "94ab78f51a8e6de6eb6a527d83801eb3", "fusion_lat": 0.0, "name": "94ab78f51a8e6de6eb6a527d83801eb3", "is_reserved": 0, "rental_uris": {"android": "https://dc.lft.to/lastmile_qr_scan", "ios": "https://dc.lft.to/lastmile_qr_scan"}, "fusion_lon": 0.0}, {"lat": 38.84627966666667, "is_disabled": 0, "type": "electric_bike", "lon": -77.06935116666666, "bike_id": "2ddae737d1e81d1a16714f9a023da6a0", "fusion_lat": 0.0, "name": "2ddae737d1e81d1a16714f9a023da6a0", "is_reserved": 0, "rental_uris": {"android": "https://dc.lft.to/lastmile_qr_scan", "ios": "https://dc.lft.to/lastmile_qr_scan"}, "fusion_lon": 0.0}, {"lat": 38.89506983333333, "is_disabled": 0, "type": "electric_scooter", "lon": -77.02749516666667, "bike_id": "10b127d748fd29c3aeba8d4c46ae4b71", "fusion_lat": 0.0, "name": "10b127d748fd29c3aeba8d4c46ae4b71", "is_reserved": 0, "rental_uris": {"android": "https://dc.lft.to/lastmile_qr_scan", "ios": "https://dc.lft.to/lastmile_qr_scan"}, "fusion_lon": 0.0}, {"lat": 38.8901295, "is_disabled": 0, "type": "electric_scooter", "lon": -76.9374875, "bike_id": "47211181aa069d721474d31d194f6d5f", "fusion_lat": 0.0, "name": "47211181aa069d721474d31d194f6d5f", "is_reserved": 0, "rental_uris": {"android": "https://dc.lft.to/lastmile_qr_scan", "ios": "https://dc.lft.to/lastmile_qr_scan"}, "fusion_lon": 0.0}, {"lat": 38.9097685, "is_disabled": 0, "type": "electric_scooter", "lon": -77.0318375, "bike_id": "024f4a8a04e8d774f03ad5366ad29477", "fusion_lat": 0.0, "name": "024f4a8a04e8d774f03ad5366ad29477", "is_reserved": 0, "rental_uris": {"android": "https://dc.lft.to/lastmile_qr_scan", "ios": "https://dc.lft.to/lastmile_qr_scan"}, "fusion_lon": 0.0}, {"lat": 38.917132, "is_disabled": 0, "type": "electric_scooter", "lon": -77.03457416666667, "bike_id": "a89ec8c235e9f650668fc25890878fa1", "fusion_lat": 0.0, "name": "a89ec8c235e9f650668fc25890878fa1", "is_reserved": 0, "rental_uris": {"android": "https://dc.lft.to/lastmile_qr_scan", "ios": "https://dc.lft.to/lastmile_qr_scan"}, "fusion_lon": 0.0}, {"lat": 38.91218666666666, "is_disabled": 0, "type": "electric_scooter", "lon": -77.04340333333333, "bike_id": "b576becabb75d9d75c056c078ebf8c5b", "fusion_lat": 0.0, "name": "b576becabb75d9d75c056c078ebf8c5b", "is_reserved": 0, "rental_uris": {"android": "https://dc.lft.to/lastmile_qr_scan", "ios": "https://dc.lft.to/lastmile_qr_scan"}, "fusion_lon": 0.0}, {"lat": 38.9169505, "is_disabled": 0, "type": "electric_scooter", "lon": -77.035882, "bike_id": "3ac5875d0e6dd95602501d46f160981c", "fusion_lat": 0.0, "name": "3ac5875d0e6dd95602501d46f160981c", "is_reserved": 0, "rental_uris": {"android": "https://dc.lft.to/lastmile_qr_scan", "ios": "https://dc.lft.to/lastmile_qr_scan"}, "fusion_lon": 0.0}, {"lat": 38.89282433333333, "is_disabled": 0, "type": "electric_scooter", "lon": -77.05034166666667, "bike_id": "7b63f7ee2f4aedda5e7148b333c3ecd9", "fusion_lat": 0.0, "name": "7b63f7ee2f4aedda5e7148b333c3ecd9", "is_reserved": 0, "rental_uris": {"android": "https://dc.lft.to/lastmile_qr_scan", "ios": "https://dc.lft.to/lastmile_qr_scan"}, "fusion_lon": 0.0}, {"lat": 38.918411, "is_disabled": 0, "type": "electric_scooter", "lon": -76.96532866666666, "bike_id": "e5c57fc7ece472bc637d49297deafe26", "fusion_lat": 0.0, "name": "e5c57fc7ece472bc637d49297deafe26", "is_reserved": 0, "rental_uris": {"android": "https://dc.lft.to/lastmile_qr_scan", "ios": "https://dc.lft.to/lastmile_qr_scan"}, "fusion_lon": 0.0}, {"lat": 38.92383616666667, "is_disabled": 0, "type": "electric_scooter", "lon": -77.03073183333333, "bike_id": "97bb6f88e3056d9eca610e21369191a9", "fusion_lat": 0.0, "name": "97bb6f88e3056d9eca610e21369191a9", "is_reserved": 0, "rental_uris": {"android": "https://dc.lft.to/lastmile_qr_scan", "ios": "https://dc.lft.to/lastmile_qr_scan"}, "fusion_lon": 0.0}, {"lat": 38.9013545, "is_disabled": 0, "type": "electric_scooter", "lon": -77.02548, "bike_id": "129bf4f9a7932e231195dd13f3c12239", "fusion_lat": 0.0, "name": "129bf4f9a7932e231195dd13f3c12239", "is_reserved": 0, "rental_uris": {"android": "https://dc.lft.to/lastmile_qr_scan", "ios": "https://dc.lft.to/lastmile_qr_scan"}, "fusion_lon": 0.0}, {"lat": 38.92835183333333, "is_disabled": 0, "type": "electric_scooter", "lon": -76.99847066666666, "bike_id": "794c36bafa1508e71f3f9b75126e30ae", "fusion_lat": 0.0, "name": "794c36bafa1508e71f3f9b75126e30ae", "is_reserved": 0, "rental_uris": {"android": "https://dc.lft.to/lastmile_qr_scan", "ios": "https://dc.lft.to/lastmile_qr_scan"}, "fusion_lon": 0.0}, {"lat": 38.89251483333334, "is_disabled": 0, "type": "electric_scooter", "lon": -77.0465625, "bike_id": "8c63e8cfce74124c010761e11758a5d7", "fusion_lat": 0.0, "name": "8c63e8cfce74124c010761e11758a5d7", "is_reserved": 0, "rental_uris": {"android": "https://dc.lft.to/lastmile_qr_scan", "ios": "https://dc.lft.to/lastmile_qr_scan"}, "fusion_lon": 0.0}, {"lat": 38.93613766666667, "is_disabled": 0, "type": "electric_scooter", "lon": -77.05752883333334, "bike_id": "f502f01b3430d3ef72e4dbec1f4d1b24", "fusion_lat": 0.0, "name": "f502f01b3430d3ef72e4dbec1f4d1b24", "is_reserved": 0, "rental_uris": {"android": "https://dc.lft.to/lastmile_qr_scan", "ios": "https://dc.lft.to/lastmile_qr_scan"}, "fusion_lon": 0.0}, {"lat": 38.909545666666666, "is_disabled": 0, "type": "electric_scooter", "lon": -77.03398533333333, "bike_id": "417bce30f60d689345dec5673895a049", "fusion_lat": 0.0, "name": "417bce30f60d689345dec5673895a049", "is_reserved": 0, "rental_uris": {"android": "https://dc.lft.to/lastmile_qr_scan", "ios": "https://dc.lft.to/lastmile_qr_scan"}, "fusion_lon": 0.0}, {"lat": 38.945063166666664, "is_disabled": 0, "type": "electric_bike", "lon": -77.00670516666666, "bike_id": "f69f638167eed9cea8526b56af6fafbc", "fusion_lat": 0.0, "name": "f69f638167eed9cea8526b56af6fafbc", "is_reserved": 0, "rental_uris": {"android": "https://dc.lft.to/lastmile_qr_scan", "ios": "https://dc.lft.to/lastmile_qr_scan"}, "fusion_lon": 0.0}, {"lat": 38.90573366666667, "is_disabled": 0, "type": "electric_scooter", "lon": -77.03467216666667, "bike_id": "abf2bd7db8801c2510746b215e4cb6ea", "fusion_lat": 0.0, "name": "abf2bd7db8801c2510746b215e4cb6ea", "is_reserved": 0, "rental_uris": {"android": "https://dc.lft.to/lastmile_qr_scan", "ios": "https://dc.lft.to/lastmile_qr_scan"}, "fusion_lon": 0.0}, {"lat": 38.899284333333334, "is_disabled": 0, "type": "electric_scooter", "lon": -77.0542035, "bike_id": "7a07b37996967564a0a1b90c1b917fc9", "fusion_lat": 0.0, "name": "7a07b37996967564a0a1b90c1b917fc9", "is_reserved": 0, "rental_uris": {"android": "https://dc.lft.to/lastmile_qr_scan", "ios": "https://dc.lft.to/lastmile_qr_scan"}, "fusion_lon": 0.0}, {"lat": 38.94324366666667, "is_disabled": 0, "type": "electric_scooter", "lon": -77.07383683333333, "bike_id": "56a4b6464704b6a52518e6e293ac9726", "fusion_lat": 0.0, "name": "56a4b6464704b6a52518e6e293ac9726", "is_reserved": 0, "rental_uris": {"android": "https://dc.lft.to/lastmile_qr_scan", "ios": "https://dc.lft.to/lastmile_qr_scan"}, "fusion_lon": 0.0}, {"lat": 38.89617233333333, "is_disabled": 0, "type": "electric_scooter", "lon": -76.99297216666666, "bike_id": "c30be5e421366f849adb5a7c0934f2c4", "fusion_lat": 0.0, "name": "c30be5e421366f849adb5a7c0934f2c4", "is_reserved": 0, "rental_uris": {"android": "https://dc.lft.to/lastmile_qr_scan", "ios": "https://dc.lft.to/lastmile_qr_scan"}, "fusion_lon": 0.0}, {"lat": 38.89189483333333, "is_disabled": 0, "type": "electric_scooter", "lon": -76.9962705, "bike_id": "51075b38719e271dff97b5a13ab88434", "fusion_lat": 0.0, "name": "51075b38719e271dff97b5a13ab88434", "is_reserved": 0, "rental_uris": {"android": "https://dc.lft.to/lastmile_qr_scan", "ios": "https://dc.lft.to/lastmile_qr_scan"}, "fusion_lon": 0.0}, {"lat": 38.930898166666665, "is_disabled": 0, "type": "electric_scooter", "lon": -77.07752083333334, "bike_id": "dbe00d3f0ea115243b10d893fb6029b9", "fusion_lat": 0.0, "name": "dbe00d3f0ea115243b10d893fb6029b9", "is_reserved": 0, "rental_uris": {"android": "https://dc.lft.to/lastmile_qr_scan", "ios": "https://dc.lft.to/lastmile_qr_scan"}, "fusion_lon": 0.0}, {"lat": 38.90722133333333, "is_disabled": 0, "type": "electric_scooter", "lon": -76.989281, "bike_id": "ab42f9a60323e29714a99e46f9fdfda2", "fusion_lat": 0.0, "name": "ab42f9a60323e29714a99e46f9fdfda2", "is_reserved": 0, "rental_uris": {"android": "https://dc.lft.to/lastmile_qr_scan", "ios": "https://dc.lft.to/lastmile_qr_scan"}, "fusion_lon": 0.0}, {"lat": 38.89814416666667, "is_disabled": 0, "type": "electric_scooter", "lon": -77.03003533333333, "bike_id": "0f37222a12aabd9f1fde5f358fe15437", "fusion_lat": 0.0, "name": "0f37222a12aabd9f1fde5f358fe15437", "is_reserved": 0, "rental_uris": {"android": "https://dc.lft.to/lastmile_qr_scan", "ios": "https://dc.lft.to/lastmile_qr_scan"}, "fusion_lon": 0.0}, {"lat": 38.840304333333336, "is_disabled": 0, "type": "electric_bike", "lon": -76.97581966666667, "bike_id": "7cd875dc0c54b65f9f4bb0c60a526486", "fusion_lat": 0.0, "name": "7cd875dc0c54b65f9f4bb0c60a526486", "is_reserved": 0, "rental_uris": {"android": "https://dc.lft.to/lastmile_qr_scan", "ios": "https://dc.lft.to/lastmile_qr_scan"}, "fusion_lon": 0.0}, {"lat": 38.9026335, "is_disabled": 0, "type": "electric_scooter", "lon": -77.0290385, "bike_id": "29f4b411ca87aa1c59ef15df6d28054b", "fusion_lat": 0.0, "name": "29f4b411ca87aa1c59ef15df6d28054b", "is_reserved": 0, "rental_uris": {"android": "https://dc.lft.to/lastmile_qr_scan", "ios": "https://dc.lft.to/lastmile_qr_scan"}, "fusion_lon": 0.0}, {"lat": 38.86116333333333, "is_disabled": 0, "type": "electric_scooter", "lon": -76.98386033333334, "bike_id": "cd32538ce34eff91c7b3c3c6eda10bb3", "fusion_lat": 0.0, "name": "cd32538ce34eff91c7b3c3c6eda10bb3", "is_reserved": 0, "rental_uris": {"android": "https://dc.lft.to/lastmile_qr_scan", "ios": "https://dc.lft.to/lastmile_qr_scan"}, "fusion_lon": 0.0}, {"lat": 39.058136166666664, "is_disabled": 0, "type": "electric_bike", "lon": -77.12625416666667, "bike_id": "4664183b079c320f3f0f983b11a72247", "fusion_lat": 0.0, "name": "4664183b079c320f3f0f983b11a72247", "is_reserved": 0, "rental_uris": {"android": "https://dc.lft.to/lastmile_qr_scan", "ios": "https://dc.lft.to/lastmile_qr_scan"}, "fusion_lon": 0.0}, {"lat": 38.92994383333333, "is_disabled": 0, "type": "electric_scooter", "lon": -77.032312, "bike_id": "6e670cbed7ad41aacbff27e797f4baca", "fusion_lat": 0.0, "name": "6e670cbed7ad41aacbff27e797f4baca", "is_reserved": 0, "rental_uris": {"android": "https://dc.lft.to/lastmile_qr_scan", "ios": "https://dc.lft.to/lastmile_qr_scan"}, "fusion_lon": 0.0}, {"lat": 38.93538066666667, "is_disabled": 0, "type": "electric_scooter", "lon": -77.03404133333333, "bike_id": "f15c74fafa6ecc555001c965ed571ce4", "fusion_lat": 0.0, "name": "f15c74fafa6ecc555001c965ed571ce4", "is_reserved": 0, "rental_uris": {"android": "https://dc.lft.to/lastmile_qr_scan", "ios": "https://dc.lft.to/lastmile_qr_scan"}, "fusion_lon": 0.0}, {"lat": 38.907855, "is_disabled": 0, "type": "electric_scooter", "lon": -77.003636, "bike_id": "c00349e600575b4a8f80a9f8405f8d77", "fusion_lat": 0.0, "name": "c00349e600575b4a8f80a9f8405f8d77", "is_reserved": 0, "rental_uris": {"android": "https://dc.lft.to/lastmile_qr_scan", "ios": "https://dc.lft.to/lastmile_qr_scan"}, "fusion_lon": 0.0}, {"lat": 38.876434, "is_disabled": 0, "type": "electric_bike", "lon": -77.11783533333333, "bike_id": "05e44b3854c74425d10faed824431da5", "fusion_lat": 0.0, "name": "05e44b3854c74425d10faed824431da5", "is_reserved": 0, "rental_uris": {"android": "https://dc.lft.to/lastmile_qr_scan", "ios": "https://dc.lft.to/lastmile_qr_scan"}, "fusion_lon": 0.0}, {"lat": 38.90372083333333, "is_disabled": 0, "type": "electric_scooter", "lon": -77.05793866666667, "bike_id": "881d5f7ba53b26732064ca372a62d303", "fusion_lat": 0.0, "name": "881d5f7ba53b26732064ca372a62d303", "is_reserved": 0, "rental_uris": {"android": "https://dc.lft.to/lastmile_qr_scan", "ios": "https://dc.lft.to/lastmile_qr_scan"}, "fusion_lon": 0.0}, {"lat": 38.909414, "is_disabled": 0, "type": "electric_scooter", "lon": -77.04290683333333, "bike_id": "3907f660f373e53fb074d2b76e8a5976", "fusion_lat": 0.0, "name": "3907f660f373e53fb074d2b76e8a5976", "is_reserved": 0, "rental_uris": {"android": "https://dc.lft.to/lastmile_qr_scan", "ios": "https://dc.lft.to/lastmile_qr_scan"}, "fusion_lon": 0.0}, {"lat": 38.9155865, "is_disabled": 0, "type": "electric_scooter", "lon": -77.0316545, "bike_id": "1c115cc4d4c97f205d7e37913814c056", "fusion_lat": 0.0, "name": "1c115cc4d4c97f205d7e37913814c056", "is_reserved": 0, "rental_uris": {"android": "https://dc.lft.to/lastmile_qr_scan", "ios": "https://dc.lft.to/lastmile_qr_scan"}, "fusion_lon": 0.0}, {"lat": 38.855611333333336, "is_disabled": 0, "type": "electric_bike", "lon": -77.082024, "bike_id": "1351d183509f6eff12117b7521e624d6", "fusion_lat": 0.0, "name": "1351d183509f6eff12117b7521e624d6", "is_reserved": 0, "rental_uris": {"android": "https://dc.lft.to/lastmile_qr_scan", "ios": "https://dc.lft.to/lastmile_qr_scan"}, "fusion_lon": 0.0}, {"lat": 38.920511166666664, "is_disabled": 0, "type": "electric_scooter", "lon": -77.03397483333333, "bike_id": "0ddf6a64a7c6a640dbffd0f61e5bda86", "fusion_lat": 0.0, "name": "0ddf6a64a7c6a640dbffd0f61e5bda86", "is_reserved": 0, "rental_uris": {"android": "https://dc.lft.to/lastmile_qr_scan", "ios": "https://dc.lft.to/lastmile_qr_scan"}, "fusion_lon": 0.0}, {"lat": 38.902734833333334, "is_disabled": 0, "type": "electric_scooter", "lon": -77.01903883333334, "bike_id": "522232561bb676921e1350700e71f012", "fusion_lat": 0.0, "name": "522232561bb676921e1350700e71f012", "is_reserved": 0, "rental_uris": {"android": "https://dc.lft.to/lastmile_qr_scan", "ios": "https://dc.lft.to/lastmile_qr_scan"}, "fusion_lon": 0.0}, {"lat": 38.924926166666665, "is_disabled": 0, "type": "electric_scooter", "lon": -77.036389, "bike_id": "3a8953d621ac01709fae5708e79fe262", "fusion_lat": 0.0, "name": "3a8953d621ac01709fae5708e79fe262", "is_reserved": 0, "rental_uris": {"android": "https://dc.lft.to/lastmile_qr_scan", "ios": "https://dc.lft.to/lastmile_qr_scan"}, "fusion_lon": 0.0}, {"lat": 38.902357, "is_disabled": 0, "type": "electric_scooter", "lon": -77.023243, "bike_id": "c7e06bcee8fa501a713dadc3c39b88ad", "fusion_lat": 0.0, "name": "c7e06bcee8fa501a713dadc3c39b88ad", "is_reserved": 0, "rental_uris": {"android": "https://dc.lft.to/lastmile_qr_scan", "ios": "https://dc.lft.to/lastmile_qr_scan"}, "fusion_lon": 0.0}, {"lat": 38.89738533333333, "is_disabled": 0, "type": "electric_scooter", "lon": -76.94727366666666, "bike_id": "13f59d690d4c7eec452ba8e3b9b93eb9", "fusion_lat": 0.0, "name": "13f59d690d4c7eec452ba8e3b9b93eb9", "is_reserved": 0, "rental_uris": {"android": "https://dc.lft.to/lastmile_qr_scan", "ios": "https://dc.lft.to/lastmile_qr_scan"}, "fusion_lon": 0.0}, {"lat": 38.95358483333333, "is_disabled": 0, "type": "electric_bike", "lon": -76.98092283333334, "bike_id": "35ee07c43aa5b84336850a27fd8f164a", "fusion_lat": 0.0, "name": "35ee07c43aa5b84336850a27fd8f164a", "is_reserved": 0, "rental_uris": {"android": "https://dc.lft.to/lastmile_qr_scan", "ios": "https://dc.lft.to/lastmile_qr_scan"}, "fusion_lon": 0.0}, {"lat": 38.914156, "is_disabled": 0, "type": "electric_scooter", "lon": -77.0352575, "bike_id": "2667f030d7c66b9c533e5dc36ed60dda", "fusion_lat": 0.0, "name": "2667f030d7c66b9c533e5dc36ed60dda", "is_reserved": 0, "rental_uris": {"android": "https://dc.lft.to/lastmile_qr_scan", "ios": "https://dc.lft.to/lastmile_qr_scan"}, "fusion_lon": 0.0}, {"lat": 38.89941966666667, "is_disabled": 0, "type": "electric_scooter", "lon": -77.04091316666667, "bike_id": "2ac3e75bce6181705962e743361ce76f", "fusion_lat": 0.0, "name": "2ac3e75bce6181705962e743361ce76f", "is_reserved": 0, "rental_uris": {"android": "https://dc.lft.to/lastmile_qr_scan", "ios": "https://dc.lft.to/lastmile_qr_scan"}, "fusion_lon": 0.0}, {"lat": 38.903024333333335, "is_disabled": 0, "type": "electric_scooter", "lon": -77.05139466666667, "bike_id": "dde06434e5a0d62419e975f7093fdb6a", "fusion_lat": 0.0, "name": "dde06434e5a0d62419e975f7093fdb6a", "is_reserved": 0, "rental_uris": {"android": "https://dc.lft.to/lastmile_qr_scan", "ios": "https://dc.lft.to/lastmile_qr_scan"}, "fusion_lon": 0.0}, {"lat": 38.903972333333336, "is_disabled": 0, "type": "electric_scooter", "lon": -76.99298166666667, "bike_id": "c09edc42ef2af63a876137085d078748", "fusion_lat": 0.0, "name": "c09edc42ef2af63a876137085d078748", "is_reserved": 0, "rental_uris": {"android": "https://dc.lft.to/lastmile_qr_scan", "ios": "https://dc.lft.to/lastmile_qr_scan"}, "fusion_lon": 0.0}, {"lat": 38.898952, "is_disabled": 0, "type": "electric_scooter", "lon": -76.984248, "bike_id": "63fc621854ed7c2bbf175c477d804828", "fusion_lat": 0.0, "name": "63fc621854ed7c2bbf175c477d804828", "is_reserved": 0, "rental_uris": {"android": "https://dc.lft.to/lastmile_qr_scan", "ios": "https://dc.lft.to/lastmile_qr_scan"}, "fusion_lon": 0.0}, {"lat": 38.91692716666667, "is_disabled": 0, "type": "electric_scooter", "lon": -77.03636033333333, "bike_id": "ef577169156ea1921931774bebe4fcf7", "fusion_lat": 0.0, "name": "ef577169156ea1921931774bebe4fcf7", "is_reserved": 0, "rental_uris": {"android": "https://dc.lft.to/lastmile_qr_scan", "ios": "https://dc.lft.to/lastmile_qr_scan"}, "fusion_lon": 0.0}, {"lat": 38.939661, "is_disabled": 0, "type": "electric_bike", "lon": -77.36092466666666, "bike_id": "e3e67ba1568dc8c2faff4dbbd985f180", "fusion_lat": 0.0, "name": "e3e67ba1568dc8c2faff4dbbd985f180", "is_reserved": 0, "rental_uris": {"android": "https://dc.lft.to/lastmile_qr_scan", "ios": "https://dc.lft.to/lastmile_qr_scan"}, "fusion_lon": 0.0}, {"lat": 38.9275785, "is_disabled": 0, "type": "electric_scooter", "lon": -77.03217883333333, "bike_id": "36ca1553798b99e17efffba26aa4a5a5", "fusion_lat": 0.0, "name": "36ca1553798b99e17efffba26aa4a5a5", "is_reserved": 0, "rental_uris": {"android": "https://dc.lft.to/lastmile_qr_scan", "ios": "https://dc.lft.to/lastmile_qr_scan"}, "fusion_lon": 0.0}, {"lat": 38.899698, "is_disabled": 0, "type": "electric_scooter", "lon": -77.05702033333333, "bike_id": "357a017d97cbbed9139ca4745d31eb3c", "fusion_lat": 0.0, "name": "357a017d97cbbed9139ca4745d31eb3c", "is_reserved": 0, "rental_uris": {"android": "https://dc.lft.to/lastmile_qr_scan", "ios": "https://dc.lft.to/lastmile_qr_scan"}, "fusion_lon": 0.0}, {"lat": 38.8955845, "is_disabled": 0, "type": "electric_scooter", "lon": -76.93077616666666, "bike_id": "e83cd876b61747a36825c67a4b68168f", "fusion_lat": 0.0, "name": "e83cd876b61747a36825c67a4b68168f", "is_reserved": 0, "rental_uris": {"android": "https://dc.lft.to/lastmile_qr_scan", "ios": "https://dc.lft.to/lastmile_qr_scan"}, "fusion_lon": 0.0}, {"lat": 38.91707266666667, "is_disabled": 0, "type": "electric_scooter", "lon": -77.0011645, "bike_id": "d71d2ad46eb1badf512779261877e316", "fusion_lat": 0.0, "name": "d71d2ad46eb1badf512779261877e316", "is_reserved": 0, "rental_uris": {"android": "https://dc.lft.to/lastmile_qr_scan", "ios": "https://dc.lft.to/lastmile_qr_scan"}, "fusion_lon": 0.0}, {"lat": 38.93151983333333, "is_disabled": 0, "type": "electric_scooter", "lon": -77.029225, "bike_id": "ca87312a20b3338f6c8305dc06dcebc9", "fusion_lat": 0.0, "name": "ca87312a20b3338f6c8305dc06dcebc9", "is_reserved": 0, "rental_uris": {"android": "https://dc.lft.to/lastmile_qr_scan", "ios": "https://dc.lft.to/lastmile_qr_scan"}, "fusion_lon": 0.0}, {"lat": 38.9050725, "is_disabled": 0, "type": "electric_scooter", "lon": -77.064582, "bike_id": "c4bd191f440f66771937541723e4e0db", "fusion_lat": 0.0, "name": "c4bd191f440f66771937541723e4e0db", "is_reserved": 0, "rental_uris": {"android": "https://dc.lft.to/lastmile_qr_scan", "ios": "https://dc.lft.to/lastmile_qr_scan"}, "fusion_lon": 0.0}, {"lat": 38.89855816666667, "is_disabled": 0, "type": "electric_scooter", "lon": -77.0238375, "bike_id": "2f675519d3bb2433fe31a917c9e91ef3", "fusion_lat": 0.0, "name": "2f675519d3bb2433fe31a917c9e91ef3", "is_reserved": 0, "rental_uris": {"android": "https://dc.lft.to/lastmile_qr_scan", "ios": "https://dc.lft.to/lastmile_qr_scan"}, "fusion_lon": 0.0}, {"lat": 38.91732666666667, "is_disabled": 0, "type": "electric_scooter", "lon": -77.023972, "bike_id": "0752e1a230ac9514f30d07cc73641b3c", "fusion_lat": 0.0, "name": "0752e1a230ac9514f30d07cc73641b3c", "is_reserved": 0, "rental_uris": {"android": "https://dc.lft.to/lastmile_qr_scan", "ios": "https://dc.lft.to/lastmile_qr_scan"}, "fusion_lon": 0.0}, {"lat": 38.95287533333333, "is_disabled": 0, "type": "electric_bike", "lon": -76.94600283333334, "bike_id": "c55be4cecbf028eb969c8fa9351827e9", "fusion_lat": 0.0, "name": "c55be4cecbf028eb969c8fa9351827e9", "is_reserved": 0, "rental_uris": {"android": "https://dc.lft.to/lastmile_qr_scan", "ios": "https://dc.lft.to/lastmile_qr_scan"}, "fusion_lon": 0.0}, {"lat": 38.92004033333333, "is_disabled": 0, "type": "electric_scooter", "lon": -77.03874566666667, "bike_id": "3eace439a74ac7cc21b9760d2da4650b", "fusion_lat": 0.0, "name": "3eace439a74ac7cc21b9760d2da4650b", "is_reserved": 0, "rental_uris": {"android": "https://dc.lft.to/lastmile_qr_scan", "ios": "https://dc.lft.to/lastmile_qr_scan"}, "fusion_lon": 0.0}, {"lat": 38.919182666666664, "is_disabled": 0, "type": "electric_scooter", "lon": -77.0134465, "bike_id": "7cb9d8b8c5e7fd98b9abdaf2e2e83cb5", "fusion_lat": 0.0, "name": "7cb9d8b8c5e7fd98b9abdaf2e2e83cb5", "is_reserved": 0, "rental_uris": {"android": "https://dc.lft.to/lastmile_qr_scan", "ios": "https://dc.lft.to/lastmile_qr_scan"}, "fusion_lon": 0.0}, {"lat": 38.906129, "is_disabled": 0, "type": "electric_scooter", "lon": -77.06298483333333, "bike_id": "5d57805074be4d4c6adaf45634519222", "fusion_lat": 0.0, "name": "5d57805074be4d4c6adaf45634519222", "is_reserved": 0, "rental_uris": {"android": "https://dc.lft.to/lastmile_qr_scan", "ios": "https://dc.lft.to/lastmile_qr_scan"}, "fusion_lon": 0.0}, {"lat": 38.90041933333333, "is_disabled": 0, "type": "electric_scooter", "lon": -76.99015083333333, "bike_id": "5b4e4978f33ea63728e1ffb0da0ca95b", "fusion_lat": 0.0, "name": "5b4e4978f33ea63728e1ffb0da0ca95b", "is_reserved": 0, "rental_uris": {"android": "https://dc.lft.to/lastmile_qr_scan", "ios": "https://dc.lft.to/lastmile_qr_scan"}, "fusion_lon": 0.0}, {"lat": 38.93496583333334, "is_disabled": 0, "type": "electric_scooter", "lon": -77.05804833333333, "bike_id": "19277a27dba6fbdd3aaff8014c25cbff", "fusion_lat": 0.0, "name": "19277a27dba6fbdd3aaff8014c25cbff", "is_reserved": 0, "rental_uris": {"android": "https://dc.lft.to/lastmile_qr_scan", "ios": "https://dc.lft.to/lastmile_qr_scan"}, "fusion_lon": 0.0}, {"lat": 38.916893333333334, "is_disabled": 0, "type": "electric_scooter", "lon": -77.0376675, "bike_id": "b8ffc9e94bd24be30f966d74fc9f8b3d", "fusion_lat": 0.0, "name": "b8ffc9e94bd24be30f966d74fc9f8b3d", "is_reserved": 0, "rental_uris": {"android": "https://dc.lft.to/lastmile_qr_scan", "ios": "https://dc.lft.to/lastmile_qr_scan"}, "fusion_lon": 0.0}, {"lat": 38.930364833333336, "is_disabled": 0, "type": "electric_scooter", "lon": -77.03631616666667, "bike_id": "a542e3b8cd0ab427968f1ef2ce959ab4", "fusion_lat": 0.0, "name": "a542e3b8cd0ab427968f1ef2ce959ab4", "is_reserved": 0, "rental_uris": {"android": "https://dc.lft.to/lastmile_qr_scan", "ios": "https://dc.lft.to/lastmile_qr_scan"}, "fusion_lon": 0.0}, {"lat": 38.885564333333335, "is_disabled": 0, "type": "electric_scooter", "lon": -77.0198835, "bike_id": "a45fb3f7efd356524f501c8a9aadeecd", "fusion_lat": 0.0, "name": "a45fb3f7efd356524f501c8a9aadeecd", "is_reserved": 0, "rental_uris": {"android": "https://dc.lft.to/lastmile_qr_scan", "ios": "https://dc.lft.to/lastmile_qr_scan"}, "fusion_lon": 0.0}, {"lat": 38.901268333333334, "is_disabled": 0, "type": "electric_scooter", "lon": -77.03984566666666, "bike_id": "d687e5b8c874057e5e3b5ab6a0b9976b", "fusion_lat": 0.0, "name": "d687e5b8c874057e5e3b5ab6a0b9976b", "is_reserved": 0, "rental_uris": {"android": "https://dc.lft.to/lastmile_qr_scan", "ios": "https://dc.lft.to/lastmile_qr_scan"}, "fusion_lon": 0.0}, {"lat": 38.933485, "is_disabled": 0, "type": "electric_scooter", "lon": -77.05706516666666, "bike_id": "4657ba2fbc9b3f342add66ea74b4076b", "fusion_lat": 0.0, "name": "4657ba2fbc9b3f342add66ea74b4076b", "is_reserved": 0, "rental_uris": {"android": "https://dc.lft.to/lastmile_qr_scan", "ios": "https://dc.lft.to/lastmile_qr_scan"}, "fusion_lon": 0.0}, {"lat": 38.836769333333336, "is_disabled": 0, "type": "electric_scooter", "lon": -77.00570566666667, "bike_id": "99b655d84a6950b688cd0d8ca70e3ee2", "fusion_lat": 0.0, "name": "99b655d84a6950b688cd0d8ca70e3ee2", "is_reserved": 0, "rental_uris": {"android": "https://dc.lft.to/lastmile_qr_scan", "ios": "https://dc.lft.to/lastmile_qr_scan"}, "fusion_lon": 0.0}, {"lat": 38.87007416666667, "is_disabled": 0, "type": "electric_bike", "lon": -76.9601935, "bike_id": "f467fe49743f53bcfcbe9e16cda8a036", "fusion_lat": 0.0, "name": "f467fe49743f53bcfcbe9e16cda8a036", "is_reserved": 0, "rental_uris": {"android": "https://dc.lft.to/lastmile_qr_scan", "ios": "https://dc.lft.to/lastmile_qr_scan"}, "fusion_lon": 0.0}, {"lat": 38.9086645, "is_disabled": 0, "type": "electric_scooter", "lon": -77.0459395, "bike_id": "b10026237155bc1de32154145589a27b", "fusion_lat": 0.0, "name": "b10026237155bc1de32154145589a27b", "is_reserved": 0, "rental_uris": {"android": "https://dc.lft.to/lastmile_qr_scan", "ios": "https://dc.lft.to/lastmile_qr_scan"}, "fusion_lon": 0.0}, {"lat": 38.92426233333333, "is_disabled": 0, "type": "electric_scooter", "lon": -77.0518615, "bike_id": "c345105e40654a8b6d616573736aed6a", "fusion_lat": 0.0, "name": "c345105e40654a8b6d616573736aed6a", "is_reserved": 0, "rental_uris": {"android": "https://dc.lft.to/lastmile_qr_scan", "ios": "https://dc.lft.to/lastmile_qr_scan"}, "fusion_lon": 0.0}, {"lat": 38.916027666666665, "is_disabled": 0, "type": "electric_scooter", "lon": -77.0240645, "bike_id": "e80ca3a2b2a1805314af6f5edabbdf5f", "fusion_lat": 0.0, "name": "e80ca3a2b2a1805314af6f5edabbdf5f", "is_reserved": 0, "rental_uris": {"android": "https://dc.lft.to/lastmile_qr_scan", "ios": "https://dc.lft.to/lastmile_qr_scan"}, "fusion_lon": 0.0}, {"lat": 38.99408783333333, "is_disabled": 0, "type": "electric_bike", "lon": -77.0310105, "bike_id": "275784c7f9a46581c3f884f4d0ba4ce4", "fusion_lat": 0.0, "name": "275784c7f9a46581c3f884f4d0ba4ce4", "is_reserved": 0, "rental_uris": {"android": "https://dc.lft.to/lastmile_qr_scan", "ios": "https://dc.lft.to/lastmile_qr_scan"}, "fusion_lon": 0.0}, {"lat": 38.908662666666665, "is_disabled": 0, "type": "electric_scooter", "lon": -77.04659566666666, "bike_id": "b0735abf2278827c2fcc1a13208a95fc", "fusion_lat": 0.0, "name": "b0735abf2278827c2fcc1a13208a95fc", "is_reserved": 0, "rental_uris": {"android": "https://dc.lft.to/lastmile_qr_scan", "ios": "https://dc.lft.to/lastmile_qr_scan"}, "fusion_lon": 0.0}, {"lat": 38.91989933333333, "is_disabled": 0, "type": "electric_scooter", "lon": -76.973064, "bike_id": "95e658dda53de724a97deb7c00b02eb2", "fusion_lat": 0.0, "name": "95e658dda53de724a97deb7c00b02eb2", "is_reserved": 0, "rental_uris": {"android": "https://dc.lft.to/lastmile_qr_scan", "ios": "https://dc.lft.to/lastmile_qr_scan"}, "fusion_lon": 0.0}, {"lat": 38.89943783333333, "is_disabled": 0, "type": "electric_scooter", "lon": -77.0409595, "bike_id": "3152c8eefb8039e122ef98736d27ed9e", "fusion_lat": 0.0, "name": "3152c8eefb8039e122ef98736d27ed9e", "is_reserved": 0, "rental_uris": {"android": "https://dc.lft.to/lastmile_qr_scan", "ios": "https://dc.lft.to/lastmile_qr_scan"}, "fusion_lon": 0.0}, {"lat": 38.950064833333336, "is_disabled": 0, "type": "electric_scooter", "lon": -77.01564433333333, "bike_id": "2ecc3acea3f166cb169c6b6c0d76ede5", "fusion_lat": 0.0, "name": "2ecc3acea3f166cb169c6b6c0d76ede5", "is_reserved": 0, "rental_uris": {"android": "https://dc.lft.to/lastmile_qr_scan", "ios": "https://dc.lft.to/lastmile_qr_scan"}, "fusion_lon": 0.0}, {"lat": 38.907681, "is_disabled": 0, "type": "electric_scooter", "lon": -77.04345666666667, "bike_id": "2721d575a8e176a720cd69a86de7ec25", "fusion_lat": 0.0, "name": "2721d575a8e176a720cd69a86de7ec25", "is_reserved": 0, "rental_uris": {"android": "https://dc.lft.to/lastmile_qr_scan", "ios": "https://dc.lft.to/lastmile_qr_scan"}, "fusion_lon": 0.0}, {"lat": 38.905644333333335, "is_disabled": 0, "type": "electric_scooter", "lon": -77.065194, "bike_id": "1f06087bb6cfc307bd75d1911c960fda", "fusion_lat": 0.0, "name": "1f06087bb6cfc307bd75d1911c960fda", "is_reserved": 0, "rental_uris": {"android": "https://dc.lft.to/lastmile_qr_scan", "ios": "https://dc.lft.to/lastmile_qr_scan"}, "fusion_lon": 0.0}, {"lat": 38.90463416666667, "is_disabled": 0, "type": "electric_scooter", "lon": -77.02948166666667, "bike_id": "d7c01ce643d964e23a0734b16d83464d", "fusion_lat": 0.0, "name": "d7c01ce643d964e23a0734b16d83464d", "is_reserved": 0, "rental_uris": {"android": "https://dc.lft.to/lastmile_qr_scan", "ios": "https://dc.lft.to/lastmile_qr_scan"}, "fusion_lon": 0.0}, {"lat": 38.913462833333334, "is_disabled": 0, "type": "electric_scooter", "lon": -77.0318495, "bike_id": "b6f6aefb1f58a83f5913a1f18da6f475", "fusion_lat": 0.0, "name": "b6f6aefb1f58a83f5913a1f18da6f475", "is_reserved": 0, "rental_uris": {"android": "https://dc.lft.to/lastmile_qr_scan", "ios": "https://dc.lft.to/lastmile_qr_scan"}, "fusion_lon": 0.0}, {"lat": 38.917004666666664, "is_disabled": 0, "type": "electric_scooter", "lon": -77.008097, "bike_id": "ad689468dd65bd1d07123ef630c50c1f", "fusion_lat": 0.0, "name": "ad689468dd65bd1d07123ef630c50c1f", "is_reserved": 0, "rental_uris": {"android": "https://dc.lft.to/lastmile_qr_scan", "ios": "https://dc.lft.to/lastmile_qr_scan"}, "fusion_lon": 0.0}, {"lat": 38.930607, "is_disabled": 0, "type": "electric_scooter", "lon": -77.031537, "bike_id": "6ffdac0da06eb7e92ab316653e3a0539", "fusion_lat": 0.0, "name": "6ffdac0da06eb7e92ab316653e3a0539", "is_reserved": 0, "rental_uris": {"android": "https://dc.lft.to/lastmile_qr_scan", "ios": "https://dc.lft.to/lastmile_qr_scan"}, "fusion_lon": 0.0}, {"lat": 38.93634216666667, "is_disabled": 0, "type": "electric_scooter", "lon": -77.058815, "bike_id": "2bc4915317ba47fbcab9d6a23586f0c2", "fusion_lat": 0.0, "name": "2bc4915317ba47fbcab9d6a23586f0c2", "is_reserved": 0, "rental_uris": {"android": "https://dc.lft.to/lastmile_qr_scan", "ios": "https://dc.lft.to/lastmile_qr_scan"}, "fusion_lon": 0.0}, {"lat": 38.93218266666667, "is_disabled": 0, "type": "electric_scooter", "lon": -77.03656733333334, "bike_id": "210e3d6ac2613c610a50eab1e34d0ab4", "fusion_lat": 0.0, "name": "210e3d6ac2613c610a50eab1e34d0ab4", "is_reserved": 0, "rental_uris": {"android": "https://dc.lft.to/lastmile_qr_scan", "ios": "https://dc.lft.to/lastmile_qr_scan"}, "fusion_lon": 0.0}, {"lat": 38.90620333333333, "is_disabled": 0, "type": "electric_scooter", "lon": -76.98983616666666, "bike_id": "772c934de2f980d927e14a57ae440760", "fusion_lat": 0.0, "name": "772c934de2f980d927e14a57ae440760", "is_reserved": 0, "rental_uris": {"android": "https://dc.lft.to/lastmile_qr_scan", "ios": "https://dc.lft.to/lastmile_qr_scan"}, "fusion_lon": 0.0}, {"lat": 38.8771915, "is_disabled": 0, "type": "electric_bike", "lon": -76.99257283333333, "bike_id": "f89fffc0939ac3ce95fb175212b9415f", "fusion_lat": 0.0, "name": "f89fffc0939ac3ce95fb175212b9415f", "is_reserved": 0, "rental_uris": {"android": "https://dc.lft.to/lastmile_qr_scan", "ios": "https://dc.lft.to/lastmile_qr_scan"}, "fusion_lon": 0.0}, {"lat": 38.899148, "is_disabled": 0, "type": "electric_scooter", "lon": -76.93348983333334, "bike_id": "7d235264b676f20d767484c823cad9f4", "fusion_lat": 0.0, "name": "7d235264b676f20d767484c823cad9f4", "is_reserved": 0, "rental_uris": {"android": "https://dc.lft.to/lastmile_qr_scan", "ios": "https://dc.lft.to/lastmile_qr_scan"}, "fusion_lon": 0.0}, {"lat": 38.891111333333335, "is_disabled": 0, "type": "electric_scooter", "lon": -76.943847, "bike_id": "2905e8a17dd073226fb1156eaad3121f", "fusion_lat": 0.0, "name": "2905e8a17dd073226fb1156eaad3121f", "is_reserved": 0, "rental_uris": {"android": "https://dc.lft.to/lastmile_qr_scan", "ios": "https://dc.lft.to/lastmile_qr_scan"}, "fusion_lon": 0.0}, {"lat": 38.89617033333333, "is_disabled": 0, "type": "electric_bike", "lon": -77.0221615, "bike_id": "05f2ff83e8a2fcc1c59cd1e93eb9877f", "fusion_lat": 0.0, "name": "05f2ff83e8a2fcc1c59cd1e93eb9877f", "is_reserved": 0, "rental_uris": {"android": "https://dc.lft.to/lastmile_qr_scan", "ios": "https://dc.lft.to/lastmile_qr_scan"}, "fusion_lon": 0.0}, {"lat": 38.930580666666664, "is_disabled": 0, "type": "electric_scooter", "lon": -77.04177933333334, "bike_id": "152c3f99d8c57e511b0acda82c3e6191", "fusion_lat": 0.0, "name": "152c3f99d8c57e511b0acda82c3e6191", "is_reserved": 0, "rental_uris": {"android": "https://dc.lft.to/lastmile_qr_scan", "ios": "https://dc.lft.to/lastmile_qr_scan"}, "fusion_lon": 0.0}, {"lat": 38.91524016666666, "is_disabled": 0, "type": "electric_scooter", "lon": -77.03835616666667, "bike_id": "49fefc6ce39215a09b2397db7b6d2c4f", "fusion_lat": 0.0, "name": "49fefc6ce39215a09b2397db7b6d2c4f", "is_reserved": 0, "rental_uris": {"android": "https://dc.lft.to/lastmile_qr_scan", "ios": "https://dc.lft.to/lastmile_qr_scan"}, "fusion_lon": 0.0}, {"lat": 38.908703833333334, "is_disabled": 0, "type": "electric_scooter", "lon": -77.08595083333333, "bike_id": "13a74592099c90bff4582ffc4579398f", "fusion_lat": 0.0, "name": "13a74592099c90bff4582ffc4579398f", "is_reserved": 0, "rental_uris": {"android": "https://dc.lft.to/lastmile_qr_scan", "ios": "https://dc.lft.to/lastmile_qr_scan"}, "fusion_lon": 0.0}, {"lat": 38.85908083333333, "is_disabled": 0, "type": "electric_scooter", "lon": -76.991473, "bike_id": "bb11ae71b575bb3a749cf5b4263d68db", "fusion_lat": 0.0, "name": "bb11ae71b575bb3a749cf5b4263d68db", "is_reserved": 0, "rental_uris": {"android": "https://dc.lft.to/lastmile_qr_scan", "ios": "https://dc.lft.to/lastmile_qr_scan"}, "fusion_lon": 0.0}, {"lat": 38.914055, "is_disabled": 0, "type": "electric_bike", "lon": -77.048478, "bike_id": "bdfec9b0675398d0e425ba8ede22a597", "fusion_lat": 0.0, "name": "bdfec9b0675398d0e425ba8ede22a597", "is_reserved": 0, "rental_uris": {"android": "https://dc.lft.to/lastmile_qr_scan", "ios": "https://dc.lft.to/lastmile_qr_scan"}, "fusion_lon": 0.0}, {"lat": 38.93486583333333, "is_disabled": 0, "type": "electric_scooter", "lon": -77.07270333333334, "bike_id": "2df3df9bfaf57b8da36e00689606b1d3", "fusion_lat": 0.0, "name": "2df3df9bfaf57b8da36e00689606b1d3", "is_reserved": 0, "rental_uris": {"android": "https://dc.lft.to/lastmile_qr_scan", "ios": "https://dc.lft.to/lastmile_qr_scan"}, "fusion_lon": 0.0}, {"lat": 38.909755, "is_disabled": 0, "type": "electric_scooter", "lon": -77.03218483333333, "bike_id": "640ac811cf77e4889e5ce0081a4b3390", "fusion_lat": 0.0, "name": "640ac811cf77e4889e5ce0081a4b3390", "is_reserved": 0, "rental_uris": {"android": "https://dc.lft.to/lastmile_qr_scan", "ios": "https://dc.lft.to/lastmile_qr_scan"}, "fusion_lon": 0.0}, {"lat": 38.88746016666666, "is_disabled": 0, "type": "electric_scooter", "lon": -77.03149516666667, "bike_id": "bbc57db9c37e85c576fce94f0e60a89b", "fusion_lat": 0.0, "name": "bbc57db9c37e85c576fce94f0e60a89b", "is_reserved": 0, "rental_uris": {"android": "https://dc.lft.to/lastmile_qr_scan", "ios": "https://dc.lft.to/lastmile_qr_scan"}, "fusion_lon": 0.0}, {"lat": 38.90023583333333, "is_disabled": 0, "type": "electric_scooter", "lon": -77.00200916666667, "bike_id": "1aa2ebbdc81e346abfec7ef3fcbf782d", "fusion_lat": 0.0, "name": "1aa2ebbdc81e346abfec7ef3fcbf782d", "is_reserved": 0, "rental_uris": {"android": "https://dc.lft.to/lastmile_qr_scan", "ios": "https://dc.lft.to/lastmile_qr_scan"}, "fusion_lon": 0.0}, {"lat": 38.93479166666667, "is_disabled": 0, "type": "electric_scooter", "lon": -77.057895, "bike_id": "2680731d29f21a00466e931af97b7e0d", "fusion_lat": 0.0, "name": "2680731d29f21a00466e931af97b7e0d", "is_reserved": 0, "rental_uris": {"android": "https://dc.lft.to/lastmile_qr_scan", "ios": "https://dc.lft.to/lastmile_qr_scan"}, "fusion_lon": 0.0}, {"lat": 38.90252916666667, "is_disabled": 0, "type": "electric_scooter", "lon": -77.01757933333333, "bike_id": "433b9ae2f3d773712a87c901b11cd0a3", "fusion_lat": 0.0, "name": "433b9ae2f3d773712a87c901b11cd0a3", "is_reserved": 0, "rental_uris": {"android": "https://dc.lft.to/lastmile_qr_scan", "ios": "https://dc.lft.to/lastmile_qr_scan"}, "fusion_lon": 0.0}, {"lat": 38.9254285, "is_disabled": 0, "type": "electric_scooter", "lon": -77.03451633333333, "bike_id": "43a5cf3c474accb44d4264b166cdcde3", "fusion_lat": 0.0, "name": "43a5cf3c474accb44d4264b166cdcde3", "is_reserved": 0, "rental_uris": {"android": "https://dc.lft.to/lastmile_qr_scan", "ios": "https://dc.lft.to/lastmile_qr_scan"}, "fusion_lon": 0.0}, {"lat": 38.858093, "is_disabled": 0, "type": "electric_scooter", "lon": -76.9865375, "bike_id": "b30b25bd566ece93bcdbe04741158e72", "fusion_lat": 0.0, "name": "b30b25bd566ece93bcdbe04741158e72", "is_reserved": 0, "rental_uris": {"android": "https://dc.lft.to/lastmile_qr_scan", "ios": "https://dc.lft.to/lastmile_qr_scan"}, "fusion_lon": 0.0}, {"lat": 38.9661215, "is_disabled": 0, "type": "electric_scooter", "lon": -77.02055916666667, "bike_id": "5f9372e44121d7b3019d72efab7e0bc1", "fusion_lat": 0.0, "name": "5f9372e44121d7b3019d72efab7e0bc1", "is_reserved": 0, "rental_uris": {"android": "https://dc.lft.to/lastmile_qr_scan", "ios": "https://dc.lft.to/lastmile_qr_scan"}, "fusion_lon": 0.0}, {"lat": 38.91544966666667, "is_disabled": 0, "type": "electric_scooter", "lon": -77.02203783333333, "bike_id": "891bcb3c597fd85acc30cbf493082601", "fusion_lat": 0.0, "name": "891bcb3c597fd85acc30cbf493082601", "is_reserved": 0, "rental_uris": {"android": "https://dc.lft.to/lastmile_qr_scan", "ios": "https://dc.lft.to/lastmile_qr_scan"}, "fusion_lon": 0.0}, {"lat": 38.9001615, "is_disabled": 0, "type": "electric_scooter", "lon": -76.99864766666667, "bike_id": "4bdc2f358cd7d1d526b6e54955e0dc56", "fusion_lat": 0.0, "name": "4bdc2f358cd7d1d526b6e54955e0dc56", "is_reserved": 0, "rental_uris": {"android": "https://dc.lft.to/lastmile_qr_scan", "ios": "https://dc.lft.to/lastmile_qr_scan"}, "fusion_lon": 0.0}, {"lat": 38.91317016666667, "is_disabled": 0, "type": "electric_scooter", "lon": -77.03207666666667, "bike_id": "45bc9294097a87c42ec6e915294570e3", "fusion_lat": 0.0, "name": "45bc9294097a87c42ec6e915294570e3", "is_reserved": 0, "rental_uris": {"android": "https://dc.lft.to/lastmile_qr_scan", "ios": "https://dc.lft.to/lastmile_qr_scan"}, "fusion_lon": 0.0}, {"lat": 38.92485633333333, "is_disabled": 0, "type": "electric_scooter", "lon": -77.03182516666666, "bike_id": "38bae2df8429cbf784fcf9b972ad2f28", "fusion_lat": 0.0, "name": "38bae2df8429cbf784fcf9b972ad2f28", "is_reserved": 0, "rental_uris": {"android": "https://dc.lft.to/lastmile_qr_scan", "ios": "https://dc.lft.to/lastmile_qr_scan"}, "fusion_lon": 0.0}, {"lat": 38.955665833333335, "is_disabled": 0, "type": "electric_scooter", "lon": -77.02233416666667, "bike_id": "3692c9ad7e4209468a37c13f5fe6f8d5", "fusion_lat": 0.0, "name": "3692c9ad7e4209468a37c13f5fe6f8d5", "is_reserved": 0, "rental_uris": {"android": "https://dc.lft.to/lastmile_qr_scan", "ios": "https://dc.lft.to/lastmile_qr_scan"}, "fusion_lon": 0.0}, {"lat": 38.88187816666667, "is_disabled": 0, "type": "electric_scooter", "lon": -76.99503483333334, "bike_id": "84c6c1932fba7fc35b9df8c181bcba68", "fusion_lat": 0.0, "name": "84c6c1932fba7fc35b9df8c181bcba68", "is_reserved": 0, "rental_uris": {"android": "https://dc.lft.to/lastmile_qr_scan", "ios": "https://dc.lft.to/lastmile_qr_scan"}, "fusion_lon": 0.0}, {"lat": 38.8873475, "is_disabled": 0, "type": "electric_scooter", "lon": -77.03209116666666, "bike_id": "dce1417ced5104dde8a28fe03e05de13", "fusion_lat": 0.0, "name": "dce1417ced5104dde8a28fe03e05de13", "is_reserved": 0, "rental_uris": {"android": "https://dc.lft.to/lastmile_qr_scan", "ios": "https://dc.lft.to/lastmile_qr_scan"}, "fusion_lon": 0.0}, {"lat": 38.865604833333336, "is_disabled": 0, "type": "electric_scooter", "lon": -76.98951983333333, "bike_id": "37022ce7a26dd0cea2e9e0ef90c2226e", "fusion_lat": 0.0, "name": "37022ce7a26dd0cea2e9e0ef90c2226e", "is_reserved": 0, "rental_uris": {"android": "https://dc.lft.to/lastmile_qr_scan", "ios": "https://dc.lft.to/lastmile_qr_scan"}, "fusion_lon": 0.0}, {"lat": 38.909159833333334, "is_disabled": 0, "type": "electric_scooter", "lon": -77.03644166666666, "bike_id": "86f0a1947e6700694ea0ccd71294f8d1", "fusion_lat": 0.0, "name": "86f0a1947e6700694ea0ccd71294f8d1", "is_reserved": 0, "rental_uris": {"android": "https://dc.lft.to/lastmile_qr_scan", "ios": "https://dc.lft.to/lastmile_qr_scan"}, "fusion_lon": 0.0}, {"lat": 38.9387555, "is_disabled": 0, "type": "electric_scooter", "lon": -77.02445916666667, "bike_id": "0988f00ebceb07ba514a7dc791b3b1f4", "fusion_lat": 0.0, "name": "0988f00ebceb07ba514a7dc791b3b1f4", "is_reserved": 0, "rental_uris": {"android": "https://dc.lft.to/lastmile_qr_scan", "ios": "https://dc.lft.to/lastmile_qr_scan"}, "fusion_lon": 0.0}, {"lat": 38.85685316666667, "is_disabled": 0, "type": "electric_scooter", "lon": -76.981642, "bike_id": "b1230861f807cb3b747d471328ed1e33", "fusion_lat": 0.0, "name": "b1230861f807cb3b747d471328ed1e33", "is_reserved": 0, "rental_uris": {"android": "https://dc.lft.to/lastmile_qr_scan", "ios": "https://dc.lft.to/lastmile_qr_scan"}, "fusion_lon": 0.0}, {"lat": 38.93828033333333, "is_disabled": 0, "type": "electric_scooter", "lon": -77.02605616666666, "bike_id": "b897da7a4f2ad197e3a3d45f395c4795", "fusion_lat": 0.0, "name": "b897da7a4f2ad197e3a3d45f395c4795", "is_reserved": 0, "rental_uris": {"android": "https://dc.lft.to/lastmile_qr_scan", "ios": "https://dc.lft.to/lastmile_qr_scan"}, "fusion_lon": 0.0}, {"lat": 38.90567566666667, "is_disabled": 0, "type": "electric_scooter", "lon": -77.0626385, "bike_id": "80690196c5f370f8c61fb20a54e9694b", "fusion_lat": 0.0, "name": "80690196c5f370f8c61fb20a54e9694b", "is_reserved": 0, "rental_uris": {"android": "https://dc.lft.to/lastmile_qr_scan", "ios": "https://dc.lft.to/lastmile_qr_scan"}, "fusion_lon": 0.0}, {"lat": 38.8990385, "is_disabled": 0, "type": "electric_scooter", "lon": -76.98205066666667, "bike_id": "9c0295a59204d486aeb26a2eb2c7adbe", "fusion_lat": 0.0, "name": "9c0295a59204d486aeb26a2eb2c7adbe", "is_reserved": 0, "rental_uris": {"android": "https://dc.lft.to/lastmile_qr_scan", "ios": "https://dc.lft.to/lastmile_qr_scan"}, "fusion_lon": 0.0}, {"lat": 38.85519566666667, "is_disabled": 0, "type": "electric_bike", "lon": -76.98435716666667, "bike_id": "03dcfd0e82a5d06701178f9295f2e113", "fusion_lat": 0.0, "name": "03dcfd0e82a5d06701178f9295f2e113", "is_reserved": 0, "rental_uris": {"android": "https://dc.lft.to/lastmile_qr_scan", "ios": "https://dc.lft.to/lastmile_qr_scan"}, "fusion_lon": 0.0}, {"lat": 38.88996483333333, "is_disabled": 0, "type": "electric_scooter", "lon": -76.95568916666667, "bike_id": "73c6faf29c1e8027e33cec89c0a8d625", "fusion_lat": 0.0, "name": "73c6faf29c1e8027e33cec89c0a8d625", "is_reserved": 0, "rental_uris": {"android": "https://dc.lft.to/lastmile_qr_scan", "ios": "https://dc.lft.to/lastmile_qr_scan"}, "fusion_lon": 0.0}, {"lat": 38.934215, "is_disabled": 0, "type": "electric_scooter", "lon": -77.04137216666666, "bike_id": "fd870d4a8d913e43b0065220f2845389", "fusion_lat": 0.0, "name": "fd870d4a8d913e43b0065220f2845389", "is_reserved": 0, "rental_uris": {"android": "https://dc.lft.to/lastmile_qr_scan", "ios": "https://dc.lft.to/lastmile_qr_scan"}, "fusion_lon": 0.0}, {"lat": 38.93814966666667, "is_disabled": 0, "type": "electric_bike", "lon": -77.0264745, "bike_id": "bad9b314fd606880f0222b8135617314", "fusion_lat": 0.0, "name": "bad9b314fd606880f0222b8135617314", "is_reserved": 0, "rental_uris": {"android": "https://dc.lft.to/lastmile_qr_scan", "ios": "https://dc.lft.to/lastmile_qr_scan"}, "fusion_lon": 0.0}, {"lat": 38.837268, "is_disabled": 0, "type": "electric_bike", "lon": -76.997588, "bike_id": "f8b6f1cfa98e763f9a4756a3840ee039", "fusion_lat": 0.0, "name": "f8b6f1cfa98e763f9a4756a3840ee039", "is_reserved": 0, "rental_uris": {"android": "https://dc.lft.to/lastmile_qr_scan", "ios": "https://dc.lft.to/lastmile_qr_scan"}, "fusion_lon": 0.0}, {"lat": 38.906840333333335, "is_disabled": 0, "type": "electric_scooter", "lon": -77.07168416666667, "bike_id": "9ab51d53df7e0b1a593dd874882f06cb", "fusion_lat": 0.0, "name": "9ab51d53df7e0b1a593dd874882f06cb", "is_reserved": 0, "rental_uris": {"android": "https://dc.lft.to/lastmile_qr_scan", "ios": "https://dc.lft.to/lastmile_qr_scan"}, "fusion_lon": 0.0}, {"lat": 38.916141, "is_disabled": 0, "type": "electric_scooter", "lon": -77.02551066666666, "bike_id": "06170689b346ff61fdea1f5960667879", "fusion_lat": 0.0, "name": "06170689b346ff61fdea1f5960667879", "is_reserved": 0, "rental_uris": {"android": "https://dc.lft.to/lastmile_qr_scan", "ios": "https://dc.lft.to/lastmile_qr_scan"}, "fusion_lon": 0.0}, {"lat": 38.89731733333333, "is_disabled": 0, "type": "electric_scooter", "lon": -77.00757783333333, "bike_id": "2b1e8e89f846cee17a260af0ddac5a7b", "fusion_lat": 0.0, "name": "2b1e8e89f846cee17a260af0ddac5a7b", "is_reserved": 0, "rental_uris": {"android": "https://dc.lft.to/lastmile_qr_scan", "ios": "https://dc.lft.to/lastmile_qr_scan"}, "fusion_lon": 0.0}, {"lat": 38.88623233333333, "is_disabled": 0, "type": "electric_scooter", "lon": -77.003535, "bike_id": "5693179734baa80a506370560a9fe3cf", "fusion_lat": 0.0, "name": "5693179734baa80a506370560a9fe3cf", "is_reserved": 0, "rental_uris": {"android": "https://dc.lft.to/lastmile_qr_scan", "ios": "https://dc.lft.to/lastmile_qr_scan"}, "fusion_lon": 0.0}, {"lat": 38.9026645, "is_disabled": 0, "type": "electric_scooter", "lon": -77.04365283333334, "bike_id": "619a40317963718cbc2c0e9fd02d23ec", "fusion_lat": 0.0, "name": "619a40317963718cbc2c0e9fd02d23ec", "is_reserved": 0, "rental_uris": {"android": "https://dc.lft.to/lastmile_qr_scan", "ios": "https://dc.lft.to/lastmile_qr_scan"}, "fusion_lon": 0.0}, {"lat": 38.9096685, "is_disabled": 0, "type": "electric_scooter", "lon": -77.047953, "bike_id": "75fd07a9d7191403c3c501a50317e79a", "fusion_lat": 0.0, "name": "75fd07a9d7191403c3c501a50317e79a", "is_reserved": 0, "rental_uris": {"android": "https://dc.lft.to/lastmile_qr_scan", "ios": "https://dc.lft.to/lastmile_qr_scan"}, "fusion_lon": 0.0}, {"lat": 38.909754666666664, "is_disabled": 0, "type": "electric_scooter", "lon": -77.02392, "bike_id": "1e314e00c40ba87ae9d27f4a372d17c8", "fusion_lat": 0.0, "name": "1e314e00c40ba87ae9d27f4a372d17c8", "is_reserved": 0, "rental_uris": {"android": "https://dc.lft.to/lastmile_qr_scan", "ios": "https://dc.lft.to/lastmile_qr_scan"}, "fusion_lon": 0.0}, {"lat": 38.916985, "is_disabled": 0, "type": "electric_scooter", "lon": -77.029165, "bike_id": "01ec2068148f8b1d82718d9ec68fb05b", "fusion_lat": 0.0, "name": "01ec2068148f8b1d82718d9ec68fb05b", "is_reserved": 0, "rental_uris": {"android": "https://dc.lft.to/lastmile_qr_scan", "ios": "https://dc.lft.to/lastmile_qr_scan"}, "fusion_lon": 0.0}, {"lat": 38.90149483333333, "is_disabled": 0, "type": "electric_scooter", "lon": -77.041472, "bike_id": "30ef6071a01bd6c5184e79f48f024d3c", "fusion_lat": 0.0, "name": "30ef6071a01bd6c5184e79f48f024d3c", "is_reserved": 0, "rental_uris": {"android": "https://dc.lft.to/lastmile_qr_scan", "ios": "https://dc.lft.to/lastmile_qr_scan"}, "fusion_lon": 0.0}, {"lat": 38.91816983333333, "is_disabled": 0, "type": "electric_scooter", "lon": -77.024751, "bike_id": "a322e3435bd1f2eabf20fa9fd243ab0b", "fusion_lat": 0.0, "name": "a322e3435bd1f2eabf20fa9fd243ab0b", "is_reserved": 0, "rental_uris": {"android": "https://dc.lft.to/lastmile_qr_scan", "ios": "https://dc.lft.to/lastmile_qr_scan"}, "fusion_lon": 0.0}, {"lat": 38.903748666666665, "is_disabled": 0, "type": "electric_scooter", "lon": -77.017678, "bike_id": "87c49a2020f000aff4dc92d4b8e32e2d", "fusion_lat": 0.0, "name": "87c49a2020f000aff4dc92d4b8e32e2d", "is_reserved": 0, "rental_uris": {"android": "https://dc.lft.to/lastmile_qr_scan", "ios": "https://dc.lft.to/lastmile_qr_scan"}, "fusion_lon": 0.0}, {"lat": 38.944393166666664, "is_disabled": 0, "type": "electric_scooter", "lon": -77.023457, "bike_id": "9894b0218d50f4c9005e50230953bd92", "fusion_lat": 0.0, "name": "9894b0218d50f4c9005e50230953bd92", "is_reserved": 0, "rental_uris": {"android": "https://dc.lft.to/lastmile_qr_scan", "ios": "https://dc.lft.to/lastmile_qr_scan"}, "fusion_lon": 0.0}, {"lat": 38.85734733333334, "is_disabled": 0, "type": "electric_scooter", "lon": -76.99432883333333, "bike_id": "82aeb86aa15b848955d98c171b0d27d9", "fusion_lat": 0.0, "name": "82aeb86aa15b848955d98c171b0d27d9", "is_reserved": 0, "rental_uris": {"android": "https://dc.lft.to/lastmile_qr_scan", "ios": "https://dc.lft.to/lastmile_qr_scan"}, "fusion_lon": 0.0}, {"lat": 38.93983733333334, "is_disabled": 0, "type": "electric_scooter", "lon": -77.01923666666667, "bike_id": "2b743423b20d42f2b201ac2a08afb63d", "fusion_lat": 0.0, "name": "2b743423b20d42f2b201ac2a08afb63d", "is_reserved": 0, "rental_uris": {"android": "https://dc.lft.to/lastmile_qr_scan", "ios": "https://dc.lft.to/lastmile_qr_scan"}, "fusion_lon": 0.0}, {"lat": 38.9215, "is_disabled": 0, "type": "electric_scooter", "lon": -77.04229866666667, "bike_id": "6e896483564a1667f9969ffaf7df9bdd", "fusion_lat": 0.0, "name": "6e896483564a1667f9969ffaf7df9bdd", "is_reserved": 0, "rental_uris": {"android": "https://dc.lft.to/lastmile_qr_scan", "ios": "https://dc.lft.to/lastmile_qr_scan"}, "fusion_lon": 0.0}, {"lat": 38.9096145, "is_disabled": 0, "type": "electric_scooter", "lon": -77.021281, "bike_id": "559acbe0059caccc98874cb802bd18cb", "fusion_lat": 0.0, "name": "559acbe0059caccc98874cb802bd18cb", "is_reserved": 0, "rental_uris": {"android": "https://dc.lft.to/lastmile_qr_scan", "ios": "https://dc.lft.to/lastmile_qr_scan"}, "fusion_lon": 0.0}, {"lat": 38.95733333333333, "is_disabled": 0, "type": "electric_scooter", "lon": -77.024048, "bike_id": "37431f4a740cb3324ca276f9f6182827", "fusion_lat": 0.0, "name": "37431f4a740cb3324ca276f9f6182827", "is_reserved": 0, "rental_uris": {"android": "https://dc.lft.to/lastmile_qr_scan", "ios": "https://dc.lft.to/lastmile_qr_scan"}, "fusion_lon": 0.0}, {"lat": 38.9057425, "is_disabled": 0, "type": "electric_bike", "lon": -77.04504233333333, "bike_id": "b17f7bc7efa5883696c7795d047f39ca", "fusion_lat": 0.0, "name": "b17f7bc7efa5883696c7795d047f39ca", "is_reserved": 0, "rental_uris": {"android": "https://dc.lft.to/lastmile_qr_scan", "ios": "https://dc.lft.to/lastmile_qr_scan"}, "fusion_lon": 0.0}, {"lat": 38.93149666666667, "is_disabled": 0, "type": "electric_scooter", "lon": -77.03840166666667, "bike_id": "409daf8650004a43481a7b0faeadd8e8", "fusion_lat": 0.0, "name": "409daf8650004a43481a7b0faeadd8e8", "is_reserved": 0, "rental_uris": {"android": "https://dc.lft.to/lastmile_qr_scan", "ios": "https://dc.lft.to/lastmile_qr_scan"}, "fusion_lon": 0.0}, {"lat": 38.902347, "is_disabled": 0, "type": "electric_scooter", "lon": -77.02681416666667, "bike_id": "237fc9f8202bdd9f0fad79be46bf44e9", "fusion_lat": 0.0, "name": "237fc9f8202bdd9f0fad79be46bf44e9", "is_reserved": 0, "rental_uris": {"android": "https://dc.lft.to/lastmile_qr_scan", "ios": "https://dc.lft.to/lastmile_qr_scan"}, "fusion_lon": 0.0}, {"lat": 38.932024166666665, "is_disabled": 0, "type": "electric_scooter", "lon": -77.038574, "bike_id": "1b16fbf2710ef2ae2796eec865f87d76", "fusion_lat": 0.0, "name": "1b16fbf2710ef2ae2796eec865f87d76", "is_reserved": 0, "rental_uris": {"android": "https://dc.lft.to/lastmile_qr_scan", "ios": "https://dc.lft.to/lastmile_qr_scan"}, "fusion_lon": 0.0}, {"lat": 38.90686316666667, "is_disabled": 0, "type": "electric_scooter", "lon": -77.05795583333334, "bike_id": "23b55808556883c0a9ad887369b2cebe", "fusion_lat": 0.0, "name": "23b55808556883c0a9ad887369b2cebe", "is_reserved": 0, "rental_uris": {"android": "https://dc.lft.to/lastmile_qr_scan", "ios": "https://dc.lft.to/lastmile_qr_scan"}, "fusion_lon": 0.0}, {"lat": 38.886142, "is_disabled": 0, "type": "electric_scooter", "lon": -77.02169916666666, "bike_id": "d14e09156332b50572e2d6b3b9090c6a", "fusion_lat": 0.0, "name": "d14e09156332b50572e2d6b3b9090c6a", "is_reserved": 0, "rental_uris": {"android": "https://dc.lft.to/lastmile_qr_scan", "ios": "https://dc.lft.to/lastmile_qr_scan"}, "fusion_lon": 0.0}, {"lat": 38.90848966666667, "is_disabled": 0, "type": "electric_scooter", "lon": -77.04468716666666, "bike_id": "d08a7daf4fb1b0601a5ed812688ca410", "fusion_lat": 0.0, "name": "d08a7daf4fb1b0601a5ed812688ca410", "is_reserved": 0, "rental_uris": {"android": "https://dc.lft.to/lastmile_qr_scan", "ios": "https://dc.lft.to/lastmile_qr_scan"}, "fusion_lon": 0.0}, {"lat": 38.89218966666667, "is_disabled": 0, "type": "electric_scooter", "lon": -77.02162116666666, "bike_id": "3cbb42a1756738a09877614460813fe8", "fusion_lat": 0.0, "name": "3cbb42a1756738a09877614460813fe8", "is_reserved": 0, "rental_uris": {"android": "https://dc.lft.to/lastmile_qr_scan", "ios": "https://dc.lft.to/lastmile_qr_scan"}, "fusion_lon": 0.0}, {"lat": 38.946336333333335, "is_disabled": 0, "type": "electric_scooter", "lon": -77.0252175, "bike_id": "4579e1aa5aa4dfe237e6c1bb68964392", "fusion_lat": 0.0, "name": "4579e1aa5aa4dfe237e6c1bb68964392", "is_reserved": 0, "rental_uris": {"android": "https://dc.lft.to/lastmile_qr_scan", "ios": "https://dc.lft.to/lastmile_qr_scan"}, "fusion_lon": 0.0}, {"lat": 38.924093666666664, "is_disabled": 0, "type": "electric_scooter", "lon": -77.0504255, "bike_id": "8df46edf7307f103bdbe73ea4a486cbb", "fusion_lat": 0.0, "name": "8df46edf7307f103bdbe73ea4a486cbb", "is_reserved": 0, "rental_uris": {"android": "https://dc.lft.to/lastmile_qr_scan", "ios": "https://dc.lft.to/lastmile_qr_scan"}, "fusion_lon": 0.0}, {"lat": 38.900087666666664, "is_disabled": 0, "type": "electric_scooter", "lon": -77.04025, "bike_id": "43490e812d8810b63433e836e2ee1bec", "fusion_lat": 0.0, "name": "43490e812d8810b63433e836e2ee1bec", "is_reserved": 0, "rental_uris": {"android": "https://dc.lft.to/lastmile_qr_scan", "ios": "https://dc.lft.to/lastmile_qr_scan"}, "fusion_lon": 0.0}, {"lat": 38.92770133333333, "is_disabled": 0, "type": "electric_scooter", "lon": -77.0230975, "bike_id": "15e6f74098ceed75ff42bcc321af85ab", "fusion_lat": 0.0, "name": "15e6f74098ceed75ff42bcc321af85ab", "is_reserved": 0, "rental_uris": {"android": "https://dc.lft.to/lastmile_qr_scan", "ios": "https://dc.lft.to/lastmile_qr_scan"}, "fusion_lon": 0.0}, {"lat": 38.87095033333333, "is_disabled": 0, "type": "electric_scooter", "lon": -77.01205183333333, "bike_id": "79c5519033c8ad05570eed78438c596d", "fusion_lat": 0.0, "name": "79c5519033c8ad05570eed78438c596d", "is_reserved": 0, "rental_uris": {"android": "https://dc.lft.to/lastmile_qr_scan", "ios": "https://dc.lft.to/lastmile_qr_scan"}, "fusion_lon": 0.0}, {"lat": 38.91552266666667, "is_disabled": 0, "type": "electric_scooter", "lon": -77.03833583333333, "bike_id": "dcc9dd1fb2af7118866c9b5dc8995be0", "fusion_lat": 0.0, "name": "dcc9dd1fb2af7118866c9b5dc8995be0", "is_reserved": 0, "rental_uris": {"android": "https://dc.lft.to/lastmile_qr_scan", "ios": "https://dc.lft.to/lastmile_qr_scan"}, "fusion_lon": 0.0}, {"lat": 38.936438333333335, "is_disabled": 0, "type": "electric_scooter", "lon": -77.02088, "bike_id": "4fb09a3d4ee5b0c8954265995314c329", "fusion_lat": 0.0, "name": "4fb09a3d4ee5b0c8954265995314c329", "is_reserved": 0, "rental_uris": {"android": "https://dc.lft.to/lastmile_qr_scan", "ios": "https://dc.lft.to/lastmile_qr_scan"}, "fusion_lon": 0.0}, {"lat": 38.93265066666667, "is_disabled": 0, "type": "electric_scooter", "lon": -77.03260316666666, "bike_id": "26eeb914763c4284c26fa3818b79ad92", "fusion_lat": 0.0, "name": "26eeb914763c4284c26fa3818b79ad92", "is_reserved": 0, "rental_uris": {"android": "https://dc.lft.to/lastmile_qr_scan", "ios": "https://dc.lft.to/lastmile_qr_scan"}, "fusion_lon": 0.0}, {"lat": 38.906849333333334, "is_disabled": 0, "type": "electric_scooter", "lon": -77.06268583333333, "bike_id": "a19f0b0a5bee6203ab823e614360d9a2", "fusion_lat": 0.0, "name": "a19f0b0a5bee6203ab823e614360d9a2", "is_reserved": 0, "rental_uris": {"android": "https://dc.lft.to/lastmile_qr_scan", "ios": "https://dc.lft.to/lastmile_qr_scan"}, "fusion_lon": 0.0}, {"lat": 38.8665875, "is_disabled": 0, "type": "electric_scooter", "lon": -76.98891366666666, "bike_id": "f90533c7d1995def80bbd658e2537316", "fusion_lat": 0.0, "name": "f90533c7d1995def80bbd658e2537316", "is_reserved": 0, "rental_uris": {"android": "https://dc.lft.to/lastmile_qr_scan", "ios": "https://dc.lft.to/lastmile_qr_scan"}, "fusion_lon": 0.0}, {"lat": 38.9218095, "is_disabled": 0, "type": "electric_scooter", "lon": -77.04700483333333, "bike_id": "18066b6d32e7d6cfbcb98ef38c99d375", "fusion_lat": 0.0, "name": "18066b6d32e7d6cfbcb98ef38c99d375", "is_reserved": 0, "rental_uris": {"android": "https://dc.lft.to/lastmile_qr_scan", "ios": "https://dc.lft.to/lastmile_qr_scan"}, "fusion_lon": 0.0}, {"lat": 38.964948666666665, "is_disabled": 0, "type": "electric_scooter", "lon": -77.02789433333334, "bike_id": "4fcdcc411ee231de23af350e24a275ad", "fusion_lat": 0.0, "name": "4fcdcc411ee231de23af350e24a275ad", "is_reserved": 0, "rental_uris": {"android": "https://dc.lft.to/lastmile_qr_scan", "ios": "https://dc.lft.to/lastmile_qr_scan"}, "fusion_lon": 0.0}, {"lat": 38.92301916666667, "is_disabled": 0, "type": "electric_scooter", "lon": -77.04143433333333, "bike_id": "2d3fe81b986b13e895322c35ad731fb2", "fusion_lat": 0.0, "name": "2d3fe81b986b13e895322c35ad731fb2", "is_reserved": 0, "rental_uris": {"android": "https://dc.lft.to/lastmile_qr_scan", "ios": "https://dc.lft.to/lastmile_qr_scan"}, "fusion_lon": 0.0}, {"lat": 38.9002975, "is_disabled": 0, "type": "electric_scooter", "lon": -77.00204483333333, "bike_id": "bd6487b76275be1a9bcf4c56b6af77c8", "fusion_lat": 0.0, "name": "bd6487b76275be1a9bcf4c56b6af77c8", "is_reserved": 0, "rental_uris": {"android": "https://dc.lft.to/lastmile_qr_scan", "ios": "https://dc.lft.to/lastmile_qr_scan"}, "fusion_lon": 0.0}, {"lat": 38.932409, "is_disabled": 0, "type": "electric_scooter", "lon": -77.032593, "bike_id": "752d0ff1c95a26a76f455a29300578f8", "fusion_lat": 0.0, "name": "752d0ff1c95a26a76f455a29300578f8", "is_reserved": 0, "rental_uris": {"android": "https://dc.lft.to/lastmile_qr_scan", "ios": "https://dc.lft.to/lastmile_qr_scan"}, "fusion_lon": 0.0}, {"lat": 38.90526783333333, "is_disabled": 0, "type": "electric_scooter", "lon": -76.98624183333334, "bike_id": "edf21b581fbbb911082cf17a94004e1c", "fusion_lat": 0.0, "name": "edf21b581fbbb911082cf17a94004e1c", "is_reserved": 0, "rental_uris": {"android": "https://dc.lft.to/lastmile_qr_scan", "ios": "https://dc.lft.to/lastmile_qr_scan"}, "fusion_lon": 0.0}, {"lat": 38.9037805, "is_disabled": 0, "type": "electric_scooter", "lon": -77.0026925, "bike_id": "ba5f2ae7bd4e169b805b075d186ba112", "fusion_lat": 0.0, "name": "ba5f2ae7bd4e169b805b075d186ba112", "is_reserved": 0, "rental_uris": {"android": "https://dc.lft.to/lastmile_qr_scan", "ios": "https://dc.lft.to/lastmile_qr_scan"}, "fusion_lon": 0.0}, {"lat": 38.921585666666665, "is_disabled": 0, "type": "electric_scooter", "lon": -77.03381283333333, "bike_id": "ce3a8c06e4312b057183e0c305911575", "fusion_lat": 0.0, "name": "ce3a8c06e4312b057183e0c305911575", "is_reserved": 0, "rental_uris": {"android": "https://dc.lft.to/lastmile_qr_scan", "ios": "https://dc.lft.to/lastmile_qr_scan"}, "fusion_lon": 0.0}, {"lat": 38.9202895, "is_disabled": 0, "type": "electric_scooter", "lon": -77.038544, "bike_id": "e9292785df56000315b1dac64ec11878", "fusion_lat": 0.0, "name": "e9292785df56000315b1dac64ec11878", "is_reserved": 0, "rental_uris": {"android": "https://dc.lft.to/lastmile_qr_scan", "ios": "https://dc.lft.to/lastmile_qr_scan"}, "fusion_lon": 0.0}, {"lat": 38.897499833333335, "is_disabled": 0, "type": "electric_scooter", "lon": -77.01856483333333, "bike_id": "04ec852fa9917e141541a8e681b37e5c", "fusion_lat": 0.0, "name": "04ec852fa9917e141541a8e681b37e5c", "is_reserved": 0, "rental_uris": {"android": "https://dc.lft.to/lastmile_qr_scan", "ios": "https://dc.lft.to/lastmile_qr_scan"}, "fusion_lon": 0.0}, {"lat": 38.9170985, "is_disabled": 0, "type": "electric_scooter", "lon": -77.03503933333333, "bike_id": "e26abf57ba8fa483ec251f9c4a32361e", "fusion_lat": 0.0, "name": "e26abf57ba8fa483ec251f9c4a32361e", "is_reserved": 0, "rental_uris": {"android": "https://dc.lft.to/lastmile_qr_scan", "ios": "https://dc.lft.to/lastmile_qr_scan"}, "fusion_lon": 0.0}, {"lat": 38.91706683333334, "is_disabled": 0, "type": "electric_scooter", "lon": -77.0348485, "bike_id": "3cd107335f921421705fd0fdc66b81c0", "fusion_lat": 0.0, "name": "3cd107335f921421705fd0fdc66b81c0", "is_reserved": 0, "rental_uris": {"android": "https://dc.lft.to/lastmile_qr_scan", "ios": "https://dc.lft.to/lastmile_qr_scan"}, "fusion_lon": 0.0}, {"lat": 38.903884, "is_disabled": 0, "type": "electric_bike", "lon": -77.01605183333334, "bike_id": "f0c9cceae29ec8850509d2ff9c07b1d2", "fusion_lat": 0.0, "name": "f0c9cceae29ec8850509d2ff9c07b1d2", "is_reserved": 0, "rental_uris": {"android": "https://dc.lft.to/lastmile_qr_scan", "ios": "https://dc.lft.to/lastmile_qr_scan"}, "fusion_lon": 0.0}, {"lat": 38.907817333333334, "is_disabled": 0, "type": "electric_scooter", "lon": -77.064046, "bike_id": "96d5703a310c10fbe86779bb56ee582c", "fusion_lat": 0.0, "name": "96d5703a310c10fbe86779bb56ee582c", "is_reserved": 0, "rental_uris": {"android": "https://dc.lft.to/lastmile_qr_scan", "ios": "https://dc.lft.to/lastmile_qr_scan"}, "fusion_lon": 0.0}, {"lat": 38.802686333333334, "is_disabled": 0, "type": "electric_bike", "lon": -77.08112983333334, "bike_id": "298ec7c2ee1805199167422a9659953b", "fusion_lat": 0.0, "name": "298ec7c2ee1805199167422a9659953b", "is_reserved": 0, "rental_uris": {"android": "https://dc.lft.to/lastmile_qr_scan", "ios": "https://dc.lft.to/lastmile_qr_scan"}, "fusion_lon": 0.0}, {"lat": 38.93337733333333, "is_disabled": 0, "type": "electric_scooter", "lon": -77.0239565, "bike_id": "f468682e143c1e55b69bc421051332ab", "fusion_lat": 0.0, "name": "f468682e143c1e55b69bc421051332ab", "is_reserved": 0, "rental_uris": {"android": "https://dc.lft.to/lastmile_qr_scan", "ios": "https://dc.lft.to/lastmile_qr_scan"}, "fusion_lon": 0.0}, {"lat": 38.9095285, "is_disabled": 0, "type": "electric_scooter", "lon": -77.040575, "bike_id": "a6cce243ca376355de70b2562f329ba6", "fusion_lat": 0.0, "name": "a6cce243ca376355de70b2562f329ba6", "is_reserved": 0, "rental_uris": {"android": "https://dc.lft.to/lastmile_qr_scan", "ios": "https://dc.lft.to/lastmile_qr_scan"}, "fusion_lon": 0.0}, {"lat": 38.9141605, "is_disabled": 0, "type": "electric_scooter", "lon": -77.0223125, "bike_id": "3a59da5c5a79b739d89b65bef1810c81", "fusion_lat": 0.0, "name": "3a59da5c5a79b739d89b65bef1810c81", "is_reserved": 0, "rental_uris": {"android": "https://dc.lft.to/lastmile_qr_scan", "ios": "https://dc.lft.to/lastmile_qr_scan"}, "fusion_lon": 0.0}, {"lat": 38.898197833333334, "is_disabled": 0, "type": "electric_scooter", "lon": -77.03329383333333, "bike_id": "d4fa23c121815a45977c6c303664ea2e", "fusion_lat": 0.0, "name": "d4fa23c121815a45977c6c303664ea2e", "is_reserved": 0, "rental_uris": {"android": "https://dc.lft.to/lastmile_qr_scan", "ios": "https://dc.lft.to/lastmile_qr_scan"}, "fusion_lon": 0.0}, {"lat": 38.92345916666667, "is_disabled": 0, "type": "electric_scooter", "lon": -77.02443316666667, "bike_id": "13a83cdada9d44678a1a65a82e128c37", "fusion_lat": 0.0, "name": "13a83cdada9d44678a1a65a82e128c37", "is_reserved": 0, "rental_uris": {"android": "https://dc.lft.to/lastmile_qr_scan", "ios": "https://dc.lft.to/lastmile_qr_scan"}, "fusion_lon": 0.0}, {"lat": 38.95400166666667, "is_disabled": 0, "type": "electric_scooter", "lon": -77.02747783333334, "bike_id": "9ea05aa7a974f3dea47807cdb3fad8db", "fusion_lat": 0.0, "name": "9ea05aa7a974f3dea47807cdb3fad8db", "is_reserved": 0, "rental_uris": {"android": "https://dc.lft.to/lastmile_qr_scan", "ios": "https://dc.lft.to/lastmile_qr_scan"}, "fusion_lon": 0.0}, {"lat": 38.9337685, "is_disabled": 0, "type": "electric_scooter", "lon": -77.03558483333333, "bike_id": "bfdcd472e8895eb6c59bf38e4802a836", "fusion_lat": 0.0, "name": "bfdcd472e8895eb6c59bf38e4802a836", "is_reserved": 0, "rental_uris": {"android": "https://dc.lft.to/lastmile_qr_scan", "ios": "https://dc.lft.to/lastmile_qr_scan"}, "fusion_lon": 0.0}, {"lat": 38.998714, "is_disabled": 0, "type": "electric_bike", "lon": -77.028948, "bike_id": "ef9846c8fd4e9db7205145d518ad377e", "fusion_lat": 0.0, "name": "ef9846c8fd4e9db7205145d518ad377e", "is_reserved": 0, "rental_uris": {"android": "https://dc.lft.to/lastmile_qr_scan", "ios": "https://dc.lft.to/lastmile_qr_scan"}, "fusion_lon": 0.0}, {"lat": 38.898396166666664, "is_disabled": 0, "type": "electric_scooter", "lon": -77.03328483333334, "bike_id": "302e7ac773e592a605d3df6a9604f92d", "fusion_lat": 0.0, "name": "302e7ac773e592a605d3df6a9604f92d", "is_reserved": 0, "rental_uris": {"android": "https://dc.lft.to/lastmile_qr_scan", "ios": "https://dc.lft.to/lastmile_qr_scan"}, "fusion_lon": 0.0}, {"lat": 38.90236566666667, "is_disabled": 0, "type": "electric_scooter", "lon": -77.02680083333334, "bike_id": "501178d5f324a665459faaa440a6e2ed", "fusion_lat": 0.0, "name": "501178d5f324a665459faaa440a6e2ed", "is_reserved": 0, "rental_uris": {"android": "https://dc.lft.to/lastmile_qr_scan", "ios": "https://dc.lft.to/lastmile_qr_scan"}, "fusion_lon": 0.0}, {"lat": 38.90035816666666, "is_disabled": 0, "type": "electric_scooter", "lon": -77.00193883333333, "bike_id": "4d599e7bac8c9c43b9c762c97cc38d0a", "fusion_lat": 0.0, "name": "4d599e7bac8c9c43b9c762c97cc38d0a", "is_reserved": 0, "rental_uris": {"android": "https://dc.lft.to/lastmile_qr_scan", "ios": "https://dc.lft.to/lastmile_qr_scan"}, "fusion_lon": 0.0}, {"lat": 38.88716333333333, "is_disabled": 0, "type": "electric_bike", "lon": -77.13304283333333, "bike_id": "6f5beb04f21f700ce2ce94d000eb1d79", "fusion_lat": 0.0, "name": "6f5beb04f21f700ce2ce94d000eb1d79", "is_reserved": 0, "rental_uris": {"android": "https://dc.lft.to/lastmile_qr_scan", "ios": "https://dc.lft.to/lastmile_qr_scan"}, "fusion_lon": 0.0}, {"lat": 38.89251983333333, "is_disabled": 0, "type": "electric_scooter", "lon": -77.03957766666667, "bike_id": "e05abf82b7f8fb103accd65cf15ffcc8", "fusion_lat": 0.0, "name": "e05abf82b7f8fb103accd65cf15ffcc8", "is_reserved": 0, "rental_uris": {"android": "https://dc.lft.to/lastmile_qr_scan", "ios": "https://dc.lft.to/lastmile_qr_scan"}, "fusion_lon": 0.0}, {"lat": 38.88629916666667, "is_disabled": 0, "type": "electric_scooter", "lon": -77.01919316666667, "bike_id": "2f80ce60878a4a1f464768746aada85d", "fusion_lat": 0.0, "name": "2f80ce60878a4a1f464768746aada85d", "is_reserved": 0, "rental_uris": {"android": "https://dc.lft.to/lastmile_qr_scan", "ios": "https://dc.lft.to/lastmile_qr_scan"}, "fusion_lon": 0.0}, {"lat": 38.87685716666667, "is_disabled": 0, "type": "electric_scooter", "lon": -77.01613716666667, "bike_id": "d30c51c1e1e4a75aed3f4f7a3e8940b0", "fusion_lat": 0.0, "name": "d30c51c1e1e4a75aed3f4f7a3e8940b0", "is_reserved": 0, "rental_uris": {"android": "https://dc.lft.to/lastmile_qr_scan", "ios": "https://dc.lft.to/lastmile_qr_scan"}, "fusion_lon": 0.0}, {"lat": 38.8854935, "is_disabled": 0, "type": "electric_bike", "lon": -77.11786016666667, "bike_id": "0826b5d110b87640e6506d01ff34b2af", "fusion_lat": 0.0, "name": "0826b5d110b87640e6506d01ff34b2af", "is_reserved": 0, "rental_uris": {"android": "https://dc.lft.to/lastmile_qr_scan", "ios": "https://dc.lft.to/lastmile_qr_scan"}, "fusion_lon": 0.0}, {"lat": 38.928992, "is_disabled": 0, "type": "electric_scooter", "lon": -77.01628266666667, "bike_id": "077cdc397a38859a95786fe74b36c280", "fusion_lat": 0.0, "name": "077cdc397a38859a95786fe74b36c280", "is_reserved": 0, "rental_uris": {"android": "https://dc.lft.to/lastmile_qr_scan", "ios": "https://dc.lft.to/lastmile_qr_scan"}, "fusion_lon": 0.0}, {"lat": 38.93429016666666, "is_disabled": 0, "type": "electric_scooter", "lon": -76.96510733333334, "bike_id": "91141e5974f12b2fe30cb9fd9adec05c", "fusion_lat": 0.0, "name": "91141e5974f12b2fe30cb9fd9adec05c", "is_reserved": 0, "rental_uris": {"android": "https://dc.lft.to/lastmile_qr_scan", "ios": "https://dc.lft.to/lastmile_qr_scan"}, "fusion_lon": 0.0}, {"lat": 38.957075333333336, "is_disabled": 0, "type": "electric_scooter", "lon": -77.0240325, "bike_id": "44aacef6a660514728074351934dd929", "fusion_lat": 0.0, "name": "44aacef6a660514728074351934dd929", "is_reserved": 0, "rental_uris": {"android": "https://dc.lft.to/lastmile_qr_scan", "ios": "https://dc.lft.to/lastmile_qr_scan"}, "fusion_lon": 0.0}, {"lat": 38.884585333333334, "is_disabled": 0, "type": "electric_scooter", "lon": -76.92951916666667, "bike_id": "1b84f99fd506234433b2a60a48f9b259", "fusion_lat": 0.0, "name": "1b84f99fd506234433b2a60a48f9b259", "is_reserved": 0, "rental_uris": {"android": "https://dc.lft.to/lastmile_qr_scan", "ios": "https://dc.lft.to/lastmile_qr_scan"}, "fusion_lon": 0.0}, {"lat": 38.899394, "is_disabled": 0, "type": "electric_scooter", "lon": -77.04106483333334, "bike_id": "494edd66417a15fa035de2356c767c00", "fusion_lat": 0.0, "name": "494edd66417a15fa035de2356c767c00", "is_reserved": 0, "rental_uris": {"android": "https://dc.lft.to/lastmile_qr_scan", "ios": "https://dc.lft.to/lastmile_qr_scan"}, "fusion_lon": 0.0}, {"lat": 38.86, "is_disabled": 0, "type": "electric_scooter", "lon": -76.9854915, "bike_id": "5f78b343fc833960b598dd9c4529a506", "fusion_lat": 0.0, "name": "5f78b343fc833960b598dd9c4529a506", "is_reserved": 0, "rental_uris": {"android": "https://dc.lft.to/lastmile_qr_scan", "ios": "https://dc.lft.to/lastmile_qr_scan"}, "fusion_lon": 0.0}, {"lat": 38.92893016666667, "is_disabled": 0, "type": "electric_scooter", "lon": -77.0325945, "bike_id": "5711884d7c36d3064c4a233cd4a5b7fa", "fusion_lat": 0.0, "name": "5711884d7c36d3064c4a233cd4a5b7fa", "is_reserved": 0, "rental_uris": {"android": "https://dc.lft.to/lastmile_qr_scan", "ios": "https://dc.lft.to/lastmile_qr_scan"}, "fusion_lon": 0.0}, {"lat": 38.9121895, "is_disabled": 0, "type": "electric_scooter", "lon": -77.03450616666667, "bike_id": "4e5d47f53e89020b6af426a0e379ac6c", "fusion_lat": 0.0, "name": "4e5d47f53e89020b6af426a0e379ac6c", "is_reserved": 0, "rental_uris": {"android": "https://dc.lft.to/lastmile_qr_scan", "ios": "https://dc.lft.to/lastmile_qr_scan"}, "fusion_lon": 0.0}, {"lat": 38.90026366666667, "is_disabled": 0, "type": "electric_scooter", "lon": -77.001936, "bike_id": "f8c32693f9726bc381d49220c5744ffa", "fusion_lat": 0.0, "name": "f8c32693f9726bc381d49220c5744ffa", "is_reserved": 0, "rental_uris": {"android": "https://dc.lft.to/lastmile_qr_scan", "ios": "https://dc.lft.to/lastmile_qr_scan"}, "fusion_lon": 0.0}, {"lat": 38.905107, "is_disabled": 0, "type": "electric_scooter", "lon": -77.064564, "bike_id": "8c03f3bc7df95291a98a1c1803dc08e1", "fusion_lat": 0.0, "name": "8c03f3bc7df95291a98a1c1803dc08e1", "is_reserved": 0, "rental_uris": {"android": "https://dc.lft.to/lastmile_qr_scan", "ios": "https://dc.lft.to/lastmile_qr_scan"}, "fusion_lon": 0.0},