{"data": {"bikes": [{"bike_id": "d99a5b5b767b0b21ecdaf17152de8d8a", "is_reserved": 0, "fusion_lon": 0.0, "lat": 38.918029, "is_disabled": 0, "name": "d99a5b5b767b0b21ecdaf17152de8d8a", "fusion_lat": 0.0, "rental_uris": {"ios": "https://dc.lft.to/lastmile_qr_scan", "android": "https://dc.lft.to/lastmile_qr_scan"}, "lon": -77.03436883333333, "type": "electric_scooter"}, {"bike_id": "ffcbadd50b56db9757a31cf39594372b", "is_reserved": 0, "fusion_lon": 0.0, "lat": 38.8849085, "is_disabled": 0, "name": "ffcbadd50b56db9757a31cf39594372b", "fusion_lat": 0.0, "rental_uris": {"ios": "https://dc.lft.to/lastmile_qr_scan", "android": "https://dc.lft.to/lastmile_qr_scan"}, "lon": -77.00715283333334, "type": "electric_scooter"}, {"bike_id": "ff202496df4a29816dc1ce3358bbd895", "is_reserved": 0, "fusion_lon": 0.0, "lat": 38.883313666666666, "is_disabled": 0, "name": "ff202496df4a29816dc1ce3358bbd895", "fusion_lat": 0.0, "rental_uris": {"ios": "https://dc.lft.to/lastmile_qr_scan", "android": "https://dc.lft.to/lastmile_qr_scan"}, "lon": -77.00527666666666, "type": "electric_scooter"}, {"bike_id": "a9c59207ea9d22e9d356a3b40e588c6b", "is_reserved": 0, "fusion_lon": 0.0, "lat": 38.92067516666667, "is_disabled": 0, "name": "a9c59207ea9d22e9d356a3b40e588c6b", "fusion_lat": 0.0, "rental_uris": {"ios": "https://dc.lft.to/lastmile_qr_scan", "android": "https://dc.lft.to/lastmile_qr_scan"}, "lon": -77.04193933333333, "type": "electric_scooter"}, {"bike_id": "8590a2cdf7201187b803db8a756b2838", "is_reserved": 0, "fusion_lon": 0.0, "lat": 38.93401716666666, "is_disabled": 0, "name": "8590a2cdf7201187b803db8a756b2838", "fusion_lat": 0.0, "rental_uris": {"ios": "https://dc.lft.to/lastmile_qr_scan", "android": "https://dc.lft.to/lastmile_qr_scan"}, "lon": -77.03888, "type": "electric_scooter"}, {"bike_id": "73cd5bdfaa2b71a82a5facb5168105e4", "is_reserved": 0, "fusion_lon": 0.0, "lat": 38.929719666666664, "is_disabled": 0, "name": "73cd5bdfaa2b71a82a5facb5168105e4", "fusion_lat": 0.0, "rental_uris": {"ios": "https://dc.lft.to/lastmile_qr_scan", "android": "https://dc.lft.to/lastmile_qr_scan"}, "lon": -77.05506266666667, "type": "electric_scooter"}, {"bike_id": "9b05b0007ec0bc9d593c40d09ea3b54b", "is_reserved": 0, "fusion_lon": 0.0, "lat": 38.8618895, "is_disabled": 0, "name": "9b05b0007ec0bc9d593c40d09ea3b54b", "fusion_lat": 0.0, "rental_uris": {"ios": "https://dc.lft.to/lastmile_qr_scan", "android": "https://dc.lft.to/lastmile_qr_scan"}, "lon": -76.99452866666667, "type": "electric_scooter"}, {"bike_id": "5f9c468092b9e0660610db8547f1d0ba", "is_reserved": 0, "fusion_lon": 0.0, "lat": 38.91664, "is_disabled": 0, "name": "5f9c468092b9e0660610db8547f1d0ba", "fusion_lat": 0.0, "rental_uris": {"ios": "https://dc.lft.to/lastmile_qr_scan", "android": "https://dc.lft.to/lastmile_qr_scan"}, "lon": -77.04399066666667, "type": "electric_scooter"}, {"bike_id": "04128616a277deb9efc7c3ea84a0ead1", "is_reserved": 0, "fusion_lon": 0.0, "lat": 38.914825666666665, "is_disabled": 0, "name": "04128616a277deb9efc7c3ea84a0ead1", "fusion_lat": 0.0, "rental_uris": {"ios": "https://dc.lft.to/lastmile_qr_scan", "android": "https://dc.lft.to/lastmile_qr_scan"}, "lon": -77.021947, "type": "electric_scooter"}, {"bike_id": "faa9400c658553ce072b7e41bc720e9b", "is_reserved": 0, "fusion_lon": 0.0, "lat": 38.898048333333335, "is_disabled": 0, "name": "faa9400c658553ce072b7e41bc720e9b", "fusion_lat": 0.0, "rental_uris": {"ios": "https://dc.lft.to/lastmile_qr_scan", "android": "https://dc.lft.to/lastmile_qr_scan"}, "lon": -77.0088365, "type": "electric_scooter"}, {"bike_id": "35bda1b33bee09b303b41d2ac235b857", "is_reserved": 0, "fusion_lon": 0.0, "lat": 38.900022, "is_disabled": 0, "name": "35bda1b33bee09b303b41d2ac235b857", "fusion_lat": 0.0, "rental_uris": {"ios": "https://dc.lft.to/lastmile_qr_scan", "android": "https://dc.lft.to/lastmile_qr_scan"}, "lon": -77.046458, "type": "electric_scooter"}, {"bike_id": "2c2d60ba5cb2b614b3bbd2f6387a6f49", "is_reserved": 0, "fusion_lon": 0.0, "lat": 38.97330316666667, "is_disabled": 0, "name": "2c2d60ba5cb2b614b3bbd2f6387a6f49", "fusion_lat": 0.0, "rental_uris": {"ios": "https://dc.lft.to/lastmile_qr_scan", "android": "https://dc.lft.to/lastmile_qr_scan"}, "lon": -77.02152433333333, "type": "electric_bike"}, {"bike_id": "68106ee2133a92cbed99f2bae7d2fb6e", "is_reserved": 0, "fusion_lon": 0.0, "lat": 38.907489, "is_disabled": 0, "name": "68106ee2133a92cbed99f2bae7d2fb6e", "fusion_lat": 0.0, "rental_uris": {"ios": "https://dc.lft.to/lastmile_qr_scan", "android": "https://dc.lft.to/lastmile_qr_scan"}, "lon": -77.03470933333334, "type": "electric_scooter"}, {"bike_id": "67748a989fe93d17bea71f9596f197cf", "is_reserved": 0, "fusion_lon": 0.0, "lat": 38.844278, "is_disabled": 0, "name": "67748a989fe93d17bea71f9596f197cf", "fusion_lat": 0.0, "rental_uris": {"ios": "https://dc.lft.to/lastmile_qr_scan", "android": "https://dc.lft.to/lastmile_qr_scan"}, "lon": -76.99779266666667, "type": "electric_scooter"}, {"bike_id": "70809f9782c1d6c50f7c27e76840b262", "is_reserved": 0, "fusion_lon": 0.0, "lat": 38.898328, "is_disabled": 0, "name": "70809f9782c1d6c50f7c27e76840b262", "fusion_lat": 0.0, "rental_uris": {"ios": "https://dc.lft.to/lastmile_qr_scan", "android": "https://dc.lft.to/lastmile_qr_scan"}, "lon": -76.94631583333333, "type": "electric_scooter"}, {"bike_id": "3ad43fd06935d33ca7082747215ca57a", "is_reserved": 0, "fusion_lon": 0.0, "lat": 38.90239316666667, "is_disabled": 0, "name": "3ad43fd06935d33ca7082747215ca57a", "fusion_lat": 0.0, "rental_uris": {"ios": "https://dc.lft.to/lastmile_qr_scan", "android": "https://dc.lft.to/lastmile_qr_scan"}, "lon": -77.0020415, "type": "electric_scooter"}, {"bike_id": "fa3733fa1f845286c1d6faa717317108", "is_reserved": 0, "fusion_lon": 0.0, "lat": 38.94555616666667, "is_disabled": 0, "name": "fa3733fa1f845286c1d6faa717317108", "fusion_lat": 0.0, "rental_uris": {"ios": "https://dc.lft.to/lastmile_qr_scan", "android": "https://dc.lft.to/lastmile_qr_scan"}, "lon": -76.89543083333334, "type": "electric_bike"}, {"bike_id": "93e5920e1c6e286696d0de116c2a52d0", "is_reserved": 0, "fusion_lon": 0.0, "lat": 38.952528, "is_disabled": 0, "name": "93e5920e1c6e286696d0de116c2a52d0", "fusion_lat": 0.0, "rental_uris": {"ios": "https://dc.lft.to/lastmile_qr_scan", "android": "https://dc.lft.to/lastmile_qr_scan"}, "lon": -77.06991266666667, "type": "electric_scooter"}, {"bike_id": "908607fd56679bb58b04179d1dcc1e82", "is_reserved": 0, "fusion_lon": 0.0, "lat": 38.892263, "is_disabled": 0, "name": "908607fd56679bb58b04179d1dcc1e82", "fusion_lat": 0.0, "rental_uris": {"ios": "https://dc.lft.to/lastmile_qr_scan", "android": "https://dc.lft.to/lastmile_qr_scan"}, "lon": -77.04367566666667, "type": "electric_scooter"}, {"bike_id": "3f33d8232e74d395775bc08faae7a861", "is_reserved": 0, "fusion_lon": 0.0, "lat": 38.86562683333333, "is_disabled": 0, "name": "3f33d8232e74d395775bc08faae7a861", "fusion_lat": 0.0, "rental_uris": {"ios": "https://dc.lft.to/lastmile_qr_scan", "android": "https://dc.lft.to/lastmile_qr_scan"}, "lon": -76.98953833333333, "type": "electric_scooter"}, {"bike_id": "e6209b3ce75a55cdaea043d6633f3ff7", "is_reserved": 0, "fusion_lon": 0.0, "lat": 38.913912333333336, "is_disabled": 0, "name": "e6209b3ce75a55cdaea043d6633f3ff7", "fusion_lat": 0.0, "rental_uris": {"ios": "https://dc.lft.to/lastmile_qr_scan", "android": "https://dc.lft.to/lastmile_qr_scan"}, "lon": -77.01704183333334, "type": "electric_scooter"}, {"bike_id": "50ec29fa8a3ead3ff5b9a61483af6934", "is_reserved": 0, "fusion_lon": 0.0, "lat": 38.9061285, "is_disabled": 0, "name": "50ec29fa8a3ead3ff5b9a61483af6934", "fusion_lat": 0.0, "rental_uris": {"ios": "https://dc.lft.to/lastmile_qr_scan", "android": "https://dc.lft.to/lastmile_qr_scan"}, "lon": -77.06303916666667, "type": "electric_scooter"}, {"bike_id": "4578f7ec2f1f40a2637e421f10b900ef", "is_reserved": 0, "fusion_lon": 0.0, "lat": 38.91517116666667, "is_disabled": 0, "name": "4578f7ec2f1f40a2637e421f10b900ef", "fusion_lat": 0.0, "rental_uris": {"ios": "https://dc.lft.to/lastmile_qr_scan", "android": "https://dc.lft.to/lastmile_qr_scan"}, "lon": -77.01222466666667, "type": "electric_scooter"}, {"bike_id": "d61974bd18928111f9857d72ceea27dd", "is_reserved": 0, "fusion_lon": 0.0, "lat": 38.8618345, "is_disabled": 0, "name": "d61974bd18928111f9857d72ceea27dd", "fusion_lat": 0.0, "rental_uris": {"ios": "https://dc.lft.to/lastmile_qr_scan", "android": "https://dc.lft.to/lastmile_qr_scan"}, "lon": -76.96916783333333, "type": "electric_scooter"}, {"bike_id": "43fd207f2fa567cb40904442846cb059", "is_reserved": 0, "fusion_lon": 0.0, "lat": 38.89828633333333, "is_disabled": 0, "name": "43fd207f2fa567cb40904442846cb059", "fusion_lat": 0.0, "rental_uris": {"ios": "https://dc.lft.to/lastmile_qr_scan", "android": "https://dc.lft.to/lastmile_qr_scan"}, "lon": -77.03345783333333, "type": "electric_scooter"}, {"bike_id": "8b4e3960898d9c4696338277bb131b8c", "is_reserved": 0, "fusion_lon": 0.0, "lat": 38.909723166666666, "is_disabled": 0, "name": "8b4e3960898d9c4696338277bb131b8c", "fusion_lat": 0.0, "rental_uris": {"ios": "https://dc.lft.to/lastmile_qr_scan", "android": "https://dc.lft.to/lastmile_qr_scan"}, "lon": -77.032654, "type": "electric_scooter"}, {"bike_id": "eb536645069a7d0d9c96d96093495fa0", "is_reserved": 0, "fusion_lon": 0.0, "lat": 38.91699233333333, "is_disabled": 0, "name": "eb536645069a7d0d9c96d96093495fa0", "fusion_lat": 0.0, "rental_uris": {"ios": "https://dc.lft.to/lastmile_qr_scan", "android": "https://dc.lft.to/lastmile_qr_scan"}, "lon": -77.02228366666667, "type": "electric_scooter"}, {"bike_id": "fc75ad23cbdd5d52cb1731508681264b", "is_reserved": 0, "fusion_lon": 0.0, "lat": 38.92040166666666, "is_disabled": 0, "name": "fc75ad23cbdd5d52cb1731508681264b", "fusion_lat": 0.0, "rental_uris": {"ios": "https://dc.lft.to/lastmile_qr_scan", "android": "https://dc.lft.to/lastmile_qr_scan"}, "lon": -77.02593916666666, "type": "electric_scooter"}, {"bike_id": "9d87d19c088ebe23d11f5c74eb8232d6", "is_reserved": 0, "fusion_lon": 0.0, "lat": 38.91703666666667, "is_disabled": 0, "name": "9d87d19c088ebe23d11f5c74eb8232d6", "fusion_lat": 0.0, "rental_uris": {"ios": "https://dc.lft.to/lastmile_qr_scan", "android": "https://dc.lft.to/lastmile_qr_scan"}, "lon": -77.0334625, "type": "electric_scooter"}, {"bike_id": "9a354646dc63730cdad09778bd6a2e49", "is_reserved": 0, "fusion_lon": 0.0, "lat": 38.90587933333333, "is_disabled": 0, "name": "9a354646dc63730cdad09778bd6a2e49", "fusion_lat": 0.0, "rental_uris": {"ios": "https://dc.lft.to/lastmile_qr_scan", "android": "https://dc.lft.to/lastmile_qr_scan"}, "lon": -77.06522083333333, "type": "electric_scooter"}, {"bike_id": "6e3d2ed9cb0f0d949ada99709d45bdeb", "is_reserved": 0, "fusion_lon": 0.0, "lat": 38.933986166666664, "is_disabled": 0, "name": "6e3d2ed9cb0f0d949ada99709d45bdeb", "fusion_lat": 0.0, "rental_uris": {"ios": "https://dc.lft.to/lastmile_qr_scan", "android": "https://dc.lft.to/lastmile_qr_scan"}, "lon": -77.02724233333333, "type": "electric_scooter"}, {"bike_id": "4a392e96c67e7328e5db42684dddf7aa", "is_reserved": 0, "fusion_lon": 0.0, "lat": 38.910165666666664, "is_disabled": 0, "name": "4a392e96c67e7328e5db42684dddf7aa", "fusion_lat": 0.0, "rental_uris": {"ios": "https://dc.lft.to/lastmile_qr_scan", "android": "https://dc.lft.to/lastmile_qr_scan"}, "lon": -76.99391033333333, "type": "electric_scooter"}, {"bike_id": "9b6265b576f956c712a190aca39e2e7c", "is_reserved": 0, "fusion_lon": 0.0, "lat": 38.92365316666667, "is_disabled": 0, "name": "9b6265b576f956c712a190aca39e2e7c", "fusion_lat": 0.0, "rental_uris": {"ios": "https://dc.lft.to/lastmile_qr_scan", "android": "https://dc.lft.to/lastmile_qr_scan"}, "lon": -77.05132616666667, "type": "electric_scooter"}, {"bike_id": "1f000accd40dad22e20dd984529dd0cf", "is_reserved": 0, "fusion_lon": 0.0, "lat": 38.861083, "is_disabled": 0, "name": "1f000accd40dad22e20dd984529dd0cf", "fusion_lat": 0.0, "rental_uris": {"ios": "https://dc.lft.to/lastmile_qr_scan", "android": "https://dc.lft.to/lastmile_qr_scan"}, "lon": -76.98364016666666, "type": "electric_scooter"}, {"bike_id": "3aa172a8f1aa13b1ced9acac6e11f02f", "is_reserved": 0, "fusion_lon": 0.0, "lat": 38.881542, "is_disabled": 0, "name": "3aa172a8f1aa13b1ced9acac6e11f02f", "fusion_lat": 0.0, "rental_uris": {"ios": "https://dc.lft.to/lastmile_qr_scan", "android": "https://dc.lft.to/lastmile_qr_scan"}, "lon": -77.02746583333334, "type": "electric_scooter"}, {"bike_id": "e36e44b355d0c39f12ad3caeb7ea7968", "is_reserved": 0, "fusion_lon": 0.0, "lat": 38.90585466666667, "is_disabled": 0, "name": "e36e44b355d0c39f12ad3caeb7ea7968", "fusion_lat": 0.0, "rental_uris": {"ios": "https://dc.lft.to/lastmile_qr_scan", "android": "https://dc.lft.to/lastmile_qr_scan"}, "lon": -77.06276516666667, "type": "electric_scooter"}, {"bike_id": "833d25cdef95458ef4f8c3abcaedbc7a", "is_reserved": 0, "fusion_lon": 0.0, "lat": 38.92350583333333, "is_disabled": 0, "name": "833d25cdef95458ef4f8c3abcaedbc7a", "fusion_lat": 0.0, "rental_uris": {"ios": "https://dc.lft.to/lastmile_qr_scan", "android": "https://dc.lft.to/lastmile_qr_scan"}, "lon": -77.01903683333333, "type": "electric_scooter"}, {"bike_id": "5112bd88a9e45a2d6b943ddbba16656a", "is_reserved": 0, "fusion_lon": 0.0, "lat": 38.897647666666664, "is_disabled": 0, "name": "5112bd88a9e45a2d6b943ddbba16656a", "fusion_lat": 0.0, "rental_uris": {"ios": "https://dc.lft.to/lastmile_qr_scan", "android": "https://dc.lft.to/lastmile_qr_scan"}, "lon": -77.03182533333333, "type": "electric_scooter"}, {"bike_id": "ac469d04b9705a673269d8c0d24e9d9a", "is_reserved": 0, "fusion_lon": 0.0, "lat": 38.9187705, "is_disabled": 0, "name": "ac469d04b9705a673269d8c0d24e9d9a", "fusion_lat": 0.0, "rental_uris": {"ios": "https://dc.lft.to/lastmile_qr_scan", "android": "https://dc.lft.to/lastmile_qr_scan"}, "lon": -77.04174633333334, "type": "electric_scooter"}, {"bike_id": "7de57175386d76e6b8faf16ad7ec3053", "is_reserved": 0, "fusion_lon": 0.0, "lat": 38.896619333333334, "is_disabled": 0, "name": "7de57175386d76e6b8faf16ad7ec3053", "fusion_lat": 0.0, "rental_uris": {"ios": "https://dc.lft.to/lastmile_qr_scan", "android": "https://dc.lft.to/lastmile_qr_scan"}, "lon": -77.0293365, "type": "electric_scooter"}, {"bike_id": "2e1b13a71419e3fc151e2c5b36a7b7a2", "is_reserved": 0, "fusion_lon": 0.0, "lat": 38.88876483333333, "is_disabled": 0, "name": "2e1b13a71419e3fc151e2c5b36a7b7a2", "fusion_lat": 0.0, "rental_uris": {"ios": "https://dc.lft.to/lastmile_qr_scan", "android": "https://dc.lft.to/lastmile_qr_scan"}, "lon": -76.99028383333334, "type": "electric_scooter"}, {"bike_id": "c219f5e3999213857887df2794218509", "is_reserved": 0, "fusion_lon": 0.0, "lat": 38.89908883333333, "is_disabled": 0, "name": "c219f5e3999213857887df2794218509", "fusion_lat": 0.0, "rental_uris": {"ios": "https://dc.lft.to/lastmile_qr_scan", "android": "https://dc.lft.to/lastmile_qr_scan"}, "lon": -77.040914, "type": "electric_scooter"}, {"bike_id": "9a184a0bab01aef01dcc2511d61789cd", "is_reserved": 0, "fusion_lon": 0.0, "lat": 38.901446666666665, "is_disabled": 0, "name": "9a184a0bab01aef01dcc2511d61789cd", "fusion_lat": 0.0, "rental_uris": {"ios": "https://dc.lft.to/lastmile_qr_scan", "android": "https://dc.lft.to/lastmile_qr_scan"}, "lon": -77.059107, "type": "electric_bike"}, {"bike_id": "336a322e6fedfa5de9cecda6d76b4416", "is_reserved": 0, "fusion_lon": 0.0, "lat": 38.87677083333333, "is_disabled": 0, "name": "336a322e6fedfa5de9cecda6d76b4416", "fusion_lat": 0.0, "rental_uris": {"ios": "https://dc.lft.to/lastmile_qr_scan", "android": "https://dc.lft.to/lastmile_qr_scan"}, "lon": -77.004471, "type": "electric_scooter"}, {"bike_id": "354882b6987610cd2d3087157d8f0cc2", "is_reserved": 0, "fusion_lon": 0.0, "lat": 38.916639833333335, "is_disabled": 0, "name": "354882b6987610cd2d3087157d8f0cc2", "fusion_lat": 0.0, "rental_uris": {"ios": "https://dc.lft.to/lastmile_qr_scan", "android": "https://dc.lft.to/lastmile_qr_scan"}, "lon": -77.02714216666666, "type": "electric_scooter"}, {"bike_id": "463fda93c7641ed56725f1f1d9021c14", "is_reserved": 0, "fusion_lon": 0.0, "lat": 38.90841733333333, "is_disabled": 0, "name": "463fda93c7641ed56725f1f1d9021c14", "fusion_lat": 0.0, "rental_uris": {"ios": "https://dc.lft.to/lastmile_qr_scan", "android": "https://dc.lft.to/lastmile_qr_scan"}, "lon": -77.05494683333333, "type": "electric_scooter"}, {"bike_id": "c139065022804c4f7021e1c1e0bee188", "is_reserved": 0, "fusion_lon": 0.0, "lat": 38.8624825, "is_disabled": 0, "name": "c139065022804c4f7021e1c1e0bee188", "fusion_lat": 0.0, "rental_uris": {"ios": "https://dc.lft.to/lastmile_qr_scan", "android": "https://dc.lft.to/lastmile_qr_scan"}, "lon": -76.994796, "type": "electric_scooter"}, {"bike_id": "4ebeafcb2a0c53f80657b33ed5a03707", "is_reserved": 0, "fusion_lon": 0.0, "lat": 38.92334733333333, "is_disabled": 0, "name": "4ebeafcb2a0c53f80657b33ed5a03707", "fusion_lat": 0.0, "rental_uris": {"ios": "https://dc.lft.to/lastmile_qr_scan", "android": "https://dc.lft.to/lastmile_qr_scan"}, "lon": -77.04192966666666, "type": "electric_scooter"}, {"bike_id": "61a992b6acb3fdf63879897dcd98d232", "is_reserved": 0, "fusion_lon": 0.0, "lat": 38.8226485, "is_disabled": 0, "name": "61a992b6acb3fdf63879897dcd98d232", "fusion_lat": 0.0, "rental_uris": {"ios": "https://dc.lft.to/lastmile_qr_scan", "android": "https://dc.lft.to/lastmile_qr_scan"}, "lon": -77.05806933333334, "type": "electric_bike"}, {"bike_id": "cc219bb02c79dd405d76f3d7c6821274", "is_reserved": 0, "fusion_lon": 0.0, "lat": 38.8062275, "is_disabled": 0, "name": "cc219bb02c79dd405d76f3d7c6821274", "fusion_lat": 0.0, "rental_uris": {"ios": "https://dc.lft.to/lastmile_qr_scan", "android": "https://dc.lft.to/lastmile_qr_scan"}, "lon": -77.06350883333333, "type": "electric_bike"}, {"bike_id": "93ee35db557a701a2c5dd955f4a90e6c", "is_reserved": 0, "fusion_lon": 0.0, "lat": 38.91777283333333, "is_disabled": 0, "name": "93ee35db557a701a2c5dd955f4a90e6c", "fusion_lat": 0.0, "rental_uris": {"ios": "https://dc.lft.to/lastmile_qr_scan", "android": "https://dc.lft.to/lastmile_qr_scan"}, "lon": -77.02319433333334, "type": "electric_scooter"}, {"bike_id": "6ae02469350fab33fcb8a25fe9c3d076", "is_reserved": 0, "fusion_lon": 0.0, "lat": 38.892216833333336, "is_disabled": 0, "name": "6ae02469350fab33fcb8a25fe9c3d076", "fusion_lat": 0.0, "rental_uris": {"ios": "https://dc.lft.to/lastmile_qr_scan", "android": "https://dc.lft.to/lastmile_qr_scan"}, "lon": -77.04867433333334, "type": "electric_scooter"}, {"bike_id": "5e7583d7838466498711102234b9d679", "is_reserved": 0, "fusion_lon": 0.0, "lat": 38.89741583333333, "is_disabled": 0, "name": "5e7583d7838466498711102234b9d679", "fusion_lat": 0.0, "rental_uris": {"ios": "https://dc.lft.to/lastmile_qr_scan", "android": "https://dc.lft.to/lastmile_qr_scan"}, "lon": -77.01754366666667, "type": "electric_scooter"}, {"bike_id": "33aed9cd9c2428e3d4382cf24d8d21f3", "is_reserved": 0, "fusion_lon": 0.0, "lat": 38.8938795, "is_disabled": 0, "name": "33aed9cd9c2428e3d4382cf24d8d21f3", "fusion_lat": 0.0, "rental_uris": {"ios": "https://dc.lft.to/lastmile_qr_scan", "android": "https://dc.lft.to/lastmile_qr_scan"}, "lon": -77.0060085, "type": "electric_scooter"}, {"bike_id": "22ee06c5983b9ffb925d730a0223a9a6", "is_reserved": 0, "fusion_lon": 0.0, "lat": 38.89219466666667, "is_disabled": 0, "name": "22ee06c5983b9ffb925d730a0223a9a6", "fusion_lat": 0.0, "rental_uris": {"ios": "https://dc.lft.to/lastmile_qr_scan", "android": "https://dc.lft.to/lastmile_qr_scan"}, "lon": -77.04654816666667, "type": "electric_scooter"}, {"bike_id": "3633956148bf2b9f0f1f5bcc09188457", "is_reserved": 0, "fusion_lon": 0.0, "lat": 38.9047865, "is_disabled": 0, "name": "3633956148bf2b9f0f1f5bcc09188457", "fusion_lat": 0.0, "rental_uris": {"ios": "https://dc.lft.to/lastmile_qr_scan", "android": "https://dc.lft.to/lastmile_qr_scan"}, "lon": -77.04365116666666, "type": "electric_scooter"}, {"bike_id": "a8c0861d13f1f5ff759eccc1a227953a", "is_reserved": 0, "fusion_lon": 0.0, "lat": 38.98504666666667, "is_disabled": 0, "name": "a8c0861d13f1f5ff759eccc1a227953a", "fusion_lat": 0.0, "rental_uris": {"ios": "https://dc.lft.to/lastmile_qr_scan", "android": "https://dc.lft.to/lastmile_qr_scan"}, "lon": -76.981993, "type": "electric_bike"}, {"bike_id": "2f12db415b27dc563e7d33b4d5034bba", "is_reserved": 0, "fusion_lon": 0.0, "lat": 38.86986516666666, "is_disabled": 0, "name": "2f12db415b27dc563e7d33b4d5034bba", "fusion_lat": 0.0, "rental_uris": {"ios": "https://dc.lft.to/lastmile_qr_scan", "android": "https://dc.lft.to/lastmile_qr_scan"}, "lon": -76.959864, "type": "electric_bike"}, {"bike_id": "b1a84e89b2fefd49e59a611b60d0ea4b", "is_reserved": 0, "fusion_lon": 0.0, "lat": 38.90785533333333, "is_disabled": 0, "name": "b1a84e89b2fefd49e59a611b60d0ea4b", "fusion_lat": 0.0, "rental_uris": {"ios": "https://dc.lft.to/lastmile_qr_scan", "android": "https://dc.lft.to/lastmile_qr_scan"}, "lon": -77.03659966666666, "type": "electric_scooter"}, {"bike_id": "0721a9a329b688a72cd381b2a10cfa38", "is_reserved": 0, "fusion_lon": 0.0, "lat": 38.87178566666667, "is_disabled": 0, "name": "0721a9a329b688a72cd381b2a10cfa38", "fusion_lat": 0.0, "rental_uris": {"ios": "https://dc.lft.to/lastmile_qr_scan", "android": "https://dc.lft.to/lastmile_qr_scan"}, "lon": -77.00611083333334, "type": "electric_scooter"}, {"bike_id": "1ecb2ea5117f8c94f55b80307ce8d3a9", "is_reserved": 0, "fusion_lon": 0.0, "lat": 38.90080533333333, "is_disabled": 0, "name": "1ecb2ea5117f8c94f55b80307ce8d3a9", "fusion_lat": 0.0, "rental_uris": {"ios": "https://dc.lft.to/lastmile_qr_scan", "android": "https://dc.lft.to/lastmile_qr_scan"}, "lon": -76.980332, "type": "electric_bike"}, {"bike_id": "617b551d646e9a4d04b612bcb83e905a", "is_reserved": 0, "fusion_lon": 0.0, "lat": 38.88495316666667, "is_disabled": 0, "name": "617b551d646e9a4d04b612bcb83e905a", "fusion_lat": 0.0, "rental_uris": {"ios": "https://dc.lft.to/lastmile_qr_scan", "android": "https://dc.lft.to/lastmile_qr_scan"}, "lon": -77.0072665, "type": "electric_scooter"}, {"bike_id": "8e05422a8086abc911ff69ceb3079573", "is_reserved": 0, "fusion_lon": 0.0, "lat": 38.919585166666664, "is_disabled": 0, "name": "8e05422a8086abc911ff69ceb3079573", "fusion_lat": 0.0, "rental_uris": {"ios": "https://dc.lft.to/lastmile_qr_scan", "android": "https://dc.lft.to/lastmile_qr_scan"}, "lon": -77.02485333333334, "type": "electric_scooter"}, {"bike_id": "29db2237ae78400a8302ecd5d5becc1e", "is_reserved": 0, "fusion_lon": 0.0, "lat": 38.89734683333333, "is_disabled": 0, "name": "29db2237ae78400a8302ecd5d5becc1e", "fusion_lat": 0.0, "rental_uris": {"ios": "https://dc.lft.to/lastmile_qr_scan", "android": "https://dc.lft.to/lastmile_qr_scan"}, "lon": -77.02751033333334, "type": "electric_scooter"}, {"bike_id": "449cab060ad88fc6c2683ac6012e6f57", "is_reserved": 0, "fusion_lon": 0.0, "lat": 38.90475, "is_disabled": 0, "name": "449cab060ad88fc6c2683ac6012e6f57", "fusion_lat": 0.0, "rental_uris": {"ios": "https://dc.lft.to/lastmile_qr_scan", "android": "https://dc.lft.to/lastmile_qr_scan"}, "lon": -77.039579, "type": "electric_scooter"}, {"bike_id": "07d9e6b4e8b17268d63093bb28ff782f", "is_reserved": 0, "fusion_lon": 0.0, "lat": 38.902777, "is_disabled": 0, "name": "07d9e6b4e8b17268d63093bb28ff782f", "fusion_lat": 0.0, "rental_uris": {"ios": "https://dc.lft.to/lastmile_qr_scan", "android": "https://dc.lft.to/lastmile_qr_scan"}, "lon": -77.03357933333334, "type": "electric_scooter"}, {"bike_id": "165b174450caac0305f518bec2c5528d", "is_reserved": 0, "fusion_lon": 0.0, "lat": 38.896228666666666, "is_disabled": 0, "name": "165b174450caac0305f518bec2c5528d", "fusion_lat": 0.0, "rental_uris": {"ios": "https://dc.lft.to/lastmile_qr_scan", "android": "https://dc.lft.to/lastmile_qr_scan"}, "lon": -76.98497983333333, "type": "electric_scooter"}, {"bike_id": "ee8ca9d15ee39772c669601f57533684", "is_reserved": 0, "fusion_lon": 0.0, "lat": 38.90240983333333, "is_disabled": 0, "name": "ee8ca9d15ee39772c669601f57533684", "fusion_lat": 0.0, "rental_uris": {"ios": "https://dc.lft.to/lastmile_qr_scan", "android": "https://dc.lft.to/lastmile_qr_scan"}, "lon": -77.0269225, "type": "electric_scooter"}, {"bike_id": "3818cc1235747569af199851ece89b06", "is_reserved": 0, "fusion_lon": 0.0, "lat": 38.904102333333334, "is_disabled": 0, "name": "3818cc1235747569af199851ece89b06", "fusion_lat": 0.0, "rental_uris": {"ios": "https://dc.lft.to/lastmile_qr_scan", "android": "https://dc.lft.to/lastmile_qr_scan"}, "lon": -77.04203633333333, "type": "electric_scooter"}, {"bike_id": "0cab7813ad4378687ed6a8c05df3356c", "is_reserved": 0, "fusion_lon": 0.0, "lat": 38.84426766666667, "is_disabled": 0, "name": "0cab7813ad4378687ed6a8c05df3356c", "fusion_lat": 0.0, "rental_uris": {"ios": "https://dc.lft.to/lastmile_qr_scan", "android": "https://dc.lft.to/lastmile_qr_scan"}, "lon": -76.99781333333334, "type": "electric_scooter"}, {"bike_id": "0aaff78d53a2377bf4855ba94544834a", "is_reserved": 0, "fusion_lon": 0.0, "lat": 38.903826, "is_disabled": 0, "name": "0aaff78d53a2377bf4855ba94544834a", "fusion_lat": 0.0, "rental_uris": {"ios": "https://dc.lft.to/lastmile_qr_scan", "android": "https://dc.lft.to/lastmile_qr_scan"}, "lon": -77.04383516666667, "type": "electric_scooter"}, {"bike_id": "6fe9deb7d8799dc34def4a5aafc848b0", "is_reserved": 0, "fusion_lon": 0.0, "lat": 38.90572016666667, "is_disabled": 0, "name": "6fe9deb7d8799dc34def4a5aafc848b0", "fusion_lat": 0.0, "rental_uris": {"ios": "https://dc.lft.to/lastmile_qr_scan", "android": "https://dc.lft.to/lastmile_qr_scan"}, "lon": -77.03624533333333, "type": "electric_scooter"}, {"bike_id": "1d8520ba4b18368996f6aaaee9a0b60b", "is_reserved": 0, "fusion_lon": 0.0, "lat": 38.8954605, "is_disabled": 0, "name": "1d8520ba4b18368996f6aaaee9a0b60b", "fusion_lat": 0.0, "rental_uris": {"ios": "https://dc.lft.to/lastmile_qr_scan", "android": "https://dc.lft.to/lastmile_qr_scan"}, "lon": -77.01893316666667, "type": "electric_scooter"}, {"bike_id": "84695cab36cc276d5713f0ce92c288a6", "is_reserved": 0, "fusion_lon": 0.0, "lat": 38.9284, "is_disabled": 0, "name": "84695cab36cc276d5713f0ce92c288a6", "fusion_lat": 0.0, "rental_uris": {"ios": "https://dc.lft.to/lastmile_qr_scan", "android": "https://dc.lft.to/lastmile_qr_scan"}, "lon": -77.01380883333333, "type": "electric_scooter"}, {"bike_id": "2932e8c4aa0de5e98736f86fa1b18029", "is_reserved": 0, "fusion_lon": 0.0, "lat": 38.95954733333333, "is_disabled": 0, "name": "2932e8c4aa0de5e98736f86fa1b18029", "fusion_lat": 0.0, "rental_uris": {"ios": "https://dc.lft.to/lastmile_qr_scan", "android": "https://dc.lft.to/lastmile_qr_scan"}, "lon": -77.10089466666666, "type": "electric_bike"}, {"bike_id": "e3b0acc2cefac3cd6b73299fe044929a", "is_reserved": 0, "fusion_lon": 0.0, "lat": 38.8851335, "is_disabled": 0, "name": "e3b0acc2cefac3cd6b73299fe044929a", "fusion_lat": 0.0, "rental_uris": {"ios": "https://dc.lft.to/lastmile_qr_scan", "android": "https://dc.lft.to/lastmile_qr_scan"}, "lon": -77.00574533333334, "type": "electric_scooter"}, {"bike_id": "99aed275c6aa53f7a8250de63d3a3587", "is_reserved": 0, "fusion_lon": 0.0, "lat": 38.896227, "is_disabled": 0, "name": "99aed275c6aa53f7a8250de63d3a3587", "fusion_lat": 0.0, "rental_uris": {"ios": "https://dc.lft.to/lastmile_qr_scan", "android": "https://dc.lft.to/lastmile_qr_scan"}, "lon": -76.99848066666667, "type": "electric_scooter"}, {"bike_id": "d5fcd5d8228436aca4349c3a5bee5b50", "is_reserved": 0, "fusion_lon": 0.0, "lat": 39.05635383333333, "is_disabled": 0, "name": "d5fcd5d8228436aca4349c3a5bee5b50", "fusion_lat": 0.0, "rental_uris": {"ios": "https://dc.lft.to/lastmile_qr_scan", "android": "https://dc.lft.to/lastmile_qr_scan"}, "lon": -77.12528983333333, "type": "electric_bike"}, {"bike_id": "916cde801bc5cfe032d19c47d860fafa", "is_reserved": 0, "fusion_lon": 0.0, "lat": 38.91697816666667, "is_disabled": 0, "name": "916cde801bc5cfe032d19c47d860fafa", "fusion_lat": 0.0, "rental_uris": {"ios": "https://dc.lft.to/lastmile_qr_scan", "android": "https://dc.lft.to/lastmile_qr_scan"}, "lon": -77.032154, "type": "electric_scooter"}, {"bike_id": "2564441de414489b83bcab46ef131a72", "is_reserved": 0, "fusion_lon": 0.0, "lat": 38.9064415, "is_disabled": 0, "name": "2564441de414489b83bcab46ef131a72", "fusion_lat": 0.0, "rental_uris": {"ios": "https://dc.lft.to/lastmile_qr_scan", "android": "https://dc.lft.to/lastmile_qr_scan"}, "lon": -77.01135366666666, "type": "electric_scooter"}, {"bike_id": "7d2b7523e43c9772d828aa0b1ff7007b", "is_reserved": 0, "fusion_lon": 0.0, "lat": 38.945404, "is_disabled": 0, "name": "7d2b7523e43c9772d828aa0b1ff7007b", "fusion_lat": 0.0, "rental_uris": {"ios": "https://dc.lft.to/lastmile_qr_scan", "android": "https://dc.lft.to/lastmile_qr_scan"}, "lon": -77.0221555, "type": "electric_scooter"}, {"bike_id": "80bd43f29ee34378f636a7385b391dcd", "is_reserved": 0, "fusion_lon": 0.0, "lat": 38.90639066666667, "is_disabled": 0, "name": "80bd43f29ee34378f636a7385b391dcd", "fusion_lat": 0.0, "rental_uris": {"ios": "https://dc.lft.to/lastmile_qr_scan", "android": "https://dc.lft.to/lastmile_qr_scan"}, "lon": -77.046632, "type": "electric_scooter"}, {"bike_id": "a5beeff3f0ba86e4f36ee4cbb2be18eb", "is_reserved": 0, "fusion_lon": 0.0, "lat": 38.92368883333333, "is_disabled": 0, "name": "a5beeff3f0ba86e4f36ee4cbb2be18eb", "fusion_lat": 0.0, "rental_uris": {"ios": "https://dc.lft.to/lastmile_qr_scan", "android": "https://dc.lft.to/lastmile_qr_scan"}, "lon": -77.04132833333334, "type": "electric_scooter"}, {"bike_id": "85050f3e7ed5c6d1faa655521db0291c", "is_reserved": 0, "fusion_lon": 0.0, "lat": 38.895325666666665, "is_disabled": 0, "name": "85050f3e7ed5c6d1faa655521db0291c", "fusion_lat": 0.0, "rental_uris": {"ios": "https://dc.lft.to/lastmile_qr_scan", "android": "https://dc.lft.to/lastmile_qr_scan"}, "lon": -77.0335285, "type": "electric_scooter"}, {"bike_id": "09c5c396cd6fc79316c48b2e082c965d", "is_reserved": 0, "fusion_lon": 0.0, "lat": 38.892294, "is_disabled": 0, "name": "09c5c396cd6fc79316c48b2e082c965d", "fusion_lat": 0.0, "rental_uris": {"ios": "https://dc.lft.to/lastmile_qr_scan", "android": "https://dc.lft.to/lastmile_qr_scan"}, "lon": -77.0217835, "type": "electric_scooter"}, {"bike_id": "2fabfdf93d57c184525e9d89760c1e00", "is_reserved": 0, "fusion_lon": 0.0, "lat": 38.897333833333334, "is_disabled": 0, "name": "2fabfdf93d57c184525e9d89760c1e00", "fusion_lat": 0.0, "rental_uris": {"ios": "https://dc.lft.to/lastmile_qr_scan", "android": "https://dc.lft.to/lastmile_qr_scan"}, "lon": -77.05475816666667, "type": "electric_scooter"}, {"bike_id": "2032f3d2b1aeb9cae826c83049c35422", "is_reserved": 0, "fusion_lon": 0.0, "lat": 38.95932466666667, "is_disabled": 0, "name": "2032f3d2b1aeb9cae826c83049c35422", "fusion_lat": 0.0, "rental_uris": {"ios": "https://dc.lft.to/lastmile_qr_scan", "android": "https://dc.lft.to/lastmile_qr_scan"}, "lon": -77.031243, "type": "electric_scooter"}, {"bike_id": "83cea451bd82c41ea6b52c9439a87bbd", "is_reserved": 0, "fusion_lon": 0.0, "lat": 38.89196583333333, "is_disabled": 0, "name": "83cea451bd82c41ea6b52c9439a87bbd", "fusion_lat": 0.0, "rental_uris": {"ios": "https://dc.lft.to/lastmile_qr_scan", "android": "https://dc.lft.to/lastmile_qr_scan"}, "lon": -77.02837133333334, "type": "electric_scooter"}, {"bike_id": "052d8bd24a8977acd24f756f34ecd9d4", "is_reserved": 0, "fusion_lon": 0.0, "lat": 38.90499233333333, "is_disabled": 0, "name": "052d8bd24a8977acd24f756f34ecd9d4", "fusion_lat": 0.0, "rental_uris": {"ios": "https://dc.lft.to/lastmile_qr_scan", "android": "https://dc.lft.to/lastmile_qr_scan"}, "lon": -76.99009583333333, "type": "electric_scooter"}, {"bike_id": "ee66d1a6321423787c7aee1c7bac82b6", "is_reserved": 0, "fusion_lon": 0.0, "lat": 38.920240166666666, "is_disabled": 0, "name": "ee66d1a6321423787c7aee1c7bac82b6", "fusion_lat": 0.0, "rental_uris": {"ios": "https://dc.lft.to/lastmile_qr_scan", "android": "https://dc.lft.to/lastmile_qr_scan"}, "lon": -77.01807633333334, "type": "electric_scooter"}, {"bike_id": "65de09a03e516263178f4a3d82f4f52c", "is_reserved": 0, "fusion_lon": 0.0, "lat": 38.90480766666667, "is_disabled": 0, "name": "65de09a03e516263178f4a3d82f4f52c", "fusion_lat": 0.0, "rental_uris": {"ios": "https://dc.lft.to/lastmile_qr_scan", "android": "https://dc.lft.to/lastmile_qr_scan"}, "lon": -77.04657816666666, "type": "electric_scooter"}, {"bike_id": "d6750c5ffa3a605cef9123975f91932e", "is_reserved": 0, "fusion_lon": 0.0, "lat": 38.89221233333333, "is_disabled": 0, "name": "d6750c5ffa3a605cef9123975f91932e", "fusion_lat": 0.0, "rental_uris": {"ios": "https://dc.lft.to/lastmile_qr_scan", "android": "https://dc.lft.to/lastmile_qr_scan"}, "lon": -77.0465695, "type": "electric_scooter"}, {"bike_id": "5ed6edfb21c15009d23a9c521d89847a", "is_reserved": 0, "fusion_lon": 0.0, "lat": 38.92034666666667, "is_disabled": 0, "name": "5ed6edfb21c15009d23a9c521d89847a", "fusion_lat": 0.0, "rental_uris": {"ios": "https://dc.lft.to/lastmile_qr_scan", "android": "https://dc.lft.to/lastmile_qr_scan"}, "lon": -77.031391, "type": "electric_scooter"}, {"bike_id": "5d8b0cac94cd7c33324aec4a762aef92", "is_reserved": 0, "fusion_lon": 0.0, "lat": 38.876718333333336, "is_disabled": 0, "name": "5d8b0cac94cd7c33324aec4a762aef92", "fusion_lat": 0.0, "rental_uris": {"ios": "https://dc.lft.to/lastmile_qr_scan", "android": "https://dc.lft.to/lastmile_qr_scan"}, "lon": -77.00064666666667, "type": "electric_scooter"}, {"bike_id": "c345ef06d24aba08457762fe2140e9ed", "is_reserved": 0, "fusion_lon": 0.0, "lat": 38.90402666666667, "is_disabled": 0, "name": "c345ef06d24aba08457762fe2140e9ed", "fusion_lat": 0.0, "rental_uris": {"ios": "https://dc.lft.to/lastmile_qr_scan", "android": "https://dc.lft.to/lastmile_qr_scan"}, "lon": -77.03242966666667, "type": "electric_scooter"}, {"bike_id": "c20fddc0e9742606424a6da21910d92d", "is_reserved": 0, "fusion_lon": 0.0, "lat": 38.852911666666664, "is_disabled": 0, "name": "c20fddc0e9742606424a6da21910d92d", "fusion_lat": 0.0, "rental_uris": {"ios": "https://dc.lft.to/lastmile_qr_scan", "android": "https://dc.lft.to/lastmile_qr_scan"}, "lon": -77.0527565, "type": "electric_bike"}, {"bike_id": "c3b479a7acd6c98e51c34492ea6d090a", "is_reserved": 0, "fusion_lon": 0.0, "lat": 38.85684233333333, "is_disabled": 0, "name": "c3b479a7acd6c98e51c34492ea6d090a", "fusion_lat": 0.0, "rental_uris": {"ios": "https://dc.lft.to/lastmile_qr_scan", "android": "https://dc.lft.to/lastmile_qr_scan"}, "lon": -77.08570933333333, "type": "electric_bike"}, {"bike_id": "92cfaa34a8b601c7a4f569f489a0a380", "is_reserved": 0, "fusion_lon": 0.0, "lat": 38.8711435, "is_disabled": 0, "name": "92cfaa34a8b601c7a4f569f489a0a380", "fusion_lat": 0.0, "rental_uris": {"ios": "https://dc.lft.to/lastmile_qr_scan", "android": "https://dc.lft.to/lastmile_qr_scan"}, "lon": -76.97746183333334, "type": "electric_scooter"}, {"bike_id": "afeb2a314cdf629782033212b251cb71", "is_reserved": 0, "fusion_lon": 0.0, "lat": 38.863774166666666, "is_disabled": 0, "name": "afeb2a314cdf629782033212b251cb71", "fusion_lat": 0.0, "rental_uris": {"ios": "https://dc.lft.to/lastmile_qr_scan", "android": "https://dc.lft.to/lastmile_qr_scan"}, "lon": -76.99053816666667, "type": "electric_scooter"}, {"bike_id": "d7ee5a92821149c9e2afe7edc26ead95", "is_reserved": 0, "fusion_lon": 0.0, "lat": 38.86524583333333, "is_disabled": 0, "name": "d7ee5a92821149c9e2afe7edc26ead95", "fusion_lat": 0.0, "rental_uris": {"ios": "https://dc.lft.to/lastmile_qr_scan", "android": "https://dc.lft.to/lastmile_qr_scan"}, "lon": -76.990402, "type": "electric_scooter"}, {"bike_id": "c64a8b9f6da797e8ad2db8151e5d4309", "is_reserved": 0, "fusion_lon": 0.0, "lat": 38.9003235, "is_disabled": 0, "name": "c64a8b9f6da797e8ad2db8151e5d4309", "fusion_lat": 0.0, "rental_uris": {"ios": "https://dc.lft.to/lastmile_qr_scan", "android": "https://dc.lft.to/lastmile_qr_scan"}, "lon": -76.99825316666667, "type": "electric_scooter"}, {"bike_id": "7a3b322b75304996c5b89edc697c2fe6", "is_reserved": 0, "fusion_lon": 0.0, "lat": 38.91827133333334, "is_disabled": 0, "name": "7a3b322b75304996c5b89edc697c2fe6", "fusion_lat": 0.0, "rental_uris": {"ios": "https://dc.lft.to/lastmile_qr_scan", "android": "https://dc.lft.to/lastmile_qr_scan"}, "lon": -77.03206716666666, "type": "electric_scooter"}, {"bike_id": "fe9f9fd35336aa01692cef89b5b8a926", "is_reserved": 0, "fusion_lon": 0.0, "lat": 38.9102885, "is_disabled": 0, "name": "fe9f9fd35336aa01692cef89b5b8a926", "fusion_lat": 0.0, "rental_uris": {"ios": "https://dc.lft.to/lastmile_qr_scan", "android": "https://dc.lft.to/lastmile_qr_scan"}, "lon": -77.03849583333333, "type": "electric_scooter"}, {"bike_id": "1b88ee7f6551f6a20703027813db4c48", "is_reserved": 0, "fusion_lon": 0.0, "lat": 38.88373816666667, "is_disabled": 0, "name": "1b88ee7f6551f6a20703027813db4c48", "fusion_lat": 0.0, "rental_uris": {"ios": "https://dc.lft.to/lastmile_qr_scan", "android": "https://dc.lft.to/lastmile_qr_scan"}, "lon": -76.99519383333333, "type": "electric_scooter"}, {"bike_id": "e846a83a8f25cefa90ba6580b17d7589", "is_reserved": 0, "fusion_lon": 0.0, "lat": 38.928793166666665, "is_disabled": 0, "name": "e846a83a8f25cefa90ba6580b17d7589", "fusion_lat": 0.0, "rental_uris": {"ios": "https://dc.lft.to/lastmile_qr_scan", "android": "https://dc.lft.to/lastmile_qr_scan"}, "lon": -77.03253266666667, "type": "electric_scooter"}, {"bike_id": "3281ad1261f07dfe72232b349e51d860", "is_reserved": 0, "fusion_lon": 0.0, "lat": 38.956454666666666, "is_disabled": 0, "name": "3281ad1261f07dfe72232b349e51d860", "fusion_lat": 0.0, "rental_uris": {"ios": "https://dc.lft.to/lastmile_qr_scan", "android": "https://dc.lft.to/lastmile_qr_scan"}, "lon": -77.0225955, "type": "electric_scooter"}, {"bike_id": "1d03a791ffe04e11856a95ba86095a9f", "is_reserved": 0, "fusion_lon": 0.0, "lat": 38.924807333333334, "is_disabled": 0, "name": "1d03a791ffe04e11856a95ba86095a9f", "fusion_lat": 0.0, "rental_uris": {"ios": "https://dc.lft.to/lastmile_qr_scan", "android": "https://dc.lft.to/lastmile_qr_scan"}, "lon": -77.05210883333334, "type": "electric_scooter"}, {"bike_id": "1b53a720a95129a89d49b1a308886cbf", "is_reserved": 0, "fusion_lon": 0.0, "lat": 38.885654333333335, "is_disabled": 0, "name": "1b53a720a95129a89d49b1a308886cbf", "fusion_lat": 0.0, "rental_uris": {"ios": "https://dc.lft.to/lastmile_qr_scan", "android": "https://dc.lft.to/lastmile_qr_scan"}, "lon": -77.01543883333333, "type": "electric_scooter"}, {"bike_id": "b3a189e470a737a67e89a45f6c009db1", "is_reserved": 0, "fusion_lon": 0.0, "lat": 38.905921166666666, "is_disabled": 0, "name": "b3a189e470a737a67e89a45f6c009db1", "fusion_lat": 0.0, "rental_uris": {"ios": "https://dc.lft.to/lastmile_qr_scan", "android": "https://dc.lft.to/lastmile_qr_scan"}, "lon": -77.062775, "type": "electric_scooter"}, {"bike_id": "b9467139e007c665fbd4b004bb58a190", "is_reserved": 0, "fusion_lon": 0.0, "lat": 38.92583333333333, "is_disabled": 0, "name": "b9467139e007c665fbd4b004bb58a190", "fusion_lat": 0.0, "rental_uris": {"ios": "https://dc.lft.to/lastmile_qr_scan", "android": "https://dc.lft.to/lastmile_qr_scan"}, "lon": -77.03933433333333, "type": "electric_scooter"}, {"bike_id": "91a72d8724a5ce14bcdda0f34438533d", "is_reserved": 0, "fusion_lon": 0.0, "lat": 38.898093, "is_disabled": 0, "name": "91a72d8724a5ce14bcdda0f34438533d", "fusion_lat": 0.0, "rental_uris": {"ios": "https://dc.lft.to/lastmile_qr_scan", "android": "https://dc.lft.to/lastmile_qr_scan"}, "lon": -77.02943, "type": "electric_scooter"}, {"bike_id": "f5732efe84a35c9488a222dc19ca3a0a", "is_reserved": 0, "fusion_lon": 0.0, "lat": 38.927982, "is_disabled": 0, "name": "f5732efe84a35c9488a222dc19ca3a0a", "fusion_lat": 0.0, "rental_uris": {"ios": "https://dc.lft.to/lastmile_qr_scan", "android": "https://dc.lft.to/lastmile_qr_scan"}, "lon": -77.055258, "type": "electric_scooter"}, {"bike_id": "347a7332f93d6a3f5bd0a83a0064b7a9", "is_reserved": 0, "fusion_lon": 0.0, "lat": 38.897412, "is_disabled": 0, "name": "347a7332f93d6a3f5bd0a83a0064b7a9", "fusion_lat": 0.0, "rental_uris": {"ios": "https://dc.lft.to/lastmile_qr_scan", "android": "https://dc.lft.to/lastmile_qr_scan"}, "lon": -77.03025166666667, "type": "electric_scooter"}, {"bike_id": "00f0690a6ff86bdbd91d170dcdc04223", "is_reserved": 0, "fusion_lon": 0.0, "lat": 38.898405333333336, "is_disabled": 0, "name": "00f0690a6ff86bdbd91d170dcdc04223", "fusion_lat": 0.0, "rental_uris": {"ios": "https://dc.lft.to/lastmile_qr_scan", "android": "https://dc.lft.to/lastmile_qr_scan"}, "lon": -77.032751, "type": "electric_scooter"}, {"bike_id": "67b8568cc5f8e00507ffbc5ab8ae2f17", "is_reserved": 0, "fusion_lon": 0.0, "lat": 38.90566783333333, "is_disabled": 0, "name": "67b8568cc5f8e00507ffbc5ab8ae2f17", "fusion_lat": 0.0, "rental_uris": {"ios": "https://dc.lft.to/lastmile_qr_scan", "android": "https://dc.lft.to/lastmile_qr_scan"}, "lon": -77.03449783333333, "type": "electric_scooter"}, {"bike_id": "5c6a2495c42451ef9c234f889cce917c", "is_reserved": 0, "fusion_lon": 0.0, "lat": 38.91588433333333, "is_disabled": 0, "name": "5c6a2495c42451ef9c234f889cce917c", "fusion_lat": 0.0, "rental_uris": {"ios": "https://dc.lft.to/lastmile_qr_scan", "android": "https://dc.lft.to/lastmile_qr_scan"}, "lon": -76.983761, "type": "electric_scooter"}, {"bike_id": "e68e26996cc647a0799aeb2847232b14", "is_reserved": 0, "fusion_lon": 0.0, "lat": 38.91718616666667, "is_disabled": 0, "name": "e68e26996cc647a0799aeb2847232b14", "fusion_lat": 0.0, "rental_uris": {"ios": "https://dc.lft.to/lastmile_qr_scan", "android": "https://dc.lft.to/lastmile_qr_scan"}, "lon": -77.03116433333334, "type": "electric_scooter"}, {"bike_id": "b457bbf50f3b2d728fb61324425e6f8b", "is_reserved": 0, "fusion_lon": 0.0, "lat": 38.88332166666667, "is_disabled": 0, "name": "b457bbf50f3b2d728fb61324425e6f8b", "fusion_lat": 0.0, "rental_uris": {"ios": "https://dc.lft.to/lastmile_qr_scan", "android": "https://dc.lft.to/lastmile_qr_scan"}, "lon": -77.01763416666667, "type": "electric_scooter"}, {"bike_id": "f3ada88cf57281c5db34e4fb2a3d82ac", "is_reserved": 0, "fusion_lon": 0.0, "lat": 38.925785833333336, "is_disabled": 0, "name": "f3ada88cf57281c5db34e4fb2a3d82ac", "fusion_lat": 0.0, "rental_uris": {"ios": "https://dc.lft.to/lastmile_qr_scan", "android": "https://dc.lft.to/lastmile_qr_scan"}, "lon": -77.03915216666667, "type": "electric_scooter"}, {"bike_id": "a4067db317f29eddbe358eb25bd15d42", "is_reserved": 0, "fusion_lon": 0.0, "lat": 38.88198716666667, "is_disabled": 0, "name": "a4067db317f29eddbe358eb25bd15d42", "fusion_lat": 0.0, "rental_uris": {"ios": "https://dc.lft.to/lastmile_qr_scan", "android": "https://dc.lft.to/lastmile_qr_scan"}, "lon": -77.00602833333333, "type": "electric_scooter"}, {"bike_id": "508c61a71b0a1ead51b9e08df9c8c2ed", "is_reserved": 0, "fusion_lon": 0.0, "lat": 38.90864216666667, "is_disabled": 0, "name": "508c61a71b0a1ead51b9e08df9c8c2ed", "fusion_lat": 0.0, "rental_uris": {"ios": "https://dc.lft.to/lastmile_qr_scan", "android": "https://dc.lft.to/lastmile_qr_scan"}, "lon": -76.940113, "type": "electric_bike"}, {"bike_id": "fcb63bf08546ba5bce6f42a5a0af4bcd", "is_reserved": 0, "fusion_lon": 0.0, "lat": 38.93615616666666, "is_disabled": 0, "name": "fcb63bf08546ba5bce6f42a5a0af4bcd", "fusion_lat": 0.0, "rental_uris": {"ios": "https://dc.lft.to/lastmile_qr_scan", "android": "https://dc.lft.to/lastmile_qr_scan"}, "lon": -77.05590883333333, "type": "electric_scooter"}, {"bike_id": "443c7dd4c77cbde4964dcf27f11866f6", "is_reserved": 0, "fusion_lon": 0.0, "lat": 38.92093833333333, "is_disabled": 0, "name": "443c7dd4c77cbde4964dcf27f11866f6", "fusion_lat": 0.0, "rental_uris": {"ios": "https://dc.lft.to/lastmile_qr_scan", "android": "https://dc.lft.to/lastmile_qr_scan"}, "lon": -77.0252205, "type": "electric_scooter"}, {"bike_id": "02d61dc446638db1663af6cb8c13b7af", "is_reserved": 0, "fusion_lon": 0.0, "lat": 38.90148533333333, "is_disabled": 0, "name": "02d61dc446638db1663af6cb8c13b7af", "fusion_lat": 0.0, "rental_uris": {"ios": "https://dc.lft.to/lastmile_qr_scan", "android": "https://dc.lft.to/lastmile_qr_scan"}, "lon": -77.039892, "type": "electric_scooter"}, {"bike_id": "644ba6bd448b1245b2c7eb07dde31abb", "is_reserved": 0, "fusion_lon": 0.0, "lat": 38.891972, "is_disabled": 0, "name": "644ba6bd448b1245b2c7eb07dde31abb", "fusion_lat": 0.0, "rental_uris": {"ios": "https://dc.lft.to/lastmile_qr_scan", "android": "https://dc.lft.to/lastmile_qr_scan"}, "lon": -77.02383316666666, "type": "electric_scooter"}, {"bike_id": "52d26221ab47aaa4b3acafee96b0ea2e", "is_reserved": 0, "fusion_lon": 0.0, "lat": 38.92674483333333, "is_disabled": 0, "name": "52d26221ab47aaa4b3acafee96b0ea2e", "fusion_lat": 0.0, "rental_uris": {"ios": "https://dc.lft.to/lastmile_qr_scan", "android": "https://dc.lft.to/lastmile_qr_scan"}, "lon": -77.095552, "type": "electric_scooter"}, {"bike_id": "eb07decf3e79ea8f5a6c58cb305de264", "is_reserved": 0, "fusion_lon": 0.0, "lat": 38.898322666666665, "is_disabled": 0, "name": "eb07decf3e79ea8f5a6c58cb305de264", "fusion_lat": 0.0, "rental_uris": {"ios": "https://dc.lft.to/lastmile_qr_scan", "android": "https://dc.lft.to/lastmile_qr_scan"}, "lon": -77.04338916666667, "type": "electric_scooter"}, {"bike_id": "3184d56e4e55ae58829bc6174d6f3363", "is_reserved": 0, "fusion_lon": 0.0, "lat": 38.94068816666667, "is_disabled": 0, "name": "3184d56e4e55ae58829bc6174d6f3363", "fusion_lat": 0.0, "rental_uris": {"ios": "https://dc.lft.to/lastmile_qr_scan", "android": "https://dc.lft.to/lastmile_qr_scan"}, "lon": -76.9946045, "type": "electric_scooter"}, {"bike_id": "e61c4821a025610a077d54d019da83ff", "is_reserved": 0, "fusion_lon": 0.0, "lat": 38.922406333333335, "is_disabled": 0, "name": "e61c4821a025610a077d54d019da83ff", "fusion_lat": 0.0, "rental_uris": {"ios": "https://dc.lft.to/lastmile_qr_scan", "android": "https://dc.lft.to/lastmile_qr_scan"}, "lon": -77.03346116666667, "type": "electric_scooter"}, {"bike_id": "40567be39b81dac180c6cfbf0652e69f", "is_reserved": 0, "fusion_lon": 0.0, "lat": 38.903976166666666, "is_disabled": 0, "name": "40567be39b81dac180c6cfbf0652e69f", "fusion_lat": 0.0, "rental_uris": {"ios": "https://dc.lft.to/lastmile_qr_scan", "android": "https://dc.lft.to/lastmile_qr_scan"}, "lon": -77.03808216666667, "type": "electric_scooter"}, {"bike_id": "2e6bc6fc8dd8c1203a28c7f952b54688", "is_reserved": 0, "fusion_lon": 0.0, "lat": 38.90962183333333, "is_disabled": 0, "name": "2e6bc6fc8dd8c1203a28c7f952b54688", "fusion_lat": 0.0, "rental_uris": {"ios": "https://dc.lft.to/lastmile_qr_scan", "android": "https://dc.lft.to/lastmile_qr_scan"}, "lon": -77.03166566666667, "type": "electric_scooter"}, {"bike_id": "a94ee6fdd14d76f051bb3491d91e59ed", "is_reserved": 0, "fusion_lon": 0.0, "lat": 38.90573166666667, "is_disabled": 0, "name": "a94ee6fdd14d76f051bb3491d91e59ed", "fusion_lat": 0.0, "rental_uris": {"ios": "https://dc.lft.to/lastmile_qr_scan", "android": "https://dc.lft.to/lastmile_qr_scan"}, "lon": -77.0384595, "type": "electric_scooter"}, {"bike_id": "34370ac3841b699d1004838615fd6ef7", "is_reserved": 0, "fusion_lon": 0.0, "lat": 38.91878283333333, "is_disabled": 0, "name": "34370ac3841b699d1004838615fd6ef7", "fusion_lat": 0.0, "rental_uris": {"ios": "https://dc.lft.to/lastmile_qr_scan", "android": "https://dc.lft.to/lastmile_qr_scan"}, "lon": -77.04378016666666, "type": "electric_scooter"}, {"bike_id": "d6143f477458870e62dfb35c285cfebb", "is_reserved": 0, "fusion_lon": 0.0, "lat": 38.89196316666666, "is_disabled": 0, "name": "d6143f477458870e62dfb35c285cfebb", "fusion_lat": 0.0, "rental_uris": {"ios": "https://dc.lft.to/lastmile_qr_scan", "android": "https://dc.lft.to/lastmile_qr_scan"}, "lon": -77.02244033333334, "type": "electric_scooter"}, {"bike_id": "c4db2bef95d886b7f6e9d601e3e84dc6", "is_reserved": 0, "fusion_lon": 0.0, "lat": 38.92270883333333, "is_disabled": 0, "name": "c4db2bef95d886b7f6e9d601e3e84dc6", "fusion_lat": 0.0, "rental_uris": {"ios": "https://dc.lft.to/lastmile_qr_scan", "android": "https://dc.lft.to/lastmile_qr_scan"}, "lon": -77.01826283333334, "type": "electric_scooter"}, {"bike_id": "e3759d69429d8591a9376c240329ac27", "is_reserved": 0, "fusion_lon": 0.0, "lat": 38.905287333333334, "is_disabled": 0, "name": "e3759d69429d8591a9376c240329ac27", "fusion_lat": 0.0, "rental_uris": {"ios": "https://dc.lft.to/lastmile_qr_scan", "android": "https://dc.lft.to/lastmile_qr_scan"}, "lon": -77.065149, "type": "electric_scooter"}, {"bike_id": "b849a01eadb4b80b29626fe95f9ed0be", "is_reserved": 0, "fusion_lon": 0.0, "lat": 38.9013165, "is_disabled": 0, "name": "b849a01eadb4b80b29626fe95f9ed0be", "fusion_lat": 0.0, "rental_uris": {"ios": "https://dc.lft.to/lastmile_qr_scan", "android": "https://dc.lft.to/lastmile_qr_scan"}, "lon": -76.99712216666667, "type": "electric_scooter"}, {"bike_id": "44a93d49724e478477cf5ad65287ea39", "is_reserved": 0, "fusion_lon": 0.0, "lat": 38.91154983333333, "is_disabled": 0, "name": "44a93d49724e478477cf5ad65287ea39", "fusion_lat": 0.0, "rental_uris": {"ios": "https://dc.lft.to/lastmile_qr_scan", "android": "https://dc.lft.to/lastmile_qr_scan"}, "lon": -76.98658283333333, "type": "electric_scooter"}, {"bike_id": "70b163195fa1f36f981ac311e4a857f5", "is_reserved": 0, "fusion_lon": 0.0, "lat": 38.922522, "is_disabled": 0, "name": "70b163195fa1f36f981ac311e4a857f5", "fusion_lat": 0.0, "rental_uris": {"ios": "https://dc.lft.to/lastmile_qr_scan", "android": "https://dc.lft.to/lastmile_qr_scan"}, "lon": -77.019533, "type": "electric_scooter"}, {"bike_id": "15bb5c306c09eabfbfd18a065cd48b4f", "is_reserved": 0, "fusion_lon": 0.0, "lat": 38.892246, "is_disabled": 0, "name": "15bb5c306c09eabfbfd18a065cd48b4f", "fusion_lat": 0.0, "rental_uris": {"ios": "https://dc.lft.to/lastmile_qr_scan", "android": "https://dc.lft.to/lastmile_qr_scan"}, "lon": -77.04878266666667, "type": "electric_scooter"}, {"bike_id": "14227acf550b669e70cc922bf3f8dd29", "is_reserved": 0, "fusion_lon": 0.0, "lat": 38.9271315, "is_disabled": 0, "name": "14227acf550b669e70cc922bf3f8dd29", "fusion_lat": 0.0, "rental_uris": {"ios": "https://dc.lft.to/lastmile_qr_scan", "android": "https://dc.lft.to/lastmile_qr_scan"}, "lon": -77.04053316666666, "type": "electric_scooter"}, {"bike_id": "f497e61d8591a86a1e04b07371f8ae8d", "is_reserved": 0, "fusion_lon": 0.0, "lat": 38.8244605, "is_disabled": 0, "name": "f497e61d8591a86a1e04b07371f8ae8d", "fusion_lat": 0.0, "rental_uris": {"ios": "https://dc.lft.to/lastmile_qr_scan", "android": "https://dc.lft.to/lastmile_qr_scan"}, "lon": -77.07048266666666, "type": "electric_bike"}, {"bike_id": "e635e5b244f3029e75e2827fedf25b17", "is_reserved": 0, "fusion_lon": 0.0, "lat": 38.92666716666667, "is_disabled": 0, "name": "e635e5b244f3029e75e2827fedf25b17", "fusion_lat": 0.0, "rental_uris": {"ios": "https://dc.lft.to/lastmile_qr_scan", "android": "https://dc.lft.to/lastmile_qr_scan"}, "lon": -77.01476283333334, "type": "electric_scooter"}, {"bike_id": "b6d1b9914f68cc655fb9bd40a101b5d8", "is_reserved": 0, "fusion_lon": 0.0, "lat": 38.95550883333333, "is_disabled": 0, "name": "b6d1b9914f68cc655fb9bd40a101b5d8", "fusion_lat": 0.0, "rental_uris": {"ios": "https://dc.lft.to/lastmile_qr_scan", "android": "https://dc.lft.to/lastmile_qr_scan"}, "lon": -76.9400935, "type": "electric_bike"}, {"bike_id": "bdc18fa1091b7e52345ac03460765041", "is_reserved": 0, "fusion_lon": 0.0, "lat": 38.892494, "is_disabled": 0, "name": "bdc18fa1091b7e52345ac03460765041", "fusion_lat": 0.0, "rental_uris": {"ios": "https://dc.lft.to/lastmile_qr_scan", "android": "https://dc.lft.to/lastmile_qr_scan"}, "lon": -77.03187583333333, "type": "electric_scooter"}, {"bike_id": "8ebe3f10d90a1194c3af2e05a10a9b98", "is_reserved": 0, "fusion_lon": 0.0, "lat": 38.90650433333333, "is_disabled": 0, "name": "8ebe3f10d90a1194c3af2e05a10a9b98", "fusion_lat": 0.0, "rental_uris": {"ios": "https://dc.lft.to/lastmile_qr_scan", "android": "https://dc.lft.to/lastmile_qr_scan"}, "lon": -77.04480683333334, "type": "electric_scooter"}, {"bike_id": "358702c2a2c4b86e79447b761fa7667b", "is_reserved": 0, "fusion_lon": 0.0, "lat": 38.90664183333333, "is_disabled": 0, "name": "358702c2a2c4b86e79447b761fa7667b", "fusion_lat": 0.0, "rental_uris": {"ios": "https://dc.lft.to/lastmile_qr_scan", "android": "https://dc.lft.to/lastmile_qr_scan"}, "lon": -77.04489533333333, "type": "electric_scooter"}, {"bike_id": "3989ab5192c0ac6aff4ebb692d705738", "is_reserved": 0, "fusion_lon": 0.0, "lat": 38.9177985, "is_disabled": 0, "name": "3989ab5192c0ac6aff4ebb692d705738", "fusion_lat": 0.0, "rental_uris": {"ios": "https://dc.lft.to/lastmile_qr_scan", "android": "https://dc.lft.to/lastmile_qr_scan"}, "lon": -77.02322816666667, "type": "electric_scooter"}, {"bike_id": "efeebc920e9be7b6e55678653db2e6e4", "is_reserved": 0, "fusion_lon": 0.0, "lat": 38.880080166666666, "is_disabled": 0, "name": "efeebc920e9be7b6e55678653db2e6e4", "fusion_lat": 0.0, "rental_uris": {"ios": "https://dc.lft.to/lastmile_qr_scan", "android": "https://dc.lft.to/lastmile_qr_scan"}, "lon": -76.9159625, "type": "electric_bike"}, {"bike_id": "c0cdc5824be3c9e46b76d82f1e038f33", "is_reserved": 0, "fusion_lon": 0.0, "lat": 38.905724166666666, "is_disabled": 0, "name": "c0cdc5824be3c9e46b76d82f1e038f33", "fusion_lat": 0.0, "rental_uris": {"ios": "https://dc.lft.to/lastmile_qr_scan", "android": "https://dc.lft.to/lastmile_qr_scan"}, "lon": -77.0185555, "type": "electric_scooter"}, {"bike_id": "9402cb3bd2afde7e0708f74586001b3d", "is_reserved": 0, "fusion_lon": 0.0, "lat": 38.903887833333336, "is_disabled": 0, "name": "9402cb3bd2afde7e0708f74586001b3d", "fusion_lat": 0.0, "rental_uris": {"ios": "https://dc.lft.to/lastmile_qr_scan", "android": "https://dc.lft.to/lastmile_qr_scan"}, "lon": -77.0294425, "type": "electric_scooter"}, {"bike_id": "559ffdcbd85c5dc9e525425346f97f47", "is_reserved": 0, "fusion_lon": 0.0, "lat": 38.92360466666667, "is_disabled": 0, "name": "559ffdcbd85c5dc9e525425346f97f47", "fusion_lat": 0.0, "rental_uris": {"ios": "https://dc.lft.to/lastmile_qr_scan", "android": "https://dc.lft.to/lastmile_qr_scan"}, "lon": -77.041574, "type": "electric_scooter"}, {"bike_id": "3b3bfc3dfeb68c5a84fafd429a057516", "is_reserved": 0, "fusion_lon": 0.0, "lat": 38.90797583333333, "is_disabled": 0, "name": "3b3bfc3dfeb68c5a84fafd429a057516", "fusion_lat": 0.0, "rental_uris": {"ios": "https://dc.lft.to/lastmile_qr_scan", "android": "https://dc.lft.to/lastmile_qr_scan"}, "lon": -77.03661066666666, "type": "electric_scooter"}, {"bike_id": "e724aa087f6605ce0563d97311c37c38", "is_reserved": 0, "fusion_lon": 0.0, "lat": 38.9323795, "is_disabled": 0, "name": "e724aa087f6605ce0563d97311c37c38", "fusion_lat": 0.0, "rental_uris": {"ios": "https://dc.lft.to/lastmile_qr_scan", "android": "https://dc.lft.to/lastmile_qr_scan"}, "lon": -77.032713, "type": "electric_scooter"}, {"bike_id": "022da3e86a7f1cce772f3138d89a6c96", "is_reserved": 0, "fusion_lon": 0.0, "lat": 38.91208183333333, "is_disabled": 0, "name": "022da3e86a7f1cce772f3138d89a6c96", "fusion_lat": 0.0, "rental_uris": {"ios": "https://dc.lft.to/lastmile_qr_scan", "android": "https://dc.lft.to/lastmile_qr_scan"}, "lon": -77.048703, "type": "electric_scooter"}, {"bike_id": "061038ef8613105d084dd383d1717692", "is_reserved": 0, "fusion_lon": 0.0, "lat": 38.909038333333335, "is_disabled": 0, "name": "061038ef8613105d084dd383d1717692", "fusion_lat": 0.0, "rental_uris": {"ios": "https://dc.lft.to/lastmile_qr_scan", "android": "https://dc.lft.to/lastmile_qr_scan"}, "lon": -77.086276, "type": "electric_scooter"}, {"bike_id": "041afd3085a5f810db35264419233c3d", "is_reserved": 0, "fusion_lon": 0.0, "lat": 38.90292066666667, "is_disabled": 0, "name": "041afd3085a5f810db35264419233c3d", "fusion_lat": 0.0, "rental_uris": {"ios": "https://dc.lft.to/lastmile_qr_scan", "android": "https://dc.lft.to/lastmile_qr_scan"}, "lon": -77.03674316666667, "type": "electric_scooter"}, {"bike_id": "c7d779b691422af8ca9de9a7d2ac4bd4", "is_reserved": 0, "fusion_lon": 0.0, "lat": 38.883856, "is_disabled": 0, "name": "c7d779b691422af8ca9de9a7d2ac4bd4", "fusion_lat": 0.0, "rental_uris": {"ios": "https://dc.lft.to/lastmile_qr_scan", "android": "https://dc.lft.to/lastmile_qr_scan"}, "lon": -76.94926716666667, "type": "electric_scooter"}, {"bike_id": "36b61d5cc39af7c96936e25b28267cb3", "is_reserved": 0, "fusion_lon": 0.0, "lat": 38.887333166666664, "is_disabled": 0, "name": "36b61d5cc39af7c96936e25b28267cb3", "fusion_lat": 0.0, "rental_uris": {"ios": "https://dc.lft.to/lastmile_qr_scan", "android": "https://dc.lft.to/lastmile_qr_scan"}, "lon": -77.13319866666667, "type": "electric_bike"}, {"bike_id": "fc47aa9f71fe366a1ca37b1cad1a1289", "is_reserved": 0, "fusion_lon": 0.0, "lat": 38.8919885, "is_disabled": 0, "name": "fc47aa9f71fe366a1ca37b1cad1a1289", "fusion_lat": 0.0, "rental_uris": {"ios": "https://dc.lft.to/lastmile_qr_scan", "android": "https://dc.lft.to/lastmile_qr_scan"}, "lon": -77.015398, "type": "electric_scooter"}, {"bike_id": "7cbbaee45b5246e134c99568ba0283db", "is_reserved": 0, "fusion_lon": 0.0, "lat": 38.941761, "is_disabled": 0, "name": "7cbbaee45b5246e134c99568ba0283db", "fusion_lat": 0.0, "rental_uris": {"ios": "https://dc.lft.to/lastmile_qr_scan", "android": "https://dc.lft.to/lastmile_qr_scan"}, "lon": -77.025031, "type": "electric_scooter"}, {"bike_id": "537a65b416affe487c53043498b1a401", "is_reserved": 0, "fusion_lon": 0.0, "lat": 38.911911333333336, "is_disabled": 0, "name": "537a65b416affe487c53043498b1a401", "fusion_lat": 0.0, "rental_uris": {"ios": "https://dc.lft.to/lastmile_qr_scan", "android": "https://dc.lft.to/lastmile_qr_scan"}, "lon": -77.01614533333333, "type": "electric_scooter"}, {"bike_id": "494e67805860b7b4ef10ec7dab79b378", "is_reserved": 0, "fusion_lon": 0.0, "lat": 38.9029665, "is_disabled": 0, "name": "494e67805860b7b4ef10ec7dab79b378", "fusion_lat": 0.0, "rental_uris": {"ios": "https://dc.lft.to/lastmile_qr_scan", "android": "https://dc.lft.to/lastmile_qr_scan"}, "lon": -76.9985415, "type": "electric_scooter"}, {"bike_id": "f46e13d6e658d80471cbd9d8a13c7c50", "is_reserved": 0, "fusion_lon": 0.0, "lat": 38.893759, "is_disabled": 0, "name": "f46e13d6e658d80471cbd9d8a13c7c50", "fusion_lat": 0.0, "rental_uris": {"ios": "https://dc.lft.to/lastmile_qr_scan", "android": "https://dc.lft.to/lastmile_qr_scan"}, "lon": -76.94964383333334, "type": "electric_scooter"}, {"bike_id": "3c72d60c3bbc5cc0516e0e250d79a9b2", "is_reserved": 0, "fusion_lon": 0.0, "lat": 38.878395, "is_disabled": 0, "name": "3c72d60c3bbc5cc0516e0e250d79a9b2", "fusion_lat": 0.0, "rental_uris": {"ios": "https://dc.lft.to/lastmile_qr_scan", "android": "https://dc.lft.to/lastmile_qr_scan"}, "lon": -76.99044183333334, "type": "electric_scooter"}, {"bike_id": "d462119d5af6b4c2c0bbf9dbdb86bf44", "is_reserved": 0, "fusion_lon": 0.0, "lat": 38.87632333333333, "is_disabled": 0, "name": "d462119d5af6b4c2c0bbf9dbdb86bf44", "fusion_lat": 0.0, "rental_uris": {"ios": "https://dc.lft.to/lastmile_qr_scan", "android": "https://dc.lft.to/lastmile_qr_scan"}, "lon": -76.9652485, "type": "electric_scooter"}, {"bike_id": "c34aa9bb8d23d1464d721eefd6e669d2", "is_reserved": 0, "fusion_lon": 0.0, "lat": 38.90450933333334, "is_disabled": 0, "name": "c34aa9bb8d23d1464d721eefd6e669d2", "fusion_lat": 0.0, "rental_uris": {"ios": "https://dc.lft.to/lastmile_qr_scan", "android": "https://dc.lft.to/lastmile_qr_scan"}, "lon": -76.99622583333333, "type": "electric_scooter"}, {"bike_id": "2e3198d01e96e9cca69a2b1f9c79f0b9", "is_reserved": 0, "fusion_lon": 0.0, "lat": 38.902743666666666, "is_disabled": 0, "name": "2e3198d01e96e9cca69a2b1f9c79f0b9", "fusion_lat": 0.0, "rental_uris": {"ios": "https://dc.lft.to/lastmile_qr_scan", "android": "https://dc.lft.to/lastmile_qr_scan"}, "lon": -77.033699, "type": "electric_scooter"}, {"bike_id": "d76b649c53c909e2377cf7a19f8f9839", "is_reserved": 0, "fusion_lon": 0.0, "lat": 38.922630166666664, "is_disabled": 0, "name": "d76b649c53c909e2377cf7a19f8f9839", "fusion_lat": 0.0, "rental_uris": {"ios": "https://dc.lft.to/lastmile_qr_scan", "android": "https://dc.lft.to/lastmile_qr_scan"}, "lon": -77.01828316666666, "type": "electric_scooter"}, {"bike_id": "aa90543b1d77697514d07b263ec17a2f", "is_reserved": 0, "fusion_lon": 0.0, "lat": 38.920422333333335, "is_disabled": 0, "name": "aa90543b1d77697514d07b263ec17a2f", "fusion_lat": 0.0, "rental_uris": {"ios": "https://dc.lft.to/lastmile_qr_scan", "android": "https://dc.lft.to/lastmile_qr_scan"}, "lon": -77.04809166666666, "type": "electric_scooter"}, {"bike_id": "ff089b7ad296ae11d467d5633d3c039e", "is_reserved": 0, "fusion_lon": 0.0, "lat": 38.91819316666667, "is_disabled": 0, "name": "ff089b7ad296ae11d467d5633d3c039e", "fusion_lat": 0.0, "rental_uris": {"ios": "https://dc.lft.to/lastmile_qr_scan", "android": "https://dc.lft.to/lastmile_qr_scan"}, "lon": -77.0452355, "type": "electric_scooter"}, {"bike_id": "5a6baeb66f337eac6244dcdc9cd2fe94", "is_reserved": 0, "fusion_lon": 0.0, "lat": 38.842969333333336, "is_disabled": 0, "name": "5a6baeb66f337eac6244dcdc9cd2fe94", "fusion_lat": 0.0, "rental_uris": {"ios": "https://dc.lft.to/lastmile_qr_scan", "android": "https://dc.lft.to/lastmile_qr_scan"}, "lon": -76.99946566666667, "type": "electric_scooter"}, {"bike_id": "1344219ab0e4a01c2cabde3a2bcfa772", "is_reserved": 0, "fusion_lon": 0.0, "lat": 38.91655466666667, "is_disabled": 0, "name": "1344219ab0e4a01c2cabde3a2bcfa772", "fusion_lat": 0.0, "rental_uris": {"ios": "https://dc.lft.to/lastmile_qr_scan", "android": "https://dc.lft.to/lastmile_qr_scan"}, "lon": -77.02284816666666, "type": "electric_scooter"}, {"bike_id": "8f43d0a047b4e69315b11d8dc20f3416", "is_reserved": 0, "fusion_lon": 0.0, "lat": 38.923644333333336, "is_disabled": 0, "name": "8f43d0a047b4e69315b11d8dc20f3416", "fusion_lat": 0.0, "rental_uris": {"ios": "https://dc.lft.to/lastmile_qr_scan", "android": "https://dc.lft.to/lastmile_qr_scan"}, "lon": -77.05031666666666, "type": "electric_scooter"}, {"bike_id": "e180d98f3af184005b797a2b89b4b1ce", "is_reserved": 0, "fusion_lon": 0.0, "lat": 38.89008533333333, "is_disabled": 0, "name": "e180d98f3af184005b797a2b89b4b1ce", "fusion_lat": 0.0, "rental_uris": {"ios": "https://dc.lft.to/lastmile_qr_scan", "android": "https://dc.lft.to/lastmile_qr_scan"}, "lon": -76.93743283333333, "type": "electric_scooter"}, {"bike_id": "90fae1b3297b2f2fea7e153cfcb6876c", "is_reserved": 0, "fusion_lon": 0.0, "lat": 38.90028566666667, "is_disabled": 0, "name": "90fae1b3297b2f2fea7e153cfcb6876c", "fusion_lat": 0.0, "rental_uris": {"ios": "https://dc.lft.to/lastmile_qr_scan", "android": "https://dc.lft.to/lastmile_qr_scan"}, "lon": -77.04682666666666, "type": "electric_scooter"}, {"bike_id": "aa0e295cae3920602744b0a10608b645", "is_reserved": 0, "fusion_lon": 0.0, "lat": 38.90588966666667, "is_disabled": 0, "name": "aa0e295cae3920602744b0a10608b645", "fusion_lat": 0.0, "rental_uris": {"ios": "https://dc.lft.to/lastmile_qr_scan", "android": "https://dc.lft.to/lastmile_qr_scan"}, "lon": -77.00273283333334, "type": "electric_scooter"}, {"bike_id": "75e56ab1d5564eda557b3003e3e77109", "is_reserved": 0, "fusion_lon": 0.0, "lat": 38.87915666666667, "is_disabled": 0, "name": "75e56ab1d5564eda557b3003e3e77109", "fusion_lat": 0.0, "rental_uris": {"ios": "https://dc.lft.to/lastmile_qr_scan", "android": "https://dc.lft.to/lastmile_qr_scan"}, "lon": -77.0058185, "type": "electric_scooter"}, {"bike_id": "171cfd08a239e76dab0b42431680a193", "is_reserved": 0, "fusion_lon": 0.0, "lat": 38.9548705, "is_disabled": 0, "name": "171cfd08a239e76dab0b42431680a193", "fusion_lat": 0.0, "rental_uris": {"ios": "https://dc.lft.to/lastmile_qr_scan", "android": "https://dc.lft.to/lastmile_qr_scan"}, "lon": -77.06566316666667, "type": "electric_scooter"}, {"bike_id": "4f630aae46eb970463434b72a804744d", "is_reserved": 0, "fusion_lon": 0.0, "lat": 38.92407516666667, "is_disabled": 0, "name": "4f630aae46eb970463434b72a804744d", "fusion_lat": 0.0, "rental_uris": {"ios": "https://dc.lft.to/lastmile_qr_scan", "android": "https://dc.lft.to/lastmile_qr_scan"}, "lon": -77.02544416666667, "type": "electric_scooter"}, {"bike_id": "c357bb35d87caaa65e203ee035734191", "is_reserved": 0, "fusion_lon": 0.0, "lat": 38.8964085, "is_disabled": 0, "name": "c357bb35d87caaa65e203ee035734191", "fusion_lat": 0.0, "rental_uris": {"ios": "https://dc.lft.to/lastmile_qr_scan", "android": "https://dc.lft.to/lastmile_qr_scan"}, "lon": -77.03230866666667, "type": "electric_scooter"}, {"bike_id": "40b37f32c24ef843a1d7ffd4a6f29eb8", "is_reserved": 0, "fusion_lon": 0.0, "lat": 38.866636, "is_disabled": 0, "name": "40b37f32c24ef843a1d7ffd4a6f29eb8", "fusion_lat": 0.0, "rental_uris": {"ios": "https://dc.lft.to/lastmile_qr_scan", "android": "https://dc.lft.to/lastmile_qr_scan"}, "lon": -76.9888125, "type": "electric_scooter"}, {"bike_id": "46340a33c7f4b366163b6fa0a57d6591", "is_reserved": 0, "fusion_lon": 0.0, "lat": 38.86542083333333, "is_disabled": 0, "name": "46340a33c7f4b366163b6fa0a57d6591", "fusion_lat": 0.0, "rental_uris": {"ios": "https://dc.lft.to/lastmile_qr_scan", "android": "https://dc.lft.to/lastmile_qr_scan"}, "lon": -76.98705983333333, "type": "electric_scooter"}, {"bike_id": "a0f2d145b48a99a5dcc32365938f51a2", "is_reserved": 0, "fusion_lon": 0.0, "lat": 38.8922085, "is_disabled": 0, "name": "a0f2d145b48a99a5dcc32365938f51a2", "fusion_lat": 0.0, "rental_uris": {"ios": "https://dc.lft.to/lastmile_qr_scan", "android": "https://dc.lft.to/lastmile_qr_scan"}, "lon": -77.0316645, "type": "electric_scooter"}, {"bike_id": "5d447972377dd7c3fbba5a5008719fa2", "is_reserved": 0, "fusion_lon": 0.0, "lat": 38.899653666666666, "is_disabled": 0, "name": "5d447972377dd7c3fbba5a5008719fa2", "fusion_lat": 0.0, "rental_uris": {"ios": "https://dc.lft.to/lastmile_qr_scan", "android": "https://dc.lft.to/lastmile_qr_scan"}, "lon": -77.02185383333334, "type": "electric_scooter"}, {"bike_id": "c5f15132407f16a083b7758977b0bc8a", "is_reserved": 0, "fusion_lon": 0.0, "lat": 38.90400966666667, "is_disabled": 0, "name": "c5f15132407f16a083b7758977b0bc8a", "fusion_lat": 0.0, "rental_uris": {"ios": "https://dc.lft.to/lastmile_qr_scan", "android": "https://dc.lft.to/lastmile_qr_scan"}, "lon": -77.04326816666666, "type": "electric_scooter"}, {"bike_id": "47a3f3c4121a6f5fb06c4f2163453631", "is_reserved": 0, "fusion_lon": 0.0, "lat": 38.92302383333333, "is_disabled": 0, "name": "47a3f3c4121a6f5fb06c4f2163453631", "fusion_lat": 0.0, "rental_uris": {"ios": "https://dc.lft.to/lastmile_qr_scan", "android": "https://dc.lft.to/lastmile_qr_scan"}, "lon": -77.04145766666667, "type": "electric_scooter"}, {"bike_id": "fac753a50b7a876bde9c30b1f5821e56", "is_reserved": 0, "fusion_lon": 0.0, "lat": 38.9367985, "is_disabled": 0, "name": "fac753a50b7a876bde9c30b1f5821e56", "fusion_lat": 0.0, "rental_uris": {"ios": "https://dc.lft.to/lastmile_qr_scan", "android": "https://dc.lft.to/lastmile_qr_scan"}, "lon": -77.03628933333333, "type": "electric_scooter"}, {"bike_id": "eadf2239ee9f08b60c8d6175bae84896", "is_reserved": 0, "fusion_lon": 0.0, "lat": 38.898137, "is_disabled": 0, "name": "eadf2239ee9f08b60c8d6175bae84896", "fusion_lat": 0.0, "rental_uris": {"ios": "https://dc.lft.to/lastmile_qr_scan", "android": "https://dc.lft.to/lastmile_qr_scan"}, "lon": -77.00608866666667, "type": "electric_bike"}, {"bike_id": "c1e0a476e16dc0a8b598974db58c8583", "is_reserved": 0, "fusion_lon": 0.0, "lat": 38.9417415, "is_disabled": 0, "name": "c1e0a476e16dc0a8b598974db58c8583", "fusion_lat": 0.0, "rental_uris": {"ios": "https://dc.lft.to/lastmile_qr_scan", "android": "https://dc.lft.to/lastmile_qr_scan"}, "lon": -77.03283783333333, "type": "electric_scooter"}, {"bike_id": "cb8d79d9d8d263edf26b383fbfb9e3ea", "is_reserved": 0, "fusion_lon": 0.0, "lat": 38.909606333333336, "is_disabled": 0, "name": "cb8d79d9d8d263edf26b383fbfb9e3ea", "fusion_lat": 0.0, "rental_uris": {"ios": "https://dc.lft.to/lastmile_qr_scan", "android": "https://dc.lft.to/lastmile_qr_scan"}, "lon": -77.03775666666667, "type": "electric_scooter"}, {"bike_id": "1014d3eebbdb1e257ff816a76cb729c7", "is_reserved": 0, "fusion_lon": 0.0, "lat": 38.896225333333334, "is_disabled": 0, "name": "1014d3eebbdb1e257ff816a76cb729c7", "fusion_lat": 0.0, "rental_uris": {"ios": "https://dc.lft.to/lastmile_qr_scan", "android": "https://dc.lft.to/lastmile_qr_scan"}, "lon": -77.0450685, "type": "electric_scooter"}, {"bike_id": "d630acbd6baf6af5b0e8e7557611e0e7", "is_reserved": 0, "fusion_lon": 0.0, "lat": 38.94018966666667, "is_disabled": 0, "name": "d630acbd6baf6af5b0e8e7557611e0e7", "fusion_lat": 0.0, "rental_uris": {"ios": "https://dc.lft.to/lastmile_qr_scan", "android": "https://dc.lft.to/lastmile_qr_scan"}, "lon": -77.071768, "type": "electric_scooter"}, {"bike_id": "55752e8b1c4c895b8beef910e263d02f", "is_reserved": 0, "fusion_lon": 0.0, "lat": 38.85062216666667, "is_disabled": 0, "name": "55752e8b1c4c895b8beef910e263d02f", "fusion_lat": 0.0, "rental_uris": {"ios": "https://dc.lft.to/lastmile_qr_scan", "android": "https://dc.lft.to/lastmile_qr_scan"}, "lon": -76.97331533333333, "type": "electric_bike"}, {"bike_id": "3576d96e65d4e55660c83c6f1ffe32d0", "is_reserved": 0, "fusion_lon": 0.0, "lat": 38.89828583333333, "is_disabled": 0, "name": "3576d96e65d4e55660c83c6f1ffe32d0", "fusion_lat": 0.0, "rental_uris": {"ios": "https://dc.lft.to/lastmile_qr_scan", "android": "https://dc.lft.to/lastmile_qr_scan"}, "lon": -77.03349416666667, "type": "electric_scooter"}, {"bike_id": "3c8b53ef29faea36140a00de7ae4adcd", "is_reserved": 0, "fusion_lon": 0.0, "lat": 38.90220216666667, "is_disabled": 0, "name": "3c8b53ef29faea36140a00de7ae4adcd", "fusion_lat": 0.0, "rental_uris": {"ios": "https://dc.lft.to/lastmile_qr_scan", "android": "https://dc.lft.to/lastmile_qr_scan"}, "lon": -77.04654333333333, "type": "electric_scooter"}, {"bike_id": "3e090f6ffe5c4e35ab4823cab020b114", "is_reserved": 0, "fusion_lon": 0.0, "lat": 38.904189833333334, "is_disabled": 0, "name": "3e090f6ffe5c4e35ab4823cab020b114", "fusion_lat": 0.0, "rental_uris": {"ios": "https://dc.lft.to/lastmile_qr_scan", "android": "https://dc.lft.to/lastmile_qr_scan"}, "lon": -77.04528666666667, "type": "electric_scooter"}, {"bike_id": "910209f4b997791551abeb63514df81e", "is_reserved": 0, "fusion_lon": 0.0, "lat": 38.92070666666667, "is_disabled": 0, "name": "910209f4b997791551abeb63514df81e", "fusion_lat": 0.0, "rental_uris": {"ios": "https://dc.lft.to/lastmile_qr_scan", "android": "https://dc.lft.to/lastmile_qr_scan"}, "lon": -77.0438945, "type": "electric_scooter"}, {"bike_id": "f72eb8b6e31151dacf1a3bd1e1285ec3", "is_reserved": 0, "fusion_lon": 0.0, "lat": 38.951117333333336, "is_disabled": 0, "name": "f72eb8b6e31151dacf1a3bd1e1285ec3", "fusion_lat": 0.0, "rental_uris": {"ios": "https://dc.lft.to/lastmile_qr_scan", "android": "https://dc.lft.to/lastmile_qr_scan"}, "lon": -77.01579466666666, "type": "electric_scooter"}, {"bike_id": "263e605a88bad878abebf4a17629dc36", "is_reserved": 0, "fusion_lon": 0.0, "lat": 38.88500283333333, "is_disabled": 0, "name": "263e605a88bad878abebf4a17629dc36", "fusion_lat": 0.0, "rental_uris": {"ios": "https://dc.lft.to/lastmile_qr_scan", "android": "https://dc.lft.to/lastmile_qr_scan"}, "lon": -77.00890533333333, "type": "electric_scooter"}, {"bike_id": "6d36ce9eaee807d9e0bb6f7ec1a2d581", "is_reserved": 0, "fusion_lon": 0.0, "lat": 38.9221285, "is_disabled": 0, "name": "6d36ce9eaee807d9e0bb6f7ec1a2d581", "fusion_lat": 0.0, "rental_uris": {"ios": "https://dc.lft.to/lastmile_qr_scan", "android": "https://dc.lft.to/lastmile_qr_scan"}, "lon": -77.04254783333333, "type": "electric_scooter"}, {"bike_id": "8148bf8b897880efcd409cf2129c3b83", "is_reserved": 0, "fusion_lon": 0.0, "lat": 38.8922395, "is_disabled": 0, "name": "8148bf8b897880efcd409cf2129c3b83", "fusion_lat": 0.0, "rental_uris": {"ios": "https://dc.lft.to/lastmile_qr_scan", "android": "https://dc.lft.to/lastmile_qr_scan"}, "lon": -77.03097416666667, "type": "electric_scooter"}, {"bike_id": "e201d3a0f7c35e03fad9cfebfe03ef1b", "is_reserved": 0, "fusion_lon": 0.0, "lat": 38.90376283333333, "is_disabled": 0, "name": "e201d3a0f7c35e03fad9cfebfe03ef1b", "fusion_lat": 0.0, "rental_uris": {"ios": "https://dc.lft.to/lastmile_qr_scan", "android": "https://dc.lft.to/lastmile_qr_scan"}, "lon": -77.036588, "type": "electric_scooter"}, {"bike_id": "087a328efc21477f675791dd1262f9c6", "is_reserved": 0, "fusion_lon": 0.0, "lat": 38.89223066666667, "is_disabled": 0, "name": "087a328efc21477f675791dd1262f9c6", "fusion_lat": 0.0, "rental_uris": {"ios": "https://dc.lft.to/lastmile_qr_scan", "android": "https://dc.lft.to/lastmile_qr_scan"}, "lon": -77.031663, "type": "electric_scooter"}, {"bike_id": "6700d4b60d28e331f4ff76c67707a359", "is_reserved": 0, "fusion_lon": 0.0, "lat": 38.905234666666665, "is_disabled": 0, "name": "6700d4b60d28e331f4ff76c67707a359", "fusion_lat": 0.0, "rental_uris": {"ios": "https://dc.lft.to/lastmile_qr_scan", "android": "https://dc.lft.to/lastmile_qr_scan"}, "lon": -77.06462416666666, "type": "electric_scooter"}, {"bike_id": "f27404ca7acd52cfdc3bc66f2f01be9b", "is_reserved": 0, "fusion_lon": 0.0, "lat": 38.913857666666665, "is_disabled": 0, "name": "f27404ca7acd52cfdc3bc66f2f01be9b", "fusion_lat": 0.0, "rental_uris": {"ios": "https://dc.lft.to/lastmile_qr_scan", "android": "https://dc.lft.to/lastmile_qr_scan"}, "lon": -77.017009, "type": "electric_scooter"}, {"bike_id": "8489040748d5638bcdfa7013a5636fe4", "is_reserved": 0, "fusion_lon": 0.0, "lat": 38.884908, "is_disabled": 0, "name": "8489040748d5638bcdfa7013a5636fe4", "fusion_lat": 0.0, "rental_uris": {"ios": "https://dc.lft.to/lastmile_qr_scan", "android": "https://dc.lft.to/lastmile_qr_scan"}, "lon": -77.003464, "type": "electric_scooter"}, {"bike_id": "6e2454028c1a8a56a48cc6dfba9abf5e", "is_reserved": 0, "fusion_lon": 0.0, "lat": 38.898368833333336, "is_disabled": 0, "name": "6e2454028c1a8a56a48cc6dfba9abf5e", "fusion_lat": 0.0, "rental_uris": {"ios": "https://dc.lft.to/lastmile_qr_scan", "android": "https://dc.lft.to/lastmile_qr_scan"}, "lon": -77.00750866666667, "type": "electric_scooter"}, {"bike_id": "b906fcac41e373f0099beca9d9a30006", "is_reserved": 0, "fusion_lon": 0.0, "lat": 38.9217265, "is_disabled": 0, "name": "b906fcac41e373f0099beca9d9a30006", "fusion_lat": 0.0, "rental_uris": {"ios": "https://dc.lft.to/lastmile_qr_scan", "android": "https://dc.lft.to/lastmile_qr_scan"}, "lon": -77.04013066666667, "type": "electric_scooter"}, {"bike_id": "5f32d3281950a38e2ce380715eefa1ad", "is_reserved": 0, "fusion_lon": 0.0, "lat": 38.93713316666667, "is_disabled": 0, "name": "5f32d3281950a38e2ce380715eefa1ad", "fusion_lat": 0.0, "rental_uris": {"ios": "https://dc.lft.to/lastmile_qr_scan", "android": "https://dc.lft.to/lastmile_qr_scan"}, "lon": -77.02941283333334, "type": "electric_scooter"}, {"bike_id": "9529e1c081ad38a7e150ce3caef78afb", "is_reserved": 0, "fusion_lon": 0.0, "lat": 38.92851266666667, "is_disabled": 0, "name": "9529e1c081ad38a7e150ce3caef78afb", "fusion_lat": 0.0, "rental_uris": {"ios": "https://dc.lft.to/lastmile_qr_scan", "android": "https://dc.lft.to/lastmile_qr_scan"}, "lon": -77.0139285, "type": "electric_scooter"}, {"bike_id": "0cf917f9bd6bb8a09a0f6c562b05bb69", "is_reserved": 0, "fusion_lon": 0.0, "lat": 38.9046495, "is_disabled": 0, "name": "0cf917f9bd6bb8a09a0f6c562b05bb69", "fusion_lat": 0.0, "rental_uris": {"ios": "https://dc.lft.to/lastmile_qr_scan", "android": "https://dc.lft.to/lastmile_qr_scan"}, "lon": -77.0403565, "type": "electric_scooter"}, {"bike_id": "d2008813d5c09f2b2a29e7099a36e1b8", "is_reserved": 0, "fusion_lon": 0.0, "lat": 38.91920133333333, "is_disabled": 0, "name": "d2008813d5c09f2b2a29e7099a36e1b8", "fusion_lat": 0.0, "rental_uris": {"ios": "https://dc.lft.to/lastmile_qr_scan", "android": "https://dc.lft.to/lastmile_qr_scan"}, "lon": -77.0319545, "type": "electric_scooter"}, {"bike_id": "586c8155045d1f6b2fd391fbd35888db", "is_reserved": 0, "fusion_lon": 0.0, "lat": 38.9024675, "is_disabled": 0, "name": "586c8155045d1f6b2fd391fbd35888db", "fusion_lat": 0.0, "rental_uris": {"ios": "https://dc.lft.to/lastmile_qr_scan", "android": "https://dc.lft.to/lastmile_qr_scan"}, "lon": -77.007195, "type": "electric_scooter"}, {"bike_id": "8de7905d15c3b0b38d2c2a8267182768", "is_reserved": 0, "fusion_lon": 0.0, "lat": 38.95081533333333, "is_disabled": 0, "name": "8de7905d15c3b0b38d2c2a8267182768", "fusion_lat": 0.0, "rental_uris": {"ios": "https://dc.lft.to/lastmile_qr_scan", "android": "https://dc.lft.to/lastmile_qr_scan"}, "lon": -77.01238666666667, "type": "electric_bike"}, {"bike_id": "88a54eda29111b8a3f4859b6369a0b1d", "is_reserved": 0, "fusion_lon": 0.0, "lat": 38.8940165, "is_disabled": 0, "name": "88a54eda29111b8a3f4859b6369a0b1d", "fusion_lat": 0.0, "rental_uris": {"ios": "https://dc.lft.to/lastmile_qr_scan", "android": "https://dc.lft.to/lastmile_qr_scan"}, "lon": -77.02254266666667, "type": "electric_scooter"}, {"bike_id": "0c876782edc78f217d27537191c91aa3", "is_reserved": 0, "fusion_lon": 0.0, "lat": 38.939704166666665, "is_disabled": 0, "name": "0c876782edc78f217d27537191c91aa3", "fusion_lat": 0.0, "rental_uris": {"ios": "https://dc.lft.to/lastmile_qr_scan", "android": "https://dc.lft.to/lastmile_qr_scan"}, "lon": -77.0326075, "type": "electric_scooter"}, {"bike_id": "bec3814c521dd946905d454a9b89cc0e", "is_reserved": 0, "fusion_lon": 0.0, "lat": 38.924875666666665, "is_disabled": 0, "name": "bec3814c521dd946905d454a9b89cc0e", "fusion_lat": 0.0, "rental_uris": {"ios": "https://dc.lft.to/lastmile_qr_scan", "android": "https://dc.lft.to/lastmile_qr_scan"}, "lon": -77.02657516666666, "type": "electric_scooter"}, {"bike_id": "a7d651a0056d443d11d0aee88299b6ac", "is_reserved": 0, "fusion_lon": 0.0, "lat": 38.88515233333333, "is_disabled": 0, "name": "a7d651a0056d443d11d0aee88299b6ac", "fusion_lat": 0.0, "rental_uris": {"ios": "https://dc.lft.to/lastmile_qr_scan", "android": "https://dc.lft.to/lastmile_qr_scan"}, "lon": -77.005722, "type": "electric_scooter"}, {"bike_id": "4b83ec727db382ed83d30f8066b07989", "is_reserved": 0, "fusion_lon": 0.0, "lat": 38.889975666666665, "is_disabled": 0, "name": "4b83ec727db382ed83d30f8066b07989", "fusion_lat": 0.0, "rental_uris": {"ios": "https://dc.lft.to/lastmile_qr_scan", "android": "https://dc.lft.to/lastmile_qr_scan"}, "lon": -76.93839366666667, "type": "electric_scooter"}, {"bike_id": "6f2df8c75d651bdfe2e0d2610f31f3c0", "is_reserved": 0, "fusion_lon": 0.0, "lat": 38.93430883333333, "is_disabled": 0, "name": "6f2df8c75d651bdfe2e0d2610f31f3c0", "fusion_lat": 0.0, "rental_uris": {"ios": "https://dc.lft.to/lastmile_qr_scan", "android": "https://dc.lft.to/lastmile_qr_scan"}, "lon": -77.0399775, "type": "electric_scooter"}, {"bike_id": "d1bcbefe9bcadea4bf8bd30bac28a21a", "is_reserved": 0, "fusion_lon": 0.0, "lat": 38.837271, "is_disabled": 0, "name": "d1bcbefe9bcadea4bf8bd30bac28a21a", "fusion_lat": 0.0, "rental_uris": {"ios": "https://dc.lft.to/lastmile_qr_scan", "android": "https://dc.lft.to/lastmile_qr_scan"}, "lon": -76.9975945, "type": "electric_bike"}, {"bike_id": "9e0c816a4236823a5c280d600b98d221", "is_reserved": 0, "fusion_lon": 0.0, "lat": 38.855148666666665, "is_disabled": 0, "name": "9e0c816a4236823a5c280d600b98d221", "fusion_lat": 0.0, "rental_uris": {"ios": "https://dc.lft.to/lastmile_qr_scan", "android": "https://dc.lft.to/lastmile_qr_scan"}, "lon": -76.984308, "type": "electric_bike"}, {"bike_id": "63da9c2b00ca9fb9ecb9a2731725a7e2", "is_reserved": 0, "fusion_lon": 0.0, "lat": 38.95881833333333, "is_disabled": 0, "name": "63da9c2b00ca9fb9ecb9a2731725a7e2", "fusion_lat": 0.0, "rental_uris": {"ios": "https://dc.lft.to/lastmile_qr_scan", "android": "https://dc.lft.to/lastmile_qr_scan"}, "lon": -76.9248555, "type": "electric_bike"}, {"bike_id": "8c6335fa2a1204ef7cf470ad2d89f868", "is_reserved": 0, "fusion_lon": 0.0, "lat": 38.92892833333333, "is_disabled": 0, "name": "8c6335fa2a1204ef7cf470ad2d89f868", "fusion_lat": 0.0, "rental_uris": {"ios": "https://dc.lft.to/lastmile_qr_scan", "android": "https://dc.lft.to/lastmile_qr_scan"}, "lon": -77.03324383333333, "type": "electric_scooter"}, {"bike_id": "cf74357c4c90597fbdf7e6f9d100c2b4", "is_reserved": 0, "fusion_lon": 0.0, "lat": 38.932029, "is_disabled": 0, "name": "cf74357c4c90597fbdf7e6f9d100c2b4", "fusion_lat": 0.0, "rental_uris": {"ios": "https://dc.lft.to/lastmile_qr_scan", "android": "https://dc.lft.to/lastmile_qr_scan"}, "lon": -77.03871033333333, "type": "electric_scooter"}, {"bike_id": "a956c1b452a82246d51bae485a844df4", "is_reserved": 0, "fusion_lon": 0.0, "lat": 38.90852783333333, "is_disabled": 0, "name": "a956c1b452a82246d51bae485a844df4", "fusion_lat": 0.0, "rental_uris": {"ios": "https://dc.lft.to/lastmile_qr_scan", "android": "https://dc.lft.to/lastmile_qr_scan"}, "lon": -77.044829, "type": "electric_scooter"}, {"bike_id": "7ffb28cb851110757f2630c6b1c03d65", "is_reserved": 0, "fusion_lon": 0.0, "lat": 38.90500766666667, "is_disabled": 0, "name": "7ffb28cb851110757f2630c6b1c03d65", "fusion_lat": 0.0, "rental_uris": {"ios": "https://dc.lft.to/lastmile_qr_scan", "android": "https://dc.lft.to/lastmile_qr_scan"}, "lon": -76.9792625, "type": "electric_scooter"}, {"bike_id": "2ed8e69c70f0f84d7817cfcd33d173e0", "is_reserved": 0, "fusion_lon": 0.0, "lat": 38.91035766666667, "is_disabled": 0, "name": "2ed8e69c70f0f84d7817cfcd33d173e0", "fusion_lat": 0.0, "rental_uris": {"ios": "https://dc.lft.to/lastmile_qr_scan", "android": "https://dc.lft.to/lastmile_qr_scan"}, "lon": -77.043936, "type": "electric_scooter"}, {"bike_id": "041a793f73f384c1e572b4b84335d3a0", "is_reserved": 0, "fusion_lon": 0.0, "lat": 38.89481966666666, "is_disabled": 0, "name": "041a793f73f384c1e572b4b84335d3a0", "fusion_lat": 0.0, "rental_uris": {"ios": "https://dc.lft.to/lastmile_qr_scan", "android": "https://dc.lft.to/lastmile_qr_scan"}, "lon": -76.94871866666666, "type": "electric_scooter"}, {"bike_id": "f269745fc1c48a84a8e44f5958bbc74c", "is_reserved": 0, "fusion_lon": 0.0, "lat": 38.87551833333333, "is_disabled": 0, "name": "f269745fc1c48a84a8e44f5958bbc74c", "fusion_lat": 0.0, "rental_uris": {"ios": "https://dc.lft.to/lastmile_qr_scan", "android": "https://dc.lft.to/lastmile_qr_scan"}, "lon": -76.96491933333333, "type": "electric_scooter"}, {"bike_id": "84765aa8332a6133a74fa30374a8c983", "is_reserved": 0, "fusion_lon": 0.0, "lat": 38.89218733333333, "is_disabled": 0, "name": "84765aa8332a6133a74fa30374a8c983", "fusion_lat": 0.0, "rental_uris": {"ios": "https://dc.lft.to/lastmile_qr_scan", "android": "https://dc.lft.to/lastmile_qr_scan"}, "lon": -77.026258, "type": "electric_scooter"}, {"bike_id": "9ca0d380c9ef964a91f4c7dce1e8ba8f", "is_reserved": 0, "fusion_lon": 0.0, "lat": 38.90670866666667, "is_disabled": 0, "name": "9ca0d380c9ef964a91f4c7dce1e8ba8f", "fusion_lat": 0.0, "rental_uris": {"ios": "https://dc.lft.to/lastmile_qr_scan", "android": "https://dc.lft.to/lastmile_qr_scan"}, "lon": -76.98786916666667, "type": "electric_scooter"}, {"bike_id": "92d42c9e94eafb9dc669eec6eae4dcf1", "is_reserved": 0, "fusion_lon": 0.0, "lat": 38.897248, "is_disabled": 0, "name": "92d42c9e94eafb9dc669eec6eae4dcf1", "fusion_lat": 0.0, "rental_uris": {"ios": "https://dc.lft.to/lastmile_qr_scan", "android": "https://dc.lft.to/lastmile_qr_scan"}, "lon": -77.00340433333334, "type": "electric_bike"}, {"bike_id": "06dc3710497700f95322f89ddae0cbb5", "is_reserved": 0, "fusion_lon": 0.0, "lat": 38.862012666666665, "is_disabled": 0, "name": "06dc3710497700f95322f89ddae0cbb5", "fusion_lat": 0.0, "rental_uris": {"ios": "https://dc.lft.to/lastmile_qr_scan", "android": "https://dc.lft.to/lastmile_qr_scan"}, "lon": -76.99465516666666, "type": "electric_scooter"}, {"bike_id": "8dcf6cb50f68f53b6c73e8eadc03bd41", "is_reserved": 0, "fusion_lon": 0.0, "lat": 38.902817666666664, "is_disabled": 0, "name": "8dcf6cb50f68f53b6c73e8eadc03bd41", "fusion_lat": 0.0, "rental_uris": {"ios": "https://dc.lft.to/lastmile_qr_scan", "android": "https://dc.lft.to/lastmile_qr_scan"}, "lon": -77.03271183333334, "type": "electric_scooter"}, {"bike_id": "5ac15679ace479219d00801e38c46dca", "is_reserved": 0, "fusion_lon": 0.0, "lat": 38.89527233333333, "is_disabled": 0, "name": "5ac15679ace479219d00801e38c46dca", "fusion_lat": 0.0, "rental_uris": {"ios": "https://dc.lft.to/lastmile_qr_scan", "android": "https://dc.lft.to/lastmile_qr_scan"}, "lon": -77.048443, "type": "electric_scooter"}, {"bike_id": "b64658331df16a47b5006d9f43ffaae8", "is_reserved": 0, "fusion_lon": 0.0, "lat": 38.9000695, "is_disabled": 0, "name": "b64658331df16a47b5006d9f43ffaae8", "fusion_lat": 0.0, "rental_uris": {"ios": "https://dc.lft.to/lastmile_qr_scan", "android": "https://dc.lft.to/lastmile_qr_scan"}, "lon": -77.05236816666667, "type": "electric_scooter"}, {"bike_id": "b9cbc5527e48973026a0c4dc33ba5485", "is_reserved": 0, "fusion_lon": 0.0, "lat": 38.892240666666666, "is_disabled": 0, "name": "b9cbc5527e48973026a0c4dc33ba5485", "fusion_lat": 0.0, "rental_uris": {"ios": "https://dc.lft.to/lastmile_qr_scan", "android": "https://dc.lft.to/lastmile_qr_scan"}, "lon": -77.0436815, "type": "electric_scooter"}, {"bike_id": "00c1fb2e899a5a8c74db9cd8f21ee32b", "is_reserved": 0, "fusion_lon": 0.0, "lat": 38.910387666666665, "is_disabled": 0, "name": "00c1fb2e899a5a8c74db9cd8f21ee32b", "fusion_lat": 0.0, "rental_uris": {"ios": "https://dc.lft.to/lastmile_qr_scan", "android": "https://dc.lft.to/lastmile_qr_scan"}, "lon": -77.04837716666667, "type": "electric_scooter"}, {"bike_id": "afef7ce7364b9cbfac00f50f5d2698d6", "is_reserved": 0, "fusion_lon": 0.0, "lat": 38.90415483333334, "is_disabled": 0, "name": "afef7ce7364b9cbfac00f50f5d2698d6", "fusion_lat": 0.0, "rental_uris": {"ios": "https://dc.lft.to/lastmile_qr_scan", "android": "https://dc.lft.to/lastmile_qr_scan"}, "lon": -77.04528216666667, "type": "electric_scooter"}, {"bike_id": "437a448487648d0146353feaa9faf77b", "is_reserved": 0, "fusion_lon": 0.0, "lat": 38.92176416666667, "is_disabled": 0, "name": "437a448487648d0146353feaa9faf77b", "fusion_lat": 0.0, "rental_uris": {"ios": "https://dc.lft.to/lastmile_qr_scan", "android": "https://dc.lft.to/lastmile_qr_scan"}, "lon": -77.02537016666666, "type": "electric_scooter"}, {"bike_id": "5e599e31cb2e6778860716ecee89bf2f", "is_reserved": 0, "fusion_lon": 0.0, "lat": 38.89225616666667, "is_disabled": 0, "name": "5e599e31cb2e6778860716ecee89bf2f", "fusion_lat": 0.0, "rental_uris": {"ios": "https://dc.lft.to/lastmile_qr_scan", "android": "https://dc.lft.to/lastmile_qr_scan"}, "lon": -77.0257595, "type": "electric_scooter"}, {"bike_id": "8258479c09af48b328019d4dfdf6a44e", "is_reserved": 0, "fusion_lon": 0.0, "lat": 38.90794066666667, "is_disabled": 0, "name": "8258479c09af48b328019d4dfdf6a44e", "fusion_lat": 0.0, "rental_uris": {"ios": "https://dc.lft.to/lastmile_qr_scan", "android": "https://dc.lft.to/lastmile_qr_scan"}, "lon": -77.04258883333334, "type": "electric_scooter"}, {"bike_id": "2ef851041be90f54f131f2d3bb8ac53a", "is_reserved": 0, "fusion_lon": 0.0, "lat": 38.913297, "is_disabled": 0, "name": "2ef851041be90f54f131f2d3bb8ac53a", "fusion_lat": 0.0, "rental_uris": {"ios": "https://dc.lft.to/lastmile_qr_scan", "android": "https://dc.lft.to/lastmile_qr_scan"}, "lon": -77.0326145, "type": "electric_scooter"}, {"bike_id": "7f71dddc59c660efd3bf360bce5232a4", "is_reserved": 0, "fusion_lon": 0.0, "lat": 38.91685366666667, "is_disabled": 0, "name": "7f71dddc59c660efd3bf360bce5232a4", "fusion_lat": 0.0, "rental_uris": {"ios": "https://dc.lft.to/lastmile_qr_scan", "android": "https://dc.lft.to/lastmile_qr_scan"}, "lon": -77.03689466666667, "type": "electric_scooter"}, {"bike_id": "4ce2f9f9b976a8b76b586b255aa6c045", "is_reserved": 0, "fusion_lon": 0.0, "lat": 38.936969166666664, "is_disabled": 0, "name": "4ce2f9f9b976a8b76b586b255aa6c045", "fusion_lat": 0.0, "rental_uris": {"ios": "https://dc.lft.to/lastmile_qr_scan", "android": "https://dc.lft.to/lastmile_qr_scan"}, "lon": -77.05946166666666, "type": "electric_scooter"}, {"bike_id": "74b867389cbb828cd2e6b7fc0d385a98", "is_reserved": 0, "fusion_lon": 0.0, "lat": 38.939841, "is_disabled": 0, "name": "74b867389cbb828cd2e6b7fc0d385a98", "fusion_lat": 0.0, "rental_uris": {"ios": "https://dc.lft.to/lastmile_qr_scan", "android": "https://dc.lft.to/lastmile_qr_scan"}, "lon": -77.02892766666666, "type": "electric_scooter"}, {"bike_id": "0ef40a01940e31d24eea428eafd1a483", "is_reserved": 0, "fusion_lon": 0.0, "lat": 38.877099333333334, "is_disabled": 0, "name": "0ef40a01940e31d24eea428eafd1a483", "fusion_lat": 0.0, "rental_uris": {"ios": "https://dc.lft.to/lastmile_qr_scan", "android": "https://dc.lft.to/lastmile_qr_scan"}, "lon": -77.01735133333334, "type": "electric_scooter"}, {"bike_id": "6233e492fd1c004f55816531fc2c622f", "is_reserved": 0, "fusion_lon": 0.0, "lat": 38.9191765, "is_disabled": 0, "name": "6233e492fd1c004f55816531fc2c622f", "fusion_lat": 0.0, "rental_uris": {"ios": "https://dc.lft.to/lastmile_qr_scan", "android": "https://dc.lft.to/lastmile_qr_scan"}, "lon": -77.02471783333333, "type": "electric_scooter"}, {"bike_id": "fff3ec42ab12f02049c857f5d252b515", "is_reserved": 0, "fusion_lon": 0.0, "lat": 38.859579833333335, "is_disabled": 0, "name": "fff3ec42ab12f02049c857f5d252b515", "fusion_lat": 0.0, "rental_uris": {"ios": "https://dc.lft.to/lastmile_qr_scan", "android": "https://dc.lft.to/lastmile_qr_scan"}, "lon": -76.9909895, "type": "electric_scooter"}, {"bike_id": "8faed051ac6699f36226c335e4c2c1a8", "is_reserved": 0, "fusion_lon": 0.0, "lat": 38.896117, "is_disabled": 0, "name": "8faed051ac6699f36226c335e4c2c1a8", "fusion_lat": 0.0, "rental_uris": {"ios": "https://dc.lft.to/lastmile_qr_scan", "android": "https://dc.lft.to/lastmile_qr_scan"}, "lon": -77.04789383333333, "type": "electric_scooter"}, {"bike_id": "7c81c5c8072f21f2de8baaf8c6e1c472", "is_reserved": 0, "fusion_lon": 0.0, "lat": 38.9367865, "is_disabled": 0, "name": "7c81c5c8072f21f2de8baaf8c6e1c472", "fusion_lat": 0.0, "rental_uris": {"ios": "https://dc.lft.to/lastmile_qr_scan", "android": "https://dc.lft.to/lastmile_qr_scan"}, "lon": -77.036284, "type": "electric_scooter"}, {"bike_id": "3c5f55ecc7c324f5dbab1a8651456977", "is_reserved": 0, "fusion_lon": 0.0, "lat": 38.90136866666667, "is_disabled": 0, "name": "3c5f55ecc7c324f5dbab1a8651456977", "fusion_lat": 0.0, "rental_uris": {"ios": "https://dc.lft.to/lastmile_qr_scan", "android": "https://dc.lft.to/lastmile_qr_scan"}, "lon": -77.0446945, "type": "electric_scooter"}, {"bike_id": "51428a611e9770e721654e4f8322f3e9", "is_reserved": 0, "fusion_lon": 0.0, "lat": 38.903104166666665, "is_disabled": 0, "name": "51428a611e9770e721654e4f8322f3e9", "fusion_lat": 0.0, "rental_uris": {"ios": "https://dc.lft.to/lastmile_qr_scan", "android": "https://dc.lft.to/lastmile_qr_scan"}, "lon": -77.04323283333333, "type": "electric_scooter"}, {"bike_id": "2bcbe174caeed34bbc893321ea6e5495", "is_reserved": 0, "fusion_lon": 0.0, "lat": 38.9237485, "is_disabled": 0, "name": "2bcbe174caeed34bbc893321ea6e5495", "fusion_lat": 0.0, "rental_uris": {"ios": "https://dc.lft.to/lastmile_qr_scan", "android": "https://dc.lft.to/lastmile_qr_scan"}, "lon": -77.035403, "type": "electric_scooter"}, {"bike_id": "7281fbd62aec39e544e19c6e6518d5a4", "is_reserved": 0, "fusion_lon": 0.0, "lat": 38.920024166666664, "is_disabled": 0, "name": "7281fbd62aec39e544e19c6e6518d5a4", "fusion_lat": 0.0, "rental_uris": {"ios": "https://dc.lft.to/lastmile_qr_scan", "android": "https://dc.lft.to/lastmile_qr_scan"}, "lon": -77.03230716666667, "type": "electric_scooter"}, {"bike_id": "aafed8926eadeff1406d35e7f5f990b0", "is_reserved": 0, "fusion_lon": 0.0, "lat": 38.928499333333335, "is_disabled": 0, "name": "aafed8926eadeff1406d35e7f5f990b0", "fusion_lat": 0.0, "rental_uris": {"ios": "https://dc.lft.to/lastmile_qr_scan", "android": "https://dc.lft.to/lastmile_qr_scan"}, "lon": -77.054401, "type": "electric_scooter"}, {"bike_id": "55b5e2d36ccf1796de50a4689f91f567", "is_reserved": 0, "fusion_lon": 0.0, "lat": 38.89564166666667, "is_disabled": 0, "name": "55b5e2d36ccf1796de50a4689f91f567", "fusion_lat": 0.0, "rental_uris": {"ios": "https://dc.lft.to/lastmile_qr_scan", "android": "https://dc.lft.to/lastmile_qr_scan"}, "lon": -77.04674316666667, "type": "electric_scooter"}, {"bike_id": "85890a17531aba4c02d656cac07b189a", "is_reserved": 0, "fusion_lon": 0.0, "lat": 38.904663166666666, "is_disabled": 0, "name": "85890a17531aba4c02d656cac07b189a", "fusion_lat": 0.0, "rental_uris": {"ios": "https://dc.lft.to/lastmile_qr_scan", "android": "https://dc.lft.to/lastmile_qr_scan"}, "lon": -77.05331733333334, "type": "electric_scooter"}, {"bike_id": "b85e0d4d60f742d1b031ed393f6acde2", "is_reserved": 0, "fusion_lon": 0.0, "lat": 38.861693833333334, "is_disabled": 0, "name": "b85e0d4d60f742d1b031ed393f6acde2", "fusion_lat": 0.0, "rental_uris": {"ios": "https://dc.lft.to/lastmile_qr_scan", "android": "https://dc.lft.to/lastmile_qr_scan"}, "lon": -76.95067466666667, "type": "electric_bike"}, {"bike_id": "ca193c41beb38607435499e74b24fc94", "is_reserved": 0, "fusion_lon": 0.0, "lat": 38.9233925, "is_disabled": 0, "name": "ca193c41beb38607435499e74b24fc94", "fusion_lat": 0.0, "rental_uris": {"ios": "https://dc.lft.to/lastmile_qr_scan", "android": "https://dc.lft.to/lastmile_qr_scan"}, "lon": -77.04142483333334, "type": "electric_scooter"}, {"bike_id": "2a8a8c0c183c3342dee9407bdbe2b281", "is_reserved": 0, "fusion_lon": 0.0, "lat": 38.9086555, "is_disabled": 0, "name": "2a8a8c0c183c3342dee9407bdbe2b281", "fusion_lat": 0.0, "rental_uris": {"ios": "https://dc.lft.to/lastmile_qr_scan", "android": "https://dc.lft.to/lastmile_qr_scan"}, "lon": -77.00383283333333, "type": "electric_scooter"}, {"bike_id": "e1f9a41d79511941ac9fdefcd2bf7f3a", "is_reserved": 0, "fusion_lon": 0.0, "lat": 38.864165, "is_disabled": 0, "name": "e1f9a41d79511941ac9fdefcd2bf7f3a", "fusion_lat": 0.0, "rental_uris": {"ios": "https://dc.lft.to/lastmile_qr_scan", "android": "https://dc.lft.to/lastmile_qr_scan"}, "lon": -76.98050466666666, "type": "electric_scooter"}, {"bike_id": "e94c2019be03562541ceb48f078fbfa0", "is_reserved": 0, "fusion_lon": 0.0, "lat": 38.889971833333334, "is_disabled": 0, "name": "e94c2019be03562541ceb48f078fbfa0", "fusion_lat": 0.0, "rental_uris": {"ios": "https://dc.lft.to/lastmile_qr_scan", "android": "https://dc.lft.to/lastmile_qr_scan"}, "lon": -76.94705133333333, "type": "electric_scooter"}, {"bike_id": "685ab73c380692d6ab25b0039b940842", "is_reserved": 0, "fusion_lon": 0.0, "lat": 38.91563083333333, "is_disabled": 0, "name": "685ab73c380692d6ab25b0039b940842", "fusion_lat": 0.0, "rental_uris": {"ios": "https://dc.lft.to/lastmile_qr_scan", "android": "https://dc.lft.to/lastmile_qr_scan"}, "lon": -77.04696066666666, "type": "electric_scooter"}, {"bike_id": "3178fb48b74b90825203239c164653e2", "is_reserved": 0, "fusion_lon": 0.0, "lat": 38.83238466666667, "is_disabled": 0, "name": "3178fb48b74b90825203239c164653e2", "fusion_lat": 0.0, "rental_uris": {"ios": "https://dc.lft.to/lastmile_qr_scan", "android": "https://dc.lft.to/lastmile_qr_scan"}, "lon": -76.946214, "type": "electric_bike"}, {"bike_id": "1809d54b3b4d13617c150a9535c929d6", "is_reserved": 0, "fusion_lon": 0.0, "lat": 38.86242083333333, "is_disabled": 0, "name": "1809d54b3b4d13617c150a9535c929d6", "fusion_lat": 0.0, "rental_uris": {"ios": "https://dc.lft.to/lastmile_qr_scan", "android": "https://dc.lft.to/lastmile_qr_scan"}, "lon": -76.994939, "type": "electric_scooter"}, {"bike_id": "6d333949a7d2062e3308adfa471b7f83", "is_reserved": 0, "fusion_lon": 0.0, "lat": 38.978812833333336, "is_disabled": 0, "name": "6d333949a7d2062e3308adfa471b7f83", "fusion_lat": 0.0, "rental_uris": {"ios": "https://dc.lft.to/lastmile_qr_scan", "android": "https://dc.lft.to/lastmile_qr_scan"}, "lon": -77.025508, "type": "electric_scooter"}, {"bike_id": "2d560e222e42699fc0f199e1dce37ac3", "is_reserved": 0, "fusion_lon": 0.0, "lat": 38.924542833333334, "is_disabled": 0, "name": "2d560e222e42699fc0f199e1dce37ac3", "fusion_lat": 0.0, "rental_uris": {"ios": "https://dc.lft.to/lastmile_qr_scan", "android": "https://dc.lft.to/lastmile_qr_scan"}, "lon": -77.02033533333334, "type": "electric_scooter"}, {"bike_id": "87af81d6e9d6d8f4b6249b3077c9bc55", "is_reserved": 0, "fusion_lon": 0.0, "lat": 38.91694916666667, "is_disabled": 0, "name": "87af81d6e9d6d8f4b6249b3077c9bc55", "fusion_lat": 0.0, "rental_uris": {"ios": "https://dc.lft.to/lastmile_qr_scan", "android": "https://dc.lft.to/lastmile_qr_scan"}, "lon": -77.034831, "type": "electric_scooter"}, {"bike_id": "ae0c7962bd57b3964b3591b96db47d36", "is_reserved": 0, "fusion_lon": 0.0, "lat": 38.936509, "is_disabled": 0, "name": "ae0c7962bd57b3964b3591b96db47d36", "fusion_lat": 0.0, "rental_uris": {"ios": "https://dc.lft.to/lastmile_qr_scan", "android": "https://dc.lft.to/lastmile_qr_scan"}, "lon": -77.03696183333334, "type": "electric_scooter"}, {"bike_id": "3f28cb067489b871a58d56e35c77c5d2", "is_reserved": 0, "fusion_lon": 0.0, "lat": 38.910484833333335, "is_disabled": 0, "name": "3f28cb067489b871a58d56e35c77c5d2", "fusion_lat": 0.0, "rental_uris": {"ios": "https://dc.lft.to/lastmile_qr_scan", "android": "https://dc.lft.to/lastmile_qr_scan"}, "lon": -77.0150985, "type": "electric_scooter"}, {"bike_id": "b02fcd225ad0380cc4d1fdef95ee5fe2", "is_reserved": 0, "fusion_lon": 0.0, "lat": 38.90379716666666, "is_disabled": 0, "name": "b02fcd225ad0380cc4d1fdef95ee5fe2", "fusion_lat": 0.0, "rental_uris": {"ios": "https://dc.lft.to/lastmile_qr_scan", "android": "https://dc.lft.to/lastmile_qr_scan"}, "lon": -77.04347933333334, "type": "electric_scooter"}, {"bike_id": "928f48309df207cf8c1e9780084cdf38", "is_reserved": 0, "fusion_lon": 0.0, "lat": 38.907943, "is_disabled": 0, "name": "928f48309df207cf8c1e9780084cdf38", "fusion_lat": 0.0, "rental_uris": {"ios": "https://dc.lft.to/lastmile_qr_scan", "android": "https://dc.lft.to/lastmile_qr_scan"}, "lon": -77.04873416666666, "type": "electric_scooter"}, {"bike_id": "8c46f99f85ff152f3986d4841d6f4178", "is_reserved": 0, "fusion_lon": 0.0, "lat": 38.94511266666667, "is_disabled": 0, "name": "8c46f99f85ff152f3986d4841d6f4178", "fusion_lat": 0.0, "rental_uris": {"ios": "https://dc.lft.to/lastmile_qr_scan", "android": "https://dc.lft.to/lastmile_qr_scan"}, "lon": -77.033641, "type": "electric_scooter"}, {"bike_id": "35eebeddbee793dc28812a7ea5efc7c9", "is_reserved": 0, "fusion_lon": 0.0, "lat": 38.90961016666667, "is_disabled": 0, "name": "35eebeddbee793dc28812a7ea5efc7c9", "fusion_lat": 0.0, "rental_uris": {"ios": "https://dc.lft.to/lastmile_qr_scan", "android": "https://dc.lft.to/lastmile_qr_scan"}, "lon": -77.0424315, "type": "electric_scooter"}, {"bike_id": "9c9eb02ccfd1f12f307cbc1e43048599", "is_reserved": 0, "fusion_lon": 0.0, "lat": 38.89534, "is_disabled": 0, "name": "9c9eb02ccfd1f12f307cbc1e43048599", "fusion_lat": 0.0, "rental_uris": {"ios": "https://dc.lft.to/lastmile_qr_scan", "android": "https://dc.lft.to/lastmile_qr_scan"}, "lon": -77.03351716666667, "type": "electric_scooter"}, {"bike_id": "218a997069aa2774bc97772c53a812f1", "is_reserved": 0, "fusion_lon": 0.0, "lat": 38.844275833333334, "is_disabled": 0, "name": "218a997069aa2774bc97772c53a812f1", "fusion_lat": 0.0, "rental_uris": {"ios": "https://dc.lft.to/lastmile_qr_scan", "android": "https://dc.lft.to/lastmile_qr_scan"}, "lon": -76.99782616666667, "type": "electric_scooter"}, {"bike_id": "c438d9079b86b14ef71e3e301cd65756", "is_reserved": 0, "fusion_lon": 0.0, "lat": 38.90393233333333, "is_disabled": 0, "name": "c438d9079b86b14ef71e3e301cd65756", "fusion_lat": 0.0, "rental_uris": {"ios": "https://dc.lft.to/lastmile_qr_scan", "android": "https://dc.lft.to/lastmile_qr_scan"}, "lon": -77.030103, "type": "electric_scooter"}, {"bike_id": "363c5faf7d5f8570760a519c552a8004", "is_reserved": 0, "fusion_lon": 0.0, "lat": 38.90966, "is_disabled": 0, "name": "363c5faf7d5f8570760a519c552a8004", "fusion_lat": 0.0, "rental_uris": {"ios": "https://dc.lft.to/lastmile_qr_scan", "android": "https://dc.lft.to/lastmile_qr_scan"}, "lon": -77.03278966666667, "type": "electric_scooter"}, {"bike_id": "0ae58bf0cc2d6596a388a2af1868af6b", "is_reserved": 0, "fusion_lon": 0.0, "lat": 38.87217, "is_disabled": 0, "name": "0ae58bf0cc2d6596a388a2af1868af6b", "fusion_lat": 0.0, "rental_uris": {"ios": "https://dc.lft.to/lastmile_qr_scan", "android": "https://dc.lft.to/lastmile_qr_scan"}, "lon": -77.0056695, "type": "electric_scooter"},