{"data": {"bikes": [{"rental_uris": {"ios": "https://dc.lft.to/lastmile_qr_scan", "android": "https://dc.lft.to/lastmile_qr_scan"}, "type": "electric_scooter", "name": "6f545804d52ff9427a3fadf6a2b14529", "is_reserved": 0, "lon": -77.010065, "is_disabled": 0, "fusion_lat": 0.0, "lat": 38.912729666666664, "bike_id": "6f545804d52ff9427a3fadf6a2b14529", "fusion_lon": 0.0}, {"rental_uris": {"ios": "https://dc.lft.to/lastmile_qr_scan", "android": "https://dc.lft.to/lastmile_qr_scan"}, "type": "electric_scooter", "name": "65dc347b8e62cd2755cd65506ec09509", "is_reserved": 0, "lon": -77.03277566666667, "is_disabled": 0, "fusion_lat": 0.0, "lat": 38.92004466666667, "bike_id": "65dc347b8e62cd2755cd65506ec09509", "fusion_lon": 0.0}, {"rental_uris": {"ios": "https://dc.lft.to/lastmile_qr_scan", "android": "https://dc.lft.to/lastmile_qr_scan"}, "type": "electric_scooter", "name": "2827b08e2584017ce36b68eeb3d95f9d", "is_reserved": 0, "lon": -77.03839216666667, "is_disabled": 0, "fusion_lat": 0.0, "lat": 38.916707833333334, "bike_id": "2827b08e2584017ce36b68eeb3d95f9d", "fusion_lon": 0.0}, {"rental_uris": {"ios": "https://dc.lft.to/lastmile_qr_scan", "android": "https://dc.lft.to/lastmile_qr_scan"}, "type": "electric_scooter", "name": "e331e660bc8555dbaf3c3b25ca7a0da0", "is_reserved": 0, "lon": -77.0363535, "is_disabled": 0, "fusion_lat": 0.0, "lat": 38.92593983333333, "bike_id": "e331e660bc8555dbaf3c3b25ca7a0da0", "fusion_lon": 0.0}, {"rental_uris": {"ios": "https://dc.lft.to/lastmile_qr_scan", "android": "https://dc.lft.to/lastmile_qr_scan"}, "type": "electric_scooter", "name": "5ea664cf134b9fba81d4cfe7ba407e87", "is_reserved": 0, "lon": -77.07865016666666, "is_disabled": 0, "fusion_lat": 0.0, "lat": 38.924686666666666, "bike_id": "5ea664cf134b9fba81d4cfe7ba407e87", "fusion_lon": 0.0}, {"rental_uris": {"ios": "https://dc.lft.to/lastmile_qr_scan", "android": "https://dc.lft.to/lastmile_qr_scan"}, "type": "electric_scooter", "name": "51763319e77809d0d62566b1f3487b48", "is_reserved": 0, "lon": -77.056381, "is_disabled": 0, "fusion_lat": 0.0, "lat": 38.93599716666667, "bike_id": "51763319e77809d0d62566b1f3487b48", "fusion_lon": 0.0}, {"rental_uris": {"ios": "https://dc.lft.to/lastmile_qr_scan", "android": "https://dc.lft.to/lastmile_qr_scan"}, "type": "electric_scooter", "name": "c3e4ac80cdd8efa770376603d88e8166", "is_reserved": 0, "lon": -77.04692116666666, "is_disabled": 0, "fusion_lat": 0.0, "lat": 38.897472666666665, "bike_id": "c3e4ac80cdd8efa770376603d88e8166", "fusion_lon": 0.0}, {"rental_uris": {"ios": "https://dc.lft.to/lastmile_qr_scan", "android": "https://dc.lft.to/lastmile_qr_scan"}, "type": "electric_scooter", "name": "d98b94d9fcf063cc5d3c126f745a962b", "is_reserved": 0, "lon": -77.03959066666667, "is_disabled": 0, "fusion_lat": 0.0, "lat": 38.892495833333335, "bike_id": "d98b94d9fcf063cc5d3c126f745a962b", "fusion_lon": 0.0}, {"rental_uris": {"ios": "https://dc.lft.to/lastmile_qr_scan", "android": "https://dc.lft.to/lastmile_qr_scan"}, "type": "electric_bike", "name": "ad1919da6e1fa9b4010f712bc6ba8607", "is_reserved": 0, "lon": -76.980912, "is_disabled": 0, "fusion_lat": 0.0, "lat": 38.953584, "bike_id": "ad1919da6e1fa9b4010f712bc6ba8607", "fusion_lon": 0.0}, {"rental_uris": {"ios": "https://dc.lft.to/lastmile_qr_scan", "android": "https://dc.lft.to/lastmile_qr_scan"}, "type": "electric_bike", "name": "d8eac732e78e74308e68bdad5e8efa2b", "is_reserved": 0, "lon": -76.99544883333333, "is_disabled": 0, "fusion_lat": 0.0, "lat": 38.83162266666667, "bike_id": "d8eac732e78e74308e68bdad5e8efa2b", "fusion_lon": 0.0}, {"rental_uris": {"ios": "https://dc.lft.to/lastmile_qr_scan", "android": "https://dc.lft.to/lastmile_qr_scan"}, "type": "electric_scooter", "name": "a2d95514d3b1886125b4424d230444e2", "is_reserved": 0, "lon": -77.00694716666666, "is_disabled": 0, "fusion_lat": 0.0, "lat": 38.90539883333334, "bike_id": "a2d95514d3b1886125b4424d230444e2", "fusion_lon": 0.0}, {"rental_uris": {"ios": "https://dc.lft.to/lastmile_qr_scan", "android": "https://dc.lft.to/lastmile_qr_scan"}, "type": "electric_scooter", "name": "5f70457d063995ec28ae2528faf10e8f", "is_reserved": 0, "lon": -77.0151535, "is_disabled": 0, "fusion_lat": 0.0, "lat": 38.887391, "bike_id": "5f70457d063995ec28ae2528faf10e8f", "fusion_lon": 0.0}, {"rental_uris": {"ios": "https://dc.lft.to/lastmile_qr_scan", "android": "https://dc.lft.to/lastmile_qr_scan"}, "type": "electric_scooter", "name": "70483e8b1f4abed5c5df3428da1ca1ec", "is_reserved": 0, "lon": -77.00914483333334, "is_disabled": 0, "fusion_lat": 0.0, "lat": 38.898782833333335, "bike_id": "70483e8b1f4abed5c5df3428da1ca1ec", "fusion_lon": 0.0}, {"rental_uris": {"ios": "https://dc.lft.to/lastmile_qr_scan", "android": "https://dc.lft.to/lastmile_qr_scan"}, "type": "electric_scooter", "name": "75219df13b65816c50f3565ac374454b", "is_reserved": 0, "lon": -76.97938266666667, "is_disabled": 0, "fusion_lat": 0.0, "lat": 38.90661083333333, "bike_id": "75219df13b65816c50f3565ac374454b", "fusion_lon": 0.0}, {"rental_uris": {"ios": "https://dc.lft.to/lastmile_qr_scan", "android": "https://dc.lft.to/lastmile_qr_scan"}, "type": "electric_scooter", "name": "d1196da4c04e89aa71324e14fa78c161", "is_reserved": 0, "lon": -77.0362605, "is_disabled": 0, "fusion_lat": 0.0, "lat": 38.93766183333334, "bike_id": "d1196da4c04e89aa71324e14fa78c161", "fusion_lon": 0.0}, {"rental_uris": {"ios": "https://dc.lft.to/lastmile_qr_scan", "android": "https://dc.lft.to/lastmile_qr_scan"}, "type": "electric_scooter", "name": "8475a8921b6e43c6ef1bc62f731332fe", "is_reserved": 0, "lon": -76.9961385, "is_disabled": 0, "fusion_lat": 0.0, "lat": 38.931704, "bike_id": "8475a8921b6e43c6ef1bc62f731332fe", "fusion_lon": 0.0}, {"rental_uris": {"ios": "https://dc.lft.to/lastmile_qr_scan", "android": "https://dc.lft.to/lastmile_qr_scan"}, "type": "electric_scooter", "name": "c4e70acc3e36df52e25d97631e516487", "is_reserved": 0, "lon": -77.046942, "is_disabled": 0, "fusion_lat": 0.0, "lat": 38.897449, "bike_id": "c4e70acc3e36df52e25d97631e516487", "fusion_lon": 0.0}, {"rental_uris": {"ios": "https://dc.lft.to/lastmile_qr_scan", "android": "https://dc.lft.to/lastmile_qr_scan"}, "type": "electric_scooter", "name": "ea49512f3895a8ea0cdbea2495fd6f60", "is_reserved": 0, "lon": -77.04658933333333, "is_disabled": 0, "fusion_lat": 0.0, "lat": 38.89342033333333, "bike_id": "ea49512f3895a8ea0cdbea2495fd6f60", "fusion_lon": 0.0}, {"rental_uris": {"ios": "https://dc.lft.to/lastmile_qr_scan", "android": "https://dc.lft.to/lastmile_qr_scan"}, "type": "electric_scooter", "name": "4df3306548581ab14f38315cdedaa2ee", "is_reserved": 0, "lon": -76.99638883333333, "is_disabled": 0, "fusion_lat": 0.0, "lat": 38.8876755, "bike_id": "4df3306548581ab14f38315cdedaa2ee", "fusion_lon": 0.0}, {"rental_uris": {"ios": "https://dc.lft.to/lastmile_qr_scan", "android": "https://dc.lft.to/lastmile_qr_scan"}, "type": "electric_scooter", "name": "2113e76a86221a4bbbbf9c8ffa4ea762", "is_reserved": 0, "lon": -77.04653766666667, "is_disabled": 0, "fusion_lat": 0.0, "lat": 38.90551716666667, "bike_id": "2113e76a86221a4bbbbf9c8ffa4ea762", "fusion_lon": 0.0}, {"rental_uris": {"ios": "https://dc.lft.to/lastmile_qr_scan", "android": "https://dc.lft.to/lastmile_qr_scan"}, "type": "electric_scooter", "name": "82a30b41ba6906bb27eda4c6b5a0d1fe", "is_reserved": 0, "lon": -77.02152633333333, "is_disabled": 0, "fusion_lat": 0.0, "lat": 38.88749216666667, "bike_id": "82a30b41ba6906bb27eda4c6b5a0d1fe", "fusion_lon": 0.0}, {"rental_uris": {"ios": "https://dc.lft.to/lastmile_qr_scan", "android": "https://dc.lft.to/lastmile_qr_scan"}, "type": "electric_scooter", "name": "be53ca7198dccf4745f5dc33ea96b559", "is_reserved": 0, "lon": -77.04903616666667, "is_disabled": 0, "fusion_lat": 0.0, "lat": 38.88846733333333, "bike_id": "be53ca7198dccf4745f5dc33ea96b559", "fusion_lon": 0.0}, {"rental_uris": {"ios": "https://dc.lft.to/lastmile_qr_scan", "android": "https://dc.lft.to/lastmile_qr_scan"}, "type": "electric_scooter", "name": "7e1f18527052d556b2938fbaaf8f99b7", "is_reserved": 0, "lon": -77.027148, "is_disabled": 0, "fusion_lat": 0.0, "lat": 38.917276333333334, "bike_id": "7e1f18527052d556b2938fbaaf8f99b7", "fusion_lon": 0.0}, {"rental_uris": {"ios": "https://dc.lft.to/lastmile_qr_scan", "android": "https://dc.lft.to/lastmile_qr_scan"}, "type": "electric_scooter", "name": "5781479ea9ce251783140a8b2e02dc51", "is_reserved": 0, "lon": -77.01806966666666, "is_disabled": 0, "fusion_lat": 0.0, "lat": 38.92125016666667, "bike_id": "5781479ea9ce251783140a8b2e02dc51", "fusion_lon": 0.0}, {"rental_uris": {"ios": "https://dc.lft.to/lastmile_qr_scan", "android": "https://dc.lft.to/lastmile_qr_scan"}, "type": "electric_scooter", "name": "a32d0dd9b54e8532d901e10498f2d0d3", "is_reserved": 0, "lon": -77.03794016666667, "is_disabled": 0, "fusion_lat": 0.0, "lat": 38.933229, "bike_id": "a32d0dd9b54e8532d901e10498f2d0d3", "fusion_lon": 0.0}, {"rental_uris": {"ios": "https://dc.lft.to/lastmile_qr_scan", "android": "https://dc.lft.to/lastmile_qr_scan"}, "type": "electric_scooter", "name": "022c59d44fab9c8e3de4d7f3507bd92a", "is_reserved": 0, "lon": -77.04212616666666, "is_disabled": 0, "fusion_lat": 0.0, "lat": 38.92257016666667, "bike_id": "022c59d44fab9c8e3de4d7f3507bd92a", "fusion_lon": 0.0}, {"rental_uris": {"ios": "https://dc.lft.to/lastmile_qr_scan", "android": "https://dc.lft.to/lastmile_qr_scan"}, "type": "electric_scooter", "name": "e03340779c52cb96942823a830a0f7ef", "is_reserved": 0, "lon": -77.03466216666666, "is_disabled": 0, "fusion_lat": 0.0, "lat": 38.91576333333333, "bike_id": "e03340779c52cb96942823a830a0f7ef", "fusion_lon": 0.0}, {"rental_uris": {"ios": "https://dc.lft.to/lastmile_qr_scan", "android": "https://dc.lft.to/lastmile_qr_scan"}, "type": "electric_scooter", "name": "56301c2df78fbaf9ad971fab5ad48bf1", "is_reserved": 0, "lon": -77.00579566666667, "is_disabled": 0, "fusion_lat": 0.0, "lat": 38.90588366666667, "bike_id": "56301c2df78fbaf9ad971fab5ad48bf1", "fusion_lon": 0.0}, {"rental_uris": {"ios": "https://dc.lft.to/lastmile_qr_scan", "android": "https://dc.lft.to/lastmile_qr_scan"}, "type": "electric_scooter", "name": "9ccf303bcd5c46f89d42eae3505867d8", "is_reserved": 0, "lon": -77.010639, "is_disabled": 0, "fusion_lat": 0.0, "lat": 38.911884666666666, "bike_id": "9ccf303bcd5c46f89d42eae3505867d8", "fusion_lon": 0.0}, {"rental_uris": {"ios": "https://dc.lft.to/lastmile_qr_scan", "android": "https://dc.lft.to/lastmile_qr_scan"}, "type": "electric_scooter", "name": "9c5733eebd85fb9cd202501984680566", "is_reserved": 0, "lon": -77.00271266666667, "is_disabled": 0, "fusion_lat": 0.0, "lat": 38.90891366666666, "bike_id": "9c5733eebd85fb9cd202501984680566", "fusion_lon": 0.0}, {"rental_uris": {"ios": "https://dc.lft.to/lastmile_qr_scan", "android": "https://dc.lft.to/lastmile_qr_scan"}, "type": "electric_scooter", "name": "ca0836bb977c159e151a191237d0e5d2", "is_reserved": 0, "lon": -77.0418125, "is_disabled": 0, "fusion_lat": 0.0, "lat": 38.91414, "bike_id": "ca0836bb977c159e151a191237d0e5d2", "fusion_lon": 0.0}, {"rental_uris": {"ios": "https://dc.lft.to/lastmile_qr_scan", "android": "https://dc.lft.to/lastmile_qr_scan"}, "type": "electric_scooter", "name": "4e290ea85845ae70430b7f5b848443eb", "is_reserved": 0, "lon": -76.9374275, "is_disabled": 0, "fusion_lat": 0.0, "lat": 38.890112, "bike_id": "4e290ea85845ae70430b7f5b848443eb", "fusion_lon": 0.0}, {"rental_uris": {"ios": "https://dc.lft.to/lastmile_qr_scan", "android": "https://dc.lft.to/lastmile_qr_scan"}, "type": "electric_scooter", "name": "f28a9fd45e31f57a68e829e4f190af67", "is_reserved": 0, "lon": -76.9884695, "is_disabled": 0, "fusion_lat": 0.0, "lat": 38.9004515, "bike_id": "f28a9fd45e31f57a68e829e4f190af67", "fusion_lon": 0.0}, {"rental_uris": {"ios": "https://dc.lft.to/lastmile_qr_scan", "android": "https://dc.lft.to/lastmile_qr_scan"}, "type": "electric_scooter", "name": "dbdff58084c0d726f7cb089ddf5c51fc", "is_reserved": 0, "lon": -77.03213983333333, "is_disabled": 0, "fusion_lat": 0.0, "lat": 38.919200333333336, "bike_id": "dbdff58084c0d726f7cb089ddf5c51fc", "fusion_lon": 0.0}, {"rental_uris": {"ios": "https://dc.lft.to/lastmile_qr_scan", "android": "https://dc.lft.to/lastmile_qr_scan"}, "type": "electric_scooter", "name": "3b92f984acdb07afbc92fac78ee8cabf", "is_reserved": 0, "lon": -76.99733166666667, "is_disabled": 0, "fusion_lat": 0.0, "lat": 38.92052016666667, "bike_id": "3b92f984acdb07afbc92fac78ee8cabf", "fusion_lon": 0.0}, {"rental_uris": {"ios": "https://dc.lft.to/lastmile_qr_scan", "android": "https://dc.lft.to/lastmile_qr_scan"}, "type": "electric_scooter", "name": "e15fb7b1e32b601696dd12c2c668ae86", "is_reserved": 0, "lon": -77.03857266666667, "is_disabled": 0, "fusion_lat": 0.0, "lat": 38.924764, "bike_id": "e15fb7b1e32b601696dd12c2c668ae86", "fusion_lon": 0.0}, {"rental_uris": {"ios": "https://dc.lft.to/lastmile_qr_scan", "android": "https://dc.lft.to/lastmile_qr_scan"}, "type": "electric_scooter", "name": "2eb5ba5698e2564dc959949866b8552b", "is_reserved": 0, "lon": -77.04837633333334, "is_disabled": 0, "fusion_lat": 0.0, "lat": 38.90966483333333, "bike_id": "2eb5ba5698e2564dc959949866b8552b", "fusion_lon": 0.0}, {"rental_uris": {"ios": "https://dc.lft.to/lastmile_qr_scan", "android": "https://dc.lft.to/lastmile_qr_scan"}, "type": "electric_scooter", "name": "1a5431bc5aa9738cc332924aa46c1fd1", "is_reserved": 0, "lon": -77.01733, "is_disabled": 0, "fusion_lat": 0.0, "lat": 38.9027565, "bike_id": "1a5431bc5aa9738cc332924aa46c1fd1", "fusion_lon": 0.0}, {"rental_uris": {"ios": "https://dc.lft.to/lastmile_qr_scan", "android": "https://dc.lft.to/lastmile_qr_scan"}, "type": "electric_scooter", "name": "b723ef1507b4bf9f5480f9fd51ca5469", "is_reserved": 0, "lon": -77.017282, "is_disabled": 0, "fusion_lat": 0.0, "lat": 38.9008455, "bike_id": "b723ef1507b4bf9f5480f9fd51ca5469", "fusion_lon": 0.0}, {"rental_uris": {"ios": "https://dc.lft.to/lastmile_qr_scan", "android": "https://dc.lft.to/lastmile_qr_scan"}, "type": "electric_bike", "name": "c0071df53a7aa43c497c84bb71978838", "is_reserved": 0, "lon": -77.08318883333334, "is_disabled": 0, "fusion_lat": 0.0, "lat": 38.85444316666667, "bike_id": "c0071df53a7aa43c497c84bb71978838", "fusion_lon": 0.0}, {"rental_uris": {"ios": "https://dc.lft.to/lastmile_qr_scan", "android": "https://dc.lft.to/lastmile_qr_scan"}, "type": "electric_scooter", "name": "491a93b3b7bc67f853ea9a801e0cc6d5", "is_reserved": 0, "lon": -77.04077466666666, "is_disabled": 0, "fusion_lat": 0.0, "lat": 38.916065333333336, "bike_id": "491a93b3b7bc67f853ea9a801e0cc6d5", "fusion_lon": 0.0}, {"rental_uris": {"ios": "https://dc.lft.to/lastmile_qr_scan", "android": "https://dc.lft.to/lastmile_qr_scan"}, "type": "electric_bike", "name": "074b96d1aa506b32541c425c58b2aa5a", "is_reserved": 0, "lon": -76.97697133333334, "is_disabled": 0, "fusion_lat": 0.0, "lat": 38.82206, "bike_id": "074b96d1aa506b32541c425c58b2aa5a", "fusion_lon": 0.0}, {"rental_uris": {"ios": "https://dc.lft.to/lastmile_qr_scan", "android": "https://dc.lft.to/lastmile_qr_scan"}, "type": "electric_scooter", "name": "cee4d4866bf5f614a996a33c035150bb", "is_reserved": 0, "lon": -77.045051, "is_disabled": 0, "fusion_lat": 0.0, "lat": 38.89224983333333, "bike_id": "cee4d4866bf5f614a996a33c035150bb", "fusion_lon": 0.0}, {"rental_uris": {"ios": "https://dc.lft.to/lastmile_qr_scan", "android": "https://dc.lft.to/lastmile_qr_scan"}, "type": "electric_scooter", "name": "1e227a36fe648bb11689d188fb143439", "is_reserved": 0, "lon": -77.02836016666667, "is_disabled": 0, "fusion_lat": 0.0, "lat": 38.957321666666665, "bike_id": "1e227a36fe648bb11689d188fb143439", "fusion_lon": 0.0}, {"rental_uris": {"ios": "https://dc.lft.to/lastmile_qr_scan", "android": "https://dc.lft.to/lastmile_qr_scan"}, "type": "electric_scooter", "name": "7925523138173de87766e1a63a37c309", "is_reserved": 0, "lon": -76.9837155, "is_disabled": 0, "fusion_lat": 0.0, "lat": 38.8914385, "bike_id": "7925523138173de87766e1a63a37c309", "fusion_lon": 0.0}, {"rental_uris": {"ios": "https://dc.lft.to/lastmile_qr_scan", "android": "https://dc.lft.to/lastmile_qr_scan"}, "type": "electric_scooter", "name": "b49d536b9eed509e46cfb50d9f4ecdde", "is_reserved": 0, "lon": -77.03196, "is_disabled": 0, "fusion_lat": 0.0, "lat": 38.91348466666667, "bike_id": "b49d536b9eed509e46cfb50d9f4ecdde", "fusion_lon": 0.0}, {"rental_uris": {"ios": "https://dc.lft.to/lastmile_qr_scan", "android": "https://dc.lft.to/lastmile_qr_scan"}, "type": "electric_scooter", "name": "7419d86b0ea52054d12a20b6b4003de2", "is_reserved": 0, "lon": -77.06837683333333, "is_disabled": 0, "fusion_lat": 0.0, "lat": 38.917217, "bike_id": "7419d86b0ea52054d12a20b6b4003de2", "fusion_lon": 0.0}, {"rental_uris": {"ios": "https://dc.lft.to/lastmile_qr_scan", "android": "https://dc.lft.to/lastmile_qr_scan"}, "type": "electric_scooter", "name": "a01ebd69fa7f9019bb1be613716a2fa6", "is_reserved": 0, "lon": -76.9844425, "is_disabled": 0, "fusion_lat": 0.0, "lat": 38.91463566666667, "bike_id": "a01ebd69fa7f9019bb1be613716a2fa6", "fusion_lon": 0.0}, {"rental_uris": {"ios": "https://dc.lft.to/lastmile_qr_scan", "android": "https://dc.lft.to/lastmile_qr_scan"}, "type": "electric_scooter", "name": "4eba22cc32554586fca3f43c77e72ff8", "is_reserved": 0, "lon": -77.04376866666667, "is_disabled": 0, "fusion_lat": 0.0, "lat": 38.90882883333333, "bike_id": "4eba22cc32554586fca3f43c77e72ff8", "fusion_lon": 0.0}, {"rental_uris": {"ios": "https://dc.lft.to/lastmile_qr_scan", "android": "https://dc.lft.to/lastmile_qr_scan"}, "type": "electric_scooter", "name": "59d4f3576d7f287fd754c1164e57e0d4", "is_reserved": 0, "lon": -77.0248395, "is_disabled": 0, "fusion_lat": 0.0, "lat": 38.9388395, "bike_id": "59d4f3576d7f287fd754c1164e57e0d4", "fusion_lon": 0.0}, {"rental_uris": {"ios": "https://dc.lft.to/lastmile_qr_scan", "android": "https://dc.lft.to/lastmile_qr_scan"}, "type": "electric_scooter", "name": "88849f348f457d43813467baa227c5cf", "is_reserved": 0, "lon": -77.04322266666667, "is_disabled": 0, "fusion_lat": 0.0, "lat": 38.93415866666667, "bike_id": "88849f348f457d43813467baa227c5cf", "fusion_lon": 0.0}, {"rental_uris": {"ios": "https://dc.lft.to/lastmile_qr_scan", "android": "https://dc.lft.to/lastmile_qr_scan"}, "type": "electric_scooter", "name": "fda2830e50c5b100cee7c2182f948875", "is_reserved": 0, "lon": -77.04060916666667, "is_disabled": 0, "fusion_lat": 0.0, "lat": 38.917684666666666, "bike_id": "fda2830e50c5b100cee7c2182f948875", "fusion_lon": 0.0}, {"rental_uris": {"ios": "https://dc.lft.to/lastmile_qr_scan", "android": "https://dc.lft.to/lastmile_qr_scan"}, "type": "electric_scooter", "name": "f0cfc31f630e47fa70436ef9e0096feb", "is_reserved": 0, "lon": -77.048852, "is_disabled": 0, "fusion_lat": 0.0, "lat": 38.91051316666667, "bike_id": "f0cfc31f630e47fa70436ef9e0096feb", "fusion_lon": 0.0}, {"rental_uris": {"ios": "https://dc.lft.to/lastmile_qr_scan", "android": "https://dc.lft.to/lastmile_qr_scan"}, "type": "electric_bike", "name": "ec23006aa58c66007da9d494def1968d", "is_reserved": 0, "lon": -77.1141055, "is_disabled": 0, "fusion_lat": 0.0, "lat": 38.87325383333334, "bike_id": "ec23006aa58c66007da9d494def1968d", "fusion_lon": 0.0}, {"rental_uris": {"ios": "https://dc.lft.to/lastmile_qr_scan", "android": "https://dc.lft.to/lastmile_qr_scan"}, "type": "electric_scooter", "name": "3c7587c1ca244d96c8d49da63e53e6a7", "is_reserved": 0, "lon": -77.06386733333333, "is_disabled": 0, "fusion_lat": 0.0, "lat": 38.945067, "bike_id": "3c7587c1ca244d96c8d49da63e53e6a7", "fusion_lon": 0.0}, {"rental_uris": {"ios": "https://dc.lft.to/lastmile_qr_scan", "android": "https://dc.lft.to/lastmile_qr_scan"}, "type": "electric_scooter", "name": "47fe834227e24c11e2692a5db2c489c3", "is_reserved": 0, "lon": -77.04860783333334, "is_disabled": 0, "fusion_lat": 0.0, "lat": 38.912647166666666, "bike_id": "47fe834227e24c11e2692a5db2c489c3", "fusion_lon": 0.0}, {"rental_uris": {"ios": "https://dc.lft.to/lastmile_qr_scan", "android": "https://dc.lft.to/lastmile_qr_scan"}, "type": "electric_scooter", "name": "856ca8843ebf1c0a01f504101a7d9aeb", "is_reserved": 0, "lon": -77.02814983333333, "is_disabled": 0, "fusion_lat": 0.0, "lat": 38.90250983333333, "bike_id": "856ca8843ebf1c0a01f504101a7d9aeb", "fusion_lon": 0.0}, {"rental_uris": {"ios": "https://dc.lft.to/lastmile_qr_scan", "android": "https://dc.lft.to/lastmile_qr_scan"}, "type": "electric_scooter", "name": "307ea5fde0f2276c213899a7627a9212", "is_reserved": 0, "lon": -76.99844066666667, "is_disabled": 0, "fusion_lat": 0.0, "lat": 38.900764333333335, "bike_id": "307ea5fde0f2276c213899a7627a9212", "fusion_lon": 0.0}, {"rental_uris": {"ios": "https://dc.lft.to/lastmile_qr_scan", "android": "https://dc.lft.to/lastmile_qr_scan"}, "type": "electric_bike", "name": "2af481c5ba84494f08e3b869b6b720fc", "is_reserved": 0, "lon": -76.98842333333333, "is_disabled": 0, "fusion_lat": 0.0, "lat": 38.84280016666666, "bike_id": "2af481c5ba84494f08e3b869b6b720fc", "fusion_lon": 0.0}, {"rental_uris": {"ios": "https://dc.lft.to/lastmile_qr_scan", "android": "https://dc.lft.to/lastmile_qr_scan"}, "type": "electric_scooter", "name": "754ad83bb33730e7118226b5f55061e0", "is_reserved": 0, "lon": -77.04866533333333, "is_disabled": 0, "fusion_lat": 0.0, "lat": 38.8922285, "bike_id": "754ad83bb33730e7118226b5f55061e0", "fusion_lon": 0.0}, {"rental_uris": {"ios": "https://dc.lft.to/lastmile_qr_scan", "android": "https://dc.lft.to/lastmile_qr_scan"}, "type": "electric_scooter", "name": "5ef67d02fb431242bef4304623ef035a", "is_reserved": 0, "lon": -77.02356766666666, "is_disabled": 0, "fusion_lat": 0.0, "lat": 38.935367666666664, "bike_id": "5ef67d02fb431242bef4304623ef035a", "fusion_lon": 0.0}, {"rental_uris": {"ios": "https://dc.lft.to/lastmile_qr_scan", "android": "https://dc.lft.to/lastmile_qr_scan"}, "type": "electric_scooter", "name": "3a2a4ef86193cffd5b4199b90043119b", "is_reserved": 0, "lon": -77.033811, "is_disabled": 0, "fusion_lat": 0.0, "lat": 38.89959266666666, "bike_id": "3a2a4ef86193cffd5b4199b90043119b", "fusion_lon": 0.0}, {"rental_uris": {"ios": "https://dc.lft.to/lastmile_qr_scan", "android": "https://dc.lft.to/lastmile_qr_scan"}, "type": "electric_scooter", "name": "228576c1fd2f28d8e4dba7f7987d8db3", "is_reserved": 0, "lon": -77.0169815, "is_disabled": 0, "fusion_lat": 0.0, "lat": 38.90451983333333, "bike_id": "228576c1fd2f28d8e4dba7f7987d8db3", "fusion_lon": 0.0}, {"rental_uris": {"ios": "https://dc.lft.to/lastmile_qr_scan", "android": "https://dc.lft.to/lastmile_qr_scan"}, "type": "electric_scooter", "name": "839a01fcc6acb4617fbafecf458299cc", "is_reserved": 0, "lon": -77.01765716666667, "is_disabled": 0, "fusion_lat": 0.0, "lat": 38.8862705, "bike_id": "839a01fcc6acb4617fbafecf458299cc", "fusion_lon": 0.0}, {"rental_uris": {"ios": "https://dc.lft.to/lastmile_qr_scan", "android": "https://dc.lft.to/lastmile_qr_scan"}, "type": "electric_scooter", "name": "ab0e3276d4740266377d93575b91db0b", "is_reserved": 0, "lon": -77.02772233333333, "is_disabled": 0, "fusion_lat": 0.0, "lat": 38.89732583333333, "bike_id": "ab0e3276d4740266377d93575b91db0b", "fusion_lon": 0.0}, {"rental_uris": {"ios": "https://dc.lft.to/lastmile_qr_scan", "android": "https://dc.lft.to/lastmile_qr_scan"}, "type": "electric_bike", "name": "1596fd51ebeeef93dbd806effb83cebf", "is_reserved": 0, "lon": -76.96092, "is_disabled": 0, "fusion_lat": 0.0, "lat": 38.91859133333333, "bike_id": "1596fd51ebeeef93dbd806effb83cebf", "fusion_lon": 0.0}, {"rental_uris": {"ios": "https://dc.lft.to/lastmile_qr_scan", "android": "https://dc.lft.to/lastmile_qr_scan"}, "type": "electric_bike", "name": "06feb00c0ab0ef5d7cce175cd8dd8a48", "is_reserved": 0, "lon": -77.07906583333333, "is_disabled": 0, "fusion_lat": 0.0, "lat": 38.83934566666667, "bike_id": "06feb00c0ab0ef5d7cce175cd8dd8a48", "fusion_lon": 0.0}, {"rental_uris": {"ios": "https://dc.lft.to/lastmile_qr_scan", "android": "https://dc.lft.to/lastmile_qr_scan"}, "type": "electric_scooter", "name": "85a47935a34c8c7de82d5d261122aa43", "is_reserved": 0, "lon": -77.00566333333333, "is_disabled": 0, "fusion_lat": 0.0, "lat": 38.8766965, "bike_id": "85a47935a34c8c7de82d5d261122aa43", "fusion_lon": 0.0}, {"rental_uris": {"ios": "https://dc.lft.to/lastmile_qr_scan", "android": "https://dc.lft.to/lastmile_qr_scan"}, "type": "electric_bike", "name": "1f01733470439fb083cc42a89e9008cb", "is_reserved": 0, "lon": -77.03679916666667, "is_disabled": 0, "fusion_lat": 0.0, "lat": 38.916825833333334, "bike_id": "1f01733470439fb083cc42a89e9008cb", "fusion_lon": 0.0}, {"rental_uris": {"ios": "https://dc.lft.to/lastmile_qr_scan", "android": "https://dc.lft.to/lastmile_qr_scan"}, "type": "electric_scooter", "name": "3baf6ca1b729aff20ea91446cecfe00d", "is_reserved": 0, "lon": -77.0270055, "is_disabled": 0, "fusion_lat": 0.0, "lat": 38.90600166666667, "bike_id": "3baf6ca1b729aff20ea91446cecfe00d", "fusion_lon": 0.0}, {"rental_uris": {"ios": "https://dc.lft.to/lastmile_qr_scan", "android": "https://dc.lft.to/lastmile_qr_scan"}, "type": "electric_scooter", "name": "9ebb5549c2fae1c8941c7cc45c4f2bd9", "is_reserved": 0, "lon": -77.02008433333333, "is_disabled": 0, "fusion_lat": 0.0, "lat": 38.92809366666667, "bike_id": "9ebb5549c2fae1c8941c7cc45c4f2bd9", "fusion_lon": 0.0}, {"rental_uris": {"ios": "https://dc.lft.to/lastmile_qr_scan", "android": "https://dc.lft.to/lastmile_qr_scan"}, "type": "electric_scooter", "name": "041a466c840b5b2136abbdf5c0e957dd", "is_reserved": 0, "lon": -77.00464283333334, "is_disabled": 0, "fusion_lat": 0.0, "lat": 38.91170666666667, "bike_id": "041a466c840b5b2136abbdf5c0e957dd", "fusion_lon": 0.0}, {"rental_uris": {"ios": "https://dc.lft.to/lastmile_qr_scan", "android": "https://dc.lft.to/lastmile_qr_scan"}, "type": "electric_bike", "name": "b80f56d2c7d54ac5a7ec4c05ea5373cc", "is_reserved": 0, "lon": -77.23176116666667, "is_disabled": 0, "fusion_lat": 0.0, "lat": 38.92893816666667, "bike_id": "b80f56d2c7d54ac5a7ec4c05ea5373cc", "fusion_lon": 0.0}, {"rental_uris": {"ios": "https://dc.lft.to/lastmile_qr_scan", "android": "https://dc.lft.to/lastmile_qr_scan"}, "type": "electric_bike", "name": "217e5eebe95b76eb0ce907810d13dad6", "is_reserved": 0, "lon": -77.10293233333333, "is_disabled": 0, "fusion_lat": 0.0, "lat": 38.852545666666664, "bike_id": "217e5eebe95b76eb0ce907810d13dad6", "fusion_lon": 0.0}, {"rental_uris": {"ios": "https://dc.lft.to/lastmile_qr_scan", "android": "https://dc.lft.to/lastmile_qr_scan"}, "type": "electric_scooter", "name": "db6e9dd06d9fd7994ea12f0a95a61fa8", "is_reserved": 0, "lon": -77.01469383333334, "is_disabled": 0, "fusion_lat": 0.0, "lat": 38.92669383333333, "bike_id": "db6e9dd06d9fd7994ea12f0a95a61fa8", "fusion_lon": 0.0}, {"rental_uris": {"ios": "https://dc.lft.to/lastmile_qr_scan", "android": "https://dc.lft.to/lastmile_qr_scan"}, "type": "electric_scooter", "name": "8162b644e2be8cfc8d52fd04ff218f6c", "is_reserved": 0, "lon": -77.03410366666667, "is_disabled": 0, "fusion_lat": 0.0, "lat": 38.90136283333333, "bike_id": "8162b644e2be8cfc8d52fd04ff218f6c", "fusion_lon": 0.0}, {"rental_uris": {"ios": "https://dc.lft.to/lastmile_qr_scan", "android": "https://dc.lft.to/lastmile_qr_scan"}, "type": "electric_bike", "name": "0f2c29d816cd0c93eda49a6a1b9cfb5b", "is_reserved": 0, "lon": -76.97960966666666, "is_disabled": 0, "fusion_lat": 0.0, "lat": 38.92037783333333, "bike_id": "0f2c29d816cd0c93eda49a6a1b9cfb5b", "fusion_lon": 0.0}, {"rental_uris": {"ios": "https://dc.lft.to/lastmile_qr_scan", "android": "https://dc.lft.to/lastmile_qr_scan"}, "type": "electric_scooter", "name": "89387d6f48f5d782a74aba735dc35ba7", "is_reserved": 0, "lon": -77.0448235, "is_disabled": 0, "fusion_lat": 0.0, "lat": 38.91360916666667, "bike_id": "89387d6f48f5d782a74aba735dc35ba7", "fusion_lon": 0.0}, {"rental_uris": {"ios": "https://dc.lft.to/lastmile_qr_scan", "android": "https://dc.lft.to/lastmile_qr_scan"}, "type": "electric_scooter", "name": "704bbda51bad9078c3ba6e0c71eba610", "is_reserved": 0, "lon": -77.02566616666667, "is_disabled": 0, "fusion_lat": 0.0, "lat": 38.948504166666666, "bike_id": "704bbda51bad9078c3ba6e0c71eba610", "fusion_lon": 0.0}, {"rental_uris": {"ios": "https://dc.lft.to/lastmile_qr_scan", "android": "https://dc.lft.to/lastmile_qr_scan"}, "type": "electric_scooter", "name": "f7ff01ae5d00d17131cb47dc6faba1ba", "is_reserved": 0, "lon": -76.99477216666666, "is_disabled": 0, "fusion_lat": 0.0, "lat": 38.8827115, "bike_id": "f7ff01ae5d00d17131cb47dc6faba1ba", "fusion_lon": 0.0}, {"rental_uris": {"ios": "https://dc.lft.to/lastmile_qr_scan", "android": "https://dc.lft.to/lastmile_qr_scan"}, "type": "electric_scooter", "name": "60c65cf895d8dc88b1e4d21ef8fcfa49", "is_reserved": 0, "lon": -77.03844283333333, "is_disabled": 0, "fusion_lat": 0.0, "lat": 38.910276333333336, "bike_id": "60c65cf895d8dc88b1e4d21ef8fcfa49", "fusion_lon": 0.0}, {"rental_uris": {"ios": "https://dc.lft.to/lastmile_qr_scan", "android": "https://dc.lft.to/lastmile_qr_scan"}, "type": "electric_scooter", "name": "4550524f417348fdc0133e948556501b", "is_reserved": 0, "lon": -76.94637216666666, "is_disabled": 0, "fusion_lat": 0.0, "lat": 38.898671666666665, "bike_id": "4550524f417348fdc0133e948556501b", "fusion_lon": 0.0}, {"rental_uris": {"ios": "https://dc.lft.to/lastmile_qr_scan", "android": "https://dc.lft.to/lastmile_qr_scan"}, "type": "electric_scooter", "name": "6400607c8f347ff5a7f5890044bed7e8", "is_reserved": 0, "lon": -77.0150025, "is_disabled": 0, "fusion_lat": 0.0, "lat": 38.906544333333336, "bike_id": "6400607c8f347ff5a7f5890044bed7e8", "fusion_lon": 0.0}, {"rental_uris": {"ios": "https://dc.lft.to/lastmile_qr_scan", "android": "https://dc.lft.to/lastmile_qr_scan"}, "type": "electric_scooter", "name": "6f48ecf2fa4b3a099b90d5148fa0990e", "is_reserved": 0, "lon": -77.06383033333333, "is_disabled": 0, "fusion_lat": 0.0, "lat": 38.905244, "bike_id": "6f48ecf2fa4b3a099b90d5148fa0990e", "fusion_lon": 0.0}, {"rental_uris": {"ios": "https://dc.lft.to/lastmile_qr_scan", "android": "https://dc.lft.to/lastmile_qr_scan"}, "type": "electric_scooter", "name": "d285fd7def96f8ee31940e086b994e76", "is_reserved": 0, "lon": -76.92302333333333, "is_disabled": 0, "fusion_lat": 0.0, "lat": 38.89387283333333, "bike_id": "d285fd7def96f8ee31940e086b994e76", "fusion_lon": 0.0}, {"rental_uris": {"ios": "https://dc.lft.to/lastmile_qr_scan", "android": "https://dc.lft.to/lastmile_qr_scan"}, "type": "electric_scooter", "name": "735f9750abed03d45b7fe809b48d847e", "is_reserved": 0, "lon": -77.03210033333333, "is_disabled": 0, "fusion_lat": 0.0, "lat": 38.8974505, "bike_id": "735f9750abed03d45b7fe809b48d847e", "fusion_lon": 0.0}, {"rental_uris": {"ios": "https://dc.lft.to/lastmile_qr_scan", "android": "https://dc.lft.to/lastmile_qr_scan"}, "type": "electric_scooter", "name": "3a9f007915006082f10c1c735d05fc95", "is_reserved": 0, "lon": -77.03994616666667, "is_disabled": 0, "fusion_lat": 0.0, "lat": 38.93399266666667, "bike_id": "3a9f007915006082f10c1c735d05fc95", "fusion_lon": 0.0}, {"rental_uris": {"ios": "https://dc.lft.to/lastmile_qr_scan", "android": "https://dc.lft.to/lastmile_qr_scan"}, "type": "electric_scooter", "name": "da10543bded5ed9da93a682deefe6614", "is_reserved": 0, "lon": -77.00479116666666, "is_disabled": 0, "fusion_lat": 0.0, "lat": 38.87455683333334, "bike_id": "da10543bded5ed9da93a682deefe6614", "fusion_lon": 0.0}, {"rental_uris": {"ios": "https://dc.lft.to/lastmile_qr_scan", "android": "https://dc.lft.to/lastmile_qr_scan"}, "type": "electric_scooter", "name": "6f0c277bf94f9dbd9e415f136ffefae0", "is_reserved": 0, "lon": -77.00616533333333, "is_disabled": 0, "fusion_lat": 0.0, "lat": 38.871799833333334, "bike_id": "6f0c277bf94f9dbd9e415f136ffefae0", "fusion_lon": 0.0}, {"rental_uris": {"ios": "https://dc.lft.to/lastmile_qr_scan", "android": "https://dc.lft.to/lastmile_qr_scan"}, "type": "electric_bike", "name": "1cf1240f9257f104f41e4bc900f4ec3b", "is_reserved": 0, "lon": -77.02423516666667, "is_disabled": 0, "fusion_lat": 0.0, "lat": 38.9490165, "bike_id": "1cf1240f9257f104f41e4bc900f4ec3b", "fusion_lon": 0.0}, {"rental_uris": {"ios": "https://dc.lft.to/lastmile_qr_scan", "android": "https://dc.lft.to/lastmile_qr_scan"}, "type": "electric_bike", "name": "696921ca1e5ad2b16595c62b01dbfd29", "is_reserved": 0, "lon": -76.98060983333333, "is_disabled": 0, "fusion_lat": 0.0, "lat": 38.97251933333333, "bike_id": "696921ca1e5ad2b16595c62b01dbfd29", "fusion_lon": 0.0}, {"rental_uris": {"ios": "https://dc.lft.to/lastmile_qr_scan", "android": "https://dc.lft.to/lastmile_qr_scan"}, "type": "electric_scooter", "name": "df7f30c2889cefb19c4c3c762bb5c3f0", "is_reserved": 0, "lon": -77.0070795, "is_disabled": 0, "fusion_lat": 0.0, "lat": 38.90535833333333, "bike_id": "df7f30c2889cefb19c4c3c762bb5c3f0", "fusion_lon": 0.0}, {"rental_uris": {"ios": "https://dc.lft.to/lastmile_qr_scan", "android": "https://dc.lft.to/lastmile_qr_scan"}, "type": "electric_scooter", "name": "e2689d03c7711953c0b4ec2ee0a9dbbe", "is_reserved": 0, "lon": -77.039772, "is_disabled": 0, "fusion_lat": 0.0, "lat": 38.89225116666667, "bike_id": "e2689d03c7711953c0b4ec2ee0a9dbbe", "fusion_lon": 0.0}, {"rental_uris": {"ios": "https://dc.lft.to/lastmile_qr_scan", "android": "https://dc.lft.to/lastmile_qr_scan"}, "type": "electric_scooter", "name": "262821cbf643a499e6ab09ac9076918f", "is_reserved": 0, "lon": -77.03682566666667, "is_disabled": 0, "fusion_lat": 0.0, "lat": 38.93929766666667, "bike_id": "262821cbf643a499e6ab09ac9076918f", "fusion_lon": 0.0}, {"rental_uris": {"ios": "https://dc.lft.to/lastmile_qr_scan", "android": "https://dc.lft.to/lastmile_qr_scan"}, "type": "electric_bike", "name": "3df5660fc431fa25370bc34c23fcbc4c", "is_reserved": 0, "lon": -77.003974, "is_disabled": 0, "fusion_lat": 0.0, "lat": 38.921199666666666, "bike_id": "3df5660fc431fa25370bc34c23fcbc4c", "fusion_lon": 0.0}, {"rental_uris": {"ios": "https://dc.lft.to/lastmile_qr_scan", "android": "https://dc.lft.to/lastmile_qr_scan"}, "type": "electric_scooter", "name": "1c3bb62a57ba5546566403c160ad0a15", "is_reserved": 0, "lon": -77.0198555, "is_disabled": 0, "fusion_lat": 0.0, "lat": 38.88719966666667, "bike_id": "1c3bb62a57ba5546566403c160ad0a15", "fusion_lon": 0.0}, {"rental_uris": {"ios": "https://dc.lft.to/lastmile_qr_scan", "android": "https://dc.lft.to/lastmile_qr_scan"}, "type": "electric_scooter", "name": "4cf1d49bebd3556a9939ab0b699b7199", "is_reserved": 0, "lon": -76.98378483333333, "is_disabled": 0, "fusion_lat": 0.0, "lat": 38.899746666666665, "bike_id": "4cf1d49bebd3556a9939ab0b699b7199", "fusion_lon": 0.0}, {"rental_uris": {"ios": "https://dc.lft.to/lastmile_qr_scan", "android": "https://dc.lft.to/lastmile_qr_scan"}, "type": "electric_scooter", "name": "dae70e3ee6cb998431eb14c250e8ce3c", "is_reserved": 0, "lon": -77.02684083333334, "is_disabled": 0, "fusion_lat": 0.0, "lat": 38.895634, "bike_id": "dae70e3ee6cb998431eb14c250e8ce3c", "fusion_lon": 0.0}, {"rental_uris": {"ios": "https://dc.lft.to/lastmile_qr_scan", "android": "https://dc.lft.to/lastmile_qr_scan"}, "type": "electric_scooter", "name": "4786e017a16dc6ebecc78e6534f65210", "is_reserved": 0, "lon": -77.02195916666666, "is_disabled": 0, "fusion_lat": 0.0, "lat": 38.91100766666667, "bike_id": "4786e017a16dc6ebecc78e6534f65210", "fusion_lon": 0.0}, {"rental_uris": {"ios": "https://dc.lft.to/lastmile_qr_scan", "android": "https://dc.lft.to/lastmile_qr_scan"}, "type": "electric_scooter", "name": "b0fd25f5625e963feda2a0a6935fb95c", "is_reserved": 0, "lon": -77.03472216666667, "is_disabled": 0, "fusion_lat": 0.0, "lat": 38.90841233333333, "bike_id": "b0fd25f5625e963feda2a0a6935fb95c", "fusion_lon": 0.0}, {"rental_uris": {"ios": "https://dc.lft.to/lastmile_qr_scan", "android": "https://dc.lft.to/lastmile_qr_scan"}, "type": "electric_scooter", "name": "ea5d9aba9995ab7e655a5d7961d3ec34", "is_reserved": 0, "lon": -77.0446105, "is_disabled": 0, "fusion_lat": 0.0, "lat": 38.924740666666665, "bike_id": "ea5d9aba9995ab7e655a5d7961d3ec34", "fusion_lon": 0.0}, {"rental_uris": {"ios": "https://dc.lft.to/lastmile_qr_scan", "android": "https://dc.lft.to/lastmile_qr_scan"}, "type": "electric_scooter", "name": "84d1961d5c6002325ecd167598148cdd", "is_reserved": 0, "lon": -76.99747283333333, "is_disabled": 0, "fusion_lat": 0.0, "lat": 38.9013215, "bike_id": "84d1961d5c6002325ecd167598148cdd", "fusion_lon": 0.0}, {"rental_uris": {"ios": "https://dc.lft.to/lastmile_qr_scan", "android": "https://dc.lft.to/lastmile_qr_scan"}, "type": "electric_scooter", "name": "f3fcf18cff95d377454b2eec2fdd770c", "is_reserved": 0, "lon": -77.03170816666666, "is_disabled": 0, "fusion_lat": 0.0, "lat": 38.894554, "bike_id": "f3fcf18cff95d377454b2eec2fdd770c", "fusion_lon": 0.0}, {"rental_uris": {"ios": "https://dc.lft.to/lastmile_qr_scan", "android": "https://dc.lft.to/lastmile_qr_scan"}, "type": "electric_scooter", "name": "8daddcc32aa4cbaf58c2bb894e30d648", "is_reserved": 0, "lon": -77.01106466666667, "is_disabled": 0, "fusion_lat": 0.0, "lat": 38.895672833333336, "bike_id": "8daddcc32aa4cbaf58c2bb894e30d648", "fusion_lon": 0.0}, {"rental_uris": {"ios": "https://dc.lft.to/lastmile_qr_scan", "android": "https://dc.lft.to/lastmile_qr_scan"}, "type": "electric_bike", "name": "b2f0d7646464f574de321dde631f39dd", "is_reserved": 0, "lon": -76.98759183333334, "is_disabled": 0, "fusion_lat": 0.0, "lat": 38.85764616666667, "bike_id": "b2f0d7646464f574de321dde631f39dd", "fusion_lon": 0.0}, {"rental_uris": {"ios": "https://dc.lft.to/lastmile_qr_scan", "android": "https://dc.lft.to/lastmile_qr_scan"}, "type": "electric_scooter", "name": "8d8537a7e47c38d61108d59cf37217e0", "is_reserved": 0, "lon": -77.037231, "is_disabled": 0, "fusion_lat": 0.0, "lat": 38.92647783333334, "bike_id": "8d8537a7e47c38d61108d59cf37217e0", "fusion_lon": 0.0}, {"rental_uris": {"ios": "https://dc.lft.to/lastmile_qr_scan", "android": "https://dc.lft.to/lastmile_qr_scan"}, "type": "electric_scooter", "name": "e6152a973608f1af6062d8f7d4bdd7ff", "is_reserved": 0, "lon": -77.04474233333333, "is_disabled": 0, "fusion_lat": 0.0, "lat": 38.900135166666665, "bike_id": "e6152a973608f1af6062d8f7d4bdd7ff", "fusion_lon": 0.0}, {"rental_uris": {"ios": "https://dc.lft.to/lastmile_qr_scan", "android": "https://dc.lft.to/lastmile_qr_scan"}, "type": "electric_scooter", "name": "ffbca12ad0036d450149c7d1987af6f1", "is_reserved": 0, "lon": -77.033746, "is_disabled": 0, "fusion_lat": 0.0, "lat": 38.938649, "bike_id": "ffbca12ad0036d450149c7d1987af6f1", "fusion_lon": 0.0}, {"rental_uris": {"ios": "https://dc.lft.to/lastmile_qr_scan", "android": "https://dc.lft.to/lastmile_qr_scan"}, "type": "electric_scooter", "name": "b76da714d8eb67ac3648006ea5717199", "is_reserved": 0, "lon": -77.04960283333334, "is_disabled": 0, "fusion_lat": 0.0, "lat": 38.91583766666667, "bike_id": "b76da714d8eb67ac3648006ea5717199", "fusion_lon": 0.0}, {"rental_uris": {"ios": "https://dc.lft.to/lastmile_qr_scan", "android": "https://dc.lft.to/lastmile_qr_scan"}, "type": "electric_bike", "name": "43ca0fab056963b5af9331450791eb4d", "is_reserved": 0, "lon": -77.10077216666667, "is_disabled": 0, "fusion_lat": 0.0, "lat": 38.85740966666667, "bike_id": "43ca0fab056963b5af9331450791eb4d", "fusion_lon": 0.0}, {"rental_uris": {"ios": "https://dc.lft.to/lastmile_qr_scan", "android": "https://dc.lft.to/lastmile_qr_scan"}, "type": "electric_bike", "name": "3ac5f912608cd38f36866a937dca5d02", "is_reserved": 0, "lon": -77.01294216666666, "is_disabled": 0, "fusion_lat": 0.0, "lat": 38.930013833333334, "bike_id": "3ac5f912608cd38f36866a937dca5d02", "fusion_lon": 0.0}, {"rental_uris": {"ios": "https://dc.lft.to/lastmile_qr_scan", "android": "https://dc.lft.to/lastmile_qr_scan"}, "type": "electric_scooter", "name": "2afd86b50993ead7ffbaf07f65cfdf16", "is_reserved": 0, "lon": -77.04466133333334, "is_disabled": 0, "fusion_lat": 0.0, "lat": 38.91607916666667, "bike_id": "2afd86b50993ead7ffbaf07f65cfdf16", "fusion_lon": 0.0}, {"rental_uris": {"ios": "https://dc.lft.to/lastmile_qr_scan", "android": "https://dc.lft.to/lastmile_qr_scan"}, "type": "electric_scooter", "name": "a8741465d105c65f7a13e968d267717d", "is_reserved": 0, "lon": -77.03183716666666, "is_disabled": 0, "fusion_lat": 0.0, "lat": 38.92916533333333, "bike_id": "a8741465d105c65f7a13e968d267717d", "fusion_lon": 0.0}, {"rental_uris": {"ios": "https://dc.lft.to/lastmile_qr_scan", "android": "https://dc.lft.to/lastmile_qr_scan"}, "type": "electric_scooter", "name": "a2e07eeb4c217a24c686622be15e041f", "is_reserved": 0, "lon": -77.02994383333333, "is_disabled": 0, "fusion_lat": 0.0, "lat": 38.91707533333334, "bike_id": "a2e07eeb4c217a24c686622be15e041f", "fusion_lon": 0.0}, {"rental_uris": {"ios": "https://dc.lft.to/lastmile_qr_scan", "android": "https://dc.lft.to/lastmile_qr_scan"}, "type": "electric_scooter", "name": "209234933cccf8f308f0bf1dfb1ad348", "is_reserved": 0, "lon": -77.0036835, "is_disabled": 0, "fusion_lat": 0.0, "lat": 38.87758783333334, "bike_id": "209234933cccf8f308f0bf1dfb1ad348", "fusion_lon": 0.0}, {"rental_uris": {"ios": "https://dc.lft.to/lastmile_qr_scan", "android": "https://dc.lft.to/lastmile_qr_scan"}, "type": "electric_scooter", "name": "56f0ddc8c50e8dc34205eabbbe73e55d", "is_reserved": 0, "lon": -76.98533966666666, "is_disabled": 0, "fusion_lat": 0.0, "lat": 38.8585805, "bike_id": "56f0ddc8c50e8dc34205eabbbe73e55d", "fusion_lon": 0.0}, {"rental_uris": {"ios": "https://dc.lft.to/lastmile_qr_scan", "android": "https://dc.lft.to/lastmile_qr_scan"}, "type": "electric_scooter", "name": "e37ed2e805fe3e2dc60da045dfca1b11", "is_reserved": 0, "lon": -77.0021995, "is_disabled": 0, "fusion_lat": 0.0, "lat": 38.89450733333334, "bike_id": "e37ed2e805fe3e2dc60da045dfca1b11", "fusion_lon": 0.0}, {"rental_uris": {"ios": "https://dc.lft.to/lastmile_qr_scan", "android": "https://dc.lft.to/lastmile_qr_scan"}, "type": "electric_scooter", "name": "ae446b89e7f90b411f980da83d784990", "is_reserved": 0, "lon": -77.04525016666666, "is_disabled": 0, "fusion_lat": 0.0, "lat": 38.911133166666666, "bike_id": "ae446b89e7f90b411f980da83d784990", "fusion_lon": 0.0}, {"rental_uris": {"ios": "https://dc.lft.to/lastmile_qr_scan", "android": "https://dc.lft.to/lastmile_qr_scan"}, "type": "electric_scooter", "name": "49e7b696a62d5b9d219a4688d1a8ed7e", "is_reserved": 0, "lon": -77.00273283333334, "is_disabled": 0, "fusion_lat": 0.0, "lat": 38.88767516666667, "bike_id": "49e7b696a62d5b9d219a4688d1a8ed7e", "fusion_lon": 0.0}, {"rental_uris": {"ios": "https://dc.lft.to/lastmile_qr_scan", "android": "https://dc.lft.to/lastmile_qr_scan"}, "type": "electric_scooter", "name": "2abfbf105a8a12ea2a95a8347baebdb1", "is_reserved": 0, "lon": -77.026031, "is_disabled": 0, "fusion_lat": 0.0, "lat": 38.90349833333333, "bike_id": "2abfbf105a8a12ea2a95a8347baebdb1", "fusion_lon": 0.0}, {"rental_uris": {"ios": "https://dc.lft.to/lastmile_qr_scan", "android": "https://dc.lft.to/lastmile_qr_scan"}, "type": "electric_scooter", "name": "7ef659ce30dbfed6dfb34363ec17de71", "is_reserved": 0, "lon": -76.98839833333334, "is_disabled": 0, "fusion_lat": 0.0, "lat": 38.900418, "bike_id": "7ef659ce30dbfed6dfb34363ec17de71", "fusion_lon": 0.0}, {"rental_uris": {"ios": "https://dc.lft.to/lastmile_qr_scan", "android": "https://dc.lft.to/lastmile_qr_scan"}, "type": "electric_scooter", "name": "f47b93053afabaac5fd13913122fa453", "is_reserved": 0, "lon": -77.04018466666666, "is_disabled": 0, "fusion_lat": 0.0, "lat": 38.92252333333333, "bike_id": "f47b93053afabaac5fd13913122fa453", "fusion_lon": 0.0}, {"rental_uris": {"ios": "https://dc.lft.to/lastmile_qr_scan", "android": "https://dc.lft.to/lastmile_qr_scan"}, "type": "electric_bike", "name": "b427b98ced4e2642ef2832a956f1bc98", "is_reserved": 0, "lon": -76.96308466666666, "is_disabled": 0, "fusion_lat": 0.0, "lat": 38.897004833333334, "bike_id": "b427b98ced4e2642ef2832a956f1bc98", "fusion_lon": 0.0}, {"rental_uris": {"ios": "https://dc.lft.to/lastmile_qr_scan", "android": "https://dc.lft.to/lastmile_qr_scan"}, "type": "electric_scooter", "name": "074a0952dca02d5e5777fa3b5e88454a", "is_reserved": 0, "lon": -77.00610016666667, "is_disabled": 0, "fusion_lat": 0.0, "lat": 38.8783135, "bike_id": "074a0952dca02d5e5777fa3b5e88454a", "fusion_lon": 0.0}, {"rental_uris": {"ios": "https://dc.lft.to/lastmile_qr_scan", "android": "https://dc.lft.to/lastmile_qr_scan"}, "type": "electric_scooter", "name": "60bd988ea377417fb126d4d4515723a3", "is_reserved": 0, "lon": -77.060264, "is_disabled": 0, "fusion_lat": 0.0, "lat": 38.90235933333334, "bike_id": "60bd988ea377417fb126d4d4515723a3", "fusion_lon": 0.0}, {"rental_uris": {"ios": "https://dc.lft.to/lastmile_qr_scan", "android": "https://dc.lft.to/lastmile_qr_scan"}, "type": "electric_scooter", "name": "dc6fcfe20a18e22dfadff3900731e4bc", "is_reserved": 0, "lon": -77.050772, "is_disabled": 0, "fusion_lat": 0.0, "lat": 38.90383083333333, "bike_id": "dc6fcfe20a18e22dfadff3900731e4bc", "fusion_lon": 0.0}, {"rental_uris": {"ios": "https://dc.lft.to/lastmile_qr_scan", "android": "https://dc.lft.to/lastmile_qr_scan"}, "type": "electric_scooter", "name": "5e8d616307f0535df9f151e3d2a709db", "is_reserved": 0, "lon": -77.02809333333333, "is_disabled": 0, "fusion_lat": 0.0, "lat": 38.892319666666666, "bike_id": "5e8d616307f0535df9f151e3d2a709db", "fusion_lon": 0.0}, {"rental_uris": {"ios": "https://dc.lft.to/lastmile_qr_scan", "android": "https://dc.lft.to/lastmile_qr_scan"}, "type": "electric_scooter", "name": "a00f1d7982a116e0555db0407767ef48", "is_reserved": 0, "lon": -77.02939083333334, "is_disabled": 0, "fusion_lat": 0.0, "lat": 38.91671433333333, "bike_id": "a00f1d7982a116e0555db0407767ef48", "fusion_lon": 0.0}, {"rental_uris": {"ios": "https://dc.lft.to/lastmile_qr_scan", "android": "https://dc.lft.to/lastmile_qr_scan"}, "type": "electric_scooter", "name": "5c460f243eb7778202c4f6b151ffee12", "is_reserved": 0, "lon": -77.03807233333333, "is_disabled": 0, "fusion_lat": 0.0, "lat": 38.9311825, "bike_id": "5c460f243eb7778202c4f6b151ffee12", "fusion_lon": 0.0}, {"rental_uris": {"ios": "https://dc.lft.to/lastmile_qr_scan", "android": "https://dc.lft.to/lastmile_qr_scan"}, "type": "electric_scooter", "name": "cc775b2930528fbb7a38979e3477ea53", "is_reserved": 0, "lon": -77.0455515, "is_disabled": 0, "fusion_lat": 0.0, "lat": 38.9007975, "bike_id": "cc775b2930528fbb7a38979e3477ea53", "fusion_lon": 0.0}, {"rental_uris": {"ios": "https://dc.lft.to/lastmile_qr_scan", "android": "https://dc.lft.to/lastmile_qr_scan"}, "type": "electric_bike", "name": "7764840100cefe033fbd3c1b9e071d61", "is_reserved": 0, "lon": -77.0354265, "is_disabled": 0, "fusion_lat": 0.0, "lat": 38.934011166666664, "bike_id": "7764840100cefe033fbd3c1b9e071d61", "fusion_lon": 0.0}, {"rental_uris": {"ios": "https://dc.lft.to/lastmile_qr_scan", "android": "https://dc.lft.to/lastmile_qr_scan"}, "type": "electric_scooter", "name": "6f26a25ef250969e2828f0b607ae9fda", "is_reserved": 0, "lon": -77.04021, "is_disabled": 0, "fusion_lat": 0.0, "lat": 38.89923116666667, "bike_id": "6f26a25ef250969e2828f0b607ae9fda", "fusion_lon": 0.0}, {"rental_uris": {"ios": "https://dc.lft.to/lastmile_qr_scan", "android": "https://dc.lft.to/lastmile_qr_scan"}, "type": "electric_scooter", "name": "a27fc225102325e3c3b050f542f67a27", "is_reserved": 0, "lon": -77.06335616666667, "is_disabled": 0, "fusion_lat": 0.0, "lat": 38.943649, "bike_id": "a27fc225102325e3c3b050f542f67a27", "fusion_lon": 0.0}, {"rental_uris": {"ios": "https://dc.lft.to/lastmile_qr_scan", "android": "https://dc.lft.to/lastmile_qr_scan"}, "type": "electric_scooter", "name": "cc70f4881646fa628e61c0914d275df2", "is_reserved": 0, "lon": -77.0530415, "is_disabled": 0, "fusion_lat": 0.0, "lat": 38.90250783333333, "bike_id": "cc70f4881646fa628e61c0914d275df2", "fusion_lon": 0.0}, {"rental_uris": {"ios": "https://dc.lft.to/lastmile_qr_scan", "android": "https://dc.lft.to/lastmile_qr_scan"}, "type": "electric_scooter", "name": "5c34b05efdd88acd327d2bfd1a8fd8cd", "is_reserved": 0, "lon": -77.02845283333333, "is_disabled": 0, "fusion_lat": 0.0, "lat": 38.903601333333334, "bike_id": "5c34b05efdd88acd327d2bfd1a8fd8cd", "fusion_lon": 0.0}, {"rental_uris": {"ios": "https://dc.lft.to/lastmile_qr_scan", "android": "https://dc.lft.to/lastmile_qr_scan"}, "type": "electric_scooter", "name": "163e5c8b65e319dad0d79c443c25fe7a", "is_reserved": 0, "lon": -77.09201716666666, "is_disabled": 0, "fusion_lat": 0.0, "lat": 38.917219833333334, "bike_id": "163e5c8b65e319dad0d79c443c25fe7a", "fusion_lon": 0.0}, {"rental_uris": {"ios": "https://dc.lft.to/lastmile_qr_scan", "android": "https://dc.lft.to/lastmile_qr_scan"}, "type": "electric_scooter", "name": "2eed6f8fa4a26561dedfa19fef56affa", "is_reserved": 0, "lon": -77.027018, "is_disabled": 0, "fusion_lat": 0.0, "lat": 38.89995166666667, "bike_id": "2eed6f8fa4a26561dedfa19fef56affa", "fusion_lon": 0.0}, {"rental_uris": {"ios": "https://dc.lft.to/lastmile_qr_scan", "android": "https://dc.lft.to/lastmile_qr_scan"}, "type": "electric_scooter", "name": "e059c8fb3a9cb3652a8b2eac05a7e168", "is_reserved": 0, "lon": -77.0240095, "is_disabled": 0, "fusion_lat": 0.0, "lat": 38.90587933333333, "bike_id": "e059c8fb3a9cb3652a8b2eac05a7e168", "fusion_lon": 0.0}, {"rental_uris": {"ios": "https://dc.lft.to/lastmile_qr_scan", "android": "https://dc.lft.to/lastmile_qr_scan"}, "type": "electric_scooter", "name": "d807d126deb3a39cd70fe4def9ecc169", "is_reserved": 0, "lon": -77.01439633333334, "is_disabled": 0, "fusion_lat": 0.0, "lat": 38.902391, "bike_id": "d807d126deb3a39cd70fe4def9ecc169", "fusion_lon": 0.0}, {"rental_uris": {"ios": "https://dc.lft.to/lastmile_qr_scan", "android": "https://dc.lft.to/lastmile_qr_scan"}, "type": "electric_bike", "name": "b98b318be3f8189173c77bac9667615e", "is_reserved": 0, "lon": -77.0203065, "is_disabled": 0, "fusion_lat": 0.0, "lat": 38.965595666666665, "bike_id": "b98b318be3f8189173c77bac9667615e", "fusion_lon": 0.0}, {"rental_uris": {"ios": "https://dc.lft.to/lastmile_qr_scan", "android": "https://dc.lft.to/lastmile_qr_scan"}, "type": "electric_scooter", "name": "716ceb4467cae7b69a4a1915d201b9ec", "is_reserved": 0, "lon": -77.02819266666667, "is_disabled": 0, "fusion_lat": 0.0, "lat": 38.9564345, "bike_id": "716ceb4467cae7b69a4a1915d201b9ec", "fusion_lon": 0.0}, {"rental_uris": {"ios": "https://dc.lft.to/lastmile_qr_scan", "android": "https://dc.lft.to/lastmile_qr_scan"}, "type": "electric_scooter", "name": "bbe343693e67bb1c767c0f6f5c15573b", "is_reserved": 0, "lon": -77.053346, "is_disabled": 0, "fusion_lat": 0.0, "lat": 38.9024005, "bike_id": "bbe343693e67bb1c767c0f6f5c15573b", "fusion_lon": 0.0}, {"rental_uris": {"ios": "https://dc.lft.to/lastmile_qr_scan", "android": "https://dc.lft.to/lastmile_qr_scan"}, "type": "electric_scooter", "name": "f4252a7007c336eb3613eb8310166298", "is_reserved": 0, "lon": -77.01791383333334, "is_disabled": 0, "fusion_lat": 0.0, "lat": 38.87683883333333, "bike_id": "f4252a7007c336eb3613eb8310166298", "fusion_lon": 0.0}, {"rental_uris": {"ios": "https://dc.lft.to/lastmile_qr_scan", "android": "https://dc.lft.to/lastmile_qr_scan"}, "type": "electric_scooter", "name": "ad15ed3acade450a497044b479a6055e", "is_reserved": 0, "lon": -77.039374, "is_disabled": 0, "fusion_lat": 0.0, "lat": 38.900207333333334, "bike_id": "ad15ed3acade450a497044b479a6055e", "fusion_lon": 0.0}, {"rental_uris": {"ios": "https://dc.lft.to/lastmile_qr_scan", "android": "https://dc.lft.to/lastmile_qr_scan"}, "type": "electric_scooter", "name": "fd4bfe0d107443168084b5bf1f06be54", "is_reserved": 0, "lon": -77.02301083333333, "is_disabled": 0, "fusion_lat": 0.0, "lat": 38.96127233333333, "bike_id": "fd4bfe0d107443168084b5bf1f06be54", "fusion_lon": 0.0}, {"rental_uris": {"ios": "https://dc.lft.to/lastmile_qr_scan", "android": "https://dc.lft.to/lastmile_qr_scan"}, "type": "electric_scooter", "name": "b1a0afd611e0c23b4adc27b4685aa29c", "is_reserved": 0, "lon": -77.053718, "is_disabled": 0, "fusion_lat": 0.0, "lat": 38.9038045, "bike_id": "b1a0afd611e0c23b4adc27b4685aa29c", "fusion_lon": 0.0}, {"rental_uris": {"ios": "https://dc.lft.to/lastmile_qr_scan", "android": "https://dc.lft.to/lastmile_qr_scan"}, "type": "electric_scooter", "name": "ff20df20884e839319ab626022754edc", "is_reserved": 0, "lon": -77.03175633333333, "is_disabled": 0, "fusion_lat": 0.0, "lat": 38.909718, "bike_id": "ff20df20884e839319ab626022754edc", "fusion_lon": 0.0}, {"rental_uris": {"ios": "https://dc.lft.to/lastmile_qr_scan", "android": "https://dc.lft.to/lastmile_qr_scan"}, "type": "electric_scooter", "name": "8da5f7a376d71777f998f34d8e630fb7", "is_reserved": 0, "lon": -77.03372983333334, "is_disabled": 0, "fusion_lat": 0.0, "lat": 38.91037716666666, "bike_id": "8da5f7a376d71777f998f34d8e630fb7", "fusion_lon": 0.0}, {"rental_uris": {"ios": "https://dc.lft.to/lastmile_qr_scan", "android": "https://dc.lft.to/lastmile_qr_scan"}, "type": "electric_scooter", "name": "3c882a101e797044986c7e0d8ef9e71c", "is_reserved": 0, "lon": -77.00600933333334, "is_disabled": 0, "fusion_lat": 0.0, "lat": 38.875759333333335, "bike_id": "3c882a101e797044986c7e0d8ef9e71c", "fusion_lon": 0.0}, {"rental_uris": {"ios": "https://dc.lft.to/lastmile_qr_scan", "android": "https://dc.lft.to/lastmile_qr_scan"}, "type": "electric_bike", "name": "3b6b73a070a86c8876e5de8c1630eb4d", "is_reserved": 0, "lon": -77.002059, "is_disabled": 0, "fusion_lat": 0.0, "lat": 38.988512166666666, "bike_id": "3b6b73a070a86c8876e5de8c1630eb4d", "fusion_lon": 0.0}, {"rental_uris": {"ios": "https://dc.lft.to/lastmile_qr_scan", "android": "https://dc.lft.to/lastmile_qr_scan"}, "type": "electric_scooter", "name": "30e6c369ac959ff2c1df1dc5537f7b4a", "is_reserved": 0, "lon": -77.038618, "is_disabled": 0, "fusion_lat": 0.0, "lat": 38.91113133333333, "bike_id": "30e6c369ac959ff2c1df1dc5537f7b4a", "fusion_lon": 0.0}, {"rental_uris": {"ios": "https://dc.lft.to/lastmile_qr_scan", "android": "https://dc.lft.to/lastmile_qr_scan"}, "type": "electric_scooter", "name": "f8d4d7303d95b0c3ff7673a0b3b3e63f", "is_reserved": 0, "lon": -77.0200125, "is_disabled": 0, "fusion_lat": 0.0, "lat": 38.91491633333333, "bike_id": "f8d4d7303d95b0c3ff7673a0b3b3e63f", "fusion_lon": 0.0}, {"rental_uris": {"ios": "https://dc.lft.to/lastmile_qr_scan", "android": "https://dc.lft.to/lastmile_qr_scan"}, "type": "electric_scooter", "name": "303e644deae9f402d4b19b4490aedaed", "is_reserved": 0, "lon": -77.02175666666666, "is_disabled": 0, "fusion_lat": 0.0, "lat": 38.909732, "bike_id": "303e644deae9f402d4b19b4490aedaed", "fusion_lon": 0.0}, {"rental_uris": {"ios": "https://dc.lft.to/lastmile_qr_scan", "android": "https://dc.lft.to/lastmile_qr_scan"}, "type": "electric_scooter", "name": "835a150f8506e2e6220f0dc36c5ea64f", "is_reserved": 0, "lon": -77.0292525, "is_disabled": 0, "fusion_lat": 0.0, "lat": 38.897431833333336, "bike_id": "835a150f8506e2e6220f0dc36c5ea64f", "fusion_lon": 0.0}, {"rental_uris": {"ios": "https://dc.lft.to/lastmile_qr_scan", "android": "https://dc.lft.to/lastmile_qr_scan"}, "type": "electric_scooter", "name": "13129f997fb753035cb862f5c11293f4", "is_reserved": 0, "lon": -77.04443483333333, "is_disabled": 0, "fusion_lat": 0.0, "lat": 38.912669333333334, "bike_id": "13129f997fb753035cb862f5c11293f4", "fusion_lon": 0.0}, {"rental_uris": {"ios": "https://dc.lft.to/lastmile_qr_scan", "android": "https://dc.lft.to/lastmile_qr_scan"}, "type": "electric_scooter", "name": "a63ea63878cfce01fb3ffa3fbca079d9", "is_reserved": 0, "lon": -76.9828025, "is_disabled": 0, "fusion_lat": 0.0, "lat": 38.903421, "bike_id": "a63ea63878cfce01fb3ffa3fbca079d9", "fusion_lon": 0.0}, {"rental_uris": {"ios": "https://dc.lft.to/lastmile_qr_scan", "android": "https://dc.lft.to/lastmile_qr_scan"}, "type": "electric_scooter", "name": "9545020da5091ad7c4783ade8a17419c", "is_reserved": 0, "lon": -77.03859466666667, "is_disabled": 0, "fusion_lat": 0.0, "lat": 38.911983666666664, "bike_id": "9545020da5091ad7c4783ade8a17419c", "fusion_lon": 0.0}, {"rental_uris": {"ios": "https://dc.lft.to/lastmile_qr_scan", "android": "https://dc.lft.to/lastmile_qr_scan"}, "type": "electric_scooter", "name": "c266ecb7bbfe21f6cecedaa5ec45e186", "is_reserved": 0, "lon": -77.02199016666667, "is_disabled": 0, "fusion_lat": 0.0, "lat": 38.895869166666664, "bike_id": "c266ecb7bbfe21f6cecedaa5ec45e186", "fusion_lon": 0.0}, {"rental_uris": {"ios": "https://dc.lft.to/lastmile_qr_scan", "android": "https://dc.lft.to/lastmile_qr_scan"}, "type": "electric_scooter", "name": "0cf173d6cc6a0c1a55654863e64f6496", "is_reserved": 0, "lon": -77.00723783333333, "is_disabled": 0, "fusion_lat": 0.0, "lat": 38.911949666666665, "bike_id": "0cf173d6cc6a0c1a55654863e64f6496", "fusion_lon": 0.0}, {"rental_uris": {"ios": "https://dc.lft.to/lastmile_qr_scan", "android": "https://dc.lft.to/lastmile_qr_scan"}, "type": "electric_scooter", "name": "efea4d338f7f91d38e70078543fc7965", "is_reserved": 0, "lon": -77.0737875, "is_disabled": 0, "fusion_lat": 0.0, "lat": 38.937634833333334, "bike_id": "efea4d338f7f91d38e70078543fc7965", "fusion_lon": 0.0}, {"rental_uris": {"ios": "https://dc.lft.to/lastmile_qr_scan", "android": "https://dc.lft.to/lastmile_qr_scan"}, "type": "electric_scooter", "name": "69e01d6e5b545bdb3f933745ca2199b7", "is_reserved": 0, "lon": -77.07284333333334, "is_disabled": 0, "fusion_lat": 0.0, "lat": 38.915903166666666, "bike_id": "69e01d6e5b545bdb3f933745ca2199b7", "fusion_lon": 0.0}, {"rental_uris": {"ios": "https://dc.lft.to/lastmile_qr_scan", "android": "https://dc.lft.to/lastmile_qr_scan"}, "type": "electric_scooter", "name": "67ce9c0da0f42368c2b1d27d8e6f6ffa", "is_reserved": 0, "lon": -77.03856983333333, "is_disabled": 0, "fusion_lat": 0.0, "lat": 38.91037, "bike_id": "67ce9c0da0f42368c2b1d27d8e6f6ffa", "fusion_lon": 0.0}, {"rental_uris": {"ios": "https://dc.lft.to/lastmile_qr_scan", "android": "https://dc.lft.to/lastmile_qr_scan"}, "type": "electric_scooter", "name": "a4b9f593a222905e6ca601ff074610e1", "is_reserved": 0, "lon": -77.03204316666667, "is_disabled": 0, "fusion_lat": 0.0, "lat": 38.9072905, "bike_id": "a4b9f593a222905e6ca601ff074610e1", "fusion_lon": 0.0}, {"rental_uris": {"ios": "https://dc.lft.to/lastmile_qr_scan", "android": "https://dc.lft.to/lastmile_qr_scan"}, "type": "electric_scooter", "name": "2ecf72e6d0e6dd985df5e4569eed3112", "is_reserved": 0, "lon": -77.01249183333333, "is_disabled": 0, "fusion_lat": 0.0, "lat": 38.89769416666667, "bike_id": "2ecf72e6d0e6dd985df5e4569eed3112", "fusion_lon": 0.0}, {"rental_uris": {"ios": "https://dc.lft.to/lastmile_qr_scan", "android": "https://dc.lft.to/lastmile_qr_scan"}, "type": "electric_scooter", "name": "02f8427fbae6818ba8c21206dc09f3f5", "is_reserved": 0, "lon": -77.03854016666666, "is_disabled": 0, "fusion_lat": 0.0, "lat": 38.91667366666667, "bike_id": "02f8427fbae6818ba8c21206dc09f3f5", "fusion_lon": 0.0}, {"rental_uris": {"ios": "https://dc.lft.to/lastmile_qr_scan", "android": "https://dc.lft.to/lastmile_qr_scan"}, "type": "electric_scooter", "name": "30d9634f765cf8633b57b872545a7566", "is_reserved": 0, "lon": -77.00619433333334, "is_disabled": 0, "fusion_lat": 0.0, "lat": 38.90546233333333, "bike_id": "30d9634f765cf8633b57b872545a7566", "fusion_lon": 0.0}, {"rental_uris": {"ios": "https://dc.lft.to/lastmile_qr_scan", "android": "https://dc.lft.to/lastmile_qr_scan"}, "type": "electric_scooter", "name": "32998c60bc7eae13db7c3dd3d256b82d", "is_reserved": 0, "lon": -77.0262385, "is_disabled": 0, "fusion_lat": 0.0, "lat": 38.89221283333333, "bike_id": "32998c60bc7eae13db7c3dd3d256b82d", "fusion_lon": 0.0}, {"rental_uris": {"ios": "https://dc.lft.to/lastmile_qr_scan", "android": "https://dc.lft.to/lastmile_qr_scan"}, "type": "electric_scooter", "name": "d8849f6ae5b0d818ee233870ad52ee8b", "is_reserved": 0, "lon": -77.03066883333334, "is_disabled": 0, "fusion_lat": 0.0, "lat": 38.8983015, "bike_id": "d8849f6ae5b0d818ee233870ad52ee8b", "fusion_lon": 0.0}, {"rental_uris": {"ios": "https://dc.lft.to/lastmile_qr_scan", "android": "https://dc.lft.to/lastmile_qr_scan"}, "type": "electric_scooter", "name": "2d60713a1a1f3e9d1f937c0287de7794", "is_reserved": 0, "lon": -77.01954233333333, "is_disabled": 0, "fusion_lat": 0.0, "lat": 38.950432666666664, "bike_id": "2d60713a1a1f3e9d1f937c0287de7794", "fusion_lon": 0.0}, {"rental_uris": {"ios": "https://dc.lft.to/lastmile_qr_scan", "android": "https://dc.lft.to/lastmile_qr_scan"}, "type": "electric_bike", "name": "5d28808195ca9e9fcae094051c1dd288", "is_reserved": 0, "lon": -76.95158716666667, "is_disabled": 0, "fusion_lat": 0.0, "lat": 39.08440183333333, "bike_id": "5d28808195ca9e9fcae094051c1dd288", "fusion_lon": 0.0}, {"rental_uris": {"ios": "https://dc.lft.to/lastmile_qr_scan", "android": "https://dc.lft.to/lastmile_qr_scan"}, "type": "electric_bike", "name": "fb4a4411d6d75c25920883dd88f7f186", "is_reserved": 0, "lon": -76.97547566666667, "is_disabled": 0, "fusion_lat": 0.0, "lat": 38.9042745, "bike_id": "fb4a4411d6d75c25920883dd88f7f186", "fusion_lon": 0.0}, {"rental_uris": {"ios": "https://dc.lft.to/lastmile_qr_scan", "android": "https://dc.lft.to/lastmile_qr_scan"}, "type": "electric_scooter", "name": "1b42efb11f8c2177eaa0827f7ba00929", "is_reserved": 0, "lon": -77.00157333333334, "is_disabled": 0, "fusion_lat": 0.0, "lat": 38.82132566666667, "bike_id": "1b42efb11f8c2177eaa0827f7ba00929", "fusion_lon": 0.0}, {"rental_uris": {"ios": "https://dc.lft.to/lastmile_qr_scan", "android": "https://dc.lft.to/lastmile_qr_scan"}, "type": "electric_scooter", "name": "0822bc6750be904ad4a85f5e624577a9", "is_reserved": 0, "lon": -77.01388083333333, "is_disabled": 0, "fusion_lat": 0.0, "lat": 38.919562666666664, "bike_id": "0822bc6750be904ad4a85f5e624577a9", "fusion_lon": 0.0}, {"rental_uris": {"ios": "https://dc.lft.to/lastmile_qr_scan", "android": "https://dc.lft.to/lastmile_qr_scan"}, "type": "electric_scooter", "name": "2066fddfbcaabd3f19793b974943565e", "is_reserved": 0, "lon": -76.99945816666667, "is_disabled": 0, "fusion_lat": 0.0, "lat": 38.890944, "bike_id": "2066fddfbcaabd3f19793b974943565e", "fusion_lon": 0.0}, {"rental_uris": {"ios": "https://dc.lft.to/lastmile_qr_scan", "android": "https://dc.lft.to/lastmile_qr_scan"}, "type": "electric_scooter", "name": "8db31854d6eb76d3b2f2ba1ac6d2eaa1", "is_reserved": 0, "lon": -77.0757045, "is_disabled": 0, "fusion_lat": 0.0, "lat": 38.906333000000004, "bike_id": "8db31854d6eb76d3b2f2ba1ac6d2eaa1", "fusion_lon": 0.0}, {"rental_uris": {"ios": "https://dc.lft.to/lastmile_qr_scan", "android": "https://dc.lft.to/lastmile_qr_scan"}, "type": "electric_scooter", "name": "228244c7fd321f66710b6ef9ee534ce9", "is_reserved": 0, "lon": -77.01724733333333, "is_disabled": 0, "fusion_lat": 0.0, "lat": 38.8922695, "bike_id": "228244c7fd321f66710b6ef9ee534ce9", "fusion_lon": 0.0}, {"rental_uris": {"ios": "https://dc.lft.to/lastmile_qr_scan", "android": "https://dc.lft.to/lastmile_qr_scan"}, "type": "electric_scooter", "name": "5472260c3d655daa7cad9371f07282c9", "is_reserved": 0, "lon": -77.07258733333333, "is_disabled": 0, "fusion_lat": 0.0, "lat": 38.934406333333335, "bike_id": "5472260c3d655daa7cad9371f07282c9", "fusion_lon": 0.0}, {"rental_uris": {"ios": "https://dc.lft.to/lastmile_qr_scan", "android": "https://dc.lft.to/lastmile_qr_scan"}, "type": "electric_scooter", "name": "7e3c5785604fef3b7e2bd3d9fea2c007", "is_reserved": 0, "lon": -77.0293855, "is_disabled": 0, "fusion_lat": 0.0, "lat": 38.898119333333334, "bike_id": "7e3c5785604fef3b7e2bd3d9fea2c007", "fusion_lon": 0.0}, {"rental_uris": {"ios": "https://dc.lft.to/lastmile_qr_scan", "android": "https://dc.lft.to/lastmile_qr_scan"}, "type": "electric_scooter", "name": "46192bd6f373cf70d1c8022a072027f2", "is_reserved": 0, "lon": -77.04120916666666, "is_disabled": 0, "fusion_lat": 0.0, "lat": 38.93103966666666, "bike_id": "46192bd6f373cf70d1c8022a072027f2", "fusion_lon": 0.0}, {"rental_uris": {"ios": "https://dc.lft.to/lastmile_qr_scan", "android": "https://dc.lft.to/lastmile_qr_scan"}, "type": "electric_scooter", "name": "73b4af06fe73fb7817713c6018d2fe01", "is_reserved": 0, "lon": -76.98636766666667, "is_disabled": 0, "fusion_lat": 0.0, "lat": 38.855116, "bike_id": "73b4af06fe73fb7817713c6018d2fe01", "fusion_lon": 0.0}, {"rental_uris": {"ios": "https://dc.lft.to/lastmile_qr_scan", "android": "https://dc.lft.to/lastmile_qr_scan"}, "type": "electric_scooter", "name": "f3b4f39434cfef31f695ae341fe4aed9", "is_reserved": 0, "lon": -76.98841766666666, "is_disabled": 0, "fusion_lat": 0.0, "lat": 38.9004435, "bike_id": "f3b4f39434cfef31f695ae341fe4aed9", "fusion_lon": 0.0}, {"rental_uris": {"ios": "https://dc.lft.to/lastmile_qr_scan", "android": "https://dc.lft.to/lastmile_qr_scan"}, "type": "electric_scooter", "name": "dde9e95ceb8533329674591cafb94372", "is_reserved": 0, "lon": -77.03177383333333, "is_disabled": 0, "fusion_lat": 0.0, "lat": 38.8997825, "bike_id": "dde9e95ceb8533329674591cafb94372", "fusion_lon": 0.0}, {"rental_uris": {"ios": "https://dc.lft.to/lastmile_qr_scan", "android": "https://dc.lft.to/lastmile_qr_scan"}, "type": "electric_scooter", "name": "39b4f56eb60cce07fd1cd7eea527301e", "is_reserved": 0, "lon": -77.04658833333333, "is_disabled": 0, "fusion_lat": 0.0, "lat": 38.897491333333335, "bike_id": "39b4f56eb60cce07fd1cd7eea527301e", "fusion_lon": 0.0}, {"rental_uris": {"ios": "https://dc.lft.to/lastmile_qr_scan", "android": "https://dc.lft.to/lastmile_qr_scan"}, "type": "electric_scooter", "name": "e1242cb8d4eccfa8fa25ebc774598fc4", "is_reserved": 0, "lon": -76.998741, "is_disabled": 0, "fusion_lat": 0.0, "lat": 38.9002935, "bike_id": "e1242cb8d4eccfa8fa25ebc774598fc4", "fusion_lon": 0.0}, {"rental_uris": {"ios": "https://dc.lft.to/lastmile_qr_scan", "android": "https://dc.lft.to/lastmile_qr_scan"}, "type": "electric_scooter", "name": "6ee3ab0eb9d6da3cd2b98033f3dd260f", "is_reserved": 0, "lon": -77.0168075, "is_disabled": 0, "fusion_lat": 0.0, "lat": 38.91268733333333, "bike_id": "6ee3ab0eb9d6da3cd2b98033f3dd260f", "fusion_lon": 0.0}, {"rental_uris": {"ios": "https://dc.lft.to/lastmile_qr_scan", "android": "https://dc.lft.to/lastmile_qr_scan"}, "type": "electric_scooter", "name": "bd3381d6860db3645496d5616296fd23", "is_reserved": 0, "lon": -77.02832216666667, "is_disabled": 0, "fusion_lat": 0.0, "lat": 38.897215833333334, "bike_id": "bd3381d6860db3645496d5616296fd23", "fusion_lon": 0.0}, {"rental_uris": {"ios": "https://dc.lft.to/lastmile_qr_scan", "android": "https://dc.lft.to/lastmile_qr_scan"}, "type": "electric_scooter", "name": "d581117ab14a7676c27e9ebc93f8cbdb", "is_reserved": 0, "lon": -77.038714, "is_disabled": 0, "fusion_lat": 0.0, "lat": 38.921541500000004, "bike_id": "d581117ab14a7676c27e9ebc93f8cbdb", "fusion_lon": 0.0}, {"rental_uris": {"ios": "https://dc.lft.to/lastmile_qr_scan", "android": "https://dc.lft.to/lastmile_qr_scan"}, "type": "electric_scooter", "name": "ac067e0d7fe28c6ab0ddbeabd174676a", "is_reserved": 0, "lon": -77.04402216666666, "is_disabled": 0, "fusion_lat": 0.0, "lat": 38.91087266666667, "bike_id": "ac067e0d7fe28c6ab0ddbeabd174676a", "fusion_lon": 0.0}, {"rental_uris": {"ios": "https://dc.lft.to/lastmile_qr_scan", "android": "https://dc.lft.to/lastmile_qr_scan"}, "type": "electric_scooter", "name": "6257b01c31ca2e143ad0124ed257a3b3", "is_reserved": 0, "lon": -77.02394716666667, "is_disabled": 0, "fusion_lat": 0.0, "lat": 38.93255766666667, "bike_id": "6257b01c31ca2e143ad0124ed257a3b3", "fusion_lon": 0.0}, {"rental_uris": {"ios": "https://dc.lft.to/lastmile_qr_scan", "android": "https://dc.lft.to/lastmile_qr_scan"}, "type": "electric_scooter", "name": "4d3ae191d5a3fc26ac1430c43f4bb53c", "is_reserved": 0, "lon": -77.0302385, "is_disabled": 0, "fusion_lat": 0.0, "lat": 38.92247916666667, "bike_id": "4d3ae191d5a3fc26ac1430c43f4bb53c", "fusion_lon": 0.0}, {"rental_uris": {"ios": "https://dc.lft.to/lastmile_qr_scan", "android": "https://dc.lft.to/lastmile_qr_scan"}, "type": "electric_bike", "name": "036b3868125a6d7e8b54eeb8fa8d633b", "is_reserved": 0, "lon": -77.01227683333333, "is_disabled": 0, "fusion_lat": 0.0, "lat": 38.95091733333334, "bike_id": "036b3868125a6d7e8b54eeb8fa8d633b", "fusion_lon": 0.0}, {"rental_uris": {"ios": "https://dc.lft.to/lastmile_qr_scan", "android": "https://dc.lft.to/lastmile_qr_scan"}, "type": "electric_scooter", "name": "116ffeec73fd02d0c347cb58a8644194", "is_reserved": 0, "lon": -77.01985383333333, "is_disabled": 0, "fusion_lat": 0.0, "lat": 38.90073983333333, "bike_id": "116ffeec73fd02d0c347cb58a8644194", "fusion_lon": 0.0}, {"rental_uris": {"ios": "https://dc.lft.to/lastmile_qr_scan", "android": "https://dc.lft.to/lastmile_qr_scan"}, "type": "electric_scooter", "name": "7a0feec041a8d856cba6edb508f66a37", "is_reserved": 0, "lon": -77.02757616666666, "is_disabled": 0, "fusion_lat": 0.0, "lat": 38.90115866666667, "bike_id": "7a0feec041a8d856cba6edb508f66a37", "fusion_lon": 0.0}, {"rental_uris": {"ios": "https://dc.lft.to/lastmile_qr_scan", "android": "https://dc.lft.to/lastmile_qr_scan"}, "type": "electric_scooter", "name": "8804560993d30c12e18d776b433a71e2", "is_reserved": 0, "lon": -76.99844683333333, "is_disabled": 0, "fusion_lat": 0.0, "lat": 38.90302, "bike_id": "8804560993d30c12e18d776b433a71e2", "fusion_lon": 0.0}, {"rental_uris": {"ios": "https://dc.lft.to/lastmile_qr_scan", "android": "https://dc.lft.to/lastmile_qr_scan"}, "type": "electric_scooter", "name": "ea7e8ea6da08e09e1ed65476691f3d72", "is_reserved": 0, "lon": -77.03439266666666, "is_disabled": 0, "fusion_lat": 0.0, "lat": 38.91115633333333, "bike_id": "ea7e8ea6da08e09e1ed65476691f3d72", "fusion_lon": 0.0}, {"rental_uris": {"ios": "https://dc.lft.to/lastmile_qr_scan", "android": "https://dc.lft.to/lastmile_qr_scan"}, "type": "electric_scooter", "name": "05b67686284f2e7f69a154a969953385", "is_reserved": 0, "lon": -77.03637866666666, "is_disabled": 0, "fusion_lat": 0.0, "lat": 38.93368733333333, "bike_id": "05b67686284f2e7f69a154a969953385", "fusion_lon": 0.0}, {"rental_uris": {"ios": "https://dc.lft.to/lastmile_qr_scan", "android": "https://dc.lft.to/lastmile_qr_scan"}, "type": "electric_bike", "name": "1d38cb4fe525e034058fd8e92da15a71", "is_reserved": 0, "lon": -76.90299416666667, "is_disabled": 0, "fusion_lat": 0.0, "lat": 39.0029615, "bike_id": "1d38cb4fe525e034058fd8e92da15a71", "fusion_lon": 0.0}, {"rental_uris": {"ios": "https://dc.lft.to/lastmile_qr_scan", "android": "https://dc.lft.to/lastmile_qr_scan"}, "type": "electric_scooter", "name": "b107930e625d9f24da1981305c8f8cae", "is_reserved": 0, "lon": -77.00209183333334, "is_disabled": 0, "fusion_lat": 0.0, "lat": 38.9146335, "bike_id": "b107930e625d9f24da1981305c8f8cae", "fusion_lon": 0.0}, {"rental_uris": {"ios": "https://dc.lft.to/lastmile_qr_scan", "android": "https://dc.lft.to/lastmile_qr_scan"}, "type": "electric_scooter", "name": "85f5db43dc0f6c410aaf5c42a9878e6b", "is_reserved": 0, "lon": -77.03662833333334, "is_disabled": 0, "fusion_lat": 0.0, "lat": 38.921218333333336, "bike_id": "85f5db43dc0f6c410aaf5c42a9878e6b", "fusion_lon": 0.0}, {"rental_uris": {"ios": "https://dc.lft.to/lastmile_qr_scan", "android": "https://dc.lft.to/lastmile_qr_scan"}, "type": "electric_scooter", "name": "1741cd09511fdd9a2d84e8d5d83c9a21", "is_reserved": 0, "lon": -76.99411466666666, "is_disabled": 0, "fusion_lat": 0.0, "lat": 38.8778535, "bike_id": "1741cd09511fdd9a2d84e8d5d83c9a21", "fusion_lon": 0.0}, {"rental_uris": {"ios": "https://dc.lft.to/lastmile_qr_scan", "android": "https://dc.lft.to/lastmile_qr_scan"}, "type": "electric_scooter", "name": "a16c6833a8ec3728469f77d15b494202", "is_reserved": 0, "lon": -77.04671466666667, "is_disabled": 0, "fusion_lat": 0.0, "lat": 38.897459833333336, "bike_id": "a16c6833a8ec3728469f77d15b494202", "fusion_lon": 0.0}, {"rental_uris": {"ios": "https://dc.lft.to/lastmile_qr_scan", "android": "https://dc.lft.to/lastmile_qr_scan"}, "type": "electric_scooter", "name": "61e6730b1b0dffd69cd512c8b0b290eb", "is_reserved": 0, "lon": -77.0354745, "is_disabled": 0, "fusion_lat": 0.0, "lat": 38.92338683333333, "bike_id": "61e6730b1b0dffd69cd512c8b0b290eb", "fusion_lon": 0.0}, {"rental_uris": {"ios": "https://dc.lft.to/lastmile_qr_scan", "android": "https://dc.lft.to/lastmile_qr_scan"}, "type": "electric_scooter", "name": "76d79c2a872d007acd0ba88cc62e562e", "is_reserved": 0, "lon": -77.03472016666667, "is_disabled": 0, "fusion_lat": 0.0, "lat": 38.920499666666664, "bike_id": "76d79c2a872d007acd0ba88cc62e562e", "fusion_lon": 0.0}, {"rental_uris": {"ios": "https://dc.lft.to/lastmile_qr_scan", "android": "https://dc.lft.to/lastmile_qr_scan"}, "type": "electric_scooter", "name": "380d4d3118e8247e2d1410524dec4298", "is_reserved": 0, "lon": -77.02027333333334, "is_disabled": 0, "fusion_lat": 0.0, "lat": 38.90139833333333, "bike_id": "380d4d3118e8247e2d1410524dec4298", "fusion_lon": 0.0}, {"rental_uris": {"ios": "https://dc.lft.to/lastmile_qr_scan", "android": "https://dc.lft.to/lastmile_qr_scan"}, "type": "electric_scooter", "name": "f91832ef19e50f7843ceb2139db6244c", "is_reserved": 0, "lon": -77.02809683333334, "is_disabled": 0, "fusion_lat": 0.0, "lat": 38.9093975, "bike_id": "f91832ef19e50f7843ceb2139db6244c", "fusion_lon": 0.0}, {"rental_uris": {"ios": "https://dc.lft.to/lastmile_qr_scan", "android": "https://dc.lft.to/lastmile_qr_scan"}, "type": "electric_scooter", "name": "cbd8d04a7ca00a921a54a06b2029042b", "is_reserved": 0, "lon": -77.0239485, "is_disabled": 0, "fusion_lat": 0.0, "lat": 38.92604016666667, "bike_id": "cbd8d04a7ca00a921a54a06b2029042b", "fusion_lon": 0.0}, {"rental_uris": {"ios": "https://dc.lft.to/lastmile_qr_scan", "android": "https://dc.lft.to/lastmile_qr_scan"}, "type": "electric_scooter", "name": "7301b56e0a4cf90cdae21fd31272952c", "is_reserved": 0, "lon": -77.01188133333333, "is_disabled": 0, "fusion_lat": 0.0, "lat": 38.900405, "bike_id": "7301b56e0a4cf90cdae21fd31272952c", "fusion_lon": 0.0}, {"rental_uris": {"ios": "https://dc.lft.to/lastmile_qr_scan", "android": "https://dc.lft.to/lastmile_qr_scan"}, "type": "electric_scooter", "name": "3b229affa915249bf3e74e43653b5cac", "is_reserved": 0, "lon": -77.01267583333333, "is_disabled": 0, "fusion_lat": 0.0, "lat": 38.91564983333333, "bike_id": "3b229affa915249bf3e74e43653b5cac", "fusion_lon": 0.0}, {"rental_uris": {"ios": "https://dc.lft.to/lastmile_qr_scan", "android": "https://dc.lft.to/lastmile_qr_scan"}, "type": "electric_scooter", "name": "3ecc0bb40b883fbc54def553bef1f0c2", "is_reserved": 0, "lon": -77.011902, "is_disabled": 0, "fusion_lat": 0.0, "lat": 38.91554416666666, "bike_id": "3ecc0bb40b883fbc54def553bef1f0c2", "fusion_lon": 0.0}, {"rental_uris": {"ios": "https://dc.lft.to/lastmile_qr_scan", "android": "https://dc.lft.to/lastmile_qr_scan"}, "type": "electric_scooter", "name": "d685664a1a18ef7c72ff6984737741ac", "is_reserved": 0, "lon": -77.02759083333333, "is_disabled": 0, "fusion_lat": 0.0, "lat": 38.90494266666666, "bike_id": "d685664a1a18ef7c72ff6984737741ac", "fusion_lon": 0.0}, {"rental_uris": {"ios": "https://dc.lft.to/lastmile_qr_scan", "android": "https://dc.lft.to/lastmile_qr_scan"}, "type": "electric_bike", "name": "b07023300f2dc89fd37115fe2836543f", "is_reserved": 0, "lon": -77.08983933333333, "is_disabled": 0, "fusion_lat": 0.0, "lat": 38.911782333333335, "bike_id": "b07023300f2dc89fd37115fe2836543f", "fusion_lon": 0.0}, {"rental_uris": {"ios": "https://dc.lft.to/lastmile_qr_scan", "android": "https://dc.lft.to/lastmile_qr_scan"}, "type": "electric_scooter", "name": "c2dff93e742607570e2ea15e88187bbc", "is_reserved": 0, "lon": -77.006941, "is_disabled": 0, "fusion_lat": 0.0, "lat": 38.900115, "bike_id": "c2dff93e742607570e2ea15e88187bbc", "fusion_lon": 0.0}, {"rental_uris": {"ios": "https://dc.lft.to/lastmile_qr_scan", "android": "https://dc.lft.to/lastmile_qr_scan"}, "type": "electric_scooter", "name": "3514126a2dd641564cf5fe392328eb9d", "is_reserved": 0, "lon": -77.07824583333333, "is_disabled": 0, "fusion_lat": 0.0, "lat": 38.922595, "bike_id": "3514126a2dd641564cf5fe392328eb9d", "fusion_lon": 0.0}, {"rental_uris": {"ios": "https://dc.lft.to/lastmile_qr_scan", "android": "https://dc.lft.to/lastmile_qr_scan"}, "type": "electric_scooter", "name": "df28d52305a59d219c2c44c56180e1c1", "is_reserved": 0, "lon": -77.01871733333333, "is_disabled": 0, "fusion_lat": 0.0, "lat": 38.9141795, "bike_id": "df28d52305a59d219c2c44c56180e1c1", "fusion_lon": 0.0}, {"rental_uris": {"ios": "https://dc.lft.to/lastmile_qr_scan", "android": "https://dc.lft.to/lastmile_qr_scan"}, "type": "electric_scooter", "name": "d5c86452c13310aa0e0a36179d38ebd6", "is_reserved": 0, "lon": -77.03532283333334, "is_disabled": 0, "fusion_lat": 0.0, "lat": 38.92344633333333, "bike_id": "d5c86452c13310aa0e0a36179d38ebd6", "fusion_lon": 0.0}, {"rental_uris": {"ios": "https://dc.lft.to/lastmile_qr_scan", "android": "https://dc.lft.to/lastmile_qr_scan"}, "type": "electric_scooter", "name": "1f5ca3d3da5c7b3a6d98851a822f2429", "is_reserved": 0, "lon": -77.02680316666667, "is_disabled": 0, "fusion_lat": 0.0, "lat": 38.90060866666666, "bike_id": "1f5ca3d3da5c7b3a6d98851a822f2429", "fusion_lon": 0.0}, {"rental_uris": {"ios": "https://dc.lft.to/lastmile_qr_scan", "android": "https://dc.lft.to/lastmile_qr_scan"}, "type": "electric_scooter", "name": "b501e2ef0957534714614d9f6e36fb42", "is_reserved": 0, "lon": -77.0159075, "is_disabled": 0, "fusion_lat": 0.0, "lat": 38.899757, "bike_id": "b501e2ef0957534714614d9f6e36fb42", "fusion_lon": 0.0}, {"rental_uris": {"ios": "https://dc.lft.to/lastmile_qr_scan", "android": "https://dc.lft.to/lastmile_qr_scan"}, "type": "electric_scooter", "name": "8971bec03a6fe88c40fc73ca4dcad379", "is_reserved": 0, "lon": -77.03202633333333, "is_disabled": 0, "fusion_lat": 0.0, "lat": 38.91656483333333, "bike_id": "8971bec03a6fe88c40fc73ca4dcad379", "fusion_lon": 0.0}, {"rental_uris": {"ios": "https://dc.lft.to/lastmile_qr_scan", "android": "https://dc.lft.to/lastmile_qr_scan"}, "type": "electric_scooter", "name": "f0909029c43b35b942a39c0f4aae8ab2", "is_reserved": 0, "lon": -76.94664816666666, "is_disabled": 0, "fusion_lat": 0.0, "lat": 38.898685, "bike_id": "f0909029c43b35b942a39c0f4aae8ab2", "fusion_lon": 0.0}, {"rental_uris": {"ios": "https://dc.lft.to/lastmile_qr_scan", "android": "https://dc.lft.to/lastmile_qr_scan"}, "type": "electric_scooter", "name": "2799a87a52d2414b6f72fd5de0eca2de", "is_reserved": 0, "lon": -77.00899483333333, "is_disabled": 0, "fusion_lat": 0.0, "lat": 38.89595083333333, "bike_id": "2799a87a52d2414b6f72fd5de0eca2de", "fusion_lon": 0.0}, {"rental_uris": {"ios": "https://dc.lft.to/lastmile_qr_scan", "android": "https://dc.lft.to/lastmile_qr_scan"}, "type": "electric_scooter", "name": "cf05336bf265b15dcc37139461c3d91e", "is_reserved": 0, "lon": -77.023097, "is_disabled": 0, "fusion_lat": 0.0, "lat": 38.918451833333336, "bike_id": "cf05336bf265b15dcc37139461c3d91e", "fusion_lon": 0.0}, {"rental_uris": {"ios": "https://dc.lft.to/lastmile_qr_scan", "android": "https://dc.lft.to/lastmile_qr_scan"}, "type": "electric_scooter", "name": "85c761ed4724928210a2e4e5c50e6daf", "is_reserved": 0, "lon": -77.0212325, "is_disabled": 0, "fusion_lat": 0.0, "lat": 38.9126995, "bike_id": "85c761ed4724928210a2e4e5c50e6daf", "fusion_lon": 0.0}, {"rental_uris": {"ios": "https://dc.lft.to/lastmile_qr_scan", "android": "https://dc.lft.to/lastmile_qr_scan"}, "type": "electric_scooter", "name": "1270f7098e36ad09089e77b0574f725a", "is_reserved": 0, "lon": -77.040841, "is_disabled": 0, "fusion_lat": 0.0, "lat": 38.920267833333334, "bike_id": "1270f7098e36ad09089e77b0574f725a", "fusion_lon": 0.0}, {"rental_uris": {"ios": "https://dc.lft.to/lastmile_qr_scan", "android": "https://dc.lft.to/lastmile_qr_scan"}, "type": "electric_scooter", "name": "092f00a02a24bd3901bd0b0ec9873634", "is_reserved": 0, "lon": -77.02739283333334, "is_disabled": 0, "fusion_lat": 0.0, "lat": 38.92385916666667, "bike_id": "092f00a02a24bd3901bd0b0ec9873634", "fusion_lon": 0.0}, {"rental_uris": {"ios": "https://dc.lft.to/lastmile_qr_scan", "android": "https://dc.lft.to/lastmile_qr_scan"}, "type": "electric_scooter", "name": "63e5b1df186672bd6fdf0b774df2d5d9", "is_reserved": 0, "lon": -77.0522505, "is_disabled": 0, "fusion_lat": 0.0, "lat": 38.92466533333333, "bike_id": "63e5b1df186672bd6fdf0b774df2d5d9", "fusion_lon": 0.0}, {"rental_uris": {"ios": "https://dc.lft.to/lastmile_qr_scan", "android": "https://dc.lft.to/lastmile_qr_scan"}, "type": "electric_scooter", "name": "38477611d9aa2178f395b012a1f7d3f4", "is_reserved": 0, "lon": -77.03201533333333, "is_disabled": 0, "fusion_lat": 0.0, "lat": 38.9165365, "bike_id": "38477611d9aa2178f395b012a1f7d3f4", "fusion_lon": 0.0}, {"rental_uris": {"ios": "https://dc.lft.to/lastmile_qr_scan", "android": "https://dc.lft.to/lastmile_qr_scan"}, "type": "electric_scooter", "name": "27627505afc674330c4ad8d345f2a45f", "is_reserved": 0, "lon": -77.0236615, "is_disabled": 0, "fusion_lat": 0.0, "lat": 38.9209365, "bike_id": "27627505afc674330c4ad8d345f2a45f", "fusion_lon": 0.0}, {"rental_uris": {"ios": "https://dc.lft.to/lastmile_qr_scan", "android": "https://dc.lft.to/lastmile_qr_scan"}, "type": "electric_scooter", "name": "92c8d8e13bca03cdc592624c0314e559", "is_reserved": 0, "lon": -76.932654, "is_disabled": 0, "fusion_lat": 0.0, "lat": 38.887457, "bike_id": "92c8d8e13bca03cdc592624c0314e559", "fusion_lon": 0.0}, {"rental_uris": {"ios": "https://dc.lft.to/lastmile_qr_scan", "android": "https://dc.lft.to/lastmile_qr_scan"}, "type": "electric_scooter", "name": "5405eed460f386dbef400ef0e0cf3bc0", "is_reserved": 0, "lon": -77.04047283333334, "is_disabled": 0, "fusion_lat": 0.0, "lat": 38.91791083333333, "bike_id": "5405eed460f386dbef400ef0e0cf3bc0", "fusion_lon": 0.0}, {"rental_uris": {"ios": "https://dc.lft.to/lastmile_qr_scan", "android": "https://dc.lft.to/lastmile_qr_scan"}, "type": "electric_bike", "name": "21cc4a985211698ff667d596289f1035", "is_reserved": 0, "lon": -77.08205, "is_disabled": 0, "fusion_lat": 0.0, "lat": 38.92207583333333, "bike_id": "21cc4a985211698ff667d596289f1035", "fusion_lon": 0.0}, {"rental_uris": {"ios": "https://dc.lft.to/lastmile_qr_scan", "android": "https://dc.lft.to/lastmile_qr_scan"}, "type": "electric_scooter", "name": "2d3fb44a8ba7d9c38f948559c6703ac6", "is_reserved": 0, "lon": -77.03065316666667, "is_disabled": 0, "fusion_lat": 0.0, "lat": 38.897210666666666, "bike_id": "2d3fb44a8ba7d9c38f948559c6703ac6", "fusion_lon": 0.0}, {"rental_uris": {"ios": "https://dc.lft.to/lastmile_qr_scan", "android": "https://dc.lft.to/lastmile_qr_scan"}, "type": "electric_scooter", "name": "f8cc2c491a11b307eb9773f5da4a684e", "is_reserved": 0, "lon": -77.02835283333333, "is_disabled": 0, "fusion_lat": 0.0, "lat": 38.90450333333333, "bike_id": "f8cc2c491a11b307eb9773f5da4a684e", "fusion_lon": 0.0}, {"rental_uris": {"ios": "https://dc.lft.to/lastmile_qr_scan", "android": "https://dc.lft.to/lastmile_qr_scan"}, "type": "electric_scooter", "name": "be24b4adc4bde5cfb8cadaa174d9762b", "is_reserved": 0, "lon": -76.94715983333333, "is_disabled": 0, "fusion_lat": 0.0, "lat": 38.890872333333334, "bike_id": "be24b4adc4bde5cfb8cadaa174d9762b", "fusion_lon": 0.0}, {"rental_uris": {"ios": "https://dc.lft.to/lastmile_qr_scan", "android": "https://dc.lft.to/lastmile_qr_scan"}, "type": "electric_scooter", "name": "7d339c4d495df620bc1d4840c5f87326", "is_reserved": 0, "lon": -77.03141583333333, "is_disabled": 0, "fusion_lat": 0.0, "lat": 38.906355, "bike_id": "7d339c4d495df620bc1d4840c5f87326", "fusion_lon": 0.0}, {"rental_uris": {"ios": "https://dc.lft.to/lastmile_qr_scan", "android": "https://dc.lft.to/lastmile_qr_scan"}, "type": "electric_scooter", "name": "c67bb0eac8e14164c5752d8f51b07737", "is_reserved": 0, "lon": -77.03849566666666, "is_disabled": 0, "fusion_lat": 0.0, "lat": 38.909980833333336, "bike_id": "c67bb0eac8e14164c5752d8f51b07737", "fusion_lon": 0.0}, {"rental_uris": {"ios": "https://dc.lft.to/lastmile_qr_scan", "android": "https://dc.lft.to/lastmile_qr_scan"}, "type": "electric_scooter", "name": "83bbf151fc3427bdd50744057add134e", "is_reserved": 0, "lon": -77.00208583333334, "is_disabled": 0, "fusion_lat": 0.0, "lat": 38.90798383333333, "bike_id": "83bbf151fc3427bdd50744057add134e", "fusion_lon": 0.0}, {"rental_uris": {"ios": "https://dc.lft.to/lastmile_qr_scan", "android": "https://dc.lft.to/lastmile_qr_scan"}, "type": "electric_bike", "name": "3cadc44574c3d8c27bc2e99848bf30b7", "is_reserved": 0, "lon": -76.95750233333334, "is_disabled": 0, "fusion_lat": 0.0, "lat": 38.8885755, "bike_id": "3cadc44574c3d8c27bc2e99848bf30b7", "fusion_lon": 0.0}, {"rental_uris": {"ios": "https://dc.lft.to/lastmile_qr_scan", "android": "https://dc.lft.to/lastmile_qr_scan"}, "type": "electric_scooter", "name": "65831aa98f3d8807b0823efdd87685b6", "is_reserved": 0, "lon": -77.02962283333333, "is_disabled": 0, "fusion_lat": 0.0, "lat": 38.916822833333335, "bike_id": "65831aa98f3d8807b0823efdd87685b6", "fusion_lon": 0.0}, {"rental_uris": {"ios": "https://dc.lft.to/lastmile_qr_scan", "android": "https://dc.lft.to/lastmile_qr_scan"}, "type": "electric_bike", "name": "23accbeab57c3c5a3a650607dc43bf31", "is_reserved": 0, "lon": -77.08971633333333, "is_disabled": 0, "fusion_lat": 0.0, "lat": 38.84112733333333, "bike_id": "23accbeab57c3c5a3a650607dc43bf31", "fusion_lon": 0.0}, {"rental_uris": {"ios": "https://dc.lft.to/lastmile_qr_scan", "android": "https://dc.lft.to/lastmile_qr_scan"}, "type": "electric_scooter", "name": "f65bcb6f6366209aaafe1832a33cad11", "is_reserved": 0, "lon": -77.005171, "is_disabled": 0, "fusion_lat": 0.0, "lat": 38.89677966666667, "bike_id": "f65bcb6f6366209aaafe1832a33cad11", "fusion_lon": 0.0}, {"rental_uris": {"ios": "https://dc.lft.to/lastmile_qr_scan", "android": "https://dc.lft.to/lastmile_qr_scan"}, "type": "electric_scooter", "name": "e0d98acfb9977c0672045c48449e8385", "is_reserved": 0, "lon": -76.9762955, "is_disabled": 0, "fusion_lat": 0.0, "lat": 38.905729666666666, "bike_id": "e0d98acfb9977c0672045c48449e8385", "fusion_lon": 0.0}, {"rental_uris": {"ios": "https://dc.lft.to/lastmile_qr_scan", "android": "https://dc.lft.to/lastmile_qr_scan"}, "type": "electric_scooter", "name": "6d45db4603e0e1f1608b0dc5b379707b", "is_reserved": 0, "lon": -77.04196983333334, "is_disabled": 0, "fusion_lat": 0.0, "lat": 38.923438833333336, "bike_id": "6d45db4603e0e1f1608b0dc5b379707b", "fusion_lon": 0.0}, {"rental_uris": {"ios": "https://dc.lft.to/lastmile_qr_scan", "android": "https://dc.lft.to/lastmile_qr_scan"}, "type": "electric_scooter", "name": "f96ddd98f678c8d38d34141c1f305f6c", "is_reserved": 0, "lon": -77.04948366666666, "is_disabled": 0, "fusion_lat": 0.0, "lat": 38.920206, "bike_id": "f96ddd98f678c8d38d34141c1f305f6c", "fusion_lon": 0.0}, {"rental_uris": {"ios": "https://dc.lft.to/lastmile_qr_scan", "android": "https://dc.lft.to/lastmile_qr_scan"}, "type": "electric_scooter", "name": "0ede9e6f53517b470fcf2528e9511f3f", "is_reserved": 0, "lon": -77.07348216666666, "is_disabled": 0, "fusion_lat": 0.0, "lat": 38.94325633333333, "bike_id": "0ede9e6f53517b470fcf2528e9511f3f", "fusion_lon": 0.0}, {"rental_uris": {"ios": "https://dc.lft.to/lastmile_qr_scan", "android": "https://dc.lft.to/lastmile_qr_scan"}, "type": "electric_scooter", "name": "7508af4f55c1f89a02754d4d8537d402", "is_reserved": 0, "lon": -77.08245383333333, "is_disabled": 0, "fusion_lat": 0.0, "lat": 38.95429683333333, "bike_id": "7508af4f55c1f89a02754d4d8537d402", "fusion_lon": 0.0}, {"rental_uris": {"ios": "https://dc.lft.to/lastmile_qr_scan", "android": "https://dc.lft.to/lastmile_qr_scan"}, "type": "electric_scooter", "name": "fbcd24ad16a26537ed151c4f7ed94443", "is_reserved": 0, "lon": -77.06838166666667, "is_disabled": 0, "fusion_lat": 0.0, "lat": 38.9172035, "bike_id": "fbcd24ad16a26537ed151c4f7ed94443", "fusion_lon": 0.0}, {"rental_uris": {"ios": "https://dc.lft.to/lastmile_qr_scan", "android": "https://dc.lft.to/lastmile_qr_scan"}, "type": "electric_scooter", "name": "4e4e57b0a47067e1afd06ddc9de5b6c6", "is_reserved": 0, "lon": -77.03099783333333, "is_disabled": 0, "fusion_lat": 0.0, "lat": 38.924839666666664, "bike_id": "4e4e57b0a47067e1afd06ddc9de5b6c6", "fusion_lon": 0.0}, {"rental_uris": {"ios": "https://dc.lft.to/lastmile_qr_scan", "android": "https://dc.lft.to/lastmile_qr_scan"}, "type": "electric_scooter", "name": "660e60002dc70656129a2da302efcbca", "is_reserved": 0, "lon": -77.02402783333334, "is_disabled": 0, "fusion_lat": 0.0, "lat": 38.9209285, "bike_id": "660e60002dc70656129a2da302efcbca", "fusion_lon": 0.0}, {"rental_uris": {"ios": "https://dc.lft.to/lastmile_qr_scan", "android": "https://dc.lft.to/lastmile_qr_scan"}, "type": "electric_scooter", "name": "1aa49f2fbea2454e107dd48d058da8d2", "is_reserved": 0, "lon": -76.9834635, "is_disabled": 0, "fusion_lat": 0.0, "lat": 38.9150895, "bike_id": "1aa49f2fbea2454e107dd48d058da8d2", "fusion_lon": 0.0}, {"rental_uris": {"ios": "https://dc.lft.to/lastmile_qr_scan", "android": "https://dc.lft.to/lastmile_qr_scan"}, "type": "electric_bike", "name": "52971c85a1010c25ac6d305135352b35", "is_reserved": 0, "lon": -77.234119, "is_disabled": 0, "fusion_lat": 0.0, "lat": 38.875803, "bike_id": "52971c85a1010c25ac6d305135352b35", "fusion_lon": 0.0}, {"rental_uris": {"ios": "https://dc.lft.to/lastmile_qr_scan", "android": "https://dc.lft.to/lastmile_qr_scan"}, "type": "electric_scooter", "name": "38e3344c25614efc56304d1fccf0eee3", "is_reserved": 0, "lon": -77.0347185, "is_disabled": 0, "fusion_lat": 0.0, "lat": 38.90704783333334, "bike_id": "38e3344c25614efc56304d1fccf0eee3", "fusion_lon": 0.0}, {"rental_uris": {"ios": "https://dc.lft.to/lastmile_qr_scan", "android": "https://dc.lft.to/lastmile_qr_scan"}, "type": "electric_scooter", "name": "3607b882e78c8d82751b494a98371ea0", "is_reserved": 0, "lon": -77.03961383333333, "is_disabled": 0, "fusion_lat": 0.0, "lat": 38.9071395, "bike_id": "3607b882e78c8d82751b494a98371ea0", "fusion_lon": 0.0}, {"rental_uris": {"ios": "https://dc.lft.to/lastmile_qr_scan", "android": "https://dc.lft.to/lastmile_qr_scan"}, "type": "electric_scooter", "name": "0efd220ab4984e4a4bafbebb3609be6d", "is_reserved": 0, "lon": -77.01843966666667, "is_disabled": 0, "fusion_lat": 0.0, "lat": 38.909558833333335, "bike_id": "0efd220ab4984e4a4bafbebb3609be6d", "fusion_lon": 0.0}, {"rental_uris": {"ios": "https://dc.lft.to/lastmile_qr_scan", "android": "https://dc.lft.to/lastmile_qr_scan"}, "type": "electric_bike", "name": "3109498aa796264ec65f07404d841a32", "is_reserved": 0, "lon": -76.94169183333334, "is_disabled": 0, "fusion_lat": 0.0, "lat": 38.86554866666667, "bike_id": "3109498aa796264ec65f07404d841a32", "fusion_lon": 0.0}, {"rental_uris": {"ios": "https://dc.lft.to/lastmile_qr_scan", "android": "https://dc.lft.to/lastmile_qr_scan"}, "type": "electric_bike", "name": "2504c82908a26d6a9ca2e7a76d8fb38a", "is_reserved": 0, "lon": -77.10613033333334, "is_disabled": 0, "fusion_lat": 0.0, "lat": 38.837300666666664, "bike_id": "2504c82908a26d6a9ca2e7a76d8fb38a", "fusion_lon": 0.0}, {"rental_uris": {"ios": "https://dc.lft.to/lastmile_qr_scan", "android": "https://dc.lft.to/lastmile_qr_scan"}, "type": "electric_scooter", "name": "06433f030e4217db56683386e632927a", "is_reserved": 0, "lon": -77.03448566666667, "is_disabled": 0, "fusion_lat": 0.0, "lat": 38.9222355, "bike_id": "06433f030e4217db56683386e632927a", "fusion_lon": 0.0}, {"rental_uris": {"ios": "https://dc.lft.to/lastmile_qr_scan", "android": "https://dc.lft.to/lastmile_qr_scan"}, "type": "electric_scooter", "name": "3dc5733a582692d5268d2c57fd4ce2f6", "is_reserved": 0, "lon": -76.98040116666667, "is_disabled": 0, "fusion_lat": 0.0, "lat": 38.91683366666667, "bike_id": "3dc5733a582692d5268d2c57fd4ce2f6", "fusion_lon": 0.0}, {"rental_uris": {"ios": "https://dc.lft.to/lastmile_qr_scan", "android": "https://dc.lft.to/lastmile_qr_scan"}, "type": "electric_scooter", "name": "924cf0aa7ba164861a1d89bec6f974b2", "is_reserved": 0, "lon": -77.03869866666666, "is_disabled": 0, "fusion_lat": 0.0, "lat": 38.92156683333333, "bike_id": "924cf0aa7ba164861a1d89bec6f974b2", "fusion_lon": 0.0}, {"rental_uris": {"ios": "https://dc.lft.to/lastmile_qr_scan", "android": "https://dc.lft.to/lastmile_qr_scan"}, "type": "electric_scooter", "name": "781f55b8cdf5dcc14f795a4de33514be", "is_reserved": 0, "lon": -77.0173655, "is_disabled": 0, "fusion_lat": 0.0, "lat": 38.91246016666667, "bike_id": "781f55b8cdf5dcc14f795a4de33514be", "fusion_lon": 0.0}, {"rental_uris": {"ios": "https://dc.lft.to/lastmile_qr_scan", "android": "https://dc.lft.to/lastmile_qr_scan"}, "type": "electric_scooter", "name": "71edddc3b8946503b8a8da16bba70a19", "is_reserved": 0, "lon": -77.04388883333333, "is_disabled": 0, "fusion_lat": 0.0, "lat": 38.9235935, "bike_id": "71edddc3b8946503b8a8da16bba70a19", "fusion_lon": 0.0}, {"rental_uris": {"ios": "https://dc.lft.to/lastmile_qr_scan", "android": "https://dc.lft.to/lastmile_qr_scan"}, "type": "electric_scooter", "name": "439609cceb3e96f4f98afd297dda58ec", "is_reserved": 0, "lon": -77.00990166666666, "is_disabled": 0, "fusion_lat": 0.0, "lat": 38.8728865, "bike_id": "439609cceb3e96f4f98afd297dda58ec", "fusion_lon": 0.0}, {"rental_uris": {"ios": "https://dc.lft.to/lastmile_qr_scan", "android": "https://dc.lft.to/lastmile_qr_scan"}, "type": "electric_scooter", "name": "e05963edb3ec5a8b973f2044fb2dae1e", "is_reserved": 0, "lon": -77.04910916666667, "is_disabled": 0, "fusion_lat": 0.0, "lat": 38.919390166666666, "bike_id": "e05963edb3ec5a8b973f2044fb2dae1e", "fusion_lon": 0.0}, {"rental_uris": {"ios": "https://dc.lft.to/lastmile_qr_scan", "android": "https://dc.lft.to/lastmile_qr_scan"}, "type": "electric_bike", "name": "a4f60295bcb8b1f29b9daad231703380", "is_reserved": 0, "lon": -77.03425933333334, "is_disabled": 0, "fusion_lat": 0.0, "lat": 38.9366755, "bike_id": "a4f60295bcb8b1f29b9daad231703380", "fusion_lon": 0.0}, {"rental_uris": {"ios": "https://dc.lft.to/lastmile_qr_scan", "android": "https://dc.lft.to/lastmile_qr_scan"}, "type": "electric_bike", "name": "12bc82484af116da980466a6412513fd", "is_reserved": 0, "lon": -77.00007816666667, "is_disabled": 0, "fusion_lat": 0.0, "lat": 38.923971333333334, "bike_id": "12bc82484af116da980466a6412513fd", "fusion_lon": 0.0}, {"rental_uris": {"ios": "https://dc.lft.to/lastmile_qr_scan", "android": "https://dc.lft.to/lastmile_qr_scan"}, "type": "electric_scooter", "name": "abd5de8aa8e31d44f7440e93b56a59ec", "is_reserved": 0, "lon": -77.02716283333334, "is_disabled": 0, "fusion_lat": 0.0, "lat": 38.897010333333334, "bike_id": "abd5de8aa8e31d44f7440e93b56a59ec", "fusion_lon": 0.0}, {"rental_uris": {"ios": "https://dc.lft.to/lastmile_qr_scan", "android": "https://dc.lft.to/lastmile_qr_scan"}, "type": "electric_bike", "name": "0e1e27e6de7cad676ab71c40b66404fb", "is_reserved": 0, "lon": -77.10211683333333, "is_disabled": 0, "fusion_lat": 0.0, "lat": 38.920026, "bike_id": "0e1e27e6de7cad676ab71c40b66404fb", "fusion_lon": 0.0}, {"rental_uris": {"ios": "https://dc.lft.to/lastmile_qr_scan", "android": "https://dc.lft.to/lastmile_qr_scan"}, "type": "electric_scooter", "name": "4434803a06a81e8397d02bcff3af75f3", "is_reserved": 0, "lon": -77.0175375, "is_disabled": 0, "fusion_lat": 0.0, "lat": 38.876914, "bike_id": "4434803a06a81e8397d02bcff3af75f3", "fusion_lon": 0.0}, {"rental_uris": {"ios": "https://dc.lft.to/lastmile_qr_scan", "android": "https://dc.lft.to/lastmile_qr_scan"}, "type": "electric_bike", "name": "88a86b29a6542e2e7c46b775be48ecb8", "is_reserved": 0, "lon": -76.99464733333333, "is_disabled": 0, "fusion_lat": 0.0, "lat": 38.86267383333333, "bike_id": "88a86b29a6542e2e7c46b775be48ecb8", "fusion_lon": 0.0}, {"rental_uris": {"ios": "https://dc.lft.to/lastmile_qr_scan", "android": "https://dc.lft.to/lastmile_qr_scan"}, "type": "electric_bike", "name": "f77cf1edf451d4d915494613c8c73148", "is_reserved": 0, "lon": -76.9869455, "is_disabled": 0, "fusion_lat": 0.0, "lat": 38.9446805, "bike_id": "f77cf1edf451d4d915494613c8c73148", "fusion_lon": 0.0}, {"rental_uris": {"ios": "https://dc.lft.to/lastmile_qr_scan", "android": "https://dc.lft.to/lastmile_qr_scan"}, "type": "electric_scooter", "name": "d6416d96a9b9d9e8f3cf41afad7bb568", "is_reserved": 0, "lon": -76.988405, "is_disabled": 0, "fusion_lat": 0.0, "lat": 38.842951, "bike_id": "d6416d96a9b9d9e8f3cf41afad7bb568", "fusion_lon": 0.0}, {"rental_uris": {"ios": "https://dc.lft.to/lastmile_qr_scan", "android": "https://dc.lft.to/lastmile_qr_scan"}, "type": "electric_bike", "name": "b140c399ab535ab9510747aa9c3f187b", "is_reserved": 0, "lon": -77.08401516666666, "is_disabled": 0, "fusion_lat": 0.0, "lat": 38.91307616666667, "bike_id": "b140c399ab535ab9510747aa9c3f187b", "fusion_lon": 0.0}, {"rental_uris": {"ios": "https://dc.lft.to/lastmile_qr_scan", "android": "https://dc.lft.to/lastmile_qr_scan"}, "type": "electric_scooter", "name": "09de98ced5f53e25c2107c91bf8ebb23", "is_reserved": 0, "lon": -77.02179033333333, "is_disabled": 0, "fusion_lat": 0.0, "lat": 38.9054525, "bike_id": "09de98ced5f53e25c2107c91bf8ebb23", "fusion_lon": 0.0}, {"rental_uris": {"ios": "https://dc.lft.to/lastmile_qr_scan", "android": "https://dc.lft.to/lastmile_qr_scan"}, "type": "electric_bike", "name": "adfaa4e5deb5df7c7340d8f5947df396", "is_reserved": 0, "lon": -77.03627, "is_disabled": 0, "fusion_lat": 0.0, "lat": 38.97297116666667, "bike_id": "adfaa4e5deb5df7c7340d8f5947df396", "fusion_lon": 0.0}, {"rental_uris": {"ios": "https://dc.lft.to/lastmile_qr_scan", "android": "https://dc.lft.to/lastmile_qr_scan"}, "type": "electric_scooter", "name": "c1428227d7ae4c765b2f394f9995b0cd", "is_reserved": 0, "lon": -77.02132033333334, "is_disabled": 0, "fusion_lat": 0.0, "lat": 38.902353, "bike_id": "c1428227d7ae4c765b2f394f9995b0cd", "fusion_lon": 0.0}, {"rental_uris": {"ios": "https://dc.lft.to/lastmile_qr_scan", "android": "https://dc.lft.to/lastmile_qr_scan"}, "type": "electric_scooter", "name": "89e761718c3cdbd93e443e1a1cb8a23d", "is_reserved": 0, "lon": -77.00697983333333, "is_disabled": 0, "fusion_lat": 0.0, "lat": 38.9000445, "bike_id": "89e761718c3cdbd93e443e1a1cb8a23d", "fusion_lon": 0.0}, {"rental_uris": {"ios": "https://dc.lft.to/lastmile_qr_scan", "android": "https://dc.lft.to/lastmile_qr_scan"}, "type": "electric_bike", "name": "aba6ae74b6a0dc710e0534a7beff97ef", "is_reserved": 0, "lon": -76.96262016666667, "is_disabled": 0, "fusion_lat": 0.0, "lat": 38.9678835, "bike_id": "aba6ae74b6a0dc710e0534a7beff97ef", "fusion_lon": 0.0}, {"rental_uris": {"ios": "https://dc.lft.to/lastmile_qr_scan", "android": "https://dc.lft.to/lastmile_qr_scan"}, "type": "electric_scooter", "name": "8d84c24701b0667b164cafa331aca2c9", "is_reserved": 0, "lon": -77.04019916666667, "is_disabled": 0, "fusion_lat": 0.0, "lat": 38.9240295, "bike_id": "8d84c24701b0667b164cafa331aca2c9", "fusion_lon": 0.0}, {"rental_uris": {"ios": "https://dc.lft.to/lastmile_qr_scan", "android": "https://dc.lft.to/lastmile_qr_scan"}, "type": "electric_scooter", "name": "7396dd44c356536e279a32aa9eb84df0", "is_reserved": 0, "lon": -77.02597033333333, "is_disabled": 0, "fusion_lat": 0.0, "lat": 38.9581235, "bike_id": "7396dd44c356536e279a32aa9eb84df0", "fusion_lon": 0.0}, {"rental_uris": {"ios": "https://dc.lft.to/lastmile_qr_scan", "android": "https://dc.lft.to/lastmile_qr_scan"}, "type": "electric_scooter", "name": "6a70d08075b782a8a9bc09fd17d51335", "is_reserved": 0, "lon": -76.98257333333333, "is_disabled": 0, "fusion_lat": 0.0, "lat": 38.866328333333335, "bike_id": "6a70d08075b782a8a9bc09fd17d51335", "fusion_lon": 0.0}, {"rental_uris": {"ios": "https://dc.lft.to/lastmile_qr_scan", "android": "https://dc.lft.to/lastmile_qr_scan"}, "type": "electric_scooter", "name": "930e44b8bc138967936480e01ca7bf8f", "is_reserved": 0, "lon": -77.02661133333334, "is_disabled": 0, "fusion_lat": 0.0, "lat": 38.92221333333333, "bike_id": "930e44b8bc138967936480e01ca7bf8f", "fusion_lon": 0.0}, {"rental_uris": {"ios": "https://dc.lft.to/lastmile_qr_scan", "android": "https://dc.lft.to/lastmile_qr_scan"}, "type": "electric_scooter", "name": "74a46a066683c8e195f6331b9d5f36a2", "is_reserved": 0, "lon": -77.06552683333334, "is_disabled": 0, "fusion_lat": 0.0, "lat": 38.9117315, "bike_id": "74a46a066683c8e195f6331b9d5f36a2", "fusion_lon": 0.0}, {"rental_uris": {"ios": "https://dc.lft.to/lastmile_qr_scan", "android": "https://dc.lft.to/lastmile_qr_scan"}, "type": "electric_scooter", "name": "bf1d8ca13b73cb30a7c8df5cca577fc3", "is_reserved": 0, "lon": -77.04720516666667, "is_disabled": 0, "fusion_lat": 0.0, "lat": 38.917917333333335, "bike_id": "bf1d8ca13b73cb30a7c8df5cca577fc3", "fusion_lon": 0.0},