{"data": {"bikes": [{"type": "electric_scooter", "rental_uris": {"ios": "https://dc.lft.to/lastmile_qr_scan", "android": "https://dc.lft.to/lastmile_qr_scan"}, "lon": -77.05126666666666, "fusion_lon": 0.0, "is_disabled": 0, "lat": 38.923636333333334, "bike_id": "cd53974673679ea912a84754345880f3", "name": "cd53974673679ea912a84754345880f3", "is_reserved": 0, "fusion_lat": 0.0}, {"type": "electric_scooter", "rental_uris": {"ios": "https://dc.lft.to/lastmile_qr_scan", "android": "https://dc.lft.to/lastmile_qr_scan"}, "lon": -77.018513, "fusion_lon": 0.0, "is_disabled": 0, "lat": 38.973715166666665, "bike_id": "244c6e8224e1557884bbd169ea15aa40", "name": "244c6e8224e1557884bbd169ea15aa40", "is_reserved": 0, "fusion_lat": 0.0}, {"type": "electric_scooter", "rental_uris": {"ios": "https://dc.lft.to/lastmile_qr_scan", "android": "https://dc.lft.to/lastmile_qr_scan"}, "lon": -76.99497533333333, "fusion_lon": 0.0, "is_disabled": 0, "lat": 38.86242416666666, "bike_id": "7306abd14cf16027e97b49a92d4aa89b", "name": "7306abd14cf16027e97b49a92d4aa89b", "is_reserved": 0, "fusion_lat": 0.0}, {"type": "electric_scooter", "rental_uris": {"ios": "https://dc.lft.to/lastmile_qr_scan", "android": "https://dc.lft.to/lastmile_qr_scan"}, "lon": -77.038275, "fusion_lon": 0.0, "is_disabled": 0, "lat": 38.911256333333334, "bike_id": "5851541e885aa15cb50ded4fc091ac8a", "name": "5851541e885aa15cb50ded4fc091ac8a", "is_reserved": 0, "fusion_lat": 0.0}, {"type": "electric_scooter", "rental_uris": {"ios": "https://dc.lft.to/lastmile_qr_scan", "android": "https://dc.lft.to/lastmile_qr_scan"}, "lon": -77.02512733333333, "fusion_lon": 0.0, "is_disabled": 0, "lat": 38.93762433333333, "bike_id": "f5da6ca0fff89fee9336610ad2063673", "name": "f5da6ca0fff89fee9336610ad2063673", "is_reserved": 0, "fusion_lat": 0.0}, {"type": "electric_scooter", "rental_uris": {"ios": "https://dc.lft.to/lastmile_qr_scan", "android": "https://dc.lft.to/lastmile_qr_scan"}, "lon": -77.041225, "fusion_lon": 0.0, "is_disabled": 0, "lat": 38.9170895, "bike_id": "28a5ecae47157924cda24e0f1563c3f6", "name": "28a5ecae47157924cda24e0f1563c3f6", "is_reserved": 0, "fusion_lat": 0.0}, {"type": "electric_scooter", "rental_uris": {"ios": "https://dc.lft.to/lastmile_qr_scan", "android": "https://dc.lft.to/lastmile_qr_scan"}, "lon": -77.027964, "fusion_lon": 0.0, "is_disabled": 0, "lat": 38.90736583333333, "bike_id": "8a9d5a2c680616c0469a9b2e4536b24b", "name": "8a9d5a2c680616c0469a9b2e4536b24b", "is_reserved": 0, "fusion_lat": 0.0}, {"type": "electric_scooter", "rental_uris": {"ios": "https://dc.lft.to/lastmile_qr_scan", "android": "https://dc.lft.to/lastmile_qr_scan"}, "lon": -76.99518633333334, "fusion_lon": 0.0, "is_disabled": 0, "lat": 38.862562833333335, "bike_id": "f8f2c72ccf2a2f5fec849f8b368b7cec", "name": "f8f2c72ccf2a2f5fec849f8b368b7cec", "is_reserved": 0, "fusion_lat": 0.0}, {"type": "electric_scooter", "rental_uris": {"ios": "https://dc.lft.to/lastmile_qr_scan", "android": "https://dc.lft.to/lastmile_qr_scan"}, "lon": -77.02780433333334, "fusion_lon": 0.0, "is_disabled": 0, "lat": 38.898303166666665, "bike_id": "677fceb293e425efc05af45464858230", "name": "677fceb293e425efc05af45464858230", "is_reserved": 0, "fusion_lat": 0.0}, {"type": "electric_scooter", "rental_uris": {"ios": "https://dc.lft.to/lastmile_qr_scan", "android": "https://dc.lft.to/lastmile_qr_scan"}, "lon": -77.03429133333333, "fusion_lon": 0.0, "is_disabled": 0, "lat": 38.9079715, "bike_id": "44eaf9dc3a55483e92f96961ff318746", "name": "44eaf9dc3a55483e92f96961ff318746", "is_reserved": 0, "fusion_lat": 0.0}, {"type": "electric_scooter", "rental_uris": {"ios": "https://dc.lft.to/lastmile_qr_scan", "android": "https://dc.lft.to/lastmile_qr_scan"}, "lon": -77.0317955, "fusion_lon": 0.0, "is_disabled": 0, "lat": 38.892333666666666, "bike_id": "47a741a38149d88cedab6aba30942cd9", "name": "47a741a38149d88cedab6aba30942cd9", "is_reserved": 0, "fusion_lat": 0.0}, {"type": "electric_scooter", "rental_uris": {"ios": "https://dc.lft.to/lastmile_qr_scan", "android": "https://dc.lft.to/lastmile_qr_scan"}, "lon": -77.0360315, "fusion_lon": 0.0, "is_disabled": 0, "lat": 38.907630833333336, "bike_id": "fd50af4a4b42dec943bdf38be5521b30", "name": "fd50af4a4b42dec943bdf38be5521b30", "is_reserved": 0, "fusion_lat": 0.0}, {"type": "electric_scooter", "rental_uris": {"ios": "https://dc.lft.to/lastmile_qr_scan", "android": "https://dc.lft.to/lastmile_qr_scan"}, "lon": -77.03855683333333, "fusion_lon": 0.0, "is_disabled": 0, "lat": 38.915514333333334, "bike_id": "ec8bbbe25b3e4bdf517350b38e32c24e", "name": "ec8bbbe25b3e4bdf517350b38e32c24e", "is_reserved": 0, "fusion_lat": 0.0}, {"type": "electric_scooter", "rental_uris": {"ios": "https://dc.lft.to/lastmile_qr_scan", "android": "https://dc.lft.to/lastmile_qr_scan"}, "lon": -77.02834833333333, "fusion_lon": 0.0, "is_disabled": 0, "lat": 38.89230466666667, "bike_id": "787c0ab040a0f485d9c4e880f404e90f", "name": "787c0ab040a0f485d9c4e880f404e90f", "is_reserved": 0, "fusion_lat": 0.0}, {"type": "electric_scooter", "rental_uris": {"ios": "https://dc.lft.to/lastmile_qr_scan", "android": "https://dc.lft.to/lastmile_qr_scan"}, "lon": -77.03159916666667, "fusion_lon": 0.0, "is_disabled": 0, "lat": 38.89222616666667, "bike_id": "0c84b67deeb98309e44aa0f540b31647", "name": "0c84b67deeb98309e44aa0f540b31647", "is_reserved": 0, "fusion_lat": 0.0}, {"type": "electric_scooter", "rental_uris": {"ios": "https://dc.lft.to/lastmile_qr_scan", "android": "https://dc.lft.to/lastmile_qr_scan"}, "lon": -77.03427333333333, "fusion_lon": 0.0, "is_disabled": 0, "lat": 38.90972883333333, "bike_id": "bae9754f2ce487fb57fd441d46a74e7f", "name": "bae9754f2ce487fb57fd441d46a74e7f", "is_reserved": 0, "fusion_lat": 0.0}, {"type": "electric_scooter", "rental_uris": {"ios": "https://dc.lft.to/lastmile_qr_scan", "android": "https://dc.lft.to/lastmile_qr_scan"}, "lon": -77.03864516666667, "fusion_lon": 0.0, "is_disabled": 0, "lat": 38.912632333333335, "bike_id": "7626b72e59a97f4938f713825bd0b841", "name": "7626b72e59a97f4938f713825bd0b841", "is_reserved": 0, "fusion_lat": 0.0}, {"type": "electric_scooter", "rental_uris": {"ios": "https://dc.lft.to/lastmile_qr_scan", "android": "https://dc.lft.to/lastmile_qr_scan"}, "lon": -77.03870833333333, "fusion_lon": 0.0, "is_disabled": 0, "lat": 38.93463833333333, "bike_id": "18509c052e5b5cb95a1d45421bdbd7e4", "name": "18509c052e5b5cb95a1d45421bdbd7e4", "is_reserved": 0, "fusion_lat": 0.0}, {"type": "electric_scooter", "rental_uris": {"ios": "https://dc.lft.to/lastmile_qr_scan", "android": "https://dc.lft.to/lastmile_qr_scan"}, "lon": -77.03622666666666, "fusion_lon": 0.0, "is_disabled": 0, "lat": 38.93686833333334, "bike_id": "bbcc66ad568b305556933a437fe2891b", "name": "bbcc66ad568b305556933a437fe2891b", "is_reserved": 0, "fusion_lat": 0.0}, {"type": "electric_scooter", "rental_uris": {"ios": "https://dc.lft.to/lastmile_qr_scan", "android": "https://dc.lft.to/lastmile_qr_scan"}, "lon": -77.04256233333334, "fusion_lon": 0.0, "is_disabled": 0, "lat": 38.91699716666667, "bike_id": "a8f7061b4bdd6ad020ff7685828e0508", "name": "a8f7061b4bdd6ad020ff7685828e0508", "is_reserved": 0, "fusion_lat": 0.0}, {"type": "electric_scooter", "rental_uris": {"ios": "https://dc.lft.to/lastmile_qr_scan", "android": "https://dc.lft.to/lastmile_qr_scan"}, "lon": -77.04683616666667, "fusion_lon": 0.0, "is_disabled": 0, "lat": 38.892245, "bike_id": "70691d48a3e31b5589bd6c8b4ca2138f", "name": "70691d48a3e31b5589bd6c8b4ca2138f", "is_reserved": 0, "fusion_lat": 0.0}, {"type": "electric_scooter", "rental_uris": {"ios": "https://dc.lft.to/lastmile_qr_scan", "android": "https://dc.lft.to/lastmile_qr_scan"}, "lon": -77.00604766666666, "fusion_lon": 0.0, "is_disabled": 0, "lat": 38.90630316666667, "bike_id": "0d076861192357b98c4856ef758ec135", "name": "0d076861192357b98c4856ef758ec135", "is_reserved": 0, "fusion_lat": 0.0}, {"type": "electric_bike", "rental_uris": {"ios": "https://dc.lft.to/lastmile_qr_scan", "android": "https://dc.lft.to/lastmile_qr_scan"}, "lon": -77.02130816666667, "fusion_lon": 0.0, "is_disabled": 0, "lat": 38.93576916666667, "bike_id": "02777121509ddfb4ed81c8616b69b87a", "name": "02777121509ddfb4ed81c8616b69b87a", "is_reserved": 0, "fusion_lat": 0.0}, {"type": "electric_scooter", "rental_uris": {"ios": "https://dc.lft.to/lastmile_qr_scan", "android": "https://dc.lft.to/lastmile_qr_scan"}, "lon": -77.02653733333334, "fusion_lon": 0.0, "is_disabled": 0, "lat": 38.89215, "bike_id": "3a79ecc335fa58e3351ca30171334674", "name": "3a79ecc335fa58e3351ca30171334674", "is_reserved": 0, "fusion_lat": 0.0}, {"type": "electric_bike", "rental_uris": {"ios": "https://dc.lft.to/lastmile_qr_scan", "android": "https://dc.lft.to/lastmile_qr_scan"}, "lon": -77.10090566666666, "fusion_lon": 0.0, "is_disabled": 0, "lat": 38.959579833333336, "bike_id": "372c940524c4080de948c3b632d8855f", "name": "372c940524c4080de948c3b632d8855f", "is_reserved": 0, "fusion_lat": 0.0}, {"type": "electric_scooter", "rental_uris": {"ios": "https://dc.lft.to/lastmile_qr_scan", "android": "https://dc.lft.to/lastmile_qr_scan"}, "lon": -77.0174775, "fusion_lon": 0.0, "is_disabled": 0, "lat": 38.902572666666664, "bike_id": "bd47dc2710566ff106cff57fecbe1039", "name": "bd47dc2710566ff106cff57fecbe1039", "is_reserved": 0, "fusion_lat": 0.0}, {"type": "electric_scooter", "rental_uris": {"ios": "https://dc.lft.to/lastmile_qr_scan", "android": "https://dc.lft.to/lastmile_qr_scan"}, "lon": -77.0595615, "fusion_lon": 0.0, "is_disabled": 0, "lat": 38.90237066666667, "bike_id": "8fd56de8254a195431c19f43f94b1639", "name": "8fd56de8254a195431c19f43f94b1639", "is_reserved": 0, "fusion_lat": 0.0}, {"type": "electric_scooter", "rental_uris": {"ios": "https://dc.lft.to/lastmile_qr_scan", "android": "https://dc.lft.to/lastmile_qr_scan"}, "lon": -77.032702, "fusion_lon": 0.0, "is_disabled": 0, "lat": 38.913321333333336, "bike_id": "196299274685422e3d94ea92970dd9aa", "name": "196299274685422e3d94ea92970dd9aa", "is_reserved": 0, "fusion_lat": 0.0}, {"type": "electric_scooter", "rental_uris": {"ios": "https://dc.lft.to/lastmile_qr_scan", "android": "https://dc.lft.to/lastmile_qr_scan"}, "lon": -77.03765233333333, "fusion_lon": 0.0, "is_disabled": 0, "lat": 38.929796833333334, "bike_id": "497d2dff881aa5d9f920b4b03415234c", "name": "497d2dff881aa5d9f920b4b03415234c", "is_reserved": 0, "fusion_lat": 0.0}, {"type": "electric_bike", "rental_uris": {"ios": "https://dc.lft.to/lastmile_qr_scan", "android": "https://dc.lft.to/lastmile_qr_scan"}, "lon": -76.98946783333334, "fusion_lon": 0.0, "is_disabled": 0, "lat": 38.8671505, "bike_id": "b503f694af2f57a4d40af1158718263f", "name": "b503f694af2f57a4d40af1158718263f", "is_reserved": 0, "fusion_lat": 0.0}, {"type": "electric_scooter", "rental_uris": {"ios": "https://dc.lft.to/lastmile_qr_scan", "android": "https://dc.lft.to/lastmile_qr_scan"}, "lon": -77.0373085, "fusion_lon": 0.0, "is_disabled": 0, "lat": 38.928521, "bike_id": "f00bbca5e7968bf725b88cebcbcad750", "name": "f00bbca5e7968bf725b88cebcbcad750", "is_reserved": 0, "fusion_lat": 0.0}, {"type": "electric_scooter", "rental_uris": {"ios": "https://dc.lft.to/lastmile_qr_scan", "android": "https://dc.lft.to/lastmile_qr_scan"}, "lon": -77.03150166666667, "fusion_lon": 0.0, "is_disabled": 0, "lat": 38.915609833333335, "bike_id": "6dcc9bd6c56417b887291fd644bc9614", "name": "6dcc9bd6c56417b887291fd644bc9614", "is_reserved": 0, "fusion_lat": 0.0}, {"type": "electric_scooter", "rental_uris": {"ios": "https://dc.lft.to/lastmile_qr_scan", "android": "https://dc.lft.to/lastmile_qr_scan"}, "lon": -77.0396395, "fusion_lon": 0.0, "is_disabled": 0, "lat": 38.91980083333333, "bike_id": "f301e35856b8be3a6b33fc7b18e965d7", "name": "f301e35856b8be3a6b33fc7b18e965d7", "is_reserved": 0, "fusion_lat": 0.0}, {"type": "electric_scooter", "rental_uris": {"ios": "https://dc.lft.to/lastmile_qr_scan", "android": "https://dc.lft.to/lastmile_qr_scan"}, "lon": -77.00601716666667, "fusion_lon": 0.0, "is_disabled": 0, "lat": 38.906309, "bike_id": "88b0e36b9a43f91c96c868071ec8b8f5", "name": "88b0e36b9a43f91c96c868071ec8b8f5", "is_reserved": 0, "fusion_lat": 0.0}, {"type": "electric_scooter", "rental_uris": {"ios": "https://dc.lft.to/lastmile_qr_scan", "android": "https://dc.lft.to/lastmile_qr_scan"}, "lon": -77.0316845, "fusion_lon": 0.0, "is_disabled": 0, "lat": 38.896227333333336, "bike_id": "b6ffeb4ef2dd4a57a1c5a1e250857958", "name": "b6ffeb4ef2dd4a57a1c5a1e250857958", "is_reserved": 0, "fusion_lat": 0.0}, {"type": "electric_scooter", "rental_uris": {"ios": "https://dc.lft.to/lastmile_qr_scan", "android": "https://dc.lft.to/lastmile_qr_scan"}, "lon": -77.03274466666667, "fusion_lon": 0.0, "is_disabled": 0, "lat": 38.92950333333334, "bike_id": "c9ed51e1fc716dd1d1302e1b6a1cf99c", "name": "c9ed51e1fc716dd1d1302e1b6a1cf99c", "is_reserved": 0, "fusion_lat": 0.0}, {"type": "electric_scooter", "rental_uris": {"ios": "https://dc.lft.to/lastmile_qr_scan", "android": "https://dc.lft.to/lastmile_qr_scan"}, "lon": -77.01139266666667, "fusion_lon": 0.0, "is_disabled": 0, "lat": 38.903206, "bike_id": "94561e918794a7547fab5c4c5050af2d", "name": "94561e918794a7547fab5c4c5050af2d", "is_reserved": 0, "fusion_lat": 0.0}, {"type": "electric_scooter", "rental_uris": {"ios": "https://dc.lft.to/lastmile_qr_scan", "android": "https://dc.lft.to/lastmile_qr_scan"}, "lon": -77.01366416666667, "fusion_lon": 0.0, "is_disabled": 0, "lat": 38.8922825, "bike_id": "242650c29fcdbea0f5aa883efd5d7939", "name": "242650c29fcdbea0f5aa883efd5d7939", "is_reserved": 0, "fusion_lat": 0.0}, {"type": "electric_scooter", "rental_uris": {"ios": "https://dc.lft.to/lastmile_qr_scan", "android": "https://dc.lft.to/lastmile_qr_scan"}, "lon": -77.01796583333334, "fusion_lon": 0.0, "is_disabled": 0, "lat": 38.920521666666666, "bike_id": "3e0613a5db4c7b8e3d23d3c16558818b", "name": "3e0613a5db4c7b8e3d23d3c16558818b", "is_reserved": 0, "fusion_lat": 0.0}, {"type": "electric_scooter", "rental_uris": {"ios": "https://dc.lft.to/lastmile_qr_scan", "android": "https://dc.lft.to/lastmile_qr_scan"}, "lon": -77.0057625, "fusion_lon": 0.0, "is_disabled": 0, "lat": 38.905683333333336, "bike_id": "79a91904ff93f0ae2b95272a25ca9ed3", "name": "79a91904ff93f0ae2b95272a25ca9ed3", "is_reserved": 0, "fusion_lat": 0.0}, {"type": "electric_bike", "rental_uris": {"ios": "https://dc.lft.to/lastmile_qr_scan", "android": "https://dc.lft.to/lastmile_qr_scan"}, "lon": -77.049808, "fusion_lon": 0.0, "is_disabled": 0, "lat": 39.0629345, "bike_id": "306bad2b1b91848e0685ec3fbecfeb2b", "name": "306bad2b1b91848e0685ec3fbecfeb2b", "is_reserved": 0, "fusion_lat": 0.0}, {"type": "electric_scooter", "rental_uris": {"ios": "https://dc.lft.to/lastmile_qr_scan", "android": "https://dc.lft.to/lastmile_qr_scan"}, "lon": -77.055995, "fusion_lon": 0.0, "is_disabled": 0, "lat": 38.900973, "bike_id": "6ad3f3e56bd55214e3d9986477d353e5", "name": "6ad3f3e56bd55214e3d9986477d353e5", "is_reserved": 0, "fusion_lat": 0.0}, {"type": "electric_scooter", "rental_uris": {"ios": "https://dc.lft.to/lastmile_qr_scan", "android": "https://dc.lft.to/lastmile_qr_scan"}, "lon": -77.009961, "fusion_lon": 0.0, "is_disabled": 0, "lat": 38.90258733333334, "bike_id": "f5cf41afebaee1582470461cb424bf58", "name": "f5cf41afebaee1582470461cb424bf58", "is_reserved": 0, "fusion_lat": 0.0}, {"type": "electric_scooter", "rental_uris": {"ios": "https://dc.lft.to/lastmile_qr_scan", "android": "https://dc.lft.to/lastmile_qr_scan"}, "lon": -77.05138466666666, "fusion_lon": 0.0, "is_disabled": 0, "lat": 38.89669516666667, "bike_id": "c1c86b489496aa6ea555af212cc0709e", "name": "c1c86b489496aa6ea555af212cc0709e", "is_reserved": 0, "fusion_lat": 0.0}, {"type": "electric_scooter", "rental_uris": {"ios": "https://dc.lft.to/lastmile_qr_scan", "android": "https://dc.lft.to/lastmile_qr_scan"}, "lon": -77.0418445, "fusion_lon": 0.0, "is_disabled": 0, "lat": 38.89288716666667, "bike_id": "b345b2b7f6eaf868c72f338d5a550b77", "name": "b345b2b7f6eaf868c72f338d5a550b77", "is_reserved": 0, "fusion_lat": 0.0}, {"type": "electric_scooter", "rental_uris": {"ios": "https://dc.lft.to/lastmile_qr_scan", "android": "https://dc.lft.to/lastmile_qr_scan"}, "lon": -76.932966, "fusion_lon": 0.0, "is_disabled": 0, "lat": 38.89222733333333, "bike_id": "d2cf6a335a7bc9b60733fe2d11be4105", "name": "d2cf6a335a7bc9b60733fe2d11be4105", "is_reserved": 0, "fusion_lat": 0.0}, {"type": "electric_scooter", "rental_uris": {"ios": "https://dc.lft.to/lastmile_qr_scan", "android": "https://dc.lft.to/lastmile_qr_scan"}, "lon": -77.03408116666667, "fusion_lon": 0.0, "is_disabled": 0, "lat": 38.919255166666666, "bike_id": "cf8eae49f79b46e16d0fe05654a29c8a", "name": "cf8eae49f79b46e16d0fe05654a29c8a", "is_reserved": 0, "fusion_lat": 0.0}, {"type": "electric_scooter", "rental_uris": {"ios": "https://dc.lft.to/lastmile_qr_scan", "android": "https://dc.lft.to/lastmile_qr_scan"}, "lon": -77.02213716666667, "fusion_lon": 0.0, "is_disabled": 0, "lat": 38.88747383333333, "bike_id": "8f2416121045b58300b74d88843f3c85", "name": "8f2416121045b58300b74d88843f3c85", "is_reserved": 0, "fusion_lat": 0.0}, {"type": "electric_scooter", "rental_uris": {"ios": "https://dc.lft.to/lastmile_qr_scan", "android": "https://dc.lft.to/lastmile_qr_scan"}, "lon": -77.01371116666667, "fusion_lon": 0.0, "is_disabled": 0, "lat": 38.8922365, "bike_id": "231b6b2daafe4ad612911badc8dec384", "name": "231b6b2daafe4ad612911badc8dec384", "is_reserved": 0, "fusion_lat": 0.0}, {"type": "electric_scooter", "rental_uris": {"ios": "https://dc.lft.to/lastmile_qr_scan", "android": "https://dc.lft.to/lastmile_qr_scan"}, "lon": -77.02490266666666, "fusion_lon": 0.0, "is_disabled": 0, "lat": 38.941849500000004, "bike_id": "aa17d83c112f0e62ed52add2c7c8ddbc", "name": "aa17d83c112f0e62ed52add2c7c8ddbc", "is_reserved": 0, "fusion_lat": 0.0}, {"type": "electric_scooter", "rental_uris": {"ios": "https://dc.lft.to/lastmile_qr_scan", "android": "https://dc.lft.to/lastmile_qr_scan"}, "lon": -77.04285533333334, "fusion_lon": 0.0, "is_disabled": 0, "lat": 38.920586666666665, "bike_id": "bddc0bcd6fe171af7d39cf60c883a34f", "name": "bddc0bcd6fe171af7d39cf60c883a34f", "is_reserved": 0, "fusion_lat": 0.0}, {"type": "electric_scooter", "rental_uris": {"ios": "https://dc.lft.to/lastmile_qr_scan", "android": "https://dc.lft.to/lastmile_qr_scan"}, "lon": -77.00612083333333, "fusion_lon": 0.0, "is_disabled": 0, "lat": 38.8717885, "bike_id": "467ac0f89059a12a93d403fe9eb01365", "name": "467ac0f89059a12a93d403fe9eb01365", "is_reserved": 0, "fusion_lat": 0.0}, {"type": "electric_scooter", "rental_uris": {"ios": "https://dc.lft.to/lastmile_qr_scan", "android": "https://dc.lft.to/lastmile_qr_scan"}, "lon": -77.022993, "fusion_lon": 0.0, "is_disabled": 0, "lat": 38.926114166666665, "bike_id": "51acaee3305820929c57996f0d84d9de", "name": "51acaee3305820929c57996f0d84d9de", "is_reserved": 0, "fusion_lat": 0.0}, {"type": "electric_scooter", "rental_uris": {"ios": "https://dc.lft.to/lastmile_qr_scan", "android": "https://dc.lft.to/lastmile_qr_scan"}, "lon": -77.03292583333334, "fusion_lon": 0.0, "is_disabled": 0, "lat": 38.9471715, "bike_id": "f74752bb98a5e966bcd40720ec781077", "name": "f74752bb98a5e966bcd40720ec781077", "is_reserved": 0, "fusion_lat": 0.0}, {"type": "electric_scooter", "rental_uris": {"ios": "https://dc.lft.to/lastmile_qr_scan", "android": "https://dc.lft.to/lastmile_qr_scan"}, "lon": -77.03359466666667, "fusion_lon": 0.0, "is_disabled": 0, "lat": 38.9136225, "bike_id": "6effec9cd7cb7c376e0895e02d4b5b62", "name": "6effec9cd7cb7c376e0895e02d4b5b62", "is_reserved": 0, "fusion_lat": 0.0}, {"type": "electric_scooter", "rental_uris": {"ios": "https://dc.lft.to/lastmile_qr_scan", "android": "https://dc.lft.to/lastmile_qr_scan"}, "lon": -77.026075, "fusion_lon": 0.0, "is_disabled": 0, "lat": 38.900023166666664, "bike_id": "565398966549ee08bd9529ad608ed77c", "name": "565398966549ee08bd9529ad608ed77c", "is_reserved": 0, "fusion_lat": 0.0}, {"type": "electric_scooter", "rental_uris": {"ios": "https://dc.lft.to/lastmile_qr_scan", "android": "https://dc.lft.to/lastmile_qr_scan"}, "lon": -77.003702, "fusion_lon": 0.0, "is_disabled": 0, "lat": 38.882637333333335, "bike_id": "79bee287be8e8a49991f5b6d993a69a9", "name": "79bee287be8e8a49991f5b6d993a69a9", "is_reserved": 0, "fusion_lat": 0.0}, {"type": "electric_scooter", "rental_uris": {"ios": "https://dc.lft.to/lastmile_qr_scan", "android": "https://dc.lft.to/lastmile_qr_scan"}, "lon": -77.03653516666667, "fusion_lon": 0.0, "is_disabled": 0, "lat": 38.91853183333333, "bike_id": "8404831f36fe6e2fbcad148fc196c50d", "name": "8404831f36fe6e2fbcad148fc196c50d", "is_reserved": 0, "fusion_lat": 0.0}, {"type": "electric_scooter", "rental_uris": {"ios": "https://dc.lft.to/lastmile_qr_scan", "android": "https://dc.lft.to/lastmile_qr_scan"}, "lon": -77.029768, "fusion_lon": 0.0, "is_disabled": 0, "lat": 38.93064783333333, "bike_id": "06755f6b654a5f19e06233492891a4db", "name": "06755f6b654a5f19e06233492891a4db", "is_reserved": 0, "fusion_lat": 0.0}, {"type": "electric_scooter", "rental_uris": {"ios": "https://dc.lft.to/lastmile_qr_scan", "android": "https://dc.lft.to/lastmile_qr_scan"}, "lon": -77.01068483333333, "fusion_lon": 0.0, "is_disabled": 0, "lat": 38.907314, "bike_id": "cd40d352693d701edee0697fb1e75b8f", "name": "cd40d352693d701edee0697fb1e75b8f", "is_reserved": 0, "fusion_lat": 0.0}, {"type": "electric_scooter", "rental_uris": {"ios": "https://dc.lft.to/lastmile_qr_scan", "android": "https://dc.lft.to/lastmile_qr_scan"}, "lon": -76.9541445, "fusion_lon": 0.0, "is_disabled": 0, "lat": 38.88998866666667, "bike_id": "f3b1655ff077b6e8d9db7d2a084ccbb6", "name": "f3b1655ff077b6e8d9db7d2a084ccbb6", "is_reserved": 0, "fusion_lat": 0.0}, {"type": "electric_scooter", "rental_uris": {"ios": "https://dc.lft.to/lastmile_qr_scan", "android": "https://dc.lft.to/lastmile_qr_scan"}, "lon": -77.04175983333333, "fusion_lon": 0.0, "is_disabled": 0, "lat": 38.915487, "bike_id": "d81b70a807ed66b055e9e4a56e7f48f6", "name": "d81b70a807ed66b055e9e4a56e7f48f6", "is_reserved": 0, "fusion_lat": 0.0}, {"type": "electric_scooter", "rental_uris": {"ios": "https://dc.lft.to/lastmile_qr_scan", "android": "https://dc.lft.to/lastmile_qr_scan"}, "lon": -77.04199066666666, "fusion_lon": 0.0, "is_disabled": 0, "lat": 38.9051965, "bike_id": "26dc7effbd4ed87c6d45af19cab51335", "name": "26dc7effbd4ed87c6d45af19cab51335", "is_reserved": 0, "fusion_lat": 0.0}, {"type": "electric_scooter", "rental_uris": {"ios": "https://dc.lft.to/lastmile_qr_scan", "android": "https://dc.lft.to/lastmile_qr_scan"}, "lon": -77.03667983333334, "fusion_lon": 0.0, "is_disabled": 0, "lat": 38.917064, "bike_id": "d8715f8b1e3acbaff7798731dc4aeb27", "name": "d8715f8b1e3acbaff7798731dc4aeb27", "is_reserved": 0, "fusion_lat": 0.0}, {"type": "electric_scooter", "rental_uris": {"ios": "https://dc.lft.to/lastmile_qr_scan", "android": "https://dc.lft.to/lastmile_qr_scan"}, "lon": -76.9869485, "fusion_lon": 0.0, "is_disabled": 0, "lat": 38.86624316666666, "bike_id": "4fc3f9b802de8d3d2e7d274a086c28a4", "name": "4fc3f9b802de8d3d2e7d274a086c28a4", "is_reserved": 0, "fusion_lat": 0.0}, {"type": "electric_scooter", "rental_uris": {"ios": "https://dc.lft.to/lastmile_qr_scan", "android": "https://dc.lft.to/lastmile_qr_scan"}, "lon": -77.02399433333333, "fusion_lon": 0.0, "is_disabled": 0, "lat": 38.957146, "bike_id": "853c9c759ff61f610e1a850d153e27dd", "name": "853c9c759ff61f610e1a850d153e27dd", "is_reserved": 0, "fusion_lat": 0.0}, {"type": "electric_scooter", "rental_uris": {"ios": "https://dc.lft.to/lastmile_qr_scan", "android": "https://dc.lft.to/lastmile_qr_scan"}, "lon": -77.03867616666666, "fusion_lon": 0.0, "is_disabled": 0, "lat": 38.91240483333333, "bike_id": "d5a7ac71b1db453ff8233f6014063505", "name": "d5a7ac71b1db453ff8233f6014063505", "is_reserved": 0, "fusion_lat": 0.0}, {"type": "electric_bike", "rental_uris": {"ios": "https://dc.lft.to/lastmile_qr_scan", "android": "https://dc.lft.to/lastmile_qr_scan"}, "lon": -77.035948, "fusion_lon": 0.0, "is_disabled": 0, "lat": 38.906908666666666, "bike_id": "304ee9b6e9c0cefa210a6784fa5c77ad", "name": "304ee9b6e9c0cefa210a6784fa5c77ad", "is_reserved": 0, "fusion_lat": 0.0}, {"type": "electric_scooter", "rental_uris": {"ios": "https://dc.lft.to/lastmile_qr_scan", "android": "https://dc.lft.to/lastmile_qr_scan"}, "lon": -76.99513416666667, "fusion_lon": 0.0, "is_disabled": 0, "lat": 38.92670666666667, "bike_id": "d977ef80463303a9fe854b8fdca3c195", "name": "d977ef80463303a9fe854b8fdca3c195", "is_reserved": 0, "fusion_lat": 0.0}, {"type": "electric_scooter", "rental_uris": {"ios": "https://dc.lft.to/lastmile_qr_scan", "android": "https://dc.lft.to/lastmile_qr_scan"}, "lon": -77.027934, "fusion_lon": 0.0, "is_disabled": 0, "lat": 38.89932133333333, "bike_id": "baf9dec539b2d5001da17918e62a8099", "name": "baf9dec539b2d5001da17918e62a8099", "is_reserved": 0, "fusion_lat": 0.0}, {"type": "electric_scooter", "rental_uris": {"ios": "https://dc.lft.to/lastmile_qr_scan", "android": "https://dc.lft.to/lastmile_qr_scan"}, "lon": -77.041888, "fusion_lon": 0.0, "is_disabled": 0, "lat": 38.90521533333333, "bike_id": "a4b35f545e0aed9d391636d6b81272b6", "name": "a4b35f545e0aed9d391636d6b81272b6", "is_reserved": 0, "fusion_lat": 0.0}, {"type": "electric_scooter", "rental_uris": {"ios": "https://dc.lft.to/lastmile_qr_scan", "android": "https://dc.lft.to/lastmile_qr_scan"}, "lon": -77.043611, "fusion_lon": 0.0, "is_disabled": 0, "lat": 38.9052355, "bike_id": "c7a2882c5806074175a2d2917023cd2f", "name": "c7a2882c5806074175a2d2917023cd2f", "is_reserved": 0, "fusion_lat": 0.0}, {"type": "electric_scooter", "rental_uris": {"ios": "https://dc.lft.to/lastmile_qr_scan", "android": "https://dc.lft.to/lastmile_qr_scan"}, "lon": -77.05940683333333, "fusion_lon": 0.0, "is_disabled": 0, "lat": 38.90943516666667, "bike_id": "3eb378441b8cd5bac95d2fd975f4efe2", "name": "3eb378441b8cd5bac95d2fd975f4efe2", "is_reserved": 0, "fusion_lat": 0.0}, {"type": "electric_scooter", "rental_uris": {"ios": "https://dc.lft.to/lastmile_qr_scan", "android": "https://dc.lft.to/lastmile_qr_scan"}, "lon": -77.02030983333333, "fusion_lon": 0.0, "is_disabled": 0, "lat": 38.9319375, "bike_id": "d9f5ba8c9f5e47f88fad53cb49dc75a7", "name": "d9f5ba8c9f5e47f88fad53cb49dc75a7", "is_reserved": 0, "fusion_lat": 0.0}, {"type": "electric_bike", "rental_uris": {"ios": "https://dc.lft.to/lastmile_qr_scan", "android": "https://dc.lft.to/lastmile_qr_scan"}, "lon": -76.92502766666667, "fusion_lon": 0.0, "is_disabled": 0, "lat": 38.999955, "bike_id": "f5c57add8e75cae14c4e0418cef1e62a", "name": "f5c57add8e75cae14c4e0418cef1e62a", "is_reserved": 0, "fusion_lat": 0.0}, {"type": "electric_scooter", "rental_uris": {"ios": "https://dc.lft.to/lastmile_qr_scan", "android": "https://dc.lft.to/lastmile_qr_scan"}, "lon": -77.0321705, "fusion_lon": 0.0, "is_disabled": 0, "lat": 38.909718166666664, "bike_id": "9f0b424d0f1f6d3ca2a2442ba33a350e", "name": "9f0b424d0f1f6d3ca2a2442ba33a350e", "is_reserved": 0, "fusion_lat": 0.0}, {"type": "electric_scooter", "rental_uris": {"ios": "https://dc.lft.to/lastmile_qr_scan", "android": "https://dc.lft.to/lastmile_qr_scan"}, "lon": -77.03124033333333, "fusion_lon": 0.0, "is_disabled": 0, "lat": 38.9180785, "bike_id": "342a49769bfab16d37e71cf06a27b97b", "name": "342a49769bfab16d37e71cf06a27b97b", "is_reserved": 0, "fusion_lat": 0.0}, {"type": "electric_scooter", "rental_uris": {"ios": "https://dc.lft.to/lastmile_qr_scan", "android": "https://dc.lft.to/lastmile_qr_scan"}, "lon": -77.03348666666666, "fusion_lon": 0.0, "is_disabled": 0, "lat": 38.89250166666667, "bike_id": "98a4c8600569fd2892ea523bd68a5288", "name": "98a4c8600569fd2892ea523bd68a5288", "is_reserved": 0, "fusion_lat": 0.0}, {"type": "electric_scooter", "rental_uris": {"ios": "https://dc.lft.to/lastmile_qr_scan", "android": "https://dc.lft.to/lastmile_qr_scan"}, "lon": -77.02791066666667, "fusion_lon": 0.0, "is_disabled": 0, "lat": 38.93084616666667, "bike_id": "9f385b12e25ff21383a5a85b9d4e8e06", "name": "9f385b12e25ff21383a5a85b9d4e8e06", "is_reserved": 0, "fusion_lat": 0.0}, {"type": "electric_scooter", "rental_uris": {"ios": "https://dc.lft.to/lastmile_qr_scan", "android": "https://dc.lft.to/lastmile_qr_scan"}, "lon": -77.04921583333334, "fusion_lon": 0.0, "is_disabled": 0, "lat": 38.9008735, "bike_id": "67638da77cbb26db4ae0b29b68eb1a41", "name": "67638da77cbb26db4ae0b29b68eb1a41", "is_reserved": 0, "fusion_lat": 0.0}, {"type": "electric_bike", "rental_uris": {"ios": "https://dc.lft.to/lastmile_qr_scan", "android": "https://dc.lft.to/lastmile_qr_scan"}, "lon": -76.98688416666667, "fusion_lon": 0.0, "is_disabled": 0, "lat": 38.94471166666666, "bike_id": "f8b79382f074540115d3ff41c5d75a99", "name": "f8b79382f074540115d3ff41c5d75a99", "is_reserved": 0, "fusion_lat": 0.0}, {"type": "electric_scooter", "rental_uris": {"ios": "https://dc.lft.to/lastmile_qr_scan", "android": "https://dc.lft.to/lastmile_qr_scan"}, "lon": -77.045981, "fusion_lon": 0.0, "is_disabled": 0, "lat": 38.91862033333334, "bike_id": "40a690e9229dd68ff3775e784f0a64c1", "name": "40a690e9229dd68ff3775e784f0a64c1", "is_reserved": 0, "fusion_lat": 0.0}, {"type": "electric_scooter", "rental_uris": {"ios": "https://dc.lft.to/lastmile_qr_scan", "android": "https://dc.lft.to/lastmile_qr_scan"}, "lon": -77.03518466666667, "fusion_lon": 0.0, "is_disabled": 0, "lat": 38.921514, "bike_id": "f6695f7aa27e20b8ccdc4ffc7a2d7022", "name": "f6695f7aa27e20b8ccdc4ffc7a2d7022", "is_reserved": 0, "fusion_lat": 0.0}, {"type": "electric_scooter", "rental_uris": {"ios": "https://dc.lft.to/lastmile_qr_scan", "android": "https://dc.lft.to/lastmile_qr_scan"}, "lon": -77.02752933333333, "fusion_lon": 0.0, "is_disabled": 0, "lat": 38.95780083333333, "bike_id": "275dad3f19486983089db5d3c7095c27", "name": "275dad3f19486983089db5d3c7095c27", "is_reserved": 0, "fusion_lat": 0.0}, {"type": "electric_scooter", "rental_uris": {"ios": "https://dc.lft.to/lastmile_qr_scan", "android": "https://dc.lft.to/lastmile_qr_scan"}, "lon": -77.0523145, "fusion_lon": 0.0, "is_disabled": 0, "lat": 38.924573, "bike_id": "a6f34f63f25ed1a1382cb96d195b0ccf", "name": "a6f34f63f25ed1a1382cb96d195b0ccf", "is_reserved": 0, "fusion_lat": 0.0}, {"type": "electric_scooter", "rental_uris": {"ios": "https://dc.lft.to/lastmile_qr_scan", "android": "https://dc.lft.to/lastmile_qr_scan"}, "lon": -77.0298475, "fusion_lon": 0.0, "is_disabled": 0, "lat": 38.92244816666667, "bike_id": "a49baf2a8caee60e3f5875b453aba6fa", "name": "a49baf2a8caee60e3f5875b453aba6fa", "is_reserved": 0, "fusion_lat": 0.0}, {"type": "electric_scooter", "rental_uris": {"ios": "https://dc.lft.to/lastmile_qr_scan", "android": "https://dc.lft.to/lastmile_qr_scan"}, "lon": -77.0217905, "fusion_lon": 0.0, "is_disabled": 0, "lat": 38.89302083333333, "bike_id": "184d839a59f41eda689ae913887a8a0f", "name": "184d839a59f41eda689ae913887a8a0f", "is_reserved": 0, "fusion_lat": 0.0}, {"type": "electric_scooter", "rental_uris": {"ios": "https://dc.lft.to/lastmile_qr_scan", "android": "https://dc.lft.to/lastmile_qr_scan"}, "lon": -76.95751083333333, "fusion_lon": 0.0, "is_disabled": 0, "lat": 38.88426316666666, "bike_id": "0b6c7d100f2b5d173883c143e0afc0ff", "name": "0b6c7d100f2b5d173883c143e0afc0ff", "is_reserved": 0, "fusion_lat": 0.0}, {"type": "electric_scooter", "rental_uris": {"ios": "https://dc.lft.to/lastmile_qr_scan", "android": "https://dc.lft.to/lastmile_qr_scan"}, "lon": -77.03425666666666, "fusion_lon": 0.0, "is_disabled": 0, "lat": 38.90971433333333, "bike_id": "f21bf6075b88e2961cae5a52e55c6f98", "name": "f21bf6075b88e2961cae5a52e55c6f98", "is_reserved": 0, "fusion_lat": 0.0}, {"type": "electric_scooter", "rental_uris": {"ios": "https://dc.lft.to/lastmile_qr_scan", "android": "https://dc.lft.to/lastmile_qr_scan"}, "lon": -77.02433983333333, "fusion_lon": 0.0, "is_disabled": 0, "lat": 38.92754933333333, "bike_id": "c3a84b22d2fc9fe826681a0f9dba6687", "name": "c3a84b22d2fc9fe826681a0f9dba6687", "is_reserved": 0, "fusion_lat": 0.0}, {"type": "electric_scooter", "rental_uris": {"ios": "https://dc.lft.to/lastmile_qr_scan", "android": "https://dc.lft.to/lastmile_qr_scan"}, "lon": -77.03259766666666, "fusion_lon": 0.0, "is_disabled": 0, "lat": 38.91989616666667, "bike_id": "e75e4f9228ab8994946c15a985aa5db9", "name": "e75e4f9228ab8994946c15a985aa5db9", "is_reserved": 0, "fusion_lat": 0.0}, {"type": "electric_scooter", "rental_uris": {"ios": "https://dc.lft.to/lastmile_qr_scan", "android": "https://dc.lft.to/lastmile_qr_scan"}, "lon": -77.001187, "fusion_lon": 0.0, "is_disabled": 0, "lat": 38.87799066666667, "bike_id": "2f4cb4abb79b210ce2f21289e20df98f", "name": "2f4cb4abb79b210ce2f21289e20df98f", "is_reserved": 0, "fusion_lat": 0.0}, {"type": "electric_scooter", "rental_uris": {"ios": "https://dc.lft.to/lastmile_qr_scan", "android": "https://dc.lft.to/lastmile_qr_scan"}, "lon": -76.97242883333334, "fusion_lon": 0.0, "is_disabled": 0, "lat": 38.85456116666667, "bike_id": "4111176783010ef446ab888171df72ef", "name": "4111176783010ef446ab888171df72ef", "is_reserved": 0, "fusion_lat": 0.0}, {"type": "electric_scooter", "rental_uris": {"ios": "https://dc.lft.to/lastmile_qr_scan", "android": "https://dc.lft.to/lastmile_qr_scan"}, "lon": -77.0632625, "fusion_lon": 0.0, "is_disabled": 0, "lat": 38.90270433333333, "bike_id": "19a023e38023f89eebb41efc94859fb3", "name": "19a023e38023f89eebb41efc94859fb3", "is_reserved": 0, "fusion_lat": 0.0}, {"type": "electric_scooter", "rental_uris": {"ios": "https://dc.lft.to/lastmile_qr_scan", "android": "https://dc.lft.to/lastmile_qr_scan"}, "lon": -77.05025683333334, "fusion_lon": 0.0, "is_disabled": 0, "lat": 38.90313233333333, "bike_id": "6aaf26b703cdb502fa7acf31b88f98d4", "name": "6aaf26b703cdb502fa7acf31b88f98d4", "is_reserved": 0, "fusion_lat": 0.0}, {"type": "electric_scooter", "rental_uris": {"ios": "https://dc.lft.to/lastmile_qr_scan", "android": "https://dc.lft.to/lastmile_qr_scan"}, "lon": -76.97329766666667, "fusion_lon": 0.0, "is_disabled": 0, "lat": 38.904089, "bike_id": "2b9cba0640423342f3b4626523f9bbff", "name": "2b9cba0640423342f3b4626523f9bbff", "is_reserved": 0, "fusion_lat": 0.0}, {"type": "electric_bike", "rental_uris": {"ios": "https://dc.lft.to/lastmile_qr_scan", "android": "https://dc.lft.to/lastmile_qr_scan"}, "lon": -77.036337, "fusion_lon": 0.0, "is_disabled": 0, "lat": 38.932887, "bike_id": "d6e4aee362144a6ba1203c79c4959aca", "name": "d6e4aee362144a6ba1203c79c4959aca", "is_reserved": 0, "fusion_lat": 0.0}, {"type": "electric_scooter", "rental_uris": {"ios": "https://dc.lft.to/lastmile_qr_scan", "android": "https://dc.lft.to/lastmile_qr_scan"}, "lon": -77.00063116666666, "fusion_lon": 0.0, "is_disabled": 0, "lat": 38.905722, "bike_id": "8d8201ae351056c2aff22516d5376e02", "name": "8d8201ae351056c2aff22516d5376e02", "is_reserved": 0, "fusion_lat": 0.0}, {"type": "electric_bike", "rental_uris": {"ios": "https://dc.lft.to/lastmile_qr_scan", "android": "https://dc.lft.to/lastmile_qr_scan"}, "lon": -77.0948335, "fusion_lon": 0.0, "is_disabled": 0, "lat": 39.030438333333336, "bike_id": "2d50c90235f41c9ac049e1061fe86884", "name": "2d50c90235f41c9ac049e1061fe86884", "is_reserved": 0, "fusion_lat": 0.0}, {"type": "electric_scooter", "rental_uris": {"ios": "https://dc.lft.to/lastmile_qr_scan", "android": "https://dc.lft.to/lastmile_qr_scan"}, "lon": -77.01072983333333, "fusion_lon": 0.0, "is_disabled": 0, "lat": 38.916282, "bike_id": "426fd6602aeb1a6ee6d3cceaa52947ff", "name": "426fd6602aeb1a6ee6d3cceaa52947ff", "is_reserved": 0, "fusion_lat": 0.0}, {"type": "electric_scooter", "rental_uris": {"ios": "https://dc.lft.to/lastmile_qr_scan", "android": "https://dc.lft.to/lastmile_qr_scan"}, "lon": -77.0304605, "fusion_lon": 0.0, "is_disabled": 0, "lat": 38.88435366666667, "bike_id": "d55021514811a15247cb786f4acb85e0", "name": "d55021514811a15247cb786f4acb85e0", "is_reserved": 0, "fusion_lat": 0.0}, {"type": "electric_scooter", "rental_uris": {"ios": "https://dc.lft.to/lastmile_qr_scan", "android": "https://dc.lft.to/lastmile_qr_scan"}, "lon": -77.0207945, "fusion_lon": 0.0, "is_disabled": 0, "lat": 38.8757755, "bike_id": "5f004edc94fbefe934cbebb372472952", "name": "5f004edc94fbefe934cbebb372472952", "is_reserved": 0, "fusion_lat": 0.0}, {"type": "electric_scooter", "rental_uris": {"ios": "https://dc.lft.to/lastmile_qr_scan", "android": "https://dc.lft.to/lastmile_qr_scan"}, "lon": -77.02976616666666, "fusion_lon": 0.0, "is_disabled": 0, "lat": 38.916814333333335, "bike_id": "44f824fedf7f3f6de7cf82ea7806e2e1", "name": "44f824fedf7f3f6de7cf82ea7806e2e1", "is_reserved": 0, "fusion_lat": 0.0}, {"type": "electric_scooter", "rental_uris": {"ios": "https://dc.lft.to/lastmile_qr_scan", "android": "https://dc.lft.to/lastmile_qr_scan"}, "lon": -77.04888783333334, "fusion_lon": 0.0, "is_disabled": 0, "lat": 38.91338616666667, "bike_id": "d744ede28e5fb44fb1321f14f586f42e", "name": "d744ede28e5fb44fb1321f14f586f42e", "is_reserved": 0, "fusion_lat": 0.0}, {"type": "electric_scooter", "rental_uris": {"ios": "https://dc.lft.to/lastmile_qr_scan", "android": "https://dc.lft.to/lastmile_qr_scan"}, "lon": -77.04747966666666, "fusion_lon": 0.0, "is_disabled": 0, "lat": 38.9020735, "bike_id": "bbcfa621d2c1fd7274adb5c9c97fce7f", "name": "bbcfa621d2c1fd7274adb5c9c97fce7f", "is_reserved": 0, "fusion_lat": 0.0}, {"type": "electric_scooter", "rental_uris": {"ios": "https://dc.lft.to/lastmile_qr_scan", "android": "https://dc.lft.to/lastmile_qr_scan"}, "lon": -77.04078116666666, "fusion_lon": 0.0, "is_disabled": 0, "lat": 38.90402483333333, "bike_id": "63e09be876e29126c4900f22e57f8897", "name": "63e09be876e29126c4900f22e57f8897", "is_reserved": 0, "fusion_lat": 0.0}, {"type": "electric_scooter", "rental_uris": {"ios": "https://dc.lft.to/lastmile_qr_scan", "android": "https://dc.lft.to/lastmile_qr_scan"}, "lon": -77.07299133333333, "fusion_lon": 0.0, "is_disabled": 0, "lat": 38.92149833333333, "bike_id": "296496953dc64f4b878d57750e60fc70", "name": "296496953dc64f4b878d57750e60fc70", "is_reserved": 0, "fusion_lat": 0.0}, {"type": "electric_scooter", "rental_uris": {"ios": "https://dc.lft.to/lastmile_qr_scan", "android": "https://dc.lft.to/lastmile_qr_scan"}, "lon": -77.04197716666667, "fusion_lon": 0.0, "is_disabled": 0, "lat": 38.89222516666667, "bike_id": "96a62202bf0e44a7f6d3794cda39da45", "name": "96a62202bf0e44a7f6d3794cda39da45", "is_reserved": 0, "fusion_lat": 0.0}, {"type": "electric_scooter", "rental_uris": {"ios": "https://dc.lft.to/lastmile_qr_scan", "android": "https://dc.lft.to/lastmile_qr_scan"}, "lon": -77.05326733333334, "fusion_lon": 0.0, "is_disabled": 0, "lat": 38.92340266666667, "bike_id": "07f68cee21279b32971052136cc89c54", "name": "07f68cee21279b32971052136cc89c54", "is_reserved": 0, "fusion_lat": 0.0}, {"type": "electric_scooter", "rental_uris": {"ios": "https://dc.lft.to/lastmile_qr_scan", "android": "https://dc.lft.to/lastmile_qr_scan"}, "lon": -77.06892, "fusion_lon": 0.0, "is_disabled": 0, "lat": 38.904190666666665, "bike_id": "fe9053c7537eb3661824876e91d35394", "name": "fe9053c7537eb3661824876e91d35394", "is_reserved": 0, "fusion_lat": 0.0}, {"type": "electric_scooter", "rental_uris": {"ios": "https://dc.lft.to/lastmile_qr_scan", "android": "https://dc.lft.to/lastmile_qr_scan"}, "lon": -77.036466, "fusion_lon": 0.0, "is_disabled": 0, "lat": 38.920846, "bike_id": "c0f2417cabcbb16f7824b35d15ec88bb", "name": "c0f2417cabcbb16f7824b35d15ec88bb", "is_reserved": 0, "fusion_lat": 0.0}, {"type": "electric_scooter", "rental_uris": {"ios": "https://dc.lft.to/lastmile_qr_scan", "android": "https://dc.lft.to/lastmile_qr_scan"}, "lon": -77.03677233333333, "fusion_lon": 0.0, "is_disabled": 0, "lat": 38.919105, "bike_id": "88e6475252e557ed5effaa9141bc7aa3", "name": "88e6475252e557ed5effaa9141bc7aa3", "is_reserved": 0, "fusion_lat": 0.0}, {"type": "electric_scooter", "rental_uris": {"ios": "https://dc.lft.to/lastmile_qr_scan", "android": "https://dc.lft.to/lastmile_qr_scan"}, "lon": -76.99389416666666, "fusion_lon": 0.0, "is_disabled": 0, "lat": 38.910117, "bike_id": "72117650bf291fdc02a6962b7bd57c52", "name": "72117650bf291fdc02a6962b7bd57c52", "is_reserved": 0, "fusion_lat": 0.0}, {"type": "electric_scooter", "rental_uris": {"ios": "https://dc.lft.to/lastmile_qr_scan", "android": "https://dc.lft.to/lastmile_qr_scan"}, "lon": -77.04866, "fusion_lon": 0.0, "is_disabled": 0, "lat": 38.909580166666665, "bike_id": "1e85b6ae5ff08e39574f8dffb491989f", "name": "1e85b6ae5ff08e39574f8dffb491989f", "is_reserved": 0, "fusion_lat": 0.0}, {"type": "electric_scooter", "rental_uris": {"ios": "https://dc.lft.to/lastmile_qr_scan", "android": "https://dc.lft.to/lastmile_qr_scan"}, "lon": -77.03187233333334, "fusion_lon": 0.0, "is_disabled": 0, "lat": 38.91334966666667, "bike_id": "7865a8baece19e718bbcf3dbc9dc5cc2", "name": "7865a8baece19e718bbcf3dbc9dc5cc2", "is_reserved": 0, "fusion_lat": 0.0}, {"type": "electric_scooter", "rental_uris": {"ios": "https://dc.lft.to/lastmile_qr_scan", "android": "https://dc.lft.to/lastmile_qr_scan"}, "lon": -77.032439, "fusion_lon": 0.0, "is_disabled": 0, "lat": 38.89916916666667, "bike_id": "0c6511ef7a60bc572a9977e12a9db221", "name": "0c6511ef7a60bc572a9977e12a9db221", "is_reserved": 0, "fusion_lat": 0.0}, {"type": "electric_scooter", "rental_uris": {"ios": "https://dc.lft.to/lastmile_qr_scan", "android": "https://dc.lft.to/lastmile_qr_scan"}, "lon": -77.0174505, "fusion_lon": 0.0, "is_disabled": 0, "lat": 38.920379, "bike_id": "9b558de7fbb8602322eb034637713494", "name": "9b558de7fbb8602322eb034637713494", "is_reserved": 0, "fusion_lat": 0.0}, {"type": "electric_scooter", "rental_uris": {"ios": "https://dc.lft.to/lastmile_qr_scan", "android": "https://dc.lft.to/lastmile_qr_scan"}, "lon": -77.0320925, "fusion_lon": 0.0, "is_disabled": 0, "lat": 38.8957405, "bike_id": "1718226b9924c5c7b316c72b693a4aea", "name": "1718226b9924c5c7b316c72b693a4aea", "is_reserved": 0, "fusion_lat": 0.0}, {"type": "electric_scooter", "rental_uris": {"ios": "https://dc.lft.to/lastmile_qr_scan", "android": "https://dc.lft.to/lastmile_qr_scan"}, "lon": -77.01056883333334, "fusion_lon": 0.0, "is_disabled": 0, "lat": 38.896008333333334, "bike_id": "e94227373f943969fa037cc705827487", "name": "e94227373f943969fa037cc705827487", "is_reserved": 0, "fusion_lat": 0.0}, {"type": "electric_scooter", "rental_uris": {"ios": "https://dc.lft.to/lastmile_qr_scan", "android": "https://dc.lft.to/lastmile_qr_scan"}, "lon": -77.036297, "fusion_lon": 0.0, "is_disabled": 0, "lat": 38.93287316666667, "bike_id": "d85508766d24663d431ddd78c66973e0", "name": "d85508766d24663d431ddd78c66973e0", "is_reserved": 0, "fusion_lat": 0.0}, {"type": "electric_scooter", "rental_uris": {"ios": "https://dc.lft.to/lastmile_qr_scan", "android": "https://dc.lft.to/lastmile_qr_scan"}, "lon": -76.93527866666666, "fusion_lon": 0.0, "is_disabled": 0, "lat": 38.878991166666665, "bike_id": "805cc5a0c3c33b7b397db8cccd38f1d4", "name": "805cc5a0c3c33b7b397db8cccd38f1d4", "is_reserved": 0, "fusion_lat": 0.0}, {"type": "electric_scooter", "rental_uris": {"ios": "https://dc.lft.to/lastmile_qr_scan", "android": "https://dc.lft.to/lastmile_qr_scan"}, "lon": -77.0438775, "fusion_lon": 0.0, "is_disabled": 0, "lat": 38.91067616666667, "bike_id": "c6542e72e3aef47f75982d27d38b52ee", "name": "c6542e72e3aef47f75982d27d38b52ee", "is_reserved": 0, "fusion_lat": 0.0}, {"type": "electric_bike", "rental_uris": {"ios": "https://dc.lft.to/lastmile_qr_scan", "android": "https://dc.lft.to/lastmile_qr_scan"}, "lon": -77.00672133333333, "fusion_lon": 0.0, "is_disabled": 0, "lat": 38.94513583333333, "bike_id": "42c081a52e9f356facb98880960d175e", "name": "42c081a52e9f356facb98880960d175e", "is_reserved": 0, "fusion_lat": 0.0}, {"type": "electric_scooter", "rental_uris": {"ios": "https://dc.lft.to/lastmile_qr_scan", "android": "https://dc.lft.to/lastmile_qr_scan"}, "lon": -77.03856, "fusion_lon": 0.0, "is_disabled": 0, "lat": 38.86752583333333, "bike_id": "e1c53878a98f1088ba04c1f18e18b13f", "name": "e1c53878a98f1088ba04c1f18e18b13f", "is_reserved": 0, "fusion_lat": 0.0}, {"type": "electric_scooter", "rental_uris": {"ios": "https://dc.lft.to/lastmile_qr_scan", "android": "https://dc.lft.to/lastmile_qr_scan"}, "lon": -76.95418966666666, "fusion_lon": 0.0, "is_disabled": 0, "lat": 38.89065883333333, "bike_id": "2205e46071e1262c7afd7b4821662708", "name": "2205e46071e1262c7afd7b4821662708", "is_reserved": 0, "fusion_lat": 0.0}, {"type": "electric_scooter", "rental_uris": {"ios": "https://dc.lft.to/lastmile_qr_scan", "android": "https://dc.lft.to/lastmile_qr_scan"}, "lon": -77.02964466666667, "fusion_lon": 0.0, "is_disabled": 0, "lat": 38.925906499999996, "bike_id": "0db3e7df7c59c49dfd6c23f776f8d4e4", "name": "0db3e7df7c59c49dfd6c23f776f8d4e4", "is_reserved": 0, "fusion_lat": 0.0}, {"type": "electric_scooter", "rental_uris": {"ios": "https://dc.lft.to/lastmile_qr_scan", "android": "https://dc.lft.to/lastmile_qr_scan"}, "lon": -77.0443715, "fusion_lon": 0.0, "is_disabled": 0, "lat": 38.91259433333333, "bike_id": "e591df2b17b74d2b1e34dbf10bcde450", "name": "e591df2b17b74d2b1e34dbf10bcde450", "is_reserved": 0, "fusion_lat": 0.0}, {"type": "electric_bike", "rental_uris": {"ios": "https://dc.lft.to/lastmile_qr_scan", "android": "https://dc.lft.to/lastmile_qr_scan"}, "lon": -76.97828783333334, "fusion_lon": 0.0, "is_disabled": 0, "lat": 38.87076966666667, "bike_id": "7763ee4647c5db97dd1e3bcf986c37f9", "name": "7763ee4647c5db97dd1e3bcf986c37f9", "is_reserved": 0, "fusion_lat": 0.0}, {"type": "electric_scooter", "rental_uris": {"ios": "https://dc.lft.to/lastmile_qr_scan", "android": "https://dc.lft.to/lastmile_qr_scan"}, "lon": -77.00611866666667, "fusion_lon": 0.0, "is_disabled": 0, "lat": 38.871805333333334, "bike_id": "c6fbb099bb8ce24acc6fd7b0bb5e7404", "name": "c6fbb099bb8ce24acc6fd7b0bb5e7404", "is_reserved": 0, "fusion_lat": 0.0}, {"type": "electric_scooter", "rental_uris": {"ios": "https://dc.lft.to/lastmile_qr_scan", "android": "https://dc.lft.to/lastmile_qr_scan"}, "lon": -76.983415, "fusion_lon": 0.0, "is_disabled": 0, "lat": 38.907447166666664, "bike_id": "8cf96d41d9a9dacb81cbef67abada492", "name": "8cf96d41d9a9dacb81cbef67abada492", "is_reserved": 0, "fusion_lat": 0.0}, {"type": "electric_scooter", "rental_uris": {"ios": "https://dc.lft.to/lastmile_qr_scan", "android": "https://dc.lft.to/lastmile_qr_scan"}, "lon": -77.022289, "fusion_lon": 0.0, "is_disabled": 0, "lat": 38.9125915, "bike_id": "d46218d1feec8141d91d49439f683286", "name": "d46218d1feec8141d91d49439f683286", "is_reserved": 0, "fusion_lat": 0.0}, {"type": "electric_bike", "rental_uris": {"ios": "https://dc.lft.to/lastmile_qr_scan", "android": "https://dc.lft.to/lastmile_qr_scan"}, "lon": -76.94792466666667, "fusion_lon": 0.0, "is_disabled": 0, "lat": 38.8939605, "bike_id": "de44f9c7e967c75699c8884ef98ce518", "name": "de44f9c7e967c75699c8884ef98ce518", "is_reserved": 0, "fusion_lat": 0.0}, {"type": "electric_bike", "rental_uris": {"ios": "https://dc.lft.to/lastmile_qr_scan", "android": "https://dc.lft.to/lastmile_qr_scan"}, "lon": -76.99019566666666, "fusion_lon": 0.0, "is_disabled": 0, "lat": 38.954777166666666, "bike_id": "4c7c351f61bd7e45584a11c9ddfdc1f2", "name": "4c7c351f61bd7e45584a11c9ddfdc1f2", "is_reserved": 0, "fusion_lat": 0.0}, {"type": "electric_scooter", "rental_uris": {"ios": "https://dc.lft.to/lastmile_qr_scan", "android": "https://dc.lft.to/lastmile_qr_scan"}, "lon": -77.03430583333333, "fusion_lon": 0.0, "is_disabled": 0, "lat": 38.907315833333335, "bike_id": "43041c454166e71ac25bcd9122f0fdf9", "name": "43041c454166e71ac25bcd9122f0fdf9", "is_reserved": 0, "fusion_lat": 0.0}, {"type": "electric_bike", "rental_uris": {"ios": "https://dc.lft.to/lastmile_qr_scan", "android": "https://dc.lft.to/lastmile_qr_scan"}, "lon": -76.96258183333333, "fusion_lon": 0.0, "is_disabled": 0, "lat": 38.882482333333336, "bike_id": "f07fb104d9af8aa2998b72b0ff4e65d4", "name": "f07fb104d9af8aa2998b72b0ff4e65d4", "is_reserved": 0, "fusion_lat": 0.0}, {"type": "electric_scooter", "rental_uris": {"ios": "https://dc.lft.to/lastmile_qr_scan", "android": "https://dc.lft.to/lastmile_qr_scan"}, "lon": -77.03972966666667, "fusion_lon": 0.0, "is_disabled": 0, "lat": 38.8988255, "bike_id": "b227faee9e94c5a6bc2da92bdc22fcab", "name": "b227faee9e94c5a6bc2da92bdc22fcab", "is_reserved": 0, "fusion_lat": 0.0}, {"type": "electric_scooter", "rental_uris": {"ios": "https://dc.lft.to/lastmile_qr_scan", "android": "https://dc.lft.to/lastmile_qr_scan"}, "lon": -77.0406845, "fusion_lon": 0.0, "is_disabled": 0, "lat": 38.89886, "bike_id": "1dbb80decfcfec85c0251e04ba7aaee3", "name": "1dbb80decfcfec85c0251e04ba7aaee3", "is_reserved": 0, "fusion_lat": 0.0}, {"type": "electric_bike", "rental_uris": {"ios": "https://dc.lft.to/lastmile_qr_scan", "android": "https://dc.lft.to/lastmile_qr_scan"}, "lon": -77.0491755, "fusion_lon": 0.0, "is_disabled": 0, "lat": 38.81352433333333, "bike_id": "f2bd4415a81cdd9dde1ed788fac9306d", "name": "f2bd4415a81cdd9dde1ed788fac9306d", "is_reserved": 0, "fusion_lat": 0.0}, {"type": "electric_scooter", "rental_uris": {"ios": "https://dc.lft.to/lastmile_qr_scan", "android": "https://dc.lft.to/lastmile_qr_scan"}, "lon": -77.02609816666667, "fusion_lon": 0.0, "is_disabled": 0, "lat": 38.90178783333333, "bike_id": "45feb3e1777cca2540305d5a58bb5315", "name": "45feb3e1777cca2540305d5a58bb5315", "is_reserved": 0, "fusion_lat": 0.0}, {"type": "electric_bike", "rental_uris": {"ios": "https://dc.lft.to/lastmile_qr_scan", "android": "https://dc.lft.to/lastmile_qr_scan"}, "lon": -76.9835675, "fusion_lon": 0.0, "is_disabled": 0, "lat": 38.89439566666667, "bike_id": "4e8a1c9abc36a453778743a384c6a004", "name": "4e8a1c9abc36a453778743a384c6a004", "is_reserved": 0, "fusion_lat": 0.0}, {"type": "electric_scooter", "rental_uris": {"ios": "https://dc.lft.to/lastmile_qr_scan", "android": "https://dc.lft.to/lastmile_qr_scan"}, "lon": -77.02999033333333, "fusion_lon": 0.0, "is_disabled": 0, "lat": 38.929712, "bike_id": "9fc13be241476dcb7caa96c70a394da6", "name": "9fc13be241476dcb7caa96c70a394da6", "is_reserved": 0, "fusion_lat": 0.0}, {"type": "electric_scooter", "rental_uris": {"ios": "https://dc.lft.to/lastmile_qr_scan", "android": "https://dc.lft.to/lastmile_qr_scan"}, "lon": -77.04169016666667, "fusion_lon": 0.0, "is_disabled": 0, "lat": 38.91763983333333, "bike_id": "e556257ea656364717b9b71d13ce57b9", "name": "e556257ea656364717b9b71d13ce57b9", "is_reserved": 0, "fusion_lat": 0.0}, {"type": "electric_scooter", "rental_uris": {"ios": "https://dc.lft.to/lastmile_qr_scan", "android": "https://dc.lft.to/lastmile_qr_scan"}, "lon": -76.977312, "fusion_lon": 0.0, "is_disabled": 0, "lat": 38.895231, "bike_id": "d9a0fa32e1c7f7cd532e52408ed08a2d", "name": "d9a0fa32e1c7f7cd532e52408ed08a2d", "is_reserved": 0, "fusion_lat": 0.0}, {"type": "electric_scooter", "rental_uris": {"ios": "https://dc.lft.to/lastmile_qr_scan", "android": "https://dc.lft.to/lastmile_qr_scan"}, "lon": -77.0020595, "fusion_lon": 0.0, "is_disabled": 0, "lat": 38.9003535, "bike_id": "259fd3a25c9190274a6ea0d733020d1f", "name": "259fd3a25c9190274a6ea0d733020d1f", "is_reserved": 0, "fusion_lat": 0.0}, {"type": "electric_scooter", "rental_uris": {"ios": "https://dc.lft.to/lastmile_qr_scan", "android": "https://dc.lft.to/lastmile_qr_scan"}, "lon": -77.00218283333334, "fusion_lon": 0.0, "is_disabled": 0, "lat": 38.904312166666664, "bike_id": "470c02413545a784530b2e51bc3dd65d", "name": "470c02413545a784530b2e51bc3dd65d", "is_reserved": 0, "fusion_lat": 0.0}, {"type": "electric_scooter", "rental_uris": {"ios": "https://dc.lft.to/lastmile_qr_scan", "android": "https://dc.lft.to/lastmile_qr_scan"}, "lon": -77.032135, "fusion_lon": 0.0, "is_disabled": 0, "lat": 38.91717666666667, "bike_id": "1b69590078210bb62fc185b7b13cd33f", "name": "1b69590078210bb62fc185b7b13cd33f", "is_reserved": 0, "fusion_lat": 0.0}, {"type": "electric_bike", "rental_uris": {"ios": "https://dc.lft.to/lastmile_qr_scan", "android": "https://dc.lft.to/lastmile_qr_scan"}, "lon": -77.03515666666667, "fusion_lon": 0.0, "is_disabled": 0, "lat": 38.962055166666666, "bike_id": "89c2186ec0555c1c82ebdb6bb0bffeed", "name": "89c2186ec0555c1c82ebdb6bb0bffeed", "is_reserved": 0, "fusion_lat": 0.0}, {"type": "electric_scooter", "rental_uris": {"ios": "https://dc.lft.to/lastmile_qr_scan", "android": "https://dc.lft.to/lastmile_qr_scan"}, "lon": -77.023982, "fusion_lon": 0.0, "is_disabled": 0, "lat": 38.91749, "bike_id": "223a14a6967fd3b7a89d255c7eb8a0e0", "name": "223a14a6967fd3b7a89d255c7eb8a0e0", "is_reserved": 0, "fusion_lat": 0.0}, {"type": "electric_scooter", "rental_uris": {"ios": "https://dc.lft.to/lastmile_qr_scan", "android": "https://dc.lft.to/lastmile_qr_scan"}, "lon": -76.99860166666667, "fusion_lon": 0.0, "is_disabled": 0, "lat": 38.899994166666666, "bike_id": "77b9f6f47efd82ced3ed6cbd7a115333", "name": "77b9f6f47efd82ced3ed6cbd7a115333", "is_reserved": 0, "fusion_lat": 0.0}, {"type": "electric_bike", "rental_uris": {"ios": "https://dc.lft.to/lastmile_qr_scan", "android": "https://dc.lft.to/lastmile_qr_scan"}, "lon": -77.03218166666667, "fusion_lon": 0.0, "is_disabled": 0, "lat": 38.9155095, "bike_id": "aa7a5e9974fac8df3df7470ef376b0b0", "name": "aa7a5e9974fac8df3df7470ef376b0b0", "is_reserved": 0, "fusion_lat": 0.0}, {"type": "electric_scooter", "rental_uris": {"ios": "https://dc.lft.to/lastmile_qr_scan", "android": "https://dc.lft.to/lastmile_qr_scan"}, "lon": -77.02222116666667, "fusion_lon": 0.0, "is_disabled": 0, "lat": 38.8922175, "bike_id": "b4e04af56028eefb6efc61fbc191e4ed", "name": "b4e04af56028eefb6efc61fbc191e4ed", "is_reserved": 0, "fusion_lat": 0.0}, {"type": "electric_scooter", "rental_uris": {"ios": "https://dc.lft.to/lastmile_qr_scan", "android": "https://dc.lft.to/lastmile_qr_scan"}, "lon": -77.0319655, "fusion_lon": 0.0, "is_disabled": 0, "lat": 38.91339116666666, "bike_id": "7f38b9088bc7ff726562962519444ee8", "name": "7f38b9088bc7ff726562962519444ee8", "is_reserved": 0, "fusion_lat": 0.0}, {"type": "electric_bike", "rental_uris": {"ios": "https://dc.lft.to/lastmile_qr_scan", "android": "https://dc.lft.to/lastmile_qr_scan"}, "lon": -77.04491833333333, "fusion_lon": 0.0, "is_disabled": 0, "lat": 38.842934166666666, "bike_id": "60417f57b8a587ce8a6f103f4dde2c85", "name": "60417f57b8a587ce8a6f103f4dde2c85", "is_reserved": 0, "fusion_lat": 0.0}, {"type": "electric_scooter", "rental_uris": {"ios": "https://dc.lft.to/lastmile_qr_scan", "android": "https://dc.lft.to/lastmile_qr_scan"}, "lon": -77.02140383333334, "fusion_lon": 0.0, "is_disabled": 0, "lat": 38.92593816666667, "bike_id": "54e7d0434cc4ae1595f2e99e34989122", "name": "54e7d0434cc4ae1595f2e99e34989122", "is_reserved": 0, "fusion_lat": 0.0}, {"type": "electric_scooter", "rental_uris": {"ios": "https://dc.lft.to/lastmile_qr_scan", "android": "https://dc.lft.to/lastmile_qr_scan"}, "lon": -77.03289716666667, "fusion_lon": 0.0, "is_disabled": 0, "lat": 38.947158333333334, "bike_id": "936962322e204dbb4b7d6d49353cd0a0", "name": "936962322e204dbb4b7d6d49353cd0a0", "is_reserved": 0, "fusion_lat": 0.0}, {"type": "electric_scooter", "rental_uris": {"ios": "https://dc.lft.to/lastmile_qr_scan", "android": "https://dc.lft.to/lastmile_qr_scan"}, "lon": -77.04435083333334, "fusion_lon": 0.0, "is_disabled": 0, "lat": 38.91262183333333, "bike_id": "498fb5c673d973b8abccf63fb87b6ba8", "name": "498fb5c673d973b8abccf63fb87b6ba8", "is_reserved": 0, "fusion_lat": 0.0}, {"type": "electric_scooter", "rental_uris": {"ios": "https://dc.lft.to/lastmile_qr_scan", "android": "https://dc.lft.to/lastmile_qr_scan"}, "lon": -77.02468783333333, "fusion_lon": 0.0, "is_disabled": 0, "lat": 38.93304783333333, "bike_id": "1048ae0c987b449e44efc07590a5527a", "name": "1048ae0c987b449e44efc07590a5527a", "is_reserved": 0, "fusion_lat": 0.0}, {"type": "electric_bike", "rental_uris": {"ios": "https://dc.lft.to/lastmile_qr_scan", "android": "https://dc.lft.to/lastmile_qr_scan"}, "lon": -77.0283605, "fusion_lon": 0.0, "is_disabled": 0, "lat": 38.96504083333333, "bike_id": "283fbd77c7c52e85827afbfead154753", "name": "283fbd77c7c52e85827afbfead154753", "is_reserved": 0, "fusion_lat": 0.0}, {"type": "electric_scooter", "rental_uris": {"ios": "https://dc.lft.to/lastmile_qr_scan", "android": "https://dc.lft.to/lastmile_qr_scan"}, "lon": -77.04012033333333, "fusion_lon": 0.0, "is_disabled": 0, "lat": 38.9100575, "bike_id": "3135d38f67281e8b48dbfaa0c9bfa7e5", "name": "3135d38f67281e8b48dbfaa0c9bfa7e5", "is_reserved": 0, "fusion_lat": 0.0}, {"type": "electric_scooter", "rental_uris": {"ios": "https://dc.lft.to/lastmile_qr_scan", "android": "https://dc.lft.to/lastmile_qr_scan"}, "lon": -77.03853766666667, "fusion_lon": 0.0, "is_disabled": 0, "lat": 38.91551183333333, "bike_id": "69daa1874e84922da7da0a225b6ac40d", "name": "69daa1874e84922da7da0a225b6ac40d", "is_reserved": 0, "fusion_lat": 0.0}, {"type": "electric_scooter", "rental_uris": {"ios": "https://dc.lft.to/lastmile_qr_scan", "android": "https://dc.lft.to/lastmile_qr_scan"}, "lon": -77.00575216666667, "fusion_lon": 0.0, "is_disabled": 0, "lat": 38.905714, "bike_id": "678fb800fdaef801a99ade7fac846e7f", "name": "678fb800fdaef801a99ade7fac846e7f", "is_reserved": 0, "fusion_lat": 0.0}, {"type": "electric_scooter", "rental_uris": {"ios": "https://dc.lft.to/lastmile_qr_scan", "android": "https://dc.lft.to/lastmile_qr_scan"}, "lon": -77.041335, "fusion_lon": 0.0, "is_disabled": 0, "lat": 38.934054, "bike_id": "18f9302379971c1759881c1a53f38301", "name": "18f9302379971c1759881c1a53f38301", "is_reserved": 0, "fusion_lat": 0.0}, {"type": "electric_scooter", "rental_uris": {"ios": "https://dc.lft.to/lastmile_qr_scan", "android": "https://dc.lft.to/lastmile_qr_scan"}, "lon": -77.03973316666666, "fusion_lon": 0.0, "is_disabled": 0, "lat": 38.898762, "bike_id": "f0349ae97eaba4ccdd7951a11bc1af94", "name": "f0349ae97eaba4ccdd7951a11bc1af94", "is_reserved": 0, "fusion_lat": 0.0}, {"type": "electric_bike", "rental_uris": {"ios": "https://dc.lft.to/lastmile_qr_scan", "android": "https://dc.lft.to/lastmile_qr_scan"}, "lon": -77.02777116666667, "fusion_lon": 0.0, "is_disabled": 0, "lat": 38.929321333333334, "bike_id": "8b613a488bfadabd41e1446e33081209", "name": "8b613a488bfadabd41e1446e33081209", "is_reserved": 0, "fusion_lat": 0.0}, {"type": "electric_bike", "rental_uris": {"ios": "https://dc.lft.to/lastmile_qr_scan", "android": "https://dc.lft.to/lastmile_qr_scan"}, "lon": -76.985335, "fusion_lon": 0.0, "is_disabled": 0, "lat": 38.8808365, "bike_id": "30122df782fe10a9fcaaf9dddbfceeef", "name": "30122df782fe10a9fcaaf9dddbfceeef", "is_reserved": 0, "fusion_lat": 0.0}, {"type": "electric_scooter", "rental_uris": {"ios": "https://dc.lft.to/lastmile_qr_scan", "android": "https://dc.lft.to/lastmile_qr_scan"}, "lon": -77.055024, "fusion_lon": 0.0, "is_disabled": 0, "lat": 38.936601833333334, "bike_id": "e7765735bab8a170f50089edfd92471d", "name": "e7765735bab8a170f50089edfd92471d", "is_reserved": 0, "fusion_lat": 0.0}, {"type": "electric_bike", "rental_uris": {"ios": "https://dc.lft.to/lastmile_qr_scan", "android": "https://dc.lft.to/lastmile_qr_scan"}, "lon": -76.971841, "fusion_lon": 0.0, "is_disabled": 0, "lat": 38.917889, "bike_id": "93697005807d031fa4db14cabe7dfe34", "name": "93697005807d031fa4db14cabe7dfe34", "is_reserved": 0, "fusion_lat": 0.0}, {"type": "electric_scooter", "rental_uris": {"ios": "https://dc.lft.to/lastmile_qr_scan", "android": "https://dc.lft.to/lastmile_qr_scan"}, "lon": -77.02620483333334, "fusion_lon": 0.0, "is_disabled": 0, "lat": 38.887482, "bike_id": "7507accc824f25902a46642ae9604aff", "name": "7507accc824f25902a46642ae9604aff", "is_reserved": 0, "fusion_lat": 0.0}, {"type": "electric_scooter", "rental_uris": {"ios": "https://dc.lft.to/lastmile_qr_scan", "android": "https://dc.lft.to/lastmile_qr_scan"}, "lon": -77.0249045, "fusion_lon": 0.0, "is_disabled": 0, "lat": 38.941849500000004, "bike_id": "7b3a41b669e1a138e060261fdeab571f", "name": "7b3a41b669e1a138e060261fdeab571f", "is_reserved": 0, "fusion_lat": 0.0}, {"type": "electric_scooter", "rental_uris": {"ios": "https://dc.lft.to/lastmile_qr_scan", "android": "https://dc.lft.to/lastmile_qr_scan"}, "lon": -77.026926, "fusion_lon": 0.0, "is_disabled": 0, "lat": 38.906792833333334, "bike_id": "6ee2ee0f19026833bf62f2a269c0d584", "name": "6ee2ee0f19026833bf62f2a269c0d584", "is_reserved": 0, "fusion_lat": 0.0}, {"type": "electric_scooter", "rental_uris": {"ios": "https://dc.lft.to/lastmile_qr_scan", "android": "https://dc.lft.to/lastmile_qr_scan"}, "lon": -76.9870185, "fusion_lon": 0.0, "is_disabled": 0, "lat": 38.86540216666667, "bike_id": "c7e86ba8dc28c7bbfe887a8869d4784e", "name": "c7e86ba8dc28c7bbfe887a8869d4784e", "is_reserved": 0, "fusion_lat": 0.0}, {"type": "electric_scooter", "rental_uris": {"ios": "https://dc.lft.to/lastmile_qr_scan", "android": "https://dc.lft.to/lastmile_qr_scan"}, "lon": -77.0113605, "fusion_lon": 0.0, "is_disabled": 0, "lat": 38.88527116666667, "bike_id": "38a78c288f819b94755f29701a4b2f3f", "name": "38a78c288f819b94755f29701a4b2f3f", "is_reserved": 0, "fusion_lat": 0.0}, {"type": "electric_scooter", "rental_uris": {"ios": "https://dc.lft.to/lastmile_qr_scan", "android": "https://dc.lft.to/lastmile_qr_scan"}, "lon": -77.041572, "fusion_lon": 0.0, "is_disabled": 0, "lat": 38.916189833333334, "bike_id": "57fb4ed9e4966c14a77739b9a7e2cc78", "name": "57fb4ed9e4966c14a77739b9a7e2cc78", "is_reserved": 0, "fusion_lat": 0.0}, {"type": "electric_scooter", "rental_uris": {"ios": "https://dc.lft.to/lastmile_qr_scan", "android": "https://dc.lft.to/lastmile_qr_scan"}, "lon": -77.017751, "fusion_lon": 0.0, "is_disabled": 0, "lat": 38.9055995, "bike_id": "84eb0f078f4991633177dda773ad9fce", "name": "84eb0f078f4991633177dda773ad9fce", "is_reserved": 0, "fusion_lat": 0.0}, {"type": "electric_scooter", "rental_uris": {"ios": "https://dc.lft.to/lastmile_qr_scan", "android": "https://dc.lft.to/lastmile_qr_scan"}, "lon": -77.0295275, "fusion_lon": 0.0, "is_disabled": 0, "lat": 38.93472466666667, "bike_id": "0ab3648340d78777e8b501273a777ea6", "name": "0ab3648340d78777e8b501273a777ea6", "is_reserved": 0, "fusion_lat": 0.0}, {"type": "electric_scooter", "rental_uris": {"ios": "https://dc.lft.to/lastmile_qr_scan", "android": "https://dc.lft.to/lastmile_qr_scan"}, "lon": -77.03509933333333, "fusion_lon": 0.0, "is_disabled": 0, "lat": 38.92151333333333, "bike_id": "f90bdef69b8ad0bef837947bafae7f87", "name": "f90bdef69b8ad0bef837947bafae7f87", "is_reserved": 0, "fusion_lat": 0.0}, {"type": "electric_bike", "rental_uris": {"ios": "https://dc.lft.to/lastmile_qr_scan", "android": "https://dc.lft.to/lastmile_qr_scan"}, "lon": -77.13149133333333, "fusion_lon": 0.0, "is_disabled": 0, "lat": 38.861716333333334, "bike_id": "f529d700fd83f0af0d7907da005427fa", "name": "f529d700fd83f0af0d7907da005427fa", "is_reserved": 0, "fusion_lat": 0.0}, {"type": "electric_scooter", "rental_uris": {"ios": "https://dc.lft.to/lastmile_qr_scan", "android": "https://dc.lft.to/lastmile_qr_scan"}, "lon": -77.02412, "fusion_lon": 0.0, "is_disabled": 0, "lat": 38.89197683333333, "bike_id": "47f017b76cf5a1d19fbf309c4a515d69", "name": "47f017b76cf5a1d19fbf309c4a515d69", "is_reserved": 0, "fusion_lat": 0.0}, {"type": "electric_scooter", "rental_uris": {"ios": "https://dc.lft.to/lastmile_qr_scan", "android": "https://dc.lft.to/lastmile_qr_scan"}, "lon": -77.0176245, "fusion_lon": 0.0, "is_disabled": 0, "lat": 38.87720366666667, "bike_id": "57e3fbe9d2125798996d864b3fac13d4", "name": "57e3fbe9d2125798996d864b3fac13d4", "is_reserved": 0, "fusion_lat": 0.0}, {"type": "electric_bike", "rental_uris": {"ios": "https://dc.lft.to/lastmile_qr_scan", "android": "https://dc.lft.to/lastmile_qr_scan"}, "lon": -77.080929, "fusion_lon": 0.0, "is_disabled": 0, "lat": 38.908620666666664, "bike_id": "2d47f5e56331cc6cf8768185f5fbb4ee", "name": "2d47f5e56331cc6cf8768185f5fbb4ee", "is_reserved": 0, "fusion_lat": 0.0}, {"type": "electric_scooter", "rental_uris": {"ios": "https://dc.lft.to/lastmile_qr_scan", "android": "https://dc.lft.to/lastmile_qr_scan"}, "lon": -77.02282666666666, "fusion_lon": 0.0, "is_disabled": 0, "lat": 38.91681283333333, "bike_id": "2d6a9e7ac0f05b82b64fa4b69e6f421c", "name": "2d6a9e7ac0f05b82b64fa4b69e6f421c", "is_reserved": 0, "fusion_lat": 0.0}, {"type": "electric_scooter", "rental_uris": {"ios": "https://dc.lft.to/lastmile_qr_scan", "android": "https://dc.lft.to/lastmile_qr_scan"}, "lon": -77.03833183333333, "fusion_lon": 0.0, "is_disabled": 0, "lat": 38.921726, "bike_id": "86d70156e96ccd4a6a8b3361f8dc9904", "name": "86d70156e96ccd4a6a8b3361f8dc9904", "is_reserved": 0, "fusion_lat": 0.0}, {"type": "electric_scooter", "rental_uris": {"ios": "https://dc.lft.to/lastmile_qr_scan", "android": "https://dc.lft.to/lastmile_qr_scan"}, "lon": -77.04550433333333, "fusion_lon": 0.0, "is_disabled": 0, "lat": 38.93406933333333, "bike_id": "4589540c15c114f3e3d8916e0f0217ae", "name": "4589540c15c114f3e3d8916e0f0217ae", "is_reserved": 0, "fusion_lat": 0.0}, {"type": "electric_scooter", "rental_uris": {"ios": "https://dc.lft.to/lastmile_qr_scan", "android": "https://dc.lft.to/lastmile_qr_scan"}, "lon": -77.0300605, "fusion_lon": 0.0, "is_disabled": 0, "lat": 38.9397545, "bike_id": "3505d059f99c1167bcd2601ff8021554", "name": "3505d059f99c1167bcd2601ff8021554", "is_reserved": 0, "fusion_lat": 0.0}, {"type": "electric_scooter", "rental_uris": {"ios": "https://dc.lft.to/lastmile_qr_scan", "android": "https://dc.lft.to/lastmile_qr_scan"}, "lon": -77.01659666666667, "fusion_lon": 0.0, "is_disabled": 0, "lat": 38.881187, "bike_id": "9f12ba296f244f335593fe0fb30dd935", "name": "9f12ba296f244f335593fe0fb30dd935", "is_reserved": 0, "fusion_lat": 0.0}, {"type": "electric_bike", "rental_uris": {"ios": "https://dc.lft.to/lastmile_qr_scan", "android": "https://dc.lft.to/lastmile_qr_scan"}, "lon": -77.1180565, "fusion_lon": 0.0, "is_disabled": 0, "lat": 38.873732333333336, "bike_id": "46547fb19878fa82912eeb3ae76e8720", "name": "46547fb19878fa82912eeb3ae76e8720", "is_reserved": 0, "fusion_lat": 0.0}, {"type": "electric_scooter", "rental_uris": {"ios": "https://dc.lft.to/lastmile_qr_scan", "android": "https://dc.lft.to/lastmile_qr_scan"}, "lon": -77.02110616666667, "fusion_lon": 0.0, "is_disabled": 0, "lat": 38.94099633333333, "bike_id": "40a2ae2d1c6ba0cac81b5540d98febd9", "name": "40a2ae2d1c6ba0cac81b5540d98febd9", "is_reserved": 0, "fusion_lat": 0.0}, {"type": "electric_bike", "rental_uris": {"ios": "https://dc.lft.to/lastmile_qr_scan", "android": "https://dc.lft.to/lastmile_qr_scan"}, "lon": -77.040191, "fusion_lon": 0.0, "is_disabled": 0, "lat": 38.7933035, "bike_id": "01a9a8645c601722da0de7302058ff93", "name": "01a9a8645c601722da0de7302058ff93", "is_reserved": 0, "fusion_lat": 0.0}, {"type": "electric_scooter", "rental_uris": {"ios": "https://dc.lft.to/lastmile_qr_scan", "android": "https://dc.lft.to/lastmile_qr_scan"}, "lon": -76.99515683333334, "fusion_lon": 0.0, "is_disabled": 0, "lat": 38.897297, "bike_id": "6e77a924f40141d5f73cce05c63d853b", "name": "6e77a924f40141d5f73cce05c63d853b", "is_reserved": 0, "fusion_lat": 0.0}, {"type": "electric_scooter", "rental_uris": {"ios": "https://dc.lft.to/lastmile_qr_scan", "android": "https://dc.lft.to/lastmile_qr_scan"}, "lon": -77.0324625, "fusion_lon": 0.0, "is_disabled": 0, "lat": 38.8990075, "bike_id": "201c09a4fa8010643f4334da1668905e", "name": "201c09a4fa8010643f4334da1668905e", "is_reserved": 0, "fusion_lat": 0.0}, {"type": "electric_scooter", "rental_uris": {"ios": "https://dc.lft.to/lastmile_qr_scan", "android": "https://dc.lft.to/lastmile_qr_scan"}, "lon": -77.0318405, "fusion_lon": 0.0, "is_disabled": 0, "lat": 38.91325616666666, "bike_id": "74152b45fec1e3996fad9873bb82728b", "name": "74152b45fec1e3996fad9873bb82728b", "is_reserved": 0, "fusion_lat": 0.0}, {"type": "electric_scooter", "rental_uris": {"ios": "https://dc.lft.to/lastmile_qr_scan", "android": "https://dc.lft.to/lastmile_qr_scan"}, "lon": -77.02836466666666, "fusion_lon": 0.0, "is_disabled": 0, "lat": 38.9319495, "bike_id": "d892b338cae9854190dcb58e51f275ae", "name": "d892b338cae9854190dcb58e51f275ae", "is_reserved": 0, "fusion_lat": 0.0}, {"type": "electric_bike", "rental_uris": {"ios": "https://dc.lft.to/lastmile_qr_scan", "android": "https://dc.lft.to/lastmile_qr_scan"}, "lon": -77.03655033333334, "fusion_lon": 0.0, "is_disabled": 0, "lat": 38.936498, "bike_id": "7de127a44b0aa4366472d21b42eab4ea", "name": "7de127a44b0aa4366472d21b42eab4ea", "is_reserved": 0, "fusion_lat": 0.0}, {"type": "electric_scooter", "rental_uris": {"ios": "https://dc.lft.to/lastmile_qr_scan", "android": "https://dc.lft.to/lastmile_qr_scan"}, "lon": -77.03480383333333, "fusion_lon": 0.0, "is_disabled": 0, "lat": 38.929171833333335, "bike_id": "30f71aaec8f8bd592a36ddef09ae08bf", "name": "30f71aaec8f8bd592a36ddef09ae08bf", "is_reserved": 0, "fusion_lat": 0.0}, {"type": "electric_scooter", "rental_uris": {"ios": "https://dc.lft.to/lastmile_qr_scan", "android": "https://dc.lft.to/lastmile_qr_scan"}, "lon": -77.00937533333334, "fusion_lon": 0.0, "is_disabled": 0, "lat": 38.88335883333333, "bike_id": "6555a1c079d45f22cba4a08b4494bb30", "name": "6555a1c079d45f22cba4a08b4494bb30", "is_reserved": 0, "fusion_lat": 0.0}, {"type": "electric_scooter", "rental_uris": {"ios": "https://dc.lft.to/lastmile_qr_scan", "android": "https://dc.lft.to/lastmile_qr_scan"}, "lon": -77.02697883333333, "fusion_lon": 0.0, "is_disabled": 0, "lat": 38.906858166666666, "bike_id": "15e28be925dc34b54cc9eff2152a4eae", "name": "15e28be925dc34b54cc9eff2152a4eae", "is_reserved": 0, "fusion_lat": 0.0}, {"type": "electric_scooter", "rental_uris": {"ios": "https://dc.lft.to/lastmile_qr_scan", "android": "https://dc.lft.to/lastmile_qr_scan"}, "lon": -77.03187683333333, "fusion_lon": 0.0, "is_disabled": 0, "lat": 38.91415816666667, "bike_id": "39bb52b4c52f069dbb807c33ab60318a", "name": "39bb52b4c52f069dbb807c33ab60318a", "is_reserved": 0, "fusion_lat": 0.0}, {"type": "electric_bike", "rental_uris": {"ios": "https://dc.lft.to/lastmile_qr_scan", "android": "https://dc.lft.to/lastmile_qr_scan"}, "lon": -76.97239450000001, "fusion_lon": 0.0, "is_disabled": 0, "lat": 38.9490725, "bike_id": "b405599cb3dda821ac4ec1f2c22575c4", "name": "b405599cb3dda821ac4ec1f2c22575c4", "is_reserved": 0, "fusion_lat": 0.0}, {"type": "electric_scooter", "rental_uris": {"ios": "https://dc.lft.to/lastmile_qr_scan", "android": "https://dc.lft.to/lastmile_qr_scan"}, "lon": -77.02626433333333, "fusion_lon": 0.0, "is_disabled": 0, "lat": 38.892210166666665, "bike_id": "75137074a6c827865c1d3f85b1043b4b", "name": "75137074a6c827865c1d3f85b1043b4b", "is_reserved": 0, "fusion_lat": 0.0}, {"type": "electric_bike", "rental_uris": {"ios": "https://dc.lft.to/lastmile_qr_scan", "android": "https://dc.lft.to/lastmile_qr_scan"}, "lon": -77.09961966666667, "fusion_lon": 0.0, "is_disabled": 0, "lat": 38.857911666666666, "bike_id": "36e8944aaea9dea9b028b09f2e612e83", "name": "36e8944aaea9dea9b028b09f2e612e83", "is_reserved": 0, "fusion_lat": 0.0}, {"type": "electric_scooter", "rental_uris": {"ios": "https://dc.lft.to/lastmile_qr_scan", "android": "https://dc.lft.to/lastmile_qr_scan"}, "lon": -77.0328975, "fusion_lon": 0.0, "is_disabled": 0, "lat": 38.95649233333333, "bike_id": "2e1846921052d7dcb2fa925d0b37d111", "name": "2e1846921052d7dcb2fa925d0b37d111", "is_reserved": 0, "fusion_lat": 0.0}, {"type": "electric_scooter", "rental_uris": {"ios": "https://dc.lft.to/lastmile_qr_scan", "android": "https://dc.lft.to/lastmile_qr_scan"}, "lon": -77.07037816666667, "fusion_lon": 0.0, "is_disabled": 0, "lat": 38.91924066666667, "bike_id": "018c8463edabd3e6f29ef9956cdc7c4b", "name": "018c8463edabd3e6f29ef9956cdc7c4b", "is_reserved": 0, "fusion_lat": 0.0}, {"type": "electric_scooter", "rental_uris": {"ios": "https://dc.lft.to/lastmile_qr_scan", "android": "https://dc.lft.to/lastmile_qr_scan"}, "lon": -77.0502375, "fusion_lon": 0.0, "is_disabled": 0, "lat": 38.92355883333333, "bike_id": "27624e8a48127f23d65e09535537e161", "name": "27624e8a48127f23d65e09535537e161", "is_reserved": 0, "fusion_lat": 0.0}, {"type": "electric_scooter", "rental_uris": {"ios": "https://dc.lft.to/lastmile_qr_scan", "android": "https://dc.lft.to/lastmile_qr_scan"}, "lon": -77.03474366666667, "fusion_lon": 0.0, "is_disabled": 0, "lat": 38.92259083333333, "bike_id": "ee5a943d33134902676ae2489a506fd8", "name": "ee5a943d33134902676ae2489a506fd8", "is_reserved": 0, "fusion_lat": 0.0}, {"type": "electric_scooter", "rental_uris": {"ios": "https://dc.lft.to/lastmile_qr_scan", "android": "https://dc.lft.to/lastmile_qr_scan"}, "lon": -77.04179066666667, "fusion_lon": 0.0, "is_disabled": 0, "lat": 38.90303766666667, "bike_id": "2f83923b7f48ccc52869f3806312f29d", "name": "2f83923b7f48ccc52869f3806312f29d", "is_reserved": 0, "fusion_lat": 0.0}, {"type": "electric_scooter", "rental_uris": {"ios": "https://dc.lft.to/lastmile_qr_scan", "android": "https://dc.lft.to/lastmile_qr_scan"}, "lon": -77.02731833333333, "fusion_lon": 0.0, "is_disabled": 0, "lat": 38.90148, "bike_id": "b050b9caf34fdbc880b68f6e72682433", "name": "b050b9caf34fdbc880b68f6e72682433", "is_reserved": 0, "fusion_lat": 0.0}, {"type": "electric_scooter", "rental_uris": {"ios": "https://dc.lft.to/lastmile_qr_scan", "android": "https://dc.lft.to/lastmile_qr_scan"}, "lon": -77.04849916666667, "fusion_lon": 0.0, "is_disabled": 0, "lat": 38.904705166666666, "bike_id": "909eb84937f6229d2425183b5e678917", "name": "909eb84937f6229d2425183b5e678917", "is_reserved": 0, "fusion_lat": 0.0}, {"type": "electric_scooter", "rental_uris": {"ios": "https://dc.lft.to/lastmile_qr_scan", "android": "https://dc.lft.to/lastmile_qr_scan"}, "lon": -77.03212766666667, "fusion_lon": 0.0, "is_disabled": 0, "lat": 38.90972466666667, "bike_id": "6d6ebc5dcab361cd65da7a61c6186d7e", "name": "6d6ebc5dcab361cd65da7a61c6186d7e", "is_reserved": 0, "fusion_lat": 0.0}, {"type": "electric_scooter", "rental_uris": {"ios": "https://dc.lft.to/lastmile_qr_scan", "android": "https://dc.lft.to/lastmile_qr_scan"}, "lon": -77.05220083333333, "fusion_lon": 0.0, "is_disabled": 0, "lat": 38.92495866666667, "bike_id": "d2270c730f7f4cff0d34f9c8ac13d2ac", "name": "d2270c730f7f4cff0d34f9c8ac13d2ac", "is_reserved": 0, "fusion_lat": 0.0}, {"type": "electric_scooter", "rental_uris": {"ios": "https://dc.lft.to/lastmile_qr_scan", "android": "https://dc.lft.to/lastmile_qr_scan"}, "lon": -76.9361085, "fusion_lon": 0.0, "is_disabled": 0, "lat": 38.896824, "bike_id": "7205163b657e4771a0edd129fb21f1f0", "name": "7205163b657e4771a0edd129fb21f1f0", "is_reserved": 0, "fusion_lat": 0.0}, {"type": "electric_scooter", "rental_uris": {"ios": "https://dc.lft.to/lastmile_qr_scan", "android": "https://dc.lft.to/lastmile_qr_scan"}, "lon": -76.99900483333333, "fusion_lon": 0.0, "is_disabled": 0, "lat": 38.948288, "bike_id": "5556527703c87404c7a7939c1251497f", "name": "5556527703c87404c7a7939c1251497f", "is_reserved": 0, "fusion_lat": 0.0}, {"type": "electric_scooter", "rental_uris": {"ios": "https://dc.lft.to/lastmile_qr_scan", "android": "https://dc.lft.to/lastmile_qr_scan"}, "lon": -77.0319755, "fusion_lon": 0.0, "is_disabled": 0, "lat": 38.9174305, "bike_id": "9aa55f4a287f0ea671e790de777c753f", "name": "9aa55f4a287f0ea671e790de777c753f", "is_reserved": 0, "fusion_lat": 0.0}, {"type": "electric_scooter", "rental_uris": {"ios": "https://dc.lft.to/lastmile_qr_scan", "android": "https://dc.lft.to/lastmile_qr_scan"}, "lon": -77.0212875, "fusion_lon": 0.0, "is_disabled": 0, "lat": 38.88741266666667, "bike_id": "3d7b0838a6c3b6eeb936775244539434", "name": "3d7b0838a6c3b6eeb936775244539434", "is_reserved": 0, "fusion_lat": 0.0}, {"type": "electric_scooter", "rental_uris": {"ios": "https://dc.lft.to/lastmile_qr_scan", "android": "https://dc.lft.to/lastmile_qr_scan"}, "lon": -77.02179483333333, "fusion_lon": 0.0, "is_disabled": 0, "lat": 38.914782333333335, "bike_id": "70716620759d6183357082d097abf6a7", "name": "70716620759d6183357082d097abf6a7", "is_reserved": 0, "fusion_lat": 0.0}, {"type": "electric_scooter", "rental_uris": {"ios": "https://dc.lft.to/lastmile_qr_scan", "android": "https://dc.lft.to/lastmile_qr_scan"}, "lon": -77.06028466666666, "fusion_lon": 0.0, "is_disabled": 0, "lat": 38.944693, "bike_id": "4756f36492145b284128d8b3c1014f87", "name": "4756f36492145b284128d8b3c1014f87", "is_reserved": 0, "fusion_lat": 0.0}, {"type": "electric_scooter", "rental_uris": {"ios": "https://dc.lft.to/lastmile_qr_scan", "android": "https://dc.lft.to/lastmile_qr_scan"}, "lon": -77.06040483333334, "fusion_lon": 0.0, "is_disabled": 0, "lat": 38.90245, "bike_id": "a9a754c6583077e8073673bffc71918e", "name": "a9a754c6583077e8073673bffc71918e", "is_reserved": 0, "fusion_lat": 0.0}, {"type": "electric_scooter", "rental_uris": {"ios": "https://dc.lft.to/lastmile_qr_scan", "android": "https://dc.lft.to/lastmile_qr_scan"}, "lon": -77.04685166666667, "fusion_lon": 0.0, "is_disabled": 0, "lat": 38.89730183333333, "bike_id": "dff83603001e3f9ac80f4299a91e5d90", "name": "dff83603001e3f9ac80f4299a91e5d90", "is_reserved": 0, "fusion_lat": 0.0}, {"type": "electric_scooter", "rental_uris": {"ios": "https://dc.lft.to/lastmile_qr_scan", "android": "https://dc.lft.to/lastmile_qr_scan"}, "lon": -77.03240516666666, "fusion_lon": 0.0, "is_disabled": 0, "lat": 38.908702, "bike_id": "4df8593666c3e46e2b0ce6dc36b5f274", "name": "4df8593666c3e46e2b0ce6dc36b5f274", "is_reserved": 0, "fusion_lat": 0.0}, {"type": "electric_scooter", "rental_uris": {"ios": "https://dc.lft.to/lastmile_qr_scan", "android": "https://dc.lft.to/lastmile_qr_scan"}, "lon": -77.033115, "fusion_lon": 0.0, "is_disabled": 0, "lat": 38.9319615, "bike_id": "61fd092932845b39f3afea1a79c82933", "name": "61fd092932845b39f3afea1a79c82933", "is_reserved": 0, "fusion_lat": 0.0}, {"type": "electric_scooter", "rental_uris": {"ios": "https://dc.lft.to/lastmile_qr_scan", "android": "https://dc.lft.to/lastmile_qr_scan"}, "lon": -77.01787183333333, "fusion_lon": 0.0, "is_disabled": 0, "lat": 38.87709533333334, "bike_id": "afc234ea03d925d19dbbb053076e8fdf", "name": "afc234ea03d925d19dbbb053076e8fdf", "is_reserved": 0, "fusion_lat": 0.0}, {"type": "electric_scooter", "rental_uris": {"ios": "https://dc.lft.to/lastmile_qr_scan", "android": "https://dc.lft.to/lastmile_qr_scan"}, "lon": -77.02692766666667, "fusion_lon": 0.0, "is_disabled": 0, "lat": 38.90684983333333, "bike_id": "4f1b77de8273d21d102f44b411cfed76", "name": "4f1b77de8273d21d102f44b411cfed76", "is_reserved": 0, "fusion_lat": 0.0}, {"type": "electric_scooter", "rental_uris": {"ios": "https://dc.lft.to/lastmile_qr_scan", "android": "https://dc.lft.to/lastmile_qr_scan"}, "lon": -77.0222335, "fusion_lon": 0.0, "is_disabled": 0, "lat": 38.935505166666665, "bike_id": "eb4e9c9e37417274fed420f92c9a8836", "name": "eb4e9c9e37417274fed420f92c9a8836", "is_reserved": 0, "fusion_lat": 0.0}, {"type": "electric_bike", "rental_uris": {"ios": "https://dc.lft.to/lastmile_qr_scan", "android": "https://dc.lft.to/lastmile_qr_scan"}, "lon": -76.989923, "fusion_lon": 0.0, "is_disabled": 0, "lat": 38.86388133333333, "bike_id": "6785738425efbf8b8f86f629ccdda08e", "name": "6785738425efbf8b8f86f629ccdda08e", "is_reserved": 0, "fusion_lat": 0.0}, {"type": "electric_bike", "rental_uris": {"ios": "https://dc.lft.to/lastmile_qr_scan", "android": "https://dc.lft.to/lastmile_qr_scan"}, "lon": -76.98297433333333, "fusion_lon": 0.0, "is_disabled": 0, "lat": 38.96285816666666, "bike_id": "6a6c31c940067c57ff5941bf0f5ab99e", "name": "6a6c31c940067c57ff5941bf0f5ab99e", "is_reserved": 0, "fusion_lat": 0.0}, {"type": "electric_scooter", "rental_uris": {"ios": "https://dc.lft.to/lastmile_qr_scan", "android": "https://dc.lft.to/lastmile_qr_scan"}, "lon": -77.02826933333333, "fusion_lon": 0.0, "is_disabled": 0, "lat": 38.887337333333335, "bike_id": "ca9dbb65707ea5294fa5ac8218eb08f1", "name": "ca9dbb65707ea5294fa5ac8218eb08f1", "is_reserved": 0, "fusion_lat": 0.0}, {"type": "electric_scooter", "rental_uris": {"ios": "https://dc.lft.to/lastmile_qr_scan", "android": "https://dc.lft.to/lastmile_qr_scan"}, "lon": -77.07888533333333, "fusion_lon": 0.0, "is_disabled": 0, "lat": 38.920655, "bike_id": "8fedb029e5baf3e1f263c070d7ac03a9", "name": "8fedb029e5baf3e1f263c070d7ac03a9", "is_reserved": 0, "fusion_lat": 0.0}, {"type": "electric_scooter", "rental_uris": {"ios": "https://dc.lft.to/lastmile_qr_scan", "android": "https://dc.lft.to/lastmile_qr_scan"}, "lon": -77.00581, "fusion_lon": 0.0, "is_disabled": 0, "lat": 38.90557783333333, "bike_id": "07ea8e1c7de56e475f88b25530977c71", "name": "07ea8e1c7de56e475f88b25530977c71", "is_reserved": 0, "fusion_lat": 0.0}, {"type": "electric_scooter", "rental_uris": {"ios": "https://dc.lft.to/lastmile_qr_scan", "android": "https://dc.lft.to/lastmile_qr_scan"}, "lon": -77.021688, "fusion_lon": 0.0, "is_disabled": 0, "lat": 38.94290616666667, "bike_id": "aa18e8be66375e59e8e5e851a1eaf9b7", "name": "aa18e8be66375e59e8e5e851a1eaf9b7", "is_reserved": 0, "fusion_lat": 0.0}, {"type": "electric_scooter", "rental_uris": {"ios": "https://dc.lft.to/lastmile_qr_scan", "android": "https://dc.lft.to/lastmile_qr_scan"}, "lon": -77.05856016666667, "fusion_lon": 0.0, "is_disabled": 0, "lat": 38.936100833333334, "bike_id": "436e22ab07e484e422e0fa77994a8914", "name": "436e22ab07e484e422e0fa77994a8914", "is_reserved": 0, "fusion_lat": 0.0}, {"type": "electric_scooter", "rental_uris": {"ios": "https://dc.lft.to/lastmile_qr_scan", "android": "https://dc.lft.to/lastmile_qr_scan"}, "lon": -76.97627933333334, "fusion_lon": 0.0, "is_disabled": 0, "lat": 38.898764166666666, "bike_id": "47c0edaf3a158397b7436e13d5f31a86", "name": "47c0edaf3a158397b7436e13d5f31a86", "is_reserved": 0, "fusion_lat": 0.0}, {"type": "electric_scooter", "rental_uris": {"ios": "https://dc.lft.to/lastmile_qr_scan", "android": "https://dc.lft.to/lastmile_qr_scan"}, "lon": -76.9652945, "fusion_lon": 0.0, "is_disabled": 0, "lat": 38.87627883333333, "bike_id": "eaeb3fe7200b321c0d5a3c365f6384f0", "name": "eaeb3fe7200b321c0d5a3c365f6384f0", "is_reserved": 0, "fusion_lat": 0.0}, {"type": "electric_bike", "rental_uris": {"ios": "https://dc.lft.to/lastmile_qr_scan", "android": "https://dc.lft.to/lastmile_qr_scan"}, "lon": -76.92502466666667, "fusion_lon": 0.0, "is_disabled": 0, "lat": 38.95884516666667, "bike_id": "b121c04fe2ed7a26bc0e704d77e4f1b3", "name": "b121c04fe2ed7a26bc0e704d77e4f1b3", "is_reserved": 0, "fusion_lat": 0.0}, {"type": "electric_scooter", "rental_uris": {"ios": "https://dc.lft.to/lastmile_qr_scan", "android": "https://dc.lft.to/lastmile_qr_scan"}, "lon": -76.94153983333334, "fusion_lon": 0.0, "is_disabled": 0, "lat": 38.883649, "bike_id": "dbcf86739b7010e476bf526690365879", "name": "dbcf86739b7010e476bf526690365879", "is_reserved": 0, "fusion_lat": 0.0}, {"type": "electric_scooter", "rental_uris": {"ios": "https://dc.lft.to/lastmile_qr_scan", "android": "https://dc.lft.to/lastmile_qr_scan"}, "lon": -77.03962883333334, "fusion_lon": 0.0, "is_disabled": 0, "lat": 38.898832666666664, "bike_id": "5e29cc4484262a4725d103fad0f06e04", "name": "5e29cc4484262a4725d103fad0f06e04", "is_reserved": 0, "fusion_lat": 0.0}, {"type": "electric_scooter", "rental_uris": {"ios": "https://dc.lft.to/lastmile_qr_scan", "android": "https://dc.lft.to/lastmile_qr_scan"}, "lon": -77.00575933333333, "fusion_lon": 0.0, "is_disabled": 0, "lat": 38.90566916666667, "bike_id": "dfb5ecc6210a09cfc3a44fbb1a1f97ba", "name": "dfb5ecc6210a09cfc3a44fbb1a1f97ba", "is_reserved": 0, "fusion_lat": 0.0}, {"type": "electric_scooter", "rental_uris": {"ios": "https://dc.lft.to/lastmile_qr_scan", "android": "https://dc.lft.to/lastmile_qr_scan"}, "lon": -77.0263475, "fusion_lon": 0.0, "is_disabled": 0, "lat": 38.92537866666667, "bike_id": "946a470029ad0c9043965d6cef1969d5", "name": "946a470029ad0c9043965d6cef1969d5", "is_reserved": 0, "fusion_lat": 0.0}, {"type": "electric_scooter", "rental_uris": {"ios": "https://dc.lft.to/lastmile_qr_scan", "android": "https://dc.lft.to/lastmile_qr_scan"}, "lon": -77.02981783333334, "fusion_lon": 0.0, "is_disabled": 0, "lat": 38.91692783333333, "bike_id": "a0799d93f2516ee399aeb001da4b4f26", "name": "a0799d93f2516ee399aeb001da4b4f26", "is_reserved": 0, "fusion_lat": 0.0}, {"type": "electric_scooter", "rental_uris": {"ios": "https://dc.lft.to/lastmile_qr_scan", "android": "https://dc.lft.to/lastmile_qr_scan"}, "lon": -77.04078816666667, "fusion_lon": 0.0, "is_disabled": 0, "lat": 38.91696916666667, "bike_id": "7f6cf327d2897a82f0cfb760b4b61534", "name": "7f6cf327d2897a82f0cfb760b4b61534", "is_reserved": 0, "fusion_lat": 0.0}, {"type": "electric_scooter", "rental_uris": {"ios": "https://dc.lft.to/lastmile_qr_scan", "android": "https://dc.lft.to/lastmile_qr_scan"}, "lon": -76.9888875, "fusion_lon": 0.0, "is_disabled": 0, "lat": 38.866495, "bike_id": "5c9e51f10b288b63b0f1e5b6fea6638b", "name": "5c9e51f10b288b63b0f1e5b6fea6638b", "is_reserved": 0, "fusion_lat": 0.0}, {"type": "electric_scooter", "rental_uris": {"ios": "https://dc.lft.to/lastmile_qr_scan", "android": "https://dc.lft.to/lastmile_qr_scan"}, "lon": -77.02497516666666, "fusion_lon": 0.0, "is_disabled": 0, "lat": 38.919535333333336, "bike_id": "7586011110a5777e45583da044260827", "name": "7586011110a5777e45583da044260827", "is_reserved": 0, "fusion_lat": 0.0}, {"type": "electric_scooter", "rental_uris": {"ios": "https://dc.lft.to/lastmile_qr_scan", "android": "https://dc.lft.to/lastmile_qr_scan"}, "lon": -76.99611783333333, "fusion_lon": 0.0, "is_disabled": 0, "lat": 38.89998083333333, "bike_id": "56da6925171a0fd060786b62c3a8ab6f", "name": "56da6925171a0fd060786b62c3a8ab6f", "is_reserved": 0, "fusion_lat": 0.0}, {"type": "electric_scooter", "rental_uris": {"ios": "https://dc.lft.to/lastmile_qr_scan", "android": "https://dc.lft.to/lastmile_qr_scan"}, "lon": -77.02055783333333, "fusion_lon": 0.0, "is_disabled": 0, "lat": 38.90851083333333, "bike_id": "35f781af9ff14342b7ed9f6fb8463887", "name": "35f781af9ff14342b7ed9f6fb8463887", "is_reserved": 0, "fusion_lat": 0.0}, {"type": "electric_bike", "rental_uris": {"ios": "https://dc.lft.to/lastmile_qr_scan", "android": "https://dc.lft.to/lastmile_qr_scan"}, "lon": -77.07112983333333, "fusion_lon": 0.0, "is_disabled": 0, "lat": 38.800656000000004, "bike_id": "6cbf210f06de3eff840a725e45c5c69c", "name": "6cbf210f06de3eff840a725e45c5c69c", "is_reserved": 0, "fusion_lat": 0.0}, {"type": "electric_scooter", "rental_uris": {"ios": "https://dc.lft.to/lastmile_qr_scan", "android": "https://dc.lft.to/lastmile_qr_scan"}, "lon": -76.9990555, "fusion_lon": 0.0, "is_disabled": 0, "lat": 38.8988455, "bike_id": "da054f0b289c9760cd6109a31bd35518", "name": "da054f0b289c9760cd6109a31bd35518", "is_reserved": 0, "fusion_lat": 0.0}, {"type": "electric_scooter", "rental_uris": {"ios": "https://dc.lft.to/lastmile_qr_scan", "android": "https://dc.lft.to/lastmile_qr_scan"}, "lon": -77.04901616666666, "fusion_lon": 0.0, "is_disabled": 0, "lat": 38.90103383333334, "bike_id": "ba28c265e8fd0751a699fa26820bd2d9", "name": "ba28c265e8fd0751a699fa26820bd2d9", "is_reserved": 0, "fusion_lat": 0.0}, {"type": "electric_bike", "rental_uris": {"ios": "https://dc.lft.to/lastmile_qr_scan", "android": "https://dc.lft.to/lastmile_qr_scan"}, "lon": -77.06329333333333, "fusion_lon": 0.0, "is_disabled": 0, "lat": 38.92111416666667, "bike_id": "fbaaa72a6a4a3bc902ceee7f2ba4259c", "name": "fbaaa72a6a4a3bc902ceee7f2ba4259c", "is_reserved": 0, "fusion_lat": 0.0}, {"type": "electric_bike", "rental_uris": {"ios": "https://dc.lft.to/lastmile_qr_scan", "android": "https://dc.lft.to/lastmile_qr_scan"}, "lon": -77.02471633333333, "fusion_lon": 0.0, "is_disabled": 0, "lat": 38.952974166666664, "bike_id": "46f9b33a566d589472bd8bad769f326c", "name": "46f9b33a566d589472bd8bad769f326c", "is_reserved": 0, "fusion_lat": 0.0}, {"type": "electric_scooter", "rental_uris": {"ios": "https://dc.lft.to/lastmile_qr_scan", "android": "https://dc.lft.to/lastmile_qr_scan"}, "lon": -77.03224266666666, "fusion_lon": 0.0, "is_disabled": 0, "lat": 38.918481, "bike_id": "d11809f83b300ec804f10c7781d7cc3c", "name": "d11809f83b300ec804f10c7781d7cc3c", "is_reserved": 0, "fusion_lat": 0.0}, {"type": "electric_scooter", "rental_uris": {"ios": "https://dc.lft.to/lastmile_qr_scan", "android": "https://dc.lft.to/lastmile_qr_scan"}, "lon": -77.0401635, "fusion_lon": 0.0, "is_disabled": 0, "lat": 38.918058, "bike_id": "fa2baf0ac631cc6d63d2030b7601bdb2", "name": "fa2baf0ac631cc6d63d2030b7601bdb2", "is_reserved": 0, "fusion_lat": 0.0}, {"type": "electric_bike", "rental_uris": {"ios": "https://dc.lft.to/lastmile_qr_scan", "android": "https://dc.lft.to/lastmile_qr_scan"}, "lon": -77.05636466666667, "fusion_lon": 0.0, "is_disabled": 0, "lat": 38.98652083333333, "bike_id": "793bf4a27b44e0bad6c08038f475daf5", "name": "793bf4a27b44e0bad6c08038f475daf5", "is_reserved": 0, "fusion_lat": 0.0}, {"type": "electric_scooter", "rental_uris": {"ios": "https://dc.lft.to/lastmile_qr_scan", "android": "https://dc.lft.to/lastmile_qr_scan"}, "lon": -77.03755183333334, "fusion_lon": 0.0, "is_disabled": 0, "lat": 38.92579216666667, "bike_id": "2a1bd44a754d0e0dfe3aa2a1b3f1de2d", "name": "2a1bd44a754d0e0dfe3aa2a1b3f1de2d", "is_reserved": 0, "fusion_lat": 0.0}, {"type": "electric_scooter", "rental_uris": {"ios": "https://dc.lft.to/lastmile_qr_scan", "android": "https://dc.lft.to/lastmile_qr_scan"}, "lon": -77.0251805, "fusion_lon": 0.0, "is_disabled": 0, "lat": 38.946224, "bike_id": "2db66e4d953196276877d10526c09e67", "name": "2db66e4d953196276877d10526c09e67", "is_reserved": 0, "fusion_lat": 0.0}, {"type": "electric_scooter", "rental_uris": {"ios": "https://dc.lft.to/lastmile_qr_scan", "android": "https://dc.lft.to/lastmile_qr_scan"}, "lon": -77.03338083333334, "fusion_lon": 0.0, "is_disabled": 0, "lat": 38.917022333333335, "bike_id": "94680c781b66703de7516cce4e5e2ce1", "name": "94680c781b66703de7516cce4e5e2ce1", "is_reserved": 0, "fusion_lat": 0.0}, {"type": "electric_scooter", "rental_uris": {"ios": "https://dc.lft.to/lastmile_qr_scan", "android": "https://dc.lft.to/lastmile_qr_scan"}, "lon": -77.0353845, "fusion_lon": 0.0, "is_disabled": 0, "lat": 38.923891166666664, "bike_id": "58bcce2228568f81c2bb561149fbf021", "name": "58bcce2228568f81c2bb561149fbf021", "is_reserved": 0, "fusion_lat": 0.0}, {"type": "electric_bike", "rental_uris": {"ios": "https://dc.lft.to/lastmile_qr_scan", "android": "https://dc.lft.to/lastmile_qr_scan"}, "lon": -76.982183, "fusion_lon": 0.0, "is_disabled": 0, "lat": 38.98507216666667, "bike_id": "5965eb6b642916229415dc89490db2c5", "name": "5965eb6b642916229415dc89490db2c5", "is_reserved": 0, "fusion_lat": 0.0}, {"type": "electric_bike", "rental_uris": {"ios": "https://dc.lft.to/lastmile_qr_scan", "android": "https://dc.lft.to/lastmile_qr_scan"}, "lon": -77.06859133333333, "fusion_lon": 0.0, "is_disabled": 0, "lat": 38.8057705, "bike_id": "c80a417b3ff06d91c39cb1ee587b4015", "name": "c80a417b3ff06d91c39cb1ee587b4015", "is_reserved": 0, "fusion_lat": 0.0}, {"type": "electric_scooter", "rental_uris": {"ios": "https://dc.lft.to/lastmile_qr_scan", "android": "https://dc.lft.to/lastmile_qr_scan"}, "lon": -77.02751483333333, "fusion_lon": 0.0, "is_disabled": 0, "lat": 38.927854333333336, "bike_id": "2cf395947229f14f3cd0fdfe835af27d", "name": "2cf395947229f14f3cd0fdfe835af27d", "is_reserved": 0, "fusion_lat": 0.0}, {"type": "electric_scooter", "rental_uris": {"ios": "https://dc.lft.to/lastmile_qr_scan", "android": "https://dc.lft.to/lastmile_qr_scan"}, "lon": -77.021034, "fusion_lon": 0.0, "is_disabled": 0, "lat": 38.94575483333333, "bike_id": "eb21af4189e9c43944de324b54f9fc16", "name": "eb21af4189e9c43944de324b54f9fc16", "is_reserved": 0, "fusion_lat": 0.0}, {"type": "electric_scooter", "rental_uris": {"ios": "https://dc.lft.to/lastmile_qr_scan", "android": "https://dc.lft.to/lastmile_qr_scan"}, "lon": -77.02279033333333, "fusion_lon": 0.0, "is_disabled": 0, "lat": 38.91671683333333, "bike_id": "b317396a9b03ae7d099161d81ca4d74d", "name": "b317396a9b03ae7d099161d81ca4d74d", "is_reserved": 0, "fusion_lat": 0.0}, {"type": "electric_bike", "rental_uris": {"ios": "https://dc.lft.to/lastmile_qr_scan", "android": "https://dc.lft.to/lastmile_qr_scan"}, "lon": -77.01033366666667, "fusion_lon": 0.0, "is_disabled": 0, "lat": 38.958804, "bike_id": "ed2d0aa47beddb9c86e050c5cac1c8fb", "name": "ed2d0aa47beddb9c86e050c5cac1c8fb", "is_reserved": 0, "fusion_lat": 0.0}, {"type": "electric_scooter", "rental_uris": {"ios": "https://dc.lft.to/lastmile_qr_scan", "android": "https://dc.lft.to/lastmile_qr_scan"}, "lon": -77.03124333333334, "fusion_lon": 0.0, "is_disabled": 0, "lat": 38.95931133333333, "bike_id": "b496a1258a774b482a6e3e5d05ffc247", "name": "b496a1258a774b482a6e3e5d05ffc247", "is_reserved": 0, "fusion_lat": 0.0}, {"type": "electric_scooter", "rental_uris": {"ios": "https://dc.lft.to/lastmile_qr_scan", "android": "https://dc.lft.to/lastmile_qr_scan"}, "lon": -77.0500295, "fusion_lon": 0.0, "is_disabled": 0, "lat": 38.892311, "bike_id": "c1fdda86824932fa3afd41b85a07b3bb", "name": "c1fdda86824932fa3afd41b85a07b3bb", "is_reserved": 0, "fusion_lat": 0.0}, {"type": "electric_bike", "rental_uris": {"ios": "https://dc.lft.to/lastmile_qr_scan", "android": "https://dc.lft.to/lastmile_qr_scan"}, "lon": -77.01774766666666, "fusion_lon": 0.0, "is_disabled": 0, "lat": 38.982767333333335, "bike_id": "4815fd494650aa8c2f2a6175f26683ad", "name": "4815fd494650aa8c2f2a6175f26683ad", "is_reserved": 0, "fusion_lat": 0.0}, {"type": "electric_scooter", "rental_uris": {"ios": "https://dc.lft.to/lastmile_qr_scan", "android": "https://dc.lft.to/lastmile_qr_scan"}, "lon": -77.024434, "fusion_lon": 0.0, "is_disabled": 0, "lat": 38.93879866666666, "bike_id": "dff4793df84f147bd119241597a23e8d", "name": "dff4793df84f147bd119241597a23e8d", "is_reserved": 0, "fusion_lat": 0.0}, {"type": "electric_scooter", "rental_uris": {"ios": "https://dc.lft.to/lastmile_qr_scan", "android": "https://dc.lft.to/lastmile_qr_scan"}, "lon": -77.02977366666667, "fusion_lon": 0.0, "is_disabled": 0, "lat": 38.92461933333333, "bike_id": "d863945ed195f2d27d40396a520e4f19", "name": "d863945ed195f2d27d40396a520e4f19", "is_reserved": 0, "fusion_lat": 0.0}, {"type": "electric_scooter", "rental_uris": {"ios": "https://dc.lft.to/lastmile_qr_scan", "android": "https://dc.lft.to/lastmile_qr_scan"}, "lon": -77.0325965, "fusion_lon": 0.0, "is_disabled": 0, "lat": 38.919349, "bike_id": "55a6273b4b58c1e3f2128040a1e886ff", "name": "55a6273b4b58c1e3f2128040a1e886ff", "is_reserved": 0, "fusion_lat": 0.0}, {"type": "electric_scooter", "rental_uris": {"ios": "https://dc.lft.to/lastmile_qr_scan", "android": "https://dc.lft.to/lastmile_qr_scan"}, "lon": -77.03212733333334, "fusion_lon": 0.0, "is_disabled": 0, "lat": 38.90974333333333, "bike_id": "60251d5d9bd1844496bed33926f727c3", "name": "60251d5d9bd1844496bed33926f727c3", "is_reserved": 0, "fusion_lat": 0.0}, {"type": "electric_scooter", "rental_uris": {"ios": "https://dc.lft.to/lastmile_qr_scan", "android": "https://dc.lft.to/lastmile_qr_scan"}, "lon": -77.03215266666666, "fusion_lon": 0.0, "is_disabled": 0, "lat": 38.91717583333333, "bike_id": "c5cb480db490daa654849542f2839045", "name": "c5cb480db490daa654849542f2839045", "is_reserved": 0, "fusion_lat": 0.0}, {"type": "electric_scooter", "rental_uris": {"ios": "https://dc.lft.to/lastmile_qr_scan", "android": "https://dc.lft.to/lastmile_qr_scan"}, "lon": -77.02181433333334, "fusion_lon": 0.0, "is_disabled": 0, "lat": 38.893011666666666, "bike_id": "1e0377fa0d3562ba6fca2e3f625e84b8", "name": "1e0377fa0d3562ba6fca2e3f625e84b8", "is_reserved": 0, "fusion_lat": 0.0}, {"type": "electric_bike", "rental_uris": {"ios": "https://dc.lft.to/lastmile_qr_scan", "android": "https://dc.lft.to/lastmile_qr_scan"}, "lon": -77.07901333333334, "fusion_lon": 0.0, "is_disabled": 0, "lat": 38.83934766666667, "bike_id": "bf5a8caea94efeb04e7a722f97e58354", "name": "bf5a8caea94efeb04e7a722f97e58354", "is_reserved": 0, "fusion_lat": 0.0}, {"type": "electric_scooter", "rental_uris": {"ios": "https://dc.lft.to/lastmile_qr_scan", "android": "https://dc.lft.to/lastmile_qr_scan"}, "lon": -76.97805666666666, "fusion_lon": 0.0, "is_disabled": 0, "lat": 38.89454166666667, "bike_id": "a8467317346796c9921df112dfe2cb83", "name": "a8467317346796c9921df112dfe2cb83", "is_reserved": 0, "fusion_lat": 0.0}, {"type": "electric_scooter", "rental_uris": {"ios": "https://dc.lft.to/lastmile_qr_scan", "android": "https://dc.lft.to/lastmile_qr_scan"}, "lon": -77.025049, "fusion_lon": 0.0, "is_disabled": 0, "lat": 38.91971983333333, "bike_id": "f9505a10ca8618dd6a09779648657427", "name": "f9505a10ca8618dd6a09779648657427", "is_reserved": 0, "fusion_lat": 0.0}, {"type": "electric_scooter", "rental_uris": {"ios": "https://dc.lft.to/lastmile_qr_scan", "android": "https://dc.lft.to/lastmile_qr_scan"}, "lon": -77.031328, "fusion_lon": 0.0, "is_disabled": 0, "lat": 38.8922485, "bike_id": "af8360c73e17263f72503096c7c8e2c0", "name": "af8360c73e17263f72503096c7c8e2c0", "is_reserved": 0, "fusion_lat": 0.0}, {"type": "electric_scooter", "rental_uris": {"ios": "https://dc.lft.to/lastmile_qr_scan", "android": "https://dc.lft.to/lastmile_qr_scan"}, "lon": -77.02761433333333, "fusion_lon": 0.0, "is_disabled": 0, "lat": 38.9072455, "bike_id": "a3c6b12047284ce3a1682630808ff6cc", "name": "a3c6b12047284ce3a1682630808ff6cc", "is_reserved": 0, "fusion_lat": 0.0}, {"type": "electric_scooter", "rental_uris": {"ios": "https://dc.lft.to/lastmile_qr_scan", "android": "https://dc.lft.to/lastmile_qr_scan"}, "lon": -77.02763716666666, "fusion_lon": 0.0, "is_disabled": 0, "lat": 38.907307, "bike_id": "6954d4c81cdb8c62a58b13f224ede31b", "name": "6954d4c81cdb8c62a58b13f224ede31b", "is_reserved": 0, "fusion_lat": 0.0}, {"type": "electric_scooter", "rental_uris": {"ios": "https://dc.lft.to/lastmile_qr_scan", "android": "https://dc.lft.to/lastmile_qr_scan"}, "lon": -77.02607333333333, "fusion_lon": 0.0, "is_disabled": 0, "lat": 38.904082333333335, "bike_id": "63a6e2003eaebd638ad1c97bd56f33d2", "name": "63a6e2003eaebd638ad1c97bd56f33d2", "is_reserved": 0, "fusion_lat": 0.0}, {"type": "electric_bike", "rental_uris": {"ios": "https://dc.lft.to/lastmile_qr_scan", "android": "https://dc.lft.to/lastmile_qr_scan"}, "lon": -76.93543766666667, "fusion_lon": 0.0, "is_disabled": 0, "lat": 38.95184716666667, "bike_id": "a0025493988c9f8d8ebc38411bcfa9e2", "name": "a0025493988c9f8d8ebc38411bcfa9e2", "is_reserved": 0, "fusion_lat": 0.0}, {"type": "electric_scooter", "rental_uris": {"ios": "https://dc.lft.to/lastmile_qr_scan", "android": "https://dc.lft.to/lastmile_qr_scan"}, "lon": -77.0802515, "fusion_lon": 0.0, "is_disabled": 0, "lat": 38.90924783333333, "bike_id": "f14e761b7dd5dc83b28a569155453a28", "name": "f14e761b7dd5dc83b28a569155453a28", "is_reserved": 0, "fusion_lat": 0.0}, {"type": "electric_bike", "rental_uris": {"ios": "https://dc.lft.to/lastmile_qr_scan", "android": "https://dc.lft.to/lastmile_qr_scan"}, "lon": -77.11851816666666, "fusion_lon": 0.0, "is_disabled": 0, "lat": 38.87733766666667, "bike_id": "16f0dd371b1d49cadf923ca93c833b17", "name": "16f0dd371b1d49cadf923ca93c833b17", "is_reserved": 0, "fusion_lat": 0.0}, {"type": "electric_scooter", "rental_uris": {"ios": "https://dc.lft.to/lastmile_qr_scan", "android": "https://dc.lft.to/lastmile_qr_scan"}, "lon": -77.044808, "fusion_lon": 0.0, "is_disabled": 0, "lat": 38.91924316666667, "bike_id": "345c6e74f8c77c29844a7245a01dca05", "name": "345c6e74f8c77c29844a7245a01dca05", "is_reserved": 0, "fusion_lat": 0.0}, {"type": "electric_scooter", "rental_uris": {"ios": "https://dc.lft.to/lastmile_qr_scan", "android": "https://dc.lft.to/lastmile_qr_scan"}, "lon": -77.04523033333334, "fusion_lon": 0.0, "is_disabled": 0, "lat": 38.91824583333333, "bike_id": "82946e7adb666150f8b6e59e30ee7136", "name": "82946e7adb666150f8b6e59e30ee7136", "is_reserved": 0, "fusion_lat": 0.0}, {"type": "electric_scooter", "rental_uris": {"ios": "https://dc.lft.to/lastmile_qr_scan", "android": "https://dc.lft.to/lastmile_qr_scan"}, "lon": -77.01847966666666, "fusion_lon": 0.0, "is_disabled": 0, "lat": 38.946305833333334, "bike_id": "d93fd2fb9dd0a4caf22eff34c57f47ee", "name": "d93fd2fb9dd0a4caf22eff34c57f47ee", "is_reserved": 0, "fusion_lat": 0.0}, {"type": "electric_scooter", "rental_uris": {"ios": "https://dc.lft.to/lastmile_qr_scan", "android": "https://dc.lft.to/lastmile_qr_scan"},