{"data": {"bikes": [{"is_reserved": 0, "type": "electric_scooter", "fusion_lat": 0.0, "is_disabled": 0, "rental_uris": {"ios": "https://dc.lft.to/lastmile_qr_scan", "android": "https://dc.lft.to/lastmile_qr_scan"}, "bike_id": "bb0246c898f4211418a76bb837de56f7", "lat": 38.90178, "name": "bb0246c898f4211418a76bb837de56f7", "lon": -76.97672383333334, "fusion_lon": 0.0}, {"is_reserved": 0, "type": "electric_scooter", "fusion_lat": 0.0, "is_disabled": 0, "rental_uris": {"ios": "https://dc.lft.to/lastmile_qr_scan", "android": "https://dc.lft.to/lastmile_qr_scan"}, "bike_id": "52f0a84d36744bce46f8d9663f6492bf", "lat": 38.87692766666667, "name": "52f0a84d36744bce46f8d9663f6492bf", "lon": -76.99629066666667, "fusion_lon": 0.0}, {"is_reserved": 0, "type": "electric_scooter", "fusion_lat": 0.0, "is_disabled": 0, "rental_uris": {"ios": "https://dc.lft.to/lastmile_qr_scan", "android": "https://dc.lft.to/lastmile_qr_scan"}, "bike_id": "e5bb3b8ec6c2f5f4f41513126bc0cf20", "lat": 38.917473, "name": "e5bb3b8ec6c2f5f4f41513126bc0cf20", "lon": -77.02810316666667, "fusion_lon": 0.0}, {"is_reserved": 0, "type": "electric_scooter", "fusion_lat": 0.0, "is_disabled": 0, "rental_uris": {"ios": "https://dc.lft.to/lastmile_qr_scan", "android": "https://dc.lft.to/lastmile_qr_scan"}, "bike_id": "29a180cba444a7b1b8da516b0e4359f6", "lat": 38.88711, "name": "29a180cba444a7b1b8da516b0e4359f6", "lon": -76.98382566666666, "fusion_lon": 0.0}, {"is_reserved": 0, "type": "electric_scooter", "fusion_lat": 0.0, "is_disabled": 0, "rental_uris": {"ios": "https://dc.lft.to/lastmile_qr_scan", "android": "https://dc.lft.to/lastmile_qr_scan"}, "bike_id": "78990a223aad050eec7552ac08470c61", "lat": 38.88008466666667, "name": "78990a223aad050eec7552ac08470c61", "lon": -76.9973895, "fusion_lon": 0.0}, {"is_reserved": 0, "type": "electric_scooter", "fusion_lat": 0.0, "is_disabled": 0, "rental_uris": {"ios": "https://dc.lft.to/lastmile_qr_scan", "android": "https://dc.lft.to/lastmile_qr_scan"}, "bike_id": "67b33ae81be823af2505cf1f7c617e56", "lat": 38.8922595, "name": "67b33ae81be823af2505cf1f7c617e56", "lon": -77.02219416666667, "fusion_lon": 0.0}, {"is_reserved": 0, "type": "electric_scooter", "fusion_lat": 0.0, "is_disabled": 0, "rental_uris": {"ios": "https://dc.lft.to/lastmile_qr_scan", "android": "https://dc.lft.to/lastmile_qr_scan"}, "bike_id": "20e6d77032973405d00f474da7eeaa5b", "lat": 38.876737, "name": "20e6d77032973405d00f474da7eeaa5b", "lon": -77.017659, "fusion_lon": 0.0}, {"is_reserved": 0, "type": "electric_scooter", "fusion_lat": 0.0, "is_disabled": 0, "rental_uris": {"ios": "https://dc.lft.to/lastmile_qr_scan", "android": "https://dc.lft.to/lastmile_qr_scan"}, "bike_id": "26f63a29067142e9735553c37c0878fa", "lat": 38.91850866666667, "name": "26f63a29067142e9735553c37c0878fa", "lon": -77.04104716666667, "fusion_lon": 0.0}, {"is_reserved": 0, "type": "electric_scooter", "fusion_lat": 0.0, "is_disabled": 0, "rental_uris": {"ios": "https://dc.lft.to/lastmile_qr_scan", "android": "https://dc.lft.to/lastmile_qr_scan"}, "bike_id": "1897d0cf1418276daacee0c27f72c82b", "lat": 38.92713533333333, "name": "1897d0cf1418276daacee0c27f72c82b", "lon": -77.03691416666666, "fusion_lon": 0.0}, {"is_reserved": 0, "type": "electric_scooter", "fusion_lat": 0.0, "is_disabled": 0, "rental_uris": {"ios": "https://dc.lft.to/lastmile_qr_scan", "android": "https://dc.lft.to/lastmile_qr_scan"}, "bike_id": "867e462b3d1f76bb9bbf1ab2b10f3bb5", "lat": 38.89683983333333, "name": "867e462b3d1f76bb9bbf1ab2b10f3bb5", "lon": -77.0433465, "fusion_lon": 0.0}, {"is_reserved": 0, "type": "electric_scooter", "fusion_lat": 0.0, "is_disabled": 0, "rental_uris": {"ios": "https://dc.lft.to/lastmile_qr_scan", "android": "https://dc.lft.to/lastmile_qr_scan"}, "bike_id": "481d8a0ee354d031bf091166d817ead0", "lat": 38.905532666666666, "name": "481d8a0ee354d031bf091166d817ead0", "lon": -77.0592525, "fusion_lon": 0.0}, {"is_reserved": 0, "type": "electric_scooter", "fusion_lat": 0.0, "is_disabled": 0, "rental_uris": {"ios": "https://dc.lft.to/lastmile_qr_scan", "android": "https://dc.lft.to/lastmile_qr_scan"}, "bike_id": "9ef16920fc8201842189df7084959bdd", "lat": 38.92723266666667, "name": "9ef16920fc8201842189df7084959bdd", "lon": -77.05142966666666, "fusion_lon": 0.0}, {"is_reserved": 0, "type": "electric_scooter", "fusion_lat": 0.0, "is_disabled": 0, "rental_uris": {"ios": "https://dc.lft.to/lastmile_qr_scan", "android": "https://dc.lft.to/lastmile_qr_scan"}, "bike_id": "0b42583e3605380171765e74699e6870", "lat": 38.94857416666667, "name": "0b42583e3605380171765e74699e6870", "lon": -77.0788455, "fusion_lon": 0.0}, {"is_reserved": 0, "type": "electric_scooter", "fusion_lat": 0.0, "is_disabled": 0, "rental_uris": {"ios": "https://dc.lft.to/lastmile_qr_scan", "android": "https://dc.lft.to/lastmile_qr_scan"}, "bike_id": "0947028765b26b75c9558b86e3c45add", "lat": 38.905614666666665, "name": "0947028765b26b75c9558b86e3c45add", "lon": -77.0445925, "fusion_lon": 0.0}, {"is_reserved": 0, "type": "electric_scooter", "fusion_lat": 0.0, "is_disabled": 0, "rental_uris": {"ios": "https://dc.lft.to/lastmile_qr_scan", "android": "https://dc.lft.to/lastmile_qr_scan"}, "bike_id": "2ccc3f368f82c2ea90fe3e386d5a11b3", "lat": 38.89777766666667, "name": "2ccc3f368f82c2ea90fe3e386d5a11b3", "lon": -77.05029383333333, "fusion_lon": 0.0}, {"is_reserved": 0, "type": "electric_scooter", "fusion_lat": 0.0, "is_disabled": 0, "rental_uris": {"ios": "https://dc.lft.to/lastmile_qr_scan", "android": "https://dc.lft.to/lastmile_qr_scan"}, "bike_id": "ecee961de2eb8a3639b289b77e118f5d", "lat": 38.898801666666664, "name": "ecee961de2eb8a3639b289b77e118f5d", "lon": -76.931805, "fusion_lon": 0.0}, {"is_reserved": 0, "type": "electric_scooter", "fusion_lat": 0.0, "is_disabled": 0, "rental_uris": {"ios": "https://dc.lft.to/lastmile_qr_scan", "android": "https://dc.lft.to/lastmile_qr_scan"}, "bike_id": "ff73a75eb8d77606413e0e56eb104f87", "lat": 38.92787783333333, "name": "ff73a75eb8d77606413e0e56eb104f87", "lon": -77.03152633333333, "fusion_lon": 0.0}, {"is_reserved": 0, "type": "electric_scooter", "fusion_lat": 0.0, "is_disabled": 0, "rental_uris": {"ios": "https://dc.lft.to/lastmile_qr_scan", "android": "https://dc.lft.to/lastmile_qr_scan"}, "bike_id": "01c117c2707ce99a1777be90f6da7c2c", "lat": 38.918786833333336, "name": "01c117c2707ce99a1777be90f6da7c2c", "lon": -77.02711783333334, "fusion_lon": 0.0}, {"is_reserved": 0, "type": "electric_scooter", "fusion_lat": 0.0, "is_disabled": 0, "rental_uris": {"ios": "https://dc.lft.to/lastmile_qr_scan", "android": "https://dc.lft.to/lastmile_qr_scan"}, "bike_id": "b2dec3aa5a30cb6b0854f61a9e9b034a", "lat": 38.898398, "name": "b2dec3aa5a30cb6b0854f61a9e9b034a", "lon": -76.98824816666666, "fusion_lon": 0.0}, {"is_reserved": 0, "type": "electric_scooter", "fusion_lat": 0.0, "is_disabled": 0, "rental_uris": {"ios": "https://dc.lft.to/lastmile_qr_scan", "android": "https://dc.lft.to/lastmile_qr_scan"}, "bike_id": "1c780760c4bae6c6249e5ed87cb4b04e", "lat": 38.88101783333333, "name": "1c780760c4bae6c6249e5ed87cb4b04e", "lon": -77.02634233333333, "fusion_lon": 0.0}, {"is_reserved": 0, "type": "electric_scooter", "fusion_lat": 0.0, "is_disabled": 0, "rental_uris": {"ios": "https://dc.lft.to/lastmile_qr_scan", "android": "https://dc.lft.to/lastmile_qr_scan"}, "bike_id": "d8d3b3c8a559dbe43fa915ac9ccbdc49", "lat": 38.8985545, "name": "d8d3b3c8a559dbe43fa915ac9ccbdc49", "lon": -77.04676616666667, "fusion_lon": 0.0}, {"is_reserved": 0, "type": "electric_scooter", "fusion_lat": 0.0, "is_disabled": 0, "rental_uris": {"ios": "https://dc.lft.to/lastmile_qr_scan", "android": "https://dc.lft.to/lastmile_qr_scan"}, "bike_id": "26dd0b5605f3a52dd46203f36f23f08d", "lat": 38.894989333333335, "name": "26dd0b5605f3a52dd46203f36f23f08d", "lon": -77.02291633333333, "fusion_lon": 0.0}, {"is_reserved": 0, "type": "electric_scooter", "fusion_lat": 0.0, "is_disabled": 0, "rental_uris": {"ios": "https://dc.lft.to/lastmile_qr_scan", "android": "https://dc.lft.to/lastmile_qr_scan"}, "bike_id": "f143066627774140f92844033717cdea", "lat": 38.937527833333334, "name": "f143066627774140f92844033717cdea", "lon": -77.02447016666666, "fusion_lon": 0.0}, {"is_reserved": 0, "type": "electric_scooter", "fusion_lat": 0.0, "is_disabled": 0, "rental_uris": {"ios": "https://dc.lft.to/lastmile_qr_scan", "android": "https://dc.lft.to/lastmile_qr_scan"}, "bike_id": "fe0b0413cd1d185323eb2ea0c21465e4", "lat": 38.898428333333335, "name": "fe0b0413cd1d185323eb2ea0c21465e4", "lon": -77.01893283333334, "fusion_lon": 0.0}, {"is_reserved": 0, "type": "electric_scooter", "fusion_lat": 0.0, "is_disabled": 0, "rental_uris": {"ios": "https://dc.lft.to/lastmile_qr_scan", "android": "https://dc.lft.to/lastmile_qr_scan"}, "bike_id": "0388666c90cb5a382b44f3955642eaf9", "lat": 38.876825, "name": "0388666c90cb5a382b44f3955642eaf9", "lon": -77.003194, "fusion_lon": 0.0}, {"is_reserved": 0, "type": "electric_scooter", "fusion_lat": 0.0, "is_disabled": 0, "rental_uris": {"ios": "https://dc.lft.to/lastmile_qr_scan", "android": "https://dc.lft.to/lastmile_qr_scan"}, "bike_id": "1d1125e2fde13f80364df9849ba575fe", "lat": 38.900054833333336, "name": "1d1125e2fde13f80364df9849ba575fe", "lon": -77.00260166666666, "fusion_lon": 0.0}, {"is_reserved": 0, "type": "electric_bike", "fusion_lat": 0.0, "is_disabled": 0, "rental_uris": {"ios": "https://dc.lft.to/lastmile_qr_scan", "android": "https://dc.lft.to/lastmile_qr_scan"}, "bike_id": "a96b1a203999a468af06937b61586527", "lat": 39.0843405, "name": "a96b1a203999a468af06937b61586527", "lon": -76.95140683333334, "fusion_lon": 0.0}, {"is_reserved": 0, "type": "electric_scooter", "fusion_lat": 0.0, "is_disabled": 0, "rental_uris": {"ios": "https://dc.lft.to/lastmile_qr_scan", "android": "https://dc.lft.to/lastmile_qr_scan"}, "bike_id": "f1c3b614a9bfffe44ba0610699e5abdc", "lat": 38.92853266666667, "name": "f1c3b614a9bfffe44ba0610699e5abdc", "lon": -77.03271916666667, "fusion_lon": 0.0}, {"is_reserved": 0, "type": "electric_scooter", "fusion_lat": 0.0, "is_disabled": 0, "rental_uris": {"ios": "https://dc.lft.to/lastmile_qr_scan", "android": "https://dc.lft.to/lastmile_qr_scan"}, "bike_id": "11f12809228cc3306ca767f007f2bfad", "lat": 38.93161033333333, "name": "11f12809228cc3306ca767f007f2bfad", "lon": -77.05609933333334, "fusion_lon": 0.0}, {"is_reserved": 0, "type": "electric_scooter", "fusion_lat": 0.0, "is_disabled": 0, "rental_uris": {"ios": "https://dc.lft.to/lastmile_qr_scan", "android": "https://dc.lft.to/lastmile_qr_scan"}, "bike_id": "874a011fd4ad39ed93b81b17ab7251b6", "lat": 38.9126865, "name": "874a011fd4ad39ed93b81b17ab7251b6", "lon": -77.03188666666667, "fusion_lon": 0.0}, {"is_reserved": 0, "type": "electric_bike", "fusion_lat": 0.0, "is_disabled": 0, "rental_uris": {"ios": "https://dc.lft.to/lastmile_qr_scan", "android": "https://dc.lft.to/lastmile_qr_scan"}, "bike_id": "6de768f2c19ee84aa3ae912f3bf2f54b", "lat": 38.841030333333336, "name": "6de768f2c19ee84aa3ae912f3bf2f54b", "lon": -77.089307, "fusion_lon": 0.0}, {"is_reserved": 0, "type": "electric_scooter", "fusion_lat": 0.0, "is_disabled": 0, "rental_uris": {"ios": "https://dc.lft.to/lastmile_qr_scan", "android": "https://dc.lft.to/lastmile_qr_scan"}, "bike_id": "f7d2ba559393b4e45dea9b594f35ec66", "lat": 38.88445466666667, "name": "f7d2ba559393b4e45dea9b594f35ec66", "lon": -77.00901033333334, "fusion_lon": 0.0}, {"is_reserved": 0, "type": "electric_scooter", "fusion_lat": 0.0, "is_disabled": 0, "rental_uris": {"ios": "https://dc.lft.to/lastmile_qr_scan", "android": "https://dc.lft.to/lastmile_qr_scan"}, "bike_id": "8e18275a817a03ca8071b12e285bec24", "lat": 38.8839395, "name": "8e18275a817a03ca8071b12e285bec24", "lon": -76.93042883333334, "fusion_lon": 0.0}, {"is_reserved": 0, "type": "electric_bike", "fusion_lat": 0.0, "is_disabled": 0, "rental_uris": {"ios": "https://dc.lft.to/lastmile_qr_scan", "android": "https://dc.lft.to/lastmile_qr_scan"}, "bike_id": "6521afe127312d2a5174ed1873b4d197", "lat": 38.8837485, "name": "6521afe127312d2a5174ed1873b4d197", "lon": -76.92369566666666, "fusion_lon": 0.0}, {"is_reserved": 0, "type": "electric_scooter", "fusion_lat": 0.0, "is_disabled": 0, "rental_uris": {"ios": "https://dc.lft.to/lastmile_qr_scan", "android": "https://dc.lft.to/lastmile_qr_scan"}, "bike_id": "26ce27e64f404d685a04d3a2ea05dbd6", "lat": 38.927238, "name": "26ce27e64f404d685a04d3a2ea05dbd6", "lon": -77.02309933333333, "fusion_lon": 0.0}, {"is_reserved": 0, "type": "electric_scooter", "fusion_lat": 0.0, "is_disabled": 0, "rental_uris": {"ios": "https://dc.lft.to/lastmile_qr_scan", "android": "https://dc.lft.to/lastmile_qr_scan"}, "bike_id": "5609e5f9aea76a7fd2a0eda19445afc1", "lat": 38.901961666666665, "name": "5609e5f9aea76a7fd2a0eda19445afc1", "lon": -77.04871466666667, "fusion_lon": 0.0}, {"is_reserved": 0, "type": "electric_scooter", "fusion_lat": 0.0, "is_disabled": 0, "rental_uris": {"ios": "https://dc.lft.to/lastmile_qr_scan", "android": "https://dc.lft.to/lastmile_qr_scan"}, "bike_id": "f438aa8986f04eb37bb9357da4a3e37f", "lat": 38.933476, "name": "f438aa8986f04eb37bb9357da4a3e37f", "lon": -76.99440366666667, "fusion_lon": 0.0}, {"is_reserved": 0, "type": "electric_scooter", "fusion_lat": 0.0, "is_disabled": 0, "rental_uris": {"ios": "https://dc.lft.to/lastmile_qr_scan", "android": "https://dc.lft.to/lastmile_qr_scan"}, "bike_id": "4470eac38ced51963d17fc4ef80748c0", "lat": 38.899179833333335, "name": "4470eac38ced51963d17fc4ef80748c0", "lon": -77.040134, "fusion_lon": 0.0}, {"is_reserved": 0, "type": "electric_scooter", "fusion_lat": 0.0, "is_disabled": 0, "rental_uris": {"ios": "https://dc.lft.to/lastmile_qr_scan", "android": "https://dc.lft.to/lastmile_qr_scan"}, "bike_id": "f8c2d6c7475d0373407ba383441480a9", "lat": 38.900723, "name": "f8c2d6c7475d0373407ba383441480a9", "lon": -77.0065925, "fusion_lon": 0.0}, {"is_reserved": 0, "type": "electric_scooter", "fusion_lat": 0.0, "is_disabled": 0, "rental_uris": {"ios": "https://dc.lft.to/lastmile_qr_scan", "android": "https://dc.lft.to/lastmile_qr_scan"}, "bike_id": "4099b78133c0f501d2defa75957b87a7", "lat": 38.8983125, "name": "4099b78133c0f501d2defa75957b87a7", "lon": -77.027148, "fusion_lon": 0.0}, {"is_reserved": 0, "type": "electric_scooter", "fusion_lat": 0.0, "is_disabled": 0, "rental_uris": {"ios": "https://dc.lft.to/lastmile_qr_scan", "android": "https://dc.lft.to/lastmile_qr_scan"}, "bike_id": "1015df0ba3e455445eb8f7740178b0d9", "lat": 38.9207235, "name": "1015df0ba3e455445eb8f7740178b0d9", "lon": -77.0251415, "fusion_lon": 0.0}, {"is_reserved": 0, "type": "electric_scooter", "fusion_lat": 0.0, "is_disabled": 0, "rental_uris": {"ios": "https://dc.lft.to/lastmile_qr_scan", "android": "https://dc.lft.to/lastmile_qr_scan"}, "bike_id": "fc26230984ed2a4da864ed6cc53bff4c", "lat": 38.87656, "name": "fc26230984ed2a4da864ed6cc53bff4c", "lon": -77.01571783333333, "fusion_lon": 0.0}, {"is_reserved": 0, "type": "electric_scooter", "fusion_lat": 0.0, "is_disabled": 0, "rental_uris": {"ios": "https://dc.lft.to/lastmile_qr_scan", "android": "https://dc.lft.to/lastmile_qr_scan"}, "bike_id": "00b841ae6a3d34a4413868cf893c30c1", "lat": 38.903299, "name": "00b841ae6a3d34a4413868cf893c30c1", "lon": -76.975941, "fusion_lon": 0.0}, {"is_reserved": 0, "type": "electric_scooter", "fusion_lat": 0.0, "is_disabled": 0, "rental_uris": {"ios": "https://dc.lft.to/lastmile_qr_scan", "android": "https://dc.lft.to/lastmile_qr_scan"}, "bike_id": "7a0393fb70fe13af1bba10106481707a", "lat": 38.922800333333335, "name": "7a0393fb70fe13af1bba10106481707a", "lon": -77.04241066666667, "fusion_lon": 0.0}, {"is_reserved": 0, "type": "electric_scooter", "fusion_lat": 0.0, "is_disabled": 0, "rental_uris": {"ios": "https://dc.lft.to/lastmile_qr_scan", "android": "https://dc.lft.to/lastmile_qr_scan"}, "bike_id": "d050e7355bd3bdcf7656f976c49e5d55", "lat": 38.929078, "name": "d050e7355bd3bdcf7656f976c49e5d55", "lon": -77.03276666666666, "fusion_lon": 0.0}, {"is_reserved": 0, "type": "electric_scooter", "fusion_lat": 0.0, "is_disabled": 0, "rental_uris": {"ios": "https://dc.lft.to/lastmile_qr_scan", "android": "https://dc.lft.to/lastmile_qr_scan"}, "bike_id": "4d26eb853f305eb9a74603817042ca18", "lat": 38.924401, "name": "4d26eb853f305eb9a74603817042ca18", "lon": -77.02136616666667, "fusion_lon": 0.0}, {"is_reserved": 0, "type": "electric_scooter", "fusion_lat": 0.0, "is_disabled": 0, "rental_uris": {"ios": "https://dc.lft.to/lastmile_qr_scan", "android": "https://dc.lft.to/lastmile_qr_scan"}, "bike_id": "889dc62a2af36121dd2ebb80c6450e55", "lat": 38.9170585, "name": "889dc62a2af36121dd2ebb80c6450e55", "lon": -77.02733866666667, "fusion_lon": 0.0}, {"is_reserved": 0, "type": "electric_scooter", "fusion_lat": 0.0, "is_disabled": 0, "rental_uris": {"ios": "https://dc.lft.to/lastmile_qr_scan", "android": "https://dc.lft.to/lastmile_qr_scan"}, "bike_id": "ee98b2e1dddd9a63a130e5dc15e3501b", "lat": 38.92413966666667, "name": "ee98b2e1dddd9a63a130e5dc15e3501b", "lon": -77.02038, "fusion_lon": 0.0}, {"is_reserved": 0, "type": "electric_scooter", "fusion_lat": 0.0, "is_disabled": 0, "rental_uris": {"ios": "https://dc.lft.to/lastmile_qr_scan", "android": "https://dc.lft.to/lastmile_qr_scan"}, "bike_id": "b400c70be17fa281fcbbf65bc9bf84c1", "lat": 38.92650416666667, "name": "b400c70be17fa281fcbbf65bc9bf84c1", "lon": -77.0243005, "fusion_lon": 0.0}, {"is_reserved": 0, "type": "electric_scooter", "fusion_lat": 0.0, "is_disabled": 0, "rental_uris": {"ios": "https://dc.lft.to/lastmile_qr_scan", "android": "https://dc.lft.to/lastmile_qr_scan"}, "bike_id": "e559ea9fadb95b98b5e829a05ef68d4e", "lat": 38.91336783333333, "name": "e559ea9fadb95b98b5e829a05ef68d4e", "lon": -77.030367, "fusion_lon": 0.0}, {"is_reserved": 0, "type": "electric_scooter", "fusion_lat": 0.0, "is_disabled": 0, "rental_uris": {"ios": "https://dc.lft.to/lastmile_qr_scan", "android": "https://dc.lft.to/lastmile_qr_scan"}, "bike_id": "cedc8c727beb1a1ac91dd6602188575d", "lat": 38.921298166666666, "name": "cedc8c727beb1a1ac91dd6602188575d", "lon": -77.04569316666667, "fusion_lon": 0.0}, {"is_reserved": 0, "type": "electric_scooter", "fusion_lat": 0.0, "is_disabled": 0, "rental_uris": {"ios": "https://dc.lft.to/lastmile_qr_scan", "android": "https://dc.lft.to/lastmile_qr_scan"}, "bike_id": "59eec6175335472970b14b883de4b1ef", "lat": 38.906219166666666, "name": "59eec6175335472970b14b883de4b1ef", "lon": -77.02710833333333, "fusion_lon": 0.0}, {"is_reserved": 0, "type": "electric_scooter", "fusion_lat": 0.0, "is_disabled": 0, "rental_uris": {"ios": "https://dc.lft.to/lastmile_qr_scan", "android": "https://dc.lft.to/lastmile_qr_scan"}, "bike_id": "1ad551be472e13a11fb804ecc9dfc326", "lat": 38.92055716666667, "name": "1ad551be472e13a11fb804ecc9dfc326", "lon": -77.03379383333333, "fusion_lon": 0.0}, {"is_reserved": 0, "type": "electric_bike", "fusion_lat": 0.0, "is_disabled": 0, "rental_uris": {"ios": "https://dc.lft.to/lastmile_qr_scan", "android": "https://dc.lft.to/lastmile_qr_scan"}, "bike_id": "4a045fe8df910953721cb7e24e058a61", "lat": 38.905291166666665, "name": "4a045fe8df910953721cb7e24e058a61", "lon": -77.0662575, "fusion_lon": 0.0}, {"is_reserved": 0, "type": "electric_scooter", "fusion_lat": 0.0, "is_disabled": 0, "rental_uris": {"ios": "https://dc.lft.to/lastmile_qr_scan", "android": "https://dc.lft.to/lastmile_qr_scan"}, "bike_id": "30a8ed6ac8bc29a765153bba447fa5c7", "lat": 38.916972333333334, "name": "30a8ed6ac8bc29a765153bba447fa5c7", "lon": -77.04106633333333, "fusion_lon": 0.0}, {"is_reserved": 0, "type": "electric_scooter", "fusion_lat": 0.0, "is_disabled": 0, "rental_uris": {"ios": "https://dc.lft.to/lastmile_qr_scan", "android": "https://dc.lft.to/lastmile_qr_scan"}, "bike_id": "0f5e7db80d8d2fceb07b128658a700c8", "lat": 38.860792833333335, "name": "0f5e7db80d8d2fceb07b128658a700c8", "lon": -76.98377783333333, "fusion_lon": 0.0}, {"is_reserved": 0, "type": "electric_scooter", "fusion_lat": 0.0, "is_disabled": 0, "rental_uris": {"ios": "https://dc.lft.to/lastmile_qr_scan", "android": "https://dc.lft.to/lastmile_qr_scan"}, "bike_id": "a43fb7acc957c92277d305ca17d1111a", "lat": 38.919157166666665, "name": "a43fb7acc957c92277d305ca17d1111a", "lon": -77.03111616666666, "fusion_lon": 0.0}, {"is_reserved": 0, "type": "electric_scooter", "fusion_lat": 0.0, "is_disabled": 0, "rental_uris": {"ios": "https://dc.lft.to/lastmile_qr_scan", "android": "https://dc.lft.to/lastmile_qr_scan"}, "bike_id": "a774d9501cb7b014539fe9594cb70cc2", "lat": 38.902342833333336, "name": "a774d9501cb7b014539fe9594cb70cc2", "lon": -76.99369783333333, "fusion_lon": 0.0}, {"is_reserved": 0, "type": "electric_bike", "fusion_lat": 0.0, "is_disabled": 0, "rental_uris": {"ios": "https://dc.lft.to/lastmile_qr_scan", "android": "https://dc.lft.to/lastmile_qr_scan"}, "bike_id": "95bb1afb8093b7d7ebecf10a4d7e6bda", "lat": 38.85055583333333, "name": "95bb1afb8093b7d7ebecf10a4d7e6bda", "lon": -76.9582605, "fusion_lon": 0.0}, {"is_reserved": 0, "type": "electric_scooter", "fusion_lat": 0.0, "is_disabled": 0, "rental_uris": {"ios": "https://dc.lft.to/lastmile_qr_scan", "android": "https://dc.lft.to/lastmile_qr_scan"}, "bike_id": "8cb5fde80e914f75c35a2cfb60faa2c7", "lat": 38.908264, "name": "8cb5fde80e914f75c35a2cfb60faa2c7", "lon": -77.0436535, "fusion_lon": 0.0}, {"is_reserved": 0, "type": "electric_scooter", "fusion_lat": 0.0, "is_disabled": 0, "rental_uris": {"ios": "https://dc.lft.to/lastmile_qr_scan", "android": "https://dc.lft.to/lastmile_qr_scan"}, "bike_id": "2dc6347ada3ffa4d8be09d6222c2e552", "lat": 38.8857435, "name": "2dc6347ada3ffa4d8be09d6222c2e552", "lon": -77.0120925, "fusion_lon": 0.0}, {"is_reserved": 0, "type": "electric_scooter", "fusion_lat": 0.0, "is_disabled": 0, "rental_uris": {"ios": "https://dc.lft.to/lastmile_qr_scan", "android": "https://dc.lft.to/lastmile_qr_scan"}, "bike_id": "565f3f2aeec90bf61b0a0ce0d40ee9d2", "lat": 38.90875616666667, "name": "565f3f2aeec90bf61b0a0ce0d40ee9d2", "lon": -77.0006525, "fusion_lon": 0.0}, {"is_reserved": 0, "type": "electric_scooter", "fusion_lat": 0.0, "is_disabled": 0, "rental_uris": {"ios": "https://dc.lft.to/lastmile_qr_scan", "android": "https://dc.lft.to/lastmile_qr_scan"}, "bike_id": "c87dad77d7655551cca0fbf4ab091d63", "lat": 38.932652, "name": "c87dad77d7655551cca0fbf4ab091d63", "lon": -77.03264983333334, "fusion_lon": 0.0}, {"is_reserved": 0, "type": "electric_scooter", "fusion_lat": 0.0, "is_disabled": 0, "rental_uris": {"ios": "https://dc.lft.to/lastmile_qr_scan", "android": "https://dc.lft.to/lastmile_qr_scan"}, "bike_id": "3cf9bf7367768958ad54a1ed27c971a0", "lat": 38.909456166666665, "name": "3cf9bf7367768958ad54a1ed27c971a0", "lon": -76.99583383333334, "fusion_lon": 0.0}, {"is_reserved": 0, "type": "electric_scooter", "fusion_lat": 0.0, "is_disabled": 0, "rental_uris": {"ios": "https://dc.lft.to/lastmile_qr_scan", "android": "https://dc.lft.to/lastmile_qr_scan"}, "bike_id": "48714d97220f8345548e66302a44a1a7", "lat": 38.91691216666667, "name": "48714d97220f8345548e66302a44a1a7", "lon": -77.02602066666667, "fusion_lon": 0.0}, {"is_reserved": 0, "type": "electric_bike", "fusion_lat": 0.0, "is_disabled": 0, "rental_uris": {"ios": "https://dc.lft.to/lastmile_qr_scan", "android": "https://dc.lft.to/lastmile_qr_scan"}, "bike_id": "d0ce4844eba32ddf94e9938b53fdcf34", "lat": 39.0847295, "name": "d0ce4844eba32ddf94e9938b53fdcf34", "lon": -76.9506785, "fusion_lon": 0.0}, {"is_reserved": 0, "type": "electric_scooter", "fusion_lat": 0.0, "is_disabled": 0, "rental_uris": {"ios": "https://dc.lft.to/lastmile_qr_scan", "android": "https://dc.lft.to/lastmile_qr_scan"}, "bike_id": "6d47d3d8ee0fc752a382f9e6d5a93796", "lat": 38.94198566666667, "name": "6d47d3d8ee0fc752a382f9e6d5a93796", "lon": -77.02460516666666, "fusion_lon": 0.0}, {"is_reserved": 0, "type": "electric_scooter", "fusion_lat": 0.0, "is_disabled": 0, "rental_uris": {"ios": "https://dc.lft.to/lastmile_qr_scan", "android": "https://dc.lft.to/lastmile_qr_scan"}, "bike_id": "062899cc48ca15932d16a57f07f86428", "lat": 38.91865333333333, "name": "062899cc48ca15932d16a57f07f86428", "lon": -77.03190683333334, "fusion_lon": 0.0}, {"is_reserved": 0, "type": "electric_scooter", "fusion_lat": 0.0, "is_disabled": 0, "rental_uris": {"ios": "https://dc.lft.to/lastmile_qr_scan", "android": "https://dc.lft.to/lastmile_qr_scan"}, "bike_id": "2f61f74a0880ae4652bc9d1ace8404e0", "lat": 38.95278316666667, "name": "2f61f74a0880ae4652bc9d1ace8404e0", "lon": -77.06875633333334, "fusion_lon": 0.0}, {"is_reserved": 0, "type": "electric_scooter", "fusion_lat": 0.0, "is_disabled": 0, "rental_uris": {"ios": "https://dc.lft.to/lastmile_qr_scan", "android": "https://dc.lft.to/lastmile_qr_scan"}, "bike_id": "cf9ee3929f2135d9b172bbe029c715da", "lat": 38.905019, "name": "cf9ee3929f2135d9b172bbe029c715da", "lon": -77.02818883333333, "fusion_lon": 0.0}, {"is_reserved": 0, "type": "electric_scooter", "fusion_lat": 0.0, "is_disabled": 0, "rental_uris": {"ios": "https://dc.lft.to/lastmile_qr_scan", "android": "https://dc.lft.to/lastmile_qr_scan"}, "bike_id": "42e1de50e5045e12f7fd850bb0803a84", "lat": 38.8888225, "name": "42e1de50e5045e12f7fd850bb0803a84", "lon": -76.99031916666667, "fusion_lon": 0.0}, {"is_reserved": 0, "type": "electric_scooter", "fusion_lat": 0.0, "is_disabled": 0, "rental_uris": {"ios": "https://dc.lft.to/lastmile_qr_scan", "android": "https://dc.lft.to/lastmile_qr_scan"}, "bike_id": "f11a078a5f5811065eff90349f84101c", "lat": 38.94083583333333, "name": "f11a078a5f5811065eff90349f84101c", "lon": -77.0272265, "fusion_lon": 0.0}, {"is_reserved": 0, "type": "electric_scooter", "fusion_lat": 0.0, "is_disabled": 0, "rental_uris": {"ios": "https://dc.lft.to/lastmile_qr_scan", "android": "https://dc.lft.to/lastmile_qr_scan"}, "bike_id": "ae9e1ff41806e5d553135680f1232134", "lat": 38.9013805, "name": "ae9e1ff41806e5d553135680f1232134", "lon": -77.03083933333333, "fusion_lon": 0.0}, {"is_reserved": 0, "type": "electric_scooter", "fusion_lat": 0.0, "is_disabled": 0, "rental_uris": {"ios": "https://dc.lft.to/lastmile_qr_scan", "android": "https://dc.lft.to/lastmile_qr_scan"}, "bike_id": "cc47c58710f6c9a7a59b395454a51ba2", "lat": 38.899708333333336, "name": "cc47c58710f6c9a7a59b395454a51ba2", "lon": -76.92623633333334, "fusion_lon": 0.0}, {"is_reserved": 0, "type": "electric_scooter", "fusion_lat": 0.0, "is_disabled": 0, "rental_uris": {"ios": "https://dc.lft.to/lastmile_qr_scan", "android": "https://dc.lft.to/lastmile_qr_scan"}, "bike_id": "0a6052a74bd9f1103828ad5053a6b3e7", "lat": 38.92995533333333, "name": "0a6052a74bd9f1103828ad5053a6b3e7", "lon": -77.038016, "fusion_lon": 0.0}, {"is_reserved": 0, "type": "electric_scooter", "fusion_lat": 0.0, "is_disabled": 0, "rental_uris": {"ios": "https://dc.lft.to/lastmile_qr_scan", "android": "https://dc.lft.to/lastmile_qr_scan"}, "bike_id": "6a4b5f2bfb54e360fa97f0b7bfdcc9cc", "lat": 38.929947, "name": "6a4b5f2bfb54e360fa97f0b7bfdcc9cc", "lon": -77.03267233333334, "fusion_lon": 0.0}, {"is_reserved": 0, "type": "electric_bike", "fusion_lat": 0.0, "is_disabled": 0, "rental_uris": {"ios": "https://dc.lft.to/lastmile_qr_scan", "android": "https://dc.lft.to/lastmile_qr_scan"}, "bike_id": "a8275b19a6c20c9d492f19f47baa8b55", "lat": 39.02516516666667, "name": "a8275b19a6c20c9d492f19f47baa8b55", "lon": -77.01968883333333, "fusion_lon": 0.0}, {"is_reserved": 0, "type": "electric_scooter", "fusion_lat": 0.0, "is_disabled": 0, "rental_uris": {"ios": "https://dc.lft.to/lastmile_qr_scan", "android": "https://dc.lft.to/lastmile_qr_scan"}, "bike_id": "fae473a359e409c9755e010f15ce4125", "lat": 38.91465383333333, "name": "fae473a359e409c9755e010f15ce4125", "lon": -77.00209983333333, "fusion_lon": 0.0}, {"is_reserved": 0, "type": "electric_scooter", "fusion_lat": 0.0, "is_disabled": 0, "rental_uris": {"ios": "https://dc.lft.to/lastmile_qr_scan", "android": "https://dc.lft.to/lastmile_qr_scan"}, "bike_id": "f498953a5637a4a24484284a4a5d0ebb", "lat": 38.915396333333334, "name": "f498953a5637a4a24484284a4a5d0ebb", "lon": -77.07543716666666, "fusion_lon": 0.0}, {"is_reserved": 0, "type": "electric_bike", "fusion_lat": 0.0, "is_disabled": 0, "rental_uris": {"ios": "https://dc.lft.to/lastmile_qr_scan", "android": "https://dc.lft.to/lastmile_qr_scan"}, "bike_id": "c9a7eb48e05e65ce02b73fa545ce47b6", "lat": 39.00447883333333, "name": "c9a7eb48e05e65ce02b73fa545ce47b6", "lon": -76.90118083333333, "fusion_lon": 0.0}, {"is_reserved": 0, "type": "electric_scooter", "fusion_lat": 0.0, "is_disabled": 0, "rental_uris": {"ios": "https://dc.lft.to/lastmile_qr_scan", "android": "https://dc.lft.to/lastmile_qr_scan"}, "bike_id": "14b8c2a027a903bfd642d903308e9a9b", "lat": 38.912639666666664, "name": "14b8c2a027a903bfd642d903308e9a9b", "lon": -77.04791216666666, "fusion_lon": 0.0}, {"is_reserved": 0, "type": "electric_scooter", "fusion_lat": 0.0, "is_disabled": 0, "rental_uris": {"ios": "https://dc.lft.to/lastmile_qr_scan", "android": "https://dc.lft.to/lastmile_qr_scan"}, "bike_id": "6fc569cabbd59e2c301373c09d75b77b", "lat": 38.92608933333333, "name": "6fc569cabbd59e2c301373c09d75b77b", "lon": -77.00652783333334, "fusion_lon": 0.0}, {"is_reserved": 0, "type": "electric_scooter", "fusion_lat": 0.0, "is_disabled": 0, "rental_uris": {"ios": "https://dc.lft.to/lastmile_qr_scan", "android": "https://dc.lft.to/lastmile_qr_scan"}, "bike_id": "daeb888fd1fa16b434f64ffd0c858062", "lat": 38.8756315, "name": "daeb888fd1fa16b434f64ffd0c858062", "lon": -77.005953, "fusion_lon": 0.0}, {"is_reserved": 0, "type": "electric_bike", "fusion_lat": 0.0, "is_disabled": 0, "rental_uris": {"ios": "https://dc.lft.to/lastmile_qr_scan", "android": "https://dc.lft.to/lastmile_qr_scan"}, "bike_id": "1e8fb9bbde8c2819eda6984c6692046f", "lat": 38.90394116666667, "name": "1e8fb9bbde8c2819eda6984c6692046f", "lon": -77.05126666666666, "fusion_lon": 0.0}, {"is_reserved": 0, "type": "electric_scooter", "fusion_lat": 0.0, "is_disabled": 0, "rental_uris": {"ios": "https://dc.lft.to/lastmile_qr_scan", "android": "https://dc.lft.to/lastmile_qr_scan"}, "bike_id": "ee246fc33146ba88ba8c2d895eeaf53f", "lat": 38.93976416666667, "name": "ee246fc33146ba88ba8c2d895eeaf53f", "lon": -77.03254566666666, "fusion_lon": 0.0}, {"is_reserved": 0, "type": "electric_scooter", "fusion_lat": 0.0, "is_disabled": 0, "rental_uris": {"ios": "https://dc.lft.to/lastmile_qr_scan", "android": "https://dc.lft.to/lastmile_qr_scan"}, "bike_id": "0a1d869acc78854989aa4a32a4cfd133", "lat": 38.93980216666667, "name": "0a1d869acc78854989aa4a32a4cfd133", "lon": -77.019143, "fusion_lon": 0.0}, {"is_reserved": 0, "type": "electric_scooter", "fusion_lat": 0.0, "is_disabled": 0, "rental_uris": {"ios": "https://dc.lft.to/lastmile_qr_scan", "android": "https://dc.lft.to/lastmile_qr_scan"}, "bike_id": "3b569bc8f684860835eba583740211a6", "lat": 38.9573775, "name": "3b569bc8f684860835eba583740211a6", "lon": -77.02323566666666, "fusion_lon": 0.0}, {"is_reserved": 0, "type": "electric_scooter", "fusion_lat": 0.0, "is_disabled": 0, "rental_uris": {"ios": "https://dc.lft.to/lastmile_qr_scan", "android": "https://dc.lft.to/lastmile_qr_scan"}, "bike_id": "e8e8b90847562911e26c31e14e43ee2d", "lat": 38.917157, "name": "e8e8b90847562911e26c31e14e43ee2d", "lon": -77.04153783333334, "fusion_lon": 0.0}, {"is_reserved": 0, "type": "electric_scooter", "fusion_lat": 0.0, "is_disabled": 0, "rental_uris": {"ios": "https://dc.lft.to/lastmile_qr_scan", "android": "https://dc.lft.to/lastmile_qr_scan"}, "bike_id": "3b378c6749f2d095a402344b762a5a25", "lat": 38.893604, "name": "3b378c6749f2d095a402344b762a5a25", "lon": -77.044748, "fusion_lon": 0.0}, {"is_reserved": 0, "type": "electric_scooter", "fusion_lat": 0.0, "is_disabled": 0, "rental_uris": {"ios": "https://dc.lft.to/lastmile_qr_scan", "android": "https://dc.lft.to/lastmile_qr_scan"}, "bike_id": "33c596aac85cac5b4e1a24d971644943", "lat": 38.9261195, "name": "33c596aac85cac5b4e1a24d971644943", "lon": -77.02163183333333, "fusion_lon": 0.0}, {"is_reserved": 0, "type": "electric_bike", "fusion_lat": 0.0, "is_disabled": 0, "rental_uris": {"ios": "https://dc.lft.to/lastmile_qr_scan", "android": "https://dc.lft.to/lastmile_qr_scan"}, "bike_id": "385c1230ea823cb939d265a33b3bd522", "lat": 38.94164333333333, "name": "385c1230ea823cb939d265a33b3bd522", "lon": -76.99409783333333, "fusion_lon": 0.0}, {"is_reserved": 0, "type": "electric_bike", "fusion_lat": 0.0, "is_disabled": 0, "rental_uris": {"ios": "https://dc.lft.to/lastmile_qr_scan", "android": "https://dc.lft.to/lastmile_qr_scan"}, "bike_id": "ff221cf72ccdb82e5b845ae9c4464bad", "lat": 38.85800283333333, "name": "ff221cf72ccdb82e5b845ae9c4464bad", "lon": -76.987526, "fusion_lon": 0.0}, {"is_reserved": 0, "type": "electric_scooter", "fusion_lat": 0.0, "is_disabled": 0, "rental_uris": {"ios": "https://dc.lft.to/lastmile_qr_scan", "android": "https://dc.lft.to/lastmile_qr_scan"}, "bike_id": "4701f49b31fdcd065dd598ecea52689b", "lat": 38.938773, "name": "4701f49b31fdcd065dd598ecea52689b", "lon": -77.028319, "fusion_lon": 0.0}, {"is_reserved": 0, "type": "electric_scooter", "fusion_lat": 0.0, "is_disabled": 0, "rental_uris": {"ios": "https://dc.lft.to/lastmile_qr_scan", "android": "https://dc.lft.to/lastmile_qr_scan"}, "bike_id": "13bcf6b1bb261058fd1d6ac3728cfd46", "lat": 38.91292966666666, "name": "13bcf6b1bb261058fd1d6ac3728cfd46", "lon": -77.03219033333333, "fusion_lon": 0.0}, {"is_reserved": 0, "type": "electric_scooter", "fusion_lat": 0.0, "is_disabled": 0, "rental_uris": {"ios": "https://dc.lft.to/lastmile_qr_scan", "android": "https://dc.lft.to/lastmile_qr_scan"}, "bike_id": "ad4c8404b03fb8dae458292c709ad0e0", "lat": 38.88501516666667, "name": "ad4c8404b03fb8dae458292c709ad0e0", "lon": -76.99756466666666, "fusion_lon": 0.0}, {"is_reserved": 0, "type": "electric_scooter", "fusion_lat": 0.0, "is_disabled": 0, "rental_uris": {"ios": "https://dc.lft.to/lastmile_qr_scan", "android": "https://dc.lft.to/lastmile_qr_scan"}, "bike_id": "052756ce19f1d340205e13c36f1f1e4e", "lat": 38.90737283333333, "name": "052756ce19f1d340205e13c36f1f1e4e", "lon": -77.0049755, "fusion_lon": 0.0}, {"is_reserved": 0, "type": "electric_scooter", "fusion_lat": 0.0, "is_disabled": 0, "rental_uris": {"ios": "https://dc.lft.to/lastmile_qr_scan", "android": "https://dc.lft.to/lastmile_qr_scan"}, "bike_id": "039b04c2be7b7a73ada00092993f6d5e", "lat": 38.921917, "name": "039b04c2be7b7a73ada00092993f6d5e", "lon": -76.99696416666667, "fusion_lon": 0.0}, {"is_reserved": 0, "type": "electric_bike", "fusion_lat": 0.0, "is_disabled": 0, "rental_uris": {"ios": "https://dc.lft.to/lastmile_qr_scan", "android": "https://dc.lft.to/lastmile_qr_scan"}, "bike_id": "e449c8a6385323d5d19d1a59a4cdb7f5", "lat": 38.978434666666665, "name": "e449c8a6385323d5d19d1a59a4cdb7f5", "lon": -77.09099116666667, "fusion_lon": 0.0}, {"is_reserved": 0, "type": "electric_bike", "fusion_lat": 0.0, "is_disabled": 0, "rental_uris": {"ios": "https://dc.lft.to/lastmile_qr_scan", "android": "https://dc.lft.to/lastmile_qr_scan"}, "bike_id": "5db2ed2899579ca0dc90a986105db395", "lat": 39.026226, "name": "5db2ed2899579ca0dc90a986105db395", "lon": -77.03881833333334, "fusion_lon": 0.0}, {"is_reserved": 0, "type": "electric_scooter", "fusion_lat": 0.0, "is_disabled": 0, "rental_uris": {"ios": "https://dc.lft.to/lastmile_qr_scan", "android": "https://dc.lft.to/lastmile_qr_scan"}, "bike_id": "c7581c807c23fa7b4ed3cd8d51ac9e6c", "lat": 38.90961566666667, "name": "c7581c807c23fa7b4ed3cd8d51ac9e6c", "lon": -77.03368266666666, "fusion_lon": 0.0}, {"is_reserved": 0, "type": "electric_scooter", "fusion_lat": 0.0, "is_disabled": 0, "rental_uris": {"ios": "https://dc.lft.to/lastmile_qr_scan", "android": "https://dc.lft.to/lastmile_qr_scan"}, "bike_id": "2bb9695031165e44c54a28b0200dd872", "lat": 38.90025083333333, "name": "2bb9695031165e44c54a28b0200dd872", "lon": -77.03454883333333, "fusion_lon": 0.0}, {"is_reserved": 0, "type": "electric_bike", "fusion_lat": 0.0, "is_disabled": 0, "rental_uris": {"ios": "https://dc.lft.to/lastmile_qr_scan", "android": "https://dc.lft.to/lastmile_qr_scan"}, "bike_id": "08760148be5ac093e6485bd21a07191d", "lat": 38.903915166666664, "name": "08760148be5ac093e6485bd21a07191d", "lon": -77.06311566666666, "fusion_lon": 0.0}, {"is_reserved": 0, "type": "electric_scooter", "fusion_lat": 0.0, "is_disabled": 0, "rental_uris": {"ios": "https://dc.lft.to/lastmile_qr_scan", "android": "https://dc.lft.to/lastmile_qr_scan"}, "bike_id": "61c0781cb220d320007ac5f46de38afe", "lat": 38.93101, "name": "61c0781cb220d320007ac5f46de38afe", "lon": -77.03804883333333, "fusion_lon": 0.0}, {"is_reserved": 0, "type": "electric_bike", "fusion_lat": 0.0, "is_disabled": 0, "rental_uris": {"ios": "https://dc.lft.to/lastmile_qr_scan", "android": "https://dc.lft.to/lastmile_qr_scan"}, "bike_id": "8b8a1685b91f62970b5ef48afd8bffb2", "lat": 38.846209, "name": "8b8a1685b91f62970b5ef48afd8bffb2", "lon": -76.9783795, "fusion_lon": 0.0}, {"is_reserved": 0, "type": "electric_scooter", "fusion_lat": 0.0, "is_disabled": 0, "rental_uris": {"ios": "https://dc.lft.to/lastmile_qr_scan", "android": "https://dc.lft.to/lastmile_qr_scan"}, "bike_id": "86e30bf6091e8ae13f75a0b2250bee3f", "lat": 38.913725666666664, "name": "86e30bf6091e8ae13f75a0b2250bee3f", "lon": -77.06432366666667, "fusion_lon": 0.0}, {"is_reserved": 0, "type": "electric_scooter", "fusion_lat": 0.0, "is_disabled": 0, "rental_uris": {"ios": "https://dc.lft.to/lastmile_qr_scan", "android": "https://dc.lft.to/lastmile_qr_scan"}, "bike_id": "1c975aaa5fcbf55bdfab9e9acaddffe1", "lat": 38.88709266666667, "name": "1c975aaa5fcbf55bdfab9e9acaddffe1", "lon": -76.98340116666667, "fusion_lon": 0.0}, {"is_reserved": 0, "type": "electric_scooter", "fusion_lat": 0.0, "is_disabled": 0, "rental_uris": {"ios": "https://dc.lft.to/lastmile_qr_scan", "android": "https://dc.lft.to/lastmile_qr_scan"}, "bike_id": "a3fa8d429461a444c6c5ee0a18bf4745", "lat": 38.9039295, "name": "a3fa8d429461a444c6c5ee0a18bf4745", "lon": -76.980823, "fusion_lon": 0.0}, {"is_reserved": 0, "type": "electric_scooter", "fusion_lat": 0.0, "is_disabled": 0, "rental_uris": {"ios": "https://dc.lft.to/lastmile_qr_scan", "android": "https://dc.lft.to/lastmile_qr_scan"}, "bike_id": "0b79f9eddb3339dbcc752922f8a46f00", "lat": 38.88575066666667, "name": "0b79f9eddb3339dbcc752922f8a46f00", "lon": -77.012111, "fusion_lon": 0.0}, {"is_reserved": 0, "type": "electric_scooter", "fusion_lat": 0.0, "is_disabled": 0, "rental_uris": {"ios": "https://dc.lft.to/lastmile_qr_scan", "android": "https://dc.lft.to/lastmile_qr_scan"}, "bike_id": "006824d3ca6b62e9b2885354c243c586", "lat": 38.908162833333336, "name": "006824d3ca6b62e9b2885354c243c586", "lon": -77.0842805, "fusion_lon": 0.0}, {"is_reserved": 0, "type": "electric_scooter", "fusion_lat": 0.0, "is_disabled": 0, "rental_uris": {"ios": "https://dc.lft.to/lastmile_qr_scan", "android": "https://dc.lft.to/lastmile_qr_scan"}, "bike_id": "66f2a2d9458fd17209b9fb22411f63b2", "lat": 38.907254333333334, "name": "66f2a2d9458fd17209b9fb22411f63b2", "lon": -77.01133616666667, "fusion_lon": 0.0}, {"is_reserved": 0, "type": "electric_scooter", "fusion_lat": 0.0, "is_disabled": 0, "rental_uris": {"ios": "https://dc.lft.to/lastmile_qr_scan", "android": "https://dc.lft.to/lastmile_qr_scan"}, "bike_id": "1359256e2f438b087f49d06b48a63635", "lat": 38.90090683333333, "name": "1359256e2f438b087f49d06b48a63635", "lon": -76.98270783333334, "fusion_lon": 0.0}, {"is_reserved": 0, "type": "electric_scooter", "fusion_lat": 0.0, "is_disabled": 0, "rental_uris": {"ios": "https://dc.lft.to/lastmile_qr_scan", "android": "https://dc.lft.to/lastmile_qr_scan"}, "bike_id": "084ac05d40e9ec11c423a34d313c24a3", "lat": 38.9005625, "name": "084ac05d40e9ec11c423a34d313c24a3", "lon": -77.02581166666667, "fusion_lon": 0.0}, {"is_reserved": 0, "type": "electric_scooter", "fusion_lat": 0.0, "is_disabled": 0, "rental_uris": {"ios": "https://dc.lft.to/lastmile_qr_scan", "android": "https://dc.lft.to/lastmile_qr_scan"}, "bike_id": "8c3ee7f4b133f0bf285214c985406984", "lat": 38.9067645, "name": "8c3ee7f4b133f0bf285214c985406984", "lon": -77.0454865, "fusion_lon": 0.0}, {"is_reserved": 0, "type": "electric_scooter", "fusion_lat": 0.0, "is_disabled": 0, "rental_uris": {"ios": "https://dc.lft.to/lastmile_qr_scan", "android": "https://dc.lft.to/lastmile_qr_scan"}, "bike_id": "01ad7c56d472f6c99417109e788914c3", "lat": 38.8921985, "name": "01ad7c56d472f6c99417109e788914c3", "lon": -77.02655133333333, "fusion_lon": 0.0}, {"is_reserved": 0, "type": "electric_scooter", "fusion_lat": 0.0, "is_disabled": 0, "rental_uris": {"ios": "https://dc.lft.to/lastmile_qr_scan", "android": "https://dc.lft.to/lastmile_qr_scan"}, "bike_id": "643b9a6c64a8acfd7befc68f3cdbc901", "lat": 38.925238666666665, "name": "643b9a6c64a8acfd7befc68f3cdbc901", "lon": -77.0445335, "fusion_lon": 0.0}, {"is_reserved": 0, "type": "electric_scooter", "fusion_lat": 0.0, "is_disabled": 0, "rental_uris": {"ios": "https://dc.lft.to/lastmile_qr_scan", "android": "https://dc.lft.to/lastmile_qr_scan"}, "bike_id": "a2a5886e696e9bce013f18fd9c07d31a", "lat": 38.9125175, "name": "a2a5886e696e9bce013f18fd9c07d31a", "lon": -77.04597066666666, "fusion_lon": 0.0}, {"is_reserved": 0, "type": "electric_bike", "fusion_lat": 0.0, "is_disabled": 0, "rental_uris": {"ios": "https://dc.lft.to/lastmile_qr_scan", "android": "https://dc.lft.to/lastmile_qr_scan"}, "bike_id": "87cb1a709bda8a77537860d3682a1250", "lat": 38.84277266666667, "name": "87cb1a709bda8a77537860d3682a1250", "lon": -76.98841366666667, "fusion_lon": 0.0}, {"is_reserved": 0, "type": "electric_scooter", "fusion_lat": 0.0, "is_disabled": 0, "rental_uris": {"ios": "https://dc.lft.to/lastmile_qr_scan", "android": "https://dc.lft.to/lastmile_qr_scan"}, "bike_id": "e29f90f7138f0352949e1598f6c5f7db", "lat": 38.90035533333333, "name": "e29f90f7138f0352949e1598f6c5f7db", "lon": -76.99507016666666, "fusion_lon": 0.0}, {"is_reserved": 0, "type": "electric_scooter", "fusion_lat": 0.0, "is_disabled": 0, "rental_uris": {"ios": "https://dc.lft.to/lastmile_qr_scan", "android": "https://dc.lft.to/lastmile_qr_scan"}, "bike_id": "6e2af55533852f291cdcfdb347b27d60", "lat": 38.913096, "name": "6e2af55533852f291cdcfdb347b27d60", "lon": -77.0319005, "fusion_lon": 0.0}, {"is_reserved": 0, "type": "electric_scooter", "fusion_lat": 0.0, "is_disabled": 0, "rental_uris": {"ios": "https://dc.lft.to/lastmile_qr_scan", "android": "https://dc.lft.to/lastmile_qr_scan"}, "bike_id": "1914db27738d1dd7eeb196db3c5b84cf", "lat": 38.89403316666667, "name": "1914db27738d1dd7eeb196db3c5b84cf", "lon": -76.97818766666667, "fusion_lon": 0.0}, {"is_reserved": 0, "type": "electric_scooter", "fusion_lat": 0.0, "is_disabled": 0, "rental_uris": {"ios": "https://dc.lft.to/lastmile_qr_scan", "android": "https://dc.lft.to/lastmile_qr_scan"}, "bike_id": "10a1ab833e376f09eabec26cb039e393", "lat": 38.919881333333336, "name": "10a1ab833e376f09eabec26cb039e393", "lon": -76.97304466666667, "fusion_lon": 0.0}, {"is_reserved": 0, "type": "electric_scooter", "fusion_lat": 0.0, "is_disabled": 0, "rental_uris": {"ios": "https://dc.lft.to/lastmile_qr_scan", "android": "https://dc.lft.to/lastmile_qr_scan"}, "bike_id": "88cd8fcaa1ace355c99db84412a643c8", "lat": 38.90567016666667, "name": "88cd8fcaa1ace355c99db84412a643c8", "lon": -77.01720516666667, "fusion_lon": 0.0}, {"is_reserved": 0, "type": "electric_bike", "fusion_lat": 0.0, "is_disabled": 0, "rental_uris": {"ios": "https://dc.lft.to/lastmile_qr_scan", "android": "https://dc.lft.to/lastmile_qr_scan"}, "bike_id": "1cf9da3f8ed23d268457215672846682", "lat": 38.908152333333334, "name": "1cf9da3f8ed23d268457215672846682", "lon": -77.03857316666667, "fusion_lon": 0.0}, {"is_reserved": 0, "type": "electric_scooter", "fusion_lat": 0.0, "is_disabled": 0, "rental_uris": {"ios": "https://dc.lft.to/lastmile_qr_scan", "android": "https://dc.lft.to/lastmile_qr_scan"}, "bike_id": "935d8d87f6ec52ee3154a3ad828eb076", "lat": 38.9458985, "name": "935d8d87f6ec52ee3154a3ad828eb076", "lon": -77.02032166666666, "fusion_lon": 0.0}, {"is_reserved": 0, "type": "electric_scooter", "fusion_lat": 0.0, "is_disabled": 0, "rental_uris": {"ios": "https://dc.lft.to/lastmile_qr_scan", "android": "https://dc.lft.to/lastmile_qr_scan"}, "bike_id": "b548993ba88c9b067407cab919f19513", "lat": 38.892188, "name": "b548993ba88c9b067407cab919f19513", "lon": -77.04330516666667, "fusion_lon": 0.0}, {"is_reserved": 0, "type": "electric_scooter", "fusion_lat": 0.0, "is_disabled": 0, "rental_uris": {"ios": "https://dc.lft.to/lastmile_qr_scan", "android": "https://dc.lft.to/lastmile_qr_scan"}, "bike_id": "022edbf2f6cf0595a17a0309e2628703", "lat": 38.93152033333333, "name": "022edbf2f6cf0595a17a0309e2628703", "lon": -77.0290135, "fusion_lon": 0.0}, {"is_reserved": 0, "type": "electric_scooter", "fusion_lat": 0.0, "is_disabled": 0, "rental_uris": {"ios": "https://dc.lft.to/lastmile_qr_scan", "android": "https://dc.lft.to/lastmile_qr_scan"}, "bike_id": "5612f577a5f07f8784341c278b7e5e27", "lat": 38.92419966666667, "name": "5612f577a5f07f8784341c278b7e5e27", "lon": -77.0354905, "fusion_lon": 0.0}, {"is_reserved": 0, "type": "electric_scooter", "fusion_lat": 0.0, "is_disabled": 0, "rental_uris": {"ios": "https://dc.lft.to/lastmile_qr_scan", "android": "https://dc.lft.to/lastmile_qr_scan"}, "bike_id": "97e45dd250f709371454b1c70fb15878", "lat": 38.922413666666664, "name": "97e45dd250f709371454b1c70fb15878", "lon": -77.03663866666666, "fusion_lon": 0.0}, {"is_reserved": 0, "type": "electric_bike", "fusion_lat": 0.0, "is_disabled": 0, "rental_uris": {"ios": "https://dc.lft.to/lastmile_qr_scan", "android": "https://dc.lft.to/lastmile_qr_scan"}, "bike_id": "9fc5db624ab93d3f13fec965db8bbe50", "lat": 38.829250333333334, "name": "9fc5db624ab93d3f13fec965db8bbe50", "lon": -77.0688195, "fusion_lon": 0.0}, {"is_reserved": 0, "type": "electric_scooter", "fusion_lat": 0.0, "is_disabled": 0, "rental_uris": {"ios": "https://dc.lft.to/lastmile_qr_scan", "android": "https://dc.lft.to/lastmile_qr_scan"}, "bike_id": "6b9cbb53c3f1925d634591dd3c378b59", "lat": 38.911847333333334, "name": "6b9cbb53c3f1925d634591dd3c378b59", "lon": -77.032544, "fusion_lon": 0.0}, {"is_reserved": 0, "type": "electric_scooter", "fusion_lat": 0.0, "is_disabled": 0, "rental_uris": {"ios": "https://dc.lft.to/lastmile_qr_scan", "android": "https://dc.lft.to/lastmile_qr_scan"}, "bike_id": "8f3c346dab77f685719fd29ec67e68cf", "lat": 38.92431, "name": "8f3c346dab77f685719fd29ec67e68cf", "lon": -77.05220333333334, "fusion_lon": 0.0}, {"is_reserved": 0, "type": "electric_scooter", "fusion_lat": 0.0, "is_disabled": 0, "rental_uris": {"ios": "https://dc.lft.to/lastmile_qr_scan", "android": "https://dc.lft.to/lastmile_qr_scan"}, "bike_id": "ff47dab3e9d8740a43494a84e212ad07", "lat": 38.8803655, "name": "ff47dab3e9d8740a43494a84e212ad07", "lon": -76.9272215, "fusion_lon": 0.0}, {"is_reserved": 0, "type": "electric_scooter", "fusion_lat": 0.0, "is_disabled": 0, "rental_uris": {"ios": "https://dc.lft.to/lastmile_qr_scan", "android": "https://dc.lft.to/lastmile_qr_scan"}, "bike_id": "3981c4b9a6d951d3a43e85d4fc4adabe", "lat": 38.901271666666666, "name": "3981c4b9a6d951d3a43e85d4fc4adabe", "lon": -77.00367166666666, "fusion_lon": 0.0}, {"is_reserved": 0, "type": "electric_scooter", "fusion_lat": 0.0, "is_disabled": 0, "rental_uris": {"ios": "https://dc.lft.to/lastmile_qr_scan", "android": "https://dc.lft.to/lastmile_qr_scan"}, "bike_id": "e11393c035901ec9b65385c8a10701f8", "lat": 38.89908633333334, "name": "e11393c035901ec9b65385c8a10701f8", "lon": -76.93392616666667, "fusion_lon": 0.0}, {"is_reserved": 0, "type": "electric_scooter", "fusion_lat": 0.0, "is_disabled": 0, "rental_uris": {"ios": "https://dc.lft.to/lastmile_qr_scan", "android": "https://dc.lft.to/lastmile_qr_scan"}, "bike_id": "1230d88176dce46e0803b0c9c910f73d", "lat": 38.8830445, "name": "1230d88176dce46e0803b0c9c910f73d", "lon": -76.93485866666667, "fusion_lon": 0.0}, {"is_reserved": 0, "type": "electric_scooter", "fusion_lat": 0.0, "is_disabled": 0, "rental_uris": {"ios": "https://dc.lft.to/lastmile_qr_scan", "android": "https://dc.lft.to/lastmile_qr_scan"}, "bike_id": "79e37e64f33f22cf2eeb5b01526ffa60", "lat": 38.91044766666667, "name": "79e37e64f33f22cf2eeb5b01526ffa60", "lon": -76.998056, "fusion_lon": 0.0}, {"is_reserved": 0, "type": "electric_bike", "fusion_lat": 0.0, "is_disabled": 0, "rental_uris": {"ios": "https://dc.lft.to/lastmile_qr_scan", "android": "https://dc.lft.to/lastmile_qr_scan"}, "bike_id": "ec59d4fc22412bfadb74a4aefffbc365", "lat": 39.00645383333333, "name": "ec59d4fc22412bfadb74a4aefffbc365", "lon": -76.90024466666667, "fusion_lon": 0.0}, {"is_reserved": 0, "type": "electric_scooter", "fusion_lat": 0.0, "is_disabled": 0, "rental_uris": {"ios": "https://dc.lft.to/lastmile_qr_scan", "android": "https://dc.lft.to/lastmile_qr_scan"}, "bike_id": "2affdfe097c64d6b38f4adc399fc244a", "lat": 38.905100833333336, "name": "2affdfe097c64d6b38f4adc399fc244a", "lon": -77.01710333333334, "fusion_lon": 0.0}, {"is_reserved": 0, "type": "electric_bike", "fusion_lat": 0.0, "is_disabled": 0, "rental_uris": {"ios": "https://dc.lft.to/lastmile_qr_scan", "android": "https://dc.lft.to/lastmile_qr_scan"}, "bike_id": "f21164c64e2a5db71089c01e7bd83257", "lat": 38.85241283333333, "name": "f21164c64e2a5db71089c01e7bd83257", "lon": -77.11414866666667, "fusion_lon": 0.0}, {"is_reserved": 0, "type": "electric_scooter", "fusion_lat": 0.0, "is_disabled": 0, "rental_uris": {"ios": "https://dc.lft.to/lastmile_qr_scan", "android": "https://dc.lft.to/lastmile_qr_scan"}, "bike_id": "6fe7984fd6fc2f5c9f941e8e6b40b856", "lat": 38.924162, "name": "6fe7984fd6fc2f5c9f941e8e6b40b856", "lon": -77.0200875, "fusion_lon": 0.0}, {"is_reserved": 0, "type": "electric_scooter", "fusion_lat": 0.0, "is_disabled": 0, "rental_uris": {"ios": "https://dc.lft.to/lastmile_qr_scan", "android": "https://dc.lft.to/lastmile_qr_scan"}, "bike_id": "d715bd096f86581b6e0532c55b1e9ed8", "lat": 38.90146716666667, "name": "d715bd096f86581b6e0532c55b1e9ed8", "lon": -76.92985816666666, "fusion_lon": 0.0}, {"is_reserved": 0, "type": "electric_scooter", "fusion_lat": 0.0, "is_disabled": 0, "rental_uris": {"ios": "https://dc.lft.to/lastmile_qr_scan", "android": "https://dc.lft.to/lastmile_qr_scan"}, "bike_id": "003cf4ffe1a0d3ebdcf915bf5d60986e", "lat": 38.89496616666667, "name": "003cf4ffe1a0d3ebdcf915bf5d60986e", "lon": -77.02315283333333, "fusion_lon": 0.0}, {"is_reserved": 0, "type": "electric_scooter", "fusion_lat": 0.0, "is_disabled": 0, "rental_uris": {"ios": "https://dc.lft.to/lastmile_qr_scan", "android": "https://dc.lft.to/lastmile_qr_scan"}, "bike_id": "a23296fdd4b1dbe0a9cbda7d6ff9886f", "lat": 38.90536083333333, "name": "a23296fdd4b1dbe0a9cbda7d6ff9886f", "lon": -76.98643816666667, "fusion_lon": 0.0}, {"is_reserved": 0, "type": "electric_scooter", "fusion_lat": 0.0, "is_disabled": 0, "rental_uris": {"ios": "https://dc.lft.to/lastmile_qr_scan", "android": "https://dc.lft.to/lastmile_qr_scan"}, "bike_id": "b0d666b2a6e82c010408c35a7b91a2ed", "lat": 38.9521765, "name": "b0d666b2a6e82c010408c35a7b91a2ed", "lon": -77.08872516666666, "fusion_lon": 0.0}, {"is_reserved": 0, "type": "electric_scooter", "fusion_lat": 0.0, "is_disabled": 0, "rental_uris": {"ios": "https://dc.lft.to/lastmile_qr_scan", "android": "https://dc.lft.to/lastmile_qr_scan"}, "bike_id": "3c1f5e32ed3c587d2480c03102d68e0c", "lat": 38.9246605, "name": "3c1f5e32ed3c587d2480c03102d68e0c", "lon": -77.02717816666667, "fusion_lon": 0.0}, {"is_reserved": 0, "type": "electric_scooter", "fusion_lat": 0.0, "is_disabled": 0, "rental_uris": {"ios": "https://dc.lft.to/lastmile_qr_scan", "android": "https://dc.lft.to/lastmile_qr_scan"}, "bike_id": "e6bdcaf2171d561e1a2cddba6c1cff99", "lat": 38.924237, "name": "e6bdcaf2171d561e1a2cddba6c1cff99", "lon": -77.04480333333333, "fusion_lon": 0.0}, {"is_reserved": 0, "type": "electric_scooter", "fusion_lat": 0.0, "is_disabled": 0, "rental_uris": {"ios": "https://dc.lft.to/lastmile_qr_scan", "android": "https://dc.lft.to/lastmile_qr_scan"}, "bike_id": "aba295846369989fb3d3fe9ca7b89fc2", "lat": 38.9231565, "name": "aba295846369989fb3d3fe9ca7b89fc2", "lon": -77.02903133333334, "fusion_lon": 0.0}, {"is_reserved": 0, "type": "electric_scooter", "fusion_lat": 0.0, "is_disabled": 0, "rental_uris": {"ios": "https://dc.lft.to/lastmile_qr_scan", "android": "https://dc.lft.to/lastmile_qr_scan"}, "bike_id": "7a37c3450f182dd2ffe5779ec0534e11", "lat": 38.93782016666667, "name": "7a37c3450f182dd2ffe5779ec0534e11", "lon": -77.02302066666667, "fusion_lon": 0.0}, {"is_reserved": 0, "type": "electric_scooter", "fusion_lat": 0.0, "is_disabled": 0, "rental_uris": {"ios": "https://dc.lft.to/lastmile_qr_scan", "android": "https://dc.lft.to/lastmile_qr_scan"}, "bike_id": "c6603bc13174c4ab9eb5874bc3761c2a", "lat": 38.9245915, "name": "c6603bc13174c4ab9eb5874bc3761c2a", "lon": -77.078221, "fusion_lon": 0.0}, {"is_reserved": 0, "type": "electric_scooter", "fusion_lat": 0.0, "is_disabled": 0, "rental_uris": {"ios": "https://dc.lft.to/lastmile_qr_scan", "android": "https://dc.lft.to/lastmile_qr_scan"}, "bike_id": "531f4ae09fcffb0e620b5b503e62865c", "lat": 38.9067, "name": "531f4ae09fcffb0e620b5b503e62865c", "lon": -77.04549566666667, "fusion_lon": 0.0}, {"is_reserved": 0, "type": "electric_scooter", "fusion_lat": 0.0, "is_disabled": 0, "rental_uris": {"ios": "https://dc.lft.to/lastmile_qr_scan", "android": "https://dc.lft.to/lastmile_qr_scan"}, "bike_id": "010141a199591d289cbb2434ee1bdb36", "lat": 38.842749166666664, "name": "010141a199591d289cbb2434ee1bdb36", "lon": -76.98841216666666, "fusion_lon": 0.0}, {"is_reserved": 0, "type": "electric_scooter", "fusion_lat": 0.0, "is_disabled": 0, "rental_uris": {"ios": "https://dc.lft.to/lastmile_qr_scan", "android": "https://dc.lft.to/lastmile_qr_scan"}, "bike_id": "d50a093b6f106dffbc4794a9c64d5c74", "lat": 38.92177433333333, "name": "d50a093b6f106dffbc4794a9c64d5c74", "lon": -77.03842466666667, "fusion_lon": 0.0}, {"is_reserved": 0, "type": "electric_scooter", "fusion_lat": 0.0, "is_disabled": 0, "rental_uris": {"ios": "https://dc.lft.to/lastmile_qr_scan", "android": "https://dc.lft.to/lastmile_qr_scan"}, "bike_id": "720260a903afbc35865ffec022ba61cd", "lat": 38.89845116666667, "name": "720260a903afbc35865ffec022ba61cd", "lon": -77.0005275, "fusion_lon": 0.0}, {"is_reserved": 0, "type": "electric_scooter", "fusion_lat": 0.0, "is_disabled": 0, "rental_uris": {"ios": "https://dc.lft.to/lastmile_qr_scan", "android": "https://dc.lft.to/lastmile_qr_scan"}, "bike_id": "23ea528fb77be1dec3b85ba91b218d4f", "lat": 38.923712333333334, "name": "23ea528fb77be1dec3b85ba91b218d4f", "lon": -77.0291465, "fusion_lon": 0.0}, {"is_reserved": 0, "type": "electric_scooter", "fusion_lat": 0.0, "is_disabled": 0, "rental_uris": {"ios": "https://dc.lft.to/lastmile_qr_scan", "android": "https://dc.lft.to/lastmile_qr_scan"}, "bike_id": "6ec7aecf523f62c6f7482270042a9896", "lat": 38.88639883333333, "name": "6ec7aecf523f62c6f7482270042a9896", "lon": -77.02218666666667, "fusion_lon": 0.0}, {"is_reserved": 0, "type": "electric_scooter", "fusion_lat": 0.0, "is_disabled": 0, "rental_uris": {"ios": "https://dc.lft.to/lastmile_qr_scan", "android": "https://dc.lft.to/lastmile_qr_scan"}, "bike_id": "5664d2e8d64abc1800d3ad2f55c0f1d9", "lat": 38.93934466666666, "name": "5664d2e8d64abc1800d3ad2f55c0f1d9", "lon": -77.02585333333333, "fusion_lon": 0.0}, {"is_reserved": 0, "type": "electric_scooter", "fusion_lat": 0.0, "is_disabled": 0, "rental_uris": {"ios": "https://dc.lft.to/lastmile_qr_scan", "android": "https://dc.lft.to/lastmile_qr_scan"}, "bike_id": "95787b9e34f19f4696ec8a511bd22123", "lat": 38.9019405, "name": "95787b9e34f19f4696ec8a511bd22123", "lon": -76.99960966666667, "fusion_lon": 0.0}, {"is_reserved": 0, "type": "electric_scooter", "fusion_lat": 0.0, "is_disabled": 0, "rental_uris": {"ios": "https://dc.lft.to/lastmile_qr_scan", "android": "https://dc.lft.to/lastmile_qr_scan"}, "bike_id": "e59591cfbd0485ee1f31d2808070a750", "lat": 38.916205166666664, "name": "e59591cfbd0485ee1f31d2808070a750", "lon": -77.00497433333334, "fusion_lon": 0.0}, {"is_reserved": 0, "type": "electric_bike", "fusion_lat": 0.0, "is_disabled": 0, "rental_uris": {"ios": "https://dc.lft.to/lastmile_qr_scan", "android": "https://dc.lft.to/lastmile_qr_scan"}, "bike_id": "17da7c2565e60c70a026c7f2eed38db5", "lat": 38.926495333333335, "name": "17da7c2565e60c70a026c7f2eed38db5", "lon": -77.09020533333333, "fusion_lon": 0.0}, {"is_reserved": 0, "type": "electric_scooter", "fusion_lat": 0.0, "is_disabled": 0, "rental_uris": {"ios": "https://dc.lft.to/lastmile_qr_scan", "android": "https://dc.lft.to/lastmile_qr_scan"}, "bike_id": "ac76d26210483f275c900a5331d55072", "lat": 38.92332016666667, "name": "ac76d26210483f275c900a5331d55072", "lon": -77.0280765, "fusion_lon": 0.0}, {"is_reserved": 0, "type": "electric_scooter", "fusion_lat": 0.0, "is_disabled": 0, "rental_uris": {"ios": "https://dc.lft.to/lastmile_qr_scan", "android": "https://dc.lft.to/lastmile_qr_scan"}, "bike_id": "1131af6760025d89e2b95e5465ce5cd5", "lat": 38.90344733333333, "name": "1131af6760025d89e2b95e5465ce5cd5", "lon": -76.97491216666667, "fusion_lon": 0.0}, {"is_reserved": 0, "type": "electric_bike", "fusion_lat": 0.0, "is_disabled": 0, "rental_uris": {"ios": "https://dc.lft.to/lastmile_qr_scan", "android": "https://dc.lft.to/lastmile_qr_scan"}, "bike_id": "879f286b353998d1d3624351532e8505", "lat": 38.9715115, "name": "879f286b353998d1d3624351532e8505", "lon": -76.98364333333333, "fusion_lon": 0.0}, {"is_reserved": 0, "type": "electric_scooter", "fusion_lat": 0.0, "is_disabled": 0, "rental_uris": {"ios": "https://dc.lft.to/lastmile_qr_scan", "android": "https://dc.lft.to/lastmile_qr_scan"}, "bike_id": "6528b82cfb6453105e6519684afbdd4d", "lat": 38.90260883333333, "name": "6528b82cfb6453105e6519684afbdd4d", "lon": -77.03448383333334, "fusion_lon": 0.0}, {"is_reserved": 0, "type": "electric_scooter", "fusion_lat": 0.0, "is_disabled": 0, "rental_uris": {"ios": "https://dc.lft.to/lastmile_qr_scan", "android": "https://dc.lft.to/lastmile_qr_scan"}, "bike_id": "f76c412fbe9344d96942eaea368545da", "lat": 38.93661216666667, "name": "f76c412fbe9344d96942eaea368545da", "lon": -77.06608783333333, "fusion_lon": 0.0}, {"is_reserved": 0, "type": "electric_scooter", "fusion_lat": 0.0, "is_disabled": 0, "rental_uris": {"ios": "https://dc.lft.to/lastmile_qr_scan", "android": "https://dc.lft.to/lastmile_qr_scan"}, "bike_id": "d30ff19b250afe88b1f1a13442d10f89", "lat": 38.92539133333333, "name": "d30ff19b250afe88b1f1a13442d10f89", "lon": -77.03263216666667, "fusion_lon": 0.0}, {"is_reserved": 0, "type": "electric_scooter", "fusion_lat": 0.0, "is_disabled": 0, "rental_uris": {"ios": "https://dc.lft.to/lastmile_qr_scan", "android": "https://dc.lft.to/lastmile_qr_scan"}, "bike_id": "c42e358b5d1509f85551706d99d7bcef", "lat": 38.904643166666666, "name": "c42e358b5d1509f85551706d99d7bcef", "lon": -77.01712033333334, "fusion_lon": 0.0}, {"is_reserved": 0, "type": "electric_scooter", "fusion_lat": 0.0, "is_disabled": 0, "rental_uris": {"ios": "https://dc.lft.to/lastmile_qr_scan", "android": "https://dc.lft.to/lastmile_qr_scan"}, "bike_id": "336aa57abf76505187a398704df4bd37", "lat": 38.9300185, "name": "336aa57abf76505187a398704df4bd37", "lon": -77.0378365, "fusion_lon": 0.0}, {"is_reserved": 0, "type": "electric_scooter", "fusion_lat": 0.0, "is_disabled": 0, "rental_uris": {"ios": "https://dc.lft.to/lastmile_qr_scan", "android": "https://dc.lft.to/lastmile_qr_scan"}, "bike_id": "45da30887759a6c9a12eeb3760805cb9", "lat": 38.91051483333333, "name": "45da30887759a6c9a12eeb3760805cb9", "lon": -77.04351, "fusion_lon": 0.0}, {"is_reserved": 0, "type": "electric_scooter", "fusion_lat": 0.0, "is_disabled": 0, "rental_uris": {"ios": "https://dc.lft.to/lastmile_qr_scan", "android": "https://dc.lft.to/lastmile_qr_scan"}, "bike_id": "c4419d3394644bc90a95c15ed85ce9ab", "lat": 38.925481166666664, "name": "c4419d3394644bc90a95c15ed85ce9ab", "lon": -77.0032535, "fusion_lon": 0.0}, {"is_reserved": 0, "type": "electric_bike", "fusion_lat": 0.0, "is_disabled": 0, "rental_uris": {"ios": "https://dc.lft.to/lastmile_qr_scan", "android": "https://dc.lft.to/lastmile_qr_scan"}, "bike_id": "f774a301704c37545d5638964ed48a6a", "lat": 38.8220805, "name": "f774a301704c37545d5638964ed48a6a", "lon": -76.97703516666667, "fusion_lon": 0.0}, {"is_reserved": 0, "type": "electric_scooter", "fusion_lat": 0.0, "is_disabled": 0, "rental_uris": {"ios": "https://dc.lft.to/lastmile_qr_scan", "android": "https://dc.lft.to/lastmile_qr_scan"}, "bike_id": "1b67d6a0057e1838f36551f6d56b9bd4", "lat": 38.91543383333333, "name": "1b67d6a0057e1838f36551f6d56b9bd4", "lon": -77.01270933333333, "fusion_lon": 0.0}, {"is_reserved": 0, "type": "electric_scooter", "fusion_lat": 0.0, "is_disabled": 0, "rental_uris": {"ios": "https://dc.lft.to/lastmile_qr_scan", "android": "https://dc.lft.to/lastmile_qr_scan"}, "bike_id": "55173594c38c257d4041d14afdc4c6ac", "lat": 38.92158466666667, "name": "55173594c38c257d4041d14afdc4c6ac", "lon": -77.03380216666666, "fusion_lon": 0.0}, {"is_reserved": 0, "type": "electric_scooter", "fusion_lat": 0.0, "is_disabled": 0, "rental_uris": {"ios": "https://dc.lft.to/lastmile_qr_scan", "android": "https://dc.lft.to/lastmile_qr_scan"}, "bike_id": "fcc4b926a39ed0501623fa6d75af11ec", "lat": 38.90966066666667, "name": "fcc4b926a39ed0501623fa6d75af11ec", "lon": -77.02278133333333, "fusion_lon": 0.0}, {"is_reserved": 0, "type": "electric_scooter", "fusion_lat": 0.0, "is_disabled": 0, "rental_uris": {"ios": "https://dc.lft.to/lastmile_qr_scan", "android": "https://dc.lft.to/lastmile_qr_scan"}, "bike_id": "c0234a1cafd82e494b9b1aaafa223120", "lat": 38.905702, "name": "c0234a1cafd82e494b9b1aaafa223120", "lon": -77.03836166666666, "fusion_lon": 0.0}, {"is_reserved": 0, "type": "electric_scooter", "fusion_lat": 0.0, "is_disabled": 0, "rental_uris": {"ios": "https://dc.lft.to/lastmile_qr_scan", "android": "https://dc.lft.to/lastmile_qr_scan"}, "bike_id": "721ad16e134d52d14f13feddad7992fb", "lat": 38.89815333333333, "name": "721ad16e134d52d14f13feddad7992fb", "lon": -77.02975633333334, "fusion_lon": 0.0}, {"is_reserved": 0, "type": "electric_scooter", "fusion_lat": 0.0, "is_disabled": 0, "rental_uris": {"ios": "https://dc.lft.to/lastmile_qr_scan", "android": "https://dc.lft.to/lastmile_qr_scan"}, "bike_id": "858293eefb8f24679800fe33a4a75dad", "lat": 38.91691983333333, "name": "858293eefb8f24679800fe33a4a75dad", "lon": -77.05301733333333, "fusion_lon": 0.0}, {"is_reserved": 0, "type": "electric_scooter", "fusion_lat": 0.0, "is_disabled": 0, "rental_uris": {"ios": "https://dc.lft.to/lastmile_qr_scan", "android": "https://dc.lft.to/lastmile_qr_scan"}, "bike_id": "add46af93bf33811b9e9fd4efaebf29a", "lat": 38.90775416666666, "name": "add46af93bf33811b9e9fd4efaebf29a", "lon": -77.07166066666667, "fusion_lon": 0.0}, {"is_reserved": 0, "type": "electric_bike", "fusion_lat": 0.0, "is_disabled": 0, "rental_uris": {"ios": "https://dc.lft.to/lastmile_qr_scan", "android": "https://dc.lft.to/lastmile_qr_scan"}, "bike_id": "cfae901e49216e9b6db844d2e0650b24", "lat": 38.896178166666665, "name": "cfae901e49216e9b6db844d2e0650b24", "lon": -76.90748883333333, "fusion_lon": 0.0}, {"is_reserved": 0, "type": "electric_scooter", "fusion_lat": 0.0, "is_disabled": 0, "rental_uris": {"ios": "https://dc.lft.to/lastmile_qr_scan", "android": "https://dc.lft.to/lastmile_qr_scan"}, "bike_id": "329d376c9672e9fff6021b4f48e2b048", "lat": 38.9141535, "name": "329d376c9672e9fff6021b4f48e2b048", "lon": -77.03166533333334, "fusion_lon": 0.0}, {"is_reserved": 0, "type": "electric_scooter", "fusion_lat": 0.0, "is_disabled": 0, "rental_uris": {"ios": "https://dc.lft.to/lastmile_qr_scan", "android": "https://dc.lft.to/lastmile_qr_scan"}, "bike_id": "e0ce7521c0d3b55d01ba2615afbec143", "lat": 38.92412733333333, "name": "e0ce7521c0d3b55d01ba2615afbec143", "lon": -77.0200575, "fusion_lon": 0.0}, {"is_reserved": 0, "type": "electric_scooter", "fusion_lat": 0.0, "is_disabled": 0, "rental_uris": {"ios": "https://dc.lft.to/lastmile_qr_scan", "android": "https://dc.lft.to/lastmile_qr_scan"}, "bike_id": "7382e133e3c754aead410308e0573f42", "lat": 38.9025655, "name": "7382e133e3c754aead410308e0573f42", "lon": -77.03453516666667, "fusion_lon": 0.0}, {"is_reserved": 0, "type": "electric_scooter", "fusion_lat": 0.0, "is_disabled": 0, "rental_uris": {"ios": "https://dc.lft.to/lastmile_qr_scan", "android": "https://dc.lft.to/lastmile_qr_scan"}, "bike_id": "4d2acc3ebc8e35cf226c871162284750", "lat": 38.9575175, "name": "4d2acc3ebc8e35cf226c871162284750", "lon": -77.0220755, "fusion_lon": 0.0}, {"is_reserved": 0, "type": "electric_scooter", "fusion_lat": 0.0, "is_disabled": 0, "rental_uris": {"ios": "https://dc.lft.to/lastmile_qr_scan", "android": "https://dc.lft.to/lastmile_qr_scan"}, "bike_id": "b1f6426f33071945bcc8f0cd88de0767", "lat": 38.905574333333334, "name": "b1f6426f33071945bcc8f0cd88de0767", "lon": -77.03082133333334, "fusion_lon": 0.0}, {"is_reserved": 0, "type": "electric_scooter", "fusion_lat": 0.0, "is_disabled": 0, "rental_uris": {"ios": "https://dc.lft.to/lastmile_qr_scan", "android": "https://dc.lft.to/lastmile_qr_scan"}, "bike_id": "718ae726be9117fadab65f4f854b2bba", "lat": 38.900796666666665, "name": "718ae726be9117fadab65f4f854b2bba", "lon": -77.04777333333334, "fusion_lon": 0.0}, {"is_reserved": 0, "type": "electric_scooter", "fusion_lat": 0.0, "is_disabled": 0, "rental_uris": {"ios": "https://dc.lft.to/lastmile_qr_scan", "android": "https://dc.lft.to/lastmile_qr_scan"}, "bike_id": "eccce20eceeb3842cdfaa710e210837a", "lat": 38.88516833333333, "name": "eccce20eceeb3842cdfaa710e210837a", "lon": -76.92441916666667, "fusion_lon": 0.0}, {"is_reserved": 0, "type": "electric_scooter", "fusion_lat": 0.0, "is_disabled": 0, "rental_uris": {"ios": "https://dc.lft.to/lastmile_qr_scan", "android": "https://dc.lft.to/lastmile_qr_scan"}, "bike_id": "503c51fd3a15d2296aa3ad651f05573d", "lat": 38.95687616666667, "name": "503c51fd3a15d2296aa3ad651f05573d", "lon": -77.022358, "fusion_lon": 0.0}, {"is_reserved": 0, "type": "electric_scooter", "fusion_lat": 0.0, "is_disabled": 0, "rental_uris": {"ios": "https://dc.lft.to/lastmile_qr_scan", "android": "https://dc.lft.to/lastmile_qr_scan"}, "bike_id": "6f5f2a920956deb041927c104b119805", "lat": 38.885304, "name": "6f5f2a920956deb041927c104b119805", "lon": -76.98055366666667, "fusion_lon": 0.0}, {"is_reserved": 0, "type": "electric_scooter", "fusion_lat": 0.0, "is_disabled": 0, "rental_uris": {"ios": "https://dc.lft.to/lastmile_qr_scan", "android": "https://dc.lft.to/lastmile_qr_scan"}, "bike_id": "e0d3b5f4787b89ba0415117582c6bfde", "lat": 38.89072383333333, "name": "e0d3b5f4787b89ba0415117582c6bfde", "lon": -76.98839766666667, "fusion_lon": 0.0}, {"is_reserved": 0, "type": "electric_scooter", "fusion_lat": 0.0, "is_disabled": 0, "rental_uris": {"ios": "https://dc.lft.to/lastmile_qr_scan", "android": "https://dc.lft.to/lastmile_qr_scan"}, "bike_id": "96df80016795463a0d38a5dae9fbdfb0", "lat": 38.921704166666665, "name": "96df80016795463a0d38a5dae9fbdfb0", "lon": -77.038262, "fusion_lon": 0.0}, {"is_reserved": 0, "type": "electric_scooter", "fusion_lat": 0.0, "is_disabled": 0, "rental_uris": {"ios": "https://dc.lft.to/lastmile_qr_scan", "android": "https://dc.lft.to/lastmile_qr_scan"}, "bike_id": "6d4597948bbda465f2546729f0a57d25", "lat": 38.912468, "name": "6d4597948bbda465f2546729f0a57d25", "lon": -76.986689, "fusion_lon": 0.0}, {"is_reserved": 0, "type": "electric_bike", "fusion_lat": 0.0, "is_disabled": 0, "rental_uris": {"ios": "https://dc.lft.to/lastmile_qr_scan", "android": "https://dc.lft.to/lastmile_qr_scan"}, "bike_id": "6f4271795a2b9a198597af770993d8b7", "lat": 38.80521666666667, "name": "6f4271795a2b9a198597af770993d8b7", "lon": -77.04338133333333, "fusion_lon": 0.0}, {"is_reserved": 0, "type": "electric_scooter", "fusion_lat": 0.0, "is_disabled": 0, "rental_uris": {"ios": "https://dc.lft.to/lastmile_qr_scan", "android": "https://dc.lft.to/lastmile_qr_scan"}, "bike_id": "b93d109fc96e8851f6a0f8b8a7604c77", "lat": 38.9045535, "name": "b93d109fc96e8851f6a0f8b8a7604c77", "lon": -76.93371466666666, "fusion_lon": 0.0}, {"is_reserved": 0, "type": "electric_bike", "fusion_lat": 0.0, "is_disabled": 0, "rental_uris": {"ios": "https://dc.lft.to/lastmile_qr_scan", "android": "https://dc.lft.to/lastmile_qr_scan"}, "bike_id": "09778c481d2b76e489a6f4bed122b7ad", "lat": 38.94026616666667, "name": "09778c481d2b76e489a6f4bed122b7ad", "lon": -76.9758, "fusion_lon": 0.0}, {"is_reserved": 0, "type": "electric_scooter", "fusion_lat": 0.0, "is_disabled": 0, "rental_uris": {"ios": "https://dc.lft.to/lastmile_qr_scan", "android": "https://dc.lft.to/lastmile_qr_scan"}, "bike_id": "0f1519e53a6212907a406fd6811f330a", "lat": 38.897657333333335, "name": "0f1519e53a6212907a406fd6811f330a", "lon": -77.04784966666666, "fusion_lon": 0.0}, {"is_reserved": 0, "type": "electric_scooter", "fusion_lat": 0.0, "is_disabled": 0, "rental_uris": {"ios": "https://dc.lft.to/lastmile_qr_scan", "android": "https://dc.lft.to/lastmile_qr_scan"}, "bike_id": "96b63c70d00b1852e1524951a0209bb1", "lat": 38.8744385, "name": "96b63c70d00b1852e1524951a0209bb1", "lon": -77.00922, "fusion_lon": 0.0}, {"is_reserved": 0, "type": "electric_scooter", "fusion_lat": 0.0, "is_disabled": 0, "rental_uris": {"ios": "https://dc.lft.to/lastmile_qr_scan", "android": "https://dc.lft.to/lastmile_qr_scan"}, "bike_id": "5b59fb2d270c4b18721546bb14c379ce", "lat": 38.897342, "name": "5b59fb2d270c4b18721546bb14c379ce", "lon": -77.02468683333333, "fusion_lon": 0.0}, {"is_reserved": 0, "type": "electric_scooter", "fusion_lat": 0.0, "is_disabled": 0, "rental_uris": {"ios": "https://dc.lft.to/lastmile_qr_scan", "android": "https://dc.lft.to/lastmile_qr_scan"}, "bike_id": "4bb5f3f1e96f41f667b9884442cf09ba", "lat": 38.89725966666666, "name": "4bb5f3f1e96f41f667b9884442cf09ba", "lon": -77.00320933333333, "fusion_lon": 0.0}, {"is_reserved": 0, "type": "electric_bike", "fusion_lat": 0.0, "is_disabled": 0, "rental_uris": {"ios": "https://dc.lft.to/lastmile_qr_scan", "android": "https://dc.lft.to/lastmile_qr_scan"}, "bike_id": "672ed7bdfd3e2cc102b83880ac9225b2", "lat": 38.86546416666667, "name": "672ed7bdfd3e2cc102b83880ac9225b2", "lon": -76.9415705, "fusion_lon": 0.0}, {"is_reserved": 0, "type": "electric_scooter", "fusion_lat": 0.0, "is_disabled": 0, "rental_uris": {"ios": "https://dc.lft.to/lastmile_qr_scan", "android": "https://dc.lft.to/lastmile_qr_scan"}, "bike_id": "3fb29f20725a8d34614aafc9e3384877", "lat": 38.967961833333334, "name": "3fb29f20725a8d34614aafc9e3384877", "lon": -77.0243075, "fusion_lon": 0.0}, {"is_reserved": 0, "type": "electric_scooter", "fusion_lat": 0.0, "is_disabled": 0, "rental_uris": {"ios": "https://dc.lft.to/lastmile_qr_scan", "android": "https://dc.lft.to/lastmile_qr_scan"}, "bike_id": "438a727cd8927c45f09a7a36248f7e38", "lat": 38.918053666666665, "name": "438a727cd8927c45f09a7a36248f7e38", "lon": -77.03134133333333, "fusion_lon": 0.0}, {"is_reserved": 0, "type": "electric_scooter", "fusion_lat": 0.0, "is_disabled": 0, "rental_uris": {"ios": "https://dc.lft.to/lastmile_qr_scan", "android": "https://dc.lft.to/lastmile_qr_scan"}, "bike_id": "d86b1886e1e057141eb78cbd03fba2bd", "lat": 38.9016155, "name": "d86b1886e1e057141eb78cbd03fba2bd", "lon": -77.04872533333334, "fusion_lon": 0.0}, {"is_reserved": 0, "type": "electric_bike", "fusion_lat": 0.0, "is_disabled": 0, "rental_uris": {"ios": "https://dc.lft.to/lastmile_qr_scan", "android": "https://dc.lft.to/lastmile_qr_scan"}, "bike_id": "c54276b0b1e24697d195686f81ea1256", "lat": 38.90217066666666, "name": "c54276b0b1e24697d195686f81ea1256", "lon": -76.93178816666666, "fusion_lon": 0.0}, {"is_reserved": 0, "type": "electric_scooter", "fusion_lat": 0.0, "is_disabled": 0, "rental_uris": {"ios": "https://dc.lft.to/lastmile_qr_scan", "android": "https://dc.lft.to/lastmile_qr_scan"}, "bike_id": "bab275c005c6e61d562c6f2b83f99f89", "lat": 38.92422116666667, "name": "bab275c005c6e61d562c6f2b83f99f89", "lon": -77.04481666666666, "fusion_lon": 0.0}, {"is_reserved": 0, "type": "electric_bike", "fusion_lat": 0.0, "is_disabled": 0, "rental_uris": {"ios": "https://dc.lft.to/lastmile_qr_scan", "android": "https://dc.lft.to/lastmile_qr_scan"}, "bike_id": "b283aec04ef84b586c10aca6a5fd86f8", "lat": 38.83869, "name": "b283aec04ef84b586c10aca6a5fd86f8", "lon": -76.9969555, "fusion_lon": 0.0}, {"is_reserved": 0, "type": "electric_scooter", "fusion_lat": 0.0, "is_disabled": 0, "rental_uris": {"ios": "https://dc.lft.to/lastmile_qr_scan", "android": "https://dc.lft.to/lastmile_qr_scan"}, "bike_id": "a792c611dac3314c6527bc296ab399a1", "lat": 38.9156095, "name": "a792c611dac3314c6527bc296ab399a1", "lon": -77.04096516666667, "fusion_lon": 0.0}, {"is_reserved": 0, "type": "electric_scooter", "fusion_lat": 0.0, "is_disabled": 0, "rental_uris": {"ios": "https://dc.lft.to/lastmile_qr_scan", "android": "https://dc.lft.to/lastmile_qr_scan"}, "bike_id": "a235ece3abd4e7fd647c7cbc63079ab1", "lat": 38.883950166666665, "name": "a235ece3abd4e7fd647c7cbc63079ab1", "lon": -77.03039966666667, "fusion_lon": 0.0}, {"is_reserved": 0, "type": "electric_scooter", "fusion_lat": 0.0, "is_disabled": 0, "rental_uris": {"ios": "https://dc.lft.to/lastmile_qr_scan", "android": "https://dc.lft.to/lastmile_qr_scan"}, "bike_id": "57f76370d12ee2841854dd1e80a03cc6", "lat": 38.924573333333335, "name": "57f76370d12ee2841854dd1e80a03cc6", "lon": -77.05759166666667, "fusion_lon": 0.0}, {"is_reserved": 0, "type": "electric_scooter", "fusion_lat": 0.0, "is_disabled": 0, "rental_uris": {"ios": "https://dc.lft.to/lastmile_qr_scan", "android": "https://dc.lft.to/lastmile_qr_scan"}, "bike_id": "754b720212cde5be8b23b16320a00cb3", "lat": 38.903582, "name": "754b720212cde5be8b23b16320a00cb3", "lon": -77.06008, "fusion_lon": 0.0}, {"is_reserved": 0, "type": "electric_scooter", "fusion_lat": 0.0, "is_disabled": 0, "rental_uris": {"ios": "https://dc.lft.to/lastmile_qr_scan", "android": "https://dc.lft.to/lastmile_qr_scan"}, "bike_id": "7d26458eb6153f09733cec8e576dec11", "lat": 38.88361316666666, "name": "7d26458eb6153f09733cec8e576dec11", "lon": -76.9279025, "fusion_lon": 0.0}, {"is_reserved": 0, "type": "electric_scooter", "fusion_lat": 0.0, "is_disabled": 0, "rental_uris": {"ios": "https://dc.lft.to/lastmile_qr_scan", "android": "https://dc.lft.to/lastmile_qr_scan"}, "bike_id": "86c6959ccddffbfa8b77b5bb198088e2", "lat": 38.9027625, "name": "86c6959ccddffbfa8b77b5bb198088e2", "lon": -77.03445583333334, "fusion_lon": 0.0}, {"is_reserved": 0, "type": "electric_scooter", "fusion_lat": 0.0, "is_disabled": 0, "rental_uris": {"ios": "https://dc.lft.to/lastmile_qr_scan", "android": "https://dc.lft.to/lastmile_qr_scan"}, "bike_id": "cf9e709ead7ebbd1b8f494dc6b1465f1", "lat": 38.902591, "name": "cf9e709ead7ebbd1b8f494dc6b1465f1", "lon": -76.92849466666667, "fusion_lon": 0.0}, {"is_reserved": 0, "type": "electric_scooter", "fusion_lat": 0.0, "is_disabled": 0, "rental_uris": {"ios": "https://dc.lft.to/lastmile_qr_scan", "android": "https://dc.lft.to/lastmile_qr_scan"}, "bike_id": "860faaebbcbb2b854d4ab02b4547d2d5", "lat": 38.912737, "name": "860faaebbcbb2b854d4ab02b4547d2d5", "lon": -77.03145166666667, "fusion_lon": 0.0}, {"is_reserved": 0, "type": "electric_scooter", "fusion_lat": 0.0, "is_disabled": 0, "rental_uris": {"ios": "https://dc.lft.to/lastmile_qr_scan", "android": "https://dc.lft.to/lastmile_qr_scan"}, "bike_id": "1257c543b1110b3d768e1802fa91ada1", "lat": 38.919083, "name": "1257c543b1110b3d768e1802fa91ada1", "lon": -77.04808433333334, "fusion_lon": 0.0}, {"is_reserved": 0, "type": "electric_scooter", "fusion_lat": 0.0, "is_disabled": 0, "rental_uris": {"ios": "https://dc.lft.to/lastmile_qr_scan", "android": "https://dc.lft.to/lastmile_qr_scan"}, "bike_id": "d4ab88a611aeb25e20fcc08b768815af", "lat": 38.892190666666664, "name": "d4ab88a611aeb25e20fcc08b768815af", "lon": -77.043279, "fusion_lon": 0.0}, {"is_reserved": 0, "type": "electric_scooter", "fusion_lat": 0.0, "is_disabled": 0, "rental_uris": {"ios": "https://dc.lft.to/lastmile_qr_scan", "android": "https://dc.lft.to/lastmile_qr_scan"}, "bike_id": "b2e99092a634a262eeeaf15f7b4d8ed3", "lat": 38.876515166666664, "name": "b2e99092a634a262eeeaf15f7b4d8ed3", "lon": -77.00819983333334, "fusion_lon": 0.0}, {"is_reserved": 0, "type": "electric_scooter", "fusion_lat": 0.0, "is_disabled": 0, "rental_uris": {"ios": "https://dc.lft.to/lastmile_qr_scan", "android": "https://dc.lft.to/lastmile_qr_scan"}, "bike_id": "b463e005121ecb02996b767cd32e0386", "lat": 38.892172, "name": "b463e005121ecb02996b767cd32e0386", "lon": -77.0445775, "fusion_lon": 0.0}, {"is_reserved": 0, "type": "electric_bike", "fusion_lat": 0.0, "is_disabled": 0, "rental_uris": {"ios": "https://dc.lft.to/lastmile_qr_scan", "android": "https://dc.lft.to/lastmile_qr_scan"}, "bike_id": "1cdfd078249c49f600473a5d7ff64fb0", "lat": 38.973422166666666, "name": "1cdfd078249c49f600473a5d7ff64fb0", "lon": -77.0179985, "fusion_lon": 0.0}, {"is_reserved": 0, "type": "electric_scooter", "fusion_lat": 0.0, "is_disabled": 0, "rental_uris": {"ios": "https://dc.lft.to/lastmile_qr_scan", "android": "https://dc.lft.to/lastmile_qr_scan"}, "bike_id": "4e89e63a9ab3825acedd543042587233", "lat": 38.9286545, "name": "4e89e63a9ab3825acedd543042587233", "lon": -77.078952, "fusion_lon": 0.0}, {"is_reserved": 0, "type": "electric_scooter", "fusion_lat": 0.0, "is_disabled": 0, "rental_uris": {"ios": "https://dc.lft.to/lastmile_qr_scan", "android": "https://dc.lft.to/lastmile_qr_scan"}, "bike_id": "d378b08967c62976692a5cbcb73d0229", "lat": 38.9210745, "name": "d378b08967c62976692a5cbcb73d0229", "lon": -77.04708783333334, "fusion_lon": 0.0}, {"is_reserved": 0, "type": "electric_scooter", "fusion_lat": 0.0, "is_disabled": 0, "rental_uris": {"ios": "https://dc.lft.to/lastmile_qr_scan", "android": "https://dc.lft.to/lastmile_qr_scan"}, "bike_id": "d1e5bae7c49e8020bbb70e5bfd5fac20", "lat": 38.89495133333333, "name": "d1e5bae7c49e8020bbb70e5bfd5fac20", "lon": -77.02307633333334, "fusion_lon": 0.0}, {"is_reserved": 0, "type": "electric_scooter", "fusion_lat": 0.0, "is_disabled": 0, "rental_uris": {"ios": "https://dc.lft.to/lastmile_qr_scan", "android": "https://dc.lft.to/lastmile_qr_scan"}, "bike_id": "fa9814e99439669d73ca0598388f6ecb", "lat": 38.920902833333336, "name": "fa9814e99439669d73ca0598388f6ecb", "lon": -77.02410083333334, "fusion_lon": 0.0}, {"is_reserved": 0, "type": "electric_scooter", "fusion_lat": 0.0, "is_disabled": 0, "rental_uris": {"ios": "https://dc.lft.to/lastmile_qr_scan", "android": "https://dc.lft.to/lastmile_qr_scan"}, "bike_id": "10fc918eb94db81057914a8cb2b863b1", "lat": 38.88740283333333, "name": "10fc918eb94db81057914a8cb2b863b1", "lon": -77.01541683333333, "fusion_lon": 0.0}, {"is_reserved": 0, "type": "electric_scooter", "fusion_lat": 0.0, "is_disabled": 0, "rental_uris": {"ios": "https://dc.lft.to/lastmile_qr_scan", "android": "https://dc.lft.to/lastmile_qr_scan"}, "bike_id": "9b66e8be57e848ed23d433c5c11e562b", "lat": 38.910358333333335, "name": "9b66e8be57e848ed23d433c5c11e562b", "lon": -76.98561716666667, "fusion_lon": 0.0}, {"is_reserved": 0, "type": "electric_scooter", "fusion_lat": 0.0, "is_disabled": 0, "rental_uris": {"ios": "https://dc.lft.to/lastmile_qr_scan", "android": "https://dc.lft.to/lastmile_qr_scan"}, "bike_id": "d9155ab7400a2a63085bc48f5c895281", "lat": 38.878507166666665, "name": "d9155ab7400a2a63085bc48f5c895281", "lon": -77.00695133333333, "fusion_lon": 0.0}, {"is_reserved": 0, "type": "electric_bike", "fusion_lat": 0.0, "is_disabled": 0, "rental_uris": {"ios": "https://dc.lft.to/lastmile_qr_scan", "android": "https://dc.lft.to/lastmile_qr_scan"}, "bike_id": "15e8fa39059dbaf935b386ad20de0be6", "lat": 38.864920833333336, "name": "15e8fa39059dbaf935b386ad20de0be6", "lon": -76.96986066666666, "fusion_lon": 0.0}, {"is_reserved": 0, "type": "electric_scooter", "fusion_lat": 0.0, "is_disabled": 0, "rental_uris": {"ios": "https://dc.lft.to/lastmile_qr_scan", "android": "https://dc.lft.to/lastmile_qr_scan"}, "bike_id": "3388be1925aa446f6dad1cfd2fd6cac4", "lat": 38.91660266666667, "name": "3388be1925aa446f6dad1cfd2fd6cac4", "lon": -77.043852, "fusion_lon": 0.0}, {"is_reserved": 0, "type": "electric_bike", "fusion_lat": 0.0, "is_disabled": 0, "rental_uris": {"ios": "https://dc.lft.to/lastmile_qr_scan", "android": "https://dc.lft.to/lastmile_qr_scan"}, "bike_id": "4e73eb719ba30832dfa569943dc994a1", "lat": 38.80522083333334, "name": "4e73eb719ba30832dfa569943dc994a1", "lon": -77.04339083333333, "fusion_lon": 0.0}, {"is_reserved": 0, "type": "electric_scooter", "fusion_lat": 0.0, "is_disabled": 0, "rental_uris": {"ios": "https://dc.lft.to/lastmile_qr_scan", "android": "https://dc.lft.to/lastmile_qr_scan"}, "bike_id": "68c9b49a49c1ec82eb6db248489ac446", "lat": 38.9027075, "name": "68c9b49a49c1ec82eb6db248489ac446", "lon": -77.05919266666666, "fusion_lon": 0.0}, {"is_reserved": 0, "type": "electric_scooter", "fusion_lat": 0.0, "is_disabled": 0, "rental_uris": {"ios": "https://dc.lft.to/lastmile_qr_scan", "android": "https://dc.lft.to/lastmile_qr_scan"}, "bike_id": "6a5d17c8043268b343018e18a6022ff5", "lat": 38.928649166666666, "name": "6a5d17c8043268b343018e18a6022ff5", "lon": -77.01414466666667, "fusion_lon": 0.0}, {"is_reserved": 0, "type": "electric_scooter", "fusion_lat": 0.0, "is_disabled": 0, "rental_uris": {"ios": "https://dc.lft.to/lastmile_qr_scan", "android": "https://dc.lft.to/lastmile_qr_scan"}, "bike_id": "ecd6cb0db1635432bf597bb665481424", "lat": 38.898323166666664, "name": "ecd6cb0db1635432bf597bb665481424", "lon": -77.02698083333334, "fusion_lon": 0.0}, {"is_reserved": 0, "type": "electric_bike", "fusion_lat": 0.0, "is_disabled": 0, "rental_uris": {"ios": "https://dc.lft.to/lastmile_qr_scan", "android": "https://dc.lft.to/lastmile_qr_scan"}, "bike_id": "5244b08e63eeb8b26ee34a6ae3b6e7d0", "lat": 38.93968383333333, "name": "5244b08e63eeb8b26ee34a6ae3b6e7d0", "lon": -77.03761516666667, "fusion_lon": 0.0}, {"is_reserved": 0, "type": "electric_scooter", "fusion_lat": 0.0, "is_disabled": 0, "rental_uris": {"ios": "https://dc.lft.to/lastmile_qr_scan", "android": "https://dc.lft.to/lastmile_qr_scan"}, "bike_id": "443671c5f853abe4203d7114da49091e", "lat": 38.8737145, "name": "443671c5f853abe4203d7114da49091e", "lon": -77.00132083333334, "fusion_lon": 0.0}, {"is_reserved": 0, "type": "electric_scooter", "fusion_lat": 0.0, "is_disabled": 0, "rental_uris": {"ios": "https://dc.lft.to/lastmile_qr_scan", "android": "https://dc.lft.to/lastmile_qr_scan"}, "bike_id": "e5921bfb4c127ff0d1687f1e91e1e29b", "lat": 38.922147833333334, "name": "e5921bfb4c127ff0d1687f1e91e1e29b", "lon": -77.02028766666666, "fusion_lon": 0.0}, {"is_reserved": 0, "type": "electric_scooter", "fusion_lat": 0.0, "is_disabled": 0, "rental_uris": {"ios": "https://dc.lft.to/lastmile_qr_scan", "android": "https://dc.lft.to/lastmile_qr_scan"}, "bike_id": "b56cb2a8ad0cc95ed42a3dd854118a99", "lat": 38.89724433333333, "name": "b56cb2a8ad0cc95ed42a3dd854118a99", "lon": -76.99514683333334, "fusion_lon": 0.0}, {"is_reserved": 0, "type": "electric_scooter", "fusion_lat": 0.0, "is_disabled": 0, "rental_uris": {"ios": "https://dc.lft.to/lastmile_qr_scan", "android": "https://dc.lft.to/lastmile_qr_scan"}, "bike_id": "bcc96d1ba7f9f20a516ecea0ef73e51a", "lat": 38.92952233333333, "name": "bcc96d1ba7f9f20a516ecea0ef73e51a", "lon": -77.04404166666667, "fusion_lon": 0.0}, {"is_reserved": 0, "type": "electric_scooter", "fusion_lat": 0.0, "is_disabled": 0, "rental_uris": {"ios": "https://dc.lft.to/lastmile_qr_scan", "android": "https://dc.lft.to/lastmile_qr_scan"}, "bike_id": "f0261382f2da50b9057c40d69e918c13", "lat": 38.9085325, "name": "f0261382f2da50b9057c40d69e918c13", "lon": -77.036542, "fusion_lon": 0.0}, {"is_reserved": 0, "type": "electric_scooter", "fusion_lat": 0.0, "is_disabled": 0, "rental_uris": {"ios": "https://dc.lft.to/lastmile_qr_scan", "android": "https://dc.lft.to/lastmile_qr_scan"}, "bike_id": "55af240f8cd4a4845127e61984f81331", "lat": 38.91743783333333, "name": "55af240f8cd4a4845127e61984f81331", "lon": -77.0108575, "fusion_lon": 0.0}, {"is_reserved": 0, "type": "electric_bike", "fusion_lat": 0.0, "is_disabled": 0, "rental_uris": {"ios": "https://dc.lft.to/lastmile_qr_scan", "android": "https://dc.lft.to/lastmile_qr_scan"}, "bike_id": "406aad5333d688932f7ad8fe6f511af4", "lat": 38.8359295, "name": "406aad5333d688932f7ad8fe6f511af4", "lon": -76.990153, "fusion_lon": 0.0}, {"is_reserved": 0, "type": "electric_scooter", "fusion_lat": 0.0, "is_disabled": 0, "rental_uris": {"ios": "https://dc.lft.to/lastmile_qr_scan", "android": "https://dc.lft.to/lastmile_qr_scan"}, "bike_id": "fd4a9ddea5c0e09ed9302cbb5406782a", "lat": 38.909900666666665, "name": "fd4a9ddea5c0e09ed9302cbb5406782a", "lon": -77.0269985, "fusion_lon": 0.0}, {"is_reserved": 0, "type": "electric_bike", "fusion_lat": 0.0, "is_disabled": 0, "rental_uris": {"ios": "https://dc.lft.to/lastmile_qr_scan", "android": "https://dc.lft.to/lastmile_qr_scan"}, "bike_id": "23d4324f1f5307ff6b7dd583dad837e8", "lat": 38.8508275, "name": "23d4324f1f5307ff6b7dd583dad837e8", "lon": -76.98159683333333, "fusion_lon": 0.0}, {"is_reserved": 0, "type": "electric_scooter", "fusion_lat": 0.0, "is_disabled": 0, "rental_uris": {"ios": "https://dc.lft.to/lastmile_qr_scan", "android": "https://dc.lft.to/lastmile_qr_scan"}, "bike_id": "b46cf2e66ca6ee7f5c80674b6fd1f74e", "lat": 38.89591633333333, "name": "b46cf2e66ca6ee7f5c80674b6fd1f74e", "lon": -77.02773733333333, "fusion_lon": 0.0}, {"is_reserved": 0, "type": "electric_bike", "fusion_lat": 0.0, "is_disabled": 0, "rental_uris": {"ios": "https://dc.lft.to/lastmile_qr_scan", "android": "https://dc.lft.to/lastmile_qr_scan"}, "bike_id": "fda9b0b7614379a1c9f2bbda36fa62de", "lat": 38.90011283333333, "name": "fda9b0b7614379a1c9f2bbda36fa62de", "lon": -76.99048083333334, "fusion_lon": 0.0}, {"is_reserved": 0, "type": "electric_bike", "fusion_lat": 0.0, "is_disabled": 0, "rental_uris": {"ios": "https://dc.lft.to/lastmile_qr_scan", "android": "https://dc.lft.to/lastmile_qr_scan"}, "bike_id": "41235fc6d3df4ef709b4ded64e2d1149", "lat": 38.954438, "name": "41235fc6d3df4ef709b4ded64e2d1149", "lon": -77.02773433333333, "fusion_lon": 0.0}, {"is_reserved": 0, "type": "electric_bike", "fusion_lat": 0.0, "is_disabled": 0, "rental_uris": {"ios": "https://dc.lft.to/lastmile_qr_scan", "android": "https://dc.lft.to/lastmile_qr_scan"}, "bike_id": "b14eedb6a767b6e7067da3cdc04320cd", "lat": 38.967286, "name": "b14eedb6a767b6e7067da3cdc04320cd", "lon": -77.08915266666666, "fusion_lon": 0.0}, {"is_reserved": 0, "type": "electric_scooter", "fusion_lat": 0.0, "is_disabled": 0, "rental_uris": {"ios": "https://dc.lft.to/lastmile_qr_scan", "android": "https://dc.lft.to/lastmile_qr_scan"}, "bike_id": "f7aed4e245a7548fb8bd29bf534e67b0", "lat": 38.894949833333335, "name": "f7aed4e245a7548fb8bd29bf534e67b0", "lon": -77.02305766666667, "fusion_lon": 0.0}, {"is_reserved": 0, "type": "electric_scooter", "fusion_lat": 0.0, "is_disabled": 0, "rental_uris": {"ios": "https://dc.lft.to/lastmile_qr_scan", "android": "https://dc.lft.to/lastmile_qr_scan"}, "bike_id": "112b67ec848c86fd18f66149fa5dd4dc", "lat": 38.888343666666664, "name": "112b67ec848c86fd18f66149fa5dd4dc", "lon": -76.9773545, "fusion_lon": 0.0}, {"is_reserved": 0, "type": "electric_scooter", "fusion_lat": 0.0, "is_disabled": 0, "rental_uris": {"ios": "https://dc.lft.to/lastmile_qr_scan", "android": "https://dc.lft.to/lastmile_qr_scan"}, "bike_id": "9b2560f241b10cae834bcc5d1a840c79", "lat": 38.8811865, "name": "9b2560f241b10cae834bcc5d1a840c79", "lon": -77.01482216666666, "fusion_lon": 0.0}, {"is_reserved": 0, "type": "electric_scooter", "fusion_lat": 0.0, "is_disabled": 0, "rental_uris": {"ios": "https://dc.lft.to/lastmile_qr_scan", "android": "https://dc.lft.to/lastmile_qr_scan"}, "bike_id": "5a215787cdfa7ac13320e48058e35044", "lat": 38.9196455, "name": "5a215787cdfa7ac13320e48058e35044", "lon": -77.00211483333334, "fusion_lon": 0.0}, {"is_reserved": 0, "type": "electric_scooter", "fusion_lat": 0.0, "is_disabled": 0, "rental_uris": {"ios": "https://dc.lft.to/lastmile_qr_scan", "android": "https://dc.lft.to/lastmile_qr_scan"}, "bike_id": "8b79ea7bcfb8b685d8aac997e27f8cb0", "lat": 38.92058383333333, "name": "8b79ea7bcfb8b685d8aac997e27f8cb0", "lon": -77.02558766666667, "fusion_lon": 0.0}, {"is_reserved": 0, "type": "electric_scooter", "fusion_lat": 0.0, "is_disabled": 0, "rental_uris": {"ios": "https://dc.lft.to/lastmile_qr_scan", "android": "https://dc.lft.to/lastmile_qr_scan"}, "bike_id": "3c2e38f66d666378ddb6ff72e741d101", "lat": 38.91638666666667, "name": "3c2e38f66d666378ddb6ff72e741d101", "lon": -77.02238466666667, "fusion_lon": 0.0}, {"is_reserved": 0, "type": "electric_scooter", "fusion_lat": 0.0, "is_disabled": 0, "rental_uris": {"ios": "https://dc.lft.to/lastmile_qr_scan", "android": "https://dc.lft.to/lastmile_qr_scan"}, "bike_id": "e6008e73b39f06ad1f0446b7b9e66989", "lat": 38.9087665, "name": "e6008e73b39f06ad1f0446b7b9e66989", "lon": -77.02941983333334, "fusion_lon": 0.0}, {"is_reserved": 0, "type": "electric_scooter", "fusion_lat": 0.0, "is_disabled": 0, "rental_uris": {"ios": "https://dc.lft.to/lastmile_qr_scan", "android": "https://dc.lft.to/lastmile_qr_scan"}, "bike_id": "f9da556a3e07f666948e8ee3add4ce8e", "lat": 38.89737983333333, "name": "f9da556a3e07f666948e8ee3add4ce8e", "lon": -77.04996333333334, "fusion_lon": 0.0}, {"is_reserved": 0, "type": "electric_scooter", "fusion_lat": 0.0, "is_disabled": 0, "rental_uris": {"ios": "https://dc.lft.to/lastmile_qr_scan", "android": "https://dc.lft.to/lastmile_qr_scan"}, "bike_id": "16882ef760994d3fa467fa4c1aa36c97", "lat": 38.868871, "name": "16882ef760994d3fa467fa4c1aa36c97", "lon": -76.99000933333333, "fusion_lon": 0.0}, {"is_reserved": 0, "type": "electric_scooter", "fusion_lat": 0.0, "is_disabled": 0, "rental_uris": {"ios": "https://dc.lft.to/lastmile_qr_scan", "android": "https://dc.lft.to/lastmile_qr_scan"}, "bike_id": "c682f3f5d80de336a7fa9e0e408e3fca", "lat": 38.92172516666667, "name": "c682f3f5d80de336a7fa9e0e408e3fca", "lon": -77.03824666666667, "fusion_lon": 0.0}, {"is_reserved": 0, "type": "electric_scooter", "fusion_lat": 0.0, "is_disabled": 0, "rental_uris": {"ios": "https://dc.lft.to/lastmile_qr_scan", "android": "https://dc.lft.to/lastmile_qr_scan"}, "bike_id": "3c6ebc02d18533baf1f35701427e6243", "lat": 38.9173465, "name": "3c6ebc02d18533baf1f35701427e6243", "lon": -77.0260165, "fusion_lon": 0.0}, {"is_reserved": 0, "type": "electric_scooter", "fusion_lat": 0.0, "is_disabled": 0, "rental_uris": {"ios": "https://dc.lft.to/lastmile_qr_scan", "android": "https://dc.lft.to/lastmile_qr_scan"}, "bike_id": "e502f3bb28a7728b983be2635221b11f", "lat": 38.92871616666667, "name": "e502f3bb28a7728b983be2635221b11f", "lon": -77.03480566666667, "fusion_lon": 0.0}, {"is_reserved": 0, "type": "electric_scooter", "fusion_lat": 0.0, "is_disabled": 0, "rental_uris": {"ios": "https://dc.lft.to/lastmile_qr_scan", "android": "https://dc.lft.to/lastmile_qr_scan"}, "bike_id": "f9d9dedba0d9ca0c6a0e60f4a04c8674", "lat": 38.956341333333334, "name": "f9d9dedba0d9ca0c6a0e60f4a04c8674", "lon": -77.03629983333333, "fusion_lon": 0.0}, {"is_reserved": 0, "type": "electric_scooter", "fusion_lat": 0.0, "is_disabled": 0, "rental_uris": {"ios": "https://dc.lft.to/lastmile_qr_scan", "android": "https://dc.lft.to/lastmile_qr_scan"}, "bike_id": "bdeac9b227534d2b39550771c16d3b28", "lat": 38.92611766666667, "name": "bdeac9b227534d2b39550771c16d3b28", "lon": -77.02164416666666, "fusion_lon": 0.0}, {"is_reserved": 0, "type": "electric_scooter", "fusion_lat": 0.0, "is_disabled": 0, "rental_uris": {"ios": "https://dc.lft.to/lastmile_qr_scan", "android": "https://dc.lft.to/lastmile_qr_scan"}, "bike_id": "2cc8e065d26174e22aa6399fe9078bb8", "lat": 38.92997116666667, "name": "2cc8e065d26174e22aa6399fe9078bb8", "lon": -77.0217115, "fusion_lon": 0.0}, {"is_reserved": 0, "type": "electric_scooter", "fusion_lat": 0.0, "is_disabled": 0, "rental_uris": {"ios": "https://dc.lft.to/lastmile_qr_scan", "android": "https://dc.lft.to/lastmile_qr_scan"}, "bike_id": "a52114cd3e5e6091098e6e0c3bc1e63d", "lat": 38.923548333333336, "name": "a52114cd3e5e6091098e6e0c3bc1e63d", "lon": -77.03445883333333, "fusion_lon": 0.0}, {"is_reserved": 0, "type": "electric_scooter", "fusion_lat": 0.0, "is_disabled": 0, "rental_uris": {"ios": "https://dc.lft.to/lastmile_qr_scan", "android": "https://dc.lft.to/lastmile_qr_scan"}, "bike_id": "8089f47f5acc054d5c641920b5bce4b5", "lat": 38.93717733333333, "name": "8089f47f5acc054d5c641920b5bce4b5", "lon": -77.03629116666667, "fusion_lon": 0.0}, {"is_reserved": 0, "type": "electric_bike", "fusion_lat": 0.0, "is_disabled": 0, "rental_uris": {"ios": "https://dc.lft.to/lastmile_qr_scan", "android": "https://dc.lft.to/lastmile_qr_scan"}, "bike_id": "1ce1265eea88d2ad3b8dbfb237e5bc25", "lat": 38.8908455, "name": "1ce1265eea88d2ad3b8dbfb237e5bc25", "lon": -76.95465616666667, "fusion_lon": 0.0}, {"is_reserved": 0, "type": "electric_scooter", "fusion_lat": 0.0, "is_disabled": 0, "rental_uris": {"ios": "https://dc.lft.to/lastmile_qr_scan", "android": "https://dc.lft.to/lastmile_qr_scan"}, "bike_id": "321de3acadba633acd1016298a965900", "lat": 38.90758733333333, "name": "321de3acadba633acd1016298a965900", "lon": -77.01905416666666, "fusion_lon": 0.0}, {"is_reserved": 0, "type": "electric_scooter", "fusion_lat": 0.0, "is_disabled": 0, "rental_uris": {"ios": "https://dc.lft.to/lastmile_qr_scan", "android": "https://dc.lft.to/lastmile_qr_scan"}, "bike_id": "9c7e88c3c8c59a4d5f778bd5bf0f758b", "lat": 38.89991466666667, "name": "9c7e88c3c8c59a4d5f778bd5bf0f758b", "lon": -77.05247716666666, "fusion_lon": 0.0}, {"is_reserved": 0, "type": "electric_scooter", "fusion_lat": 0.0, "is_disabled": 0, "rental_uris": {"ios": "https://dc.lft.to/lastmile_qr_scan", "android": "https://dc.lft.to/lastmile_qr_scan"}, "bike_id": "94c91aa273cf3402cf3027ae18a4fa1a", "lat": 38.91493833333333, "name": "94c91aa273cf3402cf3027ae18a4fa1a", "lon": -76.9836545, "fusion_lon": 0.0}, {"is_reserved": 0, "type": "electric_scooter", "fusion_lat": 0.0, "is_disabled": 0, "rental_uris": {"ios": "https://dc.lft.to/lastmile_qr_scan", "android": "https://dc.lft.to/lastmile_qr_scan"}, "bike_id": "96c2dff45f4404e0a1a315025b6abea0", "lat": 38.9561545, "name": "96c2dff45f4404e0a1a315025b6abea0", "lon": -77.03311716666667, "fusion_lon": 0.0}, {"is_reserved": 0, "type": "electric_scooter", "fusion_lat": 0.0, "is_disabled": 0, "rental_uris": {"ios": "https://dc.lft.to/lastmile_qr_scan", "android": "https://dc.lft.to/lastmile_qr_scan"}, "bike_id": "e10848adc96659905c9368bd3eec3037", "lat": 38.917667333333334, "name": "e10848adc96659905c9368bd3eec3037", "lon": -77.047381, "fusion_lon": 0.0}, {"is_reserved": 0, "type": "electric_scooter", "fusion_lat": 0.0, "is_disabled": 0, "rental_uris": {"ios": "https://dc.lft.to/lastmile_qr_scan", "android": "https://dc.lft.to/lastmile_qr_scan"}, "bike_id": "be53b7373089ea57b60f341fb311ba67", "lat": 38.9194085, "name": "be53b7373089ea57b60f341fb311ba67", "lon": -77.02311766666666, "fusion_lon": 0.0}, {"is_reserved": 0, "type": "electric_scooter", "fusion_lat": 0.0, "is_disabled": 0, "rental_uris": {"ios": "https://dc.lft.to/lastmile_qr_scan", "android": "https://dc.lft.to/lastmile_qr_scan"}, "bike_id": "b2dd7ac6021e911cb28fa1ec68712a70", "lat": 38.944448, "name": "b2dd7ac6021e911cb28fa1ec68712a70", "lon": -77.03281916666667, "fusion_lon": 0.0}, {"is_reserved": 0, "type": "electric_scooter", "fusion_lat": 0.0, "is_disabled": 0, "rental_uris": {"ios": "https://dc.lft.to/lastmile_qr_scan", "android": "https://dc.lft.to/lastmile_qr_scan"}, "bike_id": "897def0d8040c985785f027a9dd9b965", "lat": 38.91281883333333, "name": "897def0d8040c985785f027a9dd9b965", "lon": -77.03230316666667, "fusion_lon": 0.0}, {"is_reserved": 0, "type": "electric_scooter", "fusion_lat": 0.0, "is_disabled": 0, "rental_uris": {"ios": "https://dc.lft.to/lastmile_qr_scan", "android": "https://dc.lft.to/lastmile_qr_scan"}, "bike_id": "5cfc794f22bc02a21f751ac1081018d2", "lat": 38.9131055, "name": "5cfc794f22bc02a21f751ac1081018d2", "lon": -77.0143545, "fusion_lon": 0.0}, {"is_reserved": 0, "type": "electric_scooter", "fusion_lat": 0.0, "is_disabled": 0, "rental_uris": {"ios": "https://dc.lft.to/lastmile_qr_scan", "android": "https://dc.lft.to/lastmile_qr_scan"}, "bike_id": "0c94d33748981101a61b614697d9e70b", "lat": 38.897272, "name": "0c94d33748981101a61b614697d9e70b", "lon": -77.046222, "fusion_lon": 0.0}, {"is_reserved": 0, "type": "electric_bike", "fusion_lat": 0.0, "is_disabled": 0, "rental_uris": {"ios": "https://dc.lft.to/lastmile_qr_scan", "android": "https://dc.lft.to/lastmile_qr_scan"}, "bike_id": "503518a1e8d87835f8354b178cd48cc8", "lat": 38.86821, "name": "503518a1e8d87835f8354b178cd48cc8", "lon": -76.9802335, "fusion_lon": 0.0}, {"is_reserved": 0, "type": "electric_scooter", "fusion_lat": 0.0, "is_disabled": 0, "rental_uris": {"ios": "https://dc.lft.to/lastmile_qr_scan", "android": "https://dc.lft.to/lastmile_qr_scan"}, "bike_id": "5ef85744950a0f9a8d90aef13bfd37c5", "lat": 38.92693666666667, "name": "5ef85744950a0f9a8d90aef13bfd37c5", "lon": -77.02489416666667, "fusion_lon": 0.0}, {"is_reserved": 0, "type": "electric_scooter", "fusion_lat": 0.0, "is_disabled": 0, "rental_uris": {"ios": "https://dc.lft.to/lastmile_qr_scan", "android": "https://dc.lft.to/lastmile_qr_scan"}, "bike_id": "b8eb276fd33364315b23c3135876fc06", "lat": 38.900111, "name": "b8eb276fd33364315b23c3135876fc06", "lon": -77.0525025, "fusion_lon": 0.0}, {"is_reserved": 0, "type": "electric_scooter", "fusion_lat": 0.0, "is_disabled": 0, "rental_uris": {"ios": "https://dc.lft.to/lastmile_qr_scan", "android": "https://dc.lft.to/lastmile_qr_scan"}, "bike_id": "1c070c73235986541e60d30ced8876e2", "lat": 38.9118665, "name": "1c070c73235986541e60d30ced8876e2", "lon": -77.02979366666666, "fusion_lon": 0.0}, {"is_reserved": 0, "type": "electric_scooter", "fusion_lat": 0.0, "is_disabled": 0, "rental_uris": {"ios": "https://dc.lft.to/lastmile_qr_scan", "android": "https://dc.lft.to/lastmile_qr_scan"}, "bike_id": "5da301e5f58c8299dc56d480c78cce3d", "lat": 38.924525833333334, "name": "5da301e5f58c8299dc56d480c78cce3d", "lon": -77.0420335, "fusion_lon": 0.0}, {"is_reserved": 0, "type": "electric_scooter", "fusion_lat": 0.0, "is_disabled": 0, "rental_uris": {"ios": "https://dc.lft.to/lastmile_qr_scan", "android": "https://dc.lft.to/lastmile_qr_scan"}, "bike_id": "04bf7a1aeb8673c892171cace68dc3ea", "lat": 38.928697166666666, "name": "04bf7a1aeb8673c892171cace68dc3ea", "lon": -77.03994616666667, "fusion_lon": 0.0}, {"is_reserved": 0, "type": "electric_scooter", "fusion_lat": 0.0, "is_disabled": 0, "rental_uris": {"ios": "https://dc.lft.to/lastmile_qr_scan", "android": "https://dc.lft.to/lastmile_qr_scan"}, "bike_id": "3809a4dc4dd9656b0ce3b788e9aaa91b", "lat": 38.90251, "name": "3809a4dc4dd9656b0ce3b788e9aaa91b", "lon": -77.05414566666667, "fusion_lon": 0.0}, {"is_reserved": 0, "type": "electric_bike", "fusion_lat": 0.0, "is_disabled": 0, "rental_uris": {"ios": "https://dc.lft.to/lastmile_qr_scan", "android": "https://dc.lft.to/lastmile_qr_scan"}, "bike_id": "e550b1331a8f6a0c68ca423a5bed3edc", "lat": 38.912879, "name": "e550b1331a8f6a0c68ca423a5bed3edc", "lon": -77.0385955, "fusion_lon": 0.0}, {"is_reserved": 0, "type": "electric_scooter", "fusion_lat": 0.0, "is_disabled": 0, "rental_uris": {"ios": "https://dc.lft.to/lastmile_qr_scan", "android": "https://dc.lft.to/lastmile_qr_scan"}, "bike_id": "401e42ab4a56fe5d768a2600655e38fb", "lat": 38.902514333333336, "name": "401e42ab4a56fe5d768a2600655e38fb", "lon": -77.005929, "fusion_lon": 0.0}, {"is_reserved": 0, "type": "electric_scooter", "fusion_lat": 0.0, "is_disabled": 0, "rental_uris": {"ios": "https://dc.lft.to/lastmile_qr_scan", "android": "https://dc.lft.to/lastmile_qr_scan"}, "bike_id": "4d6a911fc0e09c9c828e3761ba1e2907", "lat": 38.902079666666666, "name": "4d6a911fc0e09c9c828e3761ba1e2907", "lon": -76.99505083333334, "fusion_lon": 0.0}, {"is_reserved": 0, "type": "electric_scooter", "fusion_lat": 0.0, "is_disabled": 0, "rental_uris": {"ios": "https://dc.lft.to/lastmile_qr_scan", "android": "https://dc.lft.to/lastmile_qr_scan"},