{"data": {"bikes": [{"fusion_lon": 0.0, "name": "c6b3c161650438fd52983c598f8153ec", "rental_uris": {"android": "https://dc.lft.to/lastmile_qr_scan", "ios": "https://dc.lft.to/lastmile_qr_scan"}, "lat": 38.9609705, "bike_id": "c6b3c161650438fd52983c598f8153ec", "is_disabled": 0, "lon": -77.06758383333333, "is_reserved": 0, "fusion_lat": 0.0, "type": "electric_scooter"}, {"fusion_lon": 0.0, "name": "5eb58490ebe0d93199adf27cf8639bb6", "rental_uris": {"android": "https://dc.lft.to/lastmile_qr_scan", "ios": "https://dc.lft.to/lastmile_qr_scan"}, "lat": 38.886347, "bike_id": "5eb58490ebe0d93199adf27cf8639bb6", "is_disabled": 0, "lon": -77.02136933333334, "is_reserved": 0, "fusion_lat": 0.0, "type": "electric_scooter"}, {"fusion_lon": 0.0, "name": "3c03274a9131fed7b042f9770eb2e378", "rental_uris": {"android": "https://dc.lft.to/lastmile_qr_scan", "ios": "https://dc.lft.to/lastmile_qr_scan"}, "lat": 38.9023695, "bike_id": "3c03274a9131fed7b042f9770eb2e378", "is_disabled": 0, "lon": -77.045845, "is_reserved": 0, "fusion_lat": 0.0, "type": "electric_scooter"}, {"fusion_lon": 0.0, "name": "20575554ecf2623a4763488354908882", "rental_uris": {"android": "https://dc.lft.to/lastmile_qr_scan", "ios": "https://dc.lft.to/lastmile_qr_scan"}, "lat": 38.92956983333333, "bike_id": "20575554ecf2623a4763488354908882", "is_disabled": 0, "lon": -77.0114605, "is_reserved": 0, "fusion_lat": 0.0, "type": "electric_scooter"}, {"fusion_lon": 0.0, "name": "a4c322eaddae5f729ef1ac7329dcc608", "rental_uris": {"android": "https://dc.lft.to/lastmile_qr_scan", "ios": "https://dc.lft.to/lastmile_qr_scan"}, "lat": 38.95110966666667, "bike_id": "a4c322eaddae5f729ef1ac7329dcc608", "is_disabled": 0, "lon": -77.01312466666667, "is_reserved": 0, "fusion_lat": 0.0, "type": "electric_scooter"}, {"fusion_lon": 0.0, "name": "32f5fa2977098ac0e2846c39e943cffe", "rental_uris": {"android": "https://dc.lft.to/lastmile_qr_scan", "ios": "https://dc.lft.to/lastmile_qr_scan"}, "lat": 38.905755666666664, "bike_id": "32f5fa2977098ac0e2846c39e943cffe", "is_disabled": 0, "lon": -77.00809633333333, "is_reserved": 0, "fusion_lat": 0.0, "type": "electric_scooter"}, {"fusion_lon": 0.0, "name": "68d958846715457070fc6b223a0ff46e", "rental_uris": {"android": "https://dc.lft.to/lastmile_qr_scan", "ios": "https://dc.lft.to/lastmile_qr_scan"}, "lat": 38.929752666666666, "bike_id": "68d958846715457070fc6b223a0ff46e", "is_disabled": 0, "lon": -77.032318, "is_reserved": 0, "fusion_lat": 0.0, "type": "electric_scooter"}, {"fusion_lon": 0.0, "name": "7ad3523f7c77e69728871e8466ba993c", "rental_uris": {"android": "https://dc.lft.to/lastmile_qr_scan", "ios": "https://dc.lft.to/lastmile_qr_scan"}, "lat": 38.943204, "bike_id": "7ad3523f7c77e69728871e8466ba993c", "is_disabled": 0, "lon": -77.01312133333333, "is_reserved": 0, "fusion_lat": 0.0, "type": "electric_scooter"}, {"fusion_lon": 0.0, "name": "c3cfcb82be08a38ea951799e68516ffc", "rental_uris": {"android": "https://dc.lft.to/lastmile_qr_scan", "ios": "https://dc.lft.to/lastmile_qr_scan"}, "lat": 38.923831666666665, "bike_id": "c3cfcb82be08a38ea951799e68516ffc", "is_disabled": 0, "lon": -77.030536, "is_reserved": 0, "fusion_lat": 0.0, "type": "electric_scooter"}, {"fusion_lon": 0.0, "name": "d7b65dd9574a84b5bf4aea29091adb0e", "rental_uris": {"android": "https://dc.lft.to/lastmile_qr_scan", "ios": "https://dc.lft.to/lastmile_qr_scan"}, "lat": 38.93047716666667, "bike_id": "d7b65dd9574a84b5bf4aea29091adb0e", "is_disabled": 0, "lon": -77.07353616666667, "is_reserved": 0, "fusion_lat": 0.0, "type": "electric_bike"}, {"fusion_lon": 0.0, "name": "6daef5585a6311e8ce0b423a0de03b78", "rental_uris": {"android": "https://dc.lft.to/lastmile_qr_scan", "ios": "https://dc.lft.to/lastmile_qr_scan"}, "lat": 38.9322365, "bike_id": "6daef5585a6311e8ce0b423a0de03b78", "is_disabled": 0, "lon": -77.02689166666667, "is_reserved": 0, "fusion_lat": 0.0, "type": "electric_scooter"}, {"fusion_lon": 0.0, "name": "c9c31cbb524381609826520cf31fc370", "rental_uris": {"android": "https://dc.lft.to/lastmile_qr_scan", "ios": "https://dc.lft.to/lastmile_qr_scan"}, "lat": 38.90021383333333, "bike_id": "c9c31cbb524381609826520cf31fc370", "is_disabled": 0, "lon": -77.01224466666666, "is_reserved": 0, "fusion_lat": 0.0, "type": "electric_scooter"}, {"fusion_lon": 0.0, "name": "1d3264779eb0d9bf0991f91d728c2dda", "rental_uris": {"android": "https://dc.lft.to/lastmile_qr_scan", "ios": "https://dc.lft.to/lastmile_qr_scan"}, "lat": 38.8937165, "bike_id": "1d3264779eb0d9bf0991f91d728c2dda", "is_disabled": 0, "lon": -77.00344616666666, "is_reserved": 0, "fusion_lat": 0.0, "type": "electric_scooter"}, {"fusion_lon": 0.0, "name": "fd14fa3bb07fd8875d33ad5d4f661619", "rental_uris": {"android": "https://dc.lft.to/lastmile_qr_scan", "ios": "https://dc.lft.to/lastmile_qr_scan"}, "lat": 38.913206333333335, "bike_id": "fd14fa3bb07fd8875d33ad5d4f661619", "is_disabled": 0, "lon": -77.01619766666667, "is_reserved": 0, "fusion_lat": 0.0, "type": "electric_scooter"}, {"fusion_lon": 0.0, "name": "e2fcec4b720dc437601657fc3aa196a1", "rental_uris": {"android": "https://dc.lft.to/lastmile_qr_scan", "ios": "https://dc.lft.to/lastmile_qr_scan"}, "lat": 38.91289183333333, "bike_id": "e2fcec4b720dc437601657fc3aa196a1", "is_disabled": 0, "lon": -76.98540666666666, "is_reserved": 0, "fusion_lat": 0.0, "type": "electric_scooter"}, {"fusion_lon": 0.0, "name": "a09f58064d5383527c6c7bc5f997de67", "rental_uris": {"android": "https://dc.lft.to/lastmile_qr_scan", "ios": "https://dc.lft.to/lastmile_qr_scan"}, "lat": 38.924688833333335, "bike_id": "a09f58064d5383527c6c7bc5f997de67", "is_disabled": 0, "lon": -77.02218583333334, "is_reserved": 0, "fusion_lat": 0.0, "type": "electric_scooter"}, {"fusion_lon": 0.0, "name": "02b1d2bc703dedde5ea441ed77457b0d", "rental_uris": {"android": "https://dc.lft.to/lastmile_qr_scan", "ios": "https://dc.lft.to/lastmile_qr_scan"}, "lat": 38.925573166666666, "bike_id": "02b1d2bc703dedde5ea441ed77457b0d", "is_disabled": 0, "lon": -77.02134066666666, "is_reserved": 0, "fusion_lat": 0.0, "type": "electric_scooter"}, {"fusion_lon": 0.0, "name": "af854e9a480b7d0c2e2be8a65116785a", "rental_uris": {"android": "https://dc.lft.to/lastmile_qr_scan", "ios": "https://dc.lft.to/lastmile_qr_scan"}, "lat": 38.954626166666664, "bike_id": "af854e9a480b7d0c2e2be8a65116785a", "is_disabled": 0, "lon": -77.07004716666667, "is_reserved": 0, "fusion_lat": 0.0, "type": "electric_scooter"}, {"fusion_lon": 0.0, "name": "eb3c7fd89c23ef26714f904190a893a6", "rental_uris": {"android": "https://dc.lft.to/lastmile_qr_scan", "ios": "https://dc.lft.to/lastmile_qr_scan"}, "lat": 38.892209, "bike_id": "eb3c7fd89c23ef26714f904190a893a6", "is_disabled": 0, "lon": -77.03998533333333, "is_reserved": 0, "fusion_lat": 0.0, "type": "electric_scooter"}, {"fusion_lon": 0.0, "name": "8bda0ea81de123dc619af73732b807b1", "rental_uris": {"android": "https://dc.lft.to/lastmile_qr_scan", "ios": "https://dc.lft.to/lastmile_qr_scan"}, "lat": 38.95574366666666, "bike_id": "8bda0ea81de123dc619af73732b807b1", "is_disabled": 0, "lon": -77.070097, "is_reserved": 0, "fusion_lat": 0.0, "type": "electric_scooter"}, {"fusion_lon": 0.0, "name": "8c65bb2e1c85fc62e70b9eaec76e6f29", "rental_uris": {"android": "https://dc.lft.to/lastmile_qr_scan", "ios": "https://dc.lft.to/lastmile_qr_scan"}, "lat": 38.90439966666667, "bike_id": "8c65bb2e1c85fc62e70b9eaec76e6f29", "is_disabled": 0, "lon": -77.053391, "is_reserved": 0, "fusion_lat": 0.0, "type": "electric_scooter"}, {"fusion_lon": 0.0, "name": "ff606bbd2db12a9badc51ffcead9ccb5", "rental_uris": {"android": "https://dc.lft.to/lastmile_qr_scan", "ios": "https://dc.lft.to/lastmile_qr_scan"}, "lat": 38.98730666666667, "bike_id": "ff606bbd2db12a9badc51ffcead9ccb5", "is_disabled": 0, "lon": -77.009259, "is_reserved": 0, "fusion_lat": 0.0, "type": "electric_bike"}, {"fusion_lon": 0.0, "name": "13bc8156933f2f8927114c9ded81c810", "rental_uris": {"android": "https://dc.lft.to/lastmile_qr_scan", "ios": "https://dc.lft.to/lastmile_qr_scan"}, "lat": 38.928907, "bike_id": "13bc8156933f2f8927114c9ded81c810", "is_disabled": 0, "lon": -77.034784, "is_reserved": 0, "fusion_lat": 0.0, "type": "electric_scooter"}, {"fusion_lon": 0.0, "name": "2ceaeb4f01c356ea9d505a0f7a81548c", "rental_uris": {"android": "https://dc.lft.to/lastmile_qr_scan", "ios": "https://dc.lft.to/lastmile_qr_scan"}, "lat": 38.899006666666665, "bike_id": "2ceaeb4f01c356ea9d505a0f7a81548c", "is_disabled": 0, "lon": -76.933871, "is_reserved": 0, "fusion_lat": 0.0, "type": "electric_scooter"}, {"fusion_lon": 0.0, "name": "316ead46f2c0d986d487b1114204ed35", "rental_uris": {"android": "https://dc.lft.to/lastmile_qr_scan", "ios": "https://dc.lft.to/lastmile_qr_scan"}, "lat": 38.933517333333334, "bike_id": "316ead46f2c0d986d487b1114204ed35", "is_disabled": 0, "lon": -77.08586883333334, "is_reserved": 0, "fusion_lat": 0.0, "type": "electric_scooter"}, {"fusion_lon": 0.0, "name": "6da5cd98f5bc7bb2c949a16181d9cdeb", "rental_uris": {"android": "https://dc.lft.to/lastmile_qr_scan", "ios": "https://dc.lft.to/lastmile_qr_scan"}, "lat": 38.917051, "bike_id": "6da5cd98f5bc7bb2c949a16181d9cdeb", "is_disabled": 0, "lon": -77.04148466666666, "is_reserved": 0, "fusion_lat": 0.0, "type": "electric_scooter"}, {"fusion_lon": 0.0, "name": "30435741efb3f88b19280d78ceca53e1", "rental_uris": {"android": "https://dc.lft.to/lastmile_qr_scan", "ios": "https://dc.lft.to/lastmile_qr_scan"}, "lat": 38.90576683333333, "bike_id": "30435741efb3f88b19280d78ceca53e1", "is_disabled": 0, "lon": -77.00708583333333, "is_reserved": 0, "fusion_lat": 0.0, "type": "electric_scooter"}, {"fusion_lon": 0.0, "name": "14ca7f55cfcf1ef2b418aa8d35f7b955", "rental_uris": {"android": "https://dc.lft.to/lastmile_qr_scan", "ios": "https://dc.lft.to/lastmile_qr_scan"}, "lat": 38.909242166666665, "bike_id": "14ca7f55cfcf1ef2b418aa8d35f7b955", "is_disabled": 0, "lon": -77.0442885, "is_reserved": 0, "fusion_lat": 0.0, "type": "electric_scooter"}, {"fusion_lon": 0.0, "name": "b68c663fdf485db456e6b2d09c0d2dc8", "rental_uris": {"android": "https://dc.lft.to/lastmile_qr_scan", "ios": "https://dc.lft.to/lastmile_qr_scan"}, "lat": 38.91184166666667, "bike_id": "b68c663fdf485db456e6b2d09c0d2dc8", "is_disabled": 0, "lon": -77.00966816666667, "is_reserved": 0, "fusion_lat": 0.0, "type": "electric_scooter"}, {"fusion_lon": 0.0, "name": "6e47ea617b31abbd619213d8099a57ba", "rental_uris": {"android": "https://dc.lft.to/lastmile_qr_scan", "ios": "https://dc.lft.to/lastmile_qr_scan"}, "lat": 38.92968066666667, "bike_id": "6e47ea617b31abbd619213d8099a57ba", "is_disabled": 0, "lon": -77.0279015, "is_reserved": 0, "fusion_lat": 0.0, "type": "electric_scooter"}, {"fusion_lon": 0.0, "name": "0849ca5f01c3f1b4657c2f71333f8a0d", "rental_uris": {"android": "https://dc.lft.to/lastmile_qr_scan", "ios": "https://dc.lft.to/lastmile_qr_scan"}, "lat": 38.92323566666666, "bike_id": "0849ca5f01c3f1b4657c2f71333f8a0d", "is_disabled": 0, "lon": -77.01954966666666, "is_reserved": 0, "fusion_lat": 0.0, "type": "electric_scooter"}, {"fusion_lon": 0.0, "name": "c5833a4c3cc52e94da67100b6f9b4eec", "rental_uris": {"android": "https://dc.lft.to/lastmile_qr_scan", "ios": "https://dc.lft.to/lastmile_qr_scan"}, "lat": 38.91679233333333, "bike_id": "c5833a4c3cc52e94da67100b6f9b4eec", "is_disabled": 0, "lon": -77.0239825, "is_reserved": 0, "fusion_lat": 0.0, "type": "electric_scooter"}, {"fusion_lon": 0.0, "name": "1fe6155626b99860a9c456ffee406a16", "rental_uris": {"android": "https://dc.lft.to/lastmile_qr_scan", "ios": "https://dc.lft.to/lastmile_qr_scan"}, "lat": 38.901384666666665, "bike_id": "1fe6155626b99860a9c456ffee406a16", "is_disabled": 0, "lon": -77.04438283333333, "is_reserved": 0, "fusion_lat": 0.0, "type": "electric_scooter"}, {"fusion_lon": 0.0, "name": "d2830be0183e00ec387fc3dcf0d7181f", "rental_uris": {"android": "https://dc.lft.to/lastmile_qr_scan", "ios": "https://dc.lft.to/lastmile_qr_scan"}, "lat": 38.914015166666665, "bike_id": "d2830be0183e00ec387fc3dcf0d7181f", "is_disabled": 0, "lon": -77.03250816666667, "is_reserved": 0, "fusion_lat": 0.0, "type": "electric_scooter"}, {"fusion_lon": 0.0, "name": "15b126d59a4c68dab92d1b19502a598e", "rental_uris": {"android": "https://dc.lft.to/lastmile_qr_scan", "ios": "https://dc.lft.to/lastmile_qr_scan"}, "lat": 38.905370166666664, "bike_id": "15b126d59a4c68dab92d1b19502a598e", "is_disabled": 0, "lon": -77.05908266666667, "is_reserved": 0, "fusion_lat": 0.0, "type": "electric_scooter"}, {"fusion_lon": 0.0, "name": "c8763f1d7daaa186ad687c73384716e4", "rental_uris": {"android": "https://dc.lft.to/lastmile_qr_scan", "ios": "https://dc.lft.to/lastmile_qr_scan"}, "lat": 38.924652, "bike_id": "c8763f1d7daaa186ad687c73384716e4", "is_disabled": 0, "lon": -77.02206216666667, "is_reserved": 0, "fusion_lat": 0.0, "type": "electric_scooter"}, {"fusion_lon": 0.0, "name": "b5ba4df702c1b7833ab170f811e78e39", "rental_uris": {"android": "https://dc.lft.to/lastmile_qr_scan", "ios": "https://dc.lft.to/lastmile_qr_scan"}, "lat": 38.8954475, "bike_id": "b5ba4df702c1b7833ab170f811e78e39", "is_disabled": 0, "lon": -76.92662116666666, "is_reserved": 0, "fusion_lat": 0.0, "type": "electric_scooter"}, {"fusion_lon": 0.0, "name": "548e7869df58f89a1f5df5f9f0941064", "rental_uris": {"android": "https://dc.lft.to/lastmile_qr_scan", "ios": "https://dc.lft.to/lastmile_qr_scan"}, "lat": 38.922962166666665, "bike_id": "548e7869df58f89a1f5df5f9f0941064", "is_disabled": 0, "lon": -77.04139666666667, "is_reserved": 0, "fusion_lat": 0.0, "type": "electric_scooter"}, {"fusion_lon": 0.0, "name": "e4e8f74d510b2b078eab1592fa1c9261", "rental_uris": {"android": "https://dc.lft.to/lastmile_qr_scan", "ios": "https://dc.lft.to/lastmile_qr_scan"}, "lat": 38.89777016666667, "bike_id": "e4e8f74d510b2b078eab1592fa1c9261", "is_disabled": 0, "lon": -77.01218166666666, "is_reserved": 0, "fusion_lat": 0.0, "type": "electric_scooter"}, {"fusion_lon": 0.0, "name": "56a80562baa84dd536c7a2c8aed0095e", "rental_uris": {"android": "https://dc.lft.to/lastmile_qr_scan", "ios": "https://dc.lft.to/lastmile_qr_scan"}, "lat": 38.916822, "bike_id": "56a80562baa84dd536c7a2c8aed0095e", "is_disabled": 0, "lon": -77.0271395, "is_reserved": 0, "fusion_lat": 0.0, "type": "electric_scooter"}, {"fusion_lon": 0.0, "name": "478128d2fc18920a51600a4b176afeff", "rental_uris": {"android": "https://dc.lft.to/lastmile_qr_scan", "ios": "https://dc.lft.to/lastmile_qr_scan"}, "lat": 38.89749, "bike_id": "478128d2fc18920a51600a4b176afeff", "is_disabled": 0, "lon": -77.02547083333333, "is_reserved": 0, "fusion_lat": 0.0, "type": "electric_scooter"}, {"fusion_lon": 0.0, "name": "abc705738368022a616cb99bf0dcb442", "rental_uris": {"android": "https://dc.lft.to/lastmile_qr_scan", "ios": "https://dc.lft.to/lastmile_qr_scan"}, "lat": 38.8806215, "bike_id": "abc705738368022a616cb99bf0dcb442", "is_disabled": 0, "lon": -77.00528683333333, "is_reserved": 0, "fusion_lat": 0.0, "type": "electric_scooter"}, {"fusion_lon": 0.0, "name": "58d5d3dcf901fc8a7944104c050ce864", "rental_uris": {"android": "https://dc.lft.to/lastmile_qr_scan", "ios": "https://dc.lft.to/lastmile_qr_scan"}, "lat": 38.921959, "bike_id": "58d5d3dcf901fc8a7944104c050ce864", "is_disabled": 0, "lon": -76.98366483333334, "is_reserved": 0, "fusion_lat": 0.0, "type": "electric_scooter"}, {"fusion_lon": 0.0, "name": "ab4f42e884f0ba4b049d215dd2abb6da", "rental_uris": {"android": "https://dc.lft.to/lastmile_qr_scan", "ios": "https://dc.lft.to/lastmile_qr_scan"}, "lat": 38.89943866666667, "bike_id": "ab4f42e884f0ba4b049d215dd2abb6da", "is_disabled": 0, "lon": -77.04510383333333, "is_reserved": 0, "fusion_lat": 0.0, "type": "electric_scooter"}, {"fusion_lon": 0.0, "name": "3d974ab116ae9075b98afdab9497d218", "rental_uris": {"android": "https://dc.lft.to/lastmile_qr_scan", "ios": "https://dc.lft.to/lastmile_qr_scan"}, "lat": 38.9060685, "bike_id": "3d974ab116ae9075b98afdab9497d218", "is_disabled": 0, "lon": -77.02389366666667, "is_reserved": 0, "fusion_lat": 0.0, "type": "electric_scooter"}, {"fusion_lon": 0.0, "name": "e910b885e2cc17f296bb566a877fd13e", "rental_uris": {"android": "https://dc.lft.to/lastmile_qr_scan", "ios": "https://dc.lft.to/lastmile_qr_scan"}, "lat": 38.87339333333333, "bike_id": "e910b885e2cc17f296bb566a877fd13e", "is_disabled": 0, "lon": -76.99165583333334, "is_reserved": 0, "fusion_lat": 0.0, "type": "electric_scooter"}, {"fusion_lon": 0.0, "name": "0b5aaae58c7ff1f3337c6aae78e113bb", "rental_uris": {"android": "https://dc.lft.to/lastmile_qr_scan", "ios": "https://dc.lft.to/lastmile_qr_scan"}, "lat": 38.9055675, "bike_id": "0b5aaae58c7ff1f3337c6aae78e113bb", "is_disabled": 0, "lon": -77.00213283333333, "is_reserved": 0, "fusion_lat": 0.0, "type": "electric_scooter"}, {"fusion_lon": 0.0, "name": "d0bb84288e7e615ff9a7b1abaa42cd89", "rental_uris": {"android": "https://dc.lft.to/lastmile_qr_scan", "ios": "https://dc.lft.to/lastmile_qr_scan"}, "lat": 38.959339166666666, "bike_id": "d0bb84288e7e615ff9a7b1abaa42cd89", "is_disabled": 0, "lon": -77.031133, "is_reserved": 0, "fusion_lat": 0.0, "type": "electric_scooter"}, {"fusion_lon": 0.0, "name": "925bf67863fc1286807d850f2d3c4f84", "rental_uris": {"android": "https://dc.lft.to/lastmile_qr_scan", "ios": "https://dc.lft.to/lastmile_qr_scan"}, "lat": 38.900770666666666, "bike_id": "925bf67863fc1286807d850f2d3c4f84", "is_disabled": 0, "lon": -77.0491745, "is_reserved": 0, "fusion_lat": 0.0, "type": "electric_scooter"}, {"fusion_lon": 0.0, "name": "bd817c03424f22e071bdc28ca145ae2d", "rental_uris": {"android": "https://dc.lft.to/lastmile_qr_scan", "ios": "https://dc.lft.to/lastmile_qr_scan"}, "lat": 38.908046, "bike_id": "bd817c03424f22e071bdc28ca145ae2d", "is_disabled": 0, "lon": -77.08398416666667, "is_reserved": 0, "fusion_lat": 0.0, "type": "electric_scooter"}, {"fusion_lon": 0.0, "name": "f69dde9244a0a7038481ca35ff9fac30", "rental_uris": {"android": "https://dc.lft.to/lastmile_qr_scan", "ios": "https://dc.lft.to/lastmile_qr_scan"}, "lat": 38.908603, "bike_id": "f69dde9244a0a7038481ca35ff9fac30", "is_disabled": 0, "lon": -77.0807245, "is_reserved": 0, "fusion_lat": 0.0, "type": "electric_bike"}, {"fusion_lon": 0.0, "name": "cbd50bd5b0300edd36668db266af4736", "rental_uris": {"android": "https://dc.lft.to/lastmile_qr_scan", "ios": "https://dc.lft.to/lastmile_qr_scan"}, "lat": 38.897333333333336, "bike_id": "cbd50bd5b0300edd36668db266af4736", "is_disabled": 0, "lon": -77.03151683333333, "is_reserved": 0, "fusion_lat": 0.0, "type": "electric_scooter"}, {"fusion_lon": 0.0, "name": "41683a6eb5d05b6cbf95a845eb7bf51c", "rental_uris": {"android": "https://dc.lft.to/lastmile_qr_scan", "ios": "https://dc.lft.to/lastmile_qr_scan"}, "lat": 38.924239166666666, "bike_id": "41683a6eb5d05b6cbf95a845eb7bf51c", "is_disabled": 0, "lon": -77.019622, "is_reserved": 0, "fusion_lat": 0.0, "type": "electric_scooter"}, {"fusion_lon": 0.0, "name": "80ee79a91d6defb9e7aa6a13ab9f1d35", "rental_uris": {"android": "https://dc.lft.to/lastmile_qr_scan", "ios": "https://dc.lft.to/lastmile_qr_scan"}, "lat": 38.92346933333334, "bike_id": "80ee79a91d6defb9e7aa6a13ab9f1d35", "is_disabled": 0, "lon": -77.0211185, "is_reserved": 0, "fusion_lat": 0.0, "type": "electric_scooter"}, {"fusion_lon": 0.0, "name": "d30b0725f1ba202fe8725db212ae0ca1", "rental_uris": {"android": "https://dc.lft.to/lastmile_qr_scan", "ios": "https://dc.lft.to/lastmile_qr_scan"}, "lat": 38.9725665, "bike_id": "d30b0725f1ba202fe8725db212ae0ca1", "is_disabled": 0, "lon": -76.99275483333334, "is_reserved": 0, "fusion_lat": 0.0, "type": "electric_bike"}, {"fusion_lon": 0.0, "name": "1e42a75c89cb5cb0857d9afba9300a92", "rental_uris": {"android": "https://dc.lft.to/lastmile_qr_scan", "ios": "https://dc.lft.to/lastmile_qr_scan"}, "lat": 38.924302, "bike_id": "1e42a75c89cb5cb0857d9afba9300a92", "is_disabled": 0, "lon": -77.021308, "is_reserved": 0, "fusion_lat": 0.0, "type": "electric_scooter"}, {"fusion_lon": 0.0, "name": "99ca311ed04e632f5b75b17e61fac02e", "rental_uris": {"android": "https://dc.lft.to/lastmile_qr_scan", "ios": "https://dc.lft.to/lastmile_qr_scan"}, "lat": 38.879219, "bike_id": "99ca311ed04e632f5b75b17e61fac02e", "is_disabled": 0, "lon": -77.02353766666667, "is_reserved": 0, "fusion_lat": 0.0, "type": "electric_bike"}, {"fusion_lon": 0.0, "name": "02656340cb4805bf691f303a5b91f9cf", "rental_uris": {"android": "https://dc.lft.to/lastmile_qr_scan", "ios": "https://dc.lft.to/lastmile_qr_scan"}, "lat": 38.8938365, "bike_id": "02656340cb4805bf691f303a5b91f9cf", "is_disabled": 0, "lon": -77.022519, "is_reserved": 0, "fusion_lat": 0.0, "type": "electric_scooter"}, {"fusion_lon": 0.0, "name": "a460ac533cdc6d0c8508f9e9cc7087b0", "rental_uris": {"android": "https://dc.lft.to/lastmile_qr_scan", "ios": "https://dc.lft.to/lastmile_qr_scan"}, "lat": 38.913587, "bike_id": "a460ac533cdc6d0c8508f9e9cc7087b0", "is_disabled": 0, "lon": -77.045657, "is_reserved": 0, "fusion_lat": 0.0, "type": "electric_scooter"}, {"fusion_lon": 0.0, "name": "81689458a44f68cbe55391b22bae30e2", "rental_uris": {"android": "https://dc.lft.to/lastmile_qr_scan", "ios": "https://dc.lft.to/lastmile_qr_scan"}, "lat": 38.92494266666667, "bike_id": "81689458a44f68cbe55391b22bae30e2", "is_disabled": 0, "lon": -77.04128333333334, "is_reserved": 0, "fusion_lat": 0.0, "type": "electric_scooter"}, {"fusion_lon": 0.0, "name": "413c3ec173d45668fe0dc90758957bce", "rental_uris": {"android": "https://dc.lft.to/lastmile_qr_scan", "ios": "https://dc.lft.to/lastmile_qr_scan"}, "lat": 38.94107833333333, "bike_id": "413c3ec173d45668fe0dc90758957bce", "is_disabled": 0, "lon": -77.06139266666666, "is_reserved": 0, "fusion_lat": 0.0, "type": "electric_scooter"}, {"fusion_lon": 0.0, "name": "fa07a8c3d4e08361c349a3a307862ce7", "rental_uris": {"android": "https://dc.lft.to/lastmile_qr_scan", "ios": "https://dc.lft.to/lastmile_qr_scan"}, "lat": 38.90348616666667, "bike_id": "fa07a8c3d4e08361c349a3a307862ce7", "is_disabled": 0, "lon": -77.01608716666667, "is_reserved": 0, "fusion_lat": 0.0, "type": "electric_scooter"}, {"fusion_lon": 0.0, "name": "92f087c01dc0bf253e36b34906dc109f", "rental_uris": {"android": "https://dc.lft.to/lastmile_qr_scan", "ios": "https://dc.lft.to/lastmile_qr_scan"}, "lat": 38.927874833333334, "bike_id": "92f087c01dc0bf253e36b34906dc109f", "is_disabled": 0, "lon": -77.03080816666667, "is_reserved": 0, "fusion_lat": 0.0, "type": "electric_scooter"}, {"fusion_lon": 0.0, "name": "d72ccc77bf815efc9274ab861c5c2efd", "rental_uris": {"android": "https://dc.lft.to/lastmile_qr_scan", "ios": "https://dc.lft.to/lastmile_qr_scan"}, "lat": 38.90895616666667, "bike_id": "d72ccc77bf815efc9274ab861c5c2efd", "is_disabled": 0, "lon": -77.07276833333333, "is_reserved": 0, "fusion_lat": 0.0, "type": "electric_scooter"}, {"fusion_lon": 0.0, "name": "e32135073ccfc18a58264438afdb26c9", "rental_uris": {"android": "https://dc.lft.to/lastmile_qr_scan", "ios": "https://dc.lft.to/lastmile_qr_scan"}, "lat": 38.93369, "bike_id": "e32135073ccfc18a58264438afdb26c9", "is_disabled": 0, "lon": -77.02733616666667, "is_reserved": 0, "fusion_lat": 0.0, "type": "electric_scooter"}, {"fusion_lon": 0.0, "name": "583282ebfee706a4ef8127e331806be0", "rental_uris": {"android": "https://dc.lft.to/lastmile_qr_scan", "ios": "https://dc.lft.to/lastmile_qr_scan"}, "lat": 38.92852766666667, "bike_id": "583282ebfee706a4ef8127e331806be0", "is_disabled": 0, "lon": -77.054385, "is_reserved": 0, "fusion_lat": 0.0, "type": "electric_scooter"}, {"fusion_lon": 0.0, "name": "129be136eaec54b2a3c6f346ec783970", "rental_uris": {"android": "https://dc.lft.to/lastmile_qr_scan", "ios": "https://dc.lft.to/lastmile_qr_scan"}, "lat": 38.915629333333335, "bike_id": "129be136eaec54b2a3c6f346ec783970", "is_disabled": 0, "lon": -77.00724483333333, "is_reserved": 0, "fusion_lat": 0.0, "type": "electric_scooter"}, {"fusion_lon": 0.0, "name": "df11d41e76548cace3128c53d79ecc16", "rental_uris": {"android": "https://dc.lft.to/lastmile_qr_scan", "ios": "https://dc.lft.to/lastmile_qr_scan"}, "lat": 38.91417533333333, "bike_id": "df11d41e76548cace3128c53d79ecc16", "is_disabled": 0, "lon": -77.0407165, "is_reserved": 0, "fusion_lat": 0.0, "type": "electric_scooter"}, {"fusion_lon": 0.0, "name": "413a3f6cbe32a80e40dd9345f92f96df", "rental_uris": {"android": "https://dc.lft.to/lastmile_qr_scan", "ios": "https://dc.lft.to/lastmile_qr_scan"}, "lat": 38.95026416666666, "bike_id": "413a3f6cbe32a80e40dd9345f92f96df", "is_disabled": 0, "lon": -76.97099466666667, "is_reserved": 0, "fusion_lat": 0.0, "type": "electric_bike"}, {"fusion_lon": 0.0, "name": "e1c0c04fc7f6fba514e657277821c5fd", "rental_uris": {"android": "https://dc.lft.to/lastmile_qr_scan", "ios": "https://dc.lft.to/lastmile_qr_scan"}, "lat": 38.901269166666665, "bike_id": "e1c0c04fc7f6fba514e657277821c5fd", "is_disabled": 0, "lon": -76.9904165, "is_reserved": 0, "fusion_lat": 0.0, "type": "electric_scooter"}, {"fusion_lon": 0.0, "name": "050b1c989ff3bc8eef158a9788414987", "rental_uris": {"android": "https://dc.lft.to/lastmile_qr_scan", "ios": "https://dc.lft.to/lastmile_qr_scan"}, "lat": 38.9166975, "bike_id": "050b1c989ff3bc8eef158a9788414987", "is_disabled": 0, "lon": -77.0384015, "is_reserved": 0, "fusion_lat": 0.0, "type": "electric_scooter"}, {"fusion_lon": 0.0, "name": "c02fcedcc40f0fd5d60e04cab0a21960", "rental_uris": {"android": "https://dc.lft.to/lastmile_qr_scan", "ios": "https://dc.lft.to/lastmile_qr_scan"}, "lat": 38.93285633333333, "bike_id": "c02fcedcc40f0fd5d60e04cab0a21960", "is_disabled": 0, "lon": -77.0399635, "is_reserved": 0, "fusion_lat": 0.0, "type": "electric_scooter"}, {"fusion_lon": 0.0, "name": "e129b266cf28b70f474ad16edb49c32a", "rental_uris": {"android": "https://dc.lft.to/lastmile_qr_scan", "ios": "https://dc.lft.to/lastmile_qr_scan"}, "lat": 38.8846755, "bike_id": "e129b266cf28b70f474ad16edb49c32a", "is_disabled": 0, "lon": -76.926023, "is_reserved": 0, "fusion_lat": 0.0, "type": "electric_scooter"}, {"fusion_lon": 0.0, "name": "dc4fad61f8ab3d2a0b84bc35cc1df56e", "rental_uris": {"android": "https://dc.lft.to/lastmile_qr_scan", "ios": "https://dc.lft.to/lastmile_qr_scan"}, "lat": 38.89216716666667, "bike_id": "dc4fad61f8ab3d2a0b84bc35cc1df56e", "is_disabled": 0, "lon": -77.02165116666667, "is_reserved": 0, "fusion_lat": 0.0, "type": "electric_scooter"}, {"fusion_lon": 0.0, "name": "4cbe88dee258019d7a1b21b898bf3984", "rental_uris": {"android": "https://dc.lft.to/lastmile_qr_scan", "ios": "https://dc.lft.to/lastmile_qr_scan"}, "lat": 38.911085166666666, "bike_id": "4cbe88dee258019d7a1b21b898bf3984", "is_disabled": 0, "lon": -77.003582, "is_reserved": 0, "fusion_lat": 0.0, "type": "electric_scooter"}, {"fusion_lon": 0.0, "name": "d2c06f9b44dce4dff50a91e881c41322", "rental_uris": {"android": "https://dc.lft.to/lastmile_qr_scan", "ios": "https://dc.lft.to/lastmile_qr_scan"}, "lat": 38.93589466666667, "bike_id": "d2c06f9b44dce4dff50a91e881c41322", "is_disabled": 0, "lon": -77.058418, "is_reserved": 0, "fusion_lat": 0.0, "type": "electric_scooter"}, {"fusion_lon": 0.0, "name": "d4cc5331cce31e8f6248dff6c23f6417", "rental_uris": {"android": "https://dc.lft.to/lastmile_qr_scan", "ios": "https://dc.lft.to/lastmile_qr_scan"}, "lat": 38.92829583333334, "bike_id": "d4cc5331cce31e8f6248dff6c23f6417", "is_disabled": 0, "lon": -77.02330466666666, "is_reserved": 0, "fusion_lat": 0.0, "type": "electric_scooter"}, {"fusion_lon": 0.0, "name": "06159c9f326ab7d9b39d6ee996f7b405", "rental_uris": {"android": "https://dc.lft.to/lastmile_qr_scan", "ios": "https://dc.lft.to/lastmile_qr_scan"}, "lat": 38.9016415, "bike_id": "06159c9f326ab7d9b39d6ee996f7b405", "is_disabled": 0, "lon": -76.949743, "is_reserved": 0, "fusion_lat": 0.0, "type": "electric_scooter"}, {"fusion_lon": 0.0, "name": "fc86897ce8a3ed3dc43784e6e8a5ff37", "rental_uris": {"android": "https://dc.lft.to/lastmile_qr_scan", "ios": "https://dc.lft.to/lastmile_qr_scan"}, "lat": 38.916801666666665, "bike_id": "fc86897ce8a3ed3dc43784e6e8a5ff37", "is_disabled": 0, "lon": -77.0280805, "is_reserved": 0, "fusion_lat": 0.0, "type": "electric_scooter"}, {"fusion_lon": 0.0, "name": "60012336080949246e60f207c6734f06", "rental_uris": {"android": "https://dc.lft.to/lastmile_qr_scan", "ios": "https://dc.lft.to/lastmile_qr_scan"}, "lat": 38.92209533333333, "bike_id": "60012336080949246e60f207c6734f06", "is_disabled": 0, "lon": -77.0265465, "is_reserved": 0, "fusion_lat": 0.0, "type": "electric_scooter"}, {"fusion_lon": 0.0, "name": "b96aa5013db949005a46a57586f80e00", "rental_uris": {"android": "https://dc.lft.to/lastmile_qr_scan", "ios": "https://dc.lft.to/lastmile_qr_scan"}, "lat": 38.92112066666667, "bike_id": "b96aa5013db949005a46a57586f80e00", "is_disabled": 0, "lon": -77.0439005, "is_reserved": 0, "fusion_lat": 0.0, "type": "electric_scooter"}, {"fusion_lon": 0.0, "name": "bb6f6d3162e3f9a399d356a736d7ab78", "rental_uris": {"android": "https://dc.lft.to/lastmile_qr_scan", "ios": "https://dc.lft.to/lastmile_qr_scan"}, "lat": 38.9023465, "bike_id": "bb6f6d3162e3f9a399d356a736d7ab78", "is_disabled": 0, "lon": -77.046166, "is_reserved": 0, "fusion_lat": 0.0, "type": "electric_scooter"}, {"fusion_lon": 0.0, "name": "f8f44b8b4433ba48fd655a6aeae5b45d", "rental_uris": {"android": "https://dc.lft.to/lastmile_qr_scan", "ios": "https://dc.lft.to/lastmile_qr_scan"}, "lat": 38.92653583333333, "bike_id": "f8f44b8b4433ba48fd655a6aeae5b45d", "is_disabled": 0, "lon": -77.09021166666666, "is_reserved": 0, "fusion_lat": 0.0, "type": "electric_bike"}, {"fusion_lon": 0.0, "name": "76f8df5636198883000aab8942ab7dbb", "rental_uris": {"android": "https://dc.lft.to/lastmile_qr_scan", "ios": "https://dc.lft.to/lastmile_qr_scan"}, "lat": 38.901861333333336, "bike_id": "76f8df5636198883000aab8942ab7dbb", "is_disabled": 0, "lon": -77.01246583333334, "is_reserved": 0, "fusion_lat": 0.0, "type": "electric_scooter"}, {"fusion_lon": 0.0, "name": "a98064f7f6579fc7ef10a499fb3e3cc9", "rental_uris": {"android": "https://dc.lft.to/lastmile_qr_scan", "ios": "https://dc.lft.to/lastmile_qr_scan"}, "lat": 38.9151645, "bike_id": "a98064f7f6579fc7ef10a499fb3e3cc9", "is_disabled": 0, "lon": -77.0197385, "is_reserved": 0, "fusion_lat": 0.0, "type": "electric_scooter"}, {"fusion_lon": 0.0, "name": "780c74260746b5382e7f04cf3bfb45fc", "rental_uris": {"android": "https://dc.lft.to/lastmile_qr_scan", "ios": "https://dc.lft.to/lastmile_qr_scan"}, "lat": 38.9313855, "bike_id": "780c74260746b5382e7f04cf3bfb45fc", "is_disabled": 0, "lon": -77.05695383333334, "is_reserved": 0, "fusion_lat": 0.0, "type": "electric_scooter"}, {"fusion_lon": 0.0, "name": "14e77e2e47451e5eb0f447c82f54347a", "rental_uris": {"android": "https://dc.lft.to/lastmile_qr_scan", "ios": "https://dc.lft.to/lastmile_qr_scan"}, "lat": 38.908040666666665, "bike_id": "14e77e2e47451e5eb0f447c82f54347a", "is_disabled": 0, "lon": -76.98787183333333, "is_reserved": 0, "fusion_lat": 0.0, "type": "electric_scooter"}, {"fusion_lon": 0.0, "name": "c7420e0638ed9bc2e362a7e47a8e5d52", "rental_uris": {"android": "https://dc.lft.to/lastmile_qr_scan", "ios": "https://dc.lft.to/lastmile_qr_scan"}, "lat": 38.9234575, "bike_id": "c7420e0638ed9bc2e362a7e47a8e5d52", "is_disabled": 0, "lon": -77.0341555, "is_reserved": 0, "fusion_lat": 0.0, "type": "electric_scooter"}, {"fusion_lon": 0.0, "name": "24ae855f4dfea73c89c0f012d8a29d86", "rental_uris": {"android": "https://dc.lft.to/lastmile_qr_scan", "ios": "https://dc.lft.to/lastmile_qr_scan"}, "lat": 38.8837785, "bike_id": "24ae855f4dfea73c89c0f012d8a29d86", "is_disabled": 0, "lon": -77.01360833333334, "is_reserved": 0, "fusion_lat": 0.0, "type": "electric_scooter"}, {"fusion_lon": 0.0, "name": "4c8b594cc7a9ca3697b21e8a1eb90ea6", "rental_uris": {"android": "https://dc.lft.to/lastmile_qr_scan", "ios": "https://dc.lft.to/lastmile_qr_scan"}, "lat": 38.938931833333335, "bike_id": "4c8b594cc7a9ca3697b21e8a1eb90ea6", "is_disabled": 0, "lon": -77.01767416666667, "is_reserved": 0, "fusion_lat": 0.0, "type": "electric_scooter"}, {"fusion_lon": 0.0, "name": "4460e43bc90d4327052466ae75188edd", "rental_uris": {"android": "https://dc.lft.to/lastmile_qr_scan", "ios": "https://dc.lft.to/lastmile_qr_scan"}, "lat": 38.960263, "bike_id": "4460e43bc90d4327052466ae75188edd", "is_disabled": 0, "lon": -77.02425233333334, "is_reserved": 0, "fusion_lat": 0.0, "type": "electric_scooter"}, {"fusion_lon": 0.0, "name": "73fd2fcd5bb781ae24c68e9ead99939d", "rental_uris": {"android": "https://dc.lft.to/lastmile_qr_scan", "ios": "https://dc.lft.to/lastmile_qr_scan"}, "lat": 38.888206333333336, "bike_id": "73fd2fcd5bb781ae24c68e9ead99939d", "is_disabled": 0, "lon": -76.977039, "is_reserved": 0, "fusion_lat": 0.0, "type": "electric_scooter"}, {"fusion_lon": 0.0, "name": "03b8a2e8c2477758a6642ae4cfa2342d", "rental_uris": {"android": "https://dc.lft.to/lastmile_qr_scan", "ios": "https://dc.lft.to/lastmile_qr_scan"}, "lat": 38.949863666666666, "bike_id": "03b8a2e8c2477758a6642ae4cfa2342d", "is_disabled": 0, "lon": -77.06668183333333, "is_reserved": 0, "fusion_lat": 0.0, "type": "electric_scooter"}, {"fusion_lon": 0.0, "name": "264bdc4cf246e5df591d98cee702df35", "rental_uris": {"android": "https://dc.lft.to/lastmile_qr_scan", "ios": "https://dc.lft.to/lastmile_qr_scan"}, "lat": 38.906643833333334, "bike_id": "264bdc4cf246e5df591d98cee702df35", "is_disabled": 0, "lon": -77.027099, "is_reserved": 0, "fusion_lat": 0.0, "type": "electric_scooter"}, {"fusion_lon": 0.0, "name": "c0dbd68296d53fe3185c074c473883d0", "rental_uris": {"android": "https://dc.lft.to/lastmile_qr_scan", "ios": "https://dc.lft.to/lastmile_qr_scan"}, "lat": 38.855731166666665, "bike_id": "c0dbd68296d53fe3185c074c473883d0", "is_disabled": 0, "lon": -76.97408333333334, "is_reserved": 0, "fusion_lat": 0.0, "type": "electric_bike"}, {"fusion_lon": 0.0, "name": "19ab48f96f8c1b15dc8735ccce24e20c", "rental_uris": {"android": "https://dc.lft.to/lastmile_qr_scan", "ios": "https://dc.lft.to/lastmile_qr_scan"}, "lat": 38.8821185, "bike_id": "19ab48f96f8c1b15dc8735ccce24e20c", "is_disabled": 0, "lon": -77.02855216666667, "is_reserved": 0, "fusion_lat": 0.0, "type": "electric_scooter"}, {"fusion_lon": 0.0, "name": "e70a56e8ed26096da029da8ee1deb213", "rental_uris": {"android": "https://dc.lft.to/lastmile_qr_scan", "ios": "https://dc.lft.to/lastmile_qr_scan"}, "lat": 38.930258333333335, "bike_id": "e70a56e8ed26096da029da8ee1deb213", "is_disabled": 0, "lon": -77.05549633333334, "is_reserved": 0, "fusion_lat": 0.0, "type": "electric_scooter"}, {"fusion_lon": 0.0, "name": "e03835e0a5cc4db5309c6a45f8695351", "rental_uris": {"android": "https://dc.lft.to/lastmile_qr_scan", "ios": "https://dc.lft.to/lastmile_qr_scan"}, "lat": 38.91331533333334, "bike_id": "e03835e0a5cc4db5309c6a45f8695351", "is_disabled": 0, "lon": -77.03990966666667, "is_reserved": 0, "fusion_lat": 0.0, "type": "electric_scooter"}, {"fusion_lon": 0.0, "name": "f23a2757da318964b8673c75a9123a65", "rental_uris": {"android": "https://dc.lft.to/lastmile_qr_scan", "ios": "https://dc.lft.to/lastmile_qr_scan"}, "lat": 38.8065585, "bike_id": "f23a2757da318964b8673c75a9123a65", "is_disabled": 0, "lon": -77.08766033333333, "is_reserved": 0, "fusion_lat": 0.0, "type": "electric_bike"}, {"fusion_lon": 0.0, "name": "8970cf2dfdbef52868a672b7051e28fa", "rental_uris": {"android": "https://dc.lft.to/lastmile_qr_scan", "ios": "https://dc.lft.to/lastmile_qr_scan"}, "lat": 38.87575533333333, "bike_id": "8970cf2dfdbef52868a672b7051e28fa", "is_disabled": 0, "lon": -77.01262633333333, "is_reserved": 0, "fusion_lat": 0.0, "type": "electric_bike"}, {"fusion_lon": 0.0, "name": "63f2a7bf98eb5e0d75f8fb89cdc9c628", "rental_uris": {"android": "https://dc.lft.to/lastmile_qr_scan", "ios": "https://dc.lft.to/lastmile_qr_scan"}, "lat": 38.89221283333333, "bike_id": "63f2a7bf98eb5e0d75f8fb89cdc9c628", "is_disabled": 0, "lon": -77.04466166666667, "is_reserved": 0, "fusion_lat": 0.0, "type": "electric_scooter"}, {"fusion_lon": 0.0, "name": "9c2e4e55357701ea0609d1ab7972862a", "rental_uris": {"android": "https://dc.lft.to/lastmile_qr_scan", "ios": "https://dc.lft.to/lastmile_qr_scan"}, "lat": 38.78460533333333, "bike_id": "9c2e4e55357701ea0609d1ab7972862a", "is_disabled": 0, "lon": -77.05438366666667, "is_reserved": 0, "fusion_lat": 0.0, "type": "electric_bike"}, {"fusion_lon": 0.0, "name": "a9cfce3ad3ddafb8c9cbd1a4043e7e61", "rental_uris": {"android": "https://dc.lft.to/lastmile_qr_scan", "ios": "https://dc.lft.to/lastmile_qr_scan"}, "lat": 38.9622385, "bike_id": "a9cfce3ad3ddafb8c9cbd1a4043e7e61", "is_disabled": 0, "lon": -77.01350333333333, "is_reserved": 0, "fusion_lat": 0.0, "type": "electric_scooter"}, {"fusion_lon": 0.0, "name": "5a0651414796412a6ea878d51cdc26bc", "rental_uris": {"android": "https://dc.lft.to/lastmile_qr_scan", "ios": "https://dc.lft.to/lastmile_qr_scan"}, "lat": 38.89647683333333, "bike_id": "5a0651414796412a6ea878d51cdc26bc", "is_disabled": 0, "lon": -77.029402, "is_reserved": 0, "fusion_lat": 0.0, "type": "electric_scooter"}, {"fusion_lon": 0.0, "name": "81d9c157ea9513a55472234580ab605e", "rental_uris": {"android": "https://dc.lft.to/lastmile_qr_scan", "ios": "https://dc.lft.to/lastmile_qr_scan"}, "lat": 38.92791366666667, "bike_id": "81d9c157ea9513a55472234580ab605e", "is_disabled": 0, "lon": -77.03816933333333, "is_reserved": 0, "fusion_lat": 0.0, "type": "electric_bike"}, {"fusion_lon": 0.0, "name": "c87f220b09a6a590f15de45beb8211b4", "rental_uris": {"android": "https://dc.lft.to/lastmile_qr_scan", "ios": "https://dc.lft.to/lastmile_qr_scan"}, "lat": 38.87175666666667, "bike_id": "c87f220b09a6a590f15de45beb8211b4", "is_disabled": 0, "lon": -77.00611933333333, "is_reserved": 0, "fusion_lat": 0.0, "type": "electric_scooter"}, {"fusion_lon": 0.0, "name": "b41795e33c1feebc6d6812668a0f6eb2", "rental_uris": {"android": "https://dc.lft.to/lastmile_qr_scan", "ios": "https://dc.lft.to/lastmile_qr_scan"}, "lat": 38.89642933333333, "bike_id": "b41795e33c1feebc6d6812668a0f6eb2", "is_disabled": 0, "lon": -77.02286733333334, "is_reserved": 0, "fusion_lat": 0.0, "type": "electric_scooter"}, {"fusion_lon": 0.0, "name": "e83e8b2c546a056282ecd4c8a24dedc3", "rental_uris": {"android": "https://dc.lft.to/lastmile_qr_scan", "ios": "https://dc.lft.to/lastmile_qr_scan"}, "lat": 38.918189, "bike_id": "e83e8b2c546a056282ecd4c8a24dedc3", "is_disabled": 0, "lon": -77.025316, "is_reserved": 0, "fusion_lat": 0.0, "type": "electric_scooter"}, {"fusion_lon": 0.0, "name": "e9b9a8f1e0d480e990f9ba48e367a07b", "rental_uris": {"android": "https://dc.lft.to/lastmile_qr_scan", "ios": "https://dc.lft.to/lastmile_qr_scan"}, "lat": 38.900478666666665, "bike_id": "e9b9a8f1e0d480e990f9ba48e367a07b", "is_disabled": 0, "lon": -77.04332066666667, "is_reserved": 0, "fusion_lat": 0.0, "type": "electric_scooter"}, {"fusion_lon": 0.0, "name": "60bd2d1aa9f8f532d00d94519d725804", "rental_uris": {"android": "https://dc.lft.to/lastmile_qr_scan", "ios": "https://dc.lft.to/lastmile_qr_scan"}, "lat": 38.91322383333333, "bike_id": "60bd2d1aa9f8f532d00d94519d725804", "is_disabled": 0, "lon": -77.0453905, "is_reserved": 0, "fusion_lat": 0.0, "type": "electric_scooter"}, {"fusion_lon": 0.0, "name": "1c8b8c4ef7a2e869e31c65ecbb2ff142", "rental_uris": {"android": "https://dc.lft.to/lastmile_qr_scan", "ios": "https://dc.lft.to/lastmile_qr_scan"}, "lat": 38.909101166666666, "bike_id": "1c8b8c4ef7a2e869e31c65ecbb2ff142", "is_disabled": 0, "lon": -77.02307066666667, "is_reserved": 0, "fusion_lat": 0.0, "type": "electric_scooter"}, {"fusion_lon": 0.0, "name": "8eaf71ece8a0e260a9d92ce8386355f4", "rental_uris": {"android": "https://dc.lft.to/lastmile_qr_scan", "ios": "https://dc.lft.to/lastmile_qr_scan"}, "lat": 38.89224466666667, "bike_id": "8eaf71ece8a0e260a9d92ce8386355f4", "is_disabled": 0, "lon": -77.04334016666667, "is_reserved": 0, "fusion_lat": 0.0, "type": "electric_scooter"}, {"fusion_lon": 0.0, "name": "583b84b688ff2aff036c215419a9fcbe", "rental_uris": {"android": "https://dc.lft.to/lastmile_qr_scan", "ios": "https://dc.lft.to/lastmile_qr_scan"}, "lat": 38.9733185, "bike_id": "583b84b688ff2aff036c215419a9fcbe", "is_disabled": 0, "lon": -76.9958255, "is_reserved": 0, "fusion_lat": 0.0, "type": "electric_bike"}, {"fusion_lon": 0.0, "name": "a1794312de76a53e0be34be91dae7597", "rental_uris": {"android": "https://dc.lft.to/lastmile_qr_scan", "ios": "https://dc.lft.to/lastmile_qr_scan"}, "lat": 38.90128966666666, "bike_id": "a1794312de76a53e0be34be91dae7597", "is_disabled": 0, "lon": -77.04679416666667, "is_reserved": 0, "fusion_lat": 0.0, "type": "electric_scooter"}, {"fusion_lon": 0.0, "name": "56cca0ac120f2822685fa074a38f5b0f", "rental_uris": {"android": "https://dc.lft.to/lastmile_qr_scan", "ios": "https://dc.lft.to/lastmile_qr_scan"}, "lat": 38.900576, "bike_id": "56cca0ac120f2822685fa074a38f5b0f", "is_disabled": 0, "lon": -76.98484333333333, "is_reserved": 0, "fusion_lat": 0.0, "type": "electric_scooter"}, {"fusion_lon": 0.0, "name": "0c651cb3db7b0df4db6497aca2260395", "rental_uris": {"android": "https://dc.lft.to/lastmile_qr_scan", "ios": "https://dc.lft.to/lastmile_qr_scan"}, "lat": 39.04232483333333, "bike_id": "0c651cb3db7b0df4db6497aca2260395", "is_disabled": 0, "lon": -76.99736, "is_reserved": 0, "fusion_lat": 0.0, "type": "electric_bike"}, {"fusion_lon": 0.0, "name": "5e1887c573d9fb995e185158f0ab5fa5", "rental_uris": {"android": "https://dc.lft.to/lastmile_qr_scan", "ios": "https://dc.lft.to/lastmile_qr_scan"}, "lat": 38.920520833333335, "bike_id": "5e1887c573d9fb995e185158f0ab5fa5", "is_disabled": 0, "lon": -76.98425766666666, "is_reserved": 0, "fusion_lat": 0.0, "type": "electric_scooter"}, {"fusion_lon": 0.0, "name": "68a838e3a0d22d49d0406e416ff1e34b", "rental_uris": {"android": "https://dc.lft.to/lastmile_qr_scan", "ios": "https://dc.lft.to/lastmile_qr_scan"}, "lat": 38.90053483333333, "bike_id": "68a838e3a0d22d49d0406e416ff1e34b", "is_disabled": 0, "lon": -77.04999, "is_reserved": 0, "fusion_lat": 0.0, "type": "electric_scooter"}, {"fusion_lon": 0.0, "name": "39ed231b0d30c20460f65843ce7f2ccc", "rental_uris": {"android": "https://dc.lft.to/lastmile_qr_scan", "ios": "https://dc.lft.to/lastmile_qr_scan"}, "lat": 38.90091966666667, "bike_id": "39ed231b0d30c20460f65843ce7f2ccc", "is_disabled": 0, "lon": -77.02271166666667, "is_reserved": 0, "fusion_lat": 0.0, "type": "electric_scooter"}, {"fusion_lon": 0.0, "name": "4f189cd651b051cba2d52b45612e71cb", "rental_uris": {"android": "https://dc.lft.to/lastmile_qr_scan", "ios": "https://dc.lft.to/lastmile_qr_scan"}, "lat": 38.85873466666666, "bike_id": "4f189cd651b051cba2d52b45612e71cb", "is_disabled": 0, "lon": -76.99044433333333, "is_reserved": 0, "fusion_lat": 0.0, "type": "electric_scooter"}, {"fusion_lon": 0.0, "name": "aaefe60df12bdceb498b20d68892a24c", "rental_uris": {"android": "https://dc.lft.to/lastmile_qr_scan", "ios": "https://dc.lft.to/lastmile_qr_scan"}, "lat": 38.89727766666667, "bike_id": "aaefe60df12bdceb498b20d68892a24c", "is_disabled": 0, "lon": -77.05453783333333, "is_reserved": 0, "fusion_lat": 0.0, "type": "electric_scooter"}, {"fusion_lon": 0.0, "name": "7c7507afa844d45ca69300380a05122c", "rental_uris": {"android": "https://dc.lft.to/lastmile_qr_scan", "ios": "https://dc.lft.to/lastmile_qr_scan"}, "lat": 38.898462, "bike_id": "7c7507afa844d45ca69300380a05122c", "is_disabled": 0, "lon": -77.024903, "is_reserved": 0, "fusion_lat": 0.0, "type": "electric_scooter"}, {"fusion_lon": 0.0, "name": "60efca4a899019211ca31b662fb9de63", "rental_uris": {"android": "https://dc.lft.to/lastmile_qr_scan", "ios": "https://dc.lft.to/lastmile_qr_scan"}, "lat": 38.896164, "bike_id": "60efca4a899019211ca31b662fb9de63", "is_disabled": 0, "lon": -77.01166033333334, "is_reserved": 0, "fusion_lat": 0.0, "type": "electric_scooter"}, {"fusion_lon": 0.0, "name": "4b80422a6ece63ca12022a2da17a2289", "rental_uris": {"android": "https://dc.lft.to/lastmile_qr_scan", "ios": "https://dc.lft.to/lastmile_qr_scan"}, "lat": 38.90724016666667, "bike_id": "4b80422a6ece63ca12022a2da17a2289", "is_disabled": 0, "lon": -77.00371516666667, "is_reserved": 0, "fusion_lat": 0.0, "type": "electric_scooter"}, {"fusion_lon": 0.0, "name": "2c9a27d86124230f02e4db10cba35411", "rental_uris": {"android": "https://dc.lft.to/lastmile_qr_scan", "ios": "https://dc.lft.to/lastmile_qr_scan"}, "lat": 38.905143333333335, "bike_id": "2c9a27d86124230f02e4db10cba35411", "is_disabled": 0, "lon": -77.0637665, "is_reserved": 0, "fusion_lat": 0.0, "type": "electric_scooter"}, {"fusion_lon": 0.0, "name": "3dd6891826c1dfed14c09c5e20a2aaa3", "rental_uris": {"android": "https://dc.lft.to/lastmile_qr_scan", "ios": "https://dc.lft.to/lastmile_qr_scan"}, "lat": 38.92835766666666, "bike_id": "3dd6891826c1dfed14c09c5e20a2aaa3", "is_disabled": 0, "lon": -76.99588033333333, "is_reserved": 0, "fusion_lat": 0.0, "type": "electric_scooter"}, {"fusion_lon": 0.0, "name": "db7e16e2e2782a0b9869e213fa1156ec", "rental_uris": {"android": "https://dc.lft.to/lastmile_qr_scan", "ios": "https://dc.lft.to/lastmile_qr_scan"}, "lat": 38.8537195, "bike_id": "db7e16e2e2782a0b9869e213fa1156ec", "is_disabled": 0, "lon": -77.054462, "is_reserved": 0, "fusion_lat": 0.0, "type": "electric_bike"}, {"fusion_lon": 0.0, "name": "60fad20f4a6e22b5ffb91657bc449923", "rental_uris": {"android": "https://dc.lft.to/lastmile_qr_scan", "ios": "https://dc.lft.to/lastmile_qr_scan"}, "lat": 38.900703166666666, "bike_id": "60fad20f4a6e22b5ffb91657bc449923", "is_disabled": 0, "lon": -76.927451, "is_reserved": 0, "fusion_lat": 0.0, "type": "electric_scooter"}, {"fusion_lon": 0.0, "name": "a805cbd1431ce0ed4f2a163853baa15b", "rental_uris": {"android": "https://dc.lft.to/lastmile_qr_scan", "ios": "https://dc.lft.to/lastmile_qr_scan"}, "lat": 38.8786065, "bike_id": "a805cbd1431ce0ed4f2a163853baa15b", "is_disabled": 0, "lon": -76.99158216666666, "is_reserved": 0, "fusion_lat": 0.0, "type": "electric_scooter"}, {"fusion_lon": 0.0, "name": "843659d8efe4e53ba389bee5093a402d", "rental_uris": {"android": "https://dc.lft.to/lastmile_qr_scan", "ios": "https://dc.lft.to/lastmile_qr_scan"}, "lat": 38.89890116666667, "bike_id": "843659d8efe4e53ba389bee5093a402d", "is_disabled": 0, "lon": -77.03286183333333, "is_reserved": 0, "fusion_lat": 0.0, "type": "electric_scooter"}, {"fusion_lon": 0.0, "name": "ff0f9ae28474a2fa8283f6d7686579d2", "rental_uris": {"android": "https://dc.lft.to/lastmile_qr_scan", "ios": "https://dc.lft.to/lastmile_qr_scan"}, "lat": 38.881204, "bike_id": "ff0f9ae28474a2fa8283f6d7686579d2", "is_disabled": 0, "lon": -76.99281033333334, "is_reserved": 0, "fusion_lat": 0.0, "type": "electric_scooter"}, {"fusion_lon": 0.0, "name": "dcc21f8d2722195184b01b6096f12960", "rental_uris": {"android": "https://dc.lft.to/lastmile_qr_scan", "ios": "https://dc.lft.to/lastmile_qr_scan"}, "lat": 38.8765745, "bike_id": "dcc21f8d2722195184b01b6096f12960", "is_disabled": 0, "lon": -77.00570933333333, "is_reserved": 0, "fusion_lat": 0.0, "type": "electric_scooter"}, {"fusion_lon": 0.0, "name": "abdb3366431e54619a65d7d78c517c0e", "rental_uris": {"android": "https://dc.lft.to/lastmile_qr_scan", "ios": "https://dc.lft.to/lastmile_qr_scan"}, "lat": 38.8993355, "bike_id": "abdb3366431e54619a65d7d78c517c0e", "is_disabled": 0, "lon": -77.044831, "is_reserved": 0, "fusion_lat": 0.0, "type": "electric_scooter"}, {"fusion_lon": 0.0, "name": "3737e9354823e00fda514788b7244e8a", "rental_uris": {"android": "https://dc.lft.to/lastmile_qr_scan", "ios": "https://dc.lft.to/lastmile_qr_scan"}, "lat": 38.886186, "bike_id": "3737e9354823e00fda514788b7244e8a", "is_disabled": 0, "lon": -76.99009533333333, "is_reserved": 0, "fusion_lat": 0.0, "type": "electric_scooter"}, {"fusion_lon": 0.0, "name": "226234226e89f4aa9a3f7f80c062cb27", "rental_uris": {"android": "https://dc.lft.to/lastmile_qr_scan", "ios": "https://dc.lft.to/lastmile_qr_scan"}, "lat": 38.8974525, "bike_id": "226234226e89f4aa9a3f7f80c062cb27", "is_disabled": 0, "lon": -77.02596983333333, "is_reserved": 0, "fusion_lat": 0.0, "type": "electric_scooter"}, {"fusion_lon": 0.0, "name": "bbeee104fbfd63ecafc7948c7360bfd2", "rental_uris": {"android": "https://dc.lft.to/lastmile_qr_scan", "ios": "https://dc.lft.to/lastmile_qr_scan"}, "lat": 38.90703466666667, "bike_id": "bbeee104fbfd63ecafc7948c7360bfd2", "is_disabled": 0, "lon": -76.986972, "is_reserved": 0, "fusion_lat": 0.0, "type": "electric_scooter"}, {"fusion_lon": 0.0, "name": "51c9c0ee85a9278fbc5d90a64d5b33a6", "rental_uris": {"android": "https://dc.lft.to/lastmile_qr_scan", "ios": "https://dc.lft.to/lastmile_qr_scan"}, "lat": 38.934889166666665, "bike_id": "51c9c0ee85a9278fbc5d90a64d5b33a6", "is_disabled": 0, "lon": -77.07267716666667, "is_reserved": 0, "fusion_lat": 0.0, "type": "electric_scooter"}, {"fusion_lon": 0.0, "name": "b74f3488d3e16090f03bb3ca498f9fac", "rental_uris": {"android": "https://dc.lft.to/lastmile_qr_scan", "ios": "https://dc.lft.to/lastmile_qr_scan"}, "lat": 38.93765616666666, "bike_id": "b74f3488d3e16090f03bb3ca498f9fac", "is_disabled": 0, "lon": -77.032464, "is_reserved": 0, "fusion_lat": 0.0, "type": "electric_scooter"}, {"fusion_lon": 0.0, "name": "ba8c8c537080e1fee07e52845eb35fc4", "rental_uris": {"android": "https://dc.lft.to/lastmile_qr_scan", "ios": "https://dc.lft.to/lastmile_qr_scan"}, "lat": 38.8648385, "bike_id": "ba8c8c537080e1fee07e52845eb35fc4", "is_disabled": 0, "lon": -76.9773985, "is_reserved": 0, "fusion_lat": 0.0, "type": "electric_bike"}, {"fusion_lon": 0.0, "name": "9a6b849b0d9acf50efa0e44b1032c822", "rental_uris": {"android": "https://dc.lft.to/lastmile_qr_scan", "ios": "https://dc.lft.to/lastmile_qr_scan"}, "lat": 38.90436066666667, "bike_id": "9a6b849b0d9acf50efa0e44b1032c822", "is_disabled": 0, "lon": -77.04330583333333, "is_reserved": 0, "fusion_lat": 0.0, "type": "electric_scooter"}, {"fusion_lon": 0.0, "name": "1ebf9413e5f70e408d55b5436a84c853", "rental_uris": {"android": "https://dc.lft.to/lastmile_qr_scan", "ios": "https://dc.lft.to/lastmile_qr_scan"}, "lat": 38.92153166666667, "bike_id": "1ebf9413e5f70e408d55b5436a84c853", "is_disabled": 0, "lon": -77.020843, "is_reserved": 0, "fusion_lat": 0.0, "type": "electric_scooter"}, {"fusion_lon": 0.0, "name": "6f04b2fe2688081a4cfb165429839ee4", "rental_uris": {"android": "https://dc.lft.to/lastmile_qr_scan", "ios": "https://dc.lft.to/lastmile_qr_scan"}, "lat": 38.9518625, "bike_id": "6f04b2fe2688081a4cfb165429839ee4", "is_disabled": 0, "lon": -76.99176266666667, "is_reserved": 0, "fusion_lat": 0.0, "type": "electric_scooter"}, {"fusion_lon": 0.0, "name": "6afbb608cb137c11e5b3447521ff62f1", "rental_uris": {"android": "https://dc.lft.to/lastmile_qr_scan", "ios": "https://dc.lft.to/lastmile_qr_scan"}, "lat": 38.92059366666667, "bike_id": "6afbb608cb137c11e5b3447521ff62f1", "is_disabled": 0, "lon": -77.023012, "is_reserved": 0, "fusion_lat": 0.0, "type": "electric_scooter"}, {"fusion_lon": 0.0, "name": "870819a37a2ed295286899dbf0505e7e", "rental_uris": {"android": "https://dc.lft.to/lastmile_qr_scan", "ios": "https://dc.lft.to/lastmile_qr_scan"}, "lat": 38.924560166666666, "bike_id": "870819a37a2ed295286899dbf0505e7e", "is_disabled": 0, "lon": -77.02137766666667, "is_reserved": 0, "fusion_lat": 0.0, "type": "electric_scooter"}, {"fusion_lon": 0.0, "name": "4d24ab24f1916721eeb6cfce14903069", "rental_uris": {"android": "https://dc.lft.to/lastmile_qr_scan", "ios": "https://dc.lft.to/lastmile_qr_scan"}, "lat": 38.92289816666667, "bike_id": "4d24ab24f1916721eeb6cfce14903069", "is_disabled": 0, "lon": -76.99764733333333, "is_reserved": 0, "fusion_lat": 0.0, "type": "electric_scooter"}, {"fusion_lon": 0.0, "name": "58d8bf4929ef93121d3ece7322976157", "rental_uris": {"android": "https://dc.lft.to/lastmile_qr_scan", "ios": "https://dc.lft.to/lastmile_qr_scan"}, "lat": 38.9164595, "bike_id": "58d8bf4929ef93121d3ece7322976157", "is_disabled": 0, "lon": -77.06939566666667, "is_reserved": 0, "fusion_lat": 0.0, "type": "electric_scooter"}, {"fusion_lon": 0.0, "name": "0ccdec7363da15e8641b405b5c069706", "rental_uris": {"android": "https://dc.lft.to/lastmile_qr_scan", "ios": "https://dc.lft.to/lastmile_qr_scan"}, "lat": 38.943131666666666, "bike_id": "0ccdec7363da15e8641b405b5c069706", "is_disabled": 0, "lon": -77.06140033333334, "is_reserved": 0, "fusion_lat": 0.0, "type": "electric_scooter"}, {"fusion_lon": 0.0, "name": "8108fe2efc772f55b76f0e047bbf64f1", "rental_uris": {"android": "https://dc.lft.to/lastmile_qr_scan", "ios": "https://dc.lft.to/lastmile_qr_scan"}, "lat": 38.89899883333333, "bike_id": "8108fe2efc772f55b76f0e047bbf64f1", "is_disabled": 0, "lon": -76.97996233333333, "is_reserved": 0, "fusion_lat": 0.0, "type": "electric_scooter"}, {"fusion_lon": 0.0, "name": "4e5204a94c57fae4a36b3d18e21826db", "rental_uris": {"android": "https://dc.lft.to/lastmile_qr_scan", "ios": "https://dc.lft.to/lastmile_qr_scan"}, "lat": 38.92677033333333, "bike_id": "4e5204a94c57fae4a36b3d18e21826db", "is_disabled": 0, "lon": -77.054389, "is_reserved": 0, "fusion_lat": 0.0, "type": "electric_scooter"}, {"fusion_lon": 0.0, "name": "a57bfb8b86a7e72a9dc2c4a73c0fe160", "rental_uris": {"android": "https://dc.lft.to/lastmile_qr_scan", "ios": "https://dc.lft.to/lastmile_qr_scan"}, "lat": 38.898620666666666, "bike_id": "a57bfb8b86a7e72a9dc2c4a73c0fe160", "is_disabled": 0, "lon": -77.02784316666667, "is_reserved": 0, "fusion_lat": 0.0, "type": "electric_scooter"}, {"fusion_lon": 0.0, "name": "86eb0cdc4a7393086c28aef8080ad45c", "rental_uris": {"android": "https://dc.lft.to/lastmile_qr_scan", "ios": "https://dc.lft.to/lastmile_qr_scan"}, "lat": 38.890409166666664, "bike_id": "86eb0cdc4a7393086c28aef8080ad45c", "is_disabled": 0, "lon": -76.99010966666667, "is_reserved": 0, "fusion_lat": 0.0, "type": "electric_scooter"}, {"fusion_lon": 0.0, "name": "7e5a5b6d84450cc711ac9697d84a434b", "rental_uris": {"android": "https://dc.lft.to/lastmile_qr_scan", "ios": "https://dc.lft.to/lastmile_qr_scan"}, "lat": 38.956319666666666, "bike_id": "7e5a5b6d84450cc711ac9697d84a434b", "is_disabled": 0, "lon": -77.033005, "is_reserved": 0, "fusion_lat": 0.0, "type": "electric_scooter"}, {"fusion_lon": 0.0, "name": "ac251589b64c6d49e0056c11f70514ab", "rental_uris": {"android": "https://dc.lft.to/lastmile_qr_scan", "ios": "https://dc.lft.to/lastmile_qr_scan"}, "lat": 38.907739, "bike_id": "ac251589b64c6d49e0056c11f70514ab", "is_disabled": 0, "lon": -77.0378165, "is_reserved": 0, "fusion_lat": 0.0, "type": "electric_scooter"}, {"fusion_lon": 0.0, "name": "853d7458c9f2ce251cd0385a9e01d90a", "rental_uris": {"android": "https://dc.lft.to/lastmile_qr_scan", "ios": "https://dc.lft.to/lastmile_qr_scan"}, "lat": 38.888681166666665, "bike_id": "853d7458c9f2ce251cd0385a9e01d90a", "is_disabled": 0, "lon": -77.03998466666667, "is_reserved": 0, "fusion_lat": 0.0, "type": "electric_scooter"}, {"fusion_lon": 0.0, "name": "5b1df37c4e6bdfc24c48b1ee3fc5ce40", "rental_uris": {"android": "https://dc.lft.to/lastmile_qr_scan", "ios": "https://dc.lft.to/lastmile_qr_scan"}, "lat": 38.9236215, "bike_id": "5b1df37c4e6bdfc24c48b1ee3fc5ce40", "is_disabled": 0, "lon": -77.0512785, "is_reserved": 0, "fusion_lat": 0.0, "type": "electric_scooter"}, {"fusion_lon": 0.0, "name": "63cc976bc4202e424dee3e09ec178fb1", "rental_uris": {"android": "https://dc.lft.to/lastmile_qr_scan", "ios": "https://dc.lft.to/lastmile_qr_scan"}, "lat": 38.923586, "bike_id": "63cc976bc4202e424dee3e09ec178fb1", "is_disabled": 0, "lon": -77.0502885, "is_reserved": 0, "fusion_lat": 0.0, "type": "electric_scooter"}, {"fusion_lon": 0.0, "name": "91cf36d8c6ccc5df2f02d6dc476afe85", "rental_uris": {"android": "https://dc.lft.to/lastmile_qr_scan", "ios": "https://dc.lft.to/lastmile_qr_scan"}, "lat": 38.89219766666667, "bike_id": "91cf36d8c6ccc5df2f02d6dc476afe85", "is_disabled": 0, "lon": -77.04896416666666, "is_reserved": 0, "fusion_lat": 0.0, "type": "electric_scooter"}, {"fusion_lon": 0.0, "name": "57b08f6e98c9ccb6e28f0efaa36adaa1", "rental_uris": {"android": "https://dc.lft.to/lastmile_qr_scan", "ios": "https://dc.lft.to/lastmile_qr_scan"}, "lat": 38.8919475, "bike_id": "57b08f6e98c9ccb6e28f0efaa36adaa1", "is_disabled": 0, "lon": -76.993825, "is_reserved": 0, "fusion_lat": 0.0, "type": "electric_scooter"}, {"fusion_lon": 0.0, "name": "5283092904f784f9efa1a63c627b9184", "rental_uris": {"android": "https://dc.lft.to/lastmile_qr_scan", "ios": "https://dc.lft.to/lastmile_qr_scan"}, "lat": 38.8932005, "bike_id": "5283092904f784f9efa1a63c627b9184", "is_disabled": 0, "lon": -76.93975233333333, "is_reserved": 0, "fusion_lat": 0.0, "type": "electric_scooter"}, {"fusion_lon": 0.0, "name": "2ff6af85b6e4c00a7bb83e6981152949", "rental_uris": {"android": "https://dc.lft.to/lastmile_qr_scan", "ios": "https://dc.lft.to/lastmile_qr_scan"}, "lat": 38.89623916666667, "bike_id": "2ff6af85b6e4c00a7bb83e6981152949", "is_disabled": 0, "lon": -77.03224466666667, "is_reserved": 0, "fusion_lat": 0.0, "type": "electric_scooter"}, {"fusion_lon": 0.0, "name": "28c43c567e1ffb60c709585d19b27d7e", "rental_uris": {"android": "https://dc.lft.to/lastmile_qr_scan", "ios": "https://dc.lft.to/lastmile_qr_scan"}, "lat": 38.922671666666666, "bike_id": "28c43c567e1ffb60c709585d19b27d7e", "is_disabled": 0, "lon": -77.02964483333334, "is_reserved": 0, "fusion_lat": 0.0, "type": "electric_scooter"}, {"fusion_lon": 0.0, "name": "583b4ae7c5dae73c02b641d4bfa6c8d7", "rental_uris": {"android": "https://dc.lft.to/lastmile_qr_scan", "ios": "https://dc.lft.to/lastmile_qr_scan"}, "lat": 38.94346433333333, "bike_id": "583b4ae7c5dae73c02b641d4bfa6c8d7", "is_disabled": 0, "lon": -77.06131133333334, "is_reserved": 0, "fusion_lat": 0.0, "type": "electric_scooter"}, {"fusion_lon": 0.0, "name": "6268dbfdf2268fd493e75c82cb0041ae", "rental_uris": {"android": "https://dc.lft.to/lastmile_qr_scan", "ios": "https://dc.lft.to/lastmile_qr_scan"}, "lat": 38.894895, "bike_id": "6268dbfdf2268fd493e75c82cb0041ae", "is_disabled": 0, "lon": -76.94892766666666, "is_reserved": 0, "fusion_lat": 0.0, "type": "electric_scooter"}, {"fusion_lon": 0.0, "name": "71cd5c7501aac0cff93e6511c590af11", "rental_uris": {"android": "https://dc.lft.to/lastmile_qr_scan", "ios": "https://dc.lft.to/lastmile_qr_scan"}, "lat": 38.84759366666667, "bike_id": "71cd5c7501aac0cff93e6511c590af11", "is_disabled": 0, "lon": -77.0537505, "is_reserved": 0, "fusion_lat": 0.0, "type": "electric_bike"}, {"fusion_lon": 0.0, "name": "05d8eaa4a8c5d201b0ec5069aacac438", "rental_uris": {"android": "https://dc.lft.to/lastmile_qr_scan", "ios": "https://dc.lft.to/lastmile_qr_scan"}, "lat": 38.93979, "bike_id": "05d8eaa4a8c5d201b0ec5069aacac438", "is_disabled": 0, "lon": -77.02840266666666, "is_reserved": 0, "fusion_lat": 0.0, "type": "electric_scooter"}, {"fusion_lon": 0.0, "name": "a6323c0019f6bd6cd4e42c71ba56204a", "rental_uris": {"android": "https://dc.lft.to/lastmile_qr_scan", "ios": "https://dc.lft.to/lastmile_qr_scan"}, "lat": 38.89930116666667, "bike_id": "a6323c0019f6bd6cd4e42c71ba56204a", "is_disabled": 0, "lon": -77.02188, "is_reserved": 0, "fusion_lat": 0.0, "type": "electric_scooter"}, {"fusion_lon": 0.0, "name": "6e4e151d59f29915997eb9e88bd88643", "rental_uris": {"android": "https://dc.lft.to/lastmile_qr_scan", "ios": "https://dc.lft.to/lastmile_qr_scan"}, "lat": 38.875338, "bike_id": "6e4e151d59f29915997eb9e88bd88643", "is_disabled": 0, "lon": -77.01737, "is_reserved": 0, "fusion_lat": 0.0, "type": "electric_scooter"}, {"fusion_lon": 0.0, "name": "a80db5b69614fb9dd07f309b6a45f98b", "rental_uris": {"android": "https://dc.lft.to/lastmile_qr_scan", "ios": "https://dc.lft.to/lastmile_qr_scan"}, "lat": 38.900136833333335, "bike_id": "a80db5b69614fb9dd07f309b6a45f98b", "is_disabled": 0, "lon": -77.04110316666667, "is_reserved": 0, "fusion_lat": 0.0, "type": "electric_scooter"}, {"fusion_lon": 0.0, "name": "b67646b945012610dd64ea66f51578c4", "rental_uris": {"android": "https://dc.lft.to/lastmile_qr_scan", "ios": "https://dc.lft.to/lastmile_qr_scan"}, "lat": 38.8966975, "bike_id": "b67646b945012610dd64ea66f51578c4", "is_disabled": 0, "lon": -77.04483283333333, "is_reserved": 0, "fusion_lat": 0.0, "type": "electric_scooter"}, {"fusion_lon": 0.0, "name": "a6410fcbb9384eb2fb83a7f4956f7fc0", "rental_uris": {"android": "https://dc.lft.to/lastmile_qr_scan", "ios": "https://dc.lft.to/lastmile_qr_scan"}, "lat": 38.908983166666665, "bike_id": "a6410fcbb9384eb2fb83a7f4956f7fc0", "is_disabled": 0, "lon": -76.9961185, "is_reserved": 0, "fusion_lat": 0.0, "type": "electric_scooter"}, {"fusion_lon": 0.0, "name": "51f657615b556250b9a1b5852208d537", "rental_uris": {"android": "https://dc.lft.to/lastmile_qr_scan", "ios": "https://dc.lft.to/lastmile_qr_scan"}, "lat": 38.919964666666665, "bike_id": "51f657615b556250b9a1b5852208d537", "is_disabled": 0, "lon": -76.98393816666666, "is_reserved": 0, "fusion_lat": 0.0, "type": "electric_scooter"}, {"fusion_lon": 0.0, "name": "f7dce813a0d967e9c8dd8a8994d03c5a", "rental_uris": {"android": "https://dc.lft.to/lastmile_qr_scan", "ios": "https://dc.lft.to/lastmile_qr_scan"}, "lat": 38.87181566666667, "bike_id": "f7dce813a0d967e9c8dd8a8994d03c5a", "is_disabled": 0, "lon": -77.01217, "is_reserved": 0, "fusion_lat": 0.0, "type": "electric_scooter"}, {"fusion_lon": 0.0, "name": "3a324c920166df739e54f2b0fbe72794", "rental_uris": {"android": "https://dc.lft.to/lastmile_qr_scan", "ios": "https://dc.lft.to/lastmile_qr_scan"}, "lat": 38.93335316666667, "bike_id": "3a324c920166df739e54f2b0fbe72794", "is_disabled": 0, "lon": -77.02850616666667, "is_reserved": 0, "fusion_lat": 0.0, "type": "electric_scooter"}, {"fusion_lon": 0.0, "name": "dcab6af39d2e2c6c216fc5d2454d0969", "rental_uris": {"android": "https://dc.lft.to/lastmile_qr_scan", "ios": "https://dc.lft.to/lastmile_qr_scan"}, "lat": 38.900124, "bike_id": "dcab6af39d2e2c6c216fc5d2454d0969", "is_disabled": 0, "lon": -77.02102216666667, "is_reserved": 0, "fusion_lat": 0.0, "type": "electric_scooter"}, {"fusion_lon": 0.0, "name": "5cfce6901c2c8dc9ab1f4b9adebf3a07", "rental_uris": {"android": "https://dc.lft.to/lastmile_qr_scan", "ios": "https://dc.lft.to/lastmile_qr_scan"}, "lat": 38.903989833333334, "bike_id": "5cfce6901c2c8dc9ab1f4b9adebf3a07", "is_disabled": 0, "lon": -77.06298383333333, "is_reserved": 0, "fusion_lat": 0.0, "type": "electric_scooter"}, {"fusion_lon": 0.0, "name": "7fdc9963ae8f142a0dca9066aafdd280", "rental_uris": {"android": "https://dc.lft.to/lastmile_qr_scan", "ios": "https://dc.lft.to/lastmile_qr_scan"}, "lat": 38.93059066666667, "bike_id": "7fdc9963ae8f142a0dca9066aafdd280", "is_disabled": 0, "lon": -77.02324466666667, "is_reserved": 0, "fusion_lat": 0.0, "type": "electric_scooter"}, {"fusion_lon": 0.0, "name": "73a0078759720cb979dfc68d789f70b0", "rental_uris": {"android": "https://dc.lft.to/lastmile_qr_scan", "ios": "https://dc.lft.to/lastmile_qr_scan"}, "lat": 38.85440216666667, "bike_id": "73a0078759720cb979dfc68d789f70b0", "is_disabled": 0, "lon": -76.97166216666666, "is_reserved": 0, "fusion_lat": 0.0, "type": "electric_scooter"}, {"fusion_lon": 0.0, "name": "1c14b4f1cb5e7131470d75089cbc4474", "rental_uris": {"android": "https://dc.lft.to/lastmile_qr_scan", "ios": "https://dc.lft.to/lastmile_qr_scan"}, "lat": 38.90164816666667, "bike_id": "1c14b4f1cb5e7131470d75089cbc4474", "is_disabled": 0, "lon": -76.97690533333333, "is_reserved": 0, "fusion_lat": 0.0, "type": "electric_bike"}, {"fusion_lon": 0.0, "name": "e64ea1713f8ad3286086b92541d49820", "rental_uris": {"android": "https://dc.lft.to/lastmile_qr_scan", "ios": "https://dc.lft.to/lastmile_qr_scan"}, "lat": 38.91805633333333, "bike_id": "e64ea1713f8ad3286086b92541d49820", "is_disabled": 0, "lon": -77.03318383333334, "is_reserved": 0, "fusion_lat": 0.0, "type": "electric_scooter"}, {"fusion_lon": 0.0, "name": "ca0f3d80fe67fa9a3640373b80b02ba1", "rental_uris": {"android": "https://dc.lft.to/lastmile_qr_scan", "ios": "https://dc.lft.to/lastmile_qr_scan"}, "lat": 38.884481, "bike_id": "ca0f3d80fe67fa9a3640373b80b02ba1", "is_disabled": 0, "lon": -77.00046, "is_reserved": 0, "fusion_lat": 0.0, "type": "electric_scooter"}, {"fusion_lon": 0.0, "name": "274915ee8441368d14204072a8a5ef95", "rental_uris": {"android": "https://dc.lft.to/lastmile_qr_scan", "ios": "https://dc.lft.to/lastmile_qr_scan"}, "lat": 38.9243685, "bike_id": "274915ee8441368d14204072a8a5ef95", "is_disabled": 0, "lon": -77.0203295, "is_reserved": 0, "fusion_lat": 0.0, "type": "electric_scooter"}, {"fusion_lon": 0.0, "name": "a03456fa915a0727327cd45d57722aab", "rental_uris": {"android": "https://dc.lft.to/lastmile_qr_scan", "ios": "https://dc.lft.to/lastmile_qr_scan"}, "lat": 38.936181833333336, "bike_id": "a03456fa915a0727327cd45d57722aab", "is_disabled": 0, "lon": -77.03219283333334, "is_reserved": 0, "fusion_lat": 0.0, "type": "electric_scooter"}, {"fusion_lon": 0.0, "name": "e06e1b0a34d31e496f6cacd0667e3d55", "rental_uris": {"android": "https://dc.lft.to/lastmile_qr_scan", "ios": "https://dc.lft.to/lastmile_qr_scan"}, "lat": 38.87546533333333, "bike_id": "e06e1b0a34d31e496f6cacd0667e3d55", "is_disabled": 0, "lon": -77.00571366666667, "is_reserved": 0, "fusion_lat": 0.0, "type": "electric_scooter"}, {"fusion_lon": 0.0, "name": "fae5e2d0793cef37fb50d15ef1f3c612", "rental_uris": {"android": "https://dc.lft.to/lastmile_qr_scan", "ios": "https://dc.lft.to/lastmile_qr_scan"}, "lat": 38.901819, "bike_id": "fae5e2d0793cef37fb50d15ef1f3c612", "is_disabled": 0, "lon": -77.03007333333333, "is_reserved": 0, "fusion_lat": 0.0, "type": "electric_scooter"}, {"fusion_lon": 0.0, "name": "25399c4557f450a66a4513a23dde11d6", "rental_uris": {"android": "https://dc.lft.to/lastmile_qr_scan", "ios": "https://dc.lft.to/lastmile_qr_scan"}, "lat": 38.852158, "bike_id": "25399c4557f450a66a4513a23dde11d6", "is_disabled": 0, "lon": -76.99428833333333, "is_reserved": 0, "fusion_lat": 0.0, "type": "electric_scooter"}, {"fusion_lon": 0.0, "name": "6d43718a94ad1dd83e946ac54585ceaa", "rental_uris": {"android": "https://dc.lft.to/lastmile_qr_scan", "ios": "https://dc.lft.to/lastmile_qr_scan"}, "lat": 38.928546, "bike_id": "6d43718a94ad1dd83e946ac54585ceaa", "is_disabled": 0, "lon": -77.05416016666666, "is_reserved": 0, "fusion_lat": 0.0, "type": "electric_scooter"}, {"fusion_lon": 0.0, "name": "ae15140229016edeb2ee62b8891a8439", "rental_uris": {"android": "https://dc.lft.to/lastmile_qr_scan", "ios": "https://dc.lft.to/lastmile_qr_scan"}, "lat": 38.898350666666666, "bike_id": "ae15140229016edeb2ee62b8891a8439", "is_disabled": 0, "lon": -77.02932, "is_reserved": 0, "fusion_lat": 0.0, "type": "electric_scooter"}, {"fusion_lon": 0.0, "name": "d18907854ba73ffc9e35eb62b3ccd904", "rental_uris": {"android": "https://dc.lft.to/lastmile_qr_scan", "ios": "https://dc.lft.to/lastmile_qr_scan"}, "lat": 38.905207833333336, "bike_id": "d18907854ba73ffc9e35eb62b3ccd904", "is_disabled": 0, "lon": -77.06169683333333, "is_reserved": 0, "fusion_lat": 0.0, "type": "electric_scooter"}, {"fusion_lon": 0.0, "name": "32f46b77722ca030ec73774b168497aa", "rental_uris": {"android": "https://dc.lft.to/lastmile_qr_scan", "ios": "https://dc.lft.to/lastmile_qr_scan"}, "lat": 38.89936383333333, "bike_id": "32f46b77722ca030ec73774b168497aa", "is_disabled": 0, "lon": -77.02180283333334, "is_reserved": 0, "fusion_lat": 0.0, "type": "electric_scooter"}, {"fusion_lon": 0.0, "name": "e7ec465bf592e5fa066996f64ea2c202", "rental_uris": {"android": "https://dc.lft.to/lastmile_qr_scan", "ios": "https://dc.lft.to/lastmile_qr_scan"}, "lat": 38.913438666666664, "bike_id": "e7ec465bf592e5fa066996f64ea2c202", "is_disabled": 0, "lon": -76.98898533333333, "is_reserved": 0, "fusion_lat": 0.0, "type": "electric_scooter"}, {"fusion_lon": 0.0, "name": "2296c6d0fecf0de16fdd9cb2f80ccddc", "rental_uris": {"android": "https://dc.lft.to/lastmile_qr_scan", "ios": "https://dc.lft.to/lastmile_qr_scan"}, "lat": 38.91799316666667, "bike_id": "2296c6d0fecf0de16fdd9cb2f80ccddc", "is_disabled": 0, "lon": -77.04427133333333, "is_reserved": 0, "fusion_lat": 0.0, "type": "electric_scooter"}, {"fusion_lon": 0.0, "name": "5fbc52e94c917ed02976e1f7ba979692", "rental_uris": {"android": "https://dc.lft.to/lastmile_qr_scan", "ios": "https://dc.lft.to/lastmile_qr_scan"}, "lat": 38.8284735, "bike_id": "5fbc52e94c917ed02976e1f7ba979692", "is_disabled": 0, "lon": -77.05899366666667, "is_reserved": 0, "fusion_lat": 0.0, "type": "electric_bike"}, {"fusion_lon": 0.0, "name": "7cc056cd251418de45d26cb5821c9b77", "rental_uris": {"android": "https://dc.lft.to/lastmile_qr_scan", "ios": "https://dc.lft.to/lastmile_qr_scan"}, "lat": 38.892346, "bike_id": "7cc056cd251418de45d26cb5821c9b77", "is_disabled": 0, "lon": -77.033524, "is_reserved": 0, "fusion_lat": 0.0, "type": "electric_scooter"}, {"fusion_lon": 0.0, "name": "63881211cd4271d86bfc05f469c0cc28", "rental_uris": {"android": "https://dc.lft.to/lastmile_qr_scan", "ios": "https://dc.lft.to/lastmile_qr_scan"}, "lat": 38.931389333333335, "bike_id": "63881211cd4271d86bfc05f469c0cc28", "is_disabled": 0, "lon": -77.03833033333333, "is_reserved": 0, "fusion_lat": 0.0, "type": "electric_scooter"}, {"fusion_lon": 0.0, "name": "c13074a13a0fd36487eae6e0d0db716e", "rental_uris": {"android": "https://dc.lft.to/lastmile_qr_scan", "ios": "https://dc.lft.to/lastmile_qr_scan"}, "lat": 38.89904933333333, "bike_id": "c13074a13a0fd36487eae6e0d0db716e", "is_disabled": 0, "lon": -76.98826083333333, "is_reserved": 0, "fusion_lat": 0.0, "type": "electric_scooter"}, {"fusion_lon": 0.0, "name": "26e319ecabd305cc1943a3057eb8e46b", "rental_uris": {"android": "https://dc.lft.to/lastmile_qr_scan", "ios": "https://dc.lft.to/lastmile_qr_scan"}, "lat": 38.9014355, "bike_id": "26e319ecabd305cc1943a3057eb8e46b", "is_disabled": 0, "lon": -77.03698516666667, "is_reserved": 0, "fusion_lat": 0.0, "type": "electric_scooter"}, {"fusion_lon": 0.0, "name": "4766579abe5ae95079bdf40d315ffd7e", "rental_uris": {"android": "https://dc.lft.to/lastmile_qr_scan", "ios": "https://dc.lft.to/lastmile_qr_scan"}, "lat": 38.9236285, "bike_id": "4766579abe5ae95079bdf40d315ffd7e", "is_disabled": 0, "lon": -77.07631633333334, "is_reserved": 0, "fusion_lat": 0.0, "type": "electric_scooter"}, {"fusion_lon": 0.0, "name": "5b5997b6a4d0f521d82af7bfc1acebcd", "rental_uris": {"android": "https://dc.lft.to/lastmile_qr_scan", "ios": "https://dc.lft.to/lastmile_qr_scan"}, "lat": 38.916474666666666, "bike_id": "5b5997b6a4d0f521d82af7bfc1acebcd", "is_disabled": 0, "lon": -77.01021683333333, "is_reserved": 0, "fusion_lat": 0.0, "type": "electric_scooter"}, {"fusion_lon": 0.0, "name": "a26ad434064c103086db951607e37e8e", "rental_uris": {"android": "https://dc.lft.to/lastmile_qr_scan", "ios": "https://dc.lft.to/lastmile_qr_scan"}, "lat": 38.90948566666667, "bike_id": "a26ad434064c103086db951607e37e8e", "is_disabled": 0, "lon": -77.02387983333334, "is_reserved": 0, "fusion_lat": 0.0, "type": "electric_scooter"}, {"fusion_lon": 0.0, "name": "bf9ff6eaf9131404c1092b34944b5e83", "rental_uris": {"android": "https://dc.lft.to/lastmile_qr_scan", "ios": "https://dc.lft.to/lastmile_qr_scan"}, "lat": 38.919753, "bike_id": "bf9ff6eaf9131404c1092b34944b5e83", "is_disabled": 0, "lon": -77.02760883333333, "is_reserved": 0, "fusion_lat": 0.0, "type": "electric_scooter"}, {"fusion_lon": 0.0, "name": "a3b9755a8ed4a9a776b2fb9266ff3f2e", "rental_uris": {"android": "https://dc.lft.to/lastmile_qr_scan", "ios": "https://dc.lft.to/lastmile_qr_scan"}, "lat": 38.914667666666666, "bike_id": "a3b9755a8ed4a9a776b2fb9266ff3f2e", "is_disabled": 0, "lon": -77.0319585, "is_reserved": 0, "fusion_lat": 0.0, "type": "electric_scooter"}, {"fusion_lon": 0.0, "name": "64a0e4fb25bf234134a8ced2a768fcbc", "rental_uris": {"android": "https://dc.lft.to/lastmile_qr_scan", "ios": "https://dc.lft.to/lastmile_qr_scan"}, "lat": 38.913295, "bike_id": "64a0e4fb25bf234134a8ced2a768fcbc", "is_disabled": 0, "lon": -77.0448375, "is_reserved": 0, "fusion_lat": 0.0, "type": "electric_scooter"}, {"fusion_lon": 0.0, "name": "c62b1f1c0fe703b02d8ee934e3260477", "rental_uris": {"android": "https://dc.lft.to/lastmile_qr_scan", "ios": "https://dc.lft.to/lastmile_qr_scan"}, "lat": 38.9055865, "bike_id": "c62b1f1c0fe703b02d8ee934e3260477", "is_disabled": 0, "lon": -77.00631533333333, "is_reserved": 0, "fusion_lat": 0.0, "type": "electric_scooter"}, {"fusion_lon": 0.0, "name": "f13d35116195606335d154b7a9d29e52", "rental_uris": {"android": "https://dc.lft.to/lastmile_qr_scan", "ios": "https://dc.lft.to/lastmile_qr_scan"}, "lat": 38.910635666666664, "bike_id": "f13d35116195606335d154b7a9d29e52", "is_disabled": 0, "lon": -77.0460255, "is_reserved": 0, "fusion_lat": 0.0, "type": "electric_scooter"}, {"fusion_lon": 0.0, "name": "621ba04d243441811308aa83dc7d379f", "rental_uris": {"android": "https://dc.lft.to/lastmile_qr_scan", "ios": "https://dc.lft.to/lastmile_qr_scan"}, "lat": 38.923126, "bike_id": "621ba04d243441811308aa83dc7d379f", "is_disabled": 0, "lon": -77.03908133333333, "is_reserved": 0, "fusion_lat": 0.0, "type": "electric_scooter"}, {"fusion_lon": 0.0, "name": "1f55fef5732733d6fb4c9a0cc8095e40", "rental_uris": {"android": "https://dc.lft.to/lastmile_qr_scan", "ios": "https://dc.lft.to/lastmile_qr_scan"}, "lat": 38.911040666666665, "bike_id": "1f55fef5732733d6fb4c9a0cc8095e40", "is_disabled": 0, "lon": -77.02503033333333, "is_reserved": 0, "fusion_lat": 0.0, "type": "electric_scooter"}, {"fusion_lon": 0.0, "name": "52c664da0e760db146542a63694be19a", "rental_uris": {"android": "https://dc.lft.to/lastmile_qr_scan", "ios": "https://dc.lft.to/lastmile_qr_scan"}, "lat": 38.90180616666667, "bike_id": "52c664da0e760db146542a63694be19a", "is_disabled": 0, "lon": -76.9300125, "is_reserved": 0, "fusion_lat": 0.0, "type": "electric_scooter"}, {"fusion_lon": 0.0, "name": "d7c64ab6dbcd2436106675c6ce45eb97", "rental_uris": {"android": "https://dc.lft.to/lastmile_qr_scan", "ios": "https://dc.lft.to/lastmile_qr_scan"}, "lat": 38.90960233333333, "bike_id": "d7c64ab6dbcd2436106675c6ce45eb97", "is_disabled": 0, "lon": -77.02310833333334, "is_reserved": 0, "fusion_lat": 0.0, "type": "electric_scooter"}, {"fusion_lon": 0.0, "name": "3d70eaf9c6072b7a866e0df5e0666d94", "rental_uris": {"android": "https://dc.lft.to/lastmile_qr_scan", "ios": "https://dc.lft.to/lastmile_qr_scan"}, "lat": 38.89605516666666, "bike_id": "3d70eaf9c6072b7a866e0df5e0666d94", "is_disabled": 0, "lon": -77.0092965, "is_reserved": 0, "fusion_lat": 0.0, "type": "electric_scooter"}, {"fusion_lon": 0.0, "name": "9303e3c7f5d3d9503755eeb9881e44e9", "rental_uris": {"android": "https://dc.lft.to/lastmile_qr_scan", "ios": "https://dc.lft.to/lastmile_qr_scan"}, "lat": 38.921229333333336, "bike_id": "9303e3c7f5d3d9503755eeb9881e44e9", "is_disabled": 0, "lon": -77.02532416666666, "is_reserved": 0, "fusion_lat": 0.0, "type": "electric_scooter"}, {"fusion_lon": 0.0, "name": "9319f450dcf7e9ab91a5931f536f2196", "rental_uris": {"android": "https://dc.lft.to/lastmile_qr_scan", "ios": "https://dc.lft.to/lastmile_qr_scan"}, "lat": 38.924018, "bike_id": "9319f450dcf7e9ab91a5931f536f2196", "is_disabled": 0, "lon": -77.02367483333333, "is_reserved": 0, "fusion_lat": 0.0, "type": "electric_scooter"}, {"fusion_lon": 0.0, "name": "b96d6f40e3d315e30f3fa91e8c239ea2", "rental_uris": {"android": "https://dc.lft.to/lastmile_qr_scan", "ios": "https://dc.lft.to/lastmile_qr_scan"}, "lat": 38.933271833333336, "bike_id": "b96d6f40e3d315e30f3fa91e8c239ea2", "is_disabled": 0, "lon": -77.0378775, "is_reserved": 0, "fusion_lat": 0.0, "type": "electric_scooter"}, {"fusion_lon": 0.0, "name": "a0ee707b295f5d35180d9dbc288e339d", "rental_uris": {"android": "https://dc.lft.to/lastmile_qr_scan", "ios": "https://dc.lft.to/lastmile_qr_scan"}, "lat": 38.9025985, "bike_id": "a0ee707b295f5d35180d9dbc288e339d", "is_disabled": 0, "lon": -77.02723633333333, "is_reserved": 0, "fusion_lat": 0.0, "type": "electric_scooter"}, {"fusion_lon": 0.0, "name": "57ab2479d8e884cbf369b00787dfdebc", "rental_uris": {"android": "https://dc.lft.to/lastmile_qr_scan", "ios": "https://dc.lft.to/lastmile_qr_scan"}, "lat": 38.936066833333335, "bike_id": "57ab2479d8e884cbf369b00787dfdebc", "is_disabled": 0, "lon": -77.0365125, "is_reserved": 0, "fusion_lat": 0.0, "type": "electric_scooter"}, {"fusion_lon": 0.0, "name": "216b2404bf35ac98906897c3e4286c32", "rental_uris": {"android": "https://dc.lft.to/lastmile_qr_scan", "ios": "https://dc.lft.to/lastmile_qr_scan"}, "lat": 38.8243135, "bike_id": "216b2404bf35ac98906897c3e4286c32", "is_disabled": 0, "lon": -77.1204085, "is_reserved": 0, "fusion_lat": 0.0, "type": "electric_bike"}, {"fusion_lon": 0.0, "name": "94c9f31c327f378804e43fef0f834c5c", "rental_uris": {"android": "https://dc.lft.to/lastmile_qr_scan", "ios": "https://dc.lft.to/lastmile_qr_scan"}, "lat": 38.85779616666667, "bike_id": "94c9f31c327f378804e43fef0f834c5c", "is_disabled": 0, "lon": -76.987549, "is_reserved": 0, "fusion_lat": 0.0, "type": "electric_bike"}, {"fusion_lon": 0.0, "name": "aba570cc04a74fb2b763ca6d3af1ae3c", "rental_uris": {"android": "https://dc.lft.to/lastmile_qr_scan", "ios": "https://dc.lft.to/lastmile_qr_scan"}, "lat": 38.87068816666667, "bike_id": "aba570cc04a74fb2b763ca6d3af1ae3c", "is_disabled": 0, "lon": -76.98003983333334, "is_reserved": 0, "fusion_lat": 0.0, "type": "electric_scooter"}, {"fusion_lon": 0.0, "name": "1ac290ba55d363adcf2cfbe0c761ceb8", "rental_uris": {"android": "https://dc.lft.to/lastmile_qr_scan", "ios": "https://dc.lft.to/lastmile_qr_scan"}, "lat": 38.871951, "bike_id": "1ac290ba55d363adcf2cfbe0c761ceb8", "is_disabled": 0, "lon": -77.00929016666667, "is_reserved": 0, "fusion_lat": 0.0, "type": "electric_scooter"}, {"fusion_lon": 0.0, "name": "6eb4a1dea1ab71b99f8f7634505cc9d2", "rental_uris": {"android": "https://dc.lft.to/lastmile_qr_scan", "ios": "https://dc.lft.to/lastmile_qr_scan"}, "lat": 38.924702333333336, "bike_id": "6eb4a1dea1ab71b99f8f7634505cc9d2", "is_disabled": 0, "lon": -77.02112, "is_reserved": 0, "fusion_lat": 0.0, "type": "electric_scooter"}, {"fusion_lon": 0.0, "name": "b4b60f26c36ac24b457a7566c6dca8e2", "rental_uris": {"android": "https://dc.lft.to/lastmile_qr_scan", "ios": "https://dc.lft.to/lastmile_qr_scan"}, "lat": 38.900186166666664, "bike_id": "b4b60f26c36ac24b457a7566c6dca8e2", "is_disabled": 0, "lon": -77.00092866666667, "is_reserved": 0, "fusion_lat": 0.0, "type": "electric_scooter"}, {"fusion_lon": 0.0, "name": "0960aadbe3864c162e76a40ec6414666", "rental_uris": {"android": "https://dc.lft.to/lastmile_qr_scan", "ios": "https://dc.lft.to/lastmile_qr_scan"}, "lat": 38.9397255, "bike_id": "0960aadbe3864c162e76a40ec6414666", "is_disabled": 0, "lon": -76.986121, "is_reserved": 0, "fusion_lat": 0.0, "type": "electric_bike"}, {"fusion_lon": 0.0, "name": "b56960c8bb4a773add0b848dce8798dd", "rental_uris": {"android": "https://dc.lft.to/lastmile_qr_scan", "ios": "https://dc.lft.to/lastmile_qr_scan"}, "lat": 38.9511345, "bike_id": "b56960c8bb4a773add0b848dce8798dd", "is_disabled": 0, "lon": -77.08868, "is_reserved": 0, "fusion_lat": 0.0, "type": "electric_bike"}, {"fusion_lon": 0.0, "name": "981081346ff7ae2f4729f85533a9bf66", "rental_uris": {"android": "https://dc.lft.to/lastmile_qr_scan", "ios": "https://dc.lft.to/lastmile_qr_scan"}, "lat": 38.894906166666665, "bike_id": "981081346ff7ae2f4729f85533a9bf66", "is_disabled": 0, "lon": -76.9489195, "is_reserved": 0, "fusion_lat": 0.0, "type": "electric_scooter"}, {"fusion_lon": 0.0, "name": "3b211f14d37c912fc8fa74c6a5081be0", "rental_uris": {"android": "https://dc.lft.to/lastmile_qr_scan", "ios": "https://dc.lft.to/lastmile_qr_scan"}, "lat": 38.9346085, "bike_id": "3b211f14d37c912fc8fa74c6a5081be0", "is_disabled": 0, "lon": -77.05806683333333, "is_reserved": 0, "fusion_lat": 0.0, "type": "electric_scooter"}, {"fusion_lon": 0.0, "name": "3751239e2fdea8f0b20b5ed7de53eb75", "rental_uris": {"android": "https://dc.lft.to/lastmile_qr_scan", "ios": "https://dc.lft.to/lastmile_qr_scan"}, "lat": 38.93691616666667, "bike_id": "3751239e2fdea8f0b20b5ed7de53eb75", "is_disabled": 0, "lon": -77.056007, "is_reserved": 0, "fusion_lat": 0.0, "type": "electric_scooter"}, {"fusion_lon": 0.0, "name": "a8b579f80197a697367c826f46d15d84", "rental_uris": {"android": "https://dc.lft.to/lastmile_qr_scan", "ios": "https://dc.lft.to/lastmile_qr_scan"}, "lat": 38.903105833333335, "bike_id": "a8b579f80197a697367c826f46d15d84", "is_disabled": 0, "lon": -77.02470483333333, "is_reserved": 0, "fusion_lat": 0.0, "type": "electric_scooter"}, {"fusion_lon": 0.0, "name": "bd8cc5da3f30d2da7daf038e73e9a623", "rental_uris": {"android": "https://dc.lft.to/lastmile_qr_scan", "ios": "https://dc.lft.to/lastmile_qr_scan"}, "lat": 38.93639266666667, "bike_id": "bd8cc5da3f30d2da7daf038e73e9a623", "is_disabled": 0, "lon": -76.95453116666667, "is_reserved": 0, "fusion_lat": 0.0, "type": "electric_bike"}, {"fusion_lon": 0.0, "name": "e8599eaba91b0d06cb4a5c43bb3c2170", "rental_uris": {"android": "https://dc.lft.to/lastmile_qr_scan", "ios": "https://dc.lft.to/lastmile_qr_scan"}, "lat": 38.862540833333334, "bike_id": "e8599eaba91b0d06cb4a5c43bb3c2170", "is_disabled": 0, "lon": -76.99553833333333, "is_reserved": 0, "fusion_lat": 0.0, "type": "electric_scooter"}, {"fusion_lon": 0.0, "name": "21d0209d8dcfcb81d22802e792fa5aba", "rental_uris": {"android": "https://dc.lft.to/lastmile_qr_scan", "ios": "https://dc.lft.to/lastmile_qr_scan"}, "lat": 38.90503733333333, "bike_id": "21d0209d8dcfcb81d22802e792fa5aba", "is_disabled": 0, "lon": -76.984835, "is_reserved": 0, "fusion_lat": 0.0, "type": "electric_scooter"}, {"fusion_lon": 0.0, "name": "20e054f5f7af87d6f20359dea4efa72a", "rental_uris": {"android": "https://dc.lft.to/lastmile_qr_scan", "ios": "https://dc.lft.to/lastmile_qr_scan"}, "lat": 38.934003833333335, "bike_id": "20e054f5f7af87d6f20359dea4efa72a", "is_disabled": 0, "lon": -77.03829666666667, "is_reserved": 0, "fusion_lat": 0.0, "type": "electric_scooter"}, {"fusion_lon": 0.0, "name": "e11f208396b7228cf749272b5ba7a710", "rental_uris": {"android": "https://dc.lft.to/lastmile_qr_scan", "ios": "https://dc.lft.to/lastmile_qr_scan"}, "lat": 38.90355866666667, "bike_id": "e11f208396b7228cf749272b5ba7a710", "is_disabled": 0, "lon": -77.031982, "is_reserved": 0, "fusion_lat": 0.0, "type": "electric_scooter"}, {"fusion_lon": 0.0, "name": "93496dce20700e5719a1aa08ad096871", "rental_uris": {"android": "https://dc.lft.to/lastmile_qr_scan", "ios": "https://dc.lft.to/lastmile_qr_scan"}, "lat": 38.90559533333333, "bike_id": "93496dce20700e5719a1aa08ad096871", "is_disabled": 0, "lon": -77.02793183333333, "is_reserved": 0, "fusion_lat": 0.0, "type": "electric_scooter"}, {"fusion_lon": 0.0, "name": "f6c3c00d0eef919c6c65505768100132", "rental_uris": {"android": "https://dc.lft.to/lastmile_qr_scan", "ios": "https://dc.lft.to/lastmile_qr_scan"}, "lat": 38.89854316666667, "bike_id": "f6c3c00d0eef919c6c65505768100132", "is_disabled": 0, "lon": -77.054017, "is_reserved": 0, "fusion_lat": 0.0, "type": "electric_scooter"}, {"fusion_lon": 0.0, "name": "4a93a9f7b9c2709b9b4bb86789a19530", "rental_uris": {"android": "https://dc.lft.to/lastmile_qr_scan", "ios": "https://dc.lft.to/lastmile_qr_scan"}, "lat": 38.924117, "bike_id": "4a93a9f7b9c2709b9b4bb86789a19530", "is_disabled": 0, "lon": -77.02088733333333, "is_reserved": 0, "fusion_lat": 0.0, "type": "electric_scooter"}, {"fusion_lon": 0.0, "name": "045be85e91111a1916eb9b8cc50aa956", "rental_uris": {"android": "https://dc.lft.to/lastmile_qr_scan", "ios": "https://dc.lft.to/lastmile_qr_scan"}, "lat": 38.842210666666666, "bike_id": "045be85e91111a1916eb9b8cc50aa956", "is_disabled": 0, "lon": -76.94887533333333, "is_reserved": 0, "fusion_lat": 0.0, "type": "electric_bike"}, {"fusion_lon": 0.0, "name": "40fe213bfdc90613d7a7967450cd5922", "rental_uris": {"android": "https://dc.lft.to/lastmile_qr_scan", "ios": "https://dc.lft.to/lastmile_qr_scan"}, "lat": 38.89216916666667, "bike_id": "40fe213bfdc90613d7a7967450cd5922", "is_disabled": 0, "lon": -77.04876066666667, "is_reserved": 0, "fusion_lat": 0.0, "type": "electric_scooter"}, {"fusion_lon": 0.0, "name": "c31a3b790e26ec2ee05718940aa233cc", "rental_uris": {"android": "https://dc.lft.to/lastmile_qr_scan", "ios": "https://dc.lft.to/lastmile_qr_scan"}, "lat": 38.912903, "bike_id": "c31a3b790e26ec2ee05718940aa233cc", "is_disabled": 0, "lon": -77.04041516666666, "is_reserved": 0, "fusion_lat": 0.0, "type": "electric_scooter"}, {"fusion_lon": 0.0, "name": "e082d5184c79361b546d9737d1f3276e", "rental_uris": {"android": "https://dc.lft.to/lastmile_qr_scan", "ios": "https://dc.lft.to/lastmile_qr_scan"}, "lat": 38.852192, "bike_id": "e082d5184c79361b546d9737d1f3276e", "is_disabled": 0, "lon": -76.99370866666666, "is_reserved": 0, "fusion_lat": 0.0, "type": "electric_scooter"}, {"fusion_lon": 0.0, "name": "e5794d69924fbc19d319c3c404404fd4", "rental_uris": {"android": "https://dc.lft.to/lastmile_qr_scan", "ios": "https://dc.lft.to/lastmile_qr_scan"}, "lat": 38.9110525, "bike_id": "e5794d69924fbc19d319c3c404404fd4", "is_disabled": 0, "lon": -77.04510633333334, "is_reserved": 0, "fusion_lat": 0.0, "type": "electric_scooter"}, {"fusion_lon": 0.0, "name": "ab2392a45569be4dcb5fcb4f426f6ecc", "rental_uris": {"android": "https://dc.lft.to/lastmile_qr_scan", "ios": "https://dc.lft.to/lastmile_qr_scan"}, "lat": 38.89730466666666, "bike_id": "ab2392a45569be4dcb5fcb4f426f6ecc", "is_disabled": 0, "lon": -77.05450383333333, "is_reserved": 0, "fusion_lat": 0.0, "type": "electric_scooter"}, {"fusion_lon": 0.0, "name": "3fef800d5c19a12a315ebb0dce5e5ced", "rental_uris": {"android": "https://dc.lft.to/lastmile_qr_scan", "ios": "https://dc.lft.to/lastmile_qr_scan"}, "lat": 38.915094, "bike_id": "3fef800d5c19a12a315ebb0dce5e5ced", "is_disabled": 0, "lon": -77.043316, "is_reserved": 0, "fusion_lat": 0.0, "type": "electric_scooter"}, {"fusion_lon": 0.0, "name": "706640e627beee5457e3bcf899330808", "rental_uris": {"android": "https://dc.lft.to/lastmile_qr_scan", "ios": "https://dc.lft.to/lastmile_qr_scan"}, "lat": 38.90808883333333, "bike_id": "706640e627beee5457e3bcf899330808", "is_disabled": 0, "lon": -77.031998, "is_reserved": 0, "fusion_lat": 0.0, "type": "electric_scooter"}, {"fusion_lon": 0.0, "name": "08e8a8b0fadc60d07a4efb36d27b66d3", "rental_uris": {"android": "https://dc.lft.to/lastmile_qr_scan", "ios": "https://dc.lft.to/lastmile_qr_scan"}, "lat": 38.92005316666667, "bike_id": "08e8a8b0fadc60d07a4efb36d27b66d3", "is_disabled": 0, "lon": -77.02449916666667, "is_reserved": 0, "fusion_lat": 0.0, "type": "electric_scooter"}, {"fusion_lon": 0.0, "name": "0332b4fc675fd67aa55547ed8318ea79", "rental_uris": {"android": "https://dc.lft.to/lastmile_qr_scan", "ios": "https://dc.lft.to/lastmile_qr_scan"}, "lat": 38.92441083333333, "bike_id": "0332b4fc675fd67aa55547ed8318ea79", "is_disabled": 0, "lon": -77.01945383333333, "is_reserved": 0, "fusion_lat": 0.0, "type": "electric_scooter"}, {"fusion_lon": 0.0, "name": "db8ab1bee3a25449d59adfb4765d78fd", "rental_uris": {"android": "https://dc.lft.to/lastmile_qr_scan", "ios": "https://dc.lft.to/lastmile_qr_scan"}, "lat": 38.8942025, "bike_id": "db8ab1bee3a25449d59adfb4765d78fd", "is_disabled": 0, "lon": -76.99769116666667, "is_reserved": 0, "fusion_lat": 0.0, "type": "electric_scooter"}, {"fusion_lon": 0.0, "name": "07cd9be574317c86fc990fa75003dfbc", "rental_uris": {"android": "https://dc.lft.to/lastmile_qr_scan", "ios": "https://dc.lft.to/lastmile_qr_scan"}, "lat": 38.909930333333335, "bike_id": "07cd9be574317c86fc990fa75003dfbc", "is_disabled": 0, "lon": -77.04001133333334, "is_reserved": 0, "fusion_lat": 0.0, "type": "electric_scooter"}, {"fusion_lon": 0.0, "name": "8b82b53793ec40d974f72b0f88b5703b", "rental_uris": {"android": "https://dc.lft.to/lastmile_qr_scan", "ios": "https://dc.lft.to/lastmile_qr_scan"}, "lat": 38.9145375, "bike_id": "8b82b53793ec40d974f72b0f88b5703b", "is_disabled": 0, "lon": -77.07349683333334, "is_reserved": 0, "fusion_lat": 0.0, "type": "electric_scooter"}, {"fusion_lon": 0.0, "name": "0ae817d66884c139b1c1bf322c82397a", "rental_uris": {"android": "https://dc.lft.to/lastmile_qr_scan", "ios": "https://dc.lft.to/lastmile_qr_scan"}, "lat": 38.8993725, "bike_id": "0ae817d66884c139b1c1bf322c82397a", "is_disabled": 0, "lon": -77.029443, "is_reserved": 0, "fusion_lat": 0.0, "type": "electric_scooter"}, {"fusion_lon": 0.0, "name": "b68e17276e024c6ddee0b5604b5eea07", "rental_uris": {"android": "https://dc.lft.to/lastmile_qr_scan", "ios": "https://dc.lft.to/lastmile_qr_scan"}, "lat": 38.902664333333334, "bike_id": "b68e17276e024c6ddee0b5604b5eea07", "is_disabled": 0, "lon": -77.02743133333334, "is_reserved": 0, "fusion_lat": 0.0, "type": "electric_scooter"}, {"fusion_lon": 0.0, "name": "90367a4158df4c2c6019ecb7d570db3c", "rental_uris": {"android": "https://dc.lft.to/lastmile_qr_scan", "ios": "https://dc.lft.to/lastmile_qr_scan"}, "lat": 38.9086845, "bike_id": "90367a4158df4c2c6019ecb7d570db3c", "is_disabled": 0, "lon": -77.03220583333334, "is_reserved": 0, "fusion_lat": 0.0, "type": "electric_scooter"}, {"fusion_lon": 0.0, "name": "cd59b7839852c796d0ad366b8d2c323f", "rental_uris": {"android": "https://dc.lft.to/lastmile_qr_scan", "ios": "https://dc.lft.to/lastmile_qr_scan"}, "lat": 38.876862833333334, "bike_id": "cd59b7839852c796d0ad366b8d2c323f", "is_disabled": 0, "lon": -77.01762233333334, "is_reserved": 0, "fusion_lat": 0.0, "type": "electric_scooter"}, {"fusion_lon": 0.0, "name": "f5140b542c76624f4cafacfe729511e4", "rental_uris": {"android": "https://dc.lft.to/lastmile_qr_scan", "ios": "https://dc.lft.to/lastmile_qr_scan"}, "lat": 38.931123, "bike_id": "f5140b542c76624f4cafacfe729511e4", "is_disabled": 0, "lon": -77.03510833333333, "is_reserved": 0, "fusion_lat": 0.0, "type": "electric_scooter"}, {"fusion_lon": 0.0, "name": "f8be63ed7c31dd343b909fc46124bf7e", "rental_uris": {"android": "https://dc.lft.to/lastmile_qr_scan", "ios": "https://dc.lft.to/lastmile_qr_scan"}, "lat": 38.89223666666667, "bike_id": "f8be63ed7c31dd343b909fc46124bf7e", "is_disabled": 0, "lon": -77.04467716666667, "is_reserved": 0, "fusion_lat": 0.0, "type": "electric_scooter"}, {"fusion_lon": 0.0, "name": "31b93fa356833d4b956267e9e3b3eb7a", "rental_uris": {"android": "https://dc.lft.to/lastmile_qr_scan", "ios": "https://dc.lft.to/lastmile_qr_scan"}, "lat": 38.914874833333336, "bike_id": "31b93fa356833d4b956267e9e3b3eb7a", "is_disabled": 0, "lon": -77.04493, "is_reserved": 0, "fusion_lat": 0.0, "type": "electric_scooter"}, {"fusion_lon": 0.0, "name": "269dd156601be779033cf241f39f0446", "rental_uris": {"android": "https://dc.lft.to/lastmile_qr_scan", "ios": "https://dc.lft.to/lastmile_qr_scan"}, "lat": 38.883196166666664, "bike_id": "269dd156601be779033cf241f39f0446", "is_disabled": 0, "lon": -76.91091033333333, "is_reserved": 0, "fusion_lat": 0.0, "type": "electric_bike"}, {"fusion_lon": 0.0, "name": "fe50b7e08cad905dbe0b1475224e4b38", "rental_uris": {"android": "https://dc.lft.to/lastmile_qr_scan", "ios": "https://dc.lft.to/lastmile_qr_scan"}, "lat": 38.921546666666664, "bike_id": "fe50b7e08cad905dbe0b1475224e4b38", "is_disabled": 0, "lon": -77.033848, "is_reserved": 0, "fusion_lat": 0.0, "type": "electric_scooter"}, {"fusion_lon": 0.0, "name": "8713cfcb0c14ba402281f3fef608e330", "rental_uris": {"android": "https://dc.lft.to/lastmile_qr_scan", "ios": "https://dc.lft.to/lastmile_qr_scan"}, "lat": 38.90757933333333, "bike_id": "8713cfcb0c14ba402281f3fef608e330", "is_disabled": 0, "lon": -77.04227666666667, "is_reserved": 0, "fusion_lat": 0.0, "type": "electric_scooter"}, {"fusion_lon": 0.0, "name": "364c704d76f825b66df6bc558fe4eb87", "rental_uris": {"android": "https://dc.lft.to/lastmile_qr_scan", "ios": "https://dc.lft.to/lastmile_qr_scan"}, "lat": 38.90044133333333, "bike_id": "364c704d76f825b66df6bc558fe4eb87", "is_disabled": 0, "lon": -76.985519, "is_reserved": 0, "fusion_lat": 0.0, "type": "electric_scooter"}, {"fusion_lon": 0.0, "name": "558b10ad1772fcffe72989fa0478ffb7", "rental_uris": {"android": "https://dc.lft.to/lastmile_qr_scan", "ios": "https://dc.lft.to/lastmile_qr_scan"}, "lat": 38.914582333333335, "bike_id": "558b10ad1772fcffe72989fa0478ffb7", "is_disabled": 0, "lon": -77.04167683333333, "is_reserved": 0, "fusion_lat": 0.0, "type": "electric_scooter"}, {"fusion_lon": 0.0, "name": "d22699671216623f1b7eacc883ee9f90", "rental_uris": {"android": "https://dc.lft.to/lastmile_qr_scan", "ios": "https://dc.lft.to/lastmile_qr_scan"}, "lat": 38.9215265, "bike_id": "d22699671216623f1b7eacc883ee9f90", "is_disabled": 0, "lon": -77.0353255, "is_reserved": 0, "fusion_lat": 0.0, "type": "electric_scooter"}, {"fusion_lon": 0.0, "name": "9b781d134b3f7d8e89cd376ca7be6875", "rental_uris": {"android": "https://dc.lft.to/lastmile_qr_scan", "ios": "https://dc.lft.to/lastmile_qr_scan"}, "lat": 38.894229, "bike_id": "9b781d134b3f7d8e89cd376ca7be6875", "is_disabled": 0, "lon": -76.99772766666666, "is_reserved": 0, "fusion_lat": 0.0, "type": "electric_scooter"}, {"fusion_lon": 0.0, "name": "8529143249c212ac4fbe0656bf5da36a", "rental_uris": {"android": "https://dc.lft.to/lastmile_qr_scan", "ios": "https://dc.lft.to/lastmile_qr_scan"}, "lat": 39.03812083333333, "bike_id": "8529143249c212ac4fbe0656bf5da36a", "is_disabled": 0, "lon": -77.04221266666667, "is_reserved": 0, "fusion_lat": 0.0, "type": "electric_bike"}, {"fusion_lon": 0.0, "name": "6a0e4103bee9cab3c20f321a0aa119dd", "rental_uris": {"android": "https://dc.lft.to/lastmile_qr_scan", "ios": "https://dc.lft.to/lastmile_qr_scan"}, "lat": 38.88222716666667, "bike_id": "6a0e4103bee9cab3c20f321a0aa119dd", "is_disabled": 0, "lon": -76.93915483333333, "is_reserved": 0, "fusion_lat": 0.0, "type": "electric_scooter"}, {"fusion_lon": 0.0, "name": "99278fc9a0b9f56960208a85e204ad49", "rental_uris": {"android": "https://dc.lft.to/lastmile_qr_scan", "ios": "https://dc.lft.to/lastmile_qr_scan"}, "lat": 38.9246675, "bike_id": "99278fc9a0b9f56960208a85e204ad49", "is_disabled": 0, "lon": -77.02204083333334, "is_reserved": 0, "fusion_lat": 0.0, "type": "electric_scooter"}, {"fusion_lon": 0.0, "name": "ea1032dd56cc966d5409362bd368970b", "rental_uris": {"android": "https://dc.lft.to/lastmile_qr_scan", "ios": "https://dc.lft.to/lastmile_qr_scan"}, "lat": 38.892167, "bike_id": "ea1032dd56cc966d5409362bd368970b", "is_disabled": 0, "lon": -77.048674, "is_reserved": 0, "fusion_lat": 0.0, "type": "electric_scooter"}, {"fusion_lon": 0.0, "name": "f191348637b83bdb76360a075546bf96", "rental_uris": {"android": "https://dc.lft.to/lastmile_qr_scan", "ios": "https://dc.lft.to/lastmile_qr_scan"}, "lat": 38.886512, "bike_id": "f191348637b83bdb76360a075546bf96", "is_disabled": 0, "lon": -77.00118016666667, "is_reserved": 0, "fusion_lat": 0.0, "type": "electric_scooter"}, {"fusion_lon": 0.0, "name": "279c14a2ea6f5c826427d9660975b3e4", "rental_uris": {"android": "https://dc.lft.to/lastmile_qr_scan", "ios": "https://dc.lft.to/lastmile_qr_scan"}, "lat": 38.9271155, "bike_id": "279c14a2ea6f5c826427d9660975b3e4", "is_disabled": 0, "lon": -77.05356133333333, "is_reserved": 0, "fusion_lat": 0.0, "type": "electric_scooter"}, {"fusion_lon": 0.0, "name": "9efaf95b2b9f7400346ed1056ed0fd45", "rental_uris": {"android": "https://dc.lft.to/lastmile_qr_scan", "ios": "https://dc.lft.to/lastmile_qr_scan"}, "lat": 38.892224, "bike_id": "9efaf95b2b9f7400346ed1056ed0fd45", "is_disabled": 0, "lon": -77.04464966666667, "is_reserved": 0, "fusion_lat": 0.0, "type": "electric_scooter"}, {"fusion_lon": 0.0, "name": "f1579b408849edc349bf096207862124", "rental_uris": {"android": "https://dc.lft.to/lastmile_qr_scan", "ios": "https://dc.lft.to/lastmile_qr_scan"}, "lat": 38.91653, "bike_id": "f1579b408849edc349bf096207862124", "is_disabled": 0, "lon": -77.00920683333334, "is_reserved": 0, "fusion_lat": 0.0, "type": "electric_scooter"}, {"fusion_lon": 0.0, "name": "e3cdf1109e824589562a829e58d50a84", "rental_uris": {"android": "https://dc.lft.to/lastmile_qr_scan", "ios": "https://dc.lft.to/lastmile_qr_scan"}, "lat": 38.943018333333335, "bike_id": "e3cdf1109e824589562a829e58d50a84", "is_disabled": 0, "lon": -77.03459783333334, "is_reserved": 0, "fusion_lat": 0.0, "type": "electric_scooter"}, {"fusion_lon": 0.0, "name": "e0f92b9df0489c98505a121b8e6b6b24", "rental_uris": {"android": "https://dc.lft.to/lastmile_qr_scan", "ios": "https://dc.lft.to/lastmile_qr_scan"}, "lat": 38.93425283333333, "bike_id": "e0f92b9df0489c98505a121b8e6b6b24", "is_disabled": 0, "lon": -77.03995983333333, "is_reserved": 0, "fusion_lat": 0.0, "type": "electric_bike"}, {"fusion_lon": 0.0, "name": "77dbdd6b702a1ff1aa20d85fa0c3d819", "rental_uris": {"android": "https://dc.lft.to/lastmile_qr_scan", "ios": "https://dc.lft.to/lastmile_qr_scan"}, "lat": 38.91501516666667, "bike_id": "77dbdd6b702a1ff1aa20d85fa0c3d819", "is_disabled": 0, "lon": -77.03251683333333, "is_reserved": 0, "fusion_lat": 0.0, "type": "electric_scooter"}, {"fusion_lon": 0.0, "name": "086cac0e3a5f77a520bac5186a3ee816", "rental_uris": {"android": "https://dc.lft.to/lastmile_qr_scan", "ios": "https://dc.lft.to/lastmile_qr_scan"}, "lat": 38.90796666666667, "bike_id": "086cac0e3a5f77a520bac5186a3ee816", "is_disabled": 0, "lon": -77.03189616666667, "is_reserved": 0, "fusion_lat": 0.0, "type": "electric_scooter"}, {"fusion_lon": 0.0, "name": "e670e324a3358108cb5619d659886277", "rental_uris": {"android": "https://dc.lft.to/lastmile_qr_scan", "ios": "https://dc.lft.to/lastmile_qr_scan"}, "lat": 38.885009333333336, "bike_id": "e670e324a3358108cb5619d659886277", "is_disabled": 0, "lon": -77.00221416666666, "is_reserved": 0, "fusion_lat": 0.0, "type": "electric_scooter"}, {"fusion_lon": 0.0, "name": "e262e73deb6f1f007f5b2054dfbf2702", "rental_uris": {"android": "https://dc.lft.to/lastmile_qr_scan", "ios": "https://dc.lft.to/lastmile_qr_scan"}, "lat": 38.8133195, "bike_id": "e262e73deb6f1f007f5b2054dfbf2702", "is_disabled": 0, "lon": -77.050847, "is_reserved": 0, "fusion_lat": 0.0, "type": "electric_bike"}, {"fusion_lon": 0.0, "name": "e29f5af1e5a53830cae9fcc9cf7b9578", "rental_uris": {"android": "https://dc.lft.to/lastmile_qr_scan", "ios": "https://dc.lft.to/lastmile_qr_scan"}, "lat": 39.01087116666667, "bike_id": "e29f5af1e5a53830cae9fcc9cf7b9578", "is_disabled": 0, "lon": -77.04949933333333, "is_reserved": 0, "fusion_lat": 0.0, "type": "electric_bike"}, {"fusion_lon": 0.0, "name": "98f136ddfe8b75c1c7defae457dd9ee6", "rental_uris": {"android": "https://dc.lft.to/lastmile_qr_scan", "ios": "https://dc.lft.to/lastmile_qr_scan"}, "lat": 38.9039355, "bike_id": "98f136ddfe8b75c1c7defae457dd9ee6", "is_disabled": 0, "lon": -77.028264, "is_reserved": 0, "fusion_lat": 0.0, "type": "electric_scooter"}, {"fusion_lon": 0.0, "name": "6cd137c0e8923524de357ba8edb7be78", "rental_uris": {"android": "https://dc.lft.to/lastmile_qr_scan", "ios": "https://dc.lft.to/lastmile_qr_scan"}, "lat": 38.924174, "bike_id": "6cd137c0e8923524de357ba8edb7be78", "is_disabled": 0, "lon": -77.02293, "is_reserved": 0, "fusion_lat": 0.0, "type": "electric_scooter"}, {"fusion_lon": 0.0, "name": "5d35c02cf0b30f5f4ed46b590a797131", "rental_uris": {"android": "https://dc.lft.to/lastmile_qr_scan", "ios": "https://dc.lft.to/lastmile_qr_scan"}, "lat": 38.905323, "bike_id": "5d35c02cf0b30f5f4ed46b590a797131", "is_disabled": 0, "lon": -77.02216333333334, "is_reserved": 0, "fusion_lat": 0.0, "type": "electric_scooter"}, {"fusion_lon": 0.0, "name": "7a67cd2c9e9b469ee5b33c4fb4521942", "rental_uris": {"android": "https://dc.lft.to/lastmile_qr_scan", "ios": "https://dc.lft.to/lastmile_qr_scan"}, "lat": 38.9340275, "bike_id": "7a67cd2c9e9b469ee5b33c4fb4521942", "is_disabled": 0, "lon": -77.04545766666666, "is_reserved": 0, "fusion_lat": 0.0, "type": "electric_scooter"}, {"fusion_lon": 0.0, "name": "fc190815437e04ee0392fae5f1d33589", "rental_uris": {"android": "https://dc.lft.to/lastmile_qr_scan", "ios": "https://dc.lft.to/lastmile_qr_scan"}, "lat": 38.922441666666664, "bike_id": "fc190815437e04ee0392fae5f1d33589", "is_disabled": 0, "lon": -77.0193725, "is_reserved": 0, "fusion_lat": 0.0, "type": "electric_scooter"}, {"fusion_lon": 0.0, "name": "6bff04d1deeef7bb6392fe8fbfbb6e10", "rental_uris": {"android": "https://dc.lft.to/lastmile_qr_scan", "ios": "https://dc.lft.to/lastmile_qr_scan"}, "lat": 38.91790016666667, "bike_id": "6bff04d1deeef7bb6392fe8fbfbb6e10", "is_disabled": 0, "lon": -77.02298433333333, "is_reserved": 0, "fusion_lat": 0.0, "type": "electric_scooter"}, {"fusion_lon": 0.0, "name": "b9ddc44e48b24205f2f23f5dcad0e415", "rental_uris": {"android": "https://dc.lft.to/lastmile_qr_scan", "ios": "https://dc.lft.to/lastmile_qr_scan"},