{"data": {"bikes": [{"rental_uris": {"android": "https://dc.lft.to/lastmile_qr_scan", "ios": "https://dc.lft.to/lastmile_qr_scan"}, "is_reserved": 0, "is_disabled": 0, "name": "3801d5a291eed83e9adc010ae8d348d1", "bike_id": "3801d5a291eed83e9adc010ae8d348d1", "fusion_lat": 0.0, "lon": -77.0455305, "type": "electric_scooter", "fusion_lon": 0.0, "lat": 38.90163483333333}, {"rental_uris": {"android": "https://dc.lft.to/lastmile_qr_scan", "ios": "https://dc.lft.to/lastmile_qr_scan"}, "is_reserved": 0, "is_disabled": 0, "name": "5918610f6c8e74a8228e7325472dace3", "bike_id": "5918610f6c8e74a8228e7325472dace3", "fusion_lat": 0.0, "lon": -77.05916833333333, "type": "electric_scooter", "fusion_lon": 0.0, "lat": 38.902261833333334}, {"rental_uris": {"android": "https://dc.lft.to/lastmile_qr_scan", "ios": "https://dc.lft.to/lastmile_qr_scan"}, "is_reserved": 0, "is_disabled": 0, "name": "659f667cc5d4f99e8817b513382d5579", "bike_id": "659f667cc5d4f99e8817b513382d5579", "fusion_lat": 0.0, "lon": -77.1274685, "type": "electric_bike", "fusion_lon": 0.0, "lat": 38.895696}, {"rental_uris": {"android": "https://dc.lft.to/lastmile_qr_scan", "ios": "https://dc.lft.to/lastmile_qr_scan"}, "is_reserved": 0, "is_disabled": 0, "name": "ac8a7d9cb62f4bba773c75cb357fd90f", "bike_id": "ac8a7d9cb62f4bba773c75cb357fd90f", "fusion_lat": 0.0, "lon": -77.021855, "type": "electric_scooter", "fusion_lon": 0.0, "lat": 38.89523833333333}, {"rental_uris": {"android": "https://dc.lft.to/lastmile_qr_scan", "ios": "https://dc.lft.to/lastmile_qr_scan"}, "is_reserved": 0, "is_disabled": 0, "name": "c46d7cf19319f7fb5e23bf45bac0db31", "bike_id": "c46d7cf19319f7fb5e23bf45bac0db31", "fusion_lat": 0.0, "lon": -76.94574516666667, "type": "electric_scooter", "fusion_lon": 0.0, "lat": 38.8991945}, {"rental_uris": {"android": "https://dc.lft.to/lastmile_qr_scan", "ios": "https://dc.lft.to/lastmile_qr_scan"}, "is_reserved": 0, "is_disabled": 0, "name": "407661ecbb6ed24c392816092adf9b01", "bike_id": "407661ecbb6ed24c392816092adf9b01", "fusion_lat": 0.0, "lon": -77.03880433333333, "type": "electric_bike", "fusion_lon": 0.0, "lat": 39.02623233333333}, {"rental_uris": {"android": "https://dc.lft.to/lastmile_qr_scan", "ios": "https://dc.lft.to/lastmile_qr_scan"}, "is_reserved": 0, "is_disabled": 0, "name": "b30cb8f2d206d35cc25f589ca717bd3d", "bike_id": "b30cb8f2d206d35cc25f589ca717bd3d", "fusion_lat": 0.0, "lon": -77.00195333333333, "type": "electric_scooter", "fusion_lon": 0.0, "lat": 38.904794833333334}, {"rental_uris": {"android": "https://dc.lft.to/lastmile_qr_scan", "ios": "https://dc.lft.to/lastmile_qr_scan"}, "is_reserved": 0, "is_disabled": 0, "name": "8c432297831e5b87cc97873eb4318beb", "bike_id": "8c432297831e5b87cc97873eb4318beb", "fusion_lat": 0.0, "lon": -77.02282033333333, "type": "electric_scooter", "fusion_lon": 0.0, "lat": 38.89837083333333}, {"rental_uris": {"android": "https://dc.lft.to/lastmile_qr_scan", "ios": "https://dc.lft.to/lastmile_qr_scan"}, "is_reserved": 0, "is_disabled": 0, "name": "ab10783bcb581aacd01df8c03533a4ac", "bike_id": "ab10783bcb581aacd01df8c03533a4ac", "fusion_lat": 0.0, "lon": -76.998694, "type": "electric_bike", "fusion_lon": 0.0, "lat": 38.94287333333333}, {"rental_uris": {"android": "https://dc.lft.to/lastmile_qr_scan", "ios": "https://dc.lft.to/lastmile_qr_scan"}, "is_reserved": 0, "is_disabled": 0, "name": "ccfd2c1776f64f32b7e1d037ab49d9f1", "bike_id": "ccfd2c1776f64f32b7e1d037ab49d9f1", "fusion_lat": 0.0, "lon": -77.02384016666667, "type": "electric_scooter", "fusion_lon": 0.0, "lat": 38.891965}, {"rental_uris": {"android": "https://dc.lft.to/lastmile_qr_scan", "ios": "https://dc.lft.to/lastmile_qr_scan"}, "is_reserved": 0, "is_disabled": 0, "name": "6e157df86e1c56e0cadb7fb6bb917ac8", "bike_id": "6e157df86e1c56e0cadb7fb6bb917ac8", "fusion_lat": 0.0, "lon": -77.019837, "type": "electric_scooter", "fusion_lon": 0.0, "lat": 38.93026233333333}, {"rental_uris": {"android": "https://dc.lft.to/lastmile_qr_scan", "ios": "https://dc.lft.to/lastmile_qr_scan"}, "is_reserved": 0, "is_disabled": 0, "name": "9fe724547da72477d33b9d2c81993b1a", "bike_id": "9fe724547da72477d33b9d2c81993b1a", "fusion_lat": 0.0, "lon": -77.03962283333334, "type": "electric_scooter", "fusion_lon": 0.0, "lat": 38.90832416666667}, {"rental_uris": {"android": "https://dc.lft.to/lastmile_qr_scan", "ios": "https://dc.lft.to/lastmile_qr_scan"}, "is_reserved": 0, "is_disabled": 0, "name": "8fd56c1b3b65e0f1fc84fe97a5cd7651", "bike_id": "8fd56c1b3b65e0f1fc84fe97a5cd7651", "fusion_lat": 0.0, "lon": -77.01718916666667, "type": "electric_scooter", "fusion_lon": 0.0, "lat": 38.974924}, {"rental_uris": {"android": "https://dc.lft.to/lastmile_qr_scan", "ios": "https://dc.lft.to/lastmile_qr_scan"}, "is_reserved": 0, "is_disabled": 0, "name": "b3b1fcadf789064267e44efb210870c1", "bike_id": "b3b1fcadf789064267e44efb210870c1", "fusion_lat": 0.0, "lon": -77.01958183333333, "type": "electric_scooter", "fusion_lon": 0.0, "lat": 38.89824766666667}, {"rental_uris": {"android": "https://dc.lft.to/lastmile_qr_scan", "ios": "https://dc.lft.to/lastmile_qr_scan"}, "is_reserved": 0, "is_disabled": 0, "name": "26c2e37f88c9663a7c7458fb845fd82d", "bike_id": "26c2e37f88c9663a7c7458fb845fd82d", "fusion_lat": 0.0, "lon": -77.02671016666666, "type": "electric_scooter", "fusion_lon": 0.0, "lat": 38.92466483333333}, {"rental_uris": {"android": "https://dc.lft.to/lastmile_qr_scan", "ios": "https://dc.lft.to/lastmile_qr_scan"}, "is_reserved": 0, "is_disabled": 0, "name": "d811a3a004cefff8f387372881c2207e", "bike_id": "d811a3a004cefff8f387372881c2207e", "fusion_lat": 0.0, "lon": -77.01732583333333, "type": "electric_scooter", "fusion_lon": 0.0, "lat": 38.885938333333335}, {"rental_uris": {"android": "https://dc.lft.to/lastmile_qr_scan", "ios": "https://dc.lft.to/lastmile_qr_scan"}, "is_reserved": 0, "is_disabled": 0, "name": "a9dbfca3ce9ee2abef8201f96d0d9121", "bike_id": "a9dbfca3ce9ee2abef8201f96d0d9121", "fusion_lat": 0.0, "lon": -77.0438935, "type": "electric_scooter", "fusion_lon": 0.0, "lat": 38.9155345}, {"rental_uris": {"android": "https://dc.lft.to/lastmile_qr_scan", "ios": "https://dc.lft.to/lastmile_qr_scan"}, "is_reserved": 0, "is_disabled": 0, "name": "6bbbd12fe582ead5e7ffb354560f8b2d", "bike_id": "6bbbd12fe582ead5e7ffb354560f8b2d", "fusion_lat": 0.0, "lon": -77.01151633333333, "type": "electric_bike", "fusion_lon": 0.0, "lat": 38.95232}, {"rental_uris": {"android": "https://dc.lft.to/lastmile_qr_scan", "ios": "https://dc.lft.to/lastmile_qr_scan"}, "is_reserved": 0, "is_disabled": 0, "name": "265c352cd6496126eb937def3e66fbe0", "bike_id": "265c352cd6496126eb937def3e66fbe0", "fusion_lat": 0.0, "lon": -77.0283975, "type": "electric_bike", "fusion_lon": 0.0, "lat": 38.9140075}, {"rental_uris": {"android": "https://dc.lft.to/lastmile_qr_scan", "ios": "https://dc.lft.to/lastmile_qr_scan"}, "is_reserved": 0, "is_disabled": 0, "name": "841a419197e15cbb56e52efc7bbfe322", "bike_id": "841a419197e15cbb56e52efc7bbfe322", "fusion_lat": 0.0, "lon": -76.96545066666667, "type": "electric_scooter", "fusion_lon": 0.0, "lat": 38.91850866666667}, {"rental_uris": {"android": "https://dc.lft.to/lastmile_qr_scan", "ios": "https://dc.lft.to/lastmile_qr_scan"}, "is_reserved": 0, "is_disabled": 0, "name": "ac7c41b1a4348fcf661d8ad57eb9ad20", "bike_id": "ac7c41b1a4348fcf661d8ad57eb9ad20", "fusion_lat": 0.0, "lon": -77.01981066666667, "type": "electric_scooter", "fusion_lon": 0.0, "lat": 38.905585333333335}, {"rental_uris": {"android": "https://dc.lft.to/lastmile_qr_scan", "ios": "https://dc.lft.to/lastmile_qr_scan"}, "is_reserved": 0, "is_disabled": 0, "name": "30897455c0bd84a6ff71dd0a2da5bbbd", "bike_id": "30897455c0bd84a6ff71dd0a2da5bbbd", "fusion_lat": 0.0, "lon": -77.01219266666666, "type": "electric_scooter", "fusion_lon": 0.0, "lat": 38.91546833333334}, {"rental_uris": {"android": "https://dc.lft.to/lastmile_qr_scan", "ios": "https://dc.lft.to/lastmile_qr_scan"}, "is_reserved": 0, "is_disabled": 0, "name": "40d633ccac34f80593d8089be5b7756f", "bike_id": "40d633ccac34f80593d8089be5b7756f", "fusion_lat": 0.0, "lon": -77.02879366666667, "type": "electric_scooter", "fusion_lon": 0.0, "lat": 38.9165335}, {"rental_uris": {"android": "https://dc.lft.to/lastmile_qr_scan", "ios": "https://dc.lft.to/lastmile_qr_scan"}, "is_reserved": 0, "is_disabled": 0, "name": "4072f9a37990761d06e5c6dbd0233811", "bike_id": "4072f9a37990761d06e5c6dbd0233811", "fusion_lat": 0.0, "lon": -77.0327345, "type": "electric_scooter", "fusion_lon": 0.0, "lat": 38.898833333333336}, {"rental_uris": {"android": "https://dc.lft.to/lastmile_qr_scan", "ios": "https://dc.lft.to/lastmile_qr_scan"}, "is_reserved": 0, "is_disabled": 0, "name": "8f646762da09ee68f724dde5f33b2db3", "bike_id": "8f646762da09ee68f724dde5f33b2db3", "fusion_lat": 0.0, "lon": -77.02374016666667, "type": "electric_scooter", "fusion_lon": 0.0, "lat": 38.90213583333333}, {"rental_uris": {"android": "https://dc.lft.to/lastmile_qr_scan", "ios": "https://dc.lft.to/lastmile_qr_scan"}, "is_reserved": 0, "is_disabled": 0, "name": "9e75914d03251dd705cb51669bb37982", "bike_id": "9e75914d03251dd705cb51669bb37982", "fusion_lat": 0.0, "lon": -77.00205166666667, "type": "electric_scooter", "fusion_lon": 0.0, "lat": 38.90516733333333}, {"rental_uris": {"android": "https://dc.lft.to/lastmile_qr_scan", "ios": "https://dc.lft.to/lastmile_qr_scan"}, "is_reserved": 0, "is_disabled": 0, "name": "93e73bfb29743a98acda424da01622b1", "bike_id": "93e73bfb29743a98acda424da01622b1", "fusion_lat": 0.0, "lon": -77.0636035, "type": "electric_scooter", "fusion_lon": 0.0, "lat": 38.92020933333333}, {"rental_uris": {"android": "https://dc.lft.to/lastmile_qr_scan", "ios": "https://dc.lft.to/lastmile_qr_scan"}, "is_reserved": 0, "is_disabled": 0, "name": "66ef61aad8534b0f4d7897c10868ce88", "bike_id": "66ef61aad8534b0f4d7897c10868ce88", "fusion_lat": 0.0, "lon": -77.02346366666667, "type": "electric_scooter", "fusion_lon": 0.0, "lat": 38.94192833333334}, {"rental_uris": {"android": "https://dc.lft.to/lastmile_qr_scan", "ios": "https://dc.lft.to/lastmile_qr_scan"}, "is_reserved": 0, "is_disabled": 0, "name": "a837471905013929d37d3c6f0649fe63", "bike_id": "a837471905013929d37d3c6f0649fe63", "fusion_lat": 0.0, "lon": -77.00194833333333, "type": "electric_scooter", "fusion_lon": 0.0, "lat": 38.8896235}, {"rental_uris": {"android": "https://dc.lft.to/lastmile_qr_scan", "ios": "https://dc.lft.to/lastmile_qr_scan"}, "is_reserved": 0, "is_disabled": 0, "name": "3387e2a8b204c0824b9837edd0104384", "bike_id": "3387e2a8b204c0824b9837edd0104384", "fusion_lat": 0.0, "lon": -77.02418916666667, "type": "electric_scooter", "fusion_lon": 0.0, "lat": 38.892181}, {"rental_uris": {"android": "https://dc.lft.to/lastmile_qr_scan", "ios": "https://dc.lft.to/lastmile_qr_scan"}, "is_reserved": 0, "is_disabled": 0, "name": "16b61d1dd5873658d6acb1fcb73b0176", "bike_id": "16b61d1dd5873658d6acb1fcb73b0176", "fusion_lat": 0.0, "lon": -77.01958983333333, "type": "electric_scooter", "fusion_lon": 0.0, "lat": 38.92322333333333}, {"rental_uris": {"android": "https://dc.lft.to/lastmile_qr_scan", "ios": "https://dc.lft.to/lastmile_qr_scan"}, "is_reserved": 0, "is_disabled": 0, "name": "0141d2a8d166965f381c4f4cf6f54c4d", "bike_id": "0141d2a8d166965f381c4f4cf6f54c4d", "fusion_lat": 0.0, "lon": -77.00199833333333, "type": "electric_scooter", "fusion_lon": 0.0, "lat": 38.892122}, {"rental_uris": {"android": "https://dc.lft.to/lastmile_qr_scan", "ios": "https://dc.lft.to/lastmile_qr_scan"}, "is_reserved": 0, "is_disabled": 0, "name": "f0fa82f7ce4e936291d5d6525ff63200", "bike_id": "f0fa82f7ce4e936291d5d6525ff63200", "fusion_lat": 0.0, "lon": -77.02309383333333, "type": "electric_scooter", "fusion_lon": 0.0, "lat": 38.909584333333335}, {"rental_uris": {"android": "https://dc.lft.to/lastmile_qr_scan", "ios": "https://dc.lft.to/lastmile_qr_scan"}, "is_reserved": 0, "is_disabled": 0, "name": "53a3563998f9ec4aa5ceeb495ee6c902", "bike_id": "53a3563998f9ec4aa5ceeb495ee6c902", "fusion_lat": 0.0, "lon": -77.00332866666666, "type": "electric_scooter", "fusion_lon": 0.0, "lat": 38.89359116666667}, {"rental_uris": {"android": "https://dc.lft.to/lastmile_qr_scan", "ios": "https://dc.lft.to/lastmile_qr_scan"}, "is_reserved": 0, "is_disabled": 0, "name": "62f3810a59638b32a08a227521f72a90", "bike_id": "62f3810a59638b32a08a227521f72a90", "fusion_lat": 0.0, "lon": -77.02218316666666, "type": "electric_scooter", "fusion_lon": 0.0, "lat": 38.924680333333335}, {"rental_uris": {"android": "https://dc.lft.to/lastmile_qr_scan", "ios": "https://dc.lft.to/lastmile_qr_scan"}, "is_reserved": 0, "is_disabled": 0, "name": "abf16b1a128441d211aefec3445ad902", "bike_id": "abf16b1a128441d211aefec3445ad902", "fusion_lat": 0.0, "lon": -77.03271683333334, "type": "electric_scooter", "fusion_lon": 0.0, "lat": 38.932563333333334}, {"rental_uris": {"android": "https://dc.lft.to/lastmile_qr_scan", "ios": "https://dc.lft.to/lastmile_qr_scan"}, "is_reserved": 0, "is_disabled": 0, "name": "c967a83caf6b01c96c54f3e8b11cf4d5", "bike_id": "c967a83caf6b01c96c54f3e8b11cf4d5", "fusion_lat": 0.0, "lon": -77.02593083333333, "type": "electric_scooter", "fusion_lon": 0.0, "lat": 38.90341566666667}, {"rental_uris": {"android": "https://dc.lft.to/lastmile_qr_scan", "ios": "https://dc.lft.to/lastmile_qr_scan"}, "is_reserved": 0, "is_disabled": 0, "name": "37f4944e61061926e230c9bd8e7dcc8f", "bike_id": "37f4944e61061926e230c9bd8e7dcc8f", "fusion_lat": 0.0, "lon": -76.99702483333333, "type": "electric_bike", "fusion_lon": 0.0, "lat": 38.83867166666667}, {"rental_uris": {"android": "https://dc.lft.to/lastmile_qr_scan", "ios": "https://dc.lft.to/lastmile_qr_scan"}, "is_reserved": 0, "is_disabled": 0, "name": "7024d920b91b5fd172dcb330a55c26bf", "bike_id": "7024d920b91b5fd172dcb330a55c26bf", "fusion_lat": 0.0, "lon": -77.04155466666667, "type": "electric_scooter", "fusion_lon": 0.0, "lat": 38.91722566666667}, {"rental_uris": {"android": "https://dc.lft.to/lastmile_qr_scan", "ios": "https://dc.lft.to/lastmile_qr_scan"}, "is_reserved": 0, "is_disabled": 0, "name": "d7b0086889c272a27b5693f6f31c5509", "bike_id": "d7b0086889c272a27b5693f6f31c5509", "fusion_lat": 0.0, "lon": -76.99275333333334, "type": "electric_bike", "fusion_lon": 0.0, "lat": 38.97261316666667}, {"rental_uris": {"android": "https://dc.lft.to/lastmile_qr_scan", "ios": "https://dc.lft.to/lastmile_qr_scan"}, "is_reserved": 0, "is_disabled": 0, "name": "c4d7b589e2729255710c9d1421155b19", "bike_id": "c4d7b589e2729255710c9d1421155b19", "fusion_lat": 0.0, "lon": -77.028869, "type": "electric_scooter", "fusion_lon": 0.0, "lat": 38.913501833333335}, {"rental_uris": {"android": "https://dc.lft.to/lastmile_qr_scan", "ios": "https://dc.lft.to/lastmile_qr_scan"}, "is_reserved": 0, "is_disabled": 0, "name": "2fa9517b02f8b69297d18c5375158bb5", "bike_id": "2fa9517b02f8b69297d18c5375158bb5", "fusion_lat": 0.0, "lon": -77.04440833333334, "type": "electric_bike", "fusion_lon": 0.0, "lat": 38.901364}, {"rental_uris": {"android": "https://dc.lft.to/lastmile_qr_scan", "ios": "https://dc.lft.to/lastmile_qr_scan"}, "is_reserved": 0, "is_disabled": 0, "name": "9eafc4bfda1bd6f366dc33bfdb6088e7", "bike_id": "9eafc4bfda1bd6f366dc33bfdb6088e7", "fusion_lat": 0.0, "lon": -76.99696233333333, "type": "electric_scooter", "fusion_lon": 0.0, "lat": 38.88417033333333}, {"rental_uris": {"android": "https://dc.lft.to/lastmile_qr_scan", "ios": "https://dc.lft.to/lastmile_qr_scan"}, "is_reserved": 0, "is_disabled": 0, "name": "0b36e26be1f282e88dd1307dfdf8c5bf", "bike_id": "0b36e26be1f282e88dd1307dfdf8c5bf", "fusion_lat": 0.0, "lon": -77.05345316666667, "type": "electric_scooter", "fusion_lon": 0.0, "lat": 38.923303833333335}, {"rental_uris": {"android": "https://dc.lft.to/lastmile_qr_scan", "ios": "https://dc.lft.to/lastmile_qr_scan"}, "is_reserved": 0, "is_disabled": 0, "name": "ac59cdec37cce54eb50b7c55212cabb3", "bike_id": "ac59cdec37cce54eb50b7c55212cabb3", "fusion_lat": 0.0, "lon": -77.042067, "type": "electric_scooter", "fusion_lon": 0.0, "lat": 38.9075145}, {"rental_uris": {"android": "https://dc.lft.to/lastmile_qr_scan", "ios": "https://dc.lft.to/lastmile_qr_scan"}, "is_reserved": 0, "is_disabled": 0, "name": "c6aea34877d8120f469dc7159c8f8951", "bike_id": "c6aea34877d8120f469dc7159c8f8951", "fusion_lat": 0.0, "lon": -77.032191, "type": "electric_scooter", "fusion_lon": 0.0, "lat": 38.90747066666667}, {"rental_uris": {"android": "https://dc.lft.to/lastmile_qr_scan", "ios": "https://dc.lft.to/lastmile_qr_scan"}, "is_reserved": 0, "is_disabled": 0, "name": "b8dd6acc944f4a35c5fa5e19ce79a21e", "bike_id": "b8dd6acc944f4a35c5fa5e19ce79a21e", "fusion_lat": 0.0, "lon": -77.01912433333334, "type": "electric_bike", "fusion_lon": 0.0, "lat": 38.937745666666665}, {"rental_uris": {"android": "https://dc.lft.to/lastmile_qr_scan", "ios": "https://dc.lft.to/lastmile_qr_scan"}, "is_reserved": 0, "is_disabled": 0, "name": "0f8ba4dd7d3fbe446e258497a4bcb88f", "bike_id": "0f8ba4dd7d3fbe446e258497a4bcb88f", "fusion_lat": 0.0, "lon": -77.0133955, "type": "electric_scooter", "fusion_lon": 0.0, "lat": 38.8812895}, {"rental_uris": {"android": "https://dc.lft.to/lastmile_qr_scan", "ios": "https://dc.lft.to/lastmile_qr_scan"}, "is_reserved": 0, "is_disabled": 0, "name": "5a7329a8fa97d716c29e8d13263e2453", "bike_id": "5a7329a8fa97d716c29e8d13263e2453", "fusion_lat": 0.0, "lon": -77.030032, "type": "electric_scooter", "fusion_lon": 0.0, "lat": 38.89545716666667}, {"rental_uris": {"android": "https://dc.lft.to/lastmile_qr_scan", "ios": "https://dc.lft.to/lastmile_qr_scan"}, "is_reserved": 0, "is_disabled": 0, "name": "ff054d516d11d3f00654d8d2ae7904de", "bike_id": "ff054d516d11d3f00654d8d2ae7904de", "fusion_lat": 0.0, "lon": -77.04672233333334, "type": "electric_scooter", "fusion_lon": 0.0, "lat": 38.89730316666667}, {"rental_uris": {"android": "https://dc.lft.to/lastmile_qr_scan", "ios": "https://dc.lft.to/lastmile_qr_scan"}, "is_reserved": 0, "is_disabled": 0, "name": "e7299d306df165901952eb25e8b9fa4d", "bike_id": "e7299d306df165901952eb25e8b9fa4d", "fusion_lat": 0.0, "lon": -77.04836683333333, "type": "electric_scooter", "fusion_lon": 0.0, "lat": 38.903917}, {"rental_uris": {"android": "https://dc.lft.to/lastmile_qr_scan", "ios": "https://dc.lft.to/lastmile_qr_scan"}, "is_reserved": 0, "is_disabled": 0, "name": "4cf08209e1659481cfc035199eb99736", "bike_id": "4cf08209e1659481cfc035199eb99736", "fusion_lat": 0.0, "lon": -77.00893266666667, "type": "electric_scooter", "fusion_lon": 0.0, "lat": 38.9248085}, {"rental_uris": {"android": "https://dc.lft.to/lastmile_qr_scan", "ios": "https://dc.lft.to/lastmile_qr_scan"}, "is_reserved": 0, "is_disabled": 0, "name": "d0802993a5b00afe8d7c11701610be3c", "bike_id": "d0802993a5b00afe8d7c11701610be3c", "fusion_lat": 0.0, "lon": -77.02594983333333, "type": "electric_scooter", "fusion_lon": 0.0, "lat": 38.90348633333333}, {"rental_uris": {"android": "https://dc.lft.to/lastmile_qr_scan", "ios": "https://dc.lft.to/lastmile_qr_scan"}, "is_reserved": 0, "is_disabled": 0, "name": "1c019c0ab982fbda38a613c46e251059", "bike_id": "1c019c0ab982fbda38a613c46e251059", "fusion_lat": 0.0, "lon": -77.02964333333334, "type": "electric_scooter", "fusion_lon": 0.0, "lat": 38.91886733333333}, {"rental_uris": {"android": "https://dc.lft.to/lastmile_qr_scan", "ios": "https://dc.lft.to/lastmile_qr_scan"}, "is_reserved": 0, "is_disabled": 0, "name": "6977f1abe491e20fe674b868b2c18d0f", "bike_id": "6977f1abe491e20fe674b868b2c18d0f", "fusion_lat": 0.0, "lon": -77.02853266666666, "type": "electric_scooter", "fusion_lon": 0.0, "lat": 38.932716}, {"rental_uris": {"android": "https://dc.lft.to/lastmile_qr_scan", "ios": "https://dc.lft.to/lastmile_qr_scan"}, "is_reserved": 0, "is_disabled": 0, "name": "ecca0689f186425bc89641d5fa46947b", "bike_id": "ecca0689f186425bc89641d5fa46947b", "fusion_lat": 0.0, "lon": -77.0221525, "type": "electric_scooter", "fusion_lon": 0.0, "lat": 38.899571}, {"rental_uris": {"android": "https://dc.lft.to/lastmile_qr_scan", "ios": "https://dc.lft.to/lastmile_qr_scan"}, "is_reserved": 0, "is_disabled": 0, "name": "b896d16a98ecad20a4bcf239e8924127", "bike_id": "b896d16a98ecad20a4bcf239e8924127", "fusion_lat": 0.0, "lon": -76.95449533333333, "type": "electric_scooter", "fusion_lon": 0.0, "lat": 38.8838575}, {"rental_uris": {"android": "https://dc.lft.to/lastmile_qr_scan", "ios": "https://dc.lft.to/lastmile_qr_scan"}, "is_reserved": 0, "is_disabled": 0, "name": "0f95ce15e13b685cf36a029c1391d9bd", "bike_id": "0f95ce15e13b685cf36a029c1391d9bd", "fusion_lat": 0.0, "lon": -76.98707583333334, "type": "electric_scooter", "fusion_lon": 0.0, "lat": 38.85971333333333}, {"rental_uris": {"android": "https://dc.lft.to/lastmile_qr_scan", "ios": "https://dc.lft.to/lastmile_qr_scan"}, "is_reserved": 0, "is_disabled": 0, "name": "bec6e2d6cc90fc8f0bf640f64c8ee862", "bike_id": "bec6e2d6cc90fc8f0bf640f64c8ee862", "fusion_lat": 0.0, "lon": -77.00317766666667, "type": "electric_scooter", "fusion_lon": 0.0, "lat": 38.876503166666666}, {"rental_uris": {"android": "https://dc.lft.to/lastmile_qr_scan", "ios": "https://dc.lft.to/lastmile_qr_scan"}, "is_reserved": 0, "is_disabled": 0, "name": "fa499562d9b4d9bf5d4561b050a1b3e3", "bike_id": "fa499562d9b4d9bf5d4561b050a1b3e3", "fusion_lat": 0.0, "lon": -77.0316405, "type": "electric_scooter", "fusion_lon": 0.0, "lat": 38.8921705}, {"rental_uris": {"android": "https://dc.lft.to/lastmile_qr_scan", "ios": "https://dc.lft.to/lastmile_qr_scan"}, "is_reserved": 0, "is_disabled": 0, "name": "240f9a334be9a5e8c210750910e8e4a7", "bike_id": "240f9a334be9a5e8c210750910e8e4a7", "fusion_lat": 0.0, "lon": -77.033934, "type": "electric_bike", "fusion_lon": 0.0, "lat": 38.9009465}, {"rental_uris": {"android": "https://dc.lft.to/lastmile_qr_scan", "ios": "https://dc.lft.to/lastmile_qr_scan"}, "is_reserved": 0, "is_disabled": 0, "name": "a5769929929ec2ce864011ead134a9ca", "bike_id": "a5769929929ec2ce864011ead134a9ca", "fusion_lat": 0.0, "lon": -77.04654116666667, "type": "electric_scooter", "fusion_lon": 0.0, "lat": 38.913672}, {"rental_uris": {"android": "https://dc.lft.to/lastmile_qr_scan", "ios": "https://dc.lft.to/lastmile_qr_scan"}, "is_reserved": 0, "is_disabled": 0, "name": "8cce342394f1dddbb52a90c0d81915d6", "bike_id": "8cce342394f1dddbb52a90c0d81915d6", "fusion_lat": 0.0, "lon": -77.04883133333334, "type": "electric_scooter", "fusion_lon": 0.0, "lat": 38.91043166666667}, {"rental_uris": {"android": "https://dc.lft.to/lastmile_qr_scan", "ios": "https://dc.lft.to/lastmile_qr_scan"}, "is_reserved": 0, "is_disabled": 0, "name": "ff2934036fd654ae0f1cdbd749867805", "bike_id": "ff2934036fd654ae0f1cdbd749867805", "fusion_lat": 0.0, "lon": -77.01947966666667, "type": "electric_scooter", "fusion_lon": 0.0, "lat": 38.924195166666664}, {"rental_uris": {"android": "https://dc.lft.to/lastmile_qr_scan", "ios": "https://dc.lft.to/lastmile_qr_scan"}, "is_reserved": 0, "is_disabled": 0, "name": "a046afe90e3e70f3d6526c5b2da0c5c0", "bike_id": "a046afe90e3e70f3d6526c5b2da0c5c0", "fusion_lat": 0.0, "lon": -77.00602383333333, "type": "electric_scooter", "fusion_lon": 0.0, "lat": 38.875443833333335}, {"rental_uris": {"android": "https://dc.lft.to/lastmile_qr_scan", "ios": "https://dc.lft.to/lastmile_qr_scan"}, "is_reserved": 0, "is_disabled": 0, "name": "4ffbb29c248ca05e3144e0f18ce4ebed", "bike_id": "4ffbb29c248ca05e3144e0f18ce4ebed", "fusion_lat": 0.0, "lon": -77.03839883333333, "type": "electric_scooter", "fusion_lon": 0.0, "lat": 38.90412933333333}, {"rental_uris": {"android": "https://dc.lft.to/lastmile_qr_scan", "ios": "https://dc.lft.to/lastmile_qr_scan"}, "is_reserved": 0, "is_disabled": 0, "name": "70eedc257140a7bc3b69f7ab81d4dbab", "bike_id": "70eedc257140a7bc3b69f7ab81d4dbab", "fusion_lat": 0.0, "lon": -77.02795466666667, "type": "electric_scooter", "fusion_lon": 0.0, "lat": 38.8981035}, {"rental_uris": {"android": "https://dc.lft.to/lastmile_qr_scan", "ios": "https://dc.lft.to/lastmile_qr_scan"}, "is_reserved": 0, "is_disabled": 0, "name": "b2290d6af21c526171514901fd189a52", "bike_id": "b2290d6af21c526171514901fd189a52", "fusion_lat": 0.0, "lon": -76.9905, "type": "electric_scooter", "fusion_lon": 0.0, "lat": 38.93821333333333}, {"rental_uris": {"android": "https://dc.lft.to/lastmile_qr_scan", "ios": "https://dc.lft.to/lastmile_qr_scan"}, "is_reserved": 0, "is_disabled": 0, "name": "1df61274699867fd025187c87c2dcfea", "bike_id": "1df61274699867fd025187c87c2dcfea", "fusion_lat": 0.0, "lon": -77.02606466666667, "type": "electric_scooter", "fusion_lon": 0.0, "lat": 38.8960965}, {"rental_uris": {"android": "https://dc.lft.to/lastmile_qr_scan", "ios": "https://dc.lft.to/lastmile_qr_scan"}, "is_reserved": 0, "is_disabled": 0, "name": "45712aaf9802149189d259915186547d", "bike_id": "45712aaf9802149189d259915186547d", "fusion_lat": 0.0, "lon": -77.087225, "type": "electric_bike", "fusion_lon": 0.0, "lat": 38.862382333333336}, {"rental_uris": {"android": "https://dc.lft.to/lastmile_qr_scan", "ios": "https://dc.lft.to/lastmile_qr_scan"}, "is_reserved": 0, "is_disabled": 0, "name": "d52060e23b4878f7f67e2aaa39a1a6ef", "bike_id": "d52060e23b4878f7f67e2aaa39a1a6ef", "fusion_lat": 0.0, "lon": -76.98199333333334, "type": "electric_bike", "fusion_lon": 0.0, "lat": 38.985045666666664}, {"rental_uris": {"android": "https://dc.lft.to/lastmile_qr_scan", "ios": "https://dc.lft.to/lastmile_qr_scan"}, "is_reserved": 0, "is_disabled": 0, "name": "cf4164ba848a9d3a923cdf6f7c3130a6", "bike_id": "cf4164ba848a9d3a923cdf6f7c3130a6", "fusion_lat": 0.0, "lon": -77.05497166666666, "type": "electric_scooter", "fusion_lon": 0.0, "lat": 38.908451}, {"rental_uris": {"android": "https://dc.lft.to/lastmile_qr_scan", "ios": "https://dc.lft.to/lastmile_qr_scan"}, "is_reserved": 0, "is_disabled": 0, "name": "87a32f2a45f0fe6c731976a0037aa5f5", "bike_id": "87a32f2a45f0fe6c731976a0037aa5f5", "fusion_lat": 0.0, "lon": -77.02031016666666, "type": "electric_scooter", "fusion_lon": 0.0, "lat": 38.9244305}, {"rental_uris": {"android": "https://dc.lft.to/lastmile_qr_scan", "ios": "https://dc.lft.to/lastmile_qr_scan"}, "is_reserved": 0, "is_disabled": 0, "name": "4c5c430aaf6ba3d22eaadc6780a28915", "bike_id": "4c5c430aaf6ba3d22eaadc6780a28915", "fusion_lat": 0.0, "lon": -77.03216183333333, "type": "electric_scooter", "fusion_lon": 0.0, "lat": 38.920796333333335}, {"rental_uris": {"android": "https://dc.lft.to/lastmile_qr_scan", "ios": "https://dc.lft.to/lastmile_qr_scan"}, "is_reserved": 0, "is_disabled": 0, "name": "f01279ea3365394ea450a51f6cd5f55c", "bike_id": "f01279ea3365394ea450a51f6cd5f55c", "fusion_lat": 0.0, "lon": -77.02861083333333, "type": "electric_scooter", "fusion_lon": 0.0, "lat": 38.90128683333333}, {"rental_uris": {"android": "https://dc.lft.to/lastmile_qr_scan", "ios": "https://dc.lft.to/lastmile_qr_scan"}, "is_reserved": 0, "is_disabled": 0, "name": "228e4354a1ac2f04d98dceb66dacb609", "bike_id": "228e4354a1ac2f04d98dceb66dacb609", "fusion_lat": 0.0, "lon": -77.02387766666666, "type": "electric_scooter", "fusion_lon": 0.0, "lat": 38.89827916666667}, {"rental_uris": {"android": "https://dc.lft.to/lastmile_qr_scan", "ios": "https://dc.lft.to/lastmile_qr_scan"}, "is_reserved": 0, "is_disabled": 0, "name": "61d16557a580ecd91bb2b4766b461be5", "bike_id": "61d16557a580ecd91bb2b4766b461be5", "fusion_lat": 0.0, "lon": -77.03831216666667, "type": "electric_scooter", "fusion_lon": 0.0, "lat": 38.921782666666665}, {"rental_uris": {"android": "https://dc.lft.to/lastmile_qr_scan", "ios": "https://dc.lft.to/lastmile_qr_scan"}, "is_reserved": 0, "is_disabled": 0, "name": "6d42d63befbeb9b24f34b9e887ea5fbc", "bike_id": "6d42d63befbeb9b24f34b9e887ea5fbc", "fusion_lat": 0.0, "lon": -76.99333466666667, "type": "electric_scooter", "fusion_lon": 0.0, "lat": 38.90617683333333}, {"rental_uris": {"android": "https://dc.lft.to/lastmile_qr_scan", "ios": "https://dc.lft.to/lastmile_qr_scan"}, "is_reserved": 0, "is_disabled": 0, "name": "ce8e904d76b3405bb4e8d661f47e32eb", "bike_id": "ce8e904d76b3405bb4e8d661f47e32eb", "fusion_lat": 0.0, "lon": -77.02784983333333, "type": "electric_scooter", "fusion_lon": 0.0, "lat": 38.927657333333336}, {"rental_uris": {"android": "https://dc.lft.to/lastmile_qr_scan", "ios": "https://dc.lft.to/lastmile_qr_scan"}, "is_reserved": 0, "is_disabled": 0, "name": "332506d4380bd72184509953fba78ab4", "bike_id": "332506d4380bd72184509953fba78ab4", "fusion_lat": 0.0, "lon": -77.02129533333333, "type": "electric_scooter", "fusion_lon": 0.0, "lat": 38.919112}, {"rental_uris": {"android": "https://dc.lft.to/lastmile_qr_scan", "ios": "https://dc.lft.to/lastmile_qr_scan"}, "is_reserved": 0, "is_disabled": 0, "name": "43bc1ec2b83736c61431ee642f6b34d6", "bike_id": "43bc1ec2b83736c61431ee642f6b34d6", "fusion_lat": 0.0, "lon": -77.04477416666667, "type": "electric_scooter", "fusion_lon": 0.0, "lat": 38.91084016666667}, {"rental_uris": {"android": "https://dc.lft.to/lastmile_qr_scan", "ios": "https://dc.lft.to/lastmile_qr_scan"}, "is_reserved": 0, "is_disabled": 0, "name": "a528c61321953f70f4e065d6f16f7088", "bike_id": "a528c61321953f70f4e065d6f16f7088", "fusion_lat": 0.0, "lon": -77.01354416666666, "type": "electric_scooter", "fusion_lon": 0.0, "lat": 38.89809783333333}, {"rental_uris": {"android": "https://dc.lft.to/lastmile_qr_scan", "ios": "https://dc.lft.to/lastmile_qr_scan"}, "is_reserved": 0, "is_disabled": 0, "name": "e4e0c33c71d9db41ce022ca59fa2549b", "bike_id": "e4e0c33c71d9db41ce022ca59fa2549b", "fusion_lat": 0.0, "lon": -77.02162883333334, "type": "electric_scooter", "fusion_lon": 0.0, "lat": 38.926105666666665}, {"rental_uris": {"android": "https://dc.lft.to/lastmile_qr_scan", "ios": "https://dc.lft.to/lastmile_qr_scan"}, "is_reserved": 0, "is_disabled": 0, "name": "4349be0bce6550490b388a6ee6ed0fff", "bike_id": "4349be0bce6550490b388a6ee6ed0fff", "fusion_lat": 0.0, "lon": -77.04492866666666, "type": "electric_scooter", "fusion_lon": 0.0, "lat": 38.903747}, {"rental_uris": {"android": "https://dc.lft.to/lastmile_qr_scan", "ios": "https://dc.lft.to/lastmile_qr_scan"}, "is_reserved": 0, "is_disabled": 0, "name": "b0bcbe9dc87b821cd1fb07dd5c2998aa", "bike_id": "b0bcbe9dc87b821cd1fb07dd5c2998aa", "fusion_lat": 0.0, "lon": -77.0279905, "type": "electric_scooter", "fusion_lon": 0.0, "lat": 38.90002783333333}, {"rental_uris": {"android": "https://dc.lft.to/lastmile_qr_scan", "ios": "https://dc.lft.to/lastmile_qr_scan"}, "is_reserved": 0, "is_disabled": 0, "name": "b8648b3eb6ac6259692f8267ea3cf74e", "bike_id": "b8648b3eb6ac6259692f8267ea3cf74e", "fusion_lat": 0.0, "lon": -77.04167883333334, "type": "electric_scooter", "fusion_lon": 0.0, "lat": 38.901545666666664}, {"rental_uris": {"android": "https://dc.lft.to/lastmile_qr_scan", "ios": "https://dc.lft.to/lastmile_qr_scan"}, "is_reserved": 0, "is_disabled": 0, "name": "8d1014ea4c89f256b54a60f922f6efae", "bike_id": "8d1014ea4c89f256b54a60f922f6efae", "fusion_lat": 0.0, "lon": -77.04365783333333, "type": "electric_scooter", "fusion_lon": 0.0, "lat": 38.90559416666667}, {"rental_uris": {"android": "https://dc.lft.to/lastmile_qr_scan", "ios": "https://dc.lft.to/lastmile_qr_scan"}, "is_reserved": 0, "is_disabled": 0, "name": "76d03e19d8e779c0fa0d54dd6bf0d00c", "bike_id": "76d03e19d8e779c0fa0d54dd6bf0d00c", "fusion_lat": 0.0, "lon": -77.0348435, "type": "electric_scooter", "fusion_lon": 0.0, "lat": 38.9057325}, {"rental_uris": {"android": "https://dc.lft.to/lastmile_qr_scan", "ios": "https://dc.lft.to/lastmile_qr_scan"}, "is_reserved": 0, "is_disabled": 0, "name": "7587b427f65b4e45a2e76a899108d385", "bike_id": "7587b427f65b4e45a2e76a899108d385", "fusion_lat": 0.0, "lon": -77.0258545, "type": "electric_scooter", "fusion_lon": 0.0, "lat": 38.92689983333333}, {"rental_uris": {"android": "https://dc.lft.to/lastmile_qr_scan", "ios": "https://dc.lft.to/lastmile_qr_scan"}, "is_reserved": 0, "is_disabled": 0, "name": "542e2d6aa08cbf372ebb8e13a15eaf61", "bike_id": "542e2d6aa08cbf372ebb8e13a15eaf61", "fusion_lat": 0.0, "lon": -77.02588866666666, "type": "electric_scooter", "fusion_lon": 0.0, "lat": 38.920373166666664}, {"rental_uris": {"android": "https://dc.lft.to/lastmile_qr_scan", "ios": "https://dc.lft.to/lastmile_qr_scan"}, "is_reserved": 0, "is_disabled": 0, "name": "97b0d503a6e3647b1a913bcef1c4923d", "bike_id": "97b0d503a6e3647b1a913bcef1c4923d", "fusion_lat": 0.0, "lon": -77.02184766666667, "type": "electric_scooter", "fusion_lon": 0.0, "lat": 38.8833035}, {"rental_uris": {"android": "https://dc.lft.to/lastmile_qr_scan", "ios": "https://dc.lft.to/lastmile_qr_scan"}, "is_reserved": 0, "is_disabled": 0, "name": "f3ad8f845c09ed7a0f49ba481d3cbe0d", "bike_id": "f3ad8f845c09ed7a0f49ba481d3cbe0d", "fusion_lat": 0.0, "lon": -77.0852035, "type": "electric_bike", "fusion_lon": 0.0, "lat": 38.858520166666665}, {"rental_uris": {"android": "https://dc.lft.to/lastmile_qr_scan", "ios": "https://dc.lft.to/lastmile_qr_scan"}, "is_reserved": 0, "is_disabled": 0, "name": "5c257c712b0a7a357eb285a74216a9d4", "bike_id": "5c257c712b0a7a357eb285a74216a9d4", "fusion_lat": 0.0, "lon": -77.05019633333333, "type": "electric_scooter", "fusion_lon": 0.0, "lat": 38.896541666666664}, {"rental_uris": {"android": "https://dc.lft.to/lastmile_qr_scan", "ios": "https://dc.lft.to/lastmile_qr_scan"}, "is_reserved": 0, "is_disabled": 0, "name": "2660dc9a1dac3e6cd2eb1edc1aa6b32d", "bike_id": "2660dc9a1dac3e6cd2eb1edc1aa6b32d", "fusion_lat": 0.0, "lon": -77.0281105, "type": "electric_scooter", "fusion_lon": 0.0, "lat": 38.90463866666666}, {"rental_uris": {"android": "https://dc.lft.to/lastmile_qr_scan", "ios": "https://dc.lft.to/lastmile_qr_scan"}, "is_reserved": 0, "is_disabled": 0, "name": "2238f96075b00d26e8bd8e9fc6f3dc79", "bike_id": "2238f96075b00d26e8bd8e9fc6f3dc79", "fusion_lat": 0.0, "lon": -76.98114833333334, "type": "electric_bike", "fusion_lon": 0.0, "lat": 38.94564716666667}, {"rental_uris": {"android": "https://dc.lft.to/lastmile_qr_scan", "ios": "https://dc.lft.to/lastmile_qr_scan"}, "is_reserved": 0, "is_disabled": 0, "name": "71e1625e80adadab3eb3821c500a7362", "bike_id": "71e1625e80adadab3eb3821c500a7362", "fusion_lat": 0.0, "lon": -77.0279005, "type": "electric_scooter", "fusion_lon": 0.0, "lat": 38.9612945}, {"rental_uris": {"android": "https://dc.lft.to/lastmile_qr_scan", "ios": "https://dc.lft.to/lastmile_qr_scan"}, "is_reserved": 0, "is_disabled": 0, "name": "08f35c9afb0b0a574d4deb8122641f30", "bike_id": "08f35c9afb0b0a574d4deb8122641f30", "fusion_lat": 0.0, "lon": -77.06841816666666, "type": "electric_scooter", "fusion_lon": 0.0, "lat": 38.9171685}, {"rental_uris": {"android": "https://dc.lft.to/lastmile_qr_scan", "ios": "https://dc.lft.to/lastmile_qr_scan"}, "is_reserved": 0, "is_disabled": 0, "name": "a8adf43ab1d2cfad85c025764bc85984", "bike_id": "a8adf43ab1d2cfad85c025764bc85984", "fusion_lat": 0.0, "lon": -77.023169, "type": "electric_scooter", "fusion_lon": 0.0, "lat": 38.920717833333335}, {"rental_uris": {"android": "https://dc.lft.to/lastmile_qr_scan", "ios": "https://dc.lft.to/lastmile_qr_scan"}, "is_reserved": 0, "is_disabled": 0, "name": "607ea8e45074945fc279805d5a019293", "bike_id": "607ea8e45074945fc279805d5a019293", "fusion_lat": 0.0, "lon": -77.03468216666667, "type": "electric_scooter", "fusion_lon": 0.0, "lat": 38.9014495}, {"rental_uris": {"android": "https://dc.lft.to/lastmile_qr_scan", "ios": "https://dc.lft.to/lastmile_qr_scan"}, "is_reserved": 0, "is_disabled": 0, "name": "3ee675de1b1decf96ba04f9a93b685b5", "bike_id": "3ee675de1b1decf96ba04f9a93b685b5", "fusion_lat": 0.0, "lon": -77.0402915, "type": "electric_scooter", "fusion_lon": 0.0, "lat": 38.89818566666667}, {"rental_uris": {"android": "https://dc.lft.to/lastmile_qr_scan", "ios": "https://dc.lft.to/lastmile_qr_scan"}, "is_reserved": 0, "is_disabled": 0, "name": "cb07b69f9aa039734862c89fa4a933d5", "bike_id": "cb07b69f9aa039734862c89fa4a933d5", "fusion_lat": 0.0, "lon": -77.01982583333333, "type": "electric_scooter", "fusion_lon": 0.0, "lat": 38.90120433333333}, {"rental_uris": {"android": "https://dc.lft.to/lastmile_qr_scan", "ios": "https://dc.lft.to/lastmile_qr_scan"}, "is_reserved": 0, "is_disabled": 0, "name": "c97bf39f2f528fdf9ef4fd5901994590", "bike_id": "c97bf39f2f528fdf9ef4fd5901994590", "fusion_lat": 0.0, "lon": -77.02282233333334, "type": "electric_scooter", "fusion_lon": 0.0, "lat": 38.91655983333333}, {"rental_uris": {"android": "https://dc.lft.to/lastmile_qr_scan", "ios": "https://dc.lft.to/lastmile_qr_scan"}, "is_reserved": 0, "is_disabled": 0, "name": "619f069bf4172d18cf846590e849bb35", "bike_id": "619f069bf4172d18cf846590e849bb35", "fusion_lat": 0.0, "lon": -77.04604233333333, "type": "electric_scooter", "fusion_lon": 0.0, "lat": 38.914560333333334}, {"rental_uris": {"android": "https://dc.lft.to/lastmile_qr_scan", "ios": "https://dc.lft.to/lastmile_qr_scan"}, "is_reserved": 0, "is_disabled": 0, "name": "37ec4a72578a74a3f6a1ff35a87488da", "bike_id": "37ec4a72578a74a3f6a1ff35a87488da", "fusion_lat": 0.0, "lon": -76.98387933333333, "type": "electric_scooter", "fusion_lon": 0.0, "lat": 38.879377833333336}, {"rental_uris": {"android": "https://dc.lft.to/lastmile_qr_scan", "ios": "https://dc.lft.to/lastmile_qr_scan"}, "is_reserved": 0, "is_disabled": 0, "name": "f1415d5a4cbf2c2e0e775e6b11209180", "bike_id": "f1415d5a4cbf2c2e0e775e6b11209180", "fusion_lat": 0.0, "lon": -77.038906, "type": "electric_scooter", "fusion_lon": 0.0, "lat": 38.92059016666666}, {"rental_uris": {"android": "https://dc.lft.to/lastmile_qr_scan", "ios": "https://dc.lft.to/lastmile_qr_scan"}, "is_reserved": 0, "is_disabled": 0, "name": "2499514b144e28675e48cfd5a690bcdf", "bike_id": "2499514b144e28675e48cfd5a690bcdf", "fusion_lat": 0.0, "lon": -77.02415333333333, "type": "electric_scooter", "fusion_lon": 0.0, "lat": 38.9028965}, {"rental_uris": {"android": "https://dc.lft.to/lastmile_qr_scan", "ios": "https://dc.lft.to/lastmile_qr_scan"}, "is_reserved": 0, "is_disabled": 0, "name": "5d7e1ea779992d3048d6e75f5755a96b", "bike_id": "5d7e1ea779992d3048d6e75f5755a96b", "fusion_lat": 0.0, "lon": -77.0637735, "type": "electric_scooter", "fusion_lon": 0.0, "lat": 38.90604616666667}, {"rental_uris": {"android": "https://dc.lft.to/lastmile_qr_scan", "ios": "https://dc.lft.to/lastmile_qr_scan"}, "is_reserved": 0, "is_disabled": 0, "name": "edf27f1d710b2841f838f8619aa5be3e", "bike_id": "edf27f1d710b2841f838f8619aa5be3e", "fusion_lat": 0.0, "lon": -77.07855566666667, "type": "electric_scooter", "fusion_lon": 0.0, "lat": 38.94595566666667}, {"rental_uris": {"android": "https://dc.lft.to/lastmile_qr_scan", "ios": "https://dc.lft.to/lastmile_qr_scan"}, "is_reserved": 0, "is_disabled": 0, "name": "1c6cf56147e6b78abd2180c044bbf2a8", "bike_id": "1c6cf56147e6b78abd2180c044bbf2a8", "fusion_lat": 0.0, "lon": -77.01324233333334, "type": "electric_scooter", "fusion_lon": 0.0, "lat": 38.898391833333335}, {"rental_uris": {"android": "https://dc.lft.to/lastmile_qr_scan", "ios": "https://dc.lft.to/lastmile_qr_scan"}, "is_reserved": 0, "is_disabled": 0, "name": "ed277521a28da0a20243da5cb3f55b4a", "bike_id": "ed277521a28da0a20243da5cb3f55b4a", "fusion_lat": 0.0, "lon": -77.0140855, "type": "electric_scooter", "fusion_lon": 0.0, "lat": 38.92845}, {"rental_uris": {"android": "https://dc.lft.to/lastmile_qr_scan", "ios": "https://dc.lft.to/lastmile_qr_scan"}, "is_reserved": 0, "is_disabled": 0, "name": "12836f09c3e56a541d8de447cd80ba70", "bike_id": "12836f09c3e56a541d8de447cd80ba70", "fusion_lat": 0.0, "lon": -77.02030283333333, "type": "electric_bike", "fusion_lon": 0.0, "lat": 38.96559633333333}, {"rental_uris": {"android": "https://dc.lft.to/lastmile_qr_scan", "ios": "https://dc.lft.to/lastmile_qr_scan"}, "is_reserved": 0, "is_disabled": 0, "name": "9247bc4c50a6622644ce0cefad41569f", "bike_id": "9247bc4c50a6622644ce0cefad41569f", "fusion_lat": 0.0, "lon": -77.04885233333333, "type": "electric_scooter", "fusion_lon": 0.0, "lat": 38.90041016666667}, {"rental_uris": {"android": "https://dc.lft.to/lastmile_qr_scan", "ios": "https://dc.lft.to/lastmile_qr_scan"}, "is_reserved": 0, "is_disabled": 0, "name": "99c65f3734e96a70aab75de232cbc9e2", "bike_id": "99c65f3734e96a70aab75de232cbc9e2", "fusion_lat": 0.0, "lon": -76.94875166666667, "type": "electric_scooter", "fusion_lon": 0.0, "lat": 38.894996666666664}, {"rental_uris": {"android": "https://dc.lft.to/lastmile_qr_scan", "ios": "https://dc.lft.to/lastmile_qr_scan"}, "is_reserved": 0, "is_disabled": 0, "name": "8e13fe33ab06cab4079ad2ad5a363a69", "bike_id": "8e13fe33ab06cab4079ad2ad5a363a69", "fusion_lat": 0.0, "lon": -77.00620116666667, "type": "electric_scooter", "fusion_lon": 0.0, "lat": 38.871723833333334}, {"rental_uris": {"android": "https://dc.lft.to/lastmile_qr_scan", "ios": "https://dc.lft.to/lastmile_qr_scan"}, "is_reserved": 0, "is_disabled": 0, "name": "ba6fac53fdd6c7995f6d8ff440338d96", "bike_id": "ba6fac53fdd6c7995f6d8ff440338d96", "fusion_lat": 0.0, "lon": -77.0278845, "type": "electric_scooter", "fusion_lon": 0.0, "lat": 38.93923383333333}, {"rental_uris": {"android": "https://dc.lft.to/lastmile_qr_scan", "ios": "https://dc.lft.to/lastmile_qr_scan"}, "is_reserved": 0, "is_disabled": 0, "name": "07e459d3398a41272762322c597ff2eb", "bike_id": "07e459d3398a41272762322c597ff2eb", "fusion_lat": 0.0, "lon": -76.99673616666666, "type": "electric_bike", "fusion_lon": 0.0, "lat": 38.83821233333333}, {"rental_uris": {"android": "https://dc.lft.to/lastmile_qr_scan", "ios": "https://dc.lft.to/lastmile_qr_scan"}, "is_reserved": 0, "is_disabled": 0, "name": "8a33a42b2af092d63f15a71562f788db", "bike_id": "8a33a42b2af092d63f15a71562f788db", "fusion_lat": 0.0, "lon": -77.0364715, "type": "electric_scooter", "fusion_lon": 0.0, "lat": 38.903189833333336}, {"rental_uris": {"android": "https://dc.lft.to/lastmile_qr_scan", "ios": "https://dc.lft.to/lastmile_qr_scan"}, "is_reserved": 0, "is_disabled": 0, "name": "53b68e73c366bd24dbbeee4c9b7fec68", "bike_id": "53b68e73c366bd24dbbeee4c9b7fec68", "fusion_lat": 0.0, "lon": -77.01330666666667, "type": "electric_scooter", "fusion_lon": 0.0, "lat": 38.9140875}, {"rental_uris": {"android": "https://dc.lft.to/lastmile_qr_scan", "ios": "https://dc.lft.to/lastmile_qr_scan"}, "is_reserved": 0, "is_disabled": 0, "name": "4dfc671bd470929349831be22fd846cf", "bike_id": "4dfc671bd470929349831be22fd846cf", "fusion_lat": 0.0, "lon": -77.0167985, "type": "electric_scooter", "fusion_lon": 0.0, "lat": 38.920430333333336}, {"rental_uris": {"android": "https://dc.lft.to/lastmile_qr_scan", "ios": "https://dc.lft.to/lastmile_qr_scan"}, "is_reserved": 0, "is_disabled": 0, "name": "7f6072b66987f41cdaeac82d654e3926", "bike_id": "7f6072b66987f41cdaeac82d654e3926", "fusion_lat": 0.0, "lon": -77.033084, "type": "electric_scooter", "fusion_lon": 0.0, "lat": 38.928498}, {"rental_uris": {"android": "https://dc.lft.to/lastmile_qr_scan", "ios": "https://dc.lft.to/lastmile_qr_scan"}, "is_reserved": 0, "is_disabled": 0, "name": "614282fa9df293f5a44055e476c5eaff", "bike_id": "614282fa9df293f5a44055e476c5eaff", "fusion_lat": 0.0, "lon": -77.04494566666666, "type": "electric_scooter", "fusion_lon": 0.0, "lat": 38.900157166666666}, {"rental_uris": {"android": "https://dc.lft.to/lastmile_qr_scan", "ios": "https://dc.lft.to/lastmile_qr_scan"}, "is_reserved": 0, "is_disabled": 0, "name": "dca20b8249fe4cb0b53d5a3673c760a7", "bike_id": "dca20b8249fe4cb0b53d5a3673c760a7", "fusion_lat": 0.0, "lon": -77.041764, "type": "electric_scooter", "fusion_lon": 0.0, "lat": 38.905397}, {"rental_uris": {"android": "https://dc.lft.to/lastmile_qr_scan", "ios": "https://dc.lft.to/lastmile_qr_scan"}, "is_reserved": 0, "is_disabled": 0, "name": "c69a9449dad9dcc8eaa9ca8c4b0882af", "bike_id": "c69a9449dad9dcc8eaa9ca8c4b0882af", "fusion_lat": 0.0, "lon": -77.04737383333334, "type": "electric_scooter", "fusion_lon": 0.0, "lat": 38.90060866666666}, {"rental_uris": {"android": "https://dc.lft.to/lastmile_qr_scan", "ios": "https://dc.lft.to/lastmile_qr_scan"}, "is_reserved": 0, "is_disabled": 0, "name": "038c679de77386294bb70d40892ac549", "bike_id": "038c679de77386294bb70d40892ac549", "fusion_lat": 0.0, "lon": -77.02133016666667, "type": "electric_scooter", "fusion_lon": 0.0, "lat": 38.88740083333333}, {"rental_uris": {"android": "https://dc.lft.to/lastmile_qr_scan", "ios": "https://dc.lft.to/lastmile_qr_scan"}, "is_reserved": 0, "is_disabled": 0, "name": "0e57eeee994e7c6fd3aa420dccc2f9ef", "bike_id": "0e57eeee994e7c6fd3aa420dccc2f9ef", "fusion_lat": 0.0, "lon": -77.0210975, "type": "electric_scooter", "fusion_lon": 0.0, "lat": 38.905990833333334}, {"rental_uris": {"android": "https://dc.lft.to/lastmile_qr_scan", "ios": "https://dc.lft.to/lastmile_qr_scan"}, "is_reserved": 0, "is_disabled": 0, "name": "1a75823b43ce336c398e3ee4b763feae", "bike_id": "1a75823b43ce336c398e3ee4b763feae", "fusion_lat": 0.0, "lon": -77.03197833333333, "type": "electric_scooter", "fusion_lon": 0.0, "lat": 38.898243666666666}, {"rental_uris": {"android": "https://dc.lft.to/lastmile_qr_scan", "ios": "https://dc.lft.to/lastmile_qr_scan"}, "is_reserved": 0, "is_disabled": 0, "name": "41e5a8f8a9b39f4b4e05e0a60d3b9b45", "bike_id": "41e5a8f8a9b39f4b4e05e0a60d3b9b45", "fusion_lat": 0.0, "lon": -77.02782916666666, "type": "electric_scooter", "fusion_lon": 0.0, "lat": 38.962203}, {"rental_uris": {"android": "https://dc.lft.to/lastmile_qr_scan", "ios": "https://dc.lft.to/lastmile_qr_scan"}, "is_reserved": 0, "is_disabled": 0, "name": "3a4bbdc1376b2a2e178886f567b23573", "bike_id": "3a4bbdc1376b2a2e178886f567b23573", "fusion_lat": 0.0, "lon": -77.043499, "type": "electric_scooter", "fusion_lon": 0.0, "lat": 38.904187666666665}, {"rental_uris": {"android": "https://dc.lft.to/lastmile_qr_scan", "ios": "https://dc.lft.to/lastmile_qr_scan"}, "is_reserved": 0, "is_disabled": 0, "name": "208cd0779c6a982dbae1786519e76d5d", "bike_id": "208cd0779c6a982dbae1786519e76d5d", "fusion_lat": 0.0, "lon": -77.07203983333333, "type": "electric_scooter", "fusion_lon": 0.0, "lat": 38.90764716666666}, {"rental_uris": {"android": "https://dc.lft.to/lastmile_qr_scan", "ios": "https://dc.lft.to/lastmile_qr_scan"}, "is_reserved": 0, "is_disabled": 0, "name": "c5636524e36b848df52d5db6d6f446f0", "bike_id": "c5636524e36b848df52d5db6d6f446f0", "fusion_lat": 0.0, "lon": -77.04401133333333, "type": "electric_scooter", "fusion_lon": 0.0, "lat": 38.90121083333333}, {"rental_uris": {"android": "https://dc.lft.to/lastmile_qr_scan", "ios": "https://dc.lft.to/lastmile_qr_scan"}, "is_reserved": 0, "is_disabled": 0, "name": "545e89a65fc67b9b11dd2d7e395579b6", "bike_id": "545e89a65fc67b9b11dd2d7e395579b6", "fusion_lat": 0.0, "lon": -77.02044383333333, "type": "electric_scooter", "fusion_lon": 0.0, "lat": 38.92178666666667}, {"rental_uris": {"android": "https://dc.lft.to/lastmile_qr_scan", "ios": "https://dc.lft.to/lastmile_qr_scan"}, "is_reserved": 0, "is_disabled": 0, "name": "306a9619883f081a3995118eadc3e383", "bike_id": "306a9619883f081a3995118eadc3e383", "fusion_lat": 0.0, "lon": -77.01810516666667, "type": "electric_scooter", "fusion_lon": 0.0, "lat": 38.91373}, {"rental_uris": {"android": "https://dc.lft.to/lastmile_qr_scan", "ios": "https://dc.lft.to/lastmile_qr_scan"}, "is_reserved": 0, "is_disabled": 0, "name": "444fb1019ee4835679225d840ad8bf05", "bike_id": "444fb1019ee4835679225d840ad8bf05", "fusion_lat": 0.0, "lon": -77.00716166666666, "type": "electric_scooter", "fusion_lon": 0.0, "lat": 38.911922833333335}, {"rental_uris": {"android": "https://dc.lft.to/lastmile_qr_scan", "ios": "https://dc.lft.to/lastmile_qr_scan"}, "is_reserved": 0, "is_disabled": 0, "name": "21ddc3799b024fc592fd74342787672d", "bike_id": "21ddc3799b024fc592fd74342787672d", "fusion_lat": 0.0, "lon": -77.009115, "type": "electric_scooter", "fusion_lon": 0.0, "lat": 38.89549783333333}, {"rental_uris": {"android": "https://dc.lft.to/lastmile_qr_scan", "ios": "https://dc.lft.to/lastmile_qr_scan"}, "is_reserved": 0, "is_disabled": 0, "name": "e1dd27f5b4511ea69c08038bf84ebf85", "bike_id": "e1dd27f5b4511ea69c08038bf84ebf85", "fusion_lat": 0.0, "lon": -77.04197133333334, "type": "electric_scooter", "fusion_lon": 0.0, "lat": 38.9187365}, {"rental_uris": {"android": "https://dc.lft.to/lastmile_qr_scan", "ios": "https://dc.lft.to/lastmile_qr_scan"}, "is_reserved": 0, "is_disabled": 0, "name": "c8ddc77f98a332eaf8f1bcc94a472640", "bike_id": "c8ddc77f98a332eaf8f1bcc94a472640", "fusion_lat": 0.0, "lon": -77.01682233333334, "type": "electric_scooter", "fusion_lon": 0.0, "lat": 38.92044}, {"rental_uris": {"android": "https://dc.lft.to/lastmile_qr_scan", "ios": "https://dc.lft.to/lastmile_qr_scan"}, "is_reserved": 0, "is_disabled": 0, "name": "8c74f12e6d1d0de502a078ee95aa4f2e", "bike_id": "8c74f12e6d1d0de502a078ee95aa4f2e", "fusion_lat": 0.0, "lon": -77.0033845, "type": "electric_scooter", "fusion_lon": 0.0, "lat": 38.893493166666666}, {"rental_uris": {"android": "https://dc.lft.to/lastmile_qr_scan", "ios": "https://dc.lft.to/lastmile_qr_scan"}, "is_reserved": 0, "is_disabled": 0, "name": "52a9fe455ff513a0aff03eda60a57c70", "bike_id": "52a9fe455ff513a0aff03eda60a57c70", "fusion_lat": 0.0, "lon": -77.016264, "type": "electric_scooter", "fusion_lon": 0.0, "lat": 38.887415833333336}, {"rental_uris": {"android": "https://dc.lft.to/lastmile_qr_scan", "ios": "https://dc.lft.to/lastmile_qr_scan"}, "is_reserved": 0, "is_disabled": 0, "name": "1988075747fb1abaf0948b44ec6de7ab", "bike_id": "1988075747fb1abaf0948b44ec6de7ab", "fusion_lat": 0.0, "lon": -77.01769583333333, "type": "electric_scooter", "fusion_lon": 0.0, "lat": 38.87709016666667}, {"rental_uris": {"android": "https://dc.lft.to/lastmile_qr_scan", "ios": "https://dc.lft.to/lastmile_qr_scan"}, "is_reserved": 0, "is_disabled": 0, "name": "093af778a46124c3b33c2c6b3ce7fee5", "bike_id": "093af778a46124c3b33c2c6b3ce7fee5", "fusion_lat": 0.0, "lon": -76.9535735, "type": "electric_scooter", "fusion_lon": 0.0, "lat": 38.8895535}, {"rental_uris": {"android": "https://dc.lft.to/lastmile_qr_scan", "ios": "https://dc.lft.to/lastmile_qr_scan"}, "is_reserved": 0, "is_disabled": 0, "name": "b33dfa12baf8183fbf119bafe810a015", "bike_id": "b33dfa12baf8183fbf119bafe810a015", "fusion_lat": 0.0, "lon": -77.03136683333334, "type": "electric_scooter", "fusion_lon": 0.0, "lat": 38.92239883333333}, {"rental_uris": {"android": "https://dc.lft.to/lastmile_qr_scan", "ios": "https://dc.lft.to/lastmile_qr_scan"}, "is_reserved": 0, "is_disabled": 0, "name": "ee5084041e83a78e585edb4234b20793", "bike_id": "ee5084041e83a78e585edb4234b20793", "fusion_lat": 0.0, "lon": -76.99560966666667, "type": "electric_scooter", "fusion_lon": 0.0, "lat": 38.92033283333333}, {"rental_uris": {"android": "https://dc.lft.to/lastmile_qr_scan", "ios": "https://dc.lft.to/lastmile_qr_scan"}, "is_reserved": 0, "is_disabled": 0, "name": "b1c87e555327a2dc6089e2f7d6be75b6", "bike_id": "b1c87e555327a2dc6089e2f7d6be75b6", "fusion_lat": 0.0, "lon": -77.01816033333333, "type": "electric_scooter", "fusion_lon": 0.0, "lat": 38.91405266666666}, {"rental_uris": {"android": "https://dc.lft.to/lastmile_qr_scan", "ios": "https://dc.lft.to/lastmile_qr_scan"}, "is_reserved": 0, "is_disabled": 0, "name": "ba6289d42f6ca44dd5db106fd523eefa", "bike_id": "ba6289d42f6ca44dd5db106fd523eefa", "fusion_lat": 0.0, "lon": -77.020882, "type": "electric_scooter", "fusion_lon": 0.0, "lat": 38.919026333333335}, {"rental_uris": {"android": "https://dc.lft.to/lastmile_qr_scan", "ios": "https://dc.lft.to/lastmile_qr_scan"}, "is_reserved": 0, "is_disabled": 0, "name": "282b4954042a2e38072f452c1306d1db", "bike_id": "282b4954042a2e38072f452c1306d1db", "fusion_lat": 0.0, "lon": -77.03633366666666, "type": "electric_scooter", "fusion_lon": 0.0, "lat": 38.90329783333333}, {"rental_uris": {"android": "https://dc.lft.to/lastmile_qr_scan", "ios": "https://dc.lft.to/lastmile_qr_scan"}, "is_reserved": 0, "is_disabled": 0, "name": "3ff98bf3336cfd89472521872347b3e9", "bike_id": "3ff98bf3336cfd89472521872347b3e9", "fusion_lat": 0.0, "lon": -77.03014283333333, "type": "electric_bike", "fusion_lon": 0.0, "lat": 38.90024183333333}, {"rental_uris": {"android": "https://dc.lft.to/lastmile_qr_scan", "ios": "https://dc.lft.to/lastmile_qr_scan"}, "is_reserved": 0, "is_disabled": 0, "name": "1ab1df034790bbc23108fb4b4b81b223", "bike_id": "1ab1df034790bbc23108fb4b4b81b223", "fusion_lat": 0.0, "lon": -77.03316266666667, "type": "electric_scooter", "fusion_lon": 0.0, "lat": 38.89880516666667}, {"rental_uris": {"android": "https://dc.lft.to/lastmile_qr_scan", "ios": "https://dc.lft.to/lastmile_qr_scan"}, "is_reserved": 0, "is_disabled": 0, "name": "7f48c4e75595fbdad1101b5d1a77d0d5", "bike_id": "7f48c4e75595fbdad1101b5d1a77d0d5", "fusion_lat": 0.0, "lon": -77.059124, "type": "electric_scooter", "fusion_lon": 0.0, "lat": 38.90161233333333}, {"rental_uris": {"android": "https://dc.lft.to/lastmile_qr_scan", "ios": "https://dc.lft.to/lastmile_qr_scan"}, "is_reserved": 0, "is_disabled": 0, "name": "cc0456327e91de1388f9cea6f9452f46", "bike_id": "cc0456327e91de1388f9cea6f9452f46", "fusion_lat": 0.0, "lon": -77.0386265, "type": "electric_scooter", "fusion_lon": 0.0, "lat": 38.9095775}, {"rental_uris": {"android": "https://dc.lft.to/lastmile_qr_scan", "ios": "https://dc.lft.to/lastmile_qr_scan"}, "is_reserved": 0, "is_disabled": 0, "name": "25008fc19bd24926ecba7e86151f5fef", "bike_id": "25008fc19bd24926ecba7e86151f5fef", "fusion_lat": 0.0, "lon": -77.06296966666666, "type": "electric_scooter", "fusion_lon": 0.0, "lat": 38.90400283333334}, {"rental_uris": {"android": "https://dc.lft.to/lastmile_qr_scan", "ios": "https://dc.lft.to/lastmile_qr_scan"}, "is_reserved": 0, "is_disabled": 0, "name": "8ceeb888de2a173c00e2b4346889479e", "bike_id": "8ceeb888de2a173c00e2b4346889479e", "fusion_lat": 0.0, "lon": -76.983585, "type": "electric_scooter", "fusion_lon": 0.0, "lat": 38.89723016666667}, {"rental_uris": {"android": "https://dc.lft.to/lastmile_qr_scan", "ios": "https://dc.lft.to/lastmile_qr_scan"}, "is_reserved": 0, "is_disabled": 0, "name": "ae1207903814f5bad51cbe0a0059855b", "bike_id": "ae1207903814f5bad51cbe0a0059855b", "fusion_lat": 0.0, "lon": -77.025421, "type": "electric_scooter", "fusion_lon": 0.0, "lat": 38.90638383333334}, {"rental_uris": {"android": "https://dc.lft.to/lastmile_qr_scan", "ios": "https://dc.lft.to/lastmile_qr_scan"}, "is_reserved": 0, "is_disabled": 0, "name": "6a93b3c114e67288f1cbf9d57fea1614", "bike_id": "6a93b3c114e67288f1cbf9d57fea1614", "fusion_lat": 0.0, "lon": -77.02703633333333, "type": "electric_scooter", "fusion_lon": 0.0, "lat": 38.917919}, {"rental_uris": {"android": "https://dc.lft.to/lastmile_qr_scan", "ios": "https://dc.lft.to/lastmile_qr_scan"}, "is_reserved": 0, "is_disabled": 0, "name": "496088b936176fa04f947333540e3cc1", "bike_id": "496088b936176fa04f947333540e3cc1", "fusion_lat": 0.0, "lon": -77.0240605, "type": "electric_scooter", "fusion_lon": 0.0, "lat": 38.91985533333333}, {"rental_uris": {"android": "https://dc.lft.to/lastmile_qr_scan", "ios": "https://dc.lft.to/lastmile_qr_scan"}, "is_reserved": 0, "is_disabled": 0, "name": "be5f4edb6310ae03ebe8cc3e5300ac82", "bike_id": "be5f4edb6310ae03ebe8cc3e5300ac82", "fusion_lat": 0.0, "lon": -77.04019, "type": "electric_scooter", "fusion_lon": 0.0, "lat": 38.91595783333333}, {"rental_uris": {"android": "https://dc.lft.to/lastmile_qr_scan", "ios": "https://dc.lft.to/lastmile_qr_scan"}, "is_reserved": 0, "is_disabled": 0, "name": "7da0d315fca7844f6f944abdfa95a4fd", "bike_id": "7da0d315fca7844f6f944abdfa95a4fd", "fusion_lat": 0.0, "lon": -77.04030033333333, "type": "electric_scooter", "fusion_lon": 0.0, "lat": 38.918018000000004}, {"rental_uris": {"android": "https://dc.lft.to/lastmile_qr_scan", "ios": "https://dc.lft.to/lastmile_qr_scan"}, "is_reserved": 0, "is_disabled": 0, "name": "1ed1b0d5a8ac1af351f26759558b8623", "bike_id": "1ed1b0d5a8ac1af351f26759558b8623", "fusion_lat": 0.0, "lon": -77.02121966666667, "type": "electric_scooter", "fusion_lon": 0.0, "lat": 38.9237445}, {"rental_uris": {"android": "https://dc.lft.to/lastmile_qr_scan", "ios": "https://dc.lft.to/lastmile_qr_scan"}, "is_reserved": 0, "is_disabled": 0, "name": "260d4f43968079c9fde5bc2eba688a30", "bike_id": "260d4f43968079c9fde5bc2eba688a30", "fusion_lat": 0.0, "lon": -77.0468215, "type": "electric_scooter", "fusion_lon": 0.0, "lat": 38.89952433333333}, {"rental_uris": {"android": "https://dc.lft.to/lastmile_qr_scan", "ios": "https://dc.lft.to/lastmile_qr_scan"}, "is_reserved": 0, "is_disabled": 0, "name": "a9091326daff30c5847570a5ee5e3d4c", "bike_id": "a9091326daff30c5847570a5ee5e3d4c", "fusion_lat": 0.0, "lon": -77.12921, "type": "electric_bike", "fusion_lon": 0.0, "lat": 39.062172}, {"rental_uris": {"android": "https://dc.lft.to/lastmile_qr_scan", "ios": "https://dc.lft.to/lastmile_qr_scan"}, "is_reserved": 0, "is_disabled": 0, "name": "44193ffd4f1473c9e62632a300f1334c", "bike_id": "44193ffd4f1473c9e62632a300f1334c", "fusion_lat": 0.0, "lon": -76.97435216666666, "type": "electric_bike", "fusion_lon": 0.0, "lat": 38.855786333333334}, {"rental_uris": {"android": "https://dc.lft.to/lastmile_qr_scan", "ios": "https://dc.lft.to/lastmile_qr_scan"}, "is_reserved": 0, "is_disabled": 0, "name": "007048334372e8fc286481049c68e999", "bike_id": "007048334372e8fc286481049c68e999", "fusion_lat": 0.0, "lon": -77.0344915, "type": "electric_scooter", "fusion_lon": 0.0, "lat": 38.905014333333334}, {"rental_uris": {"android": "https://dc.lft.to/lastmile_qr_scan", "ios": "https://dc.lft.to/lastmile_qr_scan"}, "is_reserved": 0, "is_disabled": 0, "name": "beacfcdd8c78fb730036ed5b69332833", "bike_id": "beacfcdd8c78fb730036ed5b69332833", "fusion_lat": 0.0, "lon": -77.04190416666667, "type": "electric_scooter", "fusion_lon": 0.0, "lat": 38.906032333333336}, {"rental_uris": {"android": "https://dc.lft.to/lastmile_qr_scan", "ios": "https://dc.lft.to/lastmile_qr_scan"}, "is_reserved": 0, "is_disabled": 0, "name": "c84c9f18740c22075aff8d435391cf75", "bike_id": "c84c9f18740c22075aff8d435391cf75", "fusion_lat": 0.0, "lon": -77.0707345, "type": "electric_scooter", "fusion_lon": 0.0, "lat": 38.91928016666667}, {"rental_uris": {"android": "https://dc.lft.to/lastmile_qr_scan", "ios": "https://dc.lft.to/lastmile_qr_scan"}, "is_reserved": 0, "is_disabled": 0, "name": "8978073b89b6519327552d4be5049074", "bike_id": "8978073b89b6519327552d4be5049074", "fusion_lat": 0.0, "lon": -77.03181166666667, "type": "electric_scooter", "fusion_lon": 0.0, "lat": 38.914136}, {"rental_uris": {"android": "https://dc.lft.to/lastmile_qr_scan", "ios": "https://dc.lft.to/lastmile_qr_scan"}, "is_reserved": 0, "is_disabled": 0, "name": "986b52bc42241862c5bbcadf83574b84", "bike_id": "986b52bc42241862c5bbcadf83574b84", "fusion_lat": 0.0, "lon": -76.948741, "type": "electric_scooter", "fusion_lon": 0.0, "lat": 38.895013666666664}, {"rental_uris": {"android": "https://dc.lft.to/lastmile_qr_scan", "ios": "https://dc.lft.to/lastmile_qr_scan"}, "is_reserved": 0, "is_disabled": 0, "name": "64fd5dc2f971bc62c89704b31b1b9b25", "bike_id": "64fd5dc2f971bc62c89704b31b1b9b25", "fusion_lat": 0.0, "lon": -77.09688633333333, "type": "electric_bike", "fusion_lon": 0.0, "lat": 38.80738366666667}, {"rental_uris": {"android": "https://dc.lft.to/lastmile_qr_scan", "ios": "https://dc.lft.to/lastmile_qr_scan"}, "is_reserved": 0, "is_disabled": 0, "name": "235ad583dd691e861e39660b6b57fce4", "bike_id": "235ad583dd691e861e39660b6b57fce4", "fusion_lat": 0.0, "lon": -77.0237065, "type": "electric_scooter", "fusion_lon": 0.0, "lat": 38.90217766666667}, {"rental_uris": {"android": "https://dc.lft.to/lastmile_qr_scan", "ios": "https://dc.lft.to/lastmile_qr_scan"}, "is_reserved": 0, "is_disabled": 0, "name": "3c07ac61ebedd9d24b4195955261c1ed", "bike_id": "3c07ac61ebedd9d24b4195955261c1ed", "fusion_lat": 0.0, "lon": -77.05019266666666, "type": "electric_scooter", "fusion_lon": 0.0, "lat": 38.89816716666667}, {"rental_uris": {"android": "https://dc.lft.to/lastmile_qr_scan", "ios": "https://dc.lft.to/lastmile_qr_scan"}, "is_reserved": 0, "is_disabled": 0, "name": "3726f9baca741c809089d05952526213", "bike_id": "3726f9baca741c809089d05952526213", "fusion_lat": 0.0, "lon": -76.98445116666667, "type": "electric_bike", "fusion_lon": 0.0, "lat": 38.8551035}, {"rental_uris": {"android": "https://dc.lft.to/lastmile_qr_scan", "ios": "https://dc.lft.to/lastmile_qr_scan"}, "is_reserved": 0, "is_disabled": 0, "name": "cd8db0f36da69e9fabdb04232a5a43b8", "bike_id": "cd8db0f36da69e9fabdb04232a5a43b8", "fusion_lat": 0.0, "lon": -77.0461595, "type": "electric_scooter", "fusion_lon": 0.0, "lat": 38.898036166666664}, {"rental_uris": {"android": "https://dc.lft.to/lastmile_qr_scan", "ios": "https://dc.lft.to/lastmile_qr_scan"}, "is_reserved": 0, "is_disabled": 0, "name": "93fd498408732108276cae0ddb592b58", "bike_id": "93fd498408732108276cae0ddb592b58", "fusion_lat": 0.0, "lon": -77.006084, "type": "electric_scooter", "fusion_lon": 0.0, "lat": 38.875407333333335}, {"rental_uris": {"android": "https://dc.lft.to/lastmile_qr_scan", "ios": "https://dc.lft.to/lastmile_qr_scan"}, "is_reserved": 0, "is_disabled": 0, "name": "9c5a66ce4cec191a760e8a28a0af3f4f", "bike_id": "9c5a66ce4cec191a760e8a28a0af3f4f", "fusion_lat": 0.0, "lon": -77.035481, "type": "electric_scooter", "fusion_lon": 0.0, "lat": 38.906767}, {"rental_uris": {"android": "https://dc.lft.to/lastmile_qr_scan", "ios": "https://dc.lft.to/lastmile_qr_scan"}, "is_reserved": 0, "is_disabled": 0, "name": "05b7244c160b66ccdd3f58593b5617ab", "bike_id": "05b7244c160b66ccdd3f58593b5617ab", "fusion_lat": 0.0, "lon": -77.01519316666666, "type": "electric_scooter", "fusion_lon": 0.0, "lat": 38.872799}, {"rental_uris": {"android": "https://dc.lft.to/lastmile_qr_scan", "ios": "https://dc.lft.to/lastmile_qr_scan"}, "is_reserved": 0, "is_disabled": 0, "name": "17ff58d0844216ab9acbb7b809f53ead", "bike_id": "17ff58d0844216ab9acbb7b809f53ead", "fusion_lat": 0.0, "lon": -77.033973, "type": "electric_scooter", "fusion_lon": 0.0, "lat": 38.92535433333333}, {"rental_uris": {"android": "https://dc.lft.to/lastmile_qr_scan", "ios": "https://dc.lft.to/lastmile_qr_scan"}, "is_reserved": 0, "is_disabled": 0, "name": "7af8ed4e31f970e730c013e4f4773561", "bike_id": "7af8ed4e31f970e730c013e4f4773561", "fusion_lat": 0.0, "lon": -77.04237183333333, "type": "electric_scooter", "fusion_lon": 0.0, "lat": 38.92057633333334}, {"rental_uris": {"android": "https://dc.lft.to/lastmile_qr_scan", "ios": "https://dc.lft.to/lastmile_qr_scan"}, "is_reserved": 0, "is_disabled": 0, "name": "a326db7845cddb55ff8af51db0a12c33", "bike_id": "a326db7845cddb55ff8af51db0a12c33", "fusion_lat": 0.0, "lon": -76.9851445, "type": "electric_scooter", "fusion_lon": 0.0, "lat": 38.900518}, {"rental_uris": {"android": "https://dc.lft.to/lastmile_qr_scan", "ios": "https://dc.lft.to/lastmile_qr_scan"}, "is_reserved": 0, "is_disabled": 0, "name": "ac6fc406beb7264b43f5d369ea6c0412", "bike_id": "ac6fc406beb7264b43f5d369ea6c0412", "fusion_lat": 0.0, "lon": -77.0194635, "type": "electric_scooter", "fusion_lon": 0.0, "lat": 38.924436166666666}, {"rental_uris": {"android": "https://dc.lft.to/lastmile_qr_scan", "ios": "https://dc.lft.to/lastmile_qr_scan"}, "is_reserved": 0, "is_disabled": 0, "name": "5ee11e9e48b62bd01d39f7e7bd208f85", "bike_id": "5ee11e9e48b62bd01d39f7e7bd208f85", "fusion_lat": 0.0, "lon": -77.03860966666667, "type": "electric_scooter", "fusion_lon": 0.0, "lat": 38.902890166666666}, {"rental_uris": {"android": "https://dc.lft.to/lastmile_qr_scan", "ios": "https://dc.lft.to/lastmile_qr_scan"}, "is_reserved": 0, "is_disabled": 0, "name": "df298edc206092074d35ca7699f27deb", "bike_id": "df298edc206092074d35ca7699f27deb", "fusion_lat": 0.0, "lon": -77.03989883333334, "type": "electric_scooter", "fusion_lon": 0.0, "lat": 38.90537366666667}, {"rental_uris": {"android": "https://dc.lft.to/lastmile_qr_scan", "ios": "https://dc.lft.to/lastmile_qr_scan"}, "is_reserved": 0, "is_disabled": 0, "name": "01c8704d88cccd2361f7677c9de778b0", "bike_id": "01c8704d88cccd2361f7677c9de778b0", "fusion_lat": 0.0, "lon": -77.23390433333333, "type": "electric_bike", "fusion_lon": 0.0, "lat": 38.87179616666667}, {"rental_uris": {"android": "https://dc.lft.to/lastmile_qr_scan", "ios": "https://dc.lft.to/lastmile_qr_scan"}, "is_reserved": 0, "is_disabled": 0, "name": "7d82ccbad78a67e6e45c549aa829cf59", "bike_id": "7d82ccbad78a67e6e45c549aa829cf59", "fusion_lat": 0.0, "lon": -77.016795, "type": "electric_scooter", "fusion_lon": 0.0, "lat": 38.92038766666667}, {"rental_uris": {"android": "https://dc.lft.to/lastmile_qr_scan", "ios": "https://dc.lft.to/lastmile_qr_scan"}, "is_reserved": 0, "is_disabled": 0, "name": "12fd3aa2aad64a7b6ec816120cfaf3bd", "bike_id": "12fd3aa2aad64a7b6ec816120cfaf3bd", "fusion_lat": 0.0, "lon": -77.052099, "type": "electric_scooter", "fusion_lon": 0.0, "lat": 38.92435283333333}, {"rental_uris": {"android": "https://dc.lft.to/lastmile_qr_scan", "ios": "https://dc.lft.to/lastmile_qr_scan"}, "is_reserved": 0, "is_disabled": 0, "name": "291238a5a604545f6174e7204141fdb7", "bike_id": "291238a5a604545f6174e7204141fdb7", "fusion_lat": 0.0, "lon": -77.022385, "type": "electric_scooter", "fusion_lon": 0.0, "lat": 38.966173833333336}, {"rental_uris": {"android": "https://dc.lft.to/lastmile_qr_scan", "ios": "https://dc.lft.to/lastmile_qr_scan"}, "is_reserved": 0, "is_disabled": 0, "name": "33e3820c1118d16419d45c491cdad85e", "bike_id": "33e3820c1118d16419d45c491cdad85e", "fusion_lat": 0.0, "lon": -77.01681016666667, "type": "electric_bike", "fusion_lon": 0.0, "lat": 38.902525}, {"rental_uris": {"android": "https://dc.lft.to/lastmile_qr_scan", "ios": "https://dc.lft.to/lastmile_qr_scan"}, "is_reserved": 0, "is_disabled": 0, "name": "f193cbb1e2a4dfa1c9891c912eec9a36", "bike_id": "f193cbb1e2a4dfa1c9891c912eec9a36", "fusion_lat": 0.0, "lon": -77.0208715, "type": "electric_scooter", "fusion_lon": 0.0, "lat": 38.9215315}, {"rental_uris": {"android": "https://dc.lft.to/lastmile_qr_scan", "ios": "https://dc.lft.to/lastmile_qr_scan"}, "is_reserved": 0, "is_disabled": 0, "name": "38cbeee78e5edc109380df3e7ecf3533", "bike_id": "38cbeee78e5edc109380df3e7ecf3533", "fusion_lat": 0.0, "lon": -77.02550333333333, "type": "electric_scooter", "fusion_lon": 0.0, "lat": 38.948239}, {"rental_uris": {"android": "https://dc.lft.to/lastmile_qr_scan", "ios": "https://dc.lft.to/lastmile_qr_scan"}, "is_reserved": 0, "is_disabled": 0, "name": "f7f8ce8e5efce4d9047516cf58a7f94c", "bike_id": "f7f8ce8e5efce4d9047516cf58a7f94c", "fusion_lat": 0.0, "lon": -77.04333816666667, "type": "electric_scooter", "fusion_lon": 0.0, "lat": 38.923390166666664}, {"rental_uris": {"android": "https://dc.lft.to/lastmile_qr_scan", "ios": "https://dc.lft.to/lastmile_qr_scan"}, "is_reserved": 0, "is_disabled": 0, "name": "64e6651082757e3227c6fa2ce68039e4", "bike_id": "64e6651082757e3227c6fa2ce68039e4", "fusion_lat": 0.0, "lon": -77.0322215, "type": "electric_scooter", "fusion_lon": 0.0, "lat": 38.9077}, {"rental_uris": {"android": "https://dc.lft.to/lastmile_qr_scan", "ios": "https://dc.lft.to/lastmile_qr_scan"}, "is_reserved": 0, "is_disabled": 0, "name": "eb08f59cb5c6a580a072d5373a92035d", "bike_id": "eb08f59cb5c6a580a072d5373a92035d", "fusion_lat": 0.0, "lon": -77.03062166666666, "type": "electric_scooter", "fusion_lon": 0.0, "lat": 38.897936666666666}, {"rental_uris": {"android": "https://dc.lft.to/lastmile_qr_scan", "ios": "https://dc.lft.to/lastmile_qr_scan"}, "is_reserved": 0, "is_disabled": 0, "name": "01c30d259bfe437b29cb3947f2189ae3", "bike_id": "01c30d259bfe437b29cb3947f2189ae3", "fusion_lat": 0.0, "lon": -76.99350533333333, "type": "electric_scooter", "fusion_lon": 0.0, "lat": 38.900133}, {"rental_uris": {"android": "https://dc.lft.to/lastmile_qr_scan", "ios": "https://dc.lft.to/lastmile_qr_scan"}, "is_reserved": 0, "is_disabled": 0, "name": "768296cbba5045c175aadec629ec0450", "bike_id": "768296cbba5045c175aadec629ec0450", "fusion_lat": 0.0, "lon": -77.01698883333333, "type": "electric_scooter", "fusion_lon": 0.0, "lat": 38.9064395}, {"rental_uris": {"android": "https://dc.lft.to/lastmile_qr_scan", "ios": "https://dc.lft.to/lastmile_qr_scan"}, "is_reserved": 0, "is_disabled": 0, "name": "c2ad64f78f5fdc18f578f5e494e832a4", "bike_id": "c2ad64f78f5fdc18f578f5e494e832a4", "fusion_lat": 0.0, "lon": -77.02818966666666, "type": "electric_scooter", "fusion_lon": 0.0, "lat": 38.9024855}, {"rental_uris": {"android": "https://dc.lft.to/lastmile_qr_scan", "ios": "https://dc.lft.to/lastmile_qr_scan"}, "is_reserved": 0, "is_disabled": 0, "name": "197b9c7133daadd19f7ce29061ac2e71", "bike_id": "197b9c7133daadd19f7ce29061ac2e71", "fusion_lat": 0.0, "lon": -77.04502333333333, "type": "electric_scooter", "fusion_lon": 0.0, "lat": 38.892261833333336}, {"rental_uris": {"android": "https://dc.lft.to/lastmile_qr_scan", "ios": "https://dc.lft.to/lastmile_qr_scan"}, "is_reserved": 0, "is_disabled": 0, "name": "538449811860f7267c619dce5d6df896", "bike_id": "538449811860f7267c619dce5d6df896", "fusion_lat": 0.0, "lon": -77.03089166666666, "type": "electric_scooter", "fusion_lon": 0.0, "lat": 38.8980815}, {"rental_uris": {"android": "https://dc.lft.to/lastmile_qr_scan", "ios": "https://dc.lft.to/lastmile_qr_scan"}, "is_reserved": 0, "is_disabled": 0, "name": "16130e9a988a874dded64d7a4e46b2e0", "bike_id": "16130e9a988a874dded64d7a4e46b2e0", "fusion_lat": 0.0, "lon": -77.0282425, "type": "electric_scooter", "fusion_lon": 0.0, "lat": 38.88733416666667}, {"rental_uris": {"android": "https://dc.lft.to/lastmile_qr_scan", "ios": "https://dc.lft.to/lastmile_qr_scan"}, "is_reserved": 0, "is_disabled": 0, "name": "ab66eb9c55f96514e0cc4f61762e9043", "bike_id": "ab66eb9c55f96514e0cc4f61762e9043", "fusion_lat": 0.0, "lon": -76.9249825, "type": "electric_scooter", "fusion_lon": 0.0, "lat": 38.88600483333333}, {"rental_uris": {"android": "https://dc.lft.to/lastmile_qr_scan", "ios": "https://dc.lft.to/lastmile_qr_scan"}, "is_reserved": 0, "is_disabled": 0, "name": "99412647bbe37609c0463c947a21143e", "bike_id": "99412647bbe37609c0463c947a21143e", "fusion_lat": 0.0, "lon": -77.050626, "type": "electric_scooter", "fusion_lon": 0.0, "lat": 38.91136483333333}, {"rental_uris": {"android": "https://dc.lft.to/lastmile_qr_scan", "ios": "https://dc.lft.to/lastmile_qr_scan"}, "is_reserved": 0, "is_disabled": 0, "name": "990cb04de9d6511ce76b118cd6e7ef02", "bike_id": "990cb04de9d6511ce76b118cd6e7ef02", "fusion_lat": 0.0, "lon": -77.06452983333334, "type": "electric_scooter", "fusion_lon": 0.0, "lat": 38.94880216666667}, {"rental_uris": {"android": "https://dc.lft.to/lastmile_qr_scan", "ios": "https://dc.lft.to/lastmile_qr_scan"}, "is_reserved": 0, "is_disabled": 0, "name": "06f412ba1f314d6e722a2ea6eb23c808", "bike_id": "06f412ba1f314d6e722a2ea6eb23c808", "fusion_lat": 0.0, "lon": -76.96321366666666, "type": "electric_bike", "fusion_lon": 0.0, "lat": 38.938935}, {"rental_uris": {"android": "https://dc.lft.to/lastmile_qr_scan", "ios": "https://dc.lft.to/lastmile_qr_scan"}, "is_reserved": 0, "is_disabled": 0, "name": "81318f33fa893e2e02ae38f3fc7279b1", "bike_id": "81318f33fa893e2e02ae38f3fc7279b1", "fusion_lat": 0.0, "lon": -77.027428, "type": "electric_scooter", "fusion_lon": 0.0, "lat": 38.966456}, {"rental_uris": {"android": "https://dc.lft.to/lastmile_qr_scan", "ios": "https://dc.lft.to/lastmile_qr_scan"}, "is_reserved": 0, "is_disabled": 0, "name": "06d8ebce73dd1ca02205812842a33bb9", "bike_id": "06d8ebce73dd1ca02205812842a33bb9", "fusion_lat": 0.0, "lon": -77.00377116666667, "type": "electric_bike", "fusion_lon": 0.0, "lat": 38.83602716666667}, {"rental_uris": {"android": "https://dc.lft.to/lastmile_qr_scan", "ios": "https://dc.lft.to/lastmile_qr_scan"}, "is_reserved": 0, "is_disabled": 0, "name": "9f83660051127e686a52b1f7231a992e", "bike_id": "9f83660051127e686a52b1f7231a992e", "fusion_lat": 0.0, "lon": -77.01941833333333, "type": "electric_scooter", "fusion_lon": 0.0, "lat": 38.924230333333334}, {"rental_uris": {"android": "https://dc.lft.to/lastmile_qr_scan", "ios": "https://dc.lft.to/lastmile_qr_scan"}, "is_reserved": 0, "is_disabled": 0, "name": "a3790d4428f783bb464041f213ef46b8", "bike_id": "a3790d4428f783bb464041f213ef46b8", "fusion_lat": 0.0, "lon": -77.03424716666666, "type": "electric_scooter", "fusion_lon": 0.0, "lat": 38.919318}, {"rental_uris": {"android": "https://dc.lft.to/lastmile_qr_scan", "ios": "https://dc.lft.to/lastmile_qr_scan"}, "is_reserved": 0, "is_disabled": 0, "name": "71de41885861245f709c002b315129bc", "bike_id": "71de41885861245f709c002b315129bc", "fusion_lat": 0.0, "lon": -77.0327495, "type": "electric_scooter", "fusion_lon": 0.0, "lat": 38.898745}, {"rental_uris": {"android": "https://dc.lft.to/lastmile_qr_scan", "ios": "https://dc.lft.to/lastmile_qr_scan"}, "is_reserved": 0, "is_disabled": 0, "name": "3d249dccb551ad88821bc52ecc3a6a24", "bike_id": "3d249dccb551ad88821bc52ecc3a6a24", "fusion_lat": 0.0, "lon": -77.01856883333333, "type": "electric_scooter", "fusion_lon": 0.0, "lat": 38.94920666666667}, {"rental_uris": {"android": "https://dc.lft.to/lastmile_qr_scan", "ios": "https://dc.lft.to/lastmile_qr_scan"}, "is_reserved": 0, "is_disabled": 0, "name": "932e614248881b790756f29f7316819c", "bike_id": "932e614248881b790756f29f7316819c", "fusion_lat": 0.0, "lon": -77.02955483333334, "type": "electric_scooter", "fusion_lon": 0.0, "lat": 38.94306916666667}, {"rental_uris": {"android": "https://dc.lft.to/lastmile_qr_scan", "ios": "https://dc.lft.to/lastmile_qr_scan"}, "is_reserved": 0, "is_disabled": 0, "name": "4a4b7b02a8b29d04c081098c5b732b1f", "bike_id": "4a4b7b02a8b29d04c081098c5b732b1f", "fusion_lat": 0.0, "lon": -77.03586166666666, "type": "electric_bike", "fusion_lon": 0.0, "lat": 38.9922415}, {"rental_uris": {"android": "https://dc.lft.to/lastmile_qr_scan", "ios": "https://dc.lft.to/lastmile_qr_scan"}, "is_reserved": 0, "is_disabled": 0, "name": "a3eebd0a5754f1106e7b8bddd93114f8", "bike_id": "a3eebd0a5754f1106e7b8bddd93114f8", "fusion_lat": 0.0, "lon": -77.00287133333333, "type": "electric_bike", "fusion_lon": 0.0, "lat": 38.837994}, {"rental_uris": {"android": "https://dc.lft.to/lastmile_qr_scan", "ios": "https://dc.lft.to/lastmile_qr_scan"}, "is_reserved": 0, "is_disabled": 0, "name": "9d7112ea97b4bfe80bf5041762fda3d4", "bike_id": "9d7112ea97b4bfe80bf5041762fda3d4", "fusion_lat": 0.0, "lon": -77.024445, "type": "electric_scooter", "fusion_lon": 0.0, "lat": 38.89977916666667}, {"rental_uris": {"android": "https://dc.lft.to/lastmile_qr_scan", "ios": "https://dc.lft.to/lastmile_qr_scan"}, "is_reserved": 0, "is_disabled": 0, "name": "0d1525c191451600080e21abca2aabeb", "bike_id": "0d1525c191451600080e21abca2aabeb", "fusion_lat": 0.0, "lon": -77.03323133333333, "type": "electric_scooter", "fusion_lon": 0.0, "lat": 38.899946}, {"rental_uris": {"android": "https://dc.lft.to/lastmile_qr_scan", "ios": "https://dc.lft.to/lastmile_qr_scan"}, "is_reserved": 0, "is_disabled": 0, "name": "7e2995450424b1d2c95de5db9e6db249", "bike_id": "7e2995450424b1d2c95de5db9e6db249", "fusion_lat": 0.0, "lon": -77.02829016666666, "type": "electric_scooter", "fusion_lon": 0.0, "lat": 38.89941833333334}, {"rental_uris": {"android": "https://dc.lft.to/lastmile_qr_scan", "ios": "https://dc.lft.to/lastmile_qr_scan"}, "is_reserved": 0, "is_disabled": 0, "name": "a981929cf0fba630c74edec3f0e94a9f", "bike_id": "a981929cf0fba630c74edec3f0e94a9f", "fusion_lat": 0.0, "lon": -77.0237015, "type": "electric_scooter", "fusion_lon": 0.0, "lat": 38.90212433333333}, {"rental_uris": {"android": "https://dc.lft.to/lastmile_qr_scan", "ios": "https://dc.lft.to/lastmile_qr_scan"}, "is_reserved": 0, "is_disabled": 0, "name": "305a3e02da19d33a6299ecabf6329d77", "bike_id": "305a3e02da19d33a6299ecabf6329d77", "fusion_lat": 0.0, "lon": -77.028169, "type": "electric_scooter", "fusion_lon": 0.0, "lat": 38.898010166666666}, {"rental_uris": {"android": "https://dc.lft.to/lastmile_qr_scan", "ios": "https://dc.lft.to/lastmile_qr_scan"}, "is_reserved": 0, "is_disabled": 0, "name": "a6898338ceeca2179d0a524a0d6bc18a", "bike_id": "a6898338ceeca2179d0a524a0d6bc18a", "fusion_lat": 0.0, "lon": -77.0576845, "type": "electric_scooter", "fusion_lon": 0.0, "lat": 38.924386}, {"rental_uris": {"android": "https://dc.lft.to/lastmile_qr_scan", "ios": "https://dc.lft.to/lastmile_qr_scan"}, "is_reserved": 0, "is_disabled": 0, "name": "0f37f2c3f8fa2b040951ef6512de6a87", "bike_id": "0f37f2c3f8fa2b040951ef6512de6a87", "fusion_lat": 0.0, "lon": -77.02312533333334, "type": "electric_scooter", "fusion_lon": 0.0, "lat": 38.91785216666667}, {"rental_uris": {"android": "https://dc.lft.to/lastmile_qr_scan", "ios": "https://dc.lft.to/lastmile_qr_scan"}, "is_reserved": 0, "is_disabled": 0, "name": "93d627291f265d3ced3b3fe7f96277e9", "bike_id": "93d627291f265d3ced3b3fe7f96277e9", "fusion_lat": 0.0, "lon": -76.99634233333333, "type": "electric_scooter", "fusion_lon": 0.0, "lat": 38.90527633333333}, {"rental_uris": {"android": "https://dc.lft.to/lastmile_qr_scan", "ios": "https://dc.lft.to/lastmile_qr_scan"}, "is_reserved": 0, "is_disabled": 0, "name": "8369f296c150c2eaae8f850b0642b6d7", "bike_id": "8369f296c150c2eaae8f850b0642b6d7", "fusion_lat": 0.0, "lon": -77.00321816666667, "type": "electric_scooter", "fusion_lon": 0.0, "lat": 38.886065}, {"rental_uris": {"android": "https://dc.lft.to/lastmile_qr_scan", "ios": "https://dc.lft.to/lastmile_qr_scan"}, "is_reserved": 0, "is_disabled": 0, "name": "c9765ff1522afbd8e03192c481ceca74", "bike_id": "c9765ff1522afbd8e03192c481ceca74", "fusion_lat": 0.0, "lon": -77.06284683333334, "type": "electric_scooter", "fusion_lon": 0.0, "lat": 38.96502483333333}, {"rental_uris": {"android": "https://dc.lft.to/lastmile_qr_scan", "ios": "https://dc.lft.to/lastmile_qr_scan"}, "is_reserved": 0, "is_disabled": 0, "name": "cc4a915b73b233aababac56f89a55eda", "bike_id": "cc4a915b73b233aababac56f89a55eda", "fusion_lat": 0.0, "lon": -77.021891, "type": "electric_scooter", "fusion_lon": 0.0, "lat": 38.90391283333334}, {"rental_uris": {"android": "https://dc.lft.to/lastmile_qr_scan", "ios": "https://dc.lft.to/lastmile_qr_scan"}, "is_reserved": 0, "is_disabled": 0, "name": "25d54a0c1080215add60e2844b3b31e7", "bike_id": "25d54a0c1080215add60e2844b3b31e7", "fusion_lat": 0.0, "lon": -77.05946116666667, "type": "electric_scooter", "fusion_lon": 0.0, "lat": 38.94293366666667}, {"rental_uris": {"android": "https://dc.lft.to/lastmile_qr_scan", "ios": "https://dc.lft.to/lastmile_qr_scan"}, "is_reserved": 0, "is_disabled": 0, "name": "078821c407cbd8a17580bf5106372030", "bike_id": "078821c407cbd8a17580bf5106372030", "fusion_lat": 0.0, "lon": -77.02331333333333, "type": "electric_scooter", "fusion_lon": 0.0, "lat": 38.940508333333334}, {"rental_uris": {"android": "https://dc.lft.to/lastmile_qr_scan", "ios": "https://dc.lft.to/lastmile_qr_scan"}, "is_reserved": 0, "is_disabled": 0, "name": "5bc5b574fe6373d1473f97c7c8c11624", "bike_id": "5bc5b574fe6373d1473f97c7c8c11624", "fusion_lat": 0.0, "lon": -76.93186183333333, "type": "electric_scooter", "fusion_lon": 0.0, "lat": 38.898576166666665}, {"rental_uris": {"android": "https://dc.lft.to/lastmile_qr_scan", "ios": "https://dc.lft.to/lastmile_qr_scan"}, "is_reserved": 0, "is_disabled": 0, "name": "a772fe9912017391ac8b175dde127840", "bike_id": "a772fe9912017391ac8b175dde127840", "fusion_lat": 0.0, "lon": -77.04386233333334, "type": "electric_scooter", "fusion_lon": 0.0, "lat": 38.900263}, {"rental_uris": {"android": "https://dc.lft.to/lastmile_qr_scan", "ios": "https://dc.lft.to/lastmile_qr_scan"}, "is_reserved": 0, "is_disabled": 0, "name": "68dab3b1aa35ee9b9cdc0fd19a2232c0", "bike_id": "68dab3b1aa35ee9b9cdc0fd19a2232c0", "fusion_lat": 0.0, "lon": -77.03225733333333, "type": "electric_scooter", "fusion_lon": 0.0, "lat": 38.919087}, {"rental_uris": {"android": "https://dc.lft.to/lastmile_qr_scan", "ios": "https://dc.lft.to/lastmile_qr_scan"}, "is_reserved": 0, "is_disabled": 0, "name": "74dd107e1f747e107b2bf342dff291b0", "bike_id": "74dd107e1f747e107b2bf342dff291b0", "fusion_lat": 0.0, "lon": -76.99115116666667, "type": "electric_scooter", "fusion_lon": 0.0, "lat": 38.900219666666665}, {"rental_uris": {"android": "https://dc.lft.to/lastmile_qr_scan", "ios": "https://dc.lft.to/lastmile_qr_scan"}, "is_reserved": 0, "is_disabled": 0, "name": "4957774e27b30bb2de1205101bc22700", "bike_id": "4957774e27b30bb2de1205101bc22700", "fusion_lat": 0.0, "lon": -77.0485295, "type": "electric_scooter", "fusion_lon": 0.0, "lat": 38.904975}, {"rental_uris": {"android": "https://dc.lft.to/lastmile_qr_scan", "ios": "https://dc.lft.to/lastmile_qr_scan"}, "is_reserved": 0, "is_disabled": 0, "name": "bee4683863a6e5cce7dc863ba8d7dfa3", "bike_id": "bee4683863a6e5cce7dc863ba8d7dfa3", "fusion_lat": 0.0, "lon": -77.03429283333334, "type": "electric_scooter", "fusion_lon": 0.0, "lat": 38.91777183333333}, {"rental_uris": {"android": "https://dc.lft.to/lastmile_qr_scan", "ios": "https://dc.lft.to/lastmile_qr_scan"}, "is_reserved": 0, "is_disabled": 0, "name": "97e4e4c322ddf9f61f32d7b0797dd80a", "bike_id": "97e4e4c322ddf9f61f32d7b0797dd80a", "fusion_lat": 0.0, "lon": -76.98989333333333, "type": "electric_scooter", "fusion_lon": 0.0, "lat": 38.86428}, {"rental_uris": {"android": "https://dc.lft.to/lastmile_qr_scan", "ios": "https://dc.lft.to/lastmile_qr_scan"}, "is_reserved": 0, "is_disabled": 0, "name": "4b56b12ff07c1f134273b8871f29f2ef", "bike_id": "4b56b12ff07c1f134273b8871f29f2ef", "fusion_lat": 0.0, "lon": -77.023163, "type": "electric_scooter", "fusion_lon": 0.0, "lat": 38.917871166666664}, {"rental_uris": {"android": "https://dc.lft.to/lastmile_qr_scan", "ios": "https://dc.lft.to/lastmile_qr_scan"}, "is_reserved": 0, "is_disabled": 0, "name": "31a21aba52f47b7cabb8e7b6509af366", "bike_id": "31a21aba52f47b7cabb8e7b6509af366", "fusion_lat": 0.0, "lon": -77.03409433333333, "type": "electric_scooter", "fusion_lon": 0.0, "lat": 38.930918}, {"rental_uris": {"android": "https://dc.lft.to/lastmile_qr_scan", "ios": "https://dc.lft.to/lastmile_qr_scan"}, "is_reserved": 0, "is_disabled": 0, "name": "ffd9a4d1b61aa5f55305f702487cb57b", "bike_id": "ffd9a4d1b61aa5f55305f702487cb57b", "fusion_lat": 0.0, "lon": -77.04851783333334, "type": "electric_scooter", "fusion_lon": 0.0, "lat": 38.899351333333335}, {"rental_uris": {"android": "https://dc.lft.to/lastmile_qr_scan", "ios": "https://dc.lft.to/lastmile_qr_scan"}, "is_reserved": 0, "is_disabled": 0, "name": "b0e3cb6053d1f20d890c4bcb75c8fa27", "bike_id": "b0e3cb6053d1f20d890c4bcb75c8fa27", "fusion_lat": 0.0, "lon": -76.9823485, "type": "electric_scooter", "fusion_lon": 0.0, "lat": 38.86887266666667}, {"rental_uris": {"android": "https://dc.lft.to/lastmile_qr_scan", "ios": "https://dc.lft.to/lastmile_qr_scan"}, "is_reserved": 0, "is_disabled": 0, "name": "a88e44d1cc52f665f4d9f22e41979fce", "bike_id": "a88e44d1cc52f665f4d9f22e41979fce", "fusion_lat": 0.0, "lon": -77.02474983333333, "type": "electric_scooter", "fusion_lon": 0.0, "lat": 38.9182335}, {"rental_uris": {"android": "https://dc.lft.to/lastmile_qr_scan", "ios": "https://dc.lft.to/lastmile_qr_scan"}, "is_reserved": 0, "is_disabled": 0, "name": "c1c820f0c58017b52eb7adb0b13fa690", "bike_id": "c1c820f0c58017b52eb7adb0b13fa690", "fusion_lat": 0.0, "lon": -77.0250135, "type": "electric_scooter", "fusion_lon": 0.0, "lat": 38.919167333333334}, {"rental_uris": {"android": "https://dc.lft.to/lastmile_qr_scan", "ios": "https://dc.lft.to/lastmile_qr_scan"}, "is_reserved": 0, "is_disabled": 0, "name": "0b040b4d2044cd22c17c74af11ae9fda", "bike_id": "0b040b4d2044cd22c17c74af11ae9fda", "fusion_lat": 0.0, "lon": -76.94663666666666, "type": "electric_scooter", "fusion_lon": 0.0, "lat": 38.8986995}, {"rental_uris": {"android": "https://dc.lft.to/lastmile_qr_scan", "ios": "https://dc.lft.to/lastmile_qr_scan"}, "is_reserved": 0, "is_disabled": 0, "name": "a410a46c861c798562c72c0fd91c3e38", "bike_id": "a410a46c861c798562c72c0fd91c3e38", "fusion_lat": 0.0, "lon": -77.04118683333333, "type": "electric_scooter", "fusion_lon": 0.0, "lat": 38.901278833333336}, {"rental_uris": {"android": "https://dc.lft.to/lastmile_qr_scan", "ios": "https://dc.lft.to/lastmile_qr_scan"}, "is_reserved": 0, "is_disabled": 0, "name": "7b1692a4e858a1042bdc54079e09f963", "bike_id": "7b1692a4e858a1042bdc54079e09f963", "fusion_lat": 0.0, "lon": -77.03873633333333, "type": "electric_scooter", "fusion_lon": 0.0, "lat": 38.90303}, {"rental_uris": {"android": "https://dc.lft.to/lastmile_qr_scan", "ios": "https://dc.lft.to/lastmile_qr_scan"}, "is_reserved": 0, "is_disabled": 0, "name": "3bae8fa20d613d30cc2798320dada0ce", "bike_id": "3bae8fa20d613d30cc2798320dada0ce", "fusion_lat": 0.0, "lon": -76.99052433333334, "type": "electric_bike", "fusion_lon": 0.0, "lat": 38.93757933333333}, {"rental_uris": {"android": "https://dc.lft.to/lastmile_qr_scan", "ios": "https://dc.lft.to/lastmile_qr_scan"}, "is_reserved": 0, "is_disabled": 0, "name": "15a4364522bb9e39c415ff388c85bf71", "bike_id": "15a4364522bb9e39c415ff388c85bf71", "fusion_lat": 0.0, "lon": -77.06260883333333, "type": "electric_bike", "fusion_lon": 0.0, "lat": 38.9441195}, {"rental_uris": {"android": "https://dc.lft.to/lastmile_qr_scan", "ios": "https://dc.lft.to/lastmile_qr_scan"}, "is_reserved": 0, "is_disabled": 0, "name": "28febd54a05cd5929fc1391e2aa1aa7d", "bike_id": "28febd54a05cd5929fc1391e2aa1aa7d", "fusion_lat": 0.0, "lon": -77.00653216666667, "type": "electric_scooter", "fusion_lon": 0.0, "lat": 38.909600166666664}, {"rental_uris": {"android": "https://dc.lft.to/lastmile_qr_scan", "ios": "https://dc.lft.to/lastmile_qr_scan"}, "is_reserved": 0, "is_disabled": 0, "name": "fbcef64c677bcaf1e9daed43e9e9f904", "bike_id": "fbcef64c677bcaf1e9daed43e9e9f904", "fusion_lat": 0.0, "lon": -77.02505283333333, "type": "electric_scooter", "fusion_lon": 0.0, "lat": 38.923939833333336}, {"rental_uris": {"android": "https://dc.lft.to/lastmile_qr_scan", "ios": "https://dc.lft.to/lastmile_qr_scan"}, "is_reserved": 0, "is_disabled": 0, "name": "4f925425094037f28244044e6e9c5d84", "bike_id": "4f925425094037f28244044e6e9c5d84", "fusion_lat": 0.0, "lon": -77.02835716666667, "type": "electric_scooter", "fusion_lon": 0.0, "lat": 38.901415166666666}, {"rental_uris": {"android": "https://dc.lft.to/lastmile_qr_scan", "ios": "https://dc.lft.to/lastmile_qr_scan"}, "is_reserved": 0, "is_disabled": 0, "name": "f5245d0589f38e368b7271ffb0d1bbd9", "bike_id": "f5245d0589f38e368b7271ffb0d1bbd9", "fusion_lat": 0.0, "lon": -77.23177766666667, "type": "electric_bike", "fusion_lon": 0.0, "lat": 38.92890033333333}, {"rental_uris": {"android": "https://dc.lft.to/lastmile_qr_scan", "ios": "https://dc.lft.to/lastmile_qr_scan"}, "is_reserved": 0, "is_disabled": 0, "name": "d937c5d6bc6c221d2d6f75bee2248ead", "bike_id": "d937c5d6bc6c221d2d6f75bee2248ead", "fusion_lat": 0.0, "lon": -77.04184866666667, "type": "electric_scooter", "fusion_lon": 0.0, "lat": 38.91651316666667}, {"rental_uris": {"android": "https://dc.lft.to/lastmile_qr_scan", "ios": "https://dc.lft.to/lastmile_qr_scan"}, "is_reserved": 0, "is_disabled": 0, "name": "b54dc91b9d1e28103f13a047bed730c6", "bike_id": "b54dc91b9d1e28103f13a047bed730c6", "fusion_lat": 0.0, "lon": -77.079148, "type": "electric_bike", "fusion_lon": 0.0, "lat": 38.83823533333333}, {"rental_uris": {"android": "https://dc.lft.to/lastmile_qr_scan", "ios": "https://dc.lft.to/lastmile_qr_scan"}, "is_reserved": 0, "is_disabled": 0, "name": "79f2d53a05d6f6cb3e1eb10530330625", "bike_id": "79f2d53a05d6f6cb3e1eb10530330625", "fusion_lat": 0.0, "lon": -77.04335433333334, "type": "electric_scooter", "fusion_lon": 0.0, "lat": 38.901328}, {"rental_uris": {"android": "https://dc.lft.to/lastmile_qr_scan", "ios": "https://dc.lft.to/lastmile_qr_scan"}, "is_reserved": 0, "is_disabled": 0, "name": "37f1dce4a1edd9f825e4bdc4f9dffe6a", "bike_id": "37f1dce4a1edd9f825e4bdc4f9dffe6a", "fusion_lat": 0.0, "lon": -77.02088333333333, "type": "electric_scooter", "fusion_lon": 0.0, "lat": 38.92158416666667}, {"rental_uris": {"android": "https://dc.lft.to/lastmile_qr_scan", "ios": "https://dc.lft.to/lastmile_qr_scan"}, "is_reserved": 0, "is_disabled": 0, "name": "101339f266f4355b588f39e0332b9524", "bike_id": "101339f266f4355b588f39e0332b9524", "fusion_lat": 0.0, "lon": -77.01957016666667, "type": "electric_scooter", "fusion_lon": 0.0, "lat": 38.923284333333335}, {"rental_uris": {"android": "https://dc.lft.to/lastmile_qr_scan", "ios": "https://dc.lft.to/lastmile_qr_scan"}, "is_reserved": 0, "is_disabled": 0, "name": "80f161d986d92070f64c39e1c816b936", "bike_id": "80f161d986d92070f64c39e1c816b936", "fusion_lat": 0.0, "lon": -77.02186966666666, "type": "electric_scooter", "fusion_lon": 0.0, "lat": 38.8921765}, {"rental_uris": {"android": "https://dc.lft.to/lastmile_qr_scan", "ios": "https://dc.lft.to/lastmile_qr_scan"}, "is_reserved": 0, "is_disabled": 0, "name": "1cd9428338111428f8dcfdae0fff716e", "bike_id": "1cd9428338111428f8dcfdae0fff716e", "fusion_lat": 0.0, "lon": -77.03353783333333, "type": "electric_scooter", "fusion_lon": 0.0, "lat": 38.935784}, {"rental_uris": {"android": "https://dc.lft.to/lastmile_qr_scan", "ios": "https://dc.lft.to/lastmile_qr_scan"}, "is_reserved": 0, "is_disabled": 0, "name": "820c943fce6ce3773525db0012548c5d", "bike_id": "820c943fce6ce3773525db0012548c5d", "fusion_lat": 0.0, "lon": -77.08058566666666, "type": "electric_scooter", "fusion_lon": 0.0, "lat": 38.948747}, {"rental_uris": {"android": "https://dc.lft.to/lastmile_qr_scan", "ios": "https://dc.lft.to/lastmile_qr_scan"}, "is_reserved": 0, "is_disabled": 0, "name": "76245a46fbb05519595415fceb07cf5b", "bike_id": "76245a46fbb05519595415fceb07cf5b", "fusion_lat": 0.0, "lon": -77.01452116666667, "type": "electric_scooter", "fusion_lon": 0.0, "lat": 38.9581485}, {"rental_uris": {"android": "https://dc.lft.to/lastmile_qr_scan", "ios": "https://dc.lft.to/lastmile_qr_scan"}, "is_reserved": 0, "is_disabled": 0, "name": "ceecff9cc706b167a1de1d16721bab57", "bike_id": "ceecff9cc706b167a1de1d16721bab57", "fusion_lat": 0.0, "lon": -77.041908, "type": "electric_scooter", "fusion_lon": 0.0, "lat": 38.920554833333334}, {"rental_uris": {"android": "https://dc.lft.to/lastmile_qr_scan", "ios": "https://dc.lft.to/lastmile_qr_scan"}, "is_reserved": 0, "is_disabled": 0, "name": "1f77116989816dcad355e92d68334f17", "bike_id": "1f77116989816dcad355e92d68334f17", "fusion_lat": 0.0, "lon": -77.03644516666667, "type": "electric_scooter", "fusion_lon": 0.0, "lat": 38.92336}, {"rental_uris": {"android": "https://dc.lft.to/lastmile_qr_scan", "ios": "https://dc.lft.to/lastmile_qr_scan"}, "is_reserved": 0, "is_disabled": 0, "name": "e21d5f39450911c1c6f7e04efe2106c4", "bike_id": "e21d5f39450911c1c6f7e04efe2106c4", "fusion_lat": 0.0, "lon": -77.007537, "type": "electric_bike", "fusion_lon": 0.0, "lat": 38.99783216666667}, {"rental_uris": {"android": "https://dc.lft.to/lastmile_qr_scan", "ios": "https://dc.lft.to/lastmile_qr_scan"}, "is_reserved": 0, "is_disabled": 0, "name": "f63a4283dc42218d3c07665717cfbf87", "bike_id": "f63a4283dc42218d3c07665717cfbf87", "fusion_lat": 0.0, "lon": -76.95245983333334, "type": "electric_bike", "fusion_lon": 0.0, "lat": 38.884606}, {"rental_uris": {"android": "https://dc.lft.to/lastmile_qr_scan", "ios": "https://dc.lft.to/lastmile_qr_scan"}, "is_reserved": 0, "is_disabled": 0, "name": "ebf223ac7f194b9e07d88c53423d3f2e", "bike_id": "ebf223ac7f194b9e07d88c53423d3f2e", "fusion_lat": 0.0, "lon": -77.00917433333333, "type": "electric_scooter", "fusion_lon": 0.0, "lat": 38.90034766666667}, {"rental_uris": {"android": "https://dc.lft.to/lastmile_qr_scan", "ios": "https://dc.lft.to/lastmile_qr_scan"}, "is_reserved": 0, "is_disabled": 0, "name": "dcb5c9811fb07399d98f43648e72ab20", "bike_id": "dcb5c9811fb07399d98f43648e72ab20", "fusion_lat": 0.0, "lon": -77.03461916666667, "type": "electric_bike", "fusion_lon": 0.0, "lat": 38.9335995}, {"rental_uris": {"android": "https://dc.lft.to/lastmile_qr_scan", "ios": "https://dc.lft.to/lastmile_qr_scan"}, "is_reserved": 0, "is_disabled": 0, "name": "9e124fe9f9ef17257619f4ad0236684e", "bike_id": "9e124fe9f9ef17257619f4ad0236684e", "fusion_lat": 0.0, "lon": -76.94553933333333, "type": "electric_bike", "fusion_lon": 0.0, "lat": 38.98308316666667}, {"rental_uris": {"android": "https://dc.lft.to/lastmile_qr_scan", "ios": "https://dc.lft.to/lastmile_qr_scan"}, "is_reserved": 0, "is_disabled": 0, "name": "525d40c462c9ad24e93bc56ab52b31f0", "bike_id": "525d40c462c9ad24e93bc56ab52b31f0", "fusion_lat": 0.0, "lon": -77.02897666666667, "type": "electric_scooter", "fusion_lon": 0.0, "lat": 38.91405}, {"rental_uris": {"android": "https://dc.lft.to/lastmile_qr_scan", "ios": "https://dc.lft.to/lastmile_qr_scan"}, "is_reserved": 0, "is_disabled": 0, "name": "d21354cc8300966012f50e151e5abcfd", "bike_id": "d21354cc8300966012f50e151e5abcfd", "fusion_lat": 0.0, "lon": -77.00312516666666, "type": "electric_scooter", "fusion_lon": 0.0, "lat": 38.889867833333334}, {"rental_uris": {"android": "https://dc.lft.to/lastmile_qr_scan", "ios": "https://dc.lft.to/lastmile_qr_scan"}, "is_reserved": 0, "is_disabled": 0, "name": "b1767106b4ed183882d01ed0b91c33fa", "bike_id": "b1767106b4ed183882d01ed0b91c33fa", "fusion_lat": 0.0, "lon": -77.02667516666666, "type": "electric_scooter", "fusion_lon": 0.0, "lat": 38.89612916666667}, {"rental_uris": {"android": "https://dc.lft.to/lastmile_qr_scan", "ios": "https://dc.lft.to/lastmile_qr_scan"}, "is_reserved": 0, "is_disabled": 0, "name": "4f6694b13d4c15a6da1e8c102ed2c9ee", "bike_id": "4f6694b13d4c15a6da1e8c102ed2c9ee", "fusion_lat": 0.0, "lon": -77.0286165, "type": "electric_bike", "fusion_lon": 0.0, "lat": 38.921394}, {"rental_uris": {"android": "https://dc.lft.to/lastmile_qr_scan", "ios": "https://dc.lft.to/lastmile_qr_scan"}, "is_reserved": 0, "is_disabled": 0, "name": "22c24f377473a308f6854f1199cc718d", "bike_id": "22c24f377473a308f6854f1199cc718d", "fusion_lat": 0.0, "lon": -77.04027066666667, "type": "electric_scooter", "fusion_lon": 0.0, "lat": 38.89875716666667}, {"rental_uris": {"android": "https://dc.lft.to/lastmile_qr_scan", "ios": "https://dc.lft.to/lastmile_qr_scan"}, "is_reserved": 0, "is_disabled": 0, "name": "d86d17be9ef1cb374891f788d6970b20", "bike_id": "d86d17be9ef1cb374891f788d6970b20", "fusion_lat": 0.0, "lon": -77.02795866666666, "type": "electric_scooter", "fusion_lon": 0.0, "lat": 38.953971333333335}, {"rental_uris": {"android": "https://dc.lft.to/lastmile_qr_scan", "ios": "https://dc.lft.to/lastmile_qr_scan"}, "is_reserved": 0, "is_disabled": 0, "name": "2dd433b1cfbbc510eb94e0574a1881a1", "bike_id": "2dd433b1cfbbc510eb94e0574a1881a1", "fusion_lat": 0.0, "lon": -77.0167445, "type": "electric_scooter", "fusion_lon": 0.0, "lat": 38.876903}, {"rental_uris": {"android": "https://dc.lft.to/lastmile_qr_scan", "ios": "https://dc.lft.to/lastmile_qr_scan"}, "is_reserved": 0, "is_disabled": 0, "name": "686a18872c49b46b31ae08a5a02199a4", "bike_id": "686a18872c49b46b31ae08a5a02199a4", "fusion_lat": 0.0, "lon": -77.0201545, "type": "electric_scooter", "fusion_lon": 0.0, "lat": 38.92208866666667}, {"rental_uris": {"android": "https://dc.lft.to/lastmile_qr_scan", "ios": "https://dc.lft.to/lastmile_qr_scan"}, "is_reserved": 0, "is_disabled": 0, "name": "d571c374c7f15e184ad7d6721b2c5609", "bike_id": "d571c374c7f15e184ad7d6721b2c5609", "fusion_lat": 0.0, "lon": -77.02773133333334, "type": "electric_scooter", "fusion_lon": 0.0, "lat": 38.953023}, {"rental_uris": {"android": "https://dc.lft.to/lastmile_qr_scan", "ios": "https://dc.lft.to/lastmile_qr_scan"}, "is_reserved": 0, "is_disabled": 0, "name": "00aad698c38b6a198f570c4568e11877", "bike_id": "00aad698c38b6a198f570c4568e11877", "fusion_lat": 0.0, "lon": -77.04244, "type": "electric_scooter", "fusion_lon": 0.0, "lat": 38.922064666666664}, {"rental_uris": {"android": "https://dc.lft.to/lastmile_qr_scan", "ios": "https://dc.lft.to/lastmile_qr_scan"}, "is_reserved": 0, "is_disabled": 0, "name": "5c24d71e7be11090068a35681b121a33", "bike_id": "5c24d71e7be11090068a35681b121a33", "fusion_lat": 0.0, "lon": -77.04621216666666, "type": "electric_scooter", "fusion_lon": 0.0, "lat": 38.9096105}, {"rental_uris": {"android": "https://dc.lft.to/lastmile_qr_scan", "ios": "https://dc.lft.to/lastmile_qr_scan"}, "is_reserved": 0, "is_disabled": 0, "name": "81b26a8b094866ce349acd8a00bf1dbb", "bike_id": "81b26a8b094866ce349acd8a00bf1dbb", "fusion_lat": 0.0, "lon": -77.021335, "type": "electric_scooter", "fusion_lon": 0.0, "lat": 38.92411416666667}, {"rental_uris": {"android": "https://dc.lft.to/lastmile_qr_scan", "ios": "https://dc.lft.to/lastmile_qr_scan"}, "is_reserved": 0, "is_disabled": 0, "name": "a0892b3c7f03c5dcbff10c354d4f156a", "bike_id": "a0892b3c7f03c5dcbff10c354d4f156a", "fusion_lat": 0.0, "lon": -77.0247845, "type": "electric_scooter", "fusion_lon": 0.0, "lat": 38.91815866666666}, {"rental_uris": {"android": "https://dc.lft.to/lastmile_qr_scan", "ios": "https://dc.lft.to/lastmile_qr_scan"}, "is_reserved": 0, "is_disabled": 0, "name": "e2c59d8edf171f27f0c7a5c5c3625ac5", "bike_id": "e2c59d8edf171f27f0c7a5c5c3625ac5", "fusion_lat": 0.0, "lon": -77.039866, "type": "electric_scooter", "fusion_lon": 0.0, "lat": 38.9011305}, {"rental_uris": {"android": "https://dc.lft.to/lastmile_qr_scan", "ios": "https://dc.lft.to/lastmile_qr_scan"}, "is_reserved": 0, "is_disabled": 0, "name": "4a6aca8e8287f78d7003808c4ceac104", "bike_id": "4a6aca8e8287f78d7003808c4ceac104", "fusion_lat": 0.0, "lon": -77.0499305, "type": "electric_scooter", "fusion_lon": 0.0, "lat": 38.8972685}, {"rental_uris": {"android": "https://dc.lft.to/lastmile_qr_scan", "ios": "https://dc.lft.to/lastmile_qr_scan"}, "is_reserved": 0, "is_disabled": 0, "name": "86e69990882467d817077a2369ae1874", "bike_id": "86e69990882467d817077a2369ae1874", "fusion_lat": 0.0, "lon": -77.04346283333334, "type": "electric_scooter", "fusion_lon": 0.0, "lat": 38.91098733333333}, {"rental_uris": {"android": "https://dc.lft.to/lastmile_qr_scan", "ios": "https://dc.lft.to/lastmile_qr_scan"}, "is_reserved": 0, "is_disabled": 0, "name": "609495401bda0dd102c5b6c285a4e7ec", "bike_id": "609495401bda0dd102c5b6c285a4e7ec", "fusion_lat": 0.0, "lon": -77.02371433333333, "type": "electric_scooter", "fusion_lon": 0.0, "lat": 38.892184666666665}, {"rental_uris": {"android": "https://dc.lft.to/lastmile_qr_scan", "ios": "https://dc.lft.to/lastmile_qr_scan"}, "is_reserved": 0, "is_disabled": 0, "name": "a147b4a6b5395b419af1a0b2cc793ed3", "bike_id": "a147b4a6b5395b419af1a0b2cc793ed3", "fusion_lat": 0.0, "lon": -77.0175315, "type": "electric_scooter", "fusion_lon": 0.0, "lat": 38.894657}, {"rental_uris": {"android": "https://dc.lft.to/lastmile_qr_scan", "ios": "https://dc.lft.to/lastmile_qr_scan"}, "is_reserved": 0, "is_disabled": 0, "name": "7f4942603828026b6c7c1ce4ca1f1a94", "bike_id": "7f4942603828026b6c7c1ce4ca1f1a94", "fusion_lat": 0.0, "lon": -77.03273733333333, "type": "electric_scooter", "fusion_lon": 0.0, "lat": 38.898293333333335}, {"rental_uris": {"android": "https://dc.lft.to/lastmile_qr_scan", "ios": "https://dc.lft.to/lastmile_qr_scan"}, "is_reserved": 0, "is_disabled": 0, "name": "308c4eabd002b03519367243f1e642d3", "bike_id": "308c4eabd002b03519367243f1e642d3", "fusion_lat": 0.0, "lon": -77.02372916666667, "type": "electric_scooter", "fusion_lon": 0.0, "lat": 38.892158}, {"rental_uris": {"android": "https://dc.lft.to/lastmile_qr_scan", "ios": "https://dc.lft.to/lastmile_qr_scan"}, "is_reserved": 0, "is_disabled": 0, "name": "3457cf089010772623993ccf39115341", "bike_id": "3457cf089010772623993ccf39115341", "fusion_lat": 0.0, "lon": -77.017264, "type": "electric_scooter", "fusion_lon": 0.0, "lat": 38.877035166666666}, {"rental_uris": {"android": "https://dc.lft.to/lastmile_qr_scan", "ios": "https://dc.lft.to/lastmile_qr_scan"}, "is_reserved": 0, "is_disabled": 0, "name": "7d21a6be1643117c0f084e9e59aa7e3b", "bike_id": "7d21a6be1643117c0f084e9e59aa7e3b", "fusion_lat": 0.0, "lon": -77.03990633333333, "type": "electric_scooter", "fusion_lon": 0.0, "lat": 38.934245833333335}, {"rental_uris": {"android": "https://dc.lft.to/lastmile_qr_scan", "ios": "https://dc.lft.to/lastmile_qr_scan"}, "is_reserved": 0, "is_disabled": 0, "name": "9df9d3262e31af3fbbcd53e66bae6930", "bike_id": "9df9d3262e31af3fbbcd53e66bae6930", "fusion_lat": 0.0, "lon": -77.01955666666667, "type": "electric_scooter", "fusion_lon": 0.0, "lat": 38.92324966666666}, {"rental_uris": {"android": "https://dc.lft.to/lastmile_qr_scan", "ios": "https://dc.lft.to/lastmile_qr_scan"},