{"data": {"bikes": [{"type": "electric_scooter", "name": "61133664e6dea1501a1590db9a635c03", "lat": 38.88729983333333, "fusion_lat": 0.0, "bike_id": "61133664e6dea1501a1590db9a635c03", "is_reserved": 0, "lon": -77.02831066666667, "is_disabled": 0, "fusion_lon": 0.0, "rental_uris": {"android": "https://dc.lft.to/lastmile_qr_scan", "ios": "https://dc.lft.to/lastmile_qr_scan"}}, {"type": "electric_scooter", "name": "354c72e10fe1908c41eb5cfa1a4f744c", "lat": 38.919729333333336, "fusion_lat": 0.0, "bike_id": "354c72e10fe1908c41eb5cfa1a4f744c", "is_reserved": 0, "lon": -77.0239335, "is_disabled": 0, "fusion_lon": 0.0, "rental_uris": {"android": "https://dc.lft.to/lastmile_qr_scan", "ios": "https://dc.lft.to/lastmile_qr_scan"}}, {"type": "electric_scooter", "name": "affa76a68ec354ee3a375223babbf53a", "lat": 38.89519683333333, "fusion_lat": 0.0, "bike_id": "affa76a68ec354ee3a375223babbf53a", "is_reserved": 0, "lon": -77.0228645, "is_disabled": 0, "fusion_lon": 0.0, "rental_uris": {"android": "https://dc.lft.to/lastmile_qr_scan", "ios": "https://dc.lft.to/lastmile_qr_scan"}}, {"type": "electric_scooter", "name": "3b6256e6dbdf332ee62e38c14a0aa028", "lat": 38.917349333333334, "fusion_lat": 0.0, "bike_id": "3b6256e6dbdf332ee62e38c14a0aa028", "is_reserved": 0, "lon": -77.028006, "is_disabled": 0, "fusion_lon": 0.0, "rental_uris": {"android": "https://dc.lft.to/lastmile_qr_scan", "ios": "https://dc.lft.to/lastmile_qr_scan"}}, {"type": "electric_scooter", "name": "d4a3193a8dd64b5cc3b045abe8a81853", "lat": 38.9111225, "fusion_lat": 0.0, "bike_id": "d4a3193a8dd64b5cc3b045abe8a81853", "is_reserved": 0, "lon": -77.02232716666667, "is_disabled": 0, "fusion_lon": 0.0, "rental_uris": {"android": "https://dc.lft.to/lastmile_qr_scan", "ios": "https://dc.lft.to/lastmile_qr_scan"}}, {"type": "electric_scooter", "name": "5e5eb995a1294531a8887f2fc992e308", "lat": 38.9093175, "fusion_lat": 0.0, "bike_id": "5e5eb995a1294531a8887f2fc992e308", "is_reserved": 0, "lon": -77.02691033333333, "is_disabled": 0, "fusion_lon": 0.0, "rental_uris": {"android": "https://dc.lft.to/lastmile_qr_scan", "ios": "https://dc.lft.to/lastmile_qr_scan"}}, {"type": "electric_scooter", "name": "12d4485e41aad90d392ef96b37f9108a", "lat": 38.91136233333334, "fusion_lat": 0.0, "bike_id": "12d4485e41aad90d392ef96b37f9108a", "is_reserved": 0, "lon": -77.02805416666666, "is_disabled": 0, "fusion_lon": 0.0, "rental_uris": {"android": "https://dc.lft.to/lastmile_qr_scan", "ios": "https://dc.lft.to/lastmile_qr_scan"}}, {"type": "electric_scooter", "name": "11d753afc84f569daaf3a2bd2eafd7f0", "lat": 38.866560666666665, "fusion_lat": 0.0, "bike_id": "11d753afc84f569daaf3a2bd2eafd7f0", "is_reserved": 0, "lon": -76.988858, "is_disabled": 0, "fusion_lon": 0.0, "rental_uris": {"android": "https://dc.lft.to/lastmile_qr_scan", "ios": "https://dc.lft.to/lastmile_qr_scan"}}, {"type": "electric_scooter", "name": "d1c22095211b0570f96520675bf7fbf1", "lat": 38.900267166666666, "fusion_lat": 0.0, "bike_id": "d1c22095211b0570f96520675bf7fbf1", "is_reserved": 0, "lon": -77.01181933333334, "is_disabled": 0, "fusion_lon": 0.0, "rental_uris": {"android": "https://dc.lft.to/lastmile_qr_scan", "ios": "https://dc.lft.to/lastmile_qr_scan"}}, {"type": "electric_scooter", "name": "e097916b5322ff9402ad48f1c7e627f3", "lat": 38.9163555, "fusion_lat": 0.0, "bike_id": "e097916b5322ff9402ad48f1c7e627f3", "is_reserved": 0, "lon": -77.0321975, "is_disabled": 0, "fusion_lon": 0.0, "rental_uris": {"android": "https://dc.lft.to/lastmile_qr_scan", "ios": "https://dc.lft.to/lastmile_qr_scan"}}, {"type": "electric_scooter", "name": "f3527ad2d570aed023308596f0d00233", "lat": 38.925528166666666, "fusion_lat": 0.0, "bike_id": "f3527ad2d570aed023308596f0d00233", "is_reserved": 0, "lon": -77.02704833333334, "is_disabled": 0, "fusion_lon": 0.0, "rental_uris": {"android": "https://dc.lft.to/lastmile_qr_scan", "ios": "https://dc.lft.to/lastmile_qr_scan"}}, {"type": "electric_scooter", "name": "d4034295b2b77e174f174f78fc207373", "lat": 38.95241683333333, "fusion_lat": 0.0, "bike_id": "d4034295b2b77e174f174f78fc207373", "is_reserved": 0, "lon": -77.00701383333333, "is_disabled": 0, "fusion_lon": 0.0, "rental_uris": {"android": "https://dc.lft.to/lastmile_qr_scan", "ios": "https://dc.lft.to/lastmile_qr_scan"}}, {"type": "electric_scooter", "name": "25183949020007b2364673547f20a8d7", "lat": 38.879834833333334, "fusion_lat": 0.0, "bike_id": "25183949020007b2364673547f20a8d7", "is_reserved": 0, "lon": -77.024055, "is_disabled": 0, "fusion_lon": 0.0, "rental_uris": {"android": "https://dc.lft.to/lastmile_qr_scan", "ios": "https://dc.lft.to/lastmile_qr_scan"}}, {"type": "electric_scooter", "name": "78ac15584ded4bc61e3d146a95394ea8", "lat": 38.841824, "fusion_lat": 0.0, "bike_id": "78ac15584ded4bc61e3d146a95394ea8", "is_reserved": 0, "lon": -76.99779866666667, "is_disabled": 0, "fusion_lon": 0.0, "rental_uris": {"android": "https://dc.lft.to/lastmile_qr_scan", "ios": "https://dc.lft.to/lastmile_qr_scan"}}, {"type": "electric_scooter", "name": "155b05431b560296be35e3cba323d136", "lat": 38.902363, "fusion_lat": 0.0, "bike_id": "155b05431b560296be35e3cba323d136", "is_reserved": 0, "lon": -77.0019905, "is_disabled": 0, "fusion_lon": 0.0, "rental_uris": {"android": "https://dc.lft.to/lastmile_qr_scan", "ios": "https://dc.lft.to/lastmile_qr_scan"}}, {"type": "electric_scooter", "name": "dd89c51e958de3c1023dad8056daa13d", "lat": 38.90229033333333, "fusion_lat": 0.0, "bike_id": "dd89c51e958de3c1023dad8056daa13d", "is_reserved": 0, "lon": -77.0454955, "is_disabled": 0, "fusion_lon": 0.0, "rental_uris": {"android": "https://dc.lft.to/lastmile_qr_scan", "ios": "https://dc.lft.to/lastmile_qr_scan"}}, {"type": "electric_bike", "name": "d07d717e12c19f59030d604ceaeabd3d", "lat": 38.85771833333333, "fusion_lat": 0.0, "bike_id": "d07d717e12c19f59030d604ceaeabd3d", "is_reserved": 0, "lon": -76.98752483333334, "is_disabled": 0, "fusion_lon": 0.0, "rental_uris": {"android": "https://dc.lft.to/lastmile_qr_scan", "ios": "https://dc.lft.to/lastmile_qr_scan"}}, {"type": "electric_bike", "name": "46f6411424abfcb7290099d07cb86dbc", "lat": 38.798547666666664, "fusion_lat": 0.0, "bike_id": "46f6411424abfcb7290099d07cb86dbc", "is_reserved": 0, "lon": -77.06305533333334, "is_disabled": 0, "fusion_lon": 0.0, "rental_uris": {"android": "https://dc.lft.to/lastmile_qr_scan", "ios": "https://dc.lft.to/lastmile_qr_scan"}}, {"type": "electric_scooter", "name": "24777c22c8bedc06a760ebd9e836cf1f", "lat": 38.9056705, "fusion_lat": 0.0, "bike_id": "24777c22c8bedc06a760ebd9e836cf1f", "is_reserved": 0, "lon": -77.03476666666667, "is_disabled": 0, "fusion_lon": 0.0, "rental_uris": {"android": "https://dc.lft.to/lastmile_qr_scan", "ios": "https://dc.lft.to/lastmile_qr_scan"}}, {"type": "electric_scooter", "name": "ddc564b027044bef02eed71e04e38f51", "lat": 38.9168025, "fusion_lat": 0.0, "bike_id": "ddc564b027044bef02eed71e04e38f51", "is_reserved": 0, "lon": -77.029476, "is_disabled": 0, "fusion_lon": 0.0, "rental_uris": {"android": "https://dc.lft.to/lastmile_qr_scan", "ios": "https://dc.lft.to/lastmile_qr_scan"}}, {"type": "electric_bike", "name": "b60c9765617cff25d6f64e3b807d56fa", "lat": 38.944321, "fusion_lat": 0.0, "bike_id": "b60c9765617cff25d6f64e3b807d56fa", "is_reserved": 0, "lon": -77.02603516666667, "is_disabled": 0, "fusion_lon": 0.0, "rental_uris": {"android": "https://dc.lft.to/lastmile_qr_scan", "ios": "https://dc.lft.to/lastmile_qr_scan"}}, {"type": "electric_scooter", "name": "dbe16a8a904687485c6314c11bf34862", "lat": 38.944092833333336, "fusion_lat": 0.0, "bike_id": "dbe16a8a904687485c6314c11bf34862", "is_reserved": 0, "lon": -77.02603016666667, "is_disabled": 0, "fusion_lon": 0.0, "rental_uris": {"android": "https://dc.lft.to/lastmile_qr_scan", "ios": "https://dc.lft.to/lastmile_qr_scan"}}, {"type": "electric_bike", "name": "febb05ec725c3060a4bc4dc5115bf853", "lat": 38.8961605, "fusion_lat": 0.0, "bike_id": "febb05ec725c3060a4bc4dc5115bf853", "is_reserved": 0, "lon": -76.9073995, "is_disabled": 0, "fusion_lon": 0.0, "rental_uris": {"android": "https://dc.lft.to/lastmile_qr_scan", "ios": "https://dc.lft.to/lastmile_qr_scan"}}, {"type": "electric_scooter", "name": "bc9e9b1ba3cc299593eab865e593aeda", "lat": 38.9086895, "fusion_lat": 0.0, "bike_id": "bc9e9b1ba3cc299593eab865e593aeda", "is_reserved": 0, "lon": -77.02301866666667, "is_disabled": 0, "fusion_lon": 0.0, "rental_uris": {"android": "https://dc.lft.to/lastmile_qr_scan", "ios": "https://dc.lft.to/lastmile_qr_scan"}}, {"type": "electric_bike", "name": "ffeee41d220db587f1a42a419a21cf3e", "lat": 38.804539166666665, "fusion_lat": 0.0, "bike_id": "ffeee41d220db587f1a42a419a21cf3e", "is_reserved": 0, "lon": -77.053901, "is_disabled": 0, "fusion_lon": 0.0, "rental_uris": {"android": "https://dc.lft.to/lastmile_qr_scan", "ios": "https://dc.lft.to/lastmile_qr_scan"}}, {"type": "electric_scooter", "name": "d9720e4ceea32b3e496739615a247b4c", "lat": 38.903061666666666, "fusion_lat": 0.0, "bike_id": "d9720e4ceea32b3e496739615a247b4c", "is_reserved": 0, "lon": -77.034421, "is_disabled": 0, "fusion_lon": 0.0, "rental_uris": {"android": "https://dc.lft.to/lastmile_qr_scan", "ios": "https://dc.lft.to/lastmile_qr_scan"}}, {"type": "electric_scooter", "name": "bb2150e35ae87d87c8906a5014da39f4", "lat": 38.908282, "fusion_lat": 0.0, "bike_id": "bb2150e35ae87d87c8906a5014da39f4", "is_reserved": 0, "lon": -77.03944566666667, "is_disabled": 0, "fusion_lon": 0.0, "rental_uris": {"android": "https://dc.lft.to/lastmile_qr_scan", "ios": "https://dc.lft.to/lastmile_qr_scan"}}, {"type": "electric_scooter", "name": "ece295908fda5ff1fce4668bd586f9ee", "lat": 38.91424516666667, "fusion_lat": 0.0, "bike_id": "ece295908fda5ff1fce4668bd586f9ee", "is_reserved": 0, "lon": -77.031831, "is_disabled": 0, "fusion_lon": 0.0, "rental_uris": {"android": "https://dc.lft.to/lastmile_qr_scan", "ios": "https://dc.lft.to/lastmile_qr_scan"}}, {"type": "electric_scooter", "name": "af49c01dec5e9405b4ce8a44949a5f3c", "lat": 38.8954135, "fusion_lat": 0.0, "bike_id": "af49c01dec5e9405b4ce8a44949a5f3c", "is_reserved": 0, "lon": -77.0315555, "is_disabled": 0, "fusion_lon": 0.0, "rental_uris": {"android": "https://dc.lft.to/lastmile_qr_scan", "ios": "https://dc.lft.to/lastmile_qr_scan"}}, {"type": "electric_scooter", "name": "f6f364bdb3e103a7ac3acb7406bc306b", "lat": 38.914155, "fusion_lat": 0.0, "bike_id": "f6f364bdb3e103a7ac3acb7406bc306b", "is_reserved": 0, "lon": -77.04200683333333, "is_disabled": 0, "fusion_lon": 0.0, "rental_uris": {"android": "https://dc.lft.to/lastmile_qr_scan", "ios": "https://dc.lft.to/lastmile_qr_scan"}}, {"type": "electric_scooter", "name": "e66946789a26989f58d307331afd4e4e", "lat": 38.926635833333336, "fusion_lat": 0.0, "bike_id": "e66946789a26989f58d307331afd4e4e", "is_reserved": 0, "lon": -77.01473683333333, "is_disabled": 0, "fusion_lon": 0.0, "rental_uris": {"android": "https://dc.lft.to/lastmile_qr_scan", "ios": "https://dc.lft.to/lastmile_qr_scan"}}, {"type": "electric_scooter", "name": "4dbd6cc7653b7741ed0f498f399654ff", "lat": 38.91048766666667, "fusion_lat": 0.0, "bike_id": "4dbd6cc7653b7741ed0f498f399654ff", "is_reserved": 0, "lon": -77.03141716666667, "is_disabled": 0, "fusion_lon": 0.0, "rental_uris": {"android": "https://dc.lft.to/lastmile_qr_scan", "ios": "https://dc.lft.to/lastmile_qr_scan"}}, {"type": "electric_scooter", "name": "78df7d21e600633b831e9f7c921b2755", "lat": 38.907812666666665, "fusion_lat": 0.0, "bike_id": "78df7d21e600633b831e9f7c921b2755", "is_reserved": 0, "lon": -77.00000333333334, "is_disabled": 0, "fusion_lon": 0.0, "rental_uris": {"android": "https://dc.lft.to/lastmile_qr_scan", "ios": "https://dc.lft.to/lastmile_qr_scan"}}, {"type": "electric_scooter", "name": "2e26df1bf85db251e58d2da59c81185f", "lat": 38.89847833333334, "fusion_lat": 0.0, "bike_id": "2e26df1bf85db251e58d2da59c81185f", "is_reserved": 0, "lon": -77.0416, "is_disabled": 0, "fusion_lon": 0.0, "rental_uris": {"android": "https://dc.lft.to/lastmile_qr_scan", "ios": "https://dc.lft.to/lastmile_qr_scan"}}, {"type": "electric_scooter", "name": "30d7d3ce46e266c3eee9436f11a851ca", "lat": 38.93397783333333, "fusion_lat": 0.0, "bike_id": "30d7d3ce46e266c3eee9436f11a851ca", "is_reserved": 0, "lon": -77.05736633333333, "is_disabled": 0, "fusion_lon": 0.0, "rental_uris": {"android": "https://dc.lft.to/lastmile_qr_scan", "ios": "https://dc.lft.to/lastmile_qr_scan"}}, {"type": "electric_scooter", "name": "f93eebdd30137cbecdd2bd5d626c667e", "lat": 38.888175333333336, "fusion_lat": 0.0, "bike_id": "f93eebdd30137cbecdd2bd5d626c667e", "is_reserved": 0, "lon": -76.98071083333333, "is_disabled": 0, "fusion_lon": 0.0, "rental_uris": {"android": "https://dc.lft.to/lastmile_qr_scan", "ios": "https://dc.lft.to/lastmile_qr_scan"}}, {"type": "electric_scooter", "name": "afda1596a03c8fa573702c023ac12546", "lat": 38.8981665, "fusion_lat": 0.0, "bike_id": "afda1596a03c8fa573702c023ac12546", "is_reserved": 0, "lon": -77.043555, "is_disabled": 0, "fusion_lon": 0.0, "rental_uris": {"android": "https://dc.lft.to/lastmile_qr_scan", "ios": "https://dc.lft.to/lastmile_qr_scan"}}, {"type": "electric_scooter", "name": "1b99edf3be7485180982c06d5d8347a1", "lat": 38.897233, "fusion_lat": 0.0, "bike_id": "1b99edf3be7485180982c06d5d8347a1", "is_reserved": 0, "lon": -77.05521716666667, "is_disabled": 0, "fusion_lon": 0.0, "rental_uris": {"android": "https://dc.lft.to/lastmile_qr_scan", "ios": "https://dc.lft.to/lastmile_qr_scan"}}, {"type": "electric_scooter", "name": "0c86a226eca1fcc26ed24cd01200f053", "lat": 38.9028635, "fusion_lat": 0.0, "bike_id": "0c86a226eca1fcc26ed24cd01200f053", "is_reserved": 0, "lon": -77.03838166666667, "is_disabled": 0, "fusion_lon": 0.0, "rental_uris": {"android": "https://dc.lft.to/lastmile_qr_scan", "ios": "https://dc.lft.to/lastmile_qr_scan"}}, {"type": "electric_scooter", "name": "3e95376a6c022090bbb1947e77154465", "lat": 38.89866983333334, "fusion_lat": 0.0, "bike_id": "3e95376a6c022090bbb1947e77154465", "is_reserved": 0, "lon": -76.9463035, "is_disabled": 0, "fusion_lon": 0.0, "rental_uris": {"android": "https://dc.lft.to/lastmile_qr_scan", "ios": "https://dc.lft.to/lastmile_qr_scan"}}, {"type": "electric_bike", "name": "37fc4d6ffb067d5a38e16b66203a71c3", "lat": 38.96616916666667, "fusion_lat": 0.0, "bike_id": "37fc4d6ffb067d5a38e16b66203a71c3", "is_reserved": 0, "lon": -77.0342955, "is_disabled": 0, "fusion_lon": 0.0, "rental_uris": {"android": "https://dc.lft.to/lastmile_qr_scan", "ios": "https://dc.lft.to/lastmile_qr_scan"}}, {"type": "electric_scooter", "name": "01c0a7de12e7db6481f54144fb3ab224", "lat": 38.905924166666665, "fusion_lat": 0.0, "bike_id": "01c0a7de12e7db6481f54144fb3ab224", "is_reserved": 0, "lon": -77.04131316666667, "is_disabled": 0, "fusion_lon": 0.0, "rental_uris": {"android": "https://dc.lft.to/lastmile_qr_scan", "ios": "https://dc.lft.to/lastmile_qr_scan"}}, {"type": "electric_scooter", "name": "19802572eca21ebb03449f40a9c04b17", "lat": 38.9119545, "fusion_lat": 0.0, "bike_id": "19802572eca21ebb03449f40a9c04b17", "is_reserved": 0, "lon": -77.03646183333333, "is_disabled": 0, "fusion_lon": 0.0, "rental_uris": {"android": "https://dc.lft.to/lastmile_qr_scan", "ios": "https://dc.lft.to/lastmile_qr_scan"}}, {"type": "electric_scooter", "name": "f4d5597a2fb4eea3d15f135fbcb28344", "lat": 38.910458166666665, "fusion_lat": 0.0, "bike_id": "f4d5597a2fb4eea3d15f135fbcb28344", "is_reserved": 0, "lon": -77.04379583333333, "is_disabled": 0, "fusion_lon": 0.0, "rental_uris": {"android": "https://dc.lft.to/lastmile_qr_scan", "ios": "https://dc.lft.to/lastmile_qr_scan"}}, {"type": "electric_scooter", "name": "e0abbb346fe8ddde47c42e4bee2cb6eb", "lat": 38.906381333333336, "fusion_lat": 0.0, "bike_id": "e0abbb346fe8ddde47c42e4bee2cb6eb", "is_reserved": 0, "lon": -77.034737, "is_disabled": 0, "fusion_lon": 0.0, "rental_uris": {"android": "https://dc.lft.to/lastmile_qr_scan", "ios": "https://dc.lft.to/lastmile_qr_scan"}}, {"type": "electric_scooter", "name": "347a207f02e3168c2cf7636fd755092a", "lat": 38.9125545, "fusion_lat": 0.0, "bike_id": "347a207f02e3168c2cf7636fd755092a", "is_reserved": 0, "lon": -77.022209, "is_disabled": 0, "fusion_lon": 0.0, "rental_uris": {"android": "https://dc.lft.to/lastmile_qr_scan", "ios": "https://dc.lft.to/lastmile_qr_scan"}}, {"type": "electric_scooter", "name": "b699d58a35f7a935ee3e248fcde7ca4a", "lat": 38.91154016666667, "fusion_lat": 0.0, "bike_id": "b699d58a35f7a935ee3e248fcde7ca4a", "is_reserved": 0, "lon": -77.02376233333334, "is_disabled": 0, "fusion_lon": 0.0, "rental_uris": {"android": "https://dc.lft.to/lastmile_qr_scan", "ios": "https://dc.lft.to/lastmile_qr_scan"}}, {"type": "electric_scooter", "name": "e232098df00a97732d095b7915e7ee14", "lat": 38.898933666666665, "fusion_lat": 0.0, "bike_id": "e232098df00a97732d095b7915e7ee14", "is_reserved": 0, "lon": -77.0329465, "is_disabled": 0, "fusion_lon": 0.0, "rental_uris": {"android": "https://dc.lft.to/lastmile_qr_scan", "ios": "https://dc.lft.to/lastmile_qr_scan"}}, {"type": "electric_bike", "name": "0793f0acec22d74afade5968e2f7bcc5", "lat": 38.973808, "fusion_lat": 0.0, "bike_id": "0793f0acec22d74afade5968e2f7bcc5", "is_reserved": 0, "lon": -77.06472066666667, "is_disabled": 0, "fusion_lon": 0.0, "rental_uris": {"android": "https://dc.lft.to/lastmile_qr_scan", "ios": "https://dc.lft.to/lastmile_qr_scan"}}, {"type": "electric_scooter", "name": "91289c7206d133773b4f37cfe2890073", "lat": 38.92786316666667, "fusion_lat": 0.0, "bike_id": "91289c7206d133773b4f37cfe2890073", "is_reserved": 0, "lon": -77.031481, "is_disabled": 0, "fusion_lon": 0.0, "rental_uris": {"android": "https://dc.lft.to/lastmile_qr_scan", "ios": "https://dc.lft.to/lastmile_qr_scan"}}, {"type": "electric_scooter", "name": "b92bc469922e2a9956c28c22ca455627", "lat": 38.91140683333333, "fusion_lat": 0.0, "bike_id": "b92bc469922e2a9956c28c22ca455627", "is_reserved": 0, "lon": -77.024155, "is_disabled": 0, "fusion_lon": 0.0, "rental_uris": {"android": "https://dc.lft.to/lastmile_qr_scan", "ios": "https://dc.lft.to/lastmile_qr_scan"}}, {"type": "electric_scooter", "name": "6161498d535bd0684ebbf9e1ad579b94", "lat": 38.89732466666667, "fusion_lat": 0.0, "bike_id": "6161498d535bd0684ebbf9e1ad579b94", "is_reserved": 0, "lon": -77.031661, "is_disabled": 0, "fusion_lon": 0.0, "rental_uris": {"android": "https://dc.lft.to/lastmile_qr_scan", "ios": "https://dc.lft.to/lastmile_qr_scan"}}, {"type": "electric_scooter", "name": "7c34ffc55eda2880e4d37ef376e85a4e", "lat": 38.89840516666667, "fusion_lat": 0.0, "bike_id": "7c34ffc55eda2880e4d37ef376e85a4e", "is_reserved": 0, "lon": -77.02824133333333, "is_disabled": 0, "fusion_lon": 0.0, "rental_uris": {"android": "https://dc.lft.to/lastmile_qr_scan", "ios": "https://dc.lft.to/lastmile_qr_scan"}}, {"type": "electric_scooter", "name": "ecd67e1df7da21d4f49b0ad10051d217", "lat": 38.917321333333334, "fusion_lat": 0.0, "bike_id": "ecd67e1df7da21d4f49b0ad10051d217", "is_reserved": 0, "lon": -77.03642666666667, "is_disabled": 0, "fusion_lon": 0.0, "rental_uris": {"android": "https://dc.lft.to/lastmile_qr_scan", "ios": "https://dc.lft.to/lastmile_qr_scan"}}, {"type": "electric_scooter", "name": "147af71bdad2fe2aa175bb40f2274ed7", "lat": 38.8979055, "fusion_lat": 0.0, "bike_id": "147af71bdad2fe2aa175bb40f2274ed7", "is_reserved": 0, "lon": -76.93119633333333, "is_disabled": 0, "fusion_lon": 0.0, "rental_uris": {"android": "https://dc.lft.to/lastmile_qr_scan", "ios": "https://dc.lft.to/lastmile_qr_scan"}}, {"type": "electric_scooter", "name": "b8b09fe05593f8b5b1797d323d4d8c5e", "lat": 38.924623833333335, "fusion_lat": 0.0, "bike_id": "b8b09fe05593f8b5b1797d323d4d8c5e", "is_reserved": 0, "lon": -77.052327, "is_disabled": 0, "fusion_lon": 0.0, "rental_uris": {"android": "https://dc.lft.to/lastmile_qr_scan", "ios": "https://dc.lft.to/lastmile_qr_scan"}}, {"type": "electric_scooter", "name": "682e42dd392b8560857ff3db62324947", "lat": 38.90242116666667, "fusion_lat": 0.0, "bike_id": "682e42dd392b8560857ff3db62324947", "is_reserved": 0, "lon": -77.03333016666667, "is_disabled": 0, "fusion_lon": 0.0, "rental_uris": {"android": "https://dc.lft.to/lastmile_qr_scan", "ios": "https://dc.lft.to/lastmile_qr_scan"}}, {"type": "electric_scooter", "name": "28383fca53cf7335e1fd9d74b3d0df6f", "lat": 38.892199833333336, "fusion_lat": 0.0, "bike_id": "28383fca53cf7335e1fd9d74b3d0df6f", "is_reserved": 0, "lon": -77.04372366666666, "is_disabled": 0, "fusion_lon": 0.0, "rental_uris": {"android": "https://dc.lft.to/lastmile_qr_scan", "ios": "https://dc.lft.to/lastmile_qr_scan"}}, {"type": "electric_scooter", "name": "454314109e3d3c9f926b392c3f639067", "lat": 38.900223833333335, "fusion_lat": 0.0, "bike_id": "454314109e3d3c9f926b392c3f639067", "is_reserved": 0, "lon": -77.03506616666667, "is_disabled": 0, "fusion_lon": 0.0, "rental_uris": {"android": "https://dc.lft.to/lastmile_qr_scan", "ios": "https://dc.lft.to/lastmile_qr_scan"}}, {"type": "electric_scooter", "name": "1bffe952fde85c91498f770178f83b58", "lat": 38.901378666666666, "fusion_lat": 0.0, "bike_id": "1bffe952fde85c91498f770178f83b58", "is_reserved": 0, "lon": -77.03874266666666, "is_disabled": 0, "fusion_lon": 0.0, "rental_uris": {"android": "https://dc.lft.to/lastmile_qr_scan", "ios": "https://dc.lft.to/lastmile_qr_scan"}}, {"type": "electric_scooter", "name": "535e97d257e073fed7e5c346a2f9d5fc", "lat": 38.973745666666666, "fusion_lat": 0.0, "bike_id": "535e97d257e073fed7e5c346a2f9d5fc", "is_reserved": 0, "lon": -77.018095, "is_disabled": 0, "fusion_lon": 0.0, "rental_uris": {"android": "https://dc.lft.to/lastmile_qr_scan", "ios": "https://dc.lft.to/lastmile_qr_scan"}}, {"type": "electric_scooter", "name": "70cc101e49d4a3d220a745523136b262", "lat": 38.86503716666667, "fusion_lat": 0.0, "bike_id": "70cc101e49d4a3d220a745523136b262", "is_reserved": 0, "lon": -76.98999883333333, "is_disabled": 0, "fusion_lon": 0.0, "rental_uris": {"android": "https://dc.lft.to/lastmile_qr_scan", "ios": "https://dc.lft.to/lastmile_qr_scan"}}, {"type": "electric_scooter", "name": "63c6371dbe1e5f9fbe3fac016062ab0b", "lat": 38.8946975, "fusion_lat": 0.0, "bike_id": "63c6371dbe1e5f9fbe3fac016062ab0b", "is_reserved": 0, "lon": -77.017499, "is_disabled": 0, "fusion_lon": 0.0, "rental_uris": {"android": "https://dc.lft.to/lastmile_qr_scan", "ios": "https://dc.lft.to/lastmile_qr_scan"}}, {"type": "electric_scooter", "name": "b550e67ca975e1ea391613f142141da6", "lat": 38.91738216666667, "fusion_lat": 0.0, "bike_id": "b550e67ca975e1ea391613f142141da6", "is_reserved": 0, "lon": -77.02393133333334, "is_disabled": 0, "fusion_lon": 0.0, "rental_uris": {"android": "https://dc.lft.to/lastmile_qr_scan", "ios": "https://dc.lft.to/lastmile_qr_scan"}}, {"type": "electric_scooter", "name": "0183a4e3bbeeb2beaf63297bc5f227ef", "lat": 38.91226783333333, "fusion_lat": 0.0, "bike_id": "0183a4e3bbeeb2beaf63297bc5f227ef", "is_reserved": 0, "lon": -76.98789583333334, "is_disabled": 0, "fusion_lon": 0.0, "rental_uris": {"android": "https://dc.lft.to/lastmile_qr_scan", "ios": "https://dc.lft.to/lastmile_qr_scan"}}, {"type": "electric_scooter", "name": "78fe4a98acb0ec35aae851b24858c583", "lat": 38.92595716666666, "fusion_lat": 0.0, "bike_id": "78fe4a98acb0ec35aae851b24858c583", "is_reserved": 0, "lon": -77.02160433333333, "is_disabled": 0, "fusion_lon": 0.0, "rental_uris": {"android": "https://dc.lft.to/lastmile_qr_scan", "ios": "https://dc.lft.to/lastmile_qr_scan"}}, {"type": "electric_scooter", "name": "e7117526dea4e65ebbb54886189b03a8", "lat": 38.895191, "fusion_lat": 0.0, "bike_id": "e7117526dea4e65ebbb54886189b03a8", "is_reserved": 0, "lon": -77.02285983333333, "is_disabled": 0, "fusion_lon": 0.0, "rental_uris": {"android": "https://dc.lft.to/lastmile_qr_scan", "ios": "https://dc.lft.to/lastmile_qr_scan"}}, {"type": "electric_scooter", "name": "eadbb59af03428a863be2136143bfdd7", "lat": 38.916098, "fusion_lat": 0.0, "bike_id": "eadbb59af03428a863be2136143bfdd7", "is_reserved": 0, "lon": -77.04873083333334, "is_disabled": 0, "fusion_lon": 0.0, "rental_uris": {"android": "https://dc.lft.to/lastmile_qr_scan", "ios": "https://dc.lft.to/lastmile_qr_scan"}}, {"type": "electric_scooter", "name": "2698899ed78880af52c020873cd98348", "lat": 38.9077025, "fusion_lat": 0.0, "bike_id": "2698899ed78880af52c020873cd98348", "is_reserved": 0, "lon": -77.03854533333333, "is_disabled": 0, "fusion_lon": 0.0, "rental_uris": {"android": "https://dc.lft.to/lastmile_qr_scan", "ios": "https://dc.lft.to/lastmile_qr_scan"}}, {"type": "electric_scooter", "name": "cdb9698468968b6b1450448a77d52faa", "lat": 38.89906933333333, "fusion_lat": 0.0, "bike_id": "cdb9698468968b6b1450448a77d52faa", "is_reserved": 0, "lon": -77.01868116666667, "is_disabled": 0, "fusion_lon": 0.0, "rental_uris": {"android": "https://dc.lft.to/lastmile_qr_scan", "ios": "https://dc.lft.to/lastmile_qr_scan"}}, {"type": "electric_bike", "name": "12d013543d43f6ce903893c12c1ab230", "lat": 38.88244733333333, "fusion_lat": 0.0, "bike_id": "12d013543d43f6ce903893c12c1ab230", "is_reserved": 0, "lon": -76.96260616666666, "is_disabled": 0, "fusion_lon": 0.0, "rental_uris": {"android": "https://dc.lft.to/lastmile_qr_scan", "ios": "https://dc.lft.to/lastmile_qr_scan"}}, {"type": "electric_scooter", "name": "df46dcc46166e9875978b67bb7b93add", "lat": 38.90153683333333, "fusion_lat": 0.0, "bike_id": "df46dcc46166e9875978b67bb7b93add", "is_reserved": 0, "lon": -76.97625016666667, "is_disabled": 0, "fusion_lon": 0.0, "rental_uris": {"android": "https://dc.lft.to/lastmile_qr_scan", "ios": "https://dc.lft.to/lastmile_qr_scan"}}, {"type": "electric_scooter", "name": "e6a8727f9960b0223edfd33329323c59", "lat": 38.91655083333333, "fusion_lat": 0.0, "bike_id": "e6a8727f9960b0223edfd33329323c59", "is_reserved": 0, "lon": -77.02273416666667, "is_disabled": 0, "fusion_lon": 0.0, "rental_uris": {"android": "https://dc.lft.to/lastmile_qr_scan", "ios": "https://dc.lft.to/lastmile_qr_scan"}}, {"type": "electric_scooter", "name": "373780b11b1e1b7dc5a646f7bdb991cf", "lat": 38.88483683333333, "fusion_lat": 0.0, "bike_id": "373780b11b1e1b7dc5a646f7bdb991cf", "is_reserved": 0, "lon": -77.01531366666667, "is_disabled": 0, "fusion_lon": 0.0, "rental_uris": {"android": "https://dc.lft.to/lastmile_qr_scan", "ios": "https://dc.lft.to/lastmile_qr_scan"}}, {"type": "electric_scooter", "name": "23c11f4de813e608c9d1c1f41cd2a727", "lat": 38.91653483333333, "fusion_lat": 0.0, "bike_id": "23c11f4de813e608c9d1c1f41cd2a727", "is_reserved": 0, "lon": -77.02274, "is_disabled": 0, "fusion_lon": 0.0, "rental_uris": {"android": "https://dc.lft.to/lastmile_qr_scan", "ios": "https://dc.lft.to/lastmile_qr_scan"}}, {"type": "electric_scooter", "name": "ca3ba8f3a128a95beb068f17f931c85d", "lat": 38.87712166666667, "fusion_lat": 0.0, "bike_id": "ca3ba8f3a128a95beb068f17f931c85d", "is_reserved": 0, "lon": -77.003727, "is_disabled": 0, "fusion_lon": 0.0, "rental_uris": {"android": "https://dc.lft.to/lastmile_qr_scan", "ios": "https://dc.lft.to/lastmile_qr_scan"}}, {"type": "electric_scooter", "name": "d5691c9df7273dbaa8e569dcae66a642", "lat": 38.91346033333333, "fusion_lat": 0.0, "bike_id": "d5691c9df7273dbaa8e569dcae66a642", "is_reserved": 0, "lon": -77.0121885, "is_disabled": 0, "fusion_lon": 0.0, "rental_uris": {"android": "https://dc.lft.to/lastmile_qr_scan", "ios": "https://dc.lft.to/lastmile_qr_scan"}}, {"type": "electric_scooter", "name": "444a345b992216ad8245e8da02590018", "lat": 38.882225, "fusion_lat": 0.0, "bike_id": "444a345b992216ad8245e8da02590018", "is_reserved": 0, "lon": -76.98982216666667, "is_disabled": 0, "fusion_lon": 0.0, "rental_uris": {"android": "https://dc.lft.to/lastmile_qr_scan", "ios": "https://dc.lft.to/lastmile_qr_scan"}}, {"type": "electric_scooter", "name": "6fe7356226b5c5ea5ed66801c8f555ce", "lat": 38.896218166666664, "fusion_lat": 0.0, "bike_id": "6fe7356226b5c5ea5ed66801c8f555ce", "is_reserved": 0, "lon": -77.02370566666667, "is_disabled": 0, "fusion_lon": 0.0, "rental_uris": {"android": "https://dc.lft.to/lastmile_qr_scan", "ios": "https://dc.lft.to/lastmile_qr_scan"}}, {"type": "electric_scooter", "name": "d6e87e22e8d090e582f28a3a58b17c0a", "lat": 38.90314566666667, "fusion_lat": 0.0, "bike_id": "d6e87e22e8d090e582f28a3a58b17c0a", "is_reserved": 0, "lon": -77.04674033333333, "is_disabled": 0, "fusion_lon": 0.0, "rental_uris": {"android": "https://dc.lft.to/lastmile_qr_scan", "ios": "https://dc.lft.to/lastmile_qr_scan"}}, {"type": "electric_scooter", "name": "038c191bff2c00699c3d8b686ce81e6c", "lat": 38.87622266666666, "fusion_lat": 0.0, "bike_id": "038c191bff2c00699c3d8b686ce81e6c", "is_reserved": 0, "lon": -77.00934033333333, "is_disabled": 0, "fusion_lon": 0.0, "rental_uris": {"android": "https://dc.lft.to/lastmile_qr_scan", "ios": "https://dc.lft.to/lastmile_qr_scan"}}, {"type": "electric_bike", "name": "71e21b857b910bba642732e5baaade2c", "lat": 38.81337383333333, "fusion_lat": 0.0, "bike_id": "71e21b857b910bba642732e5baaade2c", "is_reserved": 0, "lon": -77.051078, "is_disabled": 0, "fusion_lon": 0.0, "rental_uris": {"android": "https://dc.lft.to/lastmile_qr_scan", "ios": "https://dc.lft.to/lastmile_qr_scan"}}, {"type": "electric_bike", "name": "471be247d56f7cce5ff040b44b5912e9", "lat": 38.865182, "fusion_lat": 0.0, "bike_id": "471be247d56f7cce5ff040b44b5912e9", "is_reserved": 0, "lon": -77.129365, "is_disabled": 0, "fusion_lon": 0.0, "rental_uris": {"android": "https://dc.lft.to/lastmile_qr_scan", "ios": "https://dc.lft.to/lastmile_qr_scan"}}, {"type": "electric_scooter", "name": "ddee6f7fbf29044d42851417bfdd023c", "lat": 38.96051883333333, "fusion_lat": 0.0, "bike_id": "ddee6f7fbf29044d42851417bfdd023c", "is_reserved": 0, "lon": -77.02794483333334, "is_disabled": 0, "fusion_lon": 0.0, "rental_uris": {"android": "https://dc.lft.to/lastmile_qr_scan", "ios": "https://dc.lft.to/lastmile_qr_scan"}}, {"type": "electric_scooter", "name": "34409de8db3bfce52fe4bdc6a0d9414c", "lat": 38.89593166666667, "fusion_lat": 0.0, "bike_id": "34409de8db3bfce52fe4bdc6a0d9414c", "is_reserved": 0, "lon": -77.0259755, "is_disabled": 0, "fusion_lon": 0.0, "rental_uris": {"android": "https://dc.lft.to/lastmile_qr_scan", "ios": "https://dc.lft.to/lastmile_qr_scan"}}, {"type": "electric_scooter", "name": "3ce529c6d92c708bb86b988db18f8c61", "lat": 38.895403, "fusion_lat": 0.0, "bike_id": "3ce529c6d92c708bb86b988db18f8c61", "is_reserved": 0, "lon": -77.03155733333334, "is_disabled": 0, "fusion_lon": 0.0, "rental_uris": {"android": "https://dc.lft.to/lastmile_qr_scan", "ios": "https://dc.lft.to/lastmile_qr_scan"}}, {"type": "electric_scooter", "name": "f0d6c7ee756b5745effdc23eff4cef41", "lat": 38.944453333333335, "fusion_lat": 0.0, "bike_id": "f0d6c7ee756b5745effdc23eff4cef41", "is_reserved": 0, "lon": -77.06354516666667, "is_disabled": 0, "fusion_lon": 0.0, "rental_uris": {"android": "https://dc.lft.to/lastmile_qr_scan", "ios": "https://dc.lft.to/lastmile_qr_scan"}}, {"type": "electric_scooter", "name": "4801d0e02d2e5cb39d52ade942a9a028", "lat": 38.92632783333333, "fusion_lat": 0.0, "bike_id": "4801d0e02d2e5cb39d52ade942a9a028", "is_reserved": 0, "lon": -77.03714216666667, "is_disabled": 0, "fusion_lon": 0.0, "rental_uris": {"android": "https://dc.lft.to/lastmile_qr_scan", "ios": "https://dc.lft.to/lastmile_qr_scan"}}, {"type": "electric_scooter", "name": "ee6a13f78a409eac2e19fdc857ec5cdd", "lat": 38.912651, "fusion_lat": 0.0, "bike_id": "ee6a13f78a409eac2e19fdc857ec5cdd", "is_reserved": 0, "lon": -77.048439, "is_disabled": 0, "fusion_lon": 0.0, "rental_uris": {"android": "https://dc.lft.to/lastmile_qr_scan", "ios": "https://dc.lft.to/lastmile_qr_scan"}}, {"type": "electric_scooter", "name": "3bfb8bb1a313a703650fc5d15e7ae009", "lat": 38.9023825, "fusion_lat": 0.0, "bike_id": "3bfb8bb1a313a703650fc5d15e7ae009", "is_reserved": 0, "lon": -77.026895, "is_disabled": 0, "fusion_lon": 0.0, "rental_uris": {"android": "https://dc.lft.to/lastmile_qr_scan", "ios": "https://dc.lft.to/lastmile_qr_scan"}}, {"type": "electric_scooter", "name": "eb634e750cf3c20b22333d5102d5a50b", "lat": 38.9160115, "fusion_lat": 0.0, "bike_id": "eb634e750cf3c20b22333d5102d5a50b", "is_reserved": 0, "lon": -77.03849233333334, "is_disabled": 0, "fusion_lon": 0.0, "rental_uris": {"android": "https://dc.lft.to/lastmile_qr_scan", "ios": "https://dc.lft.to/lastmile_qr_scan"}}, {"type": "electric_scooter", "name": "6b4725a67d681bd0666f9c327f5fc22c", "lat": 38.911991666666665, "fusion_lat": 0.0, "bike_id": "6b4725a67d681bd0666f9c327f5fc22c", "is_reserved": 0, "lon": -77.036458, "is_disabled": 0, "fusion_lon": 0.0, "rental_uris": {"android": "https://dc.lft.to/lastmile_qr_scan", "ios": "https://dc.lft.to/lastmile_qr_scan"}}, {"type": "electric_scooter", "name": "461a0efaac6702f8d3edc3065c12228e", "lat": 38.91490616666667, "fusion_lat": 0.0, "bike_id": "461a0efaac6702f8d3edc3065c12228e", "is_reserved": 0, "lon": -77.04832866666666, "is_disabled": 0, "fusion_lon": 0.0, "rental_uris": {"android": "https://dc.lft.to/lastmile_qr_scan", "ios": "https://dc.lft.to/lastmile_qr_scan"}}, {"type": "electric_scooter", "name": "6a85bec5c1fbb3005502d54976c0cdfd", "lat": 38.89359983333333, "fusion_lat": 0.0, "bike_id": "6a85bec5c1fbb3005502d54976c0cdfd", "is_reserved": 0, "lon": -76.925835, "is_disabled": 0, "fusion_lon": 0.0, "rental_uris": {"android": "https://dc.lft.to/lastmile_qr_scan", "ios": "https://dc.lft.to/lastmile_qr_scan"}}, {"type": "electric_scooter", "name": "55227840a4e5f93b6864814c9133c197", "lat": 38.865995, "fusion_lat": 0.0, "bike_id": "55227840a4e5f93b6864814c9133c197", "is_reserved": 0, "lon": -76.9820105, "is_disabled": 0, "fusion_lon": 0.0, "rental_uris": {"android": "https://dc.lft.to/lastmile_qr_scan", "ios": "https://dc.lft.to/lastmile_qr_scan"}}, {"type": "electric_scooter", "name": "004e7f358995eb8b9be3e420159a465a", "lat": 38.90103933333333, "fusion_lat": 0.0, "bike_id": "004e7f358995eb8b9be3e420159a465a", "is_reserved": 0, "lon": -77.03248283333333, "is_disabled": 0, "fusion_lon": 0.0, "rental_uris": {"android": "https://dc.lft.to/lastmile_qr_scan", "ios": "https://dc.lft.to/lastmile_qr_scan"}}, {"type": "electric_scooter", "name": "7ebc61ad8a120ab16157048f7f79cbb4", "lat": 38.89215566666667, "fusion_lat": 0.0, "bike_id": "7ebc61ad8a120ab16157048f7f79cbb4", "is_reserved": 0, "lon": -77.045094, "is_disabled": 0, "fusion_lon": 0.0, "rental_uris": {"android": "https://dc.lft.to/lastmile_qr_scan", "ios": "https://dc.lft.to/lastmile_qr_scan"}}, {"type": "electric_scooter", "name": "aaf0e474a4e485095acc2f32d2bd7ccd", "lat": 38.89819033333333, "fusion_lat": 0.0, "bike_id": "aaf0e474a4e485095acc2f32d2bd7ccd", "is_reserved": 0, "lon": -77.03324683333334, "is_disabled": 0, "fusion_lon": 0.0, "rental_uris": {"android": "https://dc.lft.to/lastmile_qr_scan", "ios": "https://dc.lft.to/lastmile_qr_scan"}}, {"type": "electric_scooter", "name": "b3ec2ebf229b9fdcc5a87a480e3935e9", "lat": 38.912188, "fusion_lat": 0.0, "bike_id": "b3ec2ebf229b9fdcc5a87a480e3935e9", "is_reserved": 0, "lon": -77.0443555, "is_disabled": 0, "fusion_lon": 0.0, "rental_uris": {"android": "https://dc.lft.to/lastmile_qr_scan", "ios": "https://dc.lft.to/lastmile_qr_scan"}}, {"type": "electric_bike", "name": "f4beeb28cf3cb61c34f756ba8487d825", "lat": 38.90031583333333, "fusion_lat": 0.0, "bike_id": "f4beeb28cf3cb61c34f756ba8487d825", "is_reserved": 0, "lon": -76.97224416666667, "is_disabled": 0, "fusion_lon": 0.0, "rental_uris": {"android": "https://dc.lft.to/lastmile_qr_scan", "ios": "https://dc.lft.to/lastmile_qr_scan"}}, {"type": "electric_scooter", "name": "c7f142dfd52db226394028cc8b949970", "lat": 38.897878, "fusion_lat": 0.0, "bike_id": "c7f142dfd52db226394028cc8b949970", "is_reserved": 0, "lon": -77.04874616666666, "is_disabled": 0, "fusion_lon": 0.0, "rental_uris": {"android": "https://dc.lft.to/lastmile_qr_scan", "ios": "https://dc.lft.to/lastmile_qr_scan"}}, {"type": "electric_scooter", "name": "d41173f27e4dd9e22e051d9f4d338f95", "lat": 38.90425533333333, "fusion_lat": 0.0, "bike_id": "d41173f27e4dd9e22e051d9f4d338f95", "is_reserved": 0, "lon": -77.04376616666667, "is_disabled": 0, "fusion_lon": 0.0, "rental_uris": {"android": "https://dc.lft.to/lastmile_qr_scan", "ios": "https://dc.lft.to/lastmile_qr_scan"}}, {"type": "electric_scooter", "name": "fbe0b8ea5169f9f97ad2e6e3eb4df0a9", "lat": 38.917058, "fusion_lat": 0.0, "bike_id": "fbe0b8ea5169f9f97ad2e6e3eb4df0a9", "is_reserved": 0, "lon": -77.03117716666667, "is_disabled": 0, "fusion_lon": 0.0, "rental_uris": {"android": "https://dc.lft.to/lastmile_qr_scan", "ios": "https://dc.lft.to/lastmile_qr_scan"}}, {"type": "electric_scooter", "name": "053e08fc29358e4cfd0233c17eaa2606", "lat": 38.90309716666667, "fusion_lat": 0.0, "bike_id": "053e08fc29358e4cfd0233c17eaa2606", "is_reserved": 0, "lon": -77.02269783333334, "is_disabled": 0, "fusion_lon": 0.0, "rental_uris": {"android": "https://dc.lft.to/lastmile_qr_scan", "ios": "https://dc.lft.to/lastmile_qr_scan"}}, {"type": "electric_scooter", "name": "09f552ad68e2460146075c5b3d31904e", "lat": 38.894647, "fusion_lat": 0.0, "bike_id": "09f552ad68e2460146075c5b3d31904e", "is_reserved": 0, "lon": -77.02073033333333, "is_disabled": 0, "fusion_lon": 0.0, "rental_uris": {"android": "https://dc.lft.to/lastmile_qr_scan", "ios": "https://dc.lft.to/lastmile_qr_scan"}}, {"type": "electric_scooter", "name": "b0504683d2f901a552056fdd0d3e7c6c", "lat": 38.908360333333334, "fusion_lat": 0.0, "bike_id": "b0504683d2f901a552056fdd0d3e7c6c", "is_reserved": 0, "lon": -77.03206816666666, "is_disabled": 0, "fusion_lon": 0.0, "rental_uris": {"android": "https://dc.lft.to/lastmile_qr_scan", "ios": "https://dc.lft.to/lastmile_qr_scan"}}, {"type": "electric_scooter", "name": "795193a355829a61b7616be20738c6d4", "lat": 38.91968816666667, "fusion_lat": 0.0, "bike_id": "795193a355829a61b7616be20738c6d4", "is_reserved": 0, "lon": -77.0394595, "is_disabled": 0, "fusion_lon": 0.0, "rental_uris": {"android": "https://dc.lft.to/lastmile_qr_scan", "ios": "https://dc.lft.to/lastmile_qr_scan"}}, {"type": "electric_scooter", "name": "2b8dc6aca378c85e988347b84c1aefbe", "lat": 38.887405, "fusion_lat": 0.0, "bike_id": "2b8dc6aca378c85e988347b84c1aefbe", "is_reserved": 0, "lon": -77.00197433333334, "is_disabled": 0, "fusion_lon": 0.0, "rental_uris": {"android": "https://dc.lft.to/lastmile_qr_scan", "ios": "https://dc.lft.to/lastmile_qr_scan"}}, {"type": "electric_scooter", "name": "286c814304cba66b90324fb34443b422", "lat": 38.91095033333333, "fusion_lat": 0.0, "bike_id": "286c814304cba66b90324fb34443b422", "is_reserved": 0, "lon": -76.99808433333334, "is_disabled": 0, "fusion_lon": 0.0, "rental_uris": {"android": "https://dc.lft.to/lastmile_qr_scan", "ios": "https://dc.lft.to/lastmile_qr_scan"}}, {"type": "electric_scooter", "name": "2403ae1c3c25bd2e7c4c00bf6d943a4d", "lat": 38.901657166666666, "fusion_lat": 0.0, "bike_id": "2403ae1c3c25bd2e7c4c00bf6d943a4d", "is_reserved": 0, "lon": -76.93019516666666, "is_disabled": 0, "fusion_lon": 0.0, "rental_uris": {"android": "https://dc.lft.to/lastmile_qr_scan", "ios": "https://dc.lft.to/lastmile_qr_scan"}}, {"type": "electric_scooter", "name": "b900e500bebec44078d4313513776a6d", "lat": 38.899566166666666, "fusion_lat": 0.0, "bike_id": "b900e500bebec44078d4313513776a6d", "is_reserved": 0, "lon": -77.01605666666667, "is_disabled": 0, "fusion_lon": 0.0, "rental_uris": {"android": "https://dc.lft.to/lastmile_qr_scan", "ios": "https://dc.lft.to/lastmile_qr_scan"}}, {"type": "electric_scooter", "name": "b76240d66185f785ccd0eb886e402bf8", "lat": 38.90008516666666, "fusion_lat": 0.0, "bike_id": "b76240d66185f785ccd0eb886e402bf8", "is_reserved": 0, "lon": -76.99171733333333, "is_disabled": 0, "fusion_lon": 0.0, "rental_uris": {"android": "https://dc.lft.to/lastmile_qr_scan", "ios": "https://dc.lft.to/lastmile_qr_scan"}}, {"type": "electric_scooter", "name": "03acaa87f9bbd8b901e62870baa7e3be", "lat": 38.89726566666667, "fusion_lat": 0.0, "bike_id": "03acaa87f9bbd8b901e62870baa7e3be", "is_reserved": 0, "lon": -77.00373633333334, "is_disabled": 0, "fusion_lon": 0.0, "rental_uris": {"android": "https://dc.lft.to/lastmile_qr_scan", "ios": "https://dc.lft.to/lastmile_qr_scan"}}, {"type": "electric_scooter", "name": "ffcb2b7069e1e9a1191509f00f4c078b", "lat": 38.9024625, "fusion_lat": 0.0, "bike_id": "ffcb2b7069e1e9a1191509f00f4c078b", "is_reserved": 0, "lon": -77.0436185, "is_disabled": 0, "fusion_lon": 0.0, "rental_uris": {"android": "https://dc.lft.to/lastmile_qr_scan", "ios": "https://dc.lft.to/lastmile_qr_scan"}}, {"type": "electric_scooter", "name": "7326aeae2fb1b7b88428850bad3488ea", "lat": 38.91581583333333, "fusion_lat": 0.0, "bike_id": "7326aeae2fb1b7b88428850bad3488ea", "is_reserved": 0, "lon": -77.0319295, "is_disabled": 0, "fusion_lon": 0.0, "rental_uris": {"android": "https://dc.lft.to/lastmile_qr_scan", "ios": "https://dc.lft.to/lastmile_qr_scan"}}, {"type": "electric_scooter", "name": "d8fe596fc74d185f3fd1f068d4bd5a52", "lat": 38.9016255, "fusion_lat": 0.0, "bike_id": "d8fe596fc74d185f3fd1f068d4bd5a52", "is_reserved": 0, "lon": -77.02211633333333, "is_disabled": 0, "fusion_lon": 0.0, "rental_uris": {"android": "https://dc.lft.to/lastmile_qr_scan", "ios": "https://dc.lft.to/lastmile_qr_scan"}}, {"type": "electric_bike", "name": "3da759b3c991cfd587b37417b8ca7150", "lat": 38.897323, "fusion_lat": 0.0, "bike_id": "3da759b3c991cfd587b37417b8ca7150", "is_reserved": 0, "lon": -76.92043983333333, "is_disabled": 0, "fusion_lon": 0.0, "rental_uris": {"android": "https://dc.lft.to/lastmile_qr_scan", "ios": "https://dc.lft.to/lastmile_qr_scan"}}, {"type": "electric_scooter", "name": "568196085b3e5043b50685e3118d4475", "lat": 38.9662795, "fusion_lat": 0.0, "bike_id": "568196085b3e5043b50685e3118d4475", "is_reserved": 0, "lon": -77.0199995, "is_disabled": 0, "fusion_lon": 0.0, "rental_uris": {"android": "https://dc.lft.to/lastmile_qr_scan", "ios": "https://dc.lft.to/lastmile_qr_scan"}}, {"type": "electric_scooter", "name": "a393bc9c814e676e33aa70886bbc59de", "lat": 38.874690333333334, "fusion_lat": 0.0, "bike_id": "a393bc9c814e676e33aa70886bbc59de", "is_reserved": 0, "lon": -77.0055625, "is_disabled": 0, "fusion_lon": 0.0, "rental_uris": {"android": "https://dc.lft.to/lastmile_qr_scan", "ios": "https://dc.lft.to/lastmile_qr_scan"}}, {"type": "electric_scooter", "name": "a5c0baea1939a210eb7c4e490cc9379c", "lat": 38.932781166666665, "fusion_lat": 0.0, "bike_id": "a5c0baea1939a210eb7c4e490cc9379c", "is_reserved": 0, "lon": -77.040849, "is_disabled": 0, "fusion_lon": 0.0, "rental_uris": {"android": "https://dc.lft.to/lastmile_qr_scan", "ios": "https://dc.lft.to/lastmile_qr_scan"}}, {"type": "electric_scooter", "name": "c958a4f56573b725ce407dff59dbb3c6", "lat": 38.8564995, "fusion_lat": 0.0, "bike_id": "c958a4f56573b725ce407dff59dbb3c6", "is_reserved": 0, "lon": -76.996735, "is_disabled": 0, "fusion_lon": 0.0, "rental_uris": {"android": "https://dc.lft.to/lastmile_qr_scan", "ios": "https://dc.lft.to/lastmile_qr_scan"}}, {"type": "electric_scooter", "name": "e61e1aec3ef54a829c8617f9dc35383c", "lat": 38.924632833333334, "fusion_lat": 0.0, "bike_id": "e61e1aec3ef54a829c8617f9dc35383c", "is_reserved": 0, "lon": -77.02268816666667, "is_disabled": 0, "fusion_lon": 0.0, "rental_uris": {"android": "https://dc.lft.to/lastmile_qr_scan", "ios": "https://dc.lft.to/lastmile_qr_scan"}}, {"type": "electric_scooter", "name": "88136e9d66a8e94004829761101a92f2", "lat": 38.88146066666667, "fusion_lat": 0.0, "bike_id": "88136e9d66a8e94004829761101a92f2", "is_reserved": 0, "lon": -77.026993, "is_disabled": 0, "fusion_lon": 0.0, "rental_uris": {"android": "https://dc.lft.to/lastmile_qr_scan", "ios": "https://dc.lft.to/lastmile_qr_scan"}}, {"type": "electric_scooter", "name": "b76788f7c57af6d124abf8303a3c782b", "lat": 38.925998166666666, "fusion_lat": 0.0, "bike_id": "b76788f7c57af6d124abf8303a3c782b", "is_reserved": 0, "lon": -77.01224216666667, "is_disabled": 0, "fusion_lon": 0.0, "rental_uris": {"android": "https://dc.lft.to/lastmile_qr_scan", "ios": "https://dc.lft.to/lastmile_qr_scan"}}, {"type": "electric_scooter", "name": "8c60fe067abba40120adfc32e4e153ad", "lat": 38.89232333333333, "fusion_lat": 0.0, "bike_id": "8c60fe067abba40120adfc32e4e153ad", "is_reserved": 0, "lon": -77.03212833333333, "is_disabled": 0, "fusion_lon": 0.0, "rental_uris": {"android": "https://dc.lft.to/lastmile_qr_scan", "ios": "https://dc.lft.to/lastmile_qr_scan"}}, {"type": "electric_scooter", "name": "3207afc0deacade6be4d8a94851f7f86", "lat": 38.88485933333333, "fusion_lat": 0.0, "bike_id": "3207afc0deacade6be4d8a94851f7f86", "is_reserved": 0, "lon": -77.00707983333334, "is_disabled": 0, "fusion_lon": 0.0, "rental_uris": {"android": "https://dc.lft.to/lastmile_qr_scan", "ios": "https://dc.lft.to/lastmile_qr_scan"}}, {"type": "electric_scooter", "name": "9b60f47fc3b3eab792b27b14acd2f8bc", "lat": 38.91626683333333, "fusion_lat": 0.0, "bike_id": "9b60f47fc3b3eab792b27b14acd2f8bc", "is_reserved": 0, "lon": -77.04556216666667, "is_disabled": 0, "fusion_lon": 0.0, "rental_uris": {"android": "https://dc.lft.to/lastmile_qr_scan", "ios": "https://dc.lft.to/lastmile_qr_scan"}}, {"type": "electric_scooter", "name": "a3641d338a29d058b6a6181ec68da441", "lat": 38.90245633333333, "fusion_lat": 0.0, "bike_id": "a3641d338a29d058b6a6181ec68da441", "is_reserved": 0, "lon": -77.04357483333334, "is_disabled": 0, "fusion_lon": 0.0, "rental_uris": {"android": "https://dc.lft.to/lastmile_qr_scan", "ios": "https://dc.lft.to/lastmile_qr_scan"}}, {"type": "electric_scooter", "name": "4aec7eaf27a24a9755750a4e77e9635a", "lat": 38.90728083333333, "fusion_lat": 0.0, "bike_id": "4aec7eaf27a24a9755750a4e77e9635a", "is_reserved": 0, "lon": -77.04264516666667, "is_disabled": 0, "fusion_lon": 0.0, "rental_uris": {"android": "https://dc.lft.to/lastmile_qr_scan", "ios": "https://dc.lft.to/lastmile_qr_scan"}}, {"type": "electric_scooter", "name": "e149b6cc97498ce39cfe9a2dd1a9f0fc", "lat": 38.9033815, "fusion_lat": 0.0, "bike_id": "e149b6cc97498ce39cfe9a2dd1a9f0fc", "is_reserved": 0, "lon": -77.04336716666667, "is_disabled": 0, "fusion_lon": 0.0, "rental_uris": {"android": "https://dc.lft.to/lastmile_qr_scan", "ios": "https://dc.lft.to/lastmile_qr_scan"}}, {"type": "electric_scooter", "name": "61d4b6ab4fb3a82316068d0f7823e06d", "lat": 38.867555, "fusion_lat": 0.0, "bike_id": "61d4b6ab4fb3a82316068d0f7823e06d", "is_reserved": 0, "lon": -76.98279416666666, "is_disabled": 0, "fusion_lon": 0.0, "rental_uris": {"android": "https://dc.lft.to/lastmile_qr_scan", "ios": "https://dc.lft.to/lastmile_qr_scan"}}, {"type": "electric_scooter", "name": "1ac62e61f015a15012960c5cbd4d0882", "lat": 38.952291, "fusion_lat": 0.0, "bike_id": "1ac62e61f015a15012960c5cbd4d0882", "is_reserved": 0, "lon": -77.013738, "is_disabled": 0, "fusion_lon": 0.0, "rental_uris": {"android": "https://dc.lft.to/lastmile_qr_scan", "ios": "https://dc.lft.to/lastmile_qr_scan"}}, {"type": "electric_scooter", "name": "b028c72fed21d362c7ea3870bc9df50f", "lat": 38.92281116666667, "fusion_lat": 0.0, "bike_id": "b028c72fed21d362c7ea3870bc9df50f", "is_reserved": 0, "lon": -77.03663766666666, "is_disabled": 0, "fusion_lon": 0.0, "rental_uris": {"android": "https://dc.lft.to/lastmile_qr_scan", "ios": "https://dc.lft.to/lastmile_qr_scan"}}, {"type": "electric_scooter", "name": "dddc205b66a5c0471b558b0fd6be5216", "lat": 38.899966166666665, "fusion_lat": 0.0, "bike_id": "dddc205b66a5c0471b558b0fd6be5216", "is_reserved": 0, "lon": -77.02737183333333, "is_disabled": 0, "fusion_lon": 0.0, "rental_uris": {"android": "https://dc.lft.to/lastmile_qr_scan", "ios": "https://dc.lft.to/lastmile_qr_scan"}}, {"type": "electric_scooter", "name": "3a0f98798b46c512a51c10f0d87d816c", "lat": 38.905781166666664, "fusion_lat": 0.0, "bike_id": "3a0f98798b46c512a51c10f0d87d816c", "is_reserved": 0, "lon": -77.022085, "is_disabled": 0, "fusion_lon": 0.0, "rental_uris": {"android": "https://dc.lft.to/lastmile_qr_scan", "ios": "https://dc.lft.to/lastmile_qr_scan"}}, {"type": "electric_scooter", "name": "41feae34804a5597697ccfb0a22a6d85", "lat": 38.922514666666665, "fusion_lat": 0.0, "bike_id": "41feae34804a5597697ccfb0a22a6d85", "is_reserved": 0, "lon": -77.01947933333334, "is_disabled": 0, "fusion_lon": 0.0, "rental_uris": {"android": "https://dc.lft.to/lastmile_qr_scan", "ios": "https://dc.lft.to/lastmile_qr_scan"}}, {"type": "electric_scooter", "name": "baf91b57e6b92508b29c608863c04f2f", "lat": 38.94189216666667, "fusion_lat": 0.0, "bike_id": "baf91b57e6b92508b29c608863c04f2f", "is_reserved": 0, "lon": -77.0383925, "is_disabled": 0, "fusion_lon": 0.0, "rental_uris": {"android": "https://dc.lft.to/lastmile_qr_scan", "ios": "https://dc.lft.to/lastmile_qr_scan"}}, {"type": "electric_scooter", "name": "8dcea6aae3352225d215692912d721b4", "lat": 38.92682083333333, "fusion_lat": 0.0, "bike_id": "8dcea6aae3352225d215692912d721b4", "is_reserved": 0, "lon": -77.015419, "is_disabled": 0, "fusion_lon": 0.0, "rental_uris": {"android": "https://dc.lft.to/lastmile_qr_scan", "ios": "https://dc.lft.to/lastmile_qr_scan"}}, {"type": "electric_scooter", "name": "c8742b75f775c953bb74bd0888f9519c", "lat": 38.90282416666667, "fusion_lat": 0.0, "bike_id": "c8742b75f775c953bb74bd0888f9519c", "is_reserved": 0, "lon": -77.03844833333333, "is_disabled": 0, "fusion_lon": 0.0, "rental_uris": {"android": "https://dc.lft.to/lastmile_qr_scan", "ios": "https://dc.lft.to/lastmile_qr_scan"}}, {"type": "electric_scooter", "name": "01bfa8f088b50b34ed312074068b00ca", "lat": 38.908550166666664, "fusion_lat": 0.0, "bike_id": "01bfa8f088b50b34ed312074068b00ca", "is_reserved": 0, "lon": -77.04732316666667, "is_disabled": 0, "fusion_lon": 0.0, "rental_uris": {"android": "https://dc.lft.to/lastmile_qr_scan", "ios": "https://dc.lft.to/lastmile_qr_scan"}}, {"type": "electric_scooter", "name": "6ef7d7f2a0ea87fb3eebec5dd44b2b69", "lat": 38.90281233333333, "fusion_lat": 0.0, "bike_id": "6ef7d7f2a0ea87fb3eebec5dd44b2b69", "is_reserved": 0, "lon": -77.02729833333333, "is_disabled": 0, "fusion_lon": 0.0, "rental_uris": {"android": "https://dc.lft.to/lastmile_qr_scan", "ios": "https://dc.lft.to/lastmile_qr_scan"}}, {"type": "electric_scooter", "name": "4936168b138d9334a21c42d99ec2beff", "lat": 38.893666833333334, "fusion_lat": 0.0, "bike_id": "4936168b138d9334a21c42d99ec2beff", "is_reserved": 0, "lon": -77.028507, "is_disabled": 0, "fusion_lon": 0.0, "rental_uris": {"android": "https://dc.lft.to/lastmile_qr_scan", "ios": "https://dc.lft.to/lastmile_qr_scan"}}, {"type": "electric_scooter", "name": "b46008d010258b99ca65515b151b56d8", "lat": 38.902571333333334, "fusion_lat": 0.0, "bike_id": "b46008d010258b99ca65515b151b56d8", "is_reserved": 0, "lon": -77.008125, "is_disabled": 0, "fusion_lon": 0.0, "rental_uris": {"android": "https://dc.lft.to/lastmile_qr_scan", "ios": "https://dc.lft.to/lastmile_qr_scan"}}, {"type": "electric_scooter", "name": "a6daff3b0fd7ee96b873508743b33973", "lat": 38.92174516666667, "fusion_lat": 0.0, "bike_id": "a6daff3b0fd7ee96b873508743b33973", "is_reserved": 0, "lon": -77.047004, "is_disabled": 0, "fusion_lon": 0.0, "rental_uris": {"android": "https://dc.lft.to/lastmile_qr_scan", "ios": "https://dc.lft.to/lastmile_qr_scan"}}, {"type": "electric_scooter", "name": "5690e7f9984dfeab00cbd47035445f1d", "lat": 38.90492916666667, "fusion_lat": 0.0, "bike_id": "5690e7f9984dfeab00cbd47035445f1d", "is_reserved": 0, "lon": -77.041118, "is_disabled": 0, "fusion_lon": 0.0, "rental_uris": {"android": "https://dc.lft.to/lastmile_qr_scan", "ios": "https://dc.lft.to/lastmile_qr_scan"}}, {"type": "electric_scooter", "name": "19e2beea6a46d70677d5bf478a3ce9d7", "lat": 38.921047333333334, "fusion_lat": 0.0, "bike_id": "19e2beea6a46d70677d5bf478a3ce9d7", "is_reserved": 0, "lon": -77.063342, "is_disabled": 0, "fusion_lon": 0.0, "rental_uris": {"android": "https://dc.lft.to/lastmile_qr_scan", "ios": "https://dc.lft.to/lastmile_qr_scan"}}, {"type": "electric_scooter", "name": "17572db2924d8cc536efcf94cbab7a02", "lat": 38.9071595, "fusion_lat": 0.0, "bike_id": "17572db2924d8cc536efcf94cbab7a02", "is_reserved": 0, "lon": -77.04410283333333, "is_disabled": 0, "fusion_lon": 0.0, "rental_uris": {"android": "https://dc.lft.to/lastmile_qr_scan", "ios": "https://dc.lft.to/lastmile_qr_scan"}}, {"type": "electric_scooter", "name": "d4c8d43fec747b34367316d07f408fb1", "lat": 38.90261, "fusion_lat": 0.0, "bike_id": "d4c8d43fec747b34367316d07f408fb1", "is_reserved": 0, "lon": -77.03072666666667, "is_disabled": 0, "fusion_lon": 0.0, "rental_uris": {"android": "https://dc.lft.to/lastmile_qr_scan", "ios": "https://dc.lft.to/lastmile_qr_scan"}}, {"type": "electric_scooter", "name": "a91382baac419d64ed684fb51d3816f4", "lat": 38.895078166666664, "fusion_lat": 0.0, "bike_id": "a91382baac419d64ed684fb51d3816f4", "is_reserved": 0, "lon": -77.00339766666667, "is_disabled": 0, "fusion_lon": 0.0, "rental_uris": {"android": "https://dc.lft.to/lastmile_qr_scan", "ios": "https://dc.lft.to/lastmile_qr_scan"}}, {"type": "electric_scooter", "name": "c72bacdd65708cdbde765e94efd3e3e5", "lat": 38.90500683333333, "fusion_lat": 0.0, "bike_id": "c72bacdd65708cdbde765e94efd3e3e5", "is_reserved": 0, "lon": -77.06882933333333, "is_disabled": 0, "fusion_lon": 0.0, "rental_uris": {"android": "https://dc.lft.to/lastmile_qr_scan", "ios": "https://dc.lft.to/lastmile_qr_scan"}}, {"type": "electric_scooter", "name": "cf8193b5b6105b16d462aab880ae3771", "lat": 38.908337833333334, "fusion_lat": 0.0, "bike_id": "cf8193b5b6105b16d462aab880ae3771", "is_reserved": 0, "lon": -77.03944383333334, "is_disabled": 0, "fusion_lon": 0.0, "rental_uris": {"android": "https://dc.lft.to/lastmile_qr_scan", "ios": "https://dc.lft.to/lastmile_qr_scan"}}, {"type": "electric_scooter", "name": "9142e6ddd83d6b16252e2d55d938d840", "lat": 38.957179, "fusion_lat": 0.0, "bike_id": "9142e6ddd83d6b16252e2d55d938d840", "is_reserved": 0, "lon": -77.03250783333333, "is_disabled": 0, "fusion_lon": 0.0, "rental_uris": {"android": "https://dc.lft.to/lastmile_qr_scan", "ios": "https://dc.lft.to/lastmile_qr_scan"}}, {"type": "electric_scooter", "name": "079fa3b8f3dbf319dad1232f71e38af0", "lat": 38.910880166666665, "fusion_lat": 0.0, "bike_id": "079fa3b8f3dbf319dad1232f71e38af0", "is_reserved": 0, "lon": -77.0162035, "is_disabled": 0, "fusion_lon": 0.0, "rental_uris": {"android": "https://dc.lft.to/lastmile_qr_scan", "ios": "https://dc.lft.to/lastmile_qr_scan"}}, {"type": "electric_scooter", "name": "cb6c8c7bb0d9450afd4f14da59580a26", "lat": 38.893336166666664, "fusion_lat": 0.0, "bike_id": "cb6c8c7bb0d9450afd4f14da59580a26", "is_reserved": 0, "lon": -77.03163866666667, "is_disabled": 0, "fusion_lon": 0.0, "rental_uris": {"android": "https://dc.lft.to/lastmile_qr_scan", "ios": "https://dc.lft.to/lastmile_qr_scan"}}, {"type": "electric_scooter", "name": "45a3edb4c81b66804fef0ea6282064ae", "lat": 38.9321645, "fusion_lat": 0.0, "bike_id": "45a3edb4c81b66804fef0ea6282064ae", "is_reserved": 0, "lon": -77.03356433333333, "is_disabled": 0, "fusion_lon": 0.0, "rental_uris": {"android": "https://dc.lft.to/lastmile_qr_scan", "ios": "https://dc.lft.to/lastmile_qr_scan"}}, {"type": "electric_scooter", "name": "5b979b024d1b9c45114c7b8b1b9a121c", "lat": 38.91463816666667, "fusion_lat": 0.0, "bike_id": "5b979b024d1b9c45114c7b8b1b9a121c", "is_reserved": 0, "lon": -77.0218025, "is_disabled": 0, "fusion_lon": 0.0, "rental_uris": {"android": "https://dc.lft.to/lastmile_qr_scan", "ios": "https://dc.lft.to/lastmile_qr_scan"}}, {"type": "electric_scooter", "name": "73e9e1a360d84b27482ceab86360ccec", "lat": 38.9217465, "fusion_lat": 0.0, "bike_id": "73e9e1a360d84b27482ceab86360ccec", "is_reserved": 0, "lon": -77.047043, "is_disabled": 0, "fusion_lon": 0.0, "rental_uris": {"android": "https://dc.lft.to/lastmile_qr_scan", "ios": "https://dc.lft.to/lastmile_qr_scan"}}, {"type": "electric_scooter", "name": "d66f5f6314f87789688db98f5ea8388d", "lat": 38.89983216666667, "fusion_lat": 0.0, "bike_id": "d66f5f6314f87789688db98f5ea8388d", "is_reserved": 0, "lon": -77.02229933333334, "is_disabled": 0, "fusion_lon": 0.0, "rental_uris": {"android": "https://dc.lft.to/lastmile_qr_scan", "ios": "https://dc.lft.to/lastmile_qr_scan"}}, {"type": "electric_scooter", "name": "4c7f6eb8c6d8750b00ef2f67f71c1d40", "lat": 38.935089166666664, "fusion_lat": 0.0, "bike_id": "4c7f6eb8c6d8750b00ef2f67f71c1d40", "is_reserved": 0, "lon": -77.033442, "is_disabled": 0, "fusion_lon": 0.0, "rental_uris": {"android": "https://dc.lft.to/lastmile_qr_scan", "ios": "https://dc.lft.to/lastmile_qr_scan"}}, {"type": "electric_scooter", "name": "4bce0091f88457e12e7a88726496e250", "lat": 38.917084, "fusion_lat": 0.0, "bike_id": "4bce0091f88457e12e7a88726496e250", "is_reserved": 0, "lon": -77.031306, "is_disabled": 0, "fusion_lon": 0.0, "rental_uris": {"android": "https://dc.lft.to/lastmile_qr_scan", "ios": "https://dc.lft.to/lastmile_qr_scan"}}, {"type": "electric_bike", "name": "52f7e57c6221c19b2275b847df2a70a4", "lat": 38.8065805, "fusion_lat": 0.0, "bike_id": "52f7e57c6221c19b2275b847df2a70a4", "is_reserved": 0, "lon": -77.08764516666666, "is_disabled": 0, "fusion_lon": 0.0, "rental_uris": {"android": "https://dc.lft.to/lastmile_qr_scan", "ios": "https://dc.lft.to/lastmile_qr_scan"}}, {"type": "electric_scooter", "name": "4b9b47dd640363a3e7a7833e3cf4ba1d", "lat": 38.8966725, "fusion_lat": 0.0, "bike_id": "4b9b47dd640363a3e7a7833e3cf4ba1d", "is_reserved": 0, "lon": -77.05467216666666, "is_disabled": 0, "fusion_lon": 0.0, "rental_uris": {"android": "https://dc.lft.to/lastmile_qr_scan", "ios": "https://dc.lft.to/lastmile_qr_scan"}}, {"type": "electric_scooter", "name": "33a6ac1a9436494dc0da8049efa62944", "lat": 38.86686683333333, "fusion_lat": 0.0, "bike_id": "33a6ac1a9436494dc0da8049efa62944", "is_reserved": 0, "lon": -76.9854335, "is_disabled": 0, "fusion_lon": 0.0, "rental_uris": {"android": "https://dc.lft.to/lastmile_qr_scan", "ios": "https://dc.lft.to/lastmile_qr_scan"}}, {"type": "electric_scooter", "name": "1556a80d64702fbd661967b31aac1a5f", "lat": 38.92043666666667, "fusion_lat": 0.0, "bike_id": "1556a80d64702fbd661967b31aac1a5f", "is_reserved": 0, "lon": -77.01677833333333, "is_disabled": 0, "fusion_lon": 0.0, "rental_uris": {"android": "https://dc.lft.to/lastmile_qr_scan", "ios": "https://dc.lft.to/lastmile_qr_scan"}}, {"type": "electric_scooter", "name": "697f67d0456f38078a8872c174e1abf7", "lat": 38.90239366666667, "fusion_lat": 0.0, "bike_id": "697f67d0456f38078a8872c174e1abf7", "is_reserved": 0, "lon": -77.04351033333333, "is_disabled": 0, "fusion_lon": 0.0, "rental_uris": {"android": "https://dc.lft.to/lastmile_qr_scan", "ios": "https://dc.lft.to/lastmile_qr_scan"}}, {"type": "electric_scooter", "name": "c5ec066223d1f45d5e9eb032ea8ee6ef", "lat": 38.8973085, "fusion_lat": 0.0, "bike_id": "c5ec066223d1f45d5e9eb032ea8ee6ef", "is_reserved": 0, "lon": -77.02706666666667, "is_disabled": 0, "fusion_lon": 0.0, "rental_uris": {"android": "https://dc.lft.to/lastmile_qr_scan", "ios": "https://dc.lft.to/lastmile_qr_scan"}}, {"type": "electric_bike", "name": "4f2aa0c9d2246f7c75e14c543539e13e", "lat": 38.9721825, "fusion_lat": 0.0, "bike_id": "4f2aa0c9d2246f7c75e14c543539e13e", "is_reserved": 0, "lon": -77.01421883333333, "is_disabled": 0, "fusion_lon": 0.0, "rental_uris": {"android": "https://dc.lft.to/lastmile_qr_scan", "ios": "https://dc.lft.to/lastmile_qr_scan"}}, {"type": "electric_scooter", "name": "d5d6e7487a70ce8c74e037cdbb4fa66a", "lat": 38.914007, "fusion_lat": 0.0, "bike_id": "d5d6e7487a70ce8c74e037cdbb4fa66a", "is_reserved": 0, "lon": -77.02280583333334, "is_disabled": 0, "fusion_lon": 0.0, "rental_uris": {"android": "https://dc.lft.to/lastmile_qr_scan", "ios": "https://dc.lft.to/lastmile_qr_scan"}}, {"type": "electric_bike", "name": "660940c6ed2ad999c0d35d0f9e165636", "lat": 38.79468033333333, "fusion_lat": 0.0, "bike_id": "660940c6ed2ad999c0d35d0f9e165636", "is_reserved": 0, "lon": -76.99246283333333, "is_disabled": 0, "fusion_lon": 0.0, "rental_uris": {"android": "https://dc.lft.to/lastmile_qr_scan", "ios": "https://dc.lft.to/lastmile_qr_scan"}}, {"type": "electric_scooter", "name": "cb874132f7c7e47be9c30757222bc87b", "lat": 38.94381716666667, "fusion_lat": 0.0, "bike_id": "cb874132f7c7e47be9c30757222bc87b", "is_reserved": 0, "lon": -77.07701366666667, "is_disabled": 0, "fusion_lon": 0.0, "rental_uris": {"android": "https://dc.lft.to/lastmile_qr_scan", "ios": "https://dc.lft.to/lastmile_qr_scan"}}, {"type": "electric_scooter", "name": "c5060b09f6eb8a09a4ec7e8f8b89c1c2", "lat": 38.907696666666666, "fusion_lat": 0.0, "bike_id": "c5060b09f6eb8a09a4ec7e8f8b89c1c2", "is_reserved": 0, "lon": -77.03853583333333, "is_disabled": 0, "fusion_lon": 0.0, "rental_uris": {"android": "https://dc.lft.to/lastmile_qr_scan", "ios": "https://dc.lft.to/lastmile_qr_scan"}}, {"type": "electric_scooter", "name": "d0917a06a83e6c60ac51d940388fa279", "lat": 38.908349333333334, "fusion_lat": 0.0, "bike_id": "d0917a06a83e6c60ac51d940388fa279", "is_reserved": 0, "lon": -76.99973483333333, "is_disabled": 0, "fusion_lon": 0.0, "rental_uris": {"android": "https://dc.lft.to/lastmile_qr_scan", "ios": "https://dc.lft.to/lastmile_qr_scan"}}, {"type": "electric_scooter", "name": "92ee4b1944a06d0902fe7b0b07e8d7ee", "lat": 38.89520616666667, "fusion_lat": 0.0, "bike_id": "92ee4b1944a06d0902fe7b0b07e8d7ee", "is_reserved": 0, "lon": -77.002081, "is_disabled": 0, "fusion_lon": 0.0, "rental_uris": {"android": "https://dc.lft.to/lastmile_qr_scan", "ios": "https://dc.lft.to/lastmile_qr_scan"}}, {"type": "electric_scooter", "name": "fabde9c3dee33a723aea13ad86241f87", "lat": 38.898247833333336, "fusion_lat": 0.0, "bike_id": "fabde9c3dee33a723aea13ad86241f87", "is_reserved": 0, "lon": -76.946557, "is_disabled": 0, "fusion_lon": 0.0, "rental_uris": {"android": "https://dc.lft.to/lastmile_qr_scan", "ios": "https://dc.lft.to/lastmile_qr_scan"}}, {"type": "electric_scooter", "name": "ccd08a7dfead32b6dddc695bfb40f942", "lat": 38.92043666666667, "fusion_lat": 0.0, "bike_id": "ccd08a7dfead32b6dddc695bfb40f942", "is_reserved": 0, "lon": -77.0168595, "is_disabled": 0, "fusion_lon": 0.0, "rental_uris": {"android": "https://dc.lft.to/lastmile_qr_scan", "ios": "https://dc.lft.to/lastmile_qr_scan"}}, {"type": "electric_scooter", "name": "0c7706bb25d43f4a9c33bca07f23bdab", "lat": 38.898245333333335, "fusion_lat": 0.0, "bike_id": "0c7706bb25d43f4a9c33bca07f23bdab", "is_reserved": 0, "lon": -77.0292505, "is_disabled": 0, "fusion_lon": 0.0, "rental_uris": {"android": "https://dc.lft.to/lastmile_qr_scan", "ios": "https://dc.lft.to/lastmile_qr_scan"}}, {"type": "electric_scooter", "name": "468a5d8231a40583bafba8c7647f7721", "lat": 38.920534833333335, "fusion_lat": 0.0, "bike_id": "468a5d8231a40583bafba8c7647f7721", "is_reserved": 0, "lon": -77.0176095, "is_disabled": 0, "fusion_lon": 0.0, "rental_uris": {"android": "https://dc.lft.to/lastmile_qr_scan", "ios": "https://dc.lft.to/lastmile_qr_scan"}}, {"type": "electric_bike", "name": "dc75ed5c10c14e4b3e87e97055c6b4e4", "lat": 38.9003365, "fusion_lat": 0.0, "bike_id": "dc75ed5c10c14e4b3e87e97055c6b4e4", "is_reserved": 0, "lon": -76.97221883333333, "is_disabled": 0, "fusion_lon": 0.0, "rental_uris": {"android": "https://dc.lft.to/lastmile_qr_scan", "ios": "https://dc.lft.to/lastmile_qr_scan"}}, {"type": "electric_scooter", "name": "ba238f12c677cdda9bcaa1e28aa28655", "lat": 38.911654166666665, "fusion_lat": 0.0, "bike_id": "ba238f12c677cdda9bcaa1e28aa28655", "is_reserved": 0, "lon": -77.0197655, "is_disabled": 0, "fusion_lon": 0.0, "rental_uris": {"android": "https://dc.lft.to/lastmile_qr_scan", "ios": "https://dc.lft.to/lastmile_qr_scan"}}, {"type": "electric_scooter", "name": "cc70dc64058e15b787cb84070311cb30", "lat": 38.912261, "fusion_lat": 0.0, "bike_id": "cc70dc64058e15b787cb84070311cb30", "is_reserved": 0, "lon": -77.031793, "is_disabled": 0, "fusion_lon": 0.0, "rental_uris": {"android": "https://dc.lft.to/lastmile_qr_scan", "ios": "https://dc.lft.to/lastmile_qr_scan"}}, {"type": "electric_scooter", "name": "fd8300b77e6780e1329dd4d3ba563147", "lat": 38.9003215, "fusion_lat": 0.0, "bike_id": "fd8300b77e6780e1329dd4d3ba563147", "is_reserved": 0, "lon": -77.03504883333333, "is_disabled": 0, "fusion_lon": 0.0, "rental_uris": {"android": "https://dc.lft.to/lastmile_qr_scan", "ios": "https://dc.lft.to/lastmile_qr_scan"}}, {"type": "electric_scooter", "name": "70dbeb3d4ccd7f2171321085d455f98e", "lat": 38.8972685, "fusion_lat": 0.0, "bike_id": "70dbeb3d4ccd7f2171321085d455f98e", "is_reserved": 0, "lon": -77.0036925, "is_disabled": 0, "fusion_lon": 0.0, "rental_uris": {"android": "https://dc.lft.to/lastmile_qr_scan", "ios": "https://dc.lft.to/lastmile_qr_scan"}}, {"type": "electric_scooter", "name": "0aef23aa1637b146ff4125230c6287c8", "lat": 38.92473966666667, "fusion_lat": 0.0, "bike_id": "0aef23aa1637b146ff4125230c6287c8", "is_reserved": 0, "lon": -77.028364, "is_disabled": 0, "fusion_lon": 0.0, "rental_uris": {"android": "https://dc.lft.to/lastmile_qr_scan", "ios": "https://dc.lft.to/lastmile_qr_scan"}}, {"type": "electric_scooter", "name": "bbeff97803317b0c542a0dbbf579cc6a", "lat": 38.9056035, "fusion_lat": 0.0, "bike_id": "bbeff97803317b0c542a0dbbf579cc6a", "is_reserved": 0, "lon": -77.034687, "is_disabled": 0, "fusion_lon": 0.0, "rental_uris": {"android": "https://dc.lft.to/lastmile_qr_scan", "ios": "https://dc.lft.to/lastmile_qr_scan"}}, {"type": "electric_scooter", "name": "fecc5a8fb5f80f897e03823b3dd54f33", "lat": 38.87705866666667, "fusion_lat": 0.0, "bike_id": "fecc5a8fb5f80f897e03823b3dd54f33", "is_reserved": 0, "lon": -77.00429583333333, "is_disabled": 0, "fusion_lon": 0.0, "rental_uris": {"android": "https://dc.lft.to/lastmile_qr_scan", "ios": "https://dc.lft.to/lastmile_qr_scan"}}, {"type": "electric_scooter", "name": "e99d75a1ecc988536e60d2638880c66b", "lat": 38.86679633333333, "fusion_lat": 0.0, "bike_id": "e99d75a1ecc988536e60d2638880c66b", "is_reserved": 0, "lon": -76.9856375, "is_disabled": 0, "fusion_lon": 0.0, "rental_uris": {"android": "https://dc.lft.to/lastmile_qr_scan", "ios": "https://dc.lft.to/lastmile_qr_scan"}}, {"type": "electric_scooter", "name": "8b37bffb097cebddb284c5f380484625", "lat": 38.9235895, "fusion_lat": 0.0, "bike_id": "8b37bffb097cebddb284c5f380484625", "is_reserved": 0, "lon": -77.05032966666667, "is_disabled": 0, "fusion_lon": 0.0, "rental_uris": {"android": "https://dc.lft.to/lastmile_qr_scan", "ios": "https://dc.lft.to/lastmile_qr_scan"}}, {"type": "electric_scooter", "name": "2bb14ecce6427445e0699be499449764", "lat": 38.89227533333333, "fusion_lat": 0.0, "bike_id": "2bb14ecce6427445e0699be499449764", "is_reserved": 0, "lon": -77.02206816666667, "is_disabled": 0, "fusion_lon": 0.0, "rental_uris": {"android": "https://dc.lft.to/lastmile_qr_scan", "ios": "https://dc.lft.to/lastmile_qr_scan"}}, {"type": "electric_scooter", "name": "25ab89d8c8fcbad4faec83260bd641bc", "lat": 38.87712033333333, "fusion_lat": 0.0, "bike_id": "25ab89d8c8fcbad4faec83260bd641bc", "is_reserved": 0, "lon": -77.00419666666667, "is_disabled": 0, "fusion_lon": 0.0, "rental_uris": {"android": "https://dc.lft.to/lastmile_qr_scan", "ios": "https://dc.lft.to/lastmile_qr_scan"}}, {"type": "electric_scooter", "name": "933f849b54e765a2012c8e51cd628630", "lat": 38.914271166666666, "fusion_lat": 0.0, "bike_id": "933f849b54e765a2012c8e51cd628630", "is_reserved": 0, "lon": -77.03187683333333, "is_disabled": 0, "fusion_lon": 0.0, "rental_uris": {"android": "https://dc.lft.to/lastmile_qr_scan", "ios": "https://dc.lft.to/lastmile_qr_scan"}}, {"type": "electric_scooter", "name": "e40566385e181c0d01e5443354c83cb4", "lat": 38.938621, "fusion_lat": 0.0, "bike_id": "e40566385e181c0d01e5443354c83cb4", "is_reserved": 0, "lon": -77.02785883333334, "is_disabled": 0, "fusion_lon": 0.0, "rental_uris": {"android": "https://dc.lft.to/lastmile_qr_scan", "ios": "https://dc.lft.to/lastmile_qr_scan"}}, {"type": "electric_scooter", "name": "eb634bd58862aa6f6595c9db6111b67c", "lat": 38.88726283333333, "fusion_lat": 0.0, "bike_id": "eb634bd58862aa6f6595c9db6111b67c", "is_reserved": 0, "lon": -77.01383116666666, "is_disabled": 0, "fusion_lon": 0.0, "rental_uris": {"android": "https://dc.lft.to/lastmile_qr_scan", "ios": "https://dc.lft.to/lastmile_qr_scan"}}, {"type": "electric_scooter", "name": "ac76b664c5f513405ae12f8b2931303b", "lat": 38.92057066666667, "fusion_lat": 0.0, "bike_id": "ac76b664c5f513405ae12f8b2931303b", "is_reserved": 0, "lon": -76.981928, "is_disabled": 0, "fusion_lon": 0.0, "rental_uris": {"android": "https://dc.lft.to/lastmile_qr_scan", "ios": "https://dc.lft.to/lastmile_qr_scan"}}, {"type": "electric_scooter", "name": "ec235b8621fd795a642c1810a5c6d122", "lat": 38.9387925, "fusion_lat": 0.0, "bike_id": "ec235b8621fd795a642c1810a5c6d122", "is_reserved": 0, "lon": -77.02485583333333, "is_disabled": 0, "fusion_lon": 0.0, "rental_uris": {"android": "https://dc.lft.to/lastmile_qr_scan", "ios": "https://dc.lft.to/lastmile_qr_scan"}}, {"type": "electric_scooter", "name": "61e5bc08c2c6401db14546a1f43fa533", "lat": 38.9480825, "fusion_lat": 0.0, "bike_id": "61e5bc08c2c6401db14546a1f43fa533", "is_reserved": 0, "lon": -77.0214375, "is_disabled": 0, "fusion_lon": 0.0, "rental_uris": {"android": "https://dc.lft.to/lastmile_qr_scan", "ios": "https://dc.lft.to/lastmile_qr_scan"}}, {"type": "electric_bike", "name": "babb3b51774612814bc51c41856a150d", "lat": 38.97486816666667, "fusion_lat": 0.0, "bike_id": "babb3b51774612814bc51c41856a150d", "is_reserved": 0, "lon": -77.01765616666667, "is_disabled": 0, "fusion_lon": 0.0, "rental_uris": {"android": "https://dc.lft.to/lastmile_qr_scan", "ios": "https://dc.lft.to/lastmile_qr_scan"}}, {"type": "electric_bike", "name": "2481b717f57692222b2cff21a3ecefb5", "lat": 38.936902, "fusion_lat": 0.0, "bike_id": "2481b717f57692222b2cff21a3ecefb5", "is_reserved": 0, "lon": -76.99059066666666, "is_disabled": 0, "fusion_lon": 0.0, "rental_uris": {"android": "https://dc.lft.to/lastmile_qr_scan", "ios": "https://dc.lft.to/lastmile_qr_scan"}}, {"type": "electric_scooter", "name": "db97ed8c15855367b2033429fa454bf0", "lat": 38.892221666666664, "fusion_lat": 0.0, "bike_id": "db97ed8c15855367b2033429fa454bf0", "is_reserved": 0, "lon": -77.02505033333334, "is_disabled": 0, "fusion_lon": 0.0, "rental_uris": {"android": "https://dc.lft.to/lastmile_qr_scan", "ios": "https://dc.lft.to/lastmile_qr_scan"}}, {"type": "electric_bike", "name": "45e7fdbe268967c5a12aef9046a21eaa", "lat": 38.9909795, "fusion_lat": 0.0, "bike_id": "45e7fdbe268967c5a12aef9046a21eaa", "is_reserved": 0, "lon": -76.99363533333333, "is_disabled": 0, "fusion_lon": 0.0, "rental_uris": {"android": "https://dc.lft.to/lastmile_qr_scan", "ios": "https://dc.lft.to/lastmile_qr_scan"}}, {"type": "electric_scooter", "name": "fff8ced3074751e4cb16adb2aa5d1924", "lat": 38.89953933333334, "fusion_lat": 0.0, "bike_id": "fff8ced3074751e4cb16adb2aa5d1924", "is_reserved": 0, "lon": -77.04493666666667, "is_disabled": 0, "fusion_lon": 0.0, "rental_uris": {"android": "https://dc.lft.to/lastmile_qr_scan", "ios": "https://dc.lft.to/lastmile_qr_scan"}}, {"type": "electric_scooter", "name": "733f7d6c7caba396d971d0712b478dc3", "lat": 38.928617333333335, "fusion_lat": 0.0, "bike_id": "733f7d6c7caba396d971d0712b478dc3", "is_reserved": 0, "lon": -77.03495083333334, "is_disabled": 0, "fusion_lon": 0.0, "rental_uris": {"android": "https://dc.lft.to/lastmile_qr_scan", "ios": "https://dc.lft.to/lastmile_qr_scan"}}, {"type": "electric_bike", "name": "2a185213f99065dad78f7975b9de7561", "lat": 38.88400266666667, "fusion_lat": 0.0, "bike_id": "2a185213f99065dad78f7975b9de7561", "is_reserved": 0, "lon": -76.96052583333334, "is_disabled": 0, "fusion_lon": 0.0, "rental_uris": {"android": "https://dc.lft.to/lastmile_qr_scan", "ios": "https://dc.lft.to/lastmile_qr_scan"}}, {"type": "electric_scooter", "name": "e8a0d9a00ff68ccd2bb3c5b6531e951e", "lat": 38.86030366666667, "fusion_lat": 0.0, "bike_id": "e8a0d9a00ff68ccd2bb3c5b6531e951e", "is_reserved": 0, "lon": -76.98372816666667, "is_disabled": 0, "fusion_lon": 0.0, "rental_uris": {"android": "https://dc.lft.to/lastmile_qr_scan", "ios": "https://dc.lft.to/lastmile_qr_scan"}}, {"type": "electric_scooter", "name": "e29afc2d15969f236dceb5240d4e3800", "lat": 38.91568083333333, "fusion_lat": 0.0, "bike_id": "e29afc2d15969f236dceb5240d4e3800", "is_reserved": 0, "lon": -77.0119765, "is_disabled": 0, "fusion_lon": 0.0, "rental_uris": {"android": "https://dc.lft.to/lastmile_qr_scan", "ios": "https://dc.lft.to/lastmile_qr_scan"}}, {"type": "electric_scooter", "name": "b08df54b36d68f2b23c8c095220ddc65", "lat": 38.89819633333333, "fusion_lat": 0.0, "bike_id": "b08df54b36d68f2b23c8c095220ddc65", "is_reserved": 0, "lon": -77.029376, "is_disabled": 0, "fusion_lon": 0.0, "rental_uris": {"android": "https://dc.lft.to/lastmile_qr_scan", "ios": "https://dc.lft.to/lastmile_qr_scan"}}, {"type": "electric_scooter", "name": "7f24c13090580dde95f47adb5b658bac", "lat": 38.902655333333335, "fusion_lat": 0.0, "bike_id": "7f24c13090580dde95f47adb5b658bac", "is_reserved": 0, "lon": -77.03963833333333, "is_disabled": 0, "fusion_lon": 0.0, "rental_uris": {"android": "https://dc.lft.to/lastmile_qr_scan", "ios": "https://dc.lft.to/lastmile_qr_scan"}}, {"type": "electric_scooter", "name": "3954da5cefdf22ecd60a50dc45f9e08f", "lat": 38.89747283333333, "fusion_lat": 0.0, "bike_id": "3954da5cefdf22ecd60a50dc45f9e08f", "is_reserved": 0, "lon": -77.04484683333334, "is_disabled": 0, "fusion_lon": 0.0, "rental_uris": {"android": "https://dc.lft.to/lastmile_qr_scan", "ios": "https://dc.lft.to/lastmile_qr_scan"}}, {"type": "electric_scooter", "name": "e5d2e5e3aea925702ab107b95d10fdb2", "lat": 38.898949, "fusion_lat": 0.0, "bike_id": "e5d2e5e3aea925702ab107b95d10fdb2", "is_reserved": 0, "lon": -77.02204683333333, "is_disabled": 0, "fusion_lon": 0.0, "rental_uris": {"android": "https://dc.lft.to/lastmile_qr_scan", "ios": "https://dc.lft.to/lastmile_qr_scan"}}, {"type": "electric_scooter", "name": "dbc2eb0d471ab6ebd44ac9fbdabf609a", "lat": 38.903657, "fusion_lat": 0.0, "bike_id": "dbc2eb0d471ab6ebd44ac9fbdabf609a", "is_reserved": 0, "lon": -77.02806583333333, "is_disabled": 0, "fusion_lon": 0.0, "rental_uris": {"android": "https://dc.lft.to/lastmile_qr_scan", "ios": "https://dc.lft.to/lastmile_qr_scan"}}, {"type": "electric_scooter", "name": "b4d586d478db04e4f3cacde3ec38f994", "lat": 38.863892, "fusion_lat": 0.0, "bike_id": "b4d586d478db04e4f3cacde3ec38f994", "is_reserved": 0, "lon": -76.99039933333333, "is_disabled": 0, "fusion_lon": 0.0, "rental_uris": {"android": "https://dc.lft.to/lastmile_qr_scan", "ios": "https://dc.lft.to/lastmile_qr_scan"}}, {"type": "electric_scooter", "name": "4f7b25f73e0c49609a14b001916a1a11", "lat": 38.907896666666666, "fusion_lat": 0.0, "bike_id": "4f7b25f73e0c49609a14b001916a1a11", "is_reserved": 0, "lon": -76.99236333333333, "is_disabled": 0, "fusion_lon": 0.0, "rental_uris": {"android": "https://dc.lft.to/lastmile_qr_scan", "ios": "https://dc.lft.to/lastmile_qr_scan"}}, {"type": "electric_bike", "name": "ccce88a930eed8919d1c2b6d39ff5883", "lat": 39.05096316666667, "fusion_lat": 0.0, "bike_id": "ccce88a930eed8919d1c2b6d39ff5883", "is_reserved": 0, "lon": -77.1174955, "is_disabled": 0, "fusion_lon": 0.0, "rental_uris": {"android": "https://dc.lft.to/lastmile_qr_scan", "ios": "https://dc.lft.to/lastmile_qr_scan"}}, {"type": "electric_scooter", "name": "f539ceb88321bbb784f718a216e6f555", "lat": 38.897282, "fusion_lat": 0.0, "bike_id": "f539ceb88321bbb784f718a216e6f555", "is_reserved": 0, "lon": -76.94701133333334, "is_disabled": 0, "fusion_lon": 0.0, "rental_uris": {"android": "https://dc.lft.to/lastmile_qr_scan", "ios": "https://dc.lft.to/lastmile_qr_scan"}}, {"type": "electric_scooter", "name": "b43e6f866783a2700e977e2e8eb45d57", "lat": 38.902829, "fusion_lat": 0.0, "bike_id": "b43e6f866783a2700e977e2e8eb45d57", "is_reserved": 0, "lon": -77.0384895, "is_disabled": 0, "fusion_lon": 0.0, "rental_uris": {"android": "https://dc.lft.to/lastmile_qr_scan", "ios": "https://dc.lft.to/lastmile_qr_scan"}}, {"type": "electric_scooter", "name": "5f4cc11988c38250b581959bface483d", "lat": 38.91004233333334, "fusion_lat": 0.0, "bike_id": "5f4cc11988c38250b581959bface483d", "is_reserved": 0, "lon": -76.99406316666666, "is_disabled": 0, "fusion_lon": 0.0, "rental_uris": {"android": "https://dc.lft.to/lastmile_qr_scan", "ios": "https://dc.lft.to/lastmile_qr_scan"}}, {"type": "electric_scooter", "name": "c1cb1f57d043c2d708f94f62ac3328bd", "lat": 38.90028983333333, "fusion_lat": 0.0, "bike_id": "c1cb1f57d043c2d708f94f62ac3328bd", "is_reserved": 0, "lon": -77.01142383333334, "is_disabled": 0, "fusion_lon": 0.0, "rental_uris": {"android": "https://dc.lft.to/lastmile_qr_scan", "ios": "https://dc.lft.to/lastmile_qr_scan"}}, {"type": "electric_scooter", "name": "478614f1505f46d93f1aaa03aa72f3c4", "lat": 38.916828833333334, "fusion_lat": 0.0, "bike_id": "478614f1505f46d93f1aaa03aa72f3c4", "is_reserved": 0, "lon": -77.03633816666667, "is_disabled": 0, "fusion_lon": 0.0, "rental_uris": {"android": "https://dc.lft.to/lastmile_qr_scan", "ios": "https://dc.lft.to/lastmile_qr_scan"}}, {"type": "electric_bike", "name": "e7b4c169abee0bd47baf5e1d7ea9b2e9", "lat": 38.898347333333334, "fusion_lat": 0.0, "bike_id": "e7b4c169abee0bd47baf5e1d7ea9b2e9", "is_reserved": 0, "lon": -77.04695216666667, "is_disabled": 0, "fusion_lon": 0.0, "rental_uris": {"android": "https://dc.lft.to/lastmile_qr_scan", "ios": "https://dc.lft.to/lastmile_qr_scan"}}, {"type": "electric_scooter", "name": "a4b7b22938d4b515d7d893f9b3919193", "lat": 38.900603833333335, "fusion_lat": 0.0, "bike_id": "a4b7b22938d4b515d7d893f9b3919193", "is_reserved": 0, "lon": -77.04535, "is_disabled": 0, "fusion_lon": 0.0, "rental_uris": {"android": "https://dc.lft.to/lastmile_qr_scan", "ios": "https://dc.lft.to/lastmile_qr_scan"}}, {"type": "electric_scooter", "name": "f3296e9cc9777ee25391522d33c48ba8", "lat": 38.917417, "fusion_lat": 0.0, "bike_id": "f3296e9cc9777ee25391522d33c48ba8", "is_reserved": 0, "lon": -77.03439583333333, "is_disabled": 0, "fusion_lon": 0.0, "rental_uris": {"android": "https://dc.lft.to/lastmile_qr_scan", "ios": "https://dc.lft.to/lastmile_qr_scan"}}, {"type": "electric_scooter", "name": "8392027d7c1283ed88afc575468ecf2d", "lat": 38.8922255, "fusion_lat": 0.0, "bike_id": "8392027d7c1283ed88afc575468ecf2d", "is_reserved": 0, "lon": -77.046908, "is_disabled": 0, "fusion_lon": 0.0, "rental_uris": {"android": "https://dc.lft.to/lastmile_qr_scan", "ios": "https://dc.lft.to/lastmile_qr_scan"}}, {"type": "electric_scooter", "name": "d03196c8d4f929aef91d7b8ea13c2384", "lat": 38.919878833333335, "fusion_lat": 0.0, "bike_id": "d03196c8d4f929aef91d7b8ea13c2384", "is_reserved": 0, "lon": -77.02171566666667, "is_disabled": 0, "fusion_lon": 0.0, "rental_uris": {"android": "https://dc.lft.to/lastmile_qr_scan", "ios": "https://dc.lft.to/lastmile_qr_scan"}}, {"type": "electric_scooter", "name": "bfc111dcdf87fb586a0c4a71cb3f17e8", "lat": 38.89843833333333, "fusion_lat": 0.0, "bike_id": "bfc111dcdf87fb586a0c4a71cb3f17e8", "is_reserved": 0, "lon": -76.94252216666666, "is_disabled": 0, "fusion_lon": 0.0, "rental_uris": {"android": "https://dc.lft.to/lastmile_qr_scan", "ios": "https://dc.lft.to/lastmile_qr_scan"}}, {"type": "electric_scooter", "name": "cc8bed8e329810c9e5cbd8828028be5f", "lat": 38.8868105, "fusion_lat": 0.0, "bike_id": "cc8bed8e329810c9e5cbd8828028be5f", "is_reserved": 0, "lon": -77.00073616666667, "is_disabled": 0, "fusion_lon": 0.0, "rental_uris": {"android": "https://dc.lft.to/lastmile_qr_scan", "ios": "https://dc.lft.to/lastmile_qr_scan"}}, {"type": "electric_scooter", "name": "d16b7fabe226cb7e26eb512ff8754088", "lat": 38.876749833333335, "fusion_lat": 0.0, "bike_id": "d16b7fabe226cb7e26eb512ff8754088", "is_reserved": 0, "lon": -77.00880983333333, "is_disabled": 0, "fusion_lon": 0.0, "rental_uris": {"android": "https://dc.lft.to/lastmile_qr_scan", "ios": "https://dc.lft.to/lastmile_qr_scan"}}, {"type": "electric_scooter", "name": "e1357b5a5b4a1001e95027afc1749727", "lat": 38.896052833333336, "fusion_lat": 0.0, "bike_id": "e1357b5a5b4a1001e95027afc1749727", "is_reserved": 0, "lon": -77.045146, "is_disabled": 0, "fusion_lon": 0.0, "rental_uris": {"android": "https://dc.lft.to/lastmile_qr_scan", "ios": "https://dc.lft.to/lastmile_qr_scan"}}, {"type": "electric_bike", "name": "178bca494f19ea00487d145feeb46d69", "lat": 39.056351, "fusion_lat": 0.0, "bike_id": "178bca494f19ea00487d145feeb46d69", "is_reserved": 0, "lon": -77.12529516666666, "is_disabled": 0, "fusion_lon": 0.0, "rental_uris": {"android": "https://dc.lft.to/lastmile_qr_scan", "ios": "https://dc.lft.to/lastmile_qr_scan"}}, {"type": "electric_scooter", "name": "945cc2eae88f72ee0a525a8e0b33963b", "lat": 38.917727, "fusion_lat": 0.0, "bike_id": "945cc2eae88f72ee0a525a8e0b33963b", "is_reserved": 0, "lon": -77.02299733333334, "is_disabled": 0, "fusion_lon": 0.0, "rental_uris": {"android": "https://dc.lft.to/lastmile_qr_scan", "ios": "https://dc.lft.to/lastmile_qr_scan"}}, {"type": "electric_scooter", "name": "ebfe6b9e858d419f02ad54dd0358312c", "lat": 38.89663783333334, "fusion_lat": 0.0, "bike_id": "ebfe6b9e858d419f02ad54dd0358312c", "is_reserved": 0, "lon": -77.02726683333333, "is_disabled": 0, "fusion_lon": 0.0, "rental_uris": {"android": "https://dc.lft.to/lastmile_qr_scan", "ios": "https://dc.lft.to/lastmile_qr_scan"}}, {"type": "electric_scooter", "name": "a4ac361261e74ea5a03425557f038274", "lat": 38.933757166666666, "fusion_lat": 0.0, "bike_id": "a4ac361261e74ea5a03425557f038274", "is_reserved": 0, "lon": -77.02686416666667, "is_disabled": 0, "fusion_lon": 0.0, "rental_uris": {"android": "https://dc.lft.to/lastmile_qr_scan", "ios": "https://dc.lft.to/lastmile_qr_scan"}}, {"type": "electric_scooter", "name": "def638b2603901c3e5a6679380bedbbc", "lat": 38.89219416666667, "fusion_lat": 0.0, "bike_id": "def638b2603901c3e5a6679380bedbbc", "is_reserved": 0, "lon": -77.043738, "is_disabled": 0, "fusion_lon": 0.0, "rental_uris": {"android": "https://dc.lft.to/lastmile_qr_scan", "ios": "https://dc.lft.to/lastmile_qr_scan"}}, {"type": "electric_scooter", "name": "16c8a436b76fbfd7de138cd3c86345f0", "lat": 38.861390166666666, "fusion_lat": 0.0, "bike_id": "16c8a436b76fbfd7de138cd3c86345f0", "is_reserved": 0, "lon": -76.97171666666667, "is_disabled": 0, "fusion_lon": 0.0, "rental_uris": {"android": "https://dc.lft.to/lastmile_qr_scan", "ios": "https://dc.lft.to/lastmile_qr_scan"}}, {"type": "electric_scooter", "name": "fe2ecc8bdc02e1e8b3534d9077949552", "lat": 38.898663166666665, "fusion_lat": 0.0, "bike_id": "fe2ecc8bdc02e1e8b3534d9077949552", "is_reserved": 0, "lon": -77.02836283333333, "is_disabled": 0, "fusion_lon": 0.0, "rental_uris": {"android": "https://dc.lft.to/lastmile_qr_scan", "ios": "https://dc.lft.to/lastmile_qr_scan"}}, {"type": "electric_scooter", "name": "37168ac859fcb4733a726ba56c6bb6e9", "lat": 38.92828266666667, "fusion_lat": 0.0, "bike_id": "37168ac859fcb4733a726ba56c6bb6e9", "is_reserved": 0, "lon": -77.03270333333333, "is_disabled": 0, "fusion_lon": 0.0, "rental_uris": {"android": "https://dc.lft.to/lastmile_qr_scan", "ios": "https://dc.lft.to/lastmile_qr_scan"}}, {"type": "electric_scooter", "name": "316e4964b2c3ee6a4ea6280b46e829f7", "lat": 38.91251466666667, "fusion_lat": 0.0, "bike_id": "316e4964b2c3ee6a4ea6280b46e829f7", "is_reserved": 0, "lon": -77.022205, "is_disabled": 0, "fusion_lon": 0.0, "rental_uris": {"android": "https://dc.lft.to/lastmile_qr_scan", "ios": "https://dc.lft.to/lastmile_qr_scan"}}, {"type": "electric_scooter", "name": "25c88a57dce98f91eb4bd56483b75647", "lat": 38.898577833333334, "fusion_lat": 0.0, "bike_id": "25c88a57dce98f91eb4bd56483b75647", "is_reserved": 0, "lon": -76.94643716666667, "is_disabled": 0, "fusion_lon": 0.0, "rental_uris": {"android": "https://dc.lft.to/lastmile_qr_scan", "ios": "https://dc.lft.to/lastmile_qr_scan"}}, {"type": "electric_scooter", "name": "4aee4aa9e0c8c6b0e8bde9fc5df6bb4b", "lat": 38.925093833333335, "fusion_lat": 0.0, "bike_id": "4aee4aa9e0c8c6b0e8bde9fc5df6bb4b", "is_reserved": 0, "lon": -77.00226083333334, "is_disabled": 0, "fusion_lon": 0.0, "rental_uris": {"android": "https://dc.lft.to/lastmile_qr_scan", "ios": "https://dc.lft.to/lastmile_qr_scan"}}, {"type": "electric_scooter", "name": "4a1d3fd3937239978761dbd82980917a", "lat": 38.93106866666667, "fusion_lat": 0.0, "bike_id": "4a1d3fd3937239978761dbd82980917a", "is_reserved": 0, "lon": -77.02980383333333, "is_disabled": 0, "fusion_lon": 0.0, "rental_uris": {"android": "https://dc.lft.to/lastmile_qr_scan", "ios": "https://dc.lft.to/lastmile_qr_scan"}}, {"type": "electric_scooter", "name": "b1f80b02d853612b6f8d1500ac839a3e", "lat": 38.92415483333333, "fusion_lat": 0.0, "bike_id": "b1f80b02d853612b6f8d1500ac839a3e", "is_reserved": 0, "lon": -77.05752866666667, "is_disabled": 0, "fusion_lon": 0.0, "rental_uris": {"android": "https://dc.lft.to/lastmile_qr_scan", "ios": "https://dc.lft.to/lastmile_qr_scan"}}, {"type": "electric_scooter", "name": "b86097ceb6cda5796a799278ad571429", "lat": 38.923627833333335, "fusion_lat": 0.0, "bike_id": "b86097ceb6cda5796a799278ad571429", "is_reserved": 0, "lon": -77.05031116666666, "is_disabled": 0, "fusion_lon": 0.0, "rental_uris": {"android": "https://dc.lft.to/lastmile_qr_scan", "ios": "https://dc.lft.to/lastmile_qr_scan"}}, {"type": "electric_scooter", "name": "94cf098841554e7e7fffdc95d2beef8d", "lat": 38.905707, "fusion_lat": 0.0, "bike_id": "94cf098841554e7e7fffdc95d2beef8d", "is_reserved": 0, "lon": -77.034475, "is_disabled": 0, "fusion_lon": 0.0, "rental_uris": {"android": "https://dc.lft.to/lastmile_qr_scan", "ios": "https://dc.lft.to/lastmile_qr_scan"}}, {"type": "electric_scooter", "name": "aa050532f063ac15a98acdd874832b43", "lat": 38.92739866666667, "fusion_lat": 0.0, "bike_id": "aa050532f063ac15a98acdd874832b43", "is_reserved": 0, "lon": -77.03632416666666, "is_disabled": 0, "fusion_lon": 0.0, "rental_uris": {"android": "https://dc.lft.to/lastmile_qr_scan", "ios": "https://dc.lft.to/lastmile_qr_scan"}}, {"type": "electric_scooter", "name": "2bde416e3f81e1ee92eb1d85739c643c", "lat": 38.95369566666667, "fusion_lat": 0.0, "bike_id": "2bde416e3f81e1ee92eb1d85739c643c", "is_reserved": 0, "lon": -76.99840483333334, "is_disabled": 0, "fusion_lon": 0.0, "rental_uris": {"android": "https://dc.lft.to/lastmile_qr_scan", "ios": "https://dc.lft.to/lastmile_qr_scan"}}, {"type": "electric_scooter", "name": "8882ca9a6bc26e6c486beed0082bcea9", "lat": 38.879008666666664, "fusion_lat": 0.0, "bike_id": "8882ca9a6bc26e6c486beed0082bcea9", "is_reserved": 0, "lon": -77.0219775, "is_disabled": 0, "fusion_lon": 0.0, "rental_uris": {"android": "https://dc.lft.to/lastmile_qr_scan", "ios": "https://dc.lft.to/lastmile_qr_scan"}}, {"type": "electric_scooter", "name": "fb982010ae690cb8231ce803a8b5ef84", "lat": 38.896603, "fusion_lat": 0.0, "bike_id": "fb982010ae690cb8231ce803a8b5ef84", "is_reserved": 0, "lon": -77.026046, "is_disabled": 0, "fusion_lon": 0.0, "rental_uris": {"android": "https://dc.lft.to/lastmile_qr_scan", "ios": "https://dc.lft.to/lastmile_qr_scan"}}, {"type": "electric_scooter", "name": "daa9c9f9747e15b4f37dc963e7eaf956", "lat": 38.899531333333336, "fusion_lat": 0.0, "bike_id": "daa9c9f9747e15b4f37dc963e7eaf956", "is_reserved": 0, "lon": -77.0210245, "is_disabled": 0, "fusion_lon": 0.0, "rental_uris": {"android": "https://dc.lft.to/lastmile_qr_scan", "ios": "https://dc.lft.to/lastmile_qr_scan"}}, {"type": "electric_scooter", "name": "3e1af4c40fd18cc8bfd6a60960f47f45", "lat": 38.90673316666667, "fusion_lat": 0.0, "bike_id": "3e1af4c40fd18cc8bfd6a60960f47f45", "is_reserved": 0, "lon": -77.02713583333333, "is_disabled": 0, "fusion_lon": 0.0, "rental_uris": {"android": "https://dc.lft.to/lastmile_qr_scan", "ios": "https://dc.lft.to/lastmile_qr_scan"}}, {"type": "electric_scooter", "name": "c81e6865c0a0aa39d39b564e2e93d798", "lat": 38.9010785, "fusion_lat": 0.0, "bike_id": "c81e6865c0a0aa39d39b564e2e93d798", "is_reserved": 0, "lon": -77.01676716666667, "is_disabled": 0, "fusion_lon": 0.0, "rental_uris": {"android": "https://dc.lft.to/lastmile_qr_scan", "ios": "https://dc.lft.to/lastmile_qr_scan"}}, {"type": "electric_scooter", "name": "ef970e744eafe8e0b968824ea3112894", "lat": 38.903112, "fusion_lat": 0.0, "bike_id": "ef970e744eafe8e0b968824ea3112894", "is_reserved": 0, "lon": -77.05912583333334, "is_disabled": 0, "fusion_lon": 0.0, "rental_uris": {"android": "https://dc.lft.to/lastmile_qr_scan", "ios": "https://dc.lft.to/lastmile_qr_scan"}}, {"type": "electric_scooter", "name": "87002281caeb644c0f1f895afc86edfb", "lat": 38.8863655, "fusion_lat": 0.0, "bike_id": "87002281caeb644c0f1f895afc86edfb", "is_reserved": 0, "lon": -77.01549933333334, "is_disabled": 0, "fusion_lon": 0.0, "rental_uris": {"android": "https://dc.lft.to/lastmile_qr_scan", "ios": "https://dc.lft.to/lastmile_qr_scan"}}, {"type": "electric_scooter", "name": "0b87061360fdeb2130460107c34eefbd", "lat": 38.9211045, "fusion_lat": 0.0, "bike_id": "0b87061360fdeb2130460107c34eefbd", "is_reserved": 0, "lon": -77.0208775, "is_disabled": 0, "fusion_lon": 0.0, "rental_uris": {"android": "https://dc.lft.to/lastmile_qr_scan", "ios": "https://dc.lft.to/lastmile_qr_scan"}}, {"type": "electric_scooter", "name": "2991d674469761c49af6e6b97c799b11", "lat": 38.899799, "fusion_lat": 0.0, "bike_id": "2991d674469761c49af6e6b97c799b11", "is_reserved": 0, "lon": -76.9824265, "is_disabled": 0, "fusion_lon": 0.0, "rental_uris": {"android": "https://dc.lft.to/lastmile_qr_scan", "ios": "https://dc.lft.to/lastmile_qr_scan"}}, {"type": "electric_scooter", "name": "d4cdb3f23854bd8bd5e86d389e220849", "lat": 38.902721166666666, "fusion_lat": 0.0, "bike_id": "d4cdb3f23854bd8bd5e86d389e220849", "is_reserved": 0, "lon": -77.03946816666667, "is_disabled": 0, "fusion_lon": 0.0, "rental_uris": {"android": "https://dc.lft.to/lastmile_qr_scan", "ios": "https://dc.lft.to/lastmile_qr_scan"}}, {"type": "electric_bike", "name": "1ea2b4b4d541c84d38089220152540f5", "lat": 38.938782833333335, "fusion_lat": 0.0, "bike_id": "1ea2b4b4d541c84d38089220152540f5", "is_reserved": 0, "lon": -76.990301, "is_disabled": 0, "fusion_lon": 0.0, "rental_uris": {"android": "https://dc.lft.to/lastmile_qr_scan", "ios": "https://dc.lft.to/lastmile_qr_scan"}}, {"type": "electric_scooter", "name": "1a2b99c324e7e60e0565f219d8122466", "lat": 38.922967166666666, "fusion_lat": 0.0, "bike_id": "1a2b99c324e7e60e0565f219d8122466", "is_reserved": 0, "lon": -77.02713066666666, "is_disabled": 0, "fusion_lon": 0.0, "rental_uris": {"android": "https://dc.lft.to/lastmile_qr_scan", "ios": "https://dc.lft.to/lastmile_qr_scan"}}, {"type": "electric_bike", "name": "58b608fb4549eaa4e3abb425fcfb2692", "lat": 38.887125833333336, "fusion_lat": 0.0, "bike_id": "58b608fb4549eaa4e3abb425fcfb2692", "is_reserved": 0, "lon": -77.13303583333334, "is_disabled": 0, "fusion_lon": 0.0, "rental_uris": {"android": "https://dc.lft.to/lastmile_qr_scan", "ios": "https://dc.lft.to/lastmile_qr_scan"}}, {"type": "electric_scooter", "name": "4ed2df1ac05a2523a0cee6673a0c3b87", "lat": 38.8925995, "fusion_lat": 0.0, "bike_id": "4ed2df1ac05a2523a0cee6673a0c3b87", "is_reserved": 0, "lon": -77.0034415, "is_disabled": 0, "fusion_lon": 0.0, "rental_uris": {"android": "https://dc.lft.to/lastmile_qr_scan", "ios": "https://dc.lft.to/lastmile_qr_scan"}}, {"type": "electric_scooter", "name": "58c57e2ccdc22a1121d41918b6b8cf73", "lat": 38.92838, "fusion_lat": 0.0, "bike_id": "58c57e2ccdc22a1121d41918b6b8cf73", "is_reserved": 0, "lon": -77.0140375, "is_disabled": 0, "fusion_lon": 0.0, "rental_uris": {"android": "https://dc.lft.to/lastmile_qr_scan", "ios": "https://dc.lft.to/lastmile_qr_scan"}}, {"type": "electric_scooter", "name": "d9983442ca86ddc75139a70f6ffacbf9", "lat": 38.91657433333334, "fusion_lat": 0.0, "bike_id": "d9983442ca86ddc75139a70f6ffacbf9", "is_reserved": 0, "lon": -77.022761, "is_disabled": 0, "fusion_lon": 0.0, "rental_uris": {"android": "https://dc.lft.to/lastmile_qr_scan", "ios": "https://dc.lft.to/lastmile_qr_scan"}}, {"type": "electric_scooter", "name": "d2572aaa8a9e36b262565a5665fa84e6", "lat": 38.93566583333333, "fusion_lat": 0.0, "bike_id": "d2572aaa8a9e36b262565a5665fa84e6", "is_reserved": 0, "lon": -77.03264033333333, "is_disabled": 0, "fusion_lon": 0.0, "rental_uris": {"android": "https://dc.lft.to/lastmile_qr_scan", "ios": "https://dc.lft.to/lastmile_qr_scan"}}, {"type": "electric_scooter", "name": "6c9aa3669945a5f0cb990badc9a6ce16", "lat": 38.8728495, "fusion_lat": 0.0, "bike_id": "6c9aa3669945a5f0cb990badc9a6ce16", "is_reserved": 0, "lon": -77.00988333333333, "is_disabled": 0, "fusion_lon": 0.0, "rental_uris": {"android": "https://dc.lft.to/lastmile_qr_scan", "ios": "https://dc.lft.to/lastmile_qr_scan"}}, {"type": "electric_scooter", "name": "63460cc9a83db8ec1519cc91b19ac0a1", "lat": 38.898532833333334, "fusion_lat": 0.0, "bike_id": "63460cc9a83db8ec1519cc91b19ac0a1", "is_reserved": 0, "lon": -77.03181616666667, "is_disabled": 0, "fusion_lon": 0.0, "rental_uris": {"android": "https://dc.lft.to/lastmile_qr_scan", "ios": "https://dc.lft.to/lastmile_qr_scan"}}, {"type": "electric_scooter", "name": "bf51e174997bb2cb728646b3d5efd18f", "lat": 38.931306666666664, "fusion_lat": 0.0, "bike_id": "bf51e174997bb2cb728646b3d5efd18f", "is_reserved": 0, "lon": -77.04338866666667, "is_disabled": 0, "fusion_lon": 0.0, "rental_uris": {"android": "https://dc.lft.to/lastmile_qr_scan", "ios": "https://dc.lft.to/lastmile_qr_scan"}}, {"type": "electric_scooter", "name": "aacaf16487f052b7faccb9529897619e", "lat": 38.938779, "fusion_lat": 0.0, "bike_id": "aacaf16487f052b7faccb9529897619e", "is_reserved": 0, "lon": -77.02482816666667, "is_disabled": 0, "fusion_lon": 0.0, "rental_uris": {"android": "https://dc.lft.to/lastmile_qr_scan", "ios": "https://dc.lft.to/lastmile_qr_scan"}}, {"type": "electric_scooter", "name": "a6ae0d341f74f885f179cf45601ff186", "lat": 38.90330016666667, "fusion_lat": 0.0, "bike_id": "a6ae0d341f74f885f179cf45601ff186", "is_reserved": 0, "lon": -76.97578483333334, "is_disabled": 0, "fusion_lon": 0.0, "rental_uris": {"android": "https://dc.lft.to/lastmile_qr_scan", "ios": "https://dc.lft.to/lastmile_qr_scan"}}, {"type": "electric_scooter", "name": "c8836fcc37f8b1e80b6e505a5aefd35f", "lat": 38.92765816666667, "fusion_lat": 0.0, "bike_id": "c8836fcc37f8b1e80b6e505a5aefd35f", "is_reserved": 0, "lon": -77.02738083333334, "is_disabled": 0, "fusion_lon": 0.0, "rental_uris": {"android": "https://dc.lft.to/lastmile_qr_scan", "ios": "https://dc.lft.to/lastmile_qr_scan"}}, {"type": "electric_scooter", "name": "8ac1eb94580da04e97949747c46df2ba", "lat": 38.88362633333333, "fusion_lat": 0.0, "bike_id": "8ac1eb94580da04e97949747c46df2ba", "is_reserved": 0, "lon": -76.9289395, "is_disabled": 0, "fusion_lon": 0.0, "rental_uris": {"android": "https://dc.lft.to/lastmile_qr_scan", "ios": "https://dc.lft.to/lastmile_qr_scan"}}, {"type": "electric_bike", "name": "a125f5f3c858789a2a4b1ca3345f6cd6", "lat": 38.84345783333333, "fusion_lat": 0.0, "bike_id": "a125f5f3c858789a2a4b1ca3345f6cd6", "is_reserved": 0, "lon": -77.06400666666667, "is_disabled": 0, "fusion_lon": 0.0, "rental_uris": {"android": "https://dc.lft.to/lastmile_qr_scan", "ios": "https://dc.lft.to/lastmile_qr_scan"}}, {"type": "electric_scooter", "name": "83b2032dbd3d78d0b4a7a105993ff829", "lat": 38.90138016666667, "fusion_lat": 0.0, "bike_id": "83b2032dbd3d78d0b4a7a105993ff829", "is_reserved": 0, "lon": -77.0007285, "is_disabled": 0, "fusion_lon": 0.0, "rental_uris": {"android": "https://dc.lft.to/lastmile_qr_scan", "ios": "https://dc.lft.to/lastmile_qr_scan"}}, {"type": "electric_scooter", "name": "ea8b0a93418f57bfbd28174340e58b85", "lat": 38.92132766666667, "fusion_lat": 0.0, "bike_id": "ea8b0a93418f57bfbd28174340e58b85", "is_reserved": 0, "lon": -77.01913466666667, "is_disabled": 0, "fusion_lon": 0.0, "rental_uris": {"android": "https://dc.lft.to/lastmile_qr_scan", "ios": "https://dc.lft.to/lastmile_qr_scan"}}, {"type": "electric_scooter", "name": "0e61bb4d1059a3a01b5906186bb42c18", "lat": 38.9360255, "fusion_lat": 0.0, "bike_id": "0e61bb4d1059a3a01b5906186bb42c18", "is_reserved": 0, "lon": -77.03791666666666, "is_disabled": 0, "fusion_lon": 0.0, "rental_uris": {"android": "https://dc.lft.to/lastmile_qr_scan", "ios": "https://dc.lft.to/lastmile_qr_scan"}}, {"type": "electric_scooter", "name": "dea02866836bb03d44c42ed7b6b2d7da", "lat": 38.904309833333336, "fusion_lat": 0.0, "bike_id": "dea02866836bb03d44c42ed7b6b2d7da", "is_reserved": 0, "lon": -77.04376683333334, "is_disabled": 0, "fusion_lon": 0.0, "rental_uris": {"android": "https://dc.lft.to/lastmile_qr_scan", "ios": "https://dc.lft.to/lastmile_qr_scan"}}, {"type": "electric_scooter", "name": "2e5d8901652c38f9a6fe6f9ed7361cd0", "lat": 38.92284683333333, "fusion_lat": 0.0, "bike_id": "2e5d8901652c38f9a6fe6f9ed7361cd0", "is_reserved": 0, "lon": -76.99772233333333, "is_disabled": 0, "fusion_lon": 0.0, "rental_uris": {"android": "https://dc.lft.to/lastmile_qr_scan", "ios": "https://dc.lft.to/lastmile_qr_scan"}}, {"type": "electric_scooter", "name": "95fb3ef65bff40973473463f683a0eda", "lat": 38.9260955, "fusion_lat": 0.0, "bike_id": "95fb3ef65bff40973473463f683a0eda", "is_reserved": 0, "lon": -77.02162383333334, "is_disabled": 0, "fusion_lon": 0.0, "rental_uris": {"android": "https://dc.lft.to/lastmile_qr_scan", "ios": "https://dc.lft.to/lastmile_qr_scan"}}, {"type": "electric_scooter", "name": "fb74a4aea477222b8a5ef0df40c52ac6", "lat": 38.9013885, "fusion_lat": 0.0, "bike_id": "fb74a4aea477222b8a5ef0df40c52ac6", "is_reserved": 0, "lon": -76.99800716666667, "is_disabled": 0, "fusion_lon": 0.0, "rental_uris": {"android": "https://dc.lft.to/lastmile_qr_scan", "ios": "https://dc.lft.to/lastmile_qr_scan"}}, {"type": "electric_scooter", "name": "1039957ede198cb84b5965252001bf8f", "lat": 38.88599283333333, "fusion_lat": 0.0, "bike_id": "1039957ede198cb84b5965252001bf8f", "is_reserved": 0, "lon": -76.95592616666667, "is_disabled": 0, "fusion_lon": 0.0, "rental_uris": {"android": "https://dc.lft.to/lastmile_qr_scan", "ios": "https://dc.lft.to/lastmile_qr_scan"}}, {"type": "electric_scooter", "name": "07ca30f2e11138da766c8e8a547d103d", "lat": 38.90292816666667, "fusion_lat": 0.0, "bike_id": "07ca30f2e11138da766c8e8a547d103d", "is_reserved": 0, "lon": -77.0226835, "is_disabled": 0, "fusion_lon": 0.0, "rental_uris": {"android": "https://dc.lft.to/lastmile_qr_scan", "ios": "https://dc.lft.to/lastmile_qr_scan"}}, {"type": "electric_scooter", "name": "4c6816cbceeb79a43d462e8917c3b146", "lat": 38.89218433333333, "fusion_lat": 0.0, "bike_id": "4c6816cbceeb79a43d462e8917c3b146", "is_reserved": 0, "lon": -77.04691516666666, "is_disabled": 0, "fusion_lon": 0.0, "rental_uris": {"android": "https://dc.lft.to/lastmile_qr_scan", "ios": "https://dc.lft.to/lastmile_qr_scan"}}, {"type": "electric_scooter", "name": "e2fc5aba129b35dc51761df5f83bfb18", "lat": 38.881893166666664, "fusion_lat": 0.0, "bike_id": "e2fc5aba129b35dc51761df5f83bfb18", "is_reserved": 0, "lon": -76.95887683333333, "is_disabled": 0, "fusion_lon": 0.0, "rental_uris": {"android": "https://dc.lft.to/lastmile_qr_scan", "ios": "https://dc.lft.to/lastmile_qr_scan"}}, {"type": "electric_scooter", "name": "07e8b16d880f5b9c8f69cc253f55bfdb", "lat": 38.94853883333333, "fusion_lat": 0.0, "bike_id": "07e8b16d880f5b9c8f69cc253f55bfdb", "is_reserved": 0, "lon": -77.027141, "is_disabled": 0, "fusion_lon": 0.0, "rental_uris": {"android": "https://dc.lft.to/lastmile_qr_scan", "ios": "https://dc.lft.to/lastmile_qr_scan"}}, {"type": "electric_scooter", "name": "bebfae5e96178e0d93daeed03ede1771", "lat": 38.8625765, "fusion_lat": 0.0, "bike_id": "bebfae5e96178e0d93daeed03ede1771", "is_reserved": 0, "lon": -76.99267733333333, "is_disabled": 0, "fusion_lon": 0.0, "rental_uris": {"android": "https://dc.lft.to/lastmile_qr_scan", "ios": "https://dc.lft.to/lastmile_qr_scan"}}, {"type": "electric_scooter", "name": "d0eb2a8ddc00c482bbad8e5c2a24b95b", "lat": 38.897067666666665, "fusion_lat": 0.0, "bike_id": "d0eb2a8ddc00c482bbad8e5c2a24b95b", "is_reserved": 0, "lon": -77.0266735, "is_disabled": 0, "fusion_lon": 0.0, "rental_uris": {"android": "https://dc.lft.to/lastmile_qr_scan", "ios": "https://dc.lft.to/lastmile_qr_scan"}},