{"data": {"bikes": [{"bike_id": "4c0540bc018efb3f6e430b9b6b6cfef7", "fusion_lon": 0.0, "name": "4c0540bc018efb3f6e430b9b6b6cfef7", "lat": 38.92074616666667, "is_disabled": 0, "is_reserved": 0, "lon": -76.99536183333333, "type": "electric_scooter", "fusion_lat": 0.0, "rental_uris": {"android": "https://dc.lft.to/lastmile_qr_scan", "ios": "https://dc.lft.to/lastmile_qr_scan"}}, {"bike_id": "9e0e8b570482014add5d049cee38472b", "fusion_lon": 0.0, "name": "9e0e8b570482014add5d049cee38472b", "lat": 38.9188555, "is_disabled": 0, "is_reserved": 0, "lon": -77.0349545, "type": "electric_scooter", "fusion_lat": 0.0, "rental_uris": {"android": "https://dc.lft.to/lastmile_qr_scan", "ios": "https://dc.lft.to/lastmile_qr_scan"}}, {"bike_id": "056f3d4ef1ee8407d2799513a293841d", "fusion_lon": 0.0, "name": "056f3d4ef1ee8407d2799513a293841d", "lat": 38.86639616666667, "is_disabled": 0, "is_reserved": 0, "lon": -76.98299366666667, "type": "electric_scooter", "fusion_lat": 0.0, "rental_uris": {"android": "https://dc.lft.to/lastmile_qr_scan", "ios": "https://dc.lft.to/lastmile_qr_scan"}}, {"bike_id": "41fe5f4a8ccf6f11bb633b3c0604955a", "fusion_lon": 0.0, "name": "41fe5f4a8ccf6f11bb633b3c0604955a", "lat": 38.9037, "is_disabled": 0, "is_reserved": 0, "lon": -77.04197933333333, "type": "electric_scooter", "fusion_lat": 0.0, "rental_uris": {"android": "https://dc.lft.to/lastmile_qr_scan", "ios": "https://dc.lft.to/lastmile_qr_scan"}}, {"bike_id": "98291bba4be2c4b9f19496d8ac1d1ed4", "fusion_lon": 0.0, "name": "98291bba4be2c4b9f19496d8ac1d1ed4", "lat": 38.8565185, "is_disabled": 0, "is_reserved": 0, "lon": -77.085272, "type": "electric_bike", "fusion_lat": 0.0, "rental_uris": {"android": "https://dc.lft.to/lastmile_qr_scan", "ios": "https://dc.lft.to/lastmile_qr_scan"}}, {"bike_id": "70ead0c900f8906dcfecdfdc829d971d", "fusion_lon": 0.0, "name": "70ead0c900f8906dcfecdfdc829d971d", "lat": 38.90020466666667, "is_disabled": 0, "is_reserved": 0, "lon": -77.00217466666666, "type": "electric_scooter", "fusion_lat": 0.0, "rental_uris": {"android": "https://dc.lft.to/lastmile_qr_scan", "ios": "https://dc.lft.to/lastmile_qr_scan"}}, {"bike_id": "c10d7445c257bd7c4eab0bed636c1a9e", "fusion_lon": 0.0, "name": "c10d7445c257bd7c4eab0bed636c1a9e", "lat": 38.893487666666665, "is_disabled": 0, "is_reserved": 0, "lon": -77.02803083333333, "type": "electric_scooter", "fusion_lat": 0.0, "rental_uris": {"android": "https://dc.lft.to/lastmile_qr_scan", "ios": "https://dc.lft.to/lastmile_qr_scan"}}, {"bike_id": "c03d8446763b3e1d63931e3518df6804", "fusion_lon": 0.0, "name": "c03d8446763b3e1d63931e3518df6804", "lat": 38.90900516666667, "is_disabled": 0, "is_reserved": 0, "lon": -77.04389383333333, "type": "electric_scooter", "fusion_lat": 0.0, "rental_uris": {"android": "https://dc.lft.to/lastmile_qr_scan", "ios": "https://dc.lft.to/lastmile_qr_scan"}}, {"bike_id": "4f0c1729556f8a981364696938e642c1", "fusion_lon": 0.0, "name": "4f0c1729556f8a981364696938e642c1", "lat": 38.930375166666664, "is_disabled": 0, "is_reserved": 0, "lon": -77.03286233333333, "type": "electric_scooter", "fusion_lat": 0.0, "rental_uris": {"android": "https://dc.lft.to/lastmile_qr_scan", "ios": "https://dc.lft.to/lastmile_qr_scan"}}, {"bike_id": "cca73a151f45fc9831f77fa63bfcd340", "fusion_lon": 0.0, "name": "cca73a151f45fc9831f77fa63bfcd340", "lat": 38.915902333333335, "is_disabled": 0, "is_reserved": 0, "lon": -77.023139, "type": "electric_scooter", "fusion_lat": 0.0, "rental_uris": {"android": "https://dc.lft.to/lastmile_qr_scan", "ios": "https://dc.lft.to/lastmile_qr_scan"}}, {"bike_id": "d9f970c4f32600090ab2d33d2268735f", "fusion_lon": 0.0, "name": "d9f970c4f32600090ab2d33d2268735f", "lat": 38.888097333333334, "is_disabled": 0, "is_reserved": 0, "lon": -76.98360766666667, "type": "electric_scooter", "fusion_lat": 0.0, "rental_uris": {"android": "https://dc.lft.to/lastmile_qr_scan", "ios": "https://dc.lft.to/lastmile_qr_scan"}}, {"bike_id": "8d2ac2d221457f37814894fb5c23b13b", "fusion_lon": 0.0, "name": "8d2ac2d221457f37814894fb5c23b13b", "lat": 38.91964816666667, "is_disabled": 0, "is_reserved": 0, "lon": -77.0182835, "type": "electric_scooter", "fusion_lat": 0.0, "rental_uris": {"android": "https://dc.lft.to/lastmile_qr_scan", "ios": "https://dc.lft.to/lastmile_qr_scan"}}, {"bike_id": "f7aea2721c071e2f6f4f59c2cd314a8b", "fusion_lon": 0.0, "name": "f7aea2721c071e2f6f4f59c2cd314a8b", "lat": 38.90663833333333, "is_disabled": 0, "is_reserved": 0, "lon": -77.04704066666666, "type": "electric_scooter", "fusion_lat": 0.0, "rental_uris": {"android": "https://dc.lft.to/lastmile_qr_scan", "ios": "https://dc.lft.to/lastmile_qr_scan"}}, {"bike_id": "25e9acc5444dbaff8b23e3f7ebbe9474", "fusion_lon": 0.0, "name": "25e9acc5444dbaff8b23e3f7ebbe9474", "lat": 38.878982, "is_disabled": 0, "is_reserved": 0, "lon": -77.013599, "type": "electric_scooter", "fusion_lat": 0.0, "rental_uris": {"android": "https://dc.lft.to/lastmile_qr_scan", "ios": "https://dc.lft.to/lastmile_qr_scan"}}, {"bike_id": "2dbfa3dc31ae07a89e9a9f5cfd475409", "fusion_lon": 0.0, "name": "2dbfa3dc31ae07a89e9a9f5cfd475409", "lat": 38.92997183333333, "is_disabled": 0, "is_reserved": 0, "lon": -77.03266216666667, "type": "electric_scooter", "fusion_lat": 0.0, "rental_uris": {"android": "https://dc.lft.to/lastmile_qr_scan", "ios": "https://dc.lft.to/lastmile_qr_scan"}}, {"bike_id": "a3c8dbe9015fc870af5f0d31ccf5e979", "fusion_lon": 0.0, "name": "a3c8dbe9015fc870af5f0d31ccf5e979", "lat": 38.97533133333334, "is_disabled": 0, "is_reserved": 0, "lon": -77.01456616666667, "type": "electric_scooter", "fusion_lat": 0.0, "rental_uris": {"android": "https://dc.lft.to/lastmile_qr_scan", "ios": "https://dc.lft.to/lastmile_qr_scan"}}, {"bike_id": "0156a99a5d9bfc8679977ca7963aa747", "fusion_lon": 0.0, "name": "0156a99a5d9bfc8679977ca7963aa747", "lat": 38.89707716666667, "is_disabled": 0, "is_reserved": 0, "lon": -77.00816766666667, "type": "electric_scooter", "fusion_lat": 0.0, "rental_uris": {"android": "https://dc.lft.to/lastmile_qr_scan", "ios": "https://dc.lft.to/lastmile_qr_scan"}}, {"bike_id": "e31e8fcc45ea6e4445d3ccbaeafaa74c", "fusion_lon": 0.0, "name": "e31e8fcc45ea6e4445d3ccbaeafaa74c", "lat": 38.902583666666665, "is_disabled": 0, "is_reserved": 0, "lon": -77.0389085, "type": "electric_scooter", "fusion_lat": 0.0, "rental_uris": {"android": "https://dc.lft.to/lastmile_qr_scan", "ios": "https://dc.lft.to/lastmile_qr_scan"}}, {"bike_id": "93b59f691ce2aeef1aa981b22ab0706b", "fusion_lon": 0.0, "name": "93b59f691ce2aeef1aa981b22ab0706b", "lat": 38.929756166666664, "is_disabled": 0, "is_reserved": 0, "lon": -77.03103183333333, "type": "electric_scooter", "fusion_lat": 0.0, "rental_uris": {"android": "https://dc.lft.to/lastmile_qr_scan", "ios": "https://dc.lft.to/lastmile_qr_scan"}}, {"bike_id": "5c3c1382c629ebdeefd5e3f047bdaba2", "fusion_lon": 0.0, "name": "5c3c1382c629ebdeefd5e3f047bdaba2", "lat": 38.91389933333333, "is_disabled": 0, "is_reserved": 0, "lon": -77.03654483333334, "type": "electric_scooter", "fusion_lat": 0.0, "rental_uris": {"android": "https://dc.lft.to/lastmile_qr_scan", "ios": "https://dc.lft.to/lastmile_qr_scan"}}, {"bike_id": "dda37423fe8fd6dbe83385aeb0f12db2", "fusion_lon": 0.0, "name": "dda37423fe8fd6dbe83385aeb0f12db2", "lat": 38.883953166666664, "is_disabled": 0, "is_reserved": 0, "lon": -76.9304815, "type": "electric_scooter", "fusion_lat": 0.0, "rental_uris": {"android": "https://dc.lft.to/lastmile_qr_scan", "ios": "https://dc.lft.to/lastmile_qr_scan"}}, {"bike_id": "a80e76f7c9100ba69d97c40d4e149d31", "fusion_lon": 0.0, "name": "a80e76f7c9100ba69d97c40d4e149d31", "lat": 38.892360833333335, "is_disabled": 0, "is_reserved": 0, "lon": -77.021812, "type": "electric_scooter", "fusion_lat": 0.0, "rental_uris": {"android": "https://dc.lft.to/lastmile_qr_scan", "ios": "https://dc.lft.to/lastmile_qr_scan"}}, {"bike_id": "3a38510421ddcd923858c6da9541f8bb", "fusion_lon": 0.0, "name": "3a38510421ddcd923858c6da9541f8bb", "lat": 38.92318083333333, "is_disabled": 0, "is_reserved": 0, "lon": -77.0439845, "type": "electric_scooter", "fusion_lat": 0.0, "rental_uris": {"android": "https://dc.lft.to/lastmile_qr_scan", "ios": "https://dc.lft.to/lastmile_qr_scan"}}, {"bike_id": "bc30fc62d563c0a94453ab656773722c", "fusion_lon": 0.0, "name": "bc30fc62d563c0a94453ab656773722c", "lat": 38.949057, "is_disabled": 0, "is_reserved": 0, "lon": -76.963726, "type": "electric_bike", "fusion_lat": 0.0, "rental_uris": {"android": "https://dc.lft.to/lastmile_qr_scan", "ios": "https://dc.lft.to/lastmile_qr_scan"}}, {"bike_id": "734b5a952de509f9dfbd0fc44e6addfe", "fusion_lon": 0.0, "name": "734b5a952de509f9dfbd0fc44e6addfe", "lat": 38.9305745, "is_disabled": 0, "is_reserved": 0, "lon": -77.02319433333334, "type": "electric_scooter", "fusion_lat": 0.0, "rental_uris": {"android": "https://dc.lft.to/lastmile_qr_scan", "ios": "https://dc.lft.to/lastmile_qr_scan"}}, {"bike_id": "3284a0db49bc7817400c2ae3071fd725", "fusion_lon": 0.0, "name": "3284a0db49bc7817400c2ae3071fd725", "lat": 38.94088683333333, "is_disabled": 0, "is_reserved": 0, "lon": -77.06180633333334, "type": "electric_scooter", "fusion_lat": 0.0, "rental_uris": {"android": "https://dc.lft.to/lastmile_qr_scan", "ios": "https://dc.lft.to/lastmile_qr_scan"}}, {"bike_id": "d71e34dfc43edb3529a35026b46ffac0", "fusion_lon": 0.0, "name": "d71e34dfc43edb3529a35026b46ffac0", "lat": 38.916936666666665, "is_disabled": 0, "is_reserved": 0, "lon": -77.02821633333333, "type": "electric_scooter", "fusion_lat": 0.0, "rental_uris": {"android": "https://dc.lft.to/lastmile_qr_scan", "ios": "https://dc.lft.to/lastmile_qr_scan"}}, {"bike_id": "7f77da150b7a4202b8252c469036e269", "fusion_lon": 0.0, "name": "7f77da150b7a4202b8252c469036e269", "lat": 38.917047, "is_disabled": 0, "is_reserved": 0, "lon": -77.0304345, "type": "electric_scooter", "fusion_lat": 0.0, "rental_uris": {"android": "https://dc.lft.to/lastmile_qr_scan", "ios": "https://dc.lft.to/lastmile_qr_scan"}}, {"bike_id": "7ba8da8d599fc395502517ca0ecf0541", "fusion_lon": 0.0, "name": "7ba8da8d599fc395502517ca0ecf0541", "lat": 38.900113833333336, "is_disabled": 0, "is_reserved": 0, "lon": -77.00662666666666, "type": "electric_scooter", "fusion_lat": 0.0, "rental_uris": {"android": "https://dc.lft.to/lastmile_qr_scan", "ios": "https://dc.lft.to/lastmile_qr_scan"}}, {"bike_id": "532b52d44bf520b59c8a4f5a03116bbf", "fusion_lon": 0.0, "name": "532b52d44bf520b59c8a4f5a03116bbf", "lat": 38.885332, "is_disabled": 0, "is_reserved": 0, "lon": -77.01510266666666, "type": "electric_scooter", "fusion_lat": 0.0, "rental_uris": {"android": "https://dc.lft.to/lastmile_qr_scan", "ios": "https://dc.lft.to/lastmile_qr_scan"}}, {"bike_id": "2d3f7c2f0f14b203cf5187a66e04b116", "fusion_lon": 0.0, "name": "2d3f7c2f0f14b203cf5187a66e04b116", "lat": 38.923969, "is_disabled": 0, "is_reserved": 0, "lon": -77.04296116666667, "type": "electric_scooter", "fusion_lat": 0.0, "rental_uris": {"android": "https://dc.lft.to/lastmile_qr_scan", "ios": "https://dc.lft.to/lastmile_qr_scan"}}, {"bike_id": "1e8f862dc5e2f860d43734042fefec0c", "fusion_lon": 0.0, "name": "1e8f862dc5e2f860d43734042fefec0c", "lat": 38.9212495, "is_disabled": 0, "is_reserved": 0, "lon": -77.03659333333333, "type": "electric_scooter", "fusion_lat": 0.0, "rental_uris": {"android": "https://dc.lft.to/lastmile_qr_scan", "ios": "https://dc.lft.to/lastmile_qr_scan"}}, {"bike_id": "af96cd084bcabd49589fa77f0f3b06cb", "fusion_lon": 0.0, "name": "af96cd084bcabd49589fa77f0f3b06cb", "lat": 38.92151616666666, "is_disabled": 0, "is_reserved": 0, "lon": -77.03381683333333, "type": "electric_scooter", "fusion_lat": 0.0, "rental_uris": {"android": "https://dc.lft.to/lastmile_qr_scan", "ios": "https://dc.lft.to/lastmile_qr_scan"}}, {"bike_id": "17864f63e1cb332d4058b64fa23ab1dc", "fusion_lon": 0.0, "name": "17864f63e1cb332d4058b64fa23ab1dc", "lat": 38.91687266666667, "is_disabled": 0, "is_reserved": 0, "lon": -77.02949016666666, "type": "electric_scooter", "fusion_lat": 0.0, "rental_uris": {"android": "https://dc.lft.to/lastmile_qr_scan", "ios": "https://dc.lft.to/lastmile_qr_scan"}}, {"bike_id": "04204906b6880d19ecc9c612c7512c53", "fusion_lon": 0.0, "name": "04204906b6880d19ecc9c612c7512c53", "lat": 38.8970525, "is_disabled": 0, "is_reserved": 0, "lon": -77.01311016666666, "type": "electric_scooter", "fusion_lat": 0.0, "rental_uris": {"android": "https://dc.lft.to/lastmile_qr_scan", "ios": "https://dc.lft.to/lastmile_qr_scan"}}, {"bike_id": "1608d99e3d7f8cb936a7e54d388f4f2a", "fusion_lon": 0.0, "name": "1608d99e3d7f8cb936a7e54d388f4f2a", "lat": 38.913312166666664, "is_disabled": 0, "is_reserved": 0, "lon": -77.031698, "type": "electric_scooter", "fusion_lat": 0.0, "rental_uris": {"android": "https://dc.lft.to/lastmile_qr_scan", "ios": "https://dc.lft.to/lastmile_qr_scan"}}, {"bike_id": "c0ad8571969850c81ed8dbb3e8a4ea18", "fusion_lon": 0.0, "name": "c0ad8571969850c81ed8dbb3e8a4ea18", "lat": 38.904251, "is_disabled": 0, "is_reserved": 0, "lon": -76.94972083333333, "type": "electric_scooter", "fusion_lat": 0.0, "rental_uris": {"android": "https://dc.lft.to/lastmile_qr_scan", "ios": "https://dc.lft.to/lastmile_qr_scan"}}, {"bike_id": "911c556af720e344bacbce5f4ebc41af", "fusion_lon": 0.0, "name": "911c556af720e344bacbce5f4ebc41af", "lat": 38.91734866666667, "is_disabled": 0, "is_reserved": 0, "lon": -77.03195, "type": "electric_scooter", "fusion_lat": 0.0, "rental_uris": {"android": "https://dc.lft.to/lastmile_qr_scan", "ios": "https://dc.lft.to/lastmile_qr_scan"}}, {"bike_id": "79bf1c1956cdbce6c7740ed543cbddbd", "fusion_lon": 0.0, "name": "79bf1c1956cdbce6c7740ed543cbddbd", "lat": 38.914855833333334, "is_disabled": 0, "is_reserved": 0, "lon": -77.022997, "type": "electric_scooter", "fusion_lat": 0.0, "rental_uris": {"android": "https://dc.lft.to/lastmile_qr_scan", "ios": "https://dc.lft.to/lastmile_qr_scan"}}, {"bike_id": "bbee2ad4eda9531b6b91e7c42c3e249f", "fusion_lon": 0.0, "name": "bbee2ad4eda9531b6b91e7c42c3e249f", "lat": 38.915624666666666, "is_disabled": 0, "is_reserved": 0, "lon": -77.03252533333334, "type": "electric_scooter", "fusion_lat": 0.0, "rental_uris": {"android": "https://dc.lft.to/lastmile_qr_scan", "ios": "https://dc.lft.to/lastmile_qr_scan"}}, {"bike_id": "85114e12b2d6330536157eb5c3e63a42", "fusion_lon": 0.0, "name": "85114e12b2d6330536157eb5c3e63a42", "lat": 38.856027166666664, "is_disabled": 0, "is_reserved": 0, "lon": -76.97263183333334, "type": "electric_scooter", "fusion_lat": 0.0, "rental_uris": {"android": "https://dc.lft.to/lastmile_qr_scan", "ios": "https://dc.lft.to/lastmile_qr_scan"}}, {"bike_id": "cc86da8dd11770764a0dadbb3e2a63a8", "fusion_lon": 0.0, "name": "cc86da8dd11770764a0dadbb3e2a63a8", "lat": 38.89251633333333, "is_disabled": 0, "is_reserved": 0, "lon": -77.04651133333333, "type": "electric_scooter", "fusion_lat": 0.0, "rental_uris": {"android": "https://dc.lft.to/lastmile_qr_scan", "ios": "https://dc.lft.to/lastmile_qr_scan"}}, {"bike_id": "a92b86ef5597a19c46c3b0ec6b388dfb", "fusion_lon": 0.0, "name": "a92b86ef5597a19c46c3b0ec6b388dfb", "lat": 38.8924135, "is_disabled": 0, "is_reserved": 0, "lon": -77.04875533333333, "type": "electric_scooter", "fusion_lat": 0.0, "rental_uris": {"android": "https://dc.lft.to/lastmile_qr_scan", "ios": "https://dc.lft.to/lastmile_qr_scan"}}, {"bike_id": "24a089d67d6c4a82f3e0d9c18042bddf", "fusion_lon": 0.0, "name": "24a089d67d6c4a82f3e0d9c18042bddf", "lat": 38.9051575, "is_disabled": 0, "is_reserved": 0, "lon": -77.05149233333333, "type": "electric_scooter", "fusion_lat": 0.0, "rental_uris": {"android": "https://dc.lft.to/lastmile_qr_scan", "ios": "https://dc.lft.to/lastmile_qr_scan"}}, {"bike_id": "2c274f0b1eebc584d194f0210cade1ec", "fusion_lon": 0.0, "name": "2c274f0b1eebc584d194f0210cade1ec", "lat": 38.90179066666666, "is_disabled": 0, "is_reserved": 0, "lon": -77.04756833333333, "type": "electric_scooter", "fusion_lat": 0.0, "rental_uris": {"android": "https://dc.lft.to/lastmile_qr_scan", "ios": "https://dc.lft.to/lastmile_qr_scan"}}, {"bike_id": "b77f1594903cb1c006c9c70d7ca67693", "fusion_lon": 0.0, "name": "b77f1594903cb1c006c9c70d7ca67693", "lat": 38.9014425, "is_disabled": 0, "is_reserved": 0, "lon": -77.03481066666667, "type": "electric_scooter", "fusion_lat": 0.0, "rental_uris": {"android": "https://dc.lft.to/lastmile_qr_scan", "ios": "https://dc.lft.to/lastmile_qr_scan"}}, {"bike_id": "0cdf5c5a5029d82311fd2fe075325487", "fusion_lon": 0.0, "name": "0cdf5c5a5029d82311fd2fe075325487", "lat": 38.83158816666667, "is_disabled": 0, "is_reserved": 0, "lon": -76.9954335, "type": "electric_bike", "fusion_lat": 0.0, "rental_uris": {"android": "https://dc.lft.to/lastmile_qr_scan", "ios": "https://dc.lft.to/lastmile_qr_scan"}}, {"bike_id": "c6255ac7378e152a96b352001f4780da", "fusion_lon": 0.0, "name": "c6255ac7378e152a96b352001f4780da", "lat": 38.89224983333333, "is_disabled": 0, "is_reserved": 0, "lon": -77.03145033333334, "type": "electric_scooter", "fusion_lat": 0.0, "rental_uris": {"android": "https://dc.lft.to/lastmile_qr_scan", "ios": "https://dc.lft.to/lastmile_qr_scan"}}, {"bike_id": "bd03844602f4bc382812a1cc20e80ffb", "fusion_lon": 0.0, "name": "bd03844602f4bc382812a1cc20e80ffb", "lat": 38.93866333333333, "is_disabled": 0, "is_reserved": 0, "lon": -77.02556116666666, "type": "electric_scooter", "fusion_lat": 0.0, "rental_uris": {"android": "https://dc.lft.to/lastmile_qr_scan", "ios": "https://dc.lft.to/lastmile_qr_scan"}}, {"bike_id": "092eacc72a9ba79be6edabae06d3c799", "fusion_lon": 0.0, "name": "092eacc72a9ba79be6edabae06d3c799", "lat": 38.905495333333334, "is_disabled": 0, "is_reserved": 0, "lon": -77.005818, "type": "electric_scooter", "fusion_lat": 0.0, "rental_uris": {"android": "https://dc.lft.to/lastmile_qr_scan", "ios": "https://dc.lft.to/lastmile_qr_scan"}}, {"bike_id": "5db3aad956778f72c35abc1bb4215f68", "fusion_lon": 0.0, "name": "5db3aad956778f72c35abc1bb4215f68", "lat": 38.9003375, "is_disabled": 0, "is_reserved": 0, "lon": -76.97222116666667, "type": "electric_bike", "fusion_lat": 0.0, "rental_uris": {"android": "https://dc.lft.to/lastmile_qr_scan", "ios": "https://dc.lft.to/lastmile_qr_scan"}}, {"bike_id": "438d2b30a1ee49f34c3886336a30bdfc", "fusion_lon": 0.0, "name": "438d2b30a1ee49f34c3886336a30bdfc", "lat": 38.877108166666666, "is_disabled": 0, "is_reserved": 0, "lon": -77.00431933333333, "type": "electric_scooter", "fusion_lat": 0.0, "rental_uris": {"android": "https://dc.lft.to/lastmile_qr_scan", "ios": "https://dc.lft.to/lastmile_qr_scan"}}, {"bike_id": "7296bc89ab5dd61c63f6fe727dc79c2e", "fusion_lon": 0.0, "name": "7296bc89ab5dd61c63f6fe727dc79c2e", "lat": 38.90958766666667, "is_disabled": 0, "is_reserved": 0, "lon": -77.04295016666667, "type": "electric_scooter", "fusion_lat": 0.0, "rental_uris": {"android": "https://dc.lft.to/lastmile_qr_scan", "ios": "https://dc.lft.to/lastmile_qr_scan"}}, {"bike_id": "5da43e4ae78e6eb19b474ec59bce2348", "fusion_lon": 0.0, "name": "5da43e4ae78e6eb19b474ec59bce2348", "lat": 38.90571166666667, "is_disabled": 0, "is_reserved": 0, "lon": -77.043642, "type": "electric_scooter", "fusion_lat": 0.0, "rental_uris": {"android": "https://dc.lft.to/lastmile_qr_scan", "ios": "https://dc.lft.to/lastmile_qr_scan"}}, {"bike_id": "9d62d9d03c81230b4908920e88dae84c", "fusion_lon": 0.0, "name": "9d62d9d03c81230b4908920e88dae84c", "lat": 38.922554166666664, "is_disabled": 0, "is_reserved": 0, "lon": -77.009174, "type": "electric_scooter", "fusion_lat": 0.0, "rental_uris": {"android": "https://dc.lft.to/lastmile_qr_scan", "ios": "https://dc.lft.to/lastmile_qr_scan"}}, {"bike_id": "0bfdc648ab6a04417d50c08f34fe8746", "fusion_lon": 0.0, "name": "0bfdc648ab6a04417d50c08f34fe8746", "lat": 38.91447933333333, "is_disabled": 0, "is_reserved": 0, "lon": -76.98821483333333, "type": "electric_scooter", "fusion_lat": 0.0, "rental_uris": {"android": "https://dc.lft.to/lastmile_qr_scan", "ios": "https://dc.lft.to/lastmile_qr_scan"}}, {"bike_id": "bf002d1e128fd56f0b1b01686ce85af5", "fusion_lon": 0.0, "name": "bf002d1e128fd56f0b1b01686ce85af5", "lat": 38.8565405, "is_disabled": 0, "is_reserved": 0, "lon": -76.99667183333334, "type": "electric_scooter", "fusion_lat": 0.0, "rental_uris": {"android": "https://dc.lft.to/lastmile_qr_scan", "ios": "https://dc.lft.to/lastmile_qr_scan"}}, {"bike_id": "5aba26fa070c25173cf4636afabcce66", "fusion_lon": 0.0, "name": "5aba26fa070c25173cf4636afabcce66", "lat": 38.902112333333335, "is_disabled": 0, "is_reserved": 0, "lon": -77.02230683333333, "type": "electric_scooter", "fusion_lat": 0.0, "rental_uris": {"android": "https://dc.lft.to/lastmile_qr_scan", "ios": "https://dc.lft.to/lastmile_qr_scan"}}, {"bike_id": "2c19f2741c642b50874449dc98519063", "fusion_lon": 0.0, "name": "2c19f2741c642b50874449dc98519063", "lat": 38.89817166666667, "is_disabled": 0, "is_reserved": 0, "lon": -77.01208916666667, "type": "electric_scooter", "fusion_lat": 0.0, "rental_uris": {"android": "https://dc.lft.to/lastmile_qr_scan", "ios": "https://dc.lft.to/lastmile_qr_scan"}}, {"bike_id": "c59a97f1a93ce08ebd7a1d3f6a37fe27", "fusion_lon": 0.0, "name": "c59a97f1a93ce08ebd7a1d3f6a37fe27", "lat": 38.92646116666667, "is_disabled": 0, "is_reserved": 0, "lon": -77.03317916666667, "type": "electric_scooter", "fusion_lat": 0.0, "rental_uris": {"android": "https://dc.lft.to/lastmile_qr_scan", "ios": "https://dc.lft.to/lastmile_qr_scan"}}, {"bike_id": "e71809c78548d23403d53c30c6776155", "fusion_lon": 0.0, "name": "e71809c78548d23403d53c30c6776155", "lat": 38.957456666666666, "is_disabled": 0, "is_reserved": 0, "lon": -77.002302, "type": "electric_scooter", "fusion_lat": 0.0, "rental_uris": {"android": "https://dc.lft.to/lastmile_qr_scan", "ios": "https://dc.lft.to/lastmile_qr_scan"}}, {"bike_id": "9b7736db800471613954430c9762d0ee", "fusion_lon": 0.0, "name": "9b7736db800471613954430c9762d0ee", "lat": 38.897277833333334, "is_disabled": 0, "is_reserved": 0, "lon": -77.00374033333334, "type": "electric_scooter", "fusion_lat": 0.0, "rental_uris": {"android": "https://dc.lft.to/lastmile_qr_scan", "ios": "https://dc.lft.to/lastmile_qr_scan"}}, {"bike_id": "7de43c05cee847532828caf5fcac862a", "fusion_lon": 0.0, "name": "7de43c05cee847532828caf5fcac862a", "lat": 38.956338, "is_disabled": 0, "is_reserved": 0, "lon": -76.995323, "type": "electric_scooter", "fusion_lat": 0.0, "rental_uris": {"android": "https://dc.lft.to/lastmile_qr_scan", "ios": "https://dc.lft.to/lastmile_qr_scan"}}, {"bike_id": "84a9b52ed7e4dce1e7244886c5e9b77c", "fusion_lon": 0.0, "name": "84a9b52ed7e4dce1e7244886c5e9b77c", "lat": 38.91826483333333, "is_disabled": 0, "is_reserved": 0, "lon": -77.01213266666667, "type": "electric_scooter", "fusion_lat": 0.0, "rental_uris": {"android": "https://dc.lft.to/lastmile_qr_scan", "ios": "https://dc.lft.to/lastmile_qr_scan"}}, {"bike_id": "b1306974d889150404c24abdff08d3f1", "fusion_lon": 0.0, "name": "b1306974d889150404c24abdff08d3f1", "lat": 38.9612895, "is_disabled": 0, "is_reserved": 0, "lon": -77.02784383333334, "type": "electric_scooter", "fusion_lat": 0.0, "rental_uris": {"android": "https://dc.lft.to/lastmile_qr_scan", "ios": "https://dc.lft.to/lastmile_qr_scan"}}, {"bike_id": "d748456d6fd692f854f2996fc325c136", "fusion_lon": 0.0, "name": "d748456d6fd692f854f2996fc325c136", "lat": 38.924529166666666, "is_disabled": 0, "is_reserved": 0, "lon": -77.03319883333333, "type": "electric_scooter", "fusion_lat": 0.0, "rental_uris": {"android": "https://dc.lft.to/lastmile_qr_scan", "ios": "https://dc.lft.to/lastmile_qr_scan"}}, {"bike_id": "5215a98090ab68560d7c4d981fb72e4b", "fusion_lon": 0.0, "name": "5215a98090ab68560d7c4d981fb72e4b", "lat": 38.9312585, "is_disabled": 0, "is_reserved": 0, "lon": -77.03877833333334, "type": "electric_scooter", "fusion_lat": 0.0, "rental_uris": {"android": "https://dc.lft.to/lastmile_qr_scan", "ios": "https://dc.lft.to/lastmile_qr_scan"}}, {"bike_id": "00d46d8baa11a5bbab0819c730ee4965", "fusion_lon": 0.0, "name": "00d46d8baa11a5bbab0819c730ee4965", "lat": 38.917730666666664, "is_disabled": 0, "is_reserved": 0, "lon": -77.02313116666667, "type": "electric_scooter", "fusion_lat": 0.0, "rental_uris": {"android": "https://dc.lft.to/lastmile_qr_scan", "ios": "https://dc.lft.to/lastmile_qr_scan"}}, {"bike_id": "5f58d39aeb80688cdf782267b44c08c7", "fusion_lon": 0.0, "name": "5f58d39aeb80688cdf782267b44c08c7", "lat": 38.918636166666666, "is_disabled": 0, "is_reserved": 0, "lon": -77.04071616666667, "type": "electric_scooter", "fusion_lat": 0.0, "rental_uris": {"android": "https://dc.lft.to/lastmile_qr_scan", "ios": "https://dc.lft.to/lastmile_qr_scan"}}, {"bike_id": "5c5033b83d4530391f0f9b38b98bdb71", "fusion_lon": 0.0, "name": "5c5033b83d4530391f0f9b38b98bdb71", "lat": 38.909840833333334, "is_disabled": 0, "is_reserved": 0, "lon": -77.02862383333333, "type": "electric_scooter", "fusion_lat": 0.0, "rental_uris": {"android": "https://dc.lft.to/lastmile_qr_scan", "ios": "https://dc.lft.to/lastmile_qr_scan"}}, {"bike_id": "13b72f8eb1f42c878ce0961335d053c3", "fusion_lon": 0.0, "name": "13b72f8eb1f42c878ce0961335d053c3", "lat": 38.891217, "is_disabled": 0, "is_reserved": 0, "lon": -76.93846633333334, "type": "electric_scooter", "fusion_lat": 0.0, "rental_uris": {"android": "https://dc.lft.to/lastmile_qr_scan", "ios": "https://dc.lft.to/lastmile_qr_scan"}}, {"bike_id": "ebed3948043e1ff90307ef3fa6f12806", "fusion_lon": 0.0, "name": "ebed3948043e1ff90307ef3fa6f12806", "lat": 38.887122, "is_disabled": 0, "is_reserved": 0, "lon": -77.022011, "type": "electric_scooter", "fusion_lat": 0.0, "rental_uris": {"android": "https://dc.lft.to/lastmile_qr_scan", "ios": "https://dc.lft.to/lastmile_qr_scan"}}, {"bike_id": "cbc3de9c047ddd385169b8f10e256520", "fusion_lon": 0.0, "name": "cbc3de9c047ddd385169b8f10e256520", "lat": 38.88735166666667, "is_disabled": 0, "is_reserved": 0, "lon": -77.02211633333333, "type": "electric_scooter", "fusion_lat": 0.0, "rental_uris": {"android": "https://dc.lft.to/lastmile_qr_scan", "ios": "https://dc.lft.to/lastmile_qr_scan"}}, {"bike_id": "216b3207b5cdf56488c918f9f8e0627f", "fusion_lon": 0.0, "name": "216b3207b5cdf56488c918f9f8e0627f", "lat": 38.945279166666666, "is_disabled": 0, "is_reserved": 0, "lon": -77.02271483333334, "type": "electric_scooter", "fusion_lat": 0.0, "rental_uris": {"android": "https://dc.lft.to/lastmile_qr_scan", "ios": "https://dc.lft.to/lastmile_qr_scan"}}, {"bike_id": "943c43b9a9695587ef6023d40e6050dd", "fusion_lon": 0.0, "name": "943c43b9a9695587ef6023d40e6050dd", "lat": 38.90713916666667, "is_disabled": 0, "is_reserved": 0, "lon": -77.03356433333333, "type": "electric_scooter", "fusion_lat": 0.0, "rental_uris": {"android": "https://dc.lft.to/lastmile_qr_scan", "ios": "https://dc.lft.to/lastmile_qr_scan"}}, {"bike_id": "b7c02e21ac8703ff2d375e2fbf8490b4", "fusion_lon": 0.0, "name": "b7c02e21ac8703ff2d375e2fbf8490b4", "lat": 38.907248333333335, "is_disabled": 0, "is_reserved": 0, "lon": -77.00702866666667, "type": "electric_scooter", "fusion_lat": 0.0, "rental_uris": {"android": "https://dc.lft.to/lastmile_qr_scan", "ios": "https://dc.lft.to/lastmile_qr_scan"}}, {"bike_id": "145ecf43bd71fa0afc20f6be535d3d5d", "fusion_lon": 0.0, "name": "145ecf43bd71fa0afc20f6be535d3d5d", "lat": 38.912228999999996, "is_disabled": 0, "is_reserved": 0, "lon": -77.03649066666667, "type": "electric_scooter", "fusion_lat": 0.0, "rental_uris": {"android": "https://dc.lft.to/lastmile_qr_scan", "ios": "https://dc.lft.to/lastmile_qr_scan"}}, {"bike_id": "14327c0e1768aaef45de1b12c18a2926", "fusion_lon": 0.0, "name": "14327c0e1768aaef45de1b12c18a2926", "lat": 38.907490833333334, "is_disabled": 0, "is_reserved": 0, "lon": -76.998478, "type": "electric_scooter", "fusion_lat": 0.0, "rental_uris": {"android": "https://dc.lft.to/lastmile_qr_scan", "ios": "https://dc.lft.to/lastmile_qr_scan"}}, {"bike_id": "ebf3bf6dba8be9fff8853ece8a930e78", "fusion_lon": 0.0, "name": "ebf3bf6dba8be9fff8853ece8a930e78", "lat": 38.913381666666666, "is_disabled": 0, "is_reserved": 0, "lon": -77.048629, "type": "electric_scooter", "fusion_lat": 0.0, "rental_uris": {"android": "https://dc.lft.to/lastmile_qr_scan", "ios": "https://dc.lft.to/lastmile_qr_scan"}}, {"bike_id": "dc8abb1423962d4f9fc4f3757339f4d8", "fusion_lon": 0.0, "name": "dc8abb1423962d4f9fc4f3757339f4d8", "lat": 38.93051166666667, "is_disabled": 0, "is_reserved": 0, "lon": -77.0326825, "type": "electric_scooter", "fusion_lat": 0.0, "rental_uris": {"android": "https://dc.lft.to/lastmile_qr_scan", "ios": "https://dc.lft.to/lastmile_qr_scan"}}, {"bike_id": "60f885241299f1f5192576d42a5a1cf1", "fusion_lon": 0.0, "name": "60f885241299f1f5192576d42a5a1cf1", "lat": 38.90027966666667, "is_disabled": 0, "is_reserved": 0, "lon": -76.97398716666666, "type": "electric_scooter", "fusion_lat": 0.0, "rental_uris": {"android": "https://dc.lft.to/lastmile_qr_scan", "ios": "https://dc.lft.to/lastmile_qr_scan"}}, {"bike_id": "0f6d8c5bae56297da1a278df503c10fa", "fusion_lon": 0.0, "name": "0f6d8c5bae56297da1a278df503c10fa", "lat": 38.9037845, "is_disabled": 0, "is_reserved": 0, "lon": -77.05057816666667, "type": "electric_scooter", "fusion_lat": 0.0, "rental_uris": {"android": "https://dc.lft.to/lastmile_qr_scan", "ios": "https://dc.lft.to/lastmile_qr_scan"}}, {"bike_id": "910e14c9a6fd6790e4335d17411a6695", "fusion_lon": 0.0, "name": "910e14c9a6fd6790e4335d17411a6695", "lat": 38.86626033333334, "is_disabled": 0, "is_reserved": 0, "lon": -76.9871585, "type": "electric_scooter", "fusion_lat": 0.0, "rental_uris": {"android": "https://dc.lft.to/lastmile_qr_scan", "ios": "https://dc.lft.to/lastmile_qr_scan"}}, {"bike_id": "74135df31c67f2e82afea315d1580592", "fusion_lon": 0.0, "name": "74135df31c67f2e82afea315d1580592", "lat": 38.899691833333335, "is_disabled": 0, "is_reserved": 0, "lon": -77.0465135, "type": "electric_scooter", "fusion_lat": 0.0, "rental_uris": {"android": "https://dc.lft.to/lastmile_qr_scan", "ios": "https://dc.lft.to/lastmile_qr_scan"}}, {"bike_id": "a10ccc13fce7d239e2b2ff1e71bdbfdc", "fusion_lon": 0.0, "name": "a10ccc13fce7d239e2b2ff1e71bdbfdc", "lat": 38.892218166666666, "is_disabled": 0, "is_reserved": 0, "lon": -77.04687083333333, "type": "electric_scooter", "fusion_lat": 0.0, "rental_uris": {"android": "https://dc.lft.to/lastmile_qr_scan", "ios": "https://dc.lft.to/lastmile_qr_scan"}}, {"bike_id": "7448b330e42f37390fefa256b105f4ab", "fusion_lon": 0.0, "name": "7448b330e42f37390fefa256b105f4ab", "lat": 38.931419, "is_disabled": 0, "is_reserved": 0, "lon": -77.078407, "type": "electric_scooter", "fusion_lat": 0.0, "rental_uris": {"android": "https://dc.lft.to/lastmile_qr_scan", "ios": "https://dc.lft.to/lastmile_qr_scan"}}, {"bike_id": "8a678e040babd333b7d8dbf947e8b7ee", "fusion_lon": 0.0, "name": "8a678e040babd333b7d8dbf947e8b7ee", "lat": 38.88010533333333, "is_disabled": 0, "is_reserved": 0, "lon": -77.0248015, "type": "electric_scooter", "fusion_lat": 0.0, "rental_uris": {"android": "https://dc.lft.to/lastmile_qr_scan", "ios": "https://dc.lft.to/lastmile_qr_scan"}}, {"bike_id": "fd271bd7d78c41293e3bcee2ca311edb", "fusion_lon": 0.0, "name": "fd271bd7d78c41293e3bcee2ca311edb", "lat": 38.94448516666667, "is_disabled": 0, "is_reserved": 0, "lon": -77.02342033333333, "type": "electric_scooter", "fusion_lat": 0.0, "rental_uris": {"android": "https://dc.lft.to/lastmile_qr_scan", "ios": "https://dc.lft.to/lastmile_qr_scan"}}, {"bike_id": "12cb6e3a4376fab3ff00b8d7df4a5445", "fusion_lon": 0.0, "name": "12cb6e3a4376fab3ff00b8d7df4a5445", "lat": 38.907211, "is_disabled": 0, "is_reserved": 0, "lon": -77.0250615, "type": "electric_scooter", "fusion_lat": 0.0, "rental_uris": {"android": "https://dc.lft.to/lastmile_qr_scan", "ios": "https://dc.lft.to/lastmile_qr_scan"}}, {"bike_id": "83e5bda3624a8da3bee5e180df056833", "fusion_lon": 0.0, "name": "83e5bda3624a8da3bee5e180df056833", "lat": 38.87675983333333, "is_disabled": 0, "is_reserved": 0, "lon": -77.00410216666667, "type": "electric_scooter", "fusion_lat": 0.0, "rental_uris": {"android": "https://dc.lft.to/lastmile_qr_scan", "ios": "https://dc.lft.to/lastmile_qr_scan"}}, {"bike_id": "c1ca1411bb697ee26ea2321e2b0682fb", "fusion_lon": 0.0, "name": "c1ca1411bb697ee26ea2321e2b0682fb", "lat": 38.9192735, "is_disabled": 0, "is_reserved": 0, "lon": -77.00982533333334, "type": "electric_scooter", "fusion_lat": 0.0, "rental_uris": {"android": "https://dc.lft.to/lastmile_qr_scan", "ios": "https://dc.lft.to/lastmile_qr_scan"}}, {"bike_id": "86684bf61914ad4758df7ca3c68527f5", "fusion_lon": 0.0, "name": "86684bf61914ad4758df7ca3c68527f5", "lat": 38.87492133333333, "is_disabled": 0, "is_reserved": 0, "lon": -77.000487, "type": "electric_scooter", "fusion_lat": 0.0, "rental_uris": {"android": "https://dc.lft.to/lastmile_qr_scan", "ios": "https://dc.lft.to/lastmile_qr_scan"}}, {"bike_id": "91c283b6dd0cf5fb626f281be062e02e", "fusion_lon": 0.0, "name": "91c283b6dd0cf5fb626f281be062e02e", "lat": 38.8874355, "is_disabled": 0, "is_reserved": 0, "lon": -77.0284195, "type": "electric_scooter", "fusion_lat": 0.0, "rental_uris": {"android": "https://dc.lft.to/lastmile_qr_scan", "ios": "https://dc.lft.to/lastmile_qr_scan"}}, {"bike_id": "d7da8196b34d341f72b1745724b70e71", "fusion_lon": 0.0, "name": "d7da8196b34d341f72b1745724b70e71", "lat": 38.956308666666665, "is_disabled": 0, "is_reserved": 0, "lon": -77.09130916666666, "type": "electric_scooter", "fusion_lat": 0.0, "rental_uris": {"android": "https://dc.lft.to/lastmile_qr_scan", "ios": "https://dc.lft.to/lastmile_qr_scan"}}, {"bike_id": "6670012e2ab9078f0d8e3cfb629717a8", "fusion_lon": 0.0, "name": "6670012e2ab9078f0d8e3cfb629717a8", "lat": 38.864524833333334, "is_disabled": 0, "is_reserved": 0, "lon": -77.10684133333334, "type": "electric_bike", "fusion_lat": 0.0, "rental_uris": {"android": "https://dc.lft.to/lastmile_qr_scan", "ios": "https://dc.lft.to/lastmile_qr_scan"}}, {"bike_id": "7635443629c91da4789a509394a47beb", "fusion_lon": 0.0, "name": "7635443629c91da4789a509394a47beb", "lat": 38.906312, "is_disabled": 0, "is_reserved": 0, "lon": -77.01018, "type": "electric_scooter", "fusion_lat": 0.0, "rental_uris": {"android": "https://dc.lft.to/lastmile_qr_scan", "ios": "https://dc.lft.to/lastmile_qr_scan"}}, {"bike_id": "faaf6282ac48187b3184c26a24351a74", "fusion_lon": 0.0, "name": "faaf6282ac48187b3184c26a24351a74", "lat": 38.89729766666667, "is_disabled": 0, "is_reserved": 0, "lon": -77.0498755, "type": "electric_scooter", "fusion_lat": 0.0, "rental_uris": {"android": "https://dc.lft.to/lastmile_qr_scan", "ios": "https://dc.lft.to/lastmile_qr_scan"}}, {"bike_id": "6da87cc29e804450be9e7ab9c0d734a0", "fusion_lon": 0.0, "name": "6da87cc29e804450be9e7ab9c0d734a0", "lat": 38.90378166666667, "is_disabled": 0, "is_reserved": 0, "lon": -77.044454, "type": "electric_scooter", "fusion_lat": 0.0, "rental_uris": {"android": "https://dc.lft.to/lastmile_qr_scan", "ios": "https://dc.lft.to/lastmile_qr_scan"}}, {"bike_id": "967aff68c3a80462e622f596c044077e", "fusion_lon": 0.0, "name": "967aff68c3a80462e622f596c044077e", "lat": 38.916958666666666, "is_disabled": 0, "is_reserved": 0, "lon": -77.03598666666667, "type": "electric_scooter", "fusion_lat": 0.0, "rental_uris": {"android": "https://dc.lft.to/lastmile_qr_scan", "ios": "https://dc.lft.to/lastmile_qr_scan"}}, {"bike_id": "2292bd6124a8bb716de7b0018516cb7b", "fusion_lon": 0.0, "name": "2292bd6124a8bb716de7b0018516cb7b", "lat": 38.87661933333333, "is_disabled": 0, "is_reserved": 0, "lon": -77.0161385, "type": "electric_scooter", "fusion_lat": 0.0, "rental_uris": {"android": "https://dc.lft.to/lastmile_qr_scan", "ios": "https://dc.lft.to/lastmile_qr_scan"}}, {"bike_id": "6e7e3f02ca879b4632c794a0fef868c7", "fusion_lon": 0.0, "name": "6e7e3f02ca879b4632c794a0fef868c7", "lat": 38.90260883333333, "is_disabled": 0, "is_reserved": 0, "lon": -77.043736, "type": "electric_scooter", "fusion_lat": 0.0, "rental_uris": {"android": "https://dc.lft.to/lastmile_qr_scan", "ios": "https://dc.lft.to/lastmile_qr_scan"}}, {"bike_id": "2b9ae5698c8f47cd16152b0e2bd22e2a", "fusion_lon": 0.0, "name": "2b9ae5698c8f47cd16152b0e2bd22e2a", "lat": 38.911963, "is_disabled": 0, "is_reserved": 0, "lon": -77.038615, "type": "electric_scooter", "fusion_lat": 0.0, "rental_uris": {"android": "https://dc.lft.to/lastmile_qr_scan", "ios": "https://dc.lft.to/lastmile_qr_scan"}}, {"bike_id": "53cdd9e1474490552443c83e24d58313", "fusion_lon": 0.0, "name": "53cdd9e1474490552443c83e24d58313", "lat": 38.9357965, "is_disabled": 0, "is_reserved": 0, "lon": -77.073378, "type": "electric_scooter", "fusion_lat": 0.0, "rental_uris": {"android": "https://dc.lft.to/lastmile_qr_scan", "ios": "https://dc.lft.to/lastmile_qr_scan"}}, {"bike_id": "ec14b0dab99269584ca78c256e59b1e2", "fusion_lon": 0.0, "name": "ec14b0dab99269584ca78c256e59b1e2", "lat": 38.924155666666664, "is_disabled": 0, "is_reserved": 0, "lon": -77.01952983333334, "type": "electric_scooter", "fusion_lat": 0.0, "rental_uris": {"android": "https://dc.lft.to/lastmile_qr_scan", "ios": "https://dc.lft.to/lastmile_qr_scan"}}, {"bike_id": "2022d2be53d503cb1bcd7da5de0f640e", "fusion_lon": 0.0, "name": "2022d2be53d503cb1bcd7da5de0f640e", "lat": 38.901431333333335, "is_disabled": 0, "is_reserved": 0, "lon": -77.04884933333334, "type": "electric_scooter", "fusion_lat": 0.0, "rental_uris": {"android": "https://dc.lft.to/lastmile_qr_scan", "ios": "https://dc.lft.to/lastmile_qr_scan"}}, {"bike_id": "aec545d8c822c95101488cee44116a31", "fusion_lon": 0.0, "name": "aec545d8c822c95101488cee44116a31", "lat": 38.911101, "is_disabled": 0, "is_reserved": 0, "lon": -77.04238283333333, "type": "electric_scooter", "fusion_lat": 0.0, "rental_uris": {"android": "https://dc.lft.to/lastmile_qr_scan", "ios": "https://dc.lft.to/lastmile_qr_scan"}}, {"bike_id": "2dbed621749ec3b1f34fe4ac9983081c", "fusion_lon": 0.0, "name": "2dbed621749ec3b1f34fe4ac9983081c", "lat": 38.89225283333333, "is_disabled": 0, "is_reserved": 0, "lon": -77.022239, "type": "electric_scooter", "fusion_lat": 0.0, "rental_uris": {"android": "https://dc.lft.to/lastmile_qr_scan", "ios": "https://dc.lft.to/lastmile_qr_scan"}}, {"bike_id": "df50e9f0e0e6e61ce1edfc59194fb4d0", "fusion_lon": 0.0, "name": "df50e9f0e0e6e61ce1edfc59194fb4d0", "lat": 38.887913833333336, "is_disabled": 0, "is_reserved": 0, "lon": -76.9234215, "type": "electric_bike", "fusion_lat": 0.0, "rental_uris": {"android": "https://dc.lft.to/lastmile_qr_scan", "ios": "https://dc.lft.to/lastmile_qr_scan"}}, {"bike_id": "35a54f6d2d33eeb479799f187802d5d4", "fusion_lon": 0.0, "name": "35a54f6d2d33eeb479799f187802d5d4", "lat": 38.928275666666664, "is_disabled": 0, "is_reserved": 0, "lon": -77.0545805, "type": "electric_scooter", "fusion_lat": 0.0, "rental_uris": {"android": "https://dc.lft.to/lastmile_qr_scan", "ios": "https://dc.lft.to/lastmile_qr_scan"}}, {"bike_id": "000dd91473155a17244d6285659e39d7", "fusion_lon": 0.0, "name": "000dd91473155a17244d6285659e39d7", "lat": 38.919195, "is_disabled": 0, "is_reserved": 0, "lon": -77.024821, "type": "electric_scooter", "fusion_lat": 0.0, "rental_uris": {"android": "https://dc.lft.to/lastmile_qr_scan", "ios": "https://dc.lft.to/lastmile_qr_scan"}}, {"bike_id": "0f3eba2980ad751bac465ba8d89eb982", "fusion_lon": 0.0, "name": "0f3eba2980ad751bac465ba8d89eb982", "lat": 38.955647, "is_disabled": 0, "is_reserved": 0, "lon": -76.96885133333333, "type": "electric_bike", "fusion_lat": 0.0, "rental_uris": {"android": "https://dc.lft.to/lastmile_qr_scan", "ios": "https://dc.lft.to/lastmile_qr_scan"}}, {"bike_id": "104ce238933e207c0298e9956200b213", "fusion_lon": 0.0, "name": "104ce238933e207c0298e9956200b213", "lat": 38.920504666666666, "is_disabled": 0, "is_reserved": 0, "lon": -77.02574366666667, "type": "electric_scooter", "fusion_lat": 0.0, "rental_uris": {"android": "https://dc.lft.to/lastmile_qr_scan", "ios": "https://dc.lft.to/lastmile_qr_scan"}}, {"bike_id": "8359be252a79de81ea25599f07e5ae41", "fusion_lon": 0.0, "name": "8359be252a79de81ea25599f07e5ae41", "lat": 38.923221, "is_disabled": 0, "is_reserved": 0, "lon": -77.039111, "type": "electric_scooter", "fusion_lat": 0.0, "rental_uris": {"android": "https://dc.lft.to/lastmile_qr_scan", "ios": "https://dc.lft.to/lastmile_qr_scan"}}, {"bike_id": "48dbab88b2e5a5395df32af0ba290883", "fusion_lon": 0.0, "name": "48dbab88b2e5a5395df32af0ba290883", "lat": 38.91691083333333, "is_disabled": 0, "is_reserved": 0, "lon": -77.003453, "type": "electric_bike", "fusion_lat": 0.0, "rental_uris": {"android": "https://dc.lft.to/lastmile_qr_scan", "ios": "https://dc.lft.to/lastmile_qr_scan"}}, {"bike_id": "4cabd9c3d77bdd026dbe75f084bf42da", "fusion_lon": 0.0, "name": "4cabd9c3d77bdd026dbe75f084bf42da", "lat": 38.85550416666667, "is_disabled": 0, "is_reserved": 0, "lon": -76.987535, "type": "electric_scooter", "fusion_lat": 0.0, "rental_uris": {"android": "https://dc.lft.to/lastmile_qr_scan", "ios": "https://dc.lft.to/lastmile_qr_scan"}}, {"bike_id": "5a59df6c7859eaa5fb98a48cbe4b4beb", "fusion_lon": 0.0, "name": "5a59df6c7859eaa5fb98a48cbe4b4beb", "lat": 38.897406833333335, "is_disabled": 0, "is_reserved": 0, "lon": -77.00921533333333, "type": "electric_scooter", "fusion_lat": 0.0, "rental_uris": {"android": "https://dc.lft.to/lastmile_qr_scan", "ios": "https://dc.lft.to/lastmile_qr_scan"}}, {"bike_id": "9d325bcc8509be7c6e4cc16b9a801043", "fusion_lon": 0.0, "name": "9d325bcc8509be7c6e4cc16b9a801043", "lat": 38.90971616666667, "is_disabled": 0, "is_reserved": 0, "lon": -77.033142, "type": "electric_scooter", "fusion_lat": 0.0, "rental_uris": {"android": "https://dc.lft.to/lastmile_qr_scan", "ios": "https://dc.lft.to/lastmile_qr_scan"}}, {"bike_id": "7a5fca083621d8b3f587eb397af058be", "fusion_lon": 0.0, "name": "7a5fca083621d8b3f587eb397af058be", "lat": 38.90866366666667, "is_disabled": 0, "is_reserved": 0, "lon": -77.0488085, "type": "electric_scooter", "fusion_lat": 0.0, "rental_uris": {"android": "https://dc.lft.to/lastmile_qr_scan", "ios": "https://dc.lft.to/lastmile_qr_scan"}}, {"bike_id": "91924bf0a1cc8b95d35a6d444273fb63", "fusion_lon": 0.0, "name": "91924bf0a1cc8b95d35a6d444273fb63", "lat": 38.89716766666667, "is_disabled": 0, "is_reserved": 0, "lon": -77.04306983333333, "type": "electric_scooter", "fusion_lat": 0.0, "rental_uris": {"android": "https://dc.lft.to/lastmile_qr_scan", "ios": "https://dc.lft.to/lastmile_qr_scan"}}, {"bike_id": "0df4789138ebde6fc4039d0edcb4a3d6", "fusion_lon": 0.0, "name": "0df4789138ebde6fc4039d0edcb4a3d6", "lat": 38.92321283333333, "is_disabled": 0, "is_reserved": 0, "lon": -77.02135033333333, "type": "electric_scooter", "fusion_lat": 0.0, "rental_uris": {"android": "https://dc.lft.to/lastmile_qr_scan", "ios": "https://dc.lft.to/lastmile_qr_scan"}}, {"bike_id": "481f6fda4038a125a629aa96ba6cbf5a", "fusion_lon": 0.0, "name": "481f6fda4038a125a629aa96ba6cbf5a", "lat": 38.93062166666667, "is_disabled": 0, "is_reserved": 0, "lon": -77.02321083333334, "type": "electric_scooter", "fusion_lat": 0.0, "rental_uris": {"android": "https://dc.lft.to/lastmile_qr_scan", "ios": "https://dc.lft.to/lastmile_qr_scan"}}, {"bike_id": "7f9f3141fe659235331a3b8a8d28e0fd", "fusion_lon": 0.0, "name": "7f9f3141fe659235331a3b8a8d28e0fd", "lat": 38.840883166666664, "is_disabled": 0, "is_reserved": 0, "lon": -76.97027833333334, "type": "electric_bike", "fusion_lat": 0.0, "rental_uris": {"android": "https://dc.lft.to/lastmile_qr_scan", "ios": "https://dc.lft.to/lastmile_qr_scan"}}, {"bike_id": "9bb36604e5c15d7523aeabcffde53db8", "fusion_lon": 0.0, "name": "9bb36604e5c15d7523aeabcffde53db8", "lat": 38.92512816666667, "is_disabled": 0, "is_reserved": 0, "lon": -77.00212516666667, "type": "electric_scooter", "fusion_lat": 0.0, "rental_uris": {"android": "https://dc.lft.to/lastmile_qr_scan", "ios": "https://dc.lft.to/lastmile_qr_scan"}}, {"bike_id": "e7c898e9e210fd21b47b83b821d5e411", "fusion_lon": 0.0, "name": "e7c898e9e210fd21b47b83b821d5e411", "lat": 38.92302383333333, "is_disabled": 0, "is_reserved": 0, "lon": -77.04270466666667, "type": "electric_scooter", "fusion_lat": 0.0, "rental_uris": {"android": "https://dc.lft.to/lastmile_qr_scan", "ios": "https://dc.lft.to/lastmile_qr_scan"}}, {"bike_id": "f7fef56086451cc6b258ecbf18c56289", "fusion_lon": 0.0, "name": "f7fef56086451cc6b258ecbf18c56289", "lat": 38.892297166666665, "is_disabled": 0, "is_reserved": 0, "lon": -77.049957, "type": "electric_scooter", "fusion_lat": 0.0, "rental_uris": {"android": "https://dc.lft.to/lastmile_qr_scan", "ios": "https://dc.lft.to/lastmile_qr_scan"}}, {"bike_id": "58a76be3b5c0176d458fb177f1e8a319", "fusion_lon": 0.0, "name": "58a76be3b5c0176d458fb177f1e8a319", "lat": 38.9220395, "is_disabled": 0, "is_reserved": 0, "lon": -76.99322983333333, "type": "electric_scooter", "fusion_lat": 0.0, "rental_uris": {"android": "https://dc.lft.to/lastmile_qr_scan", "ios": "https://dc.lft.to/lastmile_qr_scan"}}, {"bike_id": "0408b3cdce280f636e26caa8bfc4fabf", "fusion_lon": 0.0, "name": "0408b3cdce280f636e26caa8bfc4fabf", "lat": 38.9377845, "is_disabled": 0, "is_reserved": 0, "lon": -77.02472683333333, "type": "electric_scooter", "fusion_lat": 0.0, "rental_uris": {"android": "https://dc.lft.to/lastmile_qr_scan", "ios": "https://dc.lft.to/lastmile_qr_scan"}}, {"bike_id": "3903c80034f363434ed8bce579460d07", "fusion_lon": 0.0, "name": "3903c80034f363434ed8bce579460d07", "lat": 38.894816, "is_disabled": 0, "is_reserved": 0, "lon": -77.01529133333334, "type": "electric_scooter", "fusion_lat": 0.0, "rental_uris": {"android": "https://dc.lft.to/lastmile_qr_scan", "ios": "https://dc.lft.to/lastmile_qr_scan"}}, {"bike_id": "09b335a7171bf462e8388017fe10ba35", "fusion_lon": 0.0, "name": "09b335a7171bf462e8388017fe10ba35", "lat": 38.93191516666667, "is_disabled": 0, "is_reserved": 0, "lon": -77.0429565, "type": "electric_scooter", "fusion_lat": 0.0, "rental_uris": {"android": "https://dc.lft.to/lastmile_qr_scan", "ios": "https://dc.lft.to/lastmile_qr_scan"}}, {"bike_id": "015a09fe0a92b4612bc759dcd2f47089", "fusion_lon": 0.0, "name": "015a09fe0a92b4612bc759dcd2f47089", "lat": 38.91874633333333, "is_disabled": 0, "is_reserved": 0, "lon": -77.04043866666666, "type": "electric_scooter", "fusion_lat": 0.0, "rental_uris": {"android": "https://dc.lft.to/lastmile_qr_scan", "ios": "https://dc.lft.to/lastmile_qr_scan"}}, {"bike_id": "866796b1e4d757c7b910e0a65ec69341", "fusion_lon": 0.0, "name": "866796b1e4d757c7b910e0a65ec69341", "lat": 38.9029515, "is_disabled": 0, "is_reserved": 0, "lon": -77.026766, "type": "electric_scooter", "fusion_lat": 0.0, "rental_uris": {"android": "https://dc.lft.to/lastmile_qr_scan", "ios": "https://dc.lft.to/lastmile_qr_scan"}}, {"bike_id": "bd112708ddb7e21a32dd800f64a5e1b2", "fusion_lon": 0.0, "name": "bd112708ddb7e21a32dd800f64a5e1b2", "lat": 38.88452233333334, "is_disabled": 0, "is_reserved": 0, "lon": -76.99838616666666, "type": "electric_scooter", "fusion_lat": 0.0, "rental_uris": {"android": "https://dc.lft.to/lastmile_qr_scan", "ios": "https://dc.lft.to/lastmile_qr_scan"}}, {"bike_id": "3df668ec37ab5c5c5d8432c7292d681c", "fusion_lon": 0.0, "name": "3df668ec37ab5c5c5d8432c7292d681c", "lat": 38.908455000000004, "is_disabled": 0, "is_reserved": 0, "lon": -77.05491166666667, "type": "electric_bike", "fusion_lat": 0.0, "rental_uris": {"android": "https://dc.lft.to/lastmile_qr_scan", "ios": "https://dc.lft.to/lastmile_qr_scan"}}, {"bike_id": "c4c2e811f2b46da3028fa794640dac8a", "fusion_lon": 0.0, "name": "c4c2e811f2b46da3028fa794640dac8a", "lat": 38.920221, "is_disabled": 0, "is_reserved": 0, "lon": -77.01257033333333, "type": "electric_scooter", "fusion_lat": 0.0, "rental_uris": {"android": "https://dc.lft.to/lastmile_qr_scan", "ios": "https://dc.lft.to/lastmile_qr_scan"}}, {"bike_id": "c1b069a01107233fcf44df3022173e98", "fusion_lon": 0.0, "name": "c1b069a01107233fcf44df3022173e98", "lat": 38.92885416666667, "is_disabled": 0, "is_reserved": 0, "lon": -77.03272133333333, "type": "electric_scooter", "fusion_lat": 0.0, "rental_uris": {"android": "https://dc.lft.to/lastmile_qr_scan", "ios": "https://dc.lft.to/lastmile_qr_scan"}}, {"bike_id": "f11b724466588796557c98b0decd7b54", "fusion_lon": 0.0, "name": "f11b724466588796557c98b0decd7b54", "lat": 38.961243833333334, "is_disabled": 0, "is_reserved": 0, "lon": -77.02861033333333, "type": "electric_scooter", "fusion_lat": 0.0, "rental_uris": {"android": "https://dc.lft.to/lastmile_qr_scan", "ios": "https://dc.lft.to/lastmile_qr_scan"}}, {"bike_id": "d4d9a5f6f7e5d295cb5f2ba9d5e94085", "fusion_lon": 0.0, "name": "d4d9a5f6f7e5d295cb5f2ba9d5e94085", "lat": 38.908270333333334, "is_disabled": 0, "is_reserved": 0, "lon": -77.05493133333333, "type": "electric_scooter", "fusion_lat": 0.0, "rental_uris": {"android": "https://dc.lft.to/lastmile_qr_scan", "ios": "https://dc.lft.to/lastmile_qr_scan"}}, {"bike_id": "d9da3edde2d8c7a3c0f159cb539ae4d0", "fusion_lon": 0.0, "name": "d9da3edde2d8c7a3c0f159cb539ae4d0", "lat": 38.917159, "is_disabled": 0, "is_reserved": 0, "lon": -77.01211266666667, "type": "electric_scooter", "fusion_lat": 0.0, "rental_uris": {"android": "https://dc.lft.to/lastmile_qr_scan", "ios": "https://dc.lft.to/lastmile_qr_scan"}}, {"bike_id": "0e996a3e16a28ca27aa254df84753ab7", "fusion_lon": 0.0, "name": "0e996a3e16a28ca27aa254df84753ab7", "lat": 38.92370366666667, "is_disabled": 0, "is_reserved": 0, "lon": -77.01954666666667, "type": "electric_scooter", "fusion_lat": 0.0, "rental_uris": {"android": "https://dc.lft.to/lastmile_qr_scan", "ios": "https://dc.lft.to/lastmile_qr_scan"}}, {"bike_id": "8482af1b1f4f087046becd22eecfe16d", "fusion_lon": 0.0, "name": "8482af1b1f4f087046becd22eecfe16d", "lat": 38.9506405, "is_disabled": 0, "is_reserved": 0, "lon": -77.01635583333334, "type": "electric_scooter", "fusion_lat": 0.0, "rental_uris": {"android": "https://dc.lft.to/lastmile_qr_scan", "ios": "https://dc.lft.to/lastmile_qr_scan"}}, {"bike_id": "f35ea4ce538780f349ca31e6e4f72ab0", "fusion_lon": 0.0, "name": "f35ea4ce538780f349ca31e6e4f72ab0", "lat": 38.8793785, "is_disabled": 0, "is_reserved": 0, "lon": -77.02364516666667, "type": "electric_scooter", "fusion_lat": 0.0, "rental_uris": {"android": "https://dc.lft.to/lastmile_qr_scan", "ios": "https://dc.lft.to/lastmile_qr_scan"}}, {"bike_id": "2cffd92a83390c61f0abc172b92b8e58", "fusion_lon": 0.0, "name": "2cffd92a83390c61f0abc172b92b8e58", "lat": 38.902891, "is_disabled": 0, "is_reserved": 0, "lon": -77.04471783333334, "type": "electric_scooter", "fusion_lat": 0.0, "rental_uris": {"android": "https://dc.lft.to/lastmile_qr_scan", "ios": "https://dc.lft.to/lastmile_qr_scan"}}, {"bike_id": "ee4af303eae32e9e0a43c34ef4b302a5", "fusion_lon": 0.0, "name": "ee4af303eae32e9e0a43c34ef4b302a5", "lat": 38.908908833333335, "is_disabled": 0, "is_reserved": 0, "lon": -77.03448766666666, "type": "electric_scooter", "fusion_lat": 0.0, "rental_uris": {"android": "https://dc.lft.to/lastmile_qr_scan", "ios": "https://dc.lft.to/lastmile_qr_scan"}}, {"bike_id": "fccb8ac9b49c3d81a927c5767f7e429c", "fusion_lon": 0.0, "name": "fccb8ac9b49c3d81a927c5767f7e429c", "lat": 38.892829666666664, "is_disabled": 0, "is_reserved": 0, "lon": -77.05045416666667, "type": "electric_scooter", "fusion_lat": 0.0, "rental_uris": {"android": "https://dc.lft.to/lastmile_qr_scan", "ios": "https://dc.lft.to/lastmile_qr_scan"}}, {"bike_id": "119d14f7718fe6fe3f41dc38994e3398", "fusion_lon": 0.0, "name": "119d14f7718fe6fe3f41dc38994e3398", "lat": 38.9181935, "is_disabled": 0, "is_reserved": 0, "lon": -77.04004483333334, "type": "electric_scooter", "fusion_lat": 0.0, "rental_uris": {"android": "https://dc.lft.to/lastmile_qr_scan", "ios": "https://dc.lft.to/lastmile_qr_scan"}}, {"bike_id": "ba193c87be9226720745eff621777aa4", "fusion_lon": 0.0, "name": "ba193c87be9226720745eff621777aa4", "lat": 38.90369883333334, "is_disabled": 0, "is_reserved": 0, "lon": -77.00518233333334, "type": "electric_bike", "fusion_lat": 0.0, "rental_uris": {"android": "https://dc.lft.to/lastmile_qr_scan", "ios": "https://dc.lft.to/lastmile_qr_scan"}}, {"bike_id": "f7665429c2e2b1bc3a203f3da586c446", "fusion_lon": 0.0, "name": "f7665429c2e2b1bc3a203f3da586c446", "lat": 38.91740883333333, "is_disabled": 0, "is_reserved": 0, "lon": -77.0280905, "type": "electric_scooter", "fusion_lat": 0.0, "rental_uris": {"android": "https://dc.lft.to/lastmile_qr_scan", "ios": "https://dc.lft.to/lastmile_qr_scan"}}, {"bike_id": "26d2cc49d7227fec222721b8bb7a665b", "fusion_lon": 0.0, "name": "26d2cc49d7227fec222721b8bb7a665b", "lat": 38.92380883333333, "is_disabled": 0, "is_reserved": 0, "lon": -77.03049916666667, "type": "electric_scooter", "fusion_lat": 0.0, "rental_uris": {"android": "https://dc.lft.to/lastmile_qr_scan", "ios": "https://dc.lft.to/lastmile_qr_scan"}}, {"bike_id": "eccf72329cdbfb9ad31f55f9e953114a", "fusion_lon": 0.0, "name": "eccf72329cdbfb9ad31f55f9e953114a", "lat": 38.907623666666666, "is_disabled": 0, "is_reserved": 0, "lon": -77.04360533333333, "type": "electric_scooter", "fusion_lat": 0.0, "rental_uris": {"android": "https://dc.lft.to/lastmile_qr_scan", "ios": "https://dc.lft.to/lastmile_qr_scan"}}, {"bike_id": "788e6e150f90d959a5e35808c11b8521", "fusion_lon": 0.0, "name": "788e6e150f90d959a5e35808c11b8521", "lat": 38.9283025, "is_disabled": 0, "is_reserved": 0, "lon": -77.032995, "type": "electric_scooter", "fusion_lat": 0.0, "rental_uris": {"android": "https://dc.lft.to/lastmile_qr_scan", "ios": "https://dc.lft.to/lastmile_qr_scan"}}, {"bike_id": "3df81a26d362aeb44fe66c65e9399450", "fusion_lon": 0.0, "name": "3df81a26d362aeb44fe66c65e9399450", "lat": 38.89606033333333, "is_disabled": 0, "is_reserved": 0, "lon": -77.02591916666667, "type": "electric_scooter", "fusion_lat": 0.0, "rental_uris": {"android": "https://dc.lft.to/lastmile_qr_scan", "ios": "https://dc.lft.to/lastmile_qr_scan"}}, {"bike_id": "aab50062158ee062b317aca0df28c3d0", "fusion_lon": 0.0, "name": "aab50062158ee062b317aca0df28c3d0", "lat": 38.89985183333334, "is_disabled": 0, "is_reserved": 0, "lon": -77.022561, "type": "electric_scooter", "fusion_lat": 0.0, "rental_uris": {"android": "https://dc.lft.to/lastmile_qr_scan", "ios": "https://dc.lft.to/lastmile_qr_scan"}}, {"bike_id": "517a9eafe1bcd50285c9cd2058f908f2", "fusion_lon": 0.0, "name": "517a9eafe1bcd50285c9cd2058f908f2", "lat": 38.93177016666667, "is_disabled": 0, "is_reserved": 0, "lon": -77.02817766666666, "type": "electric_scooter", "fusion_lat": 0.0, "rental_uris": {"android": "https://dc.lft.to/lastmile_qr_scan", "ios": "https://dc.lft.to/lastmile_qr_scan"}}, {"bike_id": "a6b4e32116350e2d7ebcbbc57a341c37", "fusion_lon": 0.0, "name": "a6b4e32116350e2d7ebcbbc57a341c37", "lat": 38.91610566666667, "is_disabled": 0, "is_reserved": 0, "lon": -77.0312445, "type": "electric_scooter", "fusion_lat": 0.0, "rental_uris": {"android": "https://dc.lft.to/lastmile_qr_scan", "ios": "https://dc.lft.to/lastmile_qr_scan"}}, {"bike_id": "2eb065eab31066d50aea569700d33f68", "fusion_lon": 0.0, "name": "2eb065eab31066d50aea569700d33f68", "lat": 38.875829, "is_disabled": 0, "is_reserved": 0, "lon": -77.23411616666667, "type": "electric_bike", "fusion_lat": 0.0, "rental_uris": {"android": "https://dc.lft.to/lastmile_qr_scan", "ios": "https://dc.lft.to/lastmile_qr_scan"}}, {"bike_id": "014a3e15215616b07a91ae4979d41db7", "fusion_lon": 0.0, "name": "014a3e15215616b07a91ae4979d41db7", "lat": 38.88526983333333, "is_disabled": 0, "is_reserved": 0, "lon": -76.92915483333333, "type": "electric_scooter", "fusion_lat": 0.0, "rental_uris": {"android": "https://dc.lft.to/lastmile_qr_scan", "ios": "https://dc.lft.to/lastmile_qr_scan"}}, {"bike_id": "fb77ac4a5c73001cd1c72c58eb43a39e", "fusion_lon": 0.0, "name": "fb77ac4a5c73001cd1c72c58eb43a39e", "lat": 38.8983285, "is_disabled": 0, "is_reserved": 0, "lon": -77.00737716666667, "type": "electric_scooter", "fusion_lat": 0.0, "rental_uris": {"android": "https://dc.lft.to/lastmile_qr_scan", "ios": "https://dc.lft.to/lastmile_qr_scan"}}, {"bike_id": "9efc3bc53a2ee2793d26b728106c932d", "fusion_lon": 0.0, "name": "9efc3bc53a2ee2793d26b728106c932d", "lat": 38.89222383333333, "is_disabled": 0, "is_reserved": 0, "lon": -77.0398215, "type": "electric_scooter", "fusion_lat": 0.0, "rental_uris": {"android": "https://dc.lft.to/lastmile_qr_scan", "ios": "https://dc.lft.to/lastmile_qr_scan"}}, {"bike_id": "be088354dcb8c1e28c0fa922938b9fc1", "fusion_lon": 0.0, "name": "be088354dcb8c1e28c0fa922938b9fc1", "lat": 38.909622, "is_disabled": 0, "is_reserved": 0, "lon": -77.04047983333334, "type": "electric_scooter", "fusion_lat": 0.0, "rental_uris": {"android": "https://dc.lft.to/lastmile_qr_scan", "ios": "https://dc.lft.to/lastmile_qr_scan"}}, {"bike_id": "64b1889859bad0ee4108d96116df8a5b", "fusion_lon": 0.0, "name": "64b1889859bad0ee4108d96116df8a5b", "lat": 38.956376666666664, "is_disabled": 0, "is_reserved": 0, "lon": -77.03302866666667, "type": "electric_scooter", "fusion_lat": 0.0, "rental_uris": {"android": "https://dc.lft.to/lastmile_qr_scan", "ios": "https://dc.lft.to/lastmile_qr_scan"}}, {"bike_id": "c799ce5bbbcdabf91d5c637897b166a8", "fusion_lon": 0.0, "name": "c799ce5bbbcdabf91d5c637897b166a8", "lat": 38.92207533333333, "is_disabled": 0, "is_reserved": 0, "lon": -77.02092483333334, "type": "electric_scooter", "fusion_lat": 0.0, "rental_uris": {"android": "https://dc.lft.to/lastmile_qr_scan", "ios": "https://dc.lft.to/lastmile_qr_scan"}}, {"bike_id": "ef58f5286b74a0c34ec8be0b1ba2a8a7", "fusion_lon": 0.0, "name": "ef58f5286b74a0c34ec8be0b1ba2a8a7", "lat": 38.9114935, "is_disabled": 0, "is_reserved": 0, "lon": -77.0237715, "type": "electric_scooter", "fusion_lat": 0.0, "rental_uris": {"android": "https://dc.lft.to/lastmile_qr_scan", "ios": "https://dc.lft.to/lastmile_qr_scan"}}, {"bike_id": "1a8c69c435d32cf92035fac0d62e4900", "fusion_lon": 0.0, "name": "1a8c69c435d32cf92035fac0d62e4900", "lat": 38.908712333333334, "is_disabled": 0, "is_reserved": 0, "lon": -76.99961233333333, "type": "electric_scooter", "fusion_lat": 0.0, "rental_uris": {"android": "https://dc.lft.to/lastmile_qr_scan", "ios": "https://dc.lft.to/lastmile_qr_scan"}}, {"bike_id": "0fb6084c41d86cb443cea7fa50dfd207", "fusion_lon": 0.0, "name": "0fb6084c41d86cb443cea7fa50dfd207", "lat": 38.90958883333333, "is_disabled": 0, "is_reserved": 0, "lon": -77.03293733333334, "type": "electric_scooter", "fusion_lat": 0.0, "rental_uris": {"android": "https://dc.lft.to/lastmile_qr_scan", "ios": "https://dc.lft.to/lastmile_qr_scan"}}, {"bike_id": "479fbb7ee3712fbedf47c79c2542b6f6", "fusion_lon": 0.0, "name": "479fbb7ee3712fbedf47c79c2542b6f6", "lat": 38.87585216666667, "is_disabled": 0, "is_reserved": 0, "lon": -77.00418, "type": "electric_scooter", "fusion_lat": 0.0, "rental_uris": {"android": "https://dc.lft.to/lastmile_qr_scan", "ios": "https://dc.lft.to/lastmile_qr_scan"}}, {"bike_id": "e3b8b82354f073210d766845a4ab1892", "fusion_lon": 0.0, "name": "e3b8b82354f073210d766845a4ab1892", "lat": 38.86442483333333, "is_disabled": 0, "is_reserved": 0, "lon": -76.97995566666667, "type": "electric_scooter", "fusion_lat": 0.0, "rental_uris": {"android": "https://dc.lft.to/lastmile_qr_scan", "ios": "https://dc.lft.to/lastmile_qr_scan"}}, {"bike_id": "4fefb035c9873254235ffab95b48911c", "fusion_lon": 0.0, "name": "4fefb035c9873254235ffab95b48911c", "lat": 38.91639266666667, "is_disabled": 0, "is_reserved": 0, "lon": -77.02696583333334, "type": "electric_scooter", "fusion_lat": 0.0, "rental_uris": {"android": "https://dc.lft.to/lastmile_qr_scan", "ios": "https://dc.lft.to/lastmile_qr_scan"}}, {"bike_id": "277209a6da9dd093434b1c0fd366f7d7", "fusion_lon": 0.0, "name": "277209a6da9dd093434b1c0fd366f7d7", "lat": 38.90457083333333, "is_disabled": 0, "is_reserved": 0, "lon": -77.04353366666666, "type": "electric_scooter", "fusion_lat": 0.0, "rental_uris": {"android": "https://dc.lft.to/lastmile_qr_scan", "ios": "https://dc.lft.to/lastmile_qr_scan"}}, {"bike_id": "78382337332a0a7a9dcfe5d5a83a7807", "fusion_lon": 0.0, "name": "78382337332a0a7a9dcfe5d5a83a7807", "lat": 38.892225333333336, "is_disabled": 0, "is_reserved": 0, "lon": -77.02666083333334, "type": "electric_scooter", "fusion_lat": 0.0, "rental_uris": {"android": "https://dc.lft.to/lastmile_qr_scan", "ios": "https://dc.lft.to/lastmile_qr_scan"}}, {"bike_id": "dcf344b5f8358dcf16201762253aee04", "fusion_lon": 0.0, "name": "dcf344b5f8358dcf16201762253aee04", "lat": 38.9162835, "is_disabled": 0, "is_reserved": 0, "lon": -77.03207016666667, "type": "electric_scooter", "fusion_lat": 0.0, "rental_uris": {"android": "https://dc.lft.to/lastmile_qr_scan", "ios": "https://dc.lft.to/lastmile_qr_scan"}}, {"bike_id": "c43dd0fc5674ad361ddc7a1801fc85b1", "fusion_lon": 0.0, "name": "c43dd0fc5674ad361ddc7a1801fc85b1", "lat": 38.9025665, "is_disabled": 0, "is_reserved": 0, "lon": -77.03837683333333, "type": "electric_scooter", "fusion_lat": 0.0, "rental_uris": {"android": "https://dc.lft.to/lastmile_qr_scan", "ios": "https://dc.lft.to/lastmile_qr_scan"}}, {"bike_id": "9b82e10ef9e9edab4058a5a9220c5d5c", "fusion_lon": 0.0, "name": "9b82e10ef9e9edab4058a5a9220c5d5c", "lat": 38.8472475, "is_disabled": 0, "is_reserved": 0, "lon": -76.98251466666666, "type": "electric_scooter", "fusion_lat": 0.0, "rental_uris": {"android": "https://dc.lft.to/lastmile_qr_scan", "ios": "https://dc.lft.to/lastmile_qr_scan"}}, {"bike_id": "17dc60cef1fab56fe578494a0cd7dcd7", "fusion_lon": 0.0, "name": "17dc60cef1fab56fe578494a0cd7dcd7", "lat": 38.920835833333335, "is_disabled": 0, "is_reserved": 0, "lon": -77.01820633333334, "type": "electric_scooter", "fusion_lat": 0.0, "rental_uris": {"android": "https://dc.lft.to/lastmile_qr_scan", "ios": "https://dc.lft.to/lastmile_qr_scan"}}, {"bike_id": "7b05b41624bc173dc2f4610b8c1f9cc7", "fusion_lon": 0.0, "name": "7b05b41624bc173dc2f4610b8c1f9cc7", "lat": 38.911039833333334, "is_disabled": 0, "is_reserved": 0, "lon": -77.04485566666666, "type": "electric_scooter", "fusion_lat": 0.0, "rental_uris": {"android": "https://dc.lft.to/lastmile_qr_scan", "ios": "https://dc.lft.to/lastmile_qr_scan"}}, {"bike_id": "12cb818349ddb70d92c7aed77494cd96", "fusion_lon": 0.0, "name": "12cb818349ddb70d92c7aed77494cd96", "lat": 38.91552766666667, "is_disabled": 0, "is_reserved": 0, "lon": -77.03254133333333, "type": "electric_scooter", "fusion_lat": 0.0, "rental_uris": {"android": "https://dc.lft.to/lastmile_qr_scan", "ios": "https://dc.lft.to/lastmile_qr_scan"}}, {"bike_id": "fb2693ac73940ba1eccc5210540cdd89", "fusion_lon": 0.0, "name": "fb2693ac73940ba1eccc5210540cdd89", "lat": 38.89990933333333, "is_disabled": 0, "is_reserved": 0, "lon": -77.046509, "type": "electric_scooter", "fusion_lat": 0.0, "rental_uris": {"android": "https://dc.lft.to/lastmile_qr_scan", "ios": "https://dc.lft.to/lastmile_qr_scan"}}, {"bike_id": "14f8fb862848d070d4a717ffed97277f", "fusion_lon": 0.0, "name": "14f8fb862848d070d4a717ffed97277f", "lat": 38.92326583333333, "is_disabled": 0, "is_reserved": 0, "lon": -77.02960733333333, "type": "electric_scooter", "fusion_lat": 0.0, "rental_uris": {"android": "https://dc.lft.to/lastmile_qr_scan", "ios": "https://dc.lft.to/lastmile_qr_scan"}}, {"bike_id": "e966240fcfcc377a9a26f9d0f9e67c7c", "fusion_lon": 0.0, "name": "e966240fcfcc377a9a26f9d0f9e67c7c", "lat": 38.8001865, "is_disabled": 0, "is_reserved": 0, "lon": -77.0547895, "type": "electric_bike", "fusion_lat": 0.0, "rental_uris": {"android": "https://dc.lft.to/lastmile_qr_scan", "ios": "https://dc.lft.to/lastmile_qr_scan"}}, {"bike_id": "3de14cd3ddeaa8eca28b8428cc27704e", "fusion_lon": 0.0, "name": "3de14cd3ddeaa8eca28b8428cc27704e", "lat": 38.896975, "is_disabled": 0, "is_reserved": 0, "lon": -77.0076185, "type": "electric_scooter", "fusion_lat": 0.0, "rental_uris": {"android": "https://dc.lft.to/lastmile_qr_scan", "ios": "https://dc.lft.to/lastmile_qr_scan"}}, {"bike_id": "be10d920b9a739ef9ebda06617b12212", "fusion_lon": 0.0, "name": "be10d920b9a739ef9ebda06617b12212", "lat": 38.92365866666667, "is_disabled": 0, "is_reserved": 0, "lon": -77.01955033333333, "type": "electric_scooter", "fusion_lat": 0.0, "rental_uris": {"android": "https://dc.lft.to/lastmile_qr_scan", "ios": "https://dc.lft.to/lastmile_qr_scan"}}, {"bike_id": "142c0eb512bc7ce1717e508ea03c4bb9", "fusion_lon": 0.0, "name": "142c0eb512bc7ce1717e508ea03c4bb9", "lat": 38.92102116666667, "is_disabled": 0, "is_reserved": 0, "lon": -77.04182483333334, "type": "electric_scooter", "fusion_lat": 0.0, "rental_uris": {"android": "https://dc.lft.to/lastmile_qr_scan", "ios": "https://dc.lft.to/lastmile_qr_scan"}}, {"bike_id": "3d45505a14c69b27f99c99e71fab3350", "fusion_lon": 0.0, "name": "3d45505a14c69b27f99c99e71fab3350", "lat": 38.923668166666666, "is_disabled": 0, "is_reserved": 0, "lon": -77.019549, "type": "electric_scooter", "fusion_lat": 0.0, "rental_uris": {"android": "https://dc.lft.to/lastmile_qr_scan", "ios": "https://dc.lft.to/lastmile_qr_scan"}}, {"bike_id": "f833350fb91a9651a8caf4431359b559", "fusion_lon": 0.0, "name": "f833350fb91a9651a8caf4431359b559", "lat": 38.937541833333334, "is_disabled": 0, "is_reserved": 0, "lon": -77.024434, "type": "electric_scooter", "fusion_lat": 0.0, "rental_uris": {"android": "https://dc.lft.to/lastmile_qr_scan", "ios": "https://dc.lft.to/lastmile_qr_scan"}}, {"bike_id": "545d8113d8e427d273b8ecd529af0ab1", "fusion_lon": 0.0, "name": "545d8113d8e427d273b8ecd529af0ab1", "lat": 38.88950116666667, "is_disabled": 0, "is_reserved": 0, "lon": -76.99165016666667, "type": "electric_scooter", "fusion_lat": 0.0, "rental_uris": {"android": "https://dc.lft.to/lastmile_qr_scan", "ios": "https://dc.lft.to/lastmile_qr_scan"}}, {"bike_id": "ef29730db1b4589a5f8a5e2bef66c7ce", "fusion_lon": 0.0, "name": "ef29730db1b4589a5f8a5e2bef66c7ce", "lat": 38.92866183333334, "is_disabled": 0, "is_reserved": 0, "lon": -77.054478, "type": "electric_scooter", "fusion_lat": 0.0, "rental_uris": {"android": "https://dc.lft.to/lastmile_qr_scan", "ios": "https://dc.lft.to/lastmile_qr_scan"}}, {"bike_id": "5ade3f28a7c88bbd518dda93d6c20869", "fusion_lon": 0.0, "name": "5ade3f28a7c88bbd518dda93d6c20869", "lat": 38.8999155, "is_disabled": 0, "is_reserved": 0, "lon": -77.04036266666667, "type": "electric_scooter", "fusion_lat": 0.0, "rental_uris": {"android": "https://dc.lft.to/lastmile_qr_scan", "ios": "https://dc.lft.to/lastmile_qr_scan"}}, {"bike_id": "31ae670c9207e2ce10577163dc821f5d", "fusion_lon": 0.0, "name": "31ae670c9207e2ce10577163dc821f5d", "lat": 38.92333033333333, "is_disabled": 0, "is_reserved": 0, "lon": -77.02052733333333, "type": "electric_scooter", "fusion_lat": 0.0, "rental_uris": {"android": "https://dc.lft.to/lastmile_qr_scan", "ios": "https://dc.lft.to/lastmile_qr_scan"}}, {"bike_id": "023d9ba017652870bd8bc9dbe7225650", "fusion_lon": 0.0, "name": "023d9ba017652870bd8bc9dbe7225650", "lat": 38.9273245, "is_disabled": 0, "is_reserved": 0, "lon": -77.0231265, "type": "electric_scooter", "fusion_lat": 0.0, "rental_uris": {"android": "https://dc.lft.to/lastmile_qr_scan", "ios": "https://dc.lft.to/lastmile_qr_scan"}}, {"bike_id": "e4de3349efd7db634182f1fa1678a5ae", "fusion_lon": 0.0, "name": "e4de3349efd7db634182f1fa1678a5ae", "lat": 38.88420216666667, "is_disabled": 0, "is_reserved": 0, "lon": -77.025885, "type": "electric_scooter", "fusion_lat": 0.0, "rental_uris": {"android": "https://dc.lft.to/lastmile_qr_scan", "ios": "https://dc.lft.to/lastmile_qr_scan"}}, {"bike_id": "74d285f1513cd9674d9e36ce66f13e9f", "fusion_lon": 0.0, "name": "74d285f1513cd9674d9e36ce66f13e9f", "lat": 38.9273815, "is_disabled": 0, "is_reserved": 0, "lon": -77.02298, "type": "electric_scooter", "fusion_lat": 0.0, "rental_uris": {"android": "https://dc.lft.to/lastmile_qr_scan", "ios": "https://dc.lft.to/lastmile_qr_scan"}}, {"bike_id": "ab446b1dc53b6c44cd3dd2a196ea3fb5", "fusion_lon": 0.0, "name": "ab446b1dc53b6c44cd3dd2a196ea3fb5", "lat": 38.90258733333334, "is_disabled": 0, "is_reserved": 0, "lon": -77.03354066666667, "type": "electric_scooter", "fusion_lat": 0.0, "rental_uris": {"android": "https://dc.lft.to/lastmile_qr_scan", "ios": "https://dc.lft.to/lastmile_qr_scan"}}, {"bike_id": "98aed97cebfdaf9c9577f9e21ddc33da", "fusion_lon": 0.0, "name": "98aed97cebfdaf9c9577f9e21ddc33da", "lat": 38.898753166666665, "is_disabled": 0, "is_reserved": 0, "lon": -77.028386, "type": "electric_scooter", "fusion_lat": 0.0, "rental_uris": {"android": "https://dc.lft.to/lastmile_qr_scan", "ios": "https://dc.lft.to/lastmile_qr_scan"}}, {"bike_id": "37d1bb01b9b6f49eee2b787c1eaf0623", "fusion_lon": 0.0, "name": "37d1bb01b9b6f49eee2b787c1eaf0623", "lat": 38.8939275, "is_disabled": 0, "is_reserved": 0, "lon": -76.92306716666667, "type": "electric_scooter", "fusion_lat": 0.0, "rental_uris": {"android": "https://dc.lft.to/lastmile_qr_scan", "ios": "https://dc.lft.to/lastmile_qr_scan"}}, {"bike_id": "216029a6e279863e505f37a03b8c82ce", "fusion_lon": 0.0, "name": "216029a6e279863e505f37a03b8c82ce", "lat": 38.898613833333336, "is_disabled": 0, "is_reserved": 0, "lon": -76.94638016666667, "type": "electric_scooter", "fusion_lat": 0.0, "rental_uris": {"android": "https://dc.lft.to/lastmile_qr_scan", "ios": "https://dc.lft.to/lastmile_qr_scan"}}, {"bike_id": "7502e5f973549ded8ae43f36c70744fd", "fusion_lon": 0.0, "name": "7502e5f973549ded8ae43f36c70744fd", "lat": 38.861777000000004, "is_disabled": 0, "is_reserved": 0, "lon": -76.969037, "type": "electric_scooter", "fusion_lat": 0.0, "rental_uris": {"android": "https://dc.lft.to/lastmile_qr_scan", "ios": "https://dc.lft.to/lastmile_qr_scan"}}, {"bike_id": "d75a67e286f0304a2684593e34c87a01", "fusion_lon": 0.0, "name": "d75a67e286f0304a2684593e34c87a01", "lat": 38.9078305, "is_disabled": 0, "is_reserved": 0, "lon": -77.072502, "type": "electric_scooter", "fusion_lat": 0.0, "rental_uris": {"android": "https://dc.lft.to/lastmile_qr_scan", "ios": "https://dc.lft.to/lastmile_qr_scan"}}, {"bike_id": "1aad81e1e4d04ac443a47e0d43e0f864", "fusion_lon": 0.0, "name": "1aad81e1e4d04ac443a47e0d43e0f864", "lat": 38.89962166666667, "is_disabled": 0, "is_reserved": 0, "lon": -77.015201, "type": "electric_scooter", "fusion_lat": 0.0, "rental_uris": {"android": "https://dc.lft.to/lastmile_qr_scan", "ios": "https://dc.lft.to/lastmile_qr_scan"}}, {"bike_id": "40af437532b7384ae9d93c5655f33f44", "fusion_lon": 0.0, "name": "40af437532b7384ae9d93c5655f33f44", "lat": 38.920836666666666, "is_disabled": 0, "is_reserved": 0, "lon": -77.022141, "type": "electric_scooter", "fusion_lat": 0.0, "rental_uris": {"android": "https://dc.lft.to/lastmile_qr_scan", "ios": "https://dc.lft.to/lastmile_qr_scan"}}, {"bike_id": "77a21022d87bff335d089b9a7e3a2ff6", "fusion_lon": 0.0, "name": "77a21022d87bff335d089b9a7e3a2ff6", "lat": 38.90531983333333, "is_disabled": 0, "is_reserved": 0, "lon": -77.05127433333334, "type": "electric_scooter", "fusion_lat": 0.0, "rental_uris": {"android": "https://dc.lft.to/lastmile_qr_scan", "ios": "https://dc.lft.to/lastmile_qr_scan"}}, {"bike_id": "8cc1a2b2f781f3664935c93b7454a2ec", "fusion_lon": 0.0, "name": "8cc1a2b2f781f3664935c93b7454a2ec", "lat": 38.94956233333333, "is_disabled": 0, "is_reserved": 0, "lon": -77.0231525, "type": "electric_scooter", "fusion_lat": 0.0, "rental_uris": {"android": "https://dc.lft.to/lastmile_qr_scan", "ios": "https://dc.lft.to/lastmile_qr_scan"}}, {"bike_id": "b92e49fa1f47160b219ada32b515cf17", "fusion_lon": 0.0, "name": "b92e49fa1f47160b219ada32b515cf17", "lat": 39.0563705, "is_disabled": 0, "is_reserved": 0, "lon": -77.12527316666667, "type": "electric_bike", "fusion_lat": 0.0, "rental_uris": {"android": "https://dc.lft.to/lastmile_qr_scan", "ios": "https://dc.lft.to/lastmile_qr_scan"}}, {"bike_id": "fadaaaf6be827008d75008a023fec7df", "fusion_lon": 0.0, "name": "fadaaaf6be827008d75008a023fec7df", "lat": 38.933846, "is_disabled": 0, "is_reserved": 0, "lon": -77.0268355, "type": "electric_scooter", "fusion_lat": 0.0, "rental_uris": {"android": "https://dc.lft.to/lastmile_qr_scan", "ios": "https://dc.lft.to/lastmile_qr_scan"}}, {"bike_id": "30ea0658608674fa96402e930006c7c5", "fusion_lon": 0.0, "name": "30ea0658608674fa96402e930006c7c5", "lat": 38.904613833333336, "is_disabled": 0, "is_reserved": 0, "lon": -77.05125733333334, "type": "electric_scooter", "fusion_lat": 0.0, "rental_uris": {"android": "https://dc.lft.to/lastmile_qr_scan", "ios": "https://dc.lft.to/lastmile_qr_scan"}}, {"bike_id": "281b7e74ece44947da5d1b2e962eb0c8", "fusion_lon": 0.0, "name": "281b7e74ece44947da5d1b2e962eb0c8", "lat": 38.9105255, "is_disabled": 0, "is_reserved": 0, "lon": -77.06390116666667, "type": "electric_scooter", "fusion_lat": 0.0, "rental_uris": {"android": "https://dc.lft.to/lastmile_qr_scan", "ios": "https://dc.lft.to/lastmile_qr_scan"}}, {"bike_id": "0746632119ae1dedaafcada52159e91d", "fusion_lon": 0.0, "name": "0746632119ae1dedaafcada52159e91d", "lat": 38.8862105, "is_disabled": 0, "is_reserved": 0, "lon": -77.015587, "type": "electric_scooter", "fusion_lat": 0.0, "rental_uris": {"android": "https://dc.lft.to/lastmile_qr_scan", "ios": "https://dc.lft.to/lastmile_qr_scan"}}, {"bike_id": "add324ff3a50f535305880971623fee0", "fusion_lon": 0.0, "name": "add324ff3a50f535305880971623fee0", "lat": 38.89753116666667, "is_disabled": 0, "is_reserved": 0, "lon": -77.0452905, "type": "electric_scooter", "fusion_lat": 0.0, "rental_uris": {"android": "https://dc.lft.to/lastmile_qr_scan", "ios": "https://dc.lft.to/lastmile_qr_scan"}}, {"bike_id": "32940c1bac24ad1f0a730c918ff688e8", "fusion_lon": 0.0, "name": "32940c1bac24ad1f0a730c918ff688e8", "lat": 38.8950315, "is_disabled": 0, "is_reserved": 0, "lon": -77.00214033333333, "type": "electric_scooter", "fusion_lat": 0.0, "rental_uris": {"android": "https://dc.lft.to/lastmile_qr_scan", "ios": "https://dc.lft.to/lastmile_qr_scan"}}, {"bike_id": "aa1f414b006e6d57546dda8b0360ded7", "fusion_lon": 0.0, "name": "aa1f414b006e6d57546dda8b0360ded7", "lat": 38.9356175, "is_disabled": 0, "is_reserved": 0, "lon": -77.07460933333333, "type": "electric_scooter", "fusion_lat": 0.0, "rental_uris": {"android": "https://dc.lft.to/lastmile_qr_scan", "ios": "https://dc.lft.to/lastmile_qr_scan"}}, {"bike_id": "ce5858e4e23192651c77e8161074c2c2", "fusion_lon": 0.0, "name": "ce5858e4e23192651c77e8161074c2c2", "lat": 38.912704833333336, "is_disabled": 0, "is_reserved": 0, "lon": -77.03830316666667, "type": "electric_scooter", "fusion_lat": 0.0, "rental_uris": {"android": "https://dc.lft.to/lastmile_qr_scan", "ios": "https://dc.lft.to/lastmile_qr_scan"}}, {"bike_id": "cf8e6d160ca453d85d4e0cb8f84f0516", "fusion_lon": 0.0, "name": "cf8e6d160ca453d85d4e0cb8f84f0516", "lat": 38.90100066666667, "is_disabled": 0, "is_reserved": 0, "lon": -77.018141, "type": "electric_scooter", "fusion_lat": 0.0, "rental_uris": {"android": "https://dc.lft.to/lastmile_qr_scan", "ios": "https://dc.lft.to/lastmile_qr_scan"}}, {"bike_id": "0d96020abc5c39f5807658a4bf8a14e9", "fusion_lon": 0.0, "name": "0d96020abc5c39f5807658a4bf8a14e9", "lat": 38.926111666666664, "is_disabled": 0, "is_reserved": 0, "lon": -77.05714216666667, "type": "electric_scooter", "fusion_lat": 0.0, "rental_uris": {"android": "https://dc.lft.to/lastmile_qr_scan", "ios": "https://dc.lft.to/lastmile_qr_scan"}}, {"bike_id": "b08d3b226d7a85348469acf6eda9a6d8", "fusion_lon": 0.0, "name": "b08d3b226d7a85348469acf6eda9a6d8", "lat": 38.876439500000004, "is_disabled": 0, "is_reserved": 0, "lon": -77.00527216666667, "type": "electric_scooter", "fusion_lat": 0.0, "rental_uris": {"android": "https://dc.lft.to/lastmile_qr_scan", "ios": "https://dc.lft.to/lastmile_qr_scan"}}, {"bike_id": "331c48f2bc6bef45f87a91158d92ca4a", "fusion_lon": 0.0, "name": "331c48f2bc6bef45f87a91158d92ca4a", "lat": 38.9236655, "is_disabled": 0, "is_reserved": 0, "lon": -77.05030116666667, "type": "electric_scooter", "fusion_lat": 0.0, "rental_uris": {"android": "https://dc.lft.to/lastmile_qr_scan", "ios": "https://dc.lft.to/lastmile_qr_scan"}}, {"bike_id": "05b736d5a06ceb87b8bcf912453364dc", "fusion_lon": 0.0, "name": "05b736d5a06ceb87b8bcf912453364dc", "lat": 38.935827833333335, "is_disabled": 0, "is_reserved": 0, "lon": -77.03358283333333, "type": "electric_scooter", "fusion_lat": 0.0, "rental_uris": {"android": "https://dc.lft.to/lastmile_qr_scan", "ios": "https://dc.lft.to/lastmile_qr_scan"}}, {"bike_id": "20519dc32a64d638b1e7228f8409b6ba", "fusion_lon": 0.0, "name": "20519dc32a64d638b1e7228f8409b6ba", "lat": 38.90886716666667, "is_disabled": 0, "is_reserved": 0, "lon": -77.06429133333333, "type": "electric_scooter", "fusion_lat": 0.0, "rental_uris": {"android": "https://dc.lft.to/lastmile_qr_scan", "ios": "https://dc.lft.to/lastmile_qr_scan"}}, {"bike_id": "6b832ca5598ccde4fe23e2767a40c4ae", "fusion_lon": 0.0, "name": "6b832ca5598ccde4fe23e2767a40c4ae", "lat": 38.913542666666665, "is_disabled": 0, "is_reserved": 0, "lon": -77.0344445, "type": "electric_scooter", "fusion_lat": 0.0, "rental_uris": {"android": "https://dc.lft.to/lastmile_qr_scan", "ios": "https://dc.lft.to/lastmile_qr_scan"}}, {"bike_id": "f162222d7f73503c7ab00150f899a10d", "fusion_lon": 0.0, "name": "f162222d7f73503c7ab00150f899a10d", "lat": 38.8834575, "is_disabled": 0, "is_reserved": 0, "lon": -77.019602, "type": "electric_scooter", "fusion_lat": 0.0, "rental_uris": {"android": "https://dc.lft.to/lastmile_qr_scan", "ios": "https://dc.lft.to/lastmile_qr_scan"}}, {"bike_id": "7112f79fcca4e4475222495222537fe3", "fusion_lon": 0.0, "name": "7112f79fcca4e4475222495222537fe3", "lat": 38.93189983333333, "is_disabled": 0, "is_reserved": 0, "lon": -77.22925666666667, "type": "electric_bike", "fusion_lat": 0.0, "rental_uris": {"android": "https://dc.lft.to/lastmile_qr_scan", "ios": "https://dc.lft.to/lastmile_qr_scan"}}, {"bike_id": "089697eda3c1d3e0d717a9832a4fcfe7", "fusion_lon": 0.0, "name": "089697eda3c1d3e0d717a9832a4fcfe7", "lat": 38.91708533333333, "is_disabled": 0, "is_reserved": 0, "lon": -77.041472, "type": "electric_scooter", "fusion_lat": 0.0, "rental_uris": {"android": "https://dc.lft.to/lastmile_qr_scan", "ios": "https://dc.lft.to/lastmile_qr_scan"}}, {"bike_id": "d04d8450b656e007dda94a0387224831", "fusion_lon": 0.0, "name": "d04d8450b656e007dda94a0387224831", "lat": 38.82045433333333, "is_disabled": 0, "is_reserved": 0, "lon": -77.05359733333333, "type": "electric_bike", "fusion_lat": 0.0, "rental_uris": {"android": "https://dc.lft.to/lastmile_qr_scan", "ios": "https://dc.lft.to/lastmile_qr_scan"}}, {"bike_id": "3c093c3afe76902de7fb4957b699ae9e", "fusion_lon": 0.0, "name": "3c093c3afe76902de7fb4957b699ae9e", "lat": 38.902816, "is_disabled": 0, "is_reserved": 0, "lon": -77.02311916666666, "type": "electric_scooter", "fusion_lat": 0.0, "rental_uris": {"android": "https://dc.lft.to/lastmile_qr_scan", "ios": "https://dc.lft.to/lastmile_qr_scan"}}, {"bike_id": "c10b0d4316ab91ba76deae8d1c791708", "fusion_lon": 0.0, "name": "c10b0d4316ab91ba76deae8d1c791708", "lat": 38.9208025, "is_disabled": 0, "is_reserved": 0, "lon": -76.9972855, "type": "electric_scooter", "fusion_lat": 0.0, "rental_uris": {"android": "https://dc.lft.to/lastmile_qr_scan", "ios": "https://dc.lft.to/lastmile_qr_scan"}}, {"bike_id": "4f6a656f294f233e1c7eff51815760ef", "fusion_lon": 0.0, "name": "4f6a656f294f233e1c7eff51815760ef", "lat": 38.883014333333335, "is_disabled": 0, "is_reserved": 0, "lon": -77.02479483333333, "type": "electric_scooter", "fusion_lat": 0.0, "rental_uris": {"android": "https://dc.lft.to/lastmile_qr_scan", "ios": "https://dc.lft.to/lastmile_qr_scan"}}, {"bike_id": "5597ec37ec72e1cc6747ab3ec3102481", "fusion_lon": 0.0, "name": "5597ec37ec72e1cc6747ab3ec3102481", "lat": 38.9207665, "is_disabled": 0, "is_reserved": 0, "lon": -77.0408855, "type": "electric_scooter", "fusion_lat": 0.0, "rental_uris": {"android": "https://dc.lft.to/lastmile_qr_scan", "ios": "https://dc.lft.to/lastmile_qr_scan"}}, {"bike_id": "d9c1f868a64f39be498541082d5c4950", "fusion_lon": 0.0, "name": "d9c1f868a64f39be498541082d5c4950", "lat": 38.90833716666667, "is_disabled": 0, "is_reserved": 0, "lon": -76.98261366666667, "type": "electric_scooter", "fusion_lat": 0.0, "rental_uris": {"android": "https://dc.lft.to/lastmile_qr_scan", "ios": "https://dc.lft.to/lastmile_qr_scan"}}, {"bike_id": "ea39134957b3772e6269ceac38c7a64f", "fusion_lon": 0.0, "name": "ea39134957b3772e6269ceac38c7a64f", "lat": 38.897356333333335, "is_disabled": 0, "is_reserved": 0, "lon": -77.00778333333334, "type": "electric_bike", "fusion_lat": 0.0, "rental_uris": {"android": "https://dc.lft.to/lastmile_qr_scan", "ios": "https://dc.lft.to/lastmile_qr_scan"}}, {"bike_id": "7061978652094831f4aeace25909444a", "fusion_lon": 0.0, "name": "7061978652094831f4aeace25909444a", "lat": 38.90965516666667, "is_disabled": 0, "is_reserved": 0, "lon": -77.03463016666667, "type": "electric_scooter", "fusion_lat": 0.0, "rental_uris": {"android": "https://dc.lft.to/lastmile_qr_scan", "ios": "https://dc.lft.to/lastmile_qr_scan"}}, {"bike_id": "efa393157c1e88f920779c91abd6015d", "fusion_lon": 0.0, "name": "efa393157c1e88f920779c91abd6015d", "lat": 38.89608883333333, "is_disabled": 0, "is_reserved": 0, "lon": -77.02582183333334, "type": "electric_scooter", "fusion_lat": 0.0, "rental_uris": {"android": "https://dc.lft.to/lastmile_qr_scan", "ios": "https://dc.lft.to/lastmile_qr_scan"}}, {"bike_id": "0e811dd8a8a1cc956c6c542a64b9d1eb", "fusion_lon": 0.0, "name": "0e811dd8a8a1cc956c6c542a64b9d1eb", "lat": 38.892257, "is_disabled": 0, "is_reserved": 0, "lon": -77.03326233333334, "type": "electric_scooter", "fusion_lat": 0.0, "rental_uris": {"android": "https://dc.lft.to/lastmile_qr_scan", "ios": "https://dc.lft.to/lastmile_qr_scan"}}, {"bike_id": "9f079f7dfa77f733ace0a770ac24c975", "fusion_lon": 0.0, "name": "9f079f7dfa77f733ace0a770ac24c975", "lat": 38.91302533333333, "is_disabled": 0, "is_reserved": 0, "lon": -77.04868433333333, "type": "electric_scooter", "fusion_lat": 0.0, "rental_uris": {"android": "https://dc.lft.to/lastmile_qr_scan", "ios": "https://dc.lft.to/lastmile_qr_scan"}}, {"bike_id": "96584568df60a3b2a83c02c65bb32600", "fusion_lon": 0.0, "name": "96584568df60a3b2a83c02c65bb32600", "lat": 38.9016055, "is_disabled": 0, "is_reserved": 0, "lon": -77.01325133333333, "type": "electric_scooter", "fusion_lat": 0.0, "rental_uris": {"android": "https://dc.lft.to/lastmile_qr_scan", "ios": "https://dc.lft.to/lastmile_qr_scan"}}, {"bike_id": "0dd080d31539de058f72d108427118a7", "fusion_lon": 0.0, "name": "0dd080d31539de058f72d108427118a7", "lat": 38.8928575, "is_disabled": 0, "is_reserved": 0, "lon": -76.98307183333333, "type": "electric_scooter", "fusion_lat": 0.0, "rental_uris": {"android": "https://dc.lft.to/lastmile_qr_scan", "ios": "https://dc.lft.to/lastmile_qr_scan"}}, {"bike_id": "f74f72ae07d157d1fc66504641244768", "fusion_lon": 0.0, "name": "f74f72ae07d157d1fc66504641244768", "lat": 38.90685166666667, "is_disabled": 0, "is_reserved": 0, "lon": -77.02693116666667, "type": "electric_scooter", "fusion_lat": 0.0, "rental_uris": {"android": "https://dc.lft.to/lastmile_qr_scan", "ios": "https://dc.lft.to/lastmile_qr_scan"}}, {"bike_id": "035a337f8333942925e1a1aa9807ef43", "fusion_lon": 0.0, "name": "035a337f8333942925e1a1aa9807ef43", "lat": 38.86167666666667, "is_disabled": 0, "is_reserved": 0, "lon": -76.9836795, "type": "electric_scooter", "fusion_lat": 0.0, "rental_uris": {"android": "https://dc.lft.to/lastmile_qr_scan", "ios": "https://dc.lft.to/lastmile_qr_scan"}}, {"bike_id": "2230568390823abf16c5016e3ffaf70d", "fusion_lon": 0.0, "name": "2230568390823abf16c5016e3ffaf70d", "lat": 38.8765655, "is_disabled": 0, "is_reserved": 0, "lon": -77.00739983333334, "type": "electric_scooter", "fusion_lat": 0.0, "rental_uris": {"android": "https://dc.lft.to/lastmile_qr_scan", "ios": "https://dc.lft.to/lastmile_qr_scan"}}, {"bike_id": "fbdf4544d7ca5020ac27ad54540712a7", "fusion_lon": 0.0, "name": "fbdf4544d7ca5020ac27ad54540712a7", "lat": 38.902808, "is_disabled": 0, "is_reserved": 0, "lon": -77.02310783333333, "type": "electric_scooter", "fusion_lat": 0.0, "rental_uris": {"android": "https://dc.lft.to/lastmile_qr_scan", "ios": "https://dc.lft.to/lastmile_qr_scan"}}, {"bike_id": "936ab15c46fbbbe634ce161e0ee73096", "fusion_lon": 0.0, "name": "936ab15c46fbbbe634ce161e0ee73096", "lat": 38.905576333333336, "is_disabled": 0, "is_reserved": 0, "lon": -77.04336483333333, "type": "electric_scooter", "fusion_lat": 0.0, "rental_uris": {"android": "https://dc.lft.to/lastmile_qr_scan", "ios": "https://dc.lft.to/lastmile_qr_scan"}}, {"bike_id": "1542948eed50d5ec2b79a4cbb09c8757", "fusion_lon": 0.0, "name": "1542948eed50d5ec2b79a4cbb09c8757", "lat": 38.887663833333335, "is_disabled": 0, "is_reserved": 0, "lon": -76.97749866666666, "type": "electric_scooter", "fusion_lat": 0.0, "rental_uris": {"android": "https://dc.lft.to/lastmile_qr_scan", "ios": "https://dc.lft.to/lastmile_qr_scan"}}, {"bike_id": "3d81d57d26cc60042888cede8b5045fb", "fusion_lon": 0.0, "name": "3d81d57d26cc60042888cede8b5045fb", "lat": 38.91077033333333, "is_disabled": 0, "is_reserved": 0, "lon": -77.06552333333333, "type": "electric_bike", "fusion_lat": 0.0, "rental_uris": {"android": "https://dc.lft.to/lastmile_qr_scan", "ios": "https://dc.lft.to/lastmile_qr_scan"}}, {"bike_id": "08c4f1879948a8625b30c58114559b11", "fusion_lon": 0.0, "name": "08c4f1879948a8625b30c58114559b11", "lat": 38.91492266666667, "is_disabled": 0, "is_reserved": 0, "lon": -77.04837516666667, "type": "electric_scooter", "fusion_lat": 0.0, "rental_uris": {"android": "https://dc.lft.to/lastmile_qr_scan", "ios": "https://dc.lft.to/lastmile_qr_scan"}}, {"bike_id": "57668f3d809d59ecf48c52f090327664", "fusion_lon": 0.0, "name": "57668f3d809d59ecf48c52f090327664", "lat": 38.912879333333336, "is_disabled": 0, "is_reserved": 0, "lon": -76.98478416666667, "type": "electric_scooter", "fusion_lat": 0.0, "rental_uris": {"android": "https://dc.lft.to/lastmile_qr_scan", "ios": "https://dc.lft.to/lastmile_qr_scan"}}, {"bike_id": "659c61d2d935dc8e70dc162cae18e4a7", "fusion_lon": 0.0, "name": "659c61d2d935dc8e70dc162cae18e4a7", "lat": 38.900620833333335, "is_disabled": 0, "is_reserved": 0, "lon": -77.00775116666667, "type": "electric_scooter", "fusion_lat": 0.0, "rental_uris": {"android": "https://dc.lft.to/lastmile_qr_scan", "ios": "https://dc.lft.to/lastmile_qr_scan"}}, {"bike_id": "d7e0baf54d56b540272e098e4db82648", "fusion_lon": 0.0, "name": "d7e0baf54d56b540272e098e4db82648", "lat": 38.91273133333333, "is_disabled": 0, "is_reserved": 0, "lon": -77.04839216666667, "type": "electric_scooter", "fusion_lat": 0.0, "rental_uris": {"android": "https://dc.lft.to/lastmile_qr_scan", "ios": "https://dc.lft.to/lastmile_qr_scan"}}, {"bike_id": "00e9d9509e28df4f6f487922336f82f6", "fusion_lon": 0.0, "name": "00e9d9509e28df4f6f487922336f82f6", "lat": 38.961488833333334, "is_disabled": 0, "is_reserved": 0, "lon": -77.07368066666666, "type": "electric_scooter", "fusion_lat": 0.0, "rental_uris": {"android": "https://dc.lft.to/lastmile_qr_scan", "ios": "https://dc.lft.to/lastmile_qr_scan"}}, {"bike_id": "4dbf04611d7aa81d9b5356576609ffd8", "fusion_lon": 0.0, "name": "4dbf04611d7aa81d9b5356576609ffd8", "lat": 38.90594633333333, "is_disabled": 0, "is_reserved": 0, "lon": -77.04082033333333, "type": "electric_scooter", "fusion_lat": 0.0, "rental_uris": {"android": "https://dc.lft.to/lastmile_qr_scan", "ios": "https://dc.lft.to/lastmile_qr_scan"}}, {"bike_id": "eefa611688e325a9fb8517714b124069", "fusion_lon": 0.0, "name": "eefa611688e325a9fb8517714b124069", "lat": 38.893606166666665, "is_disabled": 0, "is_reserved": 0, "lon": -76.92593483333333, "type": "electric_scooter", "fusion_lat": 0.0, "rental_uris": {"android": "https://dc.lft.to/lastmile_qr_scan", "ios": "https://dc.lft.to/lastmile_qr_scan"}}, {"bike_id": "fbd76a1d75ad586808e8972f7d0fecec", "fusion_lon": 0.0, "name": "fbd76a1d75ad586808e8972f7d0fecec", "lat": 38.92311016666667, "is_disabled": 0, "is_reserved": 0, "lon": -77.04107916666666, "type": "electric_scooter", "fusion_lat": 0.0, "rental_uris": {"android": "https://dc.lft.to/lastmile_qr_scan", "ios": "https://dc.lft.to/lastmile_qr_scan"}}, {"bike_id": "049c10aa758e49027157aa6da6d61bc4", "fusion_lon": 0.0, "name": "049c10aa758e49027157aa6da6d61bc4", "lat": 38.9094955, "is_disabled": 0, "is_reserved": 0, "lon": -76.9853855, "type": "electric_scooter", "fusion_lat": 0.0, "rental_uris": {"android": "https://dc.lft.to/lastmile_qr_scan", "ios": "https://dc.lft.to/lastmile_qr_scan"}}, {"bike_id": "157d55e1566311e95e93b03b877bea39", "fusion_lon": 0.0, "name": "157d55e1566311e95e93b03b877bea39", "lat": 38.91704266666667, "is_disabled": 0, "is_reserved": 0, "lon": -77.04212283333334, "type": "electric_scooter", "fusion_lat": 0.0, "rental_uris": {"android": "https://dc.lft.to/lastmile_qr_scan", "ios": "https://dc.lft.to/lastmile_qr_scan"}}, {"bike_id": "2c200441be92de3e95a73856e3222e64", "fusion_lon": 0.0, "name": "2c200441be92de3e95a73856e3222e64", "lat": 38.9187865, "is_disabled": 0, "is_reserved": 0, "lon": -77.043087, "type": "electric_scooter", "fusion_lat": 0.0, "rental_uris": {"android": "https://dc.lft.to/lastmile_qr_scan", "ios": "https://dc.lft.to/lastmile_qr_scan"}}, {"bike_id": "0f5651e6102c18686a3f13d7c1ef02bc", "fusion_lon": 0.0, "name": "0f5651e6102c18686a3f13d7c1ef02bc", "lat": 38.865181666666665, "is_disabled": 0, "is_reserved": 0, "lon": -77.12937616666666, "type": "electric_bike", "fusion_lat": 0.0, "rental_uris": {"android": "https://dc.lft.to/lastmile_qr_scan", "ios": "https://dc.lft.to/lastmile_qr_scan"}}, {"bike_id": "7aecf472577c47c9327454718b7ef58d", "fusion_lon": 0.0, "name": "7aecf472577c47c9327454718b7ef58d", "lat": 38.824507, "is_disabled": 0, "is_reserved": 0, "lon": -77.00790383333333, "type": "electric_bike", "fusion_lat": 0.0, "rental_uris": {"android": "https://dc.lft.to/lastmile_qr_scan", "ios": "https://dc.lft.to/lastmile_qr_scan"}}, {"bike_id": "9c40069c228a73aa82c52663e378b247", "fusion_lon": 0.0, "name": "9c40069c228a73aa82c52663e378b247", "lat": 38.89594616666667, "is_disabled": 0, "is_reserved": 0, "lon": -77.02571166666667, "type": "electric_scooter", "fusion_lat": 0.0, "rental_uris": {"android": "https://dc.lft.to/lastmile_qr_scan", "ios": "https://dc.lft.to/lastmile_qr_scan"}}, {"bike_id": "b22a92ad52b94160915a5906da25286a", "fusion_lon": 0.0, "name": "b22a92ad52b94160915a5906da25286a", "lat": 38.923587833333336, "is_disabled": 0, "is_reserved": 0, "lon": -77.05053883333333, "type": "electric_scooter", "fusion_lat": 0.0, "rental_uris": {"android": "https://dc.lft.to/lastmile_qr_scan", "ios": "https://dc.lft.to/lastmile_qr_scan"}}, {"bike_id": "743e58e7065ba0cf37323f0b006e4d63", "fusion_lon": 0.0, "name": "743e58e7065ba0cf37323f0b006e4d63", "lat": 38.9098705, "is_disabled": 0, "is_reserved": 0, "lon": -77.03464566666666, "type": "electric_scooter", "fusion_lat": 0.0, "rental_uris": {"android": "https://dc.lft.to/lastmile_qr_scan", "ios": "https://dc.lft.to/lastmile_qr_scan"}}, {"bike_id": "ccc546d599f7f2b05f218bb5963fc321", "fusion_lon": 0.0, "name": "ccc546d599f7f2b05f218bb5963fc321", "lat": 38.898286, "is_disabled": 0, "is_reserved": 0, "lon": -77.0286415, "type": "electric_scooter", "fusion_lat": 0.0, "rental_uris": {"android": "https://dc.lft.to/lastmile_qr_scan", "ios": "https://dc.lft.to/lastmile_qr_scan"}}, {"bike_id": "06d5e7c117d94fd746f3ce3a2ccea167", "fusion_lon": 0.0, "name": "06d5e7c117d94fd746f3ce3a2ccea167", "lat": 38.928581, "is_disabled": 0, "is_reserved": 0, "lon": -77.0351715, "type": "electric_scooter", "fusion_lat": 0.0, "rental_uris": {"android": "https://dc.lft.to/lastmile_qr_scan", "ios": "https://dc.lft.to/lastmile_qr_scan"}}, {"bike_id": "49066aff1cb02de0193412672183b4ab", "fusion_lon": 0.0, "name": "49066aff1cb02de0193412672183b4ab", "lat": 38.91585333333333, "is_disabled": 0, "is_reserved": 0, "lon": -76.97964066666667, "type": "electric_scooter", "fusion_lat": 0.0, "rental_uris": {"android": "https://dc.lft.to/lastmile_qr_scan", "ios": "https://dc.lft.to/lastmile_qr_scan"}}, {"bike_id": "00014b69d79020c8993e574d51ff1e6f", "fusion_lon": 0.0, "name": "00014b69d79020c8993e574d51ff1e6f", "lat": 38.916019, "is_disabled": 0, "is_reserved": 0, "lon": -77.02286283333333, "type": "electric_scooter", "fusion_lat": 0.0, "rental_uris": {"android": "https://dc.lft.to/lastmile_qr_scan", "ios": "https://dc.lft.to/lastmile_qr_scan"}}, {"bike_id": "27bff05670f6d5ac840f4b0cacc7516b", "fusion_lon": 0.0, "name": "27bff05670f6d5ac840f4b0cacc7516b", "lat": 38.85699866666667, "is_disabled": 0, "is_reserved": 0, "lon": -76.99596466666667, "type": "electric_scooter", "fusion_lat": 0.0, "rental_uris": {"android": "https://dc.lft.to/lastmile_qr_scan", "ios": "https://dc.lft.to/lastmile_qr_scan"}}, {"bike_id": "8f0da6f31a453ffe9ecd96a7f2f1ae4a", "fusion_lon": 0.0, "name": "8f0da6f31a453ffe9ecd96a7f2f1ae4a", "lat": 38.88709466666667, "is_disabled": 0, "is_reserved": 0, "lon": -77.02193983333333, "type": "electric_scooter", "fusion_lat": 0.0, "rental_uris": {"android": "https://dc.lft.to/lastmile_qr_scan", "ios": "https://dc.lft.to/lastmile_qr_scan"}}, {"bike_id": "44fa8f119f3d14290beb853e18ebbaba", "fusion_lon": 0.0, "name": "44fa8f119f3d14290beb853e18ebbaba", "lat": 38.8962745, "is_disabled": 0, "is_reserved": 0, "lon": -76.988332, "type": "electric_scooter", "fusion_lat": 0.0, "rental_uris": {"android": "https://dc.lft.to/lastmile_qr_scan", "ios": "https://dc.lft.to/lastmile_qr_scan"}}, {"bike_id": "7f06e65d7318c3283fef69060a4954b8", "fusion_lon": 0.0, "name": "7f06e65d7318c3283fef69060a4954b8", "lat": 38.916997, "is_disabled": 0, "is_reserved": 0, "lon": -77.02891116666666, "type": "electric_scooter", "fusion_lat": 0.0, "rental_uris": {"android": "https://dc.lft.to/lastmile_qr_scan", "ios": "https://dc.lft.to/lastmile_qr_scan"}}, {"bike_id": "9c94ad294c51bc715192133d92ae2a86", "fusion_lon": 0.0, "name": "9c94ad294c51bc715192133d92ae2a86", "lat": 38.89100616666666, "is_disabled": 0, "is_reserved": 0, "lon": -77.184129, "type": "electric_bike", "fusion_lat": 0.0, "rental_uris": {"android": "https://dc.lft.to/lastmile_qr_scan", "ios": "https://dc.lft.to/lastmile_qr_scan"}}, {"bike_id": "0aeec6efa7d22e2c953567f83b672aa8", "fusion_lon": 0.0, "name": "0aeec6efa7d22e2c953567f83b672aa8", "lat": 38.917078333333336, "is_disabled": 0, "is_reserved": 0, "lon": -77.03338, "type": "electric_scooter", "fusion_lat": 0.0, "rental_uris": {"android": "https://dc.lft.to/lastmile_qr_scan", "ios": "https://dc.lft.to/lastmile_qr_scan"}}, {"bike_id": "5f5c9522691edbc4932d0b513788bcf8", "fusion_lon": 0.0, "name": "5f5c9522691edbc4932d0b513788bcf8", "lat": 38.889972, "is_disabled": 0, "is_reserved": 0, "lon": -76.98740766666667, "type": "electric_scooter", "fusion_lat": 0.0, "rental_uris": {"android": "https://dc.lft.to/lastmile_qr_scan", "ios": "https://dc.lft.to/lastmile_qr_scan"}}, {"bike_id": "b53623f281aedcf969a8c2d4fc28d43a", "fusion_lon": 0.0, "name": "b53623f281aedcf969a8c2d4fc28d43a", "lat": 38.9309515, "is_disabled": 0, "is_reserved": 0, "lon": -77.02558966666666, "type": "electric_scooter", "fusion_lat": 0.0, "rental_uris": {"android": "https://dc.lft.to/lastmile_qr_scan", "ios": "https://dc.lft.to/lastmile_qr_scan"}}, {"bike_id": "a1b7cd38b383ea8bd4ee2fa79d3bec08", "fusion_lon": 0.0, "name": "a1b7cd38b383ea8bd4ee2fa79d3bec08", "lat": 38.903032333333336, "is_disabled": 0, "is_reserved": 0, "lon": -77.03195433333333, "type": "electric_scooter", "fusion_lat": 0.0, "rental_uris": {"android": "https://dc.lft.to/lastmile_qr_scan", "ios": "https://dc.lft.to/lastmile_qr_scan"}}, {"bike_id": "cf1c47897252956479201525c6f9211c", "fusion_lon": 0.0, "name": "cf1c47897252956479201525c6f9211c", "lat": 38.956368833333336, "is_disabled": 0, "is_reserved": 0, "lon": -77.03304016666667, "type": "electric_scooter", "fusion_lat": 0.0, "rental_uris": {"android": "https://dc.lft.to/lastmile_qr_scan", "ios": "https://dc.lft.to/lastmile_qr_scan"}}, {"bike_id": "468e6435a0c322c2640720d98d96e416", "fusion_lon": 0.0, "name": "468e6435a0c322c2640720d98d96e416", "lat": 38.91781316666667, "is_disabled": 0, "is_reserved": 0, "lon": -77.04100533333333, "type": "electric_scooter", "fusion_lat": 0.0, "rental_uris": {"android": "https://dc.lft.to/lastmile_qr_scan", "ios": "https://dc.lft.to/lastmile_qr_scan"}}, {"bike_id": "bce1e79189dfe2f770fe9d04ec0d6ec3", "fusion_lon": 0.0, "name": "bce1e79189dfe2f770fe9d04ec0d6ec3", "lat": 38.894796166666666, "is_disabled": 0, "is_reserved": 0, "lon": -77.01122083333334, "type": "electric_scooter", "fusion_lat": 0.0, "rental_uris": {"android": "https://dc.lft.to/lastmile_qr_scan", "ios": "https://dc.lft.to/lastmile_qr_scan"}}, {"bike_id": "4ce1db9125cb001aee69666ed8af860c", "fusion_lon": 0.0, "name": "4ce1db9125cb001aee69666ed8af860c", "lat": 38.898269, "is_disabled": 0, "is_reserved": 0, "lon": -77.03155166666667, "type": "electric_scooter", "fusion_lat": 0.0, "rental_uris": {"android": "https://dc.lft.to/lastmile_qr_scan", "ios": "https://dc.lft.to/lastmile_qr_scan"}}, {"bike_id": "c73ad1edc1abbc0bd27583a3d9e29710", "fusion_lon": 0.0, "name": "c73ad1edc1abbc0bd27583a3d9e29710", "lat": 38.88724966666667, "is_disabled": 0, "is_reserved": 0, "lon": -77.02576383333333, "type": "electric_scooter", "fusion_lat": 0.0, "rental_uris": {"android": "https://dc.lft.to/lastmile_qr_scan", "ios": "https://dc.lft.to/lastmile_qr_scan"}}, {"bike_id": "7e66dc4849ed7ff32672853432263654", "fusion_lon": 0.0, "name": "7e66dc4849ed7ff32672853432263654", "lat": 38.92375216666667, "is_disabled": 0, "is_reserved": 0, "lon": -77.0313355, "type": "electric_scooter", "fusion_lat": 0.0, "rental_uris": {"android": "https://dc.lft.to/lastmile_qr_scan", "ios": "https://dc.lft.to/lastmile_qr_scan"}}, {"bike_id": "c13515e6d5f57e3caf497a46c4626fbb", "fusion_lon": 0.0, "name": "c13515e6d5f57e3caf497a46c4626fbb", "lat": 38.90300416666667, "is_disabled": 0, "is_reserved": 0, "lon": -77.06027366666666, "type": "electric_scooter", "fusion_lat": 0.0, "rental_uris": {"android": "https://dc.lft.to/lastmile_qr_scan", "ios": "https://dc.lft.to/lastmile_qr_scan"}}, {"bike_id": "7ce5a3bcd570d56d6b938db5e5676ab9", "fusion_lon": 0.0, "name": "7ce5a3bcd570d56d6b938db5e5676ab9", "lat": 38.88328633333333, "is_disabled": 0, "is_reserved": 0, "lon": -77.017722, "type": "electric_scooter", "fusion_lat": 0.0, "rental_uris": {"android": "https://dc.lft.to/lastmile_qr_scan", "ios": "https://dc.lft.to/lastmile_qr_scan"}}, {"bike_id": "91c1d3e7a9059d22d2e7e3b294eee7e7", "fusion_lon": 0.0, "name": "91c1d3e7a9059d22d2e7e3b294eee7e7", "lat": 38.901805833333334, "is_disabled": 0, "is_reserved": 0, "lon": -77.02750916666666, "type": "electric_scooter", "fusion_lat": 0.0, "rental_uris": {"android": "https://dc.lft.to/lastmile_qr_scan", "ios": "https://dc.lft.to/lastmile_qr_scan"}}, {"bike_id": "fbab6c658dc8d253df6f1c5ab5b48414", "fusion_lon": 0.0, "name": "fbab6c658dc8d253df6f1c5ab5b48414", "lat": 38.916902, "is_disabled": 0, "is_reserved": 0, "lon": -77.0259675, "type": "electric_scooter", "fusion_lat": 0.0, "rental_uris": {"android": "https://dc.lft.to/lastmile_qr_scan", "ios": "https://dc.lft.to/lastmile_qr_scan"}}, {"bike_id": "fb7f1663231bc62fc938edf10f1f06a2", "fusion_lon": 0.0, "name": "fb7f1663231bc62fc938edf10f1f06a2", "lat": 38.897337666666665, "is_disabled": 0, "is_reserved": 0, "lon": -77.045419, "type": "electric_scooter", "fusion_lat": 0.0, "rental_uris": {"android": "https://dc.lft.to/lastmile_qr_scan", "ios": "https://dc.lft.to/lastmile_qr_scan"}}, {"bike_id": "9d250c0fb44111dd11e8c6b20960275b", "fusion_lon": 0.0, "name": "9d250c0fb44111dd11e8c6b20960275b", "lat": 38.914084, "is_disabled": 0, "is_reserved": 0, "lon": -77.0390845, "type": "electric_scooter", "fusion_lat": 0.0, "rental_uris": {"android": "https://dc.lft.to/lastmile_qr_scan", "ios": "https://dc.lft.to/lastmile_qr_scan"}}, {"bike_id": "78248803b1e39c9dda5416526e0cd75a", "fusion_lon": 0.0, "name": "78248803b1e39c9dda5416526e0cd75a", "lat": 38.87491833333333, "is_disabled": 0, "is_reserved": 0, "lon": -77.21123, "type": "electric_bike", "fusion_lat": 0.0, "rental_uris": {"android": "https://dc.lft.to/lastmile_qr_scan", "ios": "https://dc.lft.to/lastmile_qr_scan"}}, {"bike_id": "b1d606d95271e9a64b609d96eddb0f15", "fusion_lon": 0.0, "name": "b1d606d95271e9a64b609d96eddb0f15", "lat": 38.918836, "is_disabled": 0, "is_reserved": 0, "lon": -77.02970133333334, "type": "electric_scooter", "fusion_lat": 0.0, "rental_uris": {"android": "https://dc.lft.to/lastmile_qr_scan", "ios": "https://dc.lft.to/lastmile_qr_scan"}},