{"data": {"bikes": [{"bike_id": "67e96d57ef16edfc5157096cdc4b08da", "type": "electric_scooter", "is_disabled": 0, "lat": 38.91614333333333, "rental_uris": {"ios": "https://dc.lft.to/lastmile_qr_scan", "android": "https://dc.lft.to/lastmile_qr_scan"}, "is_reserved": 0, "fusion_lon": 0.0, "fusion_lat": 0.0, "lon": -77.0486255, "name": "67e96d57ef16edfc5157096cdc4b08da"}, {"bike_id": "e3f91b06d76f849106960a12671a1c7e", "type": "electric_scooter", "is_disabled": 0, "lat": 38.92907866666667, "rental_uris": {"ios": "https://dc.lft.to/lastmile_qr_scan", "android": "https://dc.lft.to/lastmile_qr_scan"}, "is_reserved": 0, "fusion_lon": 0.0, "fusion_lat": 0.0, "lon": -77.03245416666667, "name": "e3f91b06d76f849106960a12671a1c7e"}, {"bike_id": "d59577208e26511db9efa0f81f4369f7", "type": "electric_bike", "is_disabled": 0, "lat": 38.83606616666667, "rental_uris": {"ios": "https://dc.lft.to/lastmile_qr_scan", "android": "https://dc.lft.to/lastmile_qr_scan"}, "is_reserved": 0, "fusion_lon": 0.0, "fusion_lat": 0.0, "lon": -77.00382433333333, "name": "d59577208e26511db9efa0f81f4369f7"}, {"bike_id": "f367987b591addbb5cb5112e53b9d466", "type": "electric_scooter", "is_disabled": 0, "lat": 38.910055166666666, "rental_uris": {"ios": "https://dc.lft.to/lastmile_qr_scan", "android": "https://dc.lft.to/lastmile_qr_scan"}, "is_reserved": 0, "fusion_lon": 0.0, "fusion_lat": 0.0, "lon": -77.049267, "name": "f367987b591addbb5cb5112e53b9d466"}, {"bike_id": "123d0a2b65ca15e85b5c3be228659e48", "type": "electric_scooter", "is_disabled": 0, "lat": 38.916274666666666, "rental_uris": {"ios": "https://dc.lft.to/lastmile_qr_scan", "android": "https://dc.lft.to/lastmile_qr_scan"}, "is_reserved": 0, "fusion_lon": 0.0, "fusion_lat": 0.0, "lon": -77.03224, "name": "123d0a2b65ca15e85b5c3be228659e48"}, {"bike_id": "83207ecc3edc1cbb0c67d06ec3f1f61a", "type": "electric_bike", "is_disabled": 0, "lat": 38.87134733333333, "rental_uris": {"ios": "https://dc.lft.to/lastmile_qr_scan", "android": "https://dc.lft.to/lastmile_qr_scan"}, "is_reserved": 0, "fusion_lon": 0.0, "fusion_lat": 0.0, "lon": -77.100249, "name": "83207ecc3edc1cbb0c67d06ec3f1f61a"}, {"bike_id": "472f20522f3405665009fabbe24848ae", "type": "electric_scooter", "is_disabled": 0, "lat": 38.892514166666665, "rental_uris": {"ios": "https://dc.lft.to/lastmile_qr_scan", "android": "https://dc.lft.to/lastmile_qr_scan"}, "is_reserved": 0, "fusion_lon": 0.0, "fusion_lat": 0.0, "lon": -77.03344316666667, "name": "472f20522f3405665009fabbe24848ae"}, {"bike_id": "900d92a3d181dd54bee5546628d676f2", "type": "electric_scooter", "is_disabled": 0, "lat": 38.9302825, "rental_uris": {"ios": "https://dc.lft.to/lastmile_qr_scan", "android": "https://dc.lft.to/lastmile_qr_scan"}, "is_reserved": 0, "fusion_lon": 0.0, "fusion_lat": 0.0, "lon": -77.03807316666666, "name": "900d92a3d181dd54bee5546628d676f2"}, {"bike_id": "88307d280a0de9818b4bcded786d4510", "type": "electric_scooter", "is_disabled": 0, "lat": 38.89623516666666, "rental_uris": {"ios": "https://dc.lft.to/lastmile_qr_scan", "android": "https://dc.lft.to/lastmile_qr_scan"}, "is_reserved": 0, "fusion_lon": 0.0, "fusion_lat": 0.0, "lon": -77.00021616666666, "name": "88307d280a0de9818b4bcded786d4510"}, {"bike_id": "2d16fc5a4a9507f2c3e9faa97b7d56a2", "type": "electric_bike", "is_disabled": 0, "lat": 38.807083666666664, "rental_uris": {"ios": "https://dc.lft.to/lastmile_qr_scan", "android": "https://dc.lft.to/lastmile_qr_scan"}, "is_reserved": 0, "fusion_lon": 0.0, "fusion_lat": 0.0, "lon": -77.0617325, "name": "2d16fc5a4a9507f2c3e9faa97b7d56a2"}, {"bike_id": "f5ac6feb86c14137e3850a7935cd560a", "type": "electric_bike", "is_disabled": 0, "lat": 38.8040995, "rental_uris": {"ios": "https://dc.lft.to/lastmile_qr_scan", "android": "https://dc.lft.to/lastmile_qr_scan"}, "is_reserved": 0, "fusion_lon": 0.0, "fusion_lat": 0.0, "lon": -77.05553833333333, "name": "f5ac6feb86c14137e3850a7935cd560a"}, {"bike_id": "15e41a976d691b62c2d4660bdd6c585f", "type": "electric_scooter", "is_disabled": 0, "lat": 38.90551083333333, "rental_uris": {"ios": "https://dc.lft.to/lastmile_qr_scan", "android": "https://dc.lft.to/lastmile_qr_scan"}, "is_reserved": 0, "fusion_lon": 0.0, "fusion_lat": 0.0, "lon": -76.99621183333333, "name": "15e41a976d691b62c2d4660bdd6c585f"}, {"bike_id": "e89bd7a928064b8c20854b90dd32b7d6", "type": "electric_scooter", "is_disabled": 0, "lat": 38.90490533333333, "rental_uris": {"ios": "https://dc.lft.to/lastmile_qr_scan", "android": "https://dc.lft.to/lastmile_qr_scan"}, "is_reserved": 0, "fusion_lon": 0.0, "fusion_lat": 0.0, "lon": -77.01993216666666, "name": "e89bd7a928064b8c20854b90dd32b7d6"}, {"bike_id": "1426d9533d80866b141f036acc54a55b", "type": "electric_scooter", "is_disabled": 0, "lat": 38.922495, "rental_uris": {"ios": "https://dc.lft.to/lastmile_qr_scan", "android": "https://dc.lft.to/lastmile_qr_scan"}, "is_reserved": 0, "fusion_lon": 0.0, "fusion_lat": 0.0, "lon": -77.03900616666667, "name": "1426d9533d80866b141f036acc54a55b"}, {"bike_id": "f24cd817c791c21e36f99ee9dc2c718f", "type": "electric_scooter", "is_disabled": 0, "lat": 38.918108, "rental_uris": {"ios": "https://dc.lft.to/lastmile_qr_scan", "android": "https://dc.lft.to/lastmile_qr_scan"}, "is_reserved": 0, "fusion_lon": 0.0, "fusion_lat": 0.0, "lon": -77.03197416666667, "name": "f24cd817c791c21e36f99ee9dc2c718f"}, {"bike_id": "67efef381b6afd29dfd25cde3810a1c1", "type": "electric_scooter", "is_disabled": 0, "lat": 38.88932916666667, "rental_uris": {"ios": "https://dc.lft.to/lastmile_qr_scan", "android": "https://dc.lft.to/lastmile_qr_scan"}, "is_reserved": 0, "fusion_lon": 0.0, "fusion_lat": 0.0, "lon": -77.01510333333333, "name": "67efef381b6afd29dfd25cde3810a1c1"}, {"bike_id": "5e7696dd4672f171dc787a9cd2f27cfb", "type": "electric_scooter", "is_disabled": 0, "lat": 38.922574166666664, "rental_uris": {"ios": "https://dc.lft.to/lastmile_qr_scan", "android": "https://dc.lft.to/lastmile_qr_scan"}, "is_reserved": 0, "fusion_lon": 0.0, "fusion_lat": 0.0, "lon": -76.9943405, "name": "5e7696dd4672f171dc787a9cd2f27cfb"}, {"bike_id": "c3ca4ae40538f3787dd34525171c76d1", "type": "electric_bike", "is_disabled": 0, "lat": 38.939411166666666, "rental_uris": {"ios": "https://dc.lft.to/lastmile_qr_scan", "android": "https://dc.lft.to/lastmile_qr_scan"}, "is_reserved": 0, "fusion_lon": 0.0, "fusion_lat": 0.0, "lon": -76.963312, "name": "c3ca4ae40538f3787dd34525171c76d1"}, {"bike_id": "a25a13d78946d7a6a6fa7406a29857d1", "type": "electric_bike", "is_disabled": 0, "lat": 38.95225683333334, "rental_uris": {"ios": "https://dc.lft.to/lastmile_qr_scan", "android": "https://dc.lft.to/lastmile_qr_scan"}, "is_reserved": 0, "fusion_lon": 0.0, "fusion_lat": 0.0, "lon": -77.0022585, "name": "a25a13d78946d7a6a6fa7406a29857d1"}, {"bike_id": "4843c0986dc44725b7aae1ae1dd92549", "type": "electric_scooter", "is_disabled": 0, "lat": 38.884299666666664, "rental_uris": {"ios": "https://dc.lft.to/lastmile_qr_scan", "android": "https://dc.lft.to/lastmile_qr_scan"}, "is_reserved": 0, "fusion_lon": 0.0, "fusion_lat": 0.0, "lon": -76.9575865, "name": "4843c0986dc44725b7aae1ae1dd92549"}, {"bike_id": "5427febdb470cbabf53d5be55c2b1803", "type": "electric_scooter", "is_disabled": 0, "lat": 38.89538683333333, "rental_uris": {"ios": "https://dc.lft.to/lastmile_qr_scan", "android": "https://dc.lft.to/lastmile_qr_scan"}, "is_reserved": 0, "fusion_lon": 0.0, "fusion_lat": 0.0, "lon": -77.01091566666666, "name": "5427febdb470cbabf53d5be55c2b1803"}, {"bike_id": "72f85296b46816ddb2fd2f28aec2083b", "type": "electric_scooter", "is_disabled": 0, "lat": 38.9283625, "rental_uris": {"ios": "https://dc.lft.to/lastmile_qr_scan", "android": "https://dc.lft.to/lastmile_qr_scan"}, "is_reserved": 0, "fusion_lon": 0.0, "fusion_lat": 0.0, "lon": -77.02743316666667, "name": "72f85296b46816ddb2fd2f28aec2083b"}, {"bike_id": "26249e4e1ced6c2336d2db8c815e573f", "type": "electric_scooter", "is_disabled": 0, "lat": 38.936376833333334, "rental_uris": {"ios": "https://dc.lft.to/lastmile_qr_scan", "android": "https://dc.lft.to/lastmile_qr_scan"}, "is_reserved": 0, "fusion_lon": 0.0, "fusion_lat": 0.0, "lon": -77.05886916666667, "name": "26249e4e1ced6c2336d2db8c815e573f"}, {"bike_id": "ec4b584f04e4d3acf1746616c8caa602", "type": "electric_scooter", "is_disabled": 0, "lat": 38.92339966666667, "rental_uris": {"ios": "https://dc.lft.to/lastmile_qr_scan", "android": "https://dc.lft.to/lastmile_qr_scan"}, "is_reserved": 0, "fusion_lon": 0.0, "fusion_lat": 0.0, "lon": -77.00193483333334, "name": "ec4b584f04e4d3acf1746616c8caa602"}, {"bike_id": "49e5d1dfaf50fd21dc448660311da882", "type": "electric_scooter", "is_disabled": 0, "lat": 38.901342666666665, "rental_uris": {"ios": "https://dc.lft.to/lastmile_qr_scan", "android": "https://dc.lft.to/lastmile_qr_scan"}, "is_reserved": 0, "fusion_lon": 0.0, "fusion_lat": 0.0, "lon": -77.0085535, "name": "49e5d1dfaf50fd21dc448660311da882"}, {"bike_id": "9977eba8a49939114374546a84480fe8", "type": "electric_bike", "is_disabled": 0, "lat": 38.86192533333333, "rental_uris": {"ios": "https://dc.lft.to/lastmile_qr_scan", "android": "https://dc.lft.to/lastmile_qr_scan"}, "is_reserved": 0, "fusion_lon": 0.0, "fusion_lat": 0.0, "lon": -76.94805133333334, "name": "9977eba8a49939114374546a84480fe8"}, {"bike_id": "db966fb65ecbcc1fb100acf2eae602a1", "type": "electric_bike", "is_disabled": 0, "lat": 38.883016, "rental_uris": {"ios": "https://dc.lft.to/lastmile_qr_scan", "android": "https://dc.lft.to/lastmile_qr_scan"}, "is_reserved": 0, "fusion_lon": 0.0, "fusion_lat": 0.0, "lon": -76.99618666666667, "name": "db966fb65ecbcc1fb100acf2eae602a1"}, {"bike_id": "4335c26e7872ae6ffd8f050c7c776c97", "type": "electric_scooter", "is_disabled": 0, "lat": 38.922642333333336, "rental_uris": {"ios": "https://dc.lft.to/lastmile_qr_scan", "android": "https://dc.lft.to/lastmile_qr_scan"}, "is_reserved": 0, "fusion_lon": 0.0, "fusion_lat": 0.0, "lon": -77.00045816666666, "name": "4335c26e7872ae6ffd8f050c7c776c97"}, {"bike_id": "911690b97ae2ffe076005badc0a5ce6a", "type": "electric_scooter", "is_disabled": 0, "lat": 38.90524716666667, "rental_uris": {"ios": "https://dc.lft.to/lastmile_qr_scan", "android": "https://dc.lft.to/lastmile_qr_scan"}, "is_reserved": 0, "fusion_lon": 0.0, "fusion_lat": 0.0, "lon": -77.0417955, "name": "911690b97ae2ffe076005badc0a5ce6a"}, {"bike_id": "5ef767f6dc039d31247b1a5fb98812ec", "type": "electric_scooter", "is_disabled": 0, "lat": 38.8959105, "rental_uris": {"ios": "https://dc.lft.to/lastmile_qr_scan", "android": "https://dc.lft.to/lastmile_qr_scan"}, "is_reserved": 0, "fusion_lon": 0.0, "fusion_lat": 0.0, "lon": -77.005023, "name": "5ef767f6dc039d31247b1a5fb98812ec"}, {"bike_id": "b2fd242806cfdd7cea8f9e1eba1c6fda", "type": "electric_scooter", "is_disabled": 0, "lat": 38.91767083333333, "rental_uris": {"ios": "https://dc.lft.to/lastmile_qr_scan", "android": "https://dc.lft.to/lastmile_qr_scan"}, "is_reserved": 0, "fusion_lon": 0.0, "fusion_lat": 0.0, "lon": -77.045638, "name": "b2fd242806cfdd7cea8f9e1eba1c6fda"}, {"bike_id": "4e7483e21981b91df67bd831ba3aac2c", "type": "electric_scooter", "is_disabled": 0, "lat": 38.93783766666667, "rental_uris": {"ios": "https://dc.lft.to/lastmile_qr_scan", "android": "https://dc.lft.to/lastmile_qr_scan"}, "is_reserved": 0, "fusion_lon": 0.0, "fusion_lat": 0.0, "lon": -77.032959, "name": "4e7483e21981b91df67bd831ba3aac2c"}, {"bike_id": "85e04673fdb855af4a2ef3ea6eff4b2b", "type": "electric_scooter", "is_disabled": 0, "lat": 38.900166, "rental_uris": {"ios": "https://dc.lft.to/lastmile_qr_scan", "android": "https://dc.lft.to/lastmile_qr_scan"}, "is_reserved": 0, "fusion_lon": 0.0, "fusion_lat": 0.0, "lon": -77.04475633333334, "name": "85e04673fdb855af4a2ef3ea6eff4b2b"}, {"bike_id": "595777967a28128883110eb19c02dc92", "type": "electric_scooter", "is_disabled": 0, "lat": 38.92348766666667, "rental_uris": {"ios": "https://dc.lft.to/lastmile_qr_scan", "android": "https://dc.lft.to/lastmile_qr_scan"}, "is_reserved": 0, "fusion_lon": 0.0, "fusion_lat": 0.0, "lon": -77.04154833333334, "name": "595777967a28128883110eb19c02dc92"}, {"bike_id": "a13e70c5008819bcfd4c4efc8fd392dd", "type": "electric_scooter", "is_disabled": 0, "lat": 38.9051375, "rental_uris": {"ios": "https://dc.lft.to/lastmile_qr_scan", "android": "https://dc.lft.to/lastmile_qr_scan"}, "is_reserved": 0, "fusion_lon": 0.0, "fusion_lat": 0.0, "lon": -77.06197566666667, "name": "a13e70c5008819bcfd4c4efc8fd392dd"}, {"bike_id": "06454ceec773a2bbd1443f6ffda10edf", "type": "electric_scooter", "is_disabled": 0, "lat": 38.9309645, "rental_uris": {"ios": "https://dc.lft.to/lastmile_qr_scan", "android": "https://dc.lft.to/lastmile_qr_scan"}, "is_reserved": 0, "fusion_lon": 0.0, "fusion_lat": 0.0, "lon": -77.0266295, "name": "06454ceec773a2bbd1443f6ffda10edf"}, {"bike_id": "149a48c19c7fcf08df6c6e4c3b2d86c7", "type": "electric_scooter", "is_disabled": 0, "lat": 38.92021183333333, "rental_uris": {"ios": "https://dc.lft.to/lastmile_qr_scan", "android": "https://dc.lft.to/lastmile_qr_scan"}, "is_reserved": 0, "fusion_lon": 0.0, "fusion_lat": 0.0, "lon": -77.03178366666667, "name": "149a48c19c7fcf08df6c6e4c3b2d86c7"}, {"bike_id": "6c652cf984ef1075d210c7cccdb3571f", "type": "electric_scooter", "is_disabled": 0, "lat": 38.898753166666665, "rental_uris": {"ios": "https://dc.lft.to/lastmile_qr_scan", "android": "https://dc.lft.to/lastmile_qr_scan"}, "is_reserved": 0, "fusion_lon": 0.0, "fusion_lat": 0.0, "lon": -76.93182366666667, "name": "6c652cf984ef1075d210c7cccdb3571f"}, {"bike_id": "ddc8c88608a5ce188ae272b2d1bae5fd", "type": "electric_scooter", "is_disabled": 0, "lat": 38.90945333333333, "rental_uris": {"ios": "https://dc.lft.to/lastmile_qr_scan", "android": "https://dc.lft.to/lastmile_qr_scan"}, "is_reserved": 0, "fusion_lon": 0.0, "fusion_lat": 0.0, "lon": -77.03444366666666, "name": "ddc8c88608a5ce188ae272b2d1bae5fd"}, {"bike_id": "4fdb0165cc72d74477e3e2765fdfd4a4", "type": "electric_scooter", "is_disabled": 0, "lat": 38.917989666666664, "rental_uris": {"ios": "https://dc.lft.to/lastmile_qr_scan", "android": "https://dc.lft.to/lastmile_qr_scan"}, "is_reserved": 0, "fusion_lon": 0.0, "fusion_lat": 0.0, "lon": -77.0344345, "name": "4fdb0165cc72d74477e3e2765fdfd4a4"}, {"bike_id": "229cc812186ec2284dea0087c692cdaa", "type": "electric_scooter", "is_disabled": 0, "lat": 38.937272666666665, "rental_uris": {"ios": "https://dc.lft.to/lastmile_qr_scan", "android": "https://dc.lft.to/lastmile_qr_scan"}, "is_reserved": 0, "fusion_lon": 0.0, "fusion_lat": 0.0, "lon": -77.03295683333333, "name": "229cc812186ec2284dea0087c692cdaa"}, {"bike_id": "f5ddec55402efad30a07cfb89b83587d", "type": "electric_scooter", "is_disabled": 0, "lat": 38.904244, "rental_uris": {"ios": "https://dc.lft.to/lastmile_qr_scan", "android": "https://dc.lft.to/lastmile_qr_scan"}, "is_reserved": 0, "fusion_lon": 0.0, "fusion_lat": 0.0, "lon": -77.02890933333333, "name": "f5ddec55402efad30a07cfb89b83587d"}, {"bike_id": "c9fa9c14117774552ed4723f13f22299", "type": "electric_scooter", "is_disabled": 0, "lat": 38.898444166666664, "rental_uris": {"ios": "https://dc.lft.to/lastmile_qr_scan", "android": "https://dc.lft.to/lastmile_qr_scan"}, "is_reserved": 0, "fusion_lon": 0.0, "fusion_lat": 0.0, "lon": -76.946348, "name": "c9fa9c14117774552ed4723f13f22299"}, {"bike_id": "56b5defb6fa79d3a2be6501fe3b73bdc", "type": "electric_scooter", "is_disabled": 0, "lat": 38.909852666666666, "rental_uris": {"ios": "https://dc.lft.to/lastmile_qr_scan", "android": "https://dc.lft.to/lastmile_qr_scan"}, "is_reserved": 0, "fusion_lon": 0.0, "fusion_lat": 0.0, "lon": -77.031888, "name": "56b5defb6fa79d3a2be6501fe3b73bdc"}, {"bike_id": "321ca9e8393f8c1c34eddd79f8dea151", "type": "electric_scooter", "is_disabled": 0, "lat": 38.879204, "rental_uris": {"ios": "https://dc.lft.to/lastmile_qr_scan", "android": "https://dc.lft.to/lastmile_qr_scan"}, "is_reserved": 0, "fusion_lon": 0.0, "fusion_lat": 0.0, "lon": -77.00531816666667, "name": "321ca9e8393f8c1c34eddd79f8dea151"}, {"bike_id": "5f014819784faf27531fbdf5d8400e0b", "type": "electric_scooter", "is_disabled": 0, "lat": 38.913705666666665, "rental_uris": {"ios": "https://dc.lft.to/lastmile_qr_scan", "android": "https://dc.lft.to/lastmile_qr_scan"}, "is_reserved": 0, "fusion_lon": 0.0, "fusion_lat": 0.0, "lon": -77.04558083333333, "name": "5f014819784faf27531fbdf5d8400e0b"}, {"bike_id": "5766ddb1a25514a27d4b2cc1da8be942", "type": "electric_scooter", "is_disabled": 0, "lat": 38.91112066666667, "rental_uris": {"ios": "https://dc.lft.to/lastmile_qr_scan", "android": "https://dc.lft.to/lastmile_qr_scan"}, "is_reserved": 0, "fusion_lon": 0.0, "fusion_lat": 0.0, "lon": -77.038293, "name": "5766ddb1a25514a27d4b2cc1da8be942"}, {"bike_id": "397b0551c716aa1471e3a5042bb2e950", "type": "electric_scooter", "is_disabled": 0, "lat": 38.925990166666665, "rental_uris": {"ios": "https://dc.lft.to/lastmile_qr_scan", "android": "https://dc.lft.to/lastmile_qr_scan"}, "is_reserved": 0, "fusion_lon": 0.0, "fusion_lat": 0.0, "lon": -77.0215485, "name": "397b0551c716aa1471e3a5042bb2e950"}, {"bike_id": "1fef6c978b5067bf327e51d7dc5ef435", "type": "electric_scooter", "is_disabled": 0, "lat": 38.90190366666667, "rental_uris": {"ios": "https://dc.lft.to/lastmile_qr_scan", "android": "https://dc.lft.to/lastmile_qr_scan"}, "is_reserved": 0, "fusion_lon": 0.0, "fusion_lat": 0.0, "lon": -76.988417, "name": "1fef6c978b5067bf327e51d7dc5ef435"}, {"bike_id": "b11ca8c839dca74a72134ab364767716", "type": "electric_scooter", "is_disabled": 0, "lat": 38.94071316666667, "rental_uris": {"ios": "https://dc.lft.to/lastmile_qr_scan", "android": "https://dc.lft.to/lastmile_qr_scan"}, "is_reserved": 0, "fusion_lon": 0.0, "fusion_lat": 0.0, "lon": -77.0525485, "name": "b11ca8c839dca74a72134ab364767716"}, {"bike_id": "4622850b77cd8a967df59a1622d979f9", "type": "electric_scooter", "is_disabled": 0, "lat": 38.89239516666667, "rental_uris": {"ios": "https://dc.lft.to/lastmile_qr_scan", "android": "https://dc.lft.to/lastmile_qr_scan"}, "is_reserved": 0, "fusion_lon": 0.0, "fusion_lat": 0.0, "lon": -77.02381516666667, "name": "4622850b77cd8a967df59a1622d979f9"}, {"bike_id": "699b30d3f26cf6e84616ffd9dac6d08b", "type": "electric_scooter", "is_disabled": 0, "lat": 38.906896333333336, "rental_uris": {"ios": "https://dc.lft.to/lastmile_qr_scan", "android": "https://dc.lft.to/lastmile_qr_scan"}, "is_reserved": 0, "fusion_lon": 0.0, "fusion_lat": 0.0, "lon": -77.06337633333334, "name": "699b30d3f26cf6e84616ffd9dac6d08b"}, {"bike_id": "1fe474a60a205e310dc7015f05728f9e", "type": "electric_scooter", "is_disabled": 0, "lat": 38.898532, "rental_uris": {"ios": "https://dc.lft.to/lastmile_qr_scan", "android": "https://dc.lft.to/lastmile_qr_scan"}, "is_reserved": 0, "fusion_lon": 0.0, "fusion_lat": 0.0, "lon": -77.02008983333333, "name": "1fe474a60a205e310dc7015f05728f9e"}, {"bike_id": "451f92c91bb39529148e09ebb86b19f7", "type": "electric_scooter", "is_disabled": 0, "lat": 38.900455, "rental_uris": {"ios": "https://dc.lft.to/lastmile_qr_scan", "android": "https://dc.lft.to/lastmile_qr_scan"}, "is_reserved": 0, "fusion_lon": 0.0, "fusion_lat": 0.0, "lon": -77.0238305, "name": "451f92c91bb39529148e09ebb86b19f7"}, {"bike_id": "beb42e63830ecdca2c7e77414a2835f7", "type": "electric_scooter", "is_disabled": 0, "lat": 38.91031683333333, "rental_uris": {"ios": "https://dc.lft.to/lastmile_qr_scan", "android": "https://dc.lft.to/lastmile_qr_scan"}, "is_reserved": 0, "fusion_lon": 0.0, "fusion_lat": 0.0, "lon": -77.04118766666667, "name": "beb42e63830ecdca2c7e77414a2835f7"}, {"bike_id": "160c3b07f037cfe75d0dc3b94def2eee", "type": "electric_scooter", "is_disabled": 0, "lat": 38.9234865, "rental_uris": {"ios": "https://dc.lft.to/lastmile_qr_scan", "android": "https://dc.lft.to/lastmile_qr_scan"}, "is_reserved": 0, "fusion_lon": 0.0, "fusion_lat": 0.0, "lon": -77.04027516666666, "name": "160c3b07f037cfe75d0dc3b94def2eee"}, {"bike_id": "9c177cc5de5e6e1f027d717e03b65f9e", "type": "electric_scooter", "is_disabled": 0, "lat": 38.93471566666667, "rental_uris": {"ios": "https://dc.lft.to/lastmile_qr_scan", "android": "https://dc.lft.to/lastmile_qr_scan"}, "is_reserved": 0, "fusion_lon": 0.0, "fusion_lat": 0.0, "lon": -77.07238166666667, "name": "9c177cc5de5e6e1f027d717e03b65f9e"}, {"bike_id": "06c87448e549cc0189a007f9841f6faa", "type": "electric_scooter", "is_disabled": 0, "lat": 38.907237333333335, "rental_uris": {"ios": "https://dc.lft.to/lastmile_qr_scan", "android": "https://dc.lft.to/lastmile_qr_scan"}, "is_reserved": 0, "fusion_lon": 0.0, "fusion_lat": 0.0, "lon": -77.01482066666667, "name": "06c87448e549cc0189a007f9841f6faa"}, {"bike_id": "dbe8dedd00c85f4b49ebd3bb611057e4", "type": "electric_scooter", "is_disabled": 0, "lat": 38.93186516666667, "rental_uris": {"ios": "https://dc.lft.to/lastmile_qr_scan", "android": "https://dc.lft.to/lastmile_qr_scan"}, "is_reserved": 0, "fusion_lon": 0.0, "fusion_lat": 0.0, "lon": -77.0365385, "name": "dbe8dedd00c85f4b49ebd3bb611057e4"}, {"bike_id": "3b02351f14cb57a175038494e253a775", "type": "electric_scooter", "is_disabled": 0, "lat": 38.92983, "rental_uris": {"ios": "https://dc.lft.to/lastmile_qr_scan", "android": "https://dc.lft.to/lastmile_qr_scan"}, "is_reserved": 0, "fusion_lon": 0.0, "fusion_lat": 0.0, "lon": -77.03474316666667, "name": "3b02351f14cb57a175038494e253a775"}, {"bike_id": "f9178b27952d66325c490118c121ae49", "type": "electric_bike", "is_disabled": 0, "lat": 39.0563235, "rental_uris": {"ios": "https://dc.lft.to/lastmile_qr_scan", "android": "https://dc.lft.to/lastmile_qr_scan"}, "is_reserved": 0, "fusion_lon": 0.0, "fusion_lat": 0.0, "lon": -77.12528066666667, "name": "f9178b27952d66325c490118c121ae49"}, {"bike_id": "3595f44043447aa8a021668e0ca3939d", "type": "electric_scooter", "is_disabled": 0, "lat": 38.906745, "rental_uris": {"ios": "https://dc.lft.to/lastmile_qr_scan", "android": "https://dc.lft.to/lastmile_qr_scan"}, "is_reserved": 0, "fusion_lon": 0.0, "fusion_lat": 0.0, "lon": -77.07179533333333, "name": "3595f44043447aa8a021668e0ca3939d"}, {"bike_id": "8eb70070a1da6d1d2dbfe3d925815bf6", "type": "electric_scooter", "is_disabled": 0, "lat": 38.929740333333335, "rental_uris": {"ios": "https://dc.lft.to/lastmile_qr_scan", "android": "https://dc.lft.to/lastmile_qr_scan"}, "is_reserved": 0, "fusion_lon": 0.0, "fusion_lat": 0.0, "lon": -77.0394865, "name": "8eb70070a1da6d1d2dbfe3d925815bf6"}, {"bike_id": "dc125805a00155cda46b6ddf30e88b0a", "type": "electric_scooter", "is_disabled": 0, "lat": 38.942151, "rental_uris": {"ios": "https://dc.lft.to/lastmile_qr_scan", "android": "https://dc.lft.to/lastmile_qr_scan"}, "is_reserved": 0, "fusion_lon": 0.0, "fusion_lat": 0.0, "lon": -77.02587083333333, "name": "dc125805a00155cda46b6ddf30e88b0a"}, {"bike_id": "45176d8d6122466d42dbcfd172cde3de", "type": "electric_scooter", "is_disabled": 0, "lat": 38.89520733333333, "rental_uris": {"ios": "https://dc.lft.to/lastmile_qr_scan", "android": "https://dc.lft.to/lastmile_qr_scan"}, "is_reserved": 0, "fusion_lon": 0.0, "fusion_lat": 0.0, "lon": -77.00207416666667, "name": "45176d8d6122466d42dbcfd172cde3de"}, {"bike_id": "37f6ebadb33e1cdf6ec74221a110cb52", "type": "electric_scooter", "is_disabled": 0, "lat": 38.922695833333336, "rental_uris": {"ios": "https://dc.lft.to/lastmile_qr_scan", "android": "https://dc.lft.to/lastmile_qr_scan"}, "is_reserved": 0, "fusion_lon": 0.0, "fusion_lat": 0.0, "lon": -77.03395, "name": "37f6ebadb33e1cdf6ec74221a110cb52"}, {"bike_id": "beb16d61be9afa155e1df2ebb3e2ad61", "type": "electric_scooter", "is_disabled": 0, "lat": 38.90031883333333, "rental_uris": {"ios": "https://dc.lft.to/lastmile_qr_scan", "android": "https://dc.lft.to/lastmile_qr_scan"}, "is_reserved": 0, "fusion_lon": 0.0, "fusion_lat": 0.0, "lon": -77.035058, "name": "beb16d61be9afa155e1df2ebb3e2ad61"}, {"bike_id": "2db5da357017a329ecf22fb0d0998294", "type": "electric_scooter", "is_disabled": 0, "lat": 38.907021, "rental_uris": {"ios": "https://dc.lft.to/lastmile_qr_scan", "android": "https://dc.lft.to/lastmile_qr_scan"}, "is_reserved": 0, "fusion_lon": 0.0, "fusion_lat": 0.0, "lon": -77.0416495, "name": "2db5da357017a329ecf22fb0d0998294"}, {"bike_id": "a33c5d6ea544d0ec8d8cda579569f6df", "type": "electric_scooter", "is_disabled": 0, "lat": 38.928846166666666, "rental_uris": {"ios": "https://dc.lft.to/lastmile_qr_scan", "android": "https://dc.lft.to/lastmile_qr_scan"}, "is_reserved": 0, "fusion_lon": 0.0, "fusion_lat": 0.0, "lon": -77.03238283333333, "name": "a33c5d6ea544d0ec8d8cda579569f6df"}, {"bike_id": "1a45f5e71fa20c60d5dde11383c15576", "type": "electric_scooter", "is_disabled": 0, "lat": 38.9027585, "rental_uris": {"ios": "https://dc.lft.to/lastmile_qr_scan", "android": "https://dc.lft.to/lastmile_qr_scan"}, "is_reserved": 0, "fusion_lon": 0.0, "fusion_lat": 0.0, "lon": -77.038495, "name": "1a45f5e71fa20c60d5dde11383c15576"}, {"bike_id": "5531ab96fb56b3bd34dad04f1846c981", "type": "electric_scooter", "is_disabled": 0, "lat": 38.905595166666664, "rental_uris": {"ios": "https://dc.lft.to/lastmile_qr_scan", "android": "https://dc.lft.to/lastmile_qr_scan"}, "is_reserved": 0, "fusion_lon": 0.0, "fusion_lat": 0.0, "lon": -77.0302355, "name": "5531ab96fb56b3bd34dad04f1846c981"}, {"bike_id": "fb1760872d0feeefd488594cc506050e", "type": "electric_scooter", "is_disabled": 0, "lat": 38.892515, "rental_uris": {"ios": "https://dc.lft.to/lastmile_qr_scan", "android": "https://dc.lft.to/lastmile_qr_scan"}, "is_reserved": 0, "fusion_lon": 0.0, "fusion_lat": 0.0, "lon": -77.0467635, "name": "fb1760872d0feeefd488594cc506050e"}, {"bike_id": "d92d53e7994b08ebd2563c4d06c9474b", "type": "electric_scooter", "is_disabled": 0, "lat": 38.91534716666666, "rental_uris": {"ios": "https://dc.lft.to/lastmile_qr_scan", "android": "https://dc.lft.to/lastmile_qr_scan"}, "is_reserved": 0, "fusion_lon": 0.0, "fusion_lat": 0.0, "lon": -77.03210816666666, "name": "d92d53e7994b08ebd2563c4d06c9474b"}, {"bike_id": "c106c480aa90869cdb1fc6ac8e332d89", "type": "electric_scooter", "is_disabled": 0, "lat": 38.9395785, "rental_uris": {"ios": "https://dc.lft.to/lastmile_qr_scan", "android": "https://dc.lft.to/lastmile_qr_scan"}, "is_reserved": 0, "fusion_lon": 0.0, "fusion_lat": 0.0, "lon": -77.024875, "name": "c106c480aa90869cdb1fc6ac8e332d89"}, {"bike_id": "08958b95931cd038a65c8fe6940509fa", "type": "electric_scooter", "is_disabled": 0, "lat": 38.958959, "rental_uris": {"ios": "https://dc.lft.to/lastmile_qr_scan", "android": "https://dc.lft.to/lastmile_qr_scan"}, "is_reserved": 0, "fusion_lon": 0.0, "fusion_lat": 0.0, "lon": -77.08598833333333, "name": "08958b95931cd038a65c8fe6940509fa"}, {"bike_id": "9eb01747da70b65fc6860c8737aa5e02", "type": "electric_scooter", "is_disabled": 0, "lat": 38.909515, "rental_uris": {"ios": "https://dc.lft.to/lastmile_qr_scan", "android": "https://dc.lft.to/lastmile_qr_scan"}, "is_reserved": 0, "fusion_lon": 0.0, "fusion_lat": 0.0, "lon": -77.02681933333334, "name": "9eb01747da70b65fc6860c8737aa5e02"}, {"bike_id": "c3d90d3ea34c0d8c42749b6909ecea41", "type": "electric_scooter", "is_disabled": 0, "lat": 38.8707845, "rental_uris": {"ios": "https://dc.lft.to/lastmile_qr_scan", "android": "https://dc.lft.to/lastmile_qr_scan"}, "is_reserved": 0, "fusion_lon": 0.0, "fusion_lat": 0.0, "lon": -77.0118435, "name": "c3d90d3ea34c0d8c42749b6909ecea41"}, {"bike_id": "ef030f1bee3cd8c16cfbec6d7a094501", "type": "electric_scooter", "is_disabled": 0, "lat": 38.91637, "rental_uris": {"ios": "https://dc.lft.to/lastmile_qr_scan", "android": "https://dc.lft.to/lastmile_qr_scan"}, "is_reserved": 0, "fusion_lon": 0.0, "fusion_lat": 0.0, "lon": -77.00049966666667, "name": "ef030f1bee3cd8c16cfbec6d7a094501"}, {"bike_id": "f4193b7a1f77930e5eed0b30b108b0b8", "type": "electric_scooter", "is_disabled": 0, "lat": 38.90894183333333, "rental_uris": {"ios": "https://dc.lft.to/lastmile_qr_scan", "android": "https://dc.lft.to/lastmile_qr_scan"}, "is_reserved": 0, "fusion_lon": 0.0, "fusion_lat": 0.0, "lon": -77.0862465, "name": "f4193b7a1f77930e5eed0b30b108b0b8"}, {"bike_id": "e4308d1ca01180c7af3aba3040448625", "type": "electric_scooter", "is_disabled": 0, "lat": 38.931963333333336, "rental_uris": {"ios": "https://dc.lft.to/lastmile_qr_scan", "android": "https://dc.lft.to/lastmile_qr_scan"}, "is_reserved": 0, "fusion_lon": 0.0, "fusion_lat": 0.0, "lon": -77.01955683333334, "name": "e4308d1ca01180c7af3aba3040448625"}, {"bike_id": "6dc692653e5162ef982540da58331d05", "type": "electric_scooter", "is_disabled": 0, "lat": 38.9210485, "rental_uris": {"ios": "https://dc.lft.to/lastmile_qr_scan", "android": "https://dc.lft.to/lastmile_qr_scan"}, "is_reserved": 0, "fusion_lon": 0.0, "fusion_lat": 0.0, "lon": -77.01767166666667, "name": "6dc692653e5162ef982540da58331d05"}, {"bike_id": "e990f37be55ec456d5bedd06004890da", "type": "electric_scooter", "is_disabled": 0, "lat": 38.876264166666665, "rental_uris": {"ios": "https://dc.lft.to/lastmile_qr_scan", "android": "https://dc.lft.to/lastmile_qr_scan"}, "is_reserved": 0, "fusion_lon": 0.0, "fusion_lat": 0.0, "lon": -76.965272, "name": "e990f37be55ec456d5bedd06004890da"}, {"bike_id": "b48300a30a968305d6c6b304f7ff90ec", "type": "electric_scooter", "is_disabled": 0, "lat": 38.922927666666666, "rental_uris": {"ios": "https://dc.lft.to/lastmile_qr_scan", "android": "https://dc.lft.to/lastmile_qr_scan"}, "is_reserved": 0, "fusion_lon": 0.0, "fusion_lat": 0.0, "lon": -77.04304066666667, "name": "b48300a30a968305d6c6b304f7ff90ec"}, {"bike_id": "09011d6be27bc4bcea0873d90976f335", "type": "electric_scooter", "is_disabled": 0, "lat": 38.92269816666666, "rental_uris": {"ios": "https://dc.lft.to/lastmile_qr_scan", "android": "https://dc.lft.to/lastmile_qr_scan"}, "is_reserved": 0, "fusion_lon": 0.0, "fusion_lat": 0.0, "lon": -77.03393216666667, "name": "09011d6be27bc4bcea0873d90976f335"}, {"bike_id": "d6d3b7c415f4c9cad836b9322ffa97e3", "type": "electric_scooter", "is_disabled": 0, "lat": 38.91829283333333, "rental_uris": {"ios": "https://dc.lft.to/lastmile_qr_scan", "android": "https://dc.lft.to/lastmile_qr_scan"}, "is_reserved": 0, "fusion_lon": 0.0, "fusion_lat": 0.0, "lon": -77.03181433333333, "name": "d6d3b7c415f4c9cad836b9322ffa97e3"}, {"bike_id": "6344a09ae576ca42ea8056e1d16aec40", "type": "electric_scooter", "is_disabled": 0, "lat": 38.906730833333334, "rental_uris": {"ios": "https://dc.lft.to/lastmile_qr_scan", "android": "https://dc.lft.to/lastmile_qr_scan"}, "is_reserved": 0, "fusion_lon": 0.0, "fusion_lat": 0.0, "lon": -77.02381983333333, "name": "6344a09ae576ca42ea8056e1d16aec40"}, {"bike_id": "e6254f40b54f8d6f1e08db924190cd65", "type": "electric_scooter", "is_disabled": 0, "lat": 38.9327395, "rental_uris": {"ios": "https://dc.lft.to/lastmile_qr_scan", "android": "https://dc.lft.to/lastmile_qr_scan"}, "is_reserved": 0, "fusion_lon": 0.0, "fusion_lat": 0.0, "lon": -77.04537016666667, "name": "e6254f40b54f8d6f1e08db924190cd65"}, {"bike_id": "05823390c9edf1899a0851ca857f0cca", "type": "electric_scooter", "is_disabled": 0, "lat": 38.900837833333334, "rental_uris": {"ios": "https://dc.lft.to/lastmile_qr_scan", "android": "https://dc.lft.to/lastmile_qr_scan"}, "is_reserved": 0, "fusion_lon": 0.0, "fusion_lat": 0.0, "lon": -77.0090225, "name": "05823390c9edf1899a0851ca857f0cca"}, {"bike_id": "620a9f69ded928aaa95caee8412bc134", "type": "electric_bike", "is_disabled": 0, "lat": 38.837848, "rental_uris": {"ios": "https://dc.lft.to/lastmile_qr_scan", "android": "https://dc.lft.to/lastmile_qr_scan"}, "is_reserved": 0, "fusion_lon": 0.0, "fusion_lat": 0.0, "lon": -77.09347516666666, "name": "620a9f69ded928aaa95caee8412bc134"}, {"bike_id": "0d57181b9f65d5c2879e50946d3595be", "type": "electric_bike", "is_disabled": 0, "lat": 38.872968666666665, "rental_uris": {"ios": "https://dc.lft.to/lastmile_qr_scan", "android": "https://dc.lft.to/lastmile_qr_scan"}, "is_reserved": 0, "fusion_lon": 0.0, "fusion_lat": 0.0, "lon": -77.13936283333334, "name": "0d57181b9f65d5c2879e50946d3595be"}, {"bike_id": "a095c90ea02a3c683bae3af8a0ca2233", "type": "electric_scooter", "is_disabled": 0, "lat": 38.92401516666666, "rental_uris": {"ios": "https://dc.lft.to/lastmile_qr_scan", "android": "https://dc.lft.to/lastmile_qr_scan"}, "is_reserved": 0, "fusion_lon": 0.0, "fusion_lat": 0.0, "lon": -76.99368366666667, "name": "a095c90ea02a3c683bae3af8a0ca2233"}, {"bike_id": "fa9f5f1f3d77220f17b17e930c78b7f6", "type": "electric_scooter", "is_disabled": 0, "lat": 38.9421465, "rental_uris": {"ios": "https://dc.lft.to/lastmile_qr_scan", "android": "https://dc.lft.to/lastmile_qr_scan"}, "is_reserved": 0, "fusion_lon": 0.0, "fusion_lat": 0.0, "lon": -77.017488, "name": "fa9f5f1f3d77220f17b17e930c78b7f6"}, {"bike_id": "336f15b587d8ba438b4b62ea3adb4726", "type": "electric_scooter", "is_disabled": 0, "lat": 38.8779525, "rental_uris": {"ios": "https://dc.lft.to/lastmile_qr_scan", "android": "https://dc.lft.to/lastmile_qr_scan"}, "is_reserved": 0, "fusion_lon": 0.0, "fusion_lat": 0.0, "lon": -77.01767366666667, "name": "336f15b587d8ba438b4b62ea3adb4726"}, {"bike_id": "1411f708864ed938143320023cd66569", "type": "electric_scooter", "is_disabled": 0, "lat": 38.92262133333333, "rental_uris": {"ios": "https://dc.lft.to/lastmile_qr_scan", "android": "https://dc.lft.to/lastmile_qr_scan"}, "is_reserved": 0, "fusion_lon": 0.0, "fusion_lat": 0.0, "lon": -77.03892316666666, "name": "1411f708864ed938143320023cd66569"}, {"bike_id": "9fc8fc403da2b83b71e4a26db1b66dd7", "type": "electric_scooter", "is_disabled": 0, "lat": 38.9192915, "rental_uris": {"ios": "https://dc.lft.to/lastmile_qr_scan", "android": "https://dc.lft.to/lastmile_qr_scan"}, "is_reserved": 0, "fusion_lon": 0.0, "fusion_lat": 0.0, "lon": -77.01407316666666, "name": "9fc8fc403da2b83b71e4a26db1b66dd7"}, {"bike_id": "a55cea52cd6aeeb0d7d1d703cbc575a3", "type": "electric_scooter", "is_disabled": 0, "lat": 38.8999985, "rental_uris": {"ios": "https://dc.lft.to/lastmile_qr_scan", "android": "https://dc.lft.to/lastmile_qr_scan"}, "is_reserved": 0, "fusion_lon": 0.0, "fusion_lat": 0.0, "lon": -77.00208166666667, "name": "a55cea52cd6aeeb0d7d1d703cbc575a3"}, {"bike_id": "c4c7e6e5be73a010aa4dec8c4c07c862", "type": "electric_scooter", "is_disabled": 0, "lat": 38.9103265, "rental_uris": {"ios": "https://dc.lft.to/lastmile_qr_scan", "android": "https://dc.lft.to/lastmile_qr_scan"}, "is_reserved": 0, "fusion_lon": 0.0, "fusion_lat": 0.0, "lon": -77.026915, "name": "c4c7e6e5be73a010aa4dec8c4c07c862"}, {"bike_id": "709286cfcf657f2ffa9d44259e66710f", "type": "electric_scooter", "is_disabled": 0, "lat": 38.9190555, "rental_uris": {"ios": "https://dc.lft.to/lastmile_qr_scan", "android": "https://dc.lft.to/lastmile_qr_scan"}, "is_reserved": 0, "fusion_lon": 0.0, "fusion_lat": 0.0, "lon": -77.03438483333333, "name": "709286cfcf657f2ffa9d44259e66710f"}, {"bike_id": "efb87a57e81ab519147256c433ff7eaa", "type": "electric_scooter", "is_disabled": 0, "lat": 38.89223966666667, "rental_uris": {"ios": "https://dc.lft.to/lastmile_qr_scan", "android": "https://dc.lft.to/lastmile_qr_scan"}, "is_reserved": 0, "fusion_lon": 0.0, "fusion_lat": 0.0, "lon": -77.04864283333333, "name": "efb87a57e81ab519147256c433ff7eaa"}, {"bike_id": "3dee251475cdace17bbc20c9b21415a9", "type": "electric_scooter", "is_disabled": 0, "lat": 38.90269516666667, "rental_uris": {"ios": "https://dc.lft.to/lastmile_qr_scan", "android": "https://dc.lft.to/lastmile_qr_scan"}, "is_reserved": 0, "fusion_lon": 0.0, "fusion_lat": 0.0, "lon": -77.04387683333333, "name": "3dee251475cdace17bbc20c9b21415a9"}, {"bike_id": "052487dfc065f469ae26d619d9381d87", "type": "electric_scooter", "is_disabled": 0, "lat": 38.916377, "rental_uris": {"ios": "https://dc.lft.to/lastmile_qr_scan", "android": "https://dc.lft.to/lastmile_qr_scan"}, "is_reserved": 0, "fusion_lon": 0.0, "fusion_lat": 0.0, "lon": -77.02556233333334, "name": "052487dfc065f469ae26d619d9381d87"}, {"bike_id": "fcd4940072b0b454002b7f4c945c26e5", "type": "electric_scooter", "is_disabled": 0, "lat": 38.90387366666667, "rental_uris": {"ios": "https://dc.lft.to/lastmile_qr_scan", "android": "https://dc.lft.to/lastmile_qr_scan"}, "is_reserved": 0, "fusion_lon": 0.0, "fusion_lat": 0.0, "lon": -76.98202416666666, "name": "fcd4940072b0b454002b7f4c945c26e5"}, {"bike_id": "514109c2ce18bd748d4a030840a63527", "type": "electric_scooter", "is_disabled": 0, "lat": 38.9074935, "rental_uris": {"ios": "https://dc.lft.to/lastmile_qr_scan", "android": "https://dc.lft.to/lastmile_qr_scan"}, "is_reserved": 0, "fusion_lon": 0.0, "fusion_lat": 0.0, "lon": -77.03197216666666, "name": "514109c2ce18bd748d4a030840a63527"}, {"bike_id": "46b5a1cb21bd47435243f8f57357e9ee", "type": "electric_scooter", "is_disabled": 0, "lat": 38.91773166666667, "rental_uris": {"ios": "https://dc.lft.to/lastmile_qr_scan", "android": "https://dc.lft.to/lastmile_qr_scan"}, "is_reserved": 0, "fusion_lon": 0.0, "fusion_lat": 0.0, "lon": -77.034508, "name": "46b5a1cb21bd47435243f8f57357e9ee"}, {"bike_id": "70f852aa546f0e9e09eb982ca77a630d", "type": "electric_scooter", "is_disabled": 0, "lat": 38.90786033333333, "rental_uris": {"ios": "https://dc.lft.to/lastmile_qr_scan", "android": "https://dc.lft.to/lastmile_qr_scan"}, "is_reserved": 0, "fusion_lon": 0.0, "fusion_lat": 0.0, "lon": -77.0320055, "name": "70f852aa546f0e9e09eb982ca77a630d"}, {"bike_id": "f9f5cdaccc46503629bf584d5b8e236e", "type": "electric_bike", "is_disabled": 0, "lat": 38.99598833333334, "rental_uris": {"ios": "https://dc.lft.to/lastmile_qr_scan", "android": "https://dc.lft.to/lastmile_qr_scan"}, "is_reserved": 0, "fusion_lon": 0.0, "fusion_lat": 0.0, "lon": -77.02667033333333, "name": "f9f5cdaccc46503629bf584d5b8e236e"}, {"bike_id": "c79fc718389a088e8afa3bc3a897b34a", "type": "electric_scooter", "is_disabled": 0, "lat": 38.917393, "rental_uris": {"ios": "https://dc.lft.to/lastmile_qr_scan", "android": "https://dc.lft.to/lastmile_qr_scan"}, "is_reserved": 0, "fusion_lon": 0.0, "fusion_lat": 0.0, "lon": -77.04081033333334, "name": "c79fc718389a088e8afa3bc3a897b34a"}, {"bike_id": "e69b31ed3142677e911828f58b480613", "type": "electric_scooter", "is_disabled": 0, "lat": 38.86730266666667, "rental_uris": {"ios": "https://dc.lft.to/lastmile_qr_scan", "android": "https://dc.lft.to/lastmile_qr_scan"}, "is_reserved": 0, "fusion_lon": 0.0, "fusion_lat": 0.0, "lon": -76.97863033333333, "name": "e69b31ed3142677e911828f58b480613"}, {"bike_id": "efcc35e5bee93aeb999dd95cdbb28586", "type": "electric_scooter", "is_disabled": 0, "lat": 38.92389633333333, "rental_uris": {"ios": "https://dc.lft.to/lastmile_qr_scan", "android": "https://dc.lft.to/lastmile_qr_scan"}, "is_reserved": 0, "fusion_lon": 0.0, "fusion_lat": 0.0, "lon": -77.02484516666667, "name": "efcc35e5bee93aeb999dd95cdbb28586"}, {"bike_id": "fcd429c07b5e1a9be48158aed1559707", "type": "electric_scooter", "is_disabled": 0, "lat": 38.90734, "rental_uris": {"ios": "https://dc.lft.to/lastmile_qr_scan", "android": "https://dc.lft.to/lastmile_qr_scan"}, "is_reserved": 0, "fusion_lon": 0.0, "fusion_lat": 0.0, "lon": -76.97970416666666, "name": "fcd429c07b5e1a9be48158aed1559707"}, {"bike_id": "9564577709e95536818bb0b24124f6ad", "type": "electric_scooter", "is_disabled": 0, "lat": 38.831465, "rental_uris": {"ios": "https://dc.lft.to/lastmile_qr_scan", "android": "https://dc.lft.to/lastmile_qr_scan"}, "is_reserved": 0, "fusion_lon": 0.0, "fusion_lat": 0.0, "lon": -77.0513315, "name": "9564577709e95536818bb0b24124f6ad"}, {"bike_id": "796aecac719ac47876159fcc838489b8", "type": "electric_scooter", "is_disabled": 0, "lat": 38.912519, "rental_uris": {"ios": "https://dc.lft.to/lastmile_qr_scan", "android": "https://dc.lft.to/lastmile_qr_scan"}, "is_reserved": 0, "fusion_lon": 0.0, "fusion_lat": 0.0, "lon": -77.02232316666667, "name": "796aecac719ac47876159fcc838489b8"}, {"bike_id": "4348b83c7e37b0b70ddba083de37d4a6", "type": "electric_scooter", "is_disabled": 0, "lat": 38.909608666666664, "rental_uris": {"ios": "https://dc.lft.to/lastmile_qr_scan", "android": "https://dc.lft.to/lastmile_qr_scan"}, "is_reserved": 0, "fusion_lon": 0.0, "fusion_lat": 0.0, "lon": -77.02682333333334, "name": "4348b83c7e37b0b70ddba083de37d4a6"}, {"bike_id": "289edd67d30c583fbacb01d4fc78c1fb", "type": "electric_scooter", "is_disabled": 0, "lat": 38.90266783333333, "rental_uris": {"ios": "https://dc.lft.to/lastmile_qr_scan", "android": "https://dc.lft.to/lastmile_qr_scan"}, "is_reserved": 0, "fusion_lon": 0.0, "fusion_lat": 0.0, "lon": -77.01879183333334, "name": "289edd67d30c583fbacb01d4fc78c1fb"}, {"bike_id": "81c888164b5853b9ce5f647f66e86289", "type": "electric_scooter", "is_disabled": 0, "lat": 38.92262766666666, "rental_uris": {"ios": "https://dc.lft.to/lastmile_qr_scan", "android": "https://dc.lft.to/lastmile_qr_scan"}, "is_reserved": 0, "fusion_lon": 0.0, "fusion_lat": 0.0, "lon": -77.0327885, "name": "81c888164b5853b9ce5f647f66e86289"}, {"bike_id": "07b3ce7a9dacf153754da09769918b94", "type": "electric_scooter", "is_disabled": 0, "lat": 38.90733, "rental_uris": {"ios": "https://dc.lft.to/lastmile_qr_scan", "android": "https://dc.lft.to/lastmile_qr_scan"}, "is_reserved": 0, "fusion_lon": 0.0, "fusion_lat": 0.0, "lon": -77.02948766666667, "name": "07b3ce7a9dacf153754da09769918b94"}, {"bike_id": "accd6e16dc43738f2c447752bce9c44f", "type": "electric_bike", "is_disabled": 0, "lat": 38.90835416666667, "rental_uris": {"ios": "https://dc.lft.to/lastmile_qr_scan", "android": "https://dc.lft.to/lastmile_qr_scan"}, "is_reserved": 0, "fusion_lon": 0.0, "fusion_lat": 0.0, "lon": -76.9330435, "name": "accd6e16dc43738f2c447752bce9c44f"}, {"bike_id": "c318481b4693d3d9827244079a30bffc", "type": "electric_scooter", "is_disabled": 0, "lat": 38.90981933333333, "rental_uris": {"ios": "https://dc.lft.to/lastmile_qr_scan", "android": "https://dc.lft.to/lastmile_qr_scan"}, "is_reserved": 0, "fusion_lon": 0.0, "fusion_lat": 0.0, "lon": -77.032016, "name": "c318481b4693d3d9827244079a30bffc"}, {"bike_id": "1a401f284bf39bbc209b9481af0aaa66", "type": "electric_scooter", "is_disabled": 0, "lat": 38.908032166666665, "rental_uris": {"ios": "https://dc.lft.to/lastmile_qr_scan", "android": "https://dc.lft.to/lastmile_qr_scan"}, "is_reserved": 0, "fusion_lon": 0.0, "fusion_lat": 0.0, "lon": -77.04337083333333, "name": "1a401f284bf39bbc209b9481af0aaa66"}, {"bike_id": "a06de7a2d53e9036e1d3d34d32afe919", "type": "electric_scooter", "is_disabled": 0, "lat": 38.870905666666665, "rental_uris": {"ios": "https://dc.lft.to/lastmile_qr_scan", "android": "https://dc.lft.to/lastmile_qr_scan"}, "is_reserved": 0, "fusion_lon": 0.0, "fusion_lat": 0.0, "lon": -77.01209916666667, "name": "a06de7a2d53e9036e1d3d34d32afe919"}, {"bike_id": "85bed4c3a66b463674e65c036c5e20da", "type": "electric_scooter", "is_disabled": 0, "lat": 38.909034, "rental_uris": {"ios": "https://dc.lft.to/lastmile_qr_scan", "android": "https://dc.lft.to/lastmile_qr_scan"}, "is_reserved": 0, "fusion_lon": 0.0, "fusion_lat": 0.0, "lon": -77.0448855, "name": "85bed4c3a66b463674e65c036c5e20da"}, {"bike_id": "5bd36c01be3c6cf95e85d17a1263527e", "type": "electric_scooter", "is_disabled": 0, "lat": 38.884022, "rental_uris": {"ios": "https://dc.lft.to/lastmile_qr_scan", "android": "https://dc.lft.to/lastmile_qr_scan"}, "is_reserved": 0, "fusion_lon": 0.0, "fusion_lat": 0.0, "lon": -76.95393616666667, "name": "5bd36c01be3c6cf95e85d17a1263527e"}, {"bike_id": "cd87f6a253d2096e8fd004cdc2050503", "type": "electric_scooter", "is_disabled": 0, "lat": 38.90569283333333, "rental_uris": {"ios": "https://dc.lft.to/lastmile_qr_scan", "android": "https://dc.lft.to/lastmile_qr_scan"}, "is_reserved": 0, "fusion_lon": 0.0, "fusion_lat": 0.0, "lon": -76.97629633333334, "name": "cd87f6a253d2096e8fd004cdc2050503"}, {"bike_id": "64aac89a963d2192edbbfb55744fb36d", "type": "electric_scooter", "is_disabled": 0, "lat": 38.92858966666667, "rental_uris": {"ios": "https://dc.lft.to/lastmile_qr_scan", "android": "https://dc.lft.to/lastmile_qr_scan"}, "is_reserved": 0, "fusion_lon": 0.0, "fusion_lat": 0.0, "lon": -77.054374, "name": "64aac89a963d2192edbbfb55744fb36d"}, {"bike_id": "5822019b8ca6dd5902628843b53835a6", "type": "electric_scooter", "is_disabled": 0, "lat": 38.917052166666664, "rental_uris": {"ios": "https://dc.lft.to/lastmile_qr_scan", "android": "https://dc.lft.to/lastmile_qr_scan"}, "is_reserved": 0, "fusion_lon": 0.0, "fusion_lat": 0.0, "lon": -77.03183716666666, "name": "5822019b8ca6dd5902628843b53835a6"}, {"bike_id": "70192e5226be26a601cb56af0dfedc81", "type": "electric_scooter", "is_disabled": 0, "lat": 38.941094666666665, "rental_uris": {"ios": "https://dc.lft.to/lastmile_qr_scan", "android": "https://dc.lft.to/lastmile_qr_scan"}, "is_reserved": 0, "fusion_lon": 0.0, "fusion_lat": 0.0, "lon": -77.02542483333333, "name": "70192e5226be26a601cb56af0dfedc81"}, {"bike_id": "132fa2e8de8202309881dcf6fe54f23e", "type": "electric_scooter", "is_disabled": 0, "lat": 38.862197, "rental_uris": {"ios": "https://dc.lft.to/lastmile_qr_scan", "android": "https://dc.lft.to/lastmile_qr_scan"}, "is_reserved": 0, "fusion_lon": 0.0, "fusion_lat": 0.0, "lon": -76.99493166666667, "name": "132fa2e8de8202309881dcf6fe54f23e"}, {"bike_id": "325601ba070b95fe231190ef3e5ffe32", "type": "electric_scooter", "is_disabled": 0, "lat": 38.90490116666667, "rental_uris": {"ios": "https://dc.lft.to/lastmile_qr_scan", "android": "https://dc.lft.to/lastmile_qr_scan"}, "is_reserved": 0, "fusion_lon": 0.0, "fusion_lat": 0.0, "lon": -76.9496285, "name": "325601ba070b95fe231190ef3e5ffe32"}, {"bike_id": "a719632f00fc5fb27d19fb832a8d49ea", "type": "electric_bike", "is_disabled": 0, "lat": 38.9517425, "rental_uris": {"ios": "https://dc.lft.to/lastmile_qr_scan", "android": "https://dc.lft.to/lastmile_qr_scan"}, "is_reserved": 0, "fusion_lon": 0.0, "fusion_lat": 0.0, "lon": -76.9773345, "name": "a719632f00fc5fb27d19fb832a8d49ea"}, {"bike_id": "6238166ee8d6644d32d35c21799eed40", "type": "electric_scooter", "is_disabled": 0, "lat": 38.90806516666667, "rental_uris": {"ios": "https://dc.lft.to/lastmile_qr_scan", "android": "https://dc.lft.to/lastmile_qr_scan"}, "is_reserved": 0, "fusion_lon": 0.0, "fusion_lat": 0.0, "lon": -77.043307, "name": "6238166ee8d6644d32d35c21799eed40"}, {"bike_id": "6931ce4bb1bfad3078272aa4421bfaf3", "type": "electric_scooter", "is_disabled": 0, "lat": 38.92491733333333, "rental_uris": {"ios": "https://dc.lft.to/lastmile_qr_scan", "android": "https://dc.lft.to/lastmile_qr_scan"}, "is_reserved": 0, "fusion_lon": 0.0, "fusion_lat": 0.0, "lon": -77.0317835, "name": "6931ce4bb1bfad3078272aa4421bfaf3"}, {"bike_id": "c58e1d2ab66ce53bd1fbf8a893532382", "type": "electric_scooter", "is_disabled": 0, "lat": 38.928807666666664, "rental_uris": {"ios": "https://dc.lft.to/lastmile_qr_scan", "android": "https://dc.lft.to/lastmile_qr_scan"}, "is_reserved": 0, "fusion_lon": 0.0, "fusion_lat": 0.0, "lon": -77.01381883333333, "name": "c58e1d2ab66ce53bd1fbf8a893532382"}, {"bike_id": "b113a8fc1f5bfd418d1cd7193c771f41", "type": "electric_scooter", "is_disabled": 0, "lat": 38.9285325, "rental_uris": {"ios": "https://dc.lft.to/lastmile_qr_scan", "android": "https://dc.lft.to/lastmile_qr_scan"}, "is_reserved": 0, "fusion_lon": 0.0, "fusion_lat": 0.0, "lon": -77.0195265, "name": "b113a8fc1f5bfd418d1cd7193c771f41"}, {"bike_id": "37485da8d9af7f7c944a67059a8a7e57", "type": "electric_scooter", "is_disabled": 0, "lat": 38.905075833333335, "rental_uris": {"ios": "https://dc.lft.to/lastmile_qr_scan", "android": "https://dc.lft.to/lastmile_qr_scan"}, "is_reserved": 0, "fusion_lon": 0.0, "fusion_lat": 0.0, "lon": -77.04065316666667, "name": "37485da8d9af7f7c944a67059a8a7e57"}, {"bike_id": "40638ee9a6b71e460bd1d9c725de4f31", "type": "electric_scooter", "is_disabled": 0, "lat": 38.902696666666664, "rental_uris": {"ios": "https://dc.lft.to/lastmile_qr_scan", "android": "https://dc.lft.to/lastmile_qr_scan"}, "is_reserved": 0, "fusion_lon": 0.0, "fusion_lat": 0.0, "lon": -77.043834, "name": "40638ee9a6b71e460bd1d9c725de4f31"}, {"bike_id": "065fd00b3f226ba5e574fbc019868559", "type": "electric_scooter", "is_disabled": 0, "lat": 38.93593633333333, "rental_uris": {"ios": "https://dc.lft.to/lastmile_qr_scan", "android": "https://dc.lft.to/lastmile_qr_scan"}, "is_reserved": 0, "fusion_lon": 0.0, "fusion_lat": 0.0, "lon": -77.03801033333333, "name": "065fd00b3f226ba5e574fbc019868559"}, {"bike_id": "3e036bb84abf920e7512853e7393ecde", "type": "electric_scooter", "is_disabled": 0, "lat": 38.8768025, "rental_uris": {"ios": "https://dc.lft.to/lastmile_qr_scan", "android": "https://dc.lft.to/lastmile_qr_scan"}, "is_reserved": 0, "fusion_lon": 0.0, "fusion_lat": 0.0, "lon": -77.01788316666666, "name": "3e036bb84abf920e7512853e7393ecde"}, {"bike_id": "cf53cbdda81da8b4a803a22b884e1fac", "type": "electric_scooter", "is_disabled": 0, "lat": 38.91564616666667, "rental_uris": {"ios": "https://dc.lft.to/lastmile_qr_scan", "android": "https://dc.lft.to/lastmile_qr_scan"}, "is_reserved": 0, "fusion_lon": 0.0, "fusion_lat": 0.0, "lon": -77.03460516666667, "name": "cf53cbdda81da8b4a803a22b884e1fac"}, {"bike_id": "13d4913eecd51e5a50af0fef2623a849", "type": "electric_bike", "is_disabled": 0, "lat": 38.79981083333333, "rental_uris": {"ios": "https://dc.lft.to/lastmile_qr_scan", "android": "https://dc.lft.to/lastmile_qr_scan"}, "is_reserved": 0, "fusion_lon": 0.0, "fusion_lat": 0.0, "lon": -77.129791, "name": "13d4913eecd51e5a50af0fef2623a849"}, {"bike_id": "4a8ce600733f4fa6f79f5c4f6827d69f", "type": "electric_scooter", "is_disabled": 0, "lat": 38.90752633333334, "rental_uris": {"ios": "https://dc.lft.to/lastmile_qr_scan", "android": "https://dc.lft.to/lastmile_qr_scan"}, "is_reserved": 0, "fusion_lon": 0.0, "fusion_lat": 0.0, "lon": -77.032016, "name": "4a8ce600733f4fa6f79f5c4f6827d69f"}, {"bike_id": "7a027c45e595051a7894571ba6322400", "type": "electric_scooter", "is_disabled": 0, "lat": 38.862350666666664, "rental_uris": {"ios": "https://dc.lft.to/lastmile_qr_scan", "android": "https://dc.lft.to/lastmile_qr_scan"}, "is_reserved": 0, "fusion_lon": 0.0, "fusion_lat": 0.0, "lon": -76.99520866666667, "name": "7a027c45e595051a7894571ba6322400"}, {"bike_id": "805b94bafdf1fabd9529fd510e067b81", "type": "electric_scooter", "is_disabled": 0, "lat": 38.914881, "rental_uris": {"ios": "https://dc.lft.to/lastmile_qr_scan", "android": "https://dc.lft.to/lastmile_qr_scan"}, "is_reserved": 0, "fusion_lon": 0.0, "fusion_lat": 0.0, "lon": -77.04164366666667, "name": "805b94bafdf1fabd9529fd510e067b81"}, {"bike_id": "311b633d14ef8bf3edf8d6ea665d64df", "type": "electric_scooter", "is_disabled": 0, "lat": 38.9010315, "rental_uris": {"ios": "https://dc.lft.to/lastmile_qr_scan", "android": "https://dc.lft.to/lastmile_qr_scan"}, "is_reserved": 0, "fusion_lon": 0.0, "fusion_lat": 0.0, "lon": -77.05163766666666, "name": "311b633d14ef8bf3edf8d6ea665d64df"}, {"bike_id": "4b0ae6aa5a955582eebdf1220e8e8d0a", "type": "electric_scooter", "is_disabled": 0, "lat": 38.89321616666667, "rental_uris": {"ios": "https://dc.lft.to/lastmile_qr_scan", "android": "https://dc.lft.to/lastmile_qr_scan"}, "is_reserved": 0, "fusion_lon": 0.0, "fusion_lat": 0.0, "lon": -77.048821, "name": "4b0ae6aa5a955582eebdf1220e8e8d0a"}, {"bike_id": "b3a5b58dcb7a924d291a4f423e8dd6d6", "type": "electric_scooter", "is_disabled": 0, "lat": 38.927123, "rental_uris": {"ios": "https://dc.lft.to/lastmile_qr_scan", "android": "https://dc.lft.to/lastmile_qr_scan"}, "is_reserved": 0, "fusion_lon": 0.0, "fusion_lat": 0.0, "lon": -77.03734333333334, "name": "b3a5b58dcb7a924d291a4f423e8dd6d6"}, {"bike_id": "501314d8ae0571c328e3190f314c101b", "type": "electric_scooter", "is_disabled": 0, "lat": 38.901282, "rental_uris": {"ios": "https://dc.lft.to/lastmile_qr_scan", "android": "https://dc.lft.to/lastmile_qr_scan"}, "is_reserved": 0, "fusion_lon": 0.0, "fusion_lat": 0.0, "lon": -77.05121233333334, "name": "501314d8ae0571c328e3190f314c101b"}, {"bike_id": "e81aa61d8849765d4501a05b09783e5c", "type": "electric_scooter", "is_disabled": 0, "lat": 38.89843666666667, "rental_uris": {"ios": "https://dc.lft.to/lastmile_qr_scan", "android": "https://dc.lft.to/lastmile_qr_scan"}, "is_reserved": 0, "fusion_lon": 0.0, "fusion_lat": 0.0, "lon": -76.94633916666666, "name": "e81aa61d8849765d4501a05b09783e5c"}, {"bike_id": "321fde4bf7ac872308da97f477954b43", "type": "electric_scooter", "is_disabled": 0, "lat": 38.917586166666666, "rental_uris": {"ios": "https://dc.lft.to/lastmile_qr_scan", "android": "https://dc.lft.to/lastmile_qr_scan"}, "is_reserved": 0, "fusion_lon": 0.0, "fusion_lat": 0.0, "lon": -77.03659766666667, "name": "321fde4bf7ac872308da97f477954b43"}, {"bike_id": "105eb3891b6bfe477c246c1d52cb4366", "type": "electric_scooter", "is_disabled": 0, "lat": 38.87699333333333, "rental_uris": {"ios": "https://dc.lft.to/lastmile_qr_scan", "android": "https://dc.lft.to/lastmile_qr_scan"}, "is_reserved": 0, "fusion_lon": 0.0, "fusion_lat": 0.0, "lon": -77.01779933333333, "name": "105eb3891b6bfe477c246c1d52cb4366"}, {"bike_id": "847498fe1ccedee9fe4364bb8c493d55", "type": "electric_scooter", "is_disabled": 0, "lat": 38.92606266666667, "rental_uris": {"ios": "https://dc.lft.to/lastmile_qr_scan", "android": "https://dc.lft.to/lastmile_qr_scan"}, "is_reserved": 0, "fusion_lon": 0.0, "fusion_lat": 0.0, "lon": -77.102393, "name": "847498fe1ccedee9fe4364bb8c493d55"}, {"bike_id": "e9fc826afcf8bf89ea630989d14f0d3b", "type": "electric_scooter", "is_disabled": 0, "lat": 38.9175395, "rental_uris": {"ios": "https://dc.lft.to/lastmile_qr_scan", "android": "https://dc.lft.to/lastmile_qr_scan"}, "is_reserved": 0, "fusion_lon": 0.0, "fusion_lat": 0.0, "lon": -77.03851616666667, "name": "e9fc826afcf8bf89ea630989d14f0d3b"}, {"bike_id": "04ad3d1bf6581628c3d7d840ce0939fd", "type": "electric_scooter", "is_disabled": 0, "lat": 38.922396166666665, "rental_uris": {"ios": "https://dc.lft.to/lastmile_qr_scan", "android": "https://dc.lft.to/lastmile_qr_scan"}, "is_reserved": 0, "fusion_lon": 0.0, "fusion_lat": 0.0, "lon": -77.04354866666667, "name": "04ad3d1bf6581628c3d7d840ce0939fd"}, {"bike_id": "dc4a804272d365ac111136d15e34ec57", "type": "electric_scooter", "is_disabled": 0, "lat": 38.8904025, "rental_uris": {"ios": "https://dc.lft.to/lastmile_qr_scan", "android": "https://dc.lft.to/lastmile_qr_scan"}, "is_reserved": 0, "fusion_lon": 0.0, "fusion_lat": 0.0, "lon": -77.02570333333334, "name": "dc4a804272d365ac111136d15e34ec57"}, {"bike_id": "70ee9b5674762d508a6cef0d73222e4c", "type": "electric_scooter", "is_disabled": 0, "lat": 38.91139033333333, "rental_uris": {"ios": "https://dc.lft.to/lastmile_qr_scan", "android": "https://dc.lft.to/lastmile_qr_scan"}, "is_reserved": 0, "fusion_lon": 0.0, "fusion_lat": 0.0, "lon": -77.02808516666667, "name": "70ee9b5674762d508a6cef0d73222e4c"}, {"bike_id": "11c5cd49d414b627e624173403d268ba", "type": "electric_scooter", "is_disabled": 0, "lat": 38.8953295, "rental_uris": {"ios": "https://dc.lft.to/lastmile_qr_scan", "android": "https://dc.lft.to/lastmile_qr_scan"}, "is_reserved": 0, "fusion_lon": 0.0, "fusion_lat": 0.0, "lon": -76.94894066666667, "name": "11c5cd49d414b627e624173403d268ba"}, {"bike_id": "ccb7bca88ced88baff553210b7afef86", "type": "electric_scooter", "is_disabled": 0, "lat": 38.90419966666666, "rental_uris": {"ios": "https://dc.lft.to/lastmile_qr_scan", "android": "https://dc.lft.to/lastmile_qr_scan"}, "is_reserved": 0, "fusion_lon": 0.0, "fusion_lat": 0.0, "lon": -77.05339916666667, "name": "ccb7bca88ced88baff553210b7afef86"}, {"bike_id": "7ce2d198e1985f14c52695c0f8ca5635", "type": "electric_scooter", "is_disabled": 0, "lat": 38.9353785, "rental_uris": {"ios": "https://dc.lft.to/lastmile_qr_scan", "android": "https://dc.lft.to/lastmile_qr_scan"}, "is_reserved": 0, "fusion_lon": 0.0, "fusion_lat": 0.0, "lon": -77.03887716666667, "name": "7ce2d198e1985f14c52695c0f8ca5635"}, {"bike_id": "2934181f2d927edbf4cadacbafe819b6", "type": "electric_scooter", "is_disabled": 0, "lat": 38.90653566666667, "rental_uris": {"ios": "https://dc.lft.to/lastmile_qr_scan", "android": "https://dc.lft.to/lastmile_qr_scan"}, "is_reserved": 0, "fusion_lon": 0.0, "fusion_lat": 0.0, "lon": -77.01412633333334, "name": "2934181f2d927edbf4cadacbafe819b6"}, {"bike_id": "999f6f3842a804e2e358d714ae8be608", "type": "electric_scooter", "is_disabled": 0, "lat": 38.9261645, "rental_uris": {"ios": "https://dc.lft.to/lastmile_qr_scan", "android": "https://dc.lft.to/lastmile_qr_scan"}, "is_reserved": 0, "fusion_lon": 0.0, "fusion_lat": 0.0, "lon": -77.04331166666667, "name": "999f6f3842a804e2e358d714ae8be608"}, {"bike_id": "be1c512e0aac69bacf930a9d48f3527e", "type": "electric_scooter", "is_disabled": 0, "lat": 38.89981516666667, "rental_uris": {"ios": "https://dc.lft.to/lastmile_qr_scan", "android": "https://dc.lft.to/lastmile_qr_scan"}, "is_reserved": 0, "fusion_lon": 0.0, "fusion_lat": 0.0, "lon": -76.9881095, "name": "be1c512e0aac69bacf930a9d48f3527e"}, {"bike_id": "ce5ff5927ab8b85644a6ea610ae8e14d", "type": "electric_scooter", "is_disabled": 0, "lat": 38.918168333333334, "rental_uris": {"ios": "https://dc.lft.to/lastmile_qr_scan", "android": "https://dc.lft.to/lastmile_qr_scan"}, "is_reserved": 0, "fusion_lon": 0.0, "fusion_lat": 0.0, "lon": -77.03249416666667, "name": "ce5ff5927ab8b85644a6ea610ae8e14d"}, {"bike_id": "4950bd925c4990a9ec505d8bc17db50c", "type": "electric_scooter", "is_disabled": 0, "lat": 38.9101155, "rental_uris": {"ios": "https://dc.lft.to/lastmile_qr_scan", "android": "https://dc.lft.to/lastmile_qr_scan"}, "is_reserved": 0, "fusion_lon": 0.0, "fusion_lat": 0.0, "lon": -77.01625766666666, "name": "4950bd925c4990a9ec505d8bc17db50c"}, {"bike_id": "4c96330c822e9ebffc3110918cb65a03", "type": "electric_bike", "is_disabled": 0, "lat": 38.94650583333333, "rental_uris": {"ios": "https://dc.lft.to/lastmile_qr_scan", "android": "https://dc.lft.to/lastmile_qr_scan"}, "is_reserved": 0, "fusion_lon": 0.0, "fusion_lat": 0.0, "lon": -76.99489633333333, "name": "4c96330c822e9ebffc3110918cb65a03"}, {"bike_id": "f09ae90349b14030aade3be94f88506d", "type": "electric_scooter", "is_disabled": 0, "lat": 38.91421116666667, "rental_uris": {"ios": "https://dc.lft.to/lastmile_qr_scan", "android": "https://dc.lft.to/lastmile_qr_scan"}, "is_reserved": 0, "fusion_lon": 0.0, "fusion_lat": 0.0, "lon": -77.022878, "name": "f09ae90349b14030aade3be94f88506d"}, {"bike_id": "9396985c6fd102b17a1b866d57cd1264", "type": "electric_scooter", "is_disabled": 0, "lat": 38.90509566666667, "rental_uris": {"ios": "https://dc.lft.to/lastmile_qr_scan", "android": "https://dc.lft.to/lastmile_qr_scan"}, "is_reserved": 0, "fusion_lon": 0.0, "fusion_lat": 0.0, "lon": -77.029684, "name": "9396985c6fd102b17a1b866d57cd1264"}, {"bike_id": "111e9726da8fdd77db7b1a24d66b2f66", "type": "electric_scooter", "is_disabled": 0, "lat": 38.907950666666665, "rental_uris": {"ios": "https://dc.lft.to/lastmile_qr_scan", "android": "https://dc.lft.to/lastmile_qr_scan"}, "is_reserved": 0, "fusion_lon": 0.0, "fusion_lat": 0.0, "lon": -77.0313105, "name": "111e9726da8fdd77db7b1a24d66b2f66"}, {"bike_id": "831cf4aa032ff2f140edae2e6fe75e35", "type": "electric_scooter", "is_disabled": 0, "lat": 38.9207705, "rental_uris": {"ios": "https://dc.lft.to/lastmile_qr_scan", "android": "https://dc.lft.to/lastmile_qr_scan"}, "is_reserved": 0, "fusion_lon": 0.0, "fusion_lat": 0.0, "lon": -77.00452666666666, "name": "831cf4aa032ff2f140edae2e6fe75e35"}, {"bike_id": "3dbac2e6ff6320278a63d09807fd3dc6", "type": "electric_bike", "is_disabled": 0, "lat": 38.859344666666665, "rental_uris": {"ios": "https://dc.lft.to/lastmile_qr_scan", "android": "https://dc.lft.to/lastmile_qr_scan"}, "is_reserved": 0, "fusion_lon": 0.0, "fusion_lat": 0.0, "lon": -77.11830266666666, "name": "3dbac2e6ff6320278a63d09807fd3dc6"}, {"bike_id": "900a2d4dd4cc0f991c0735d08257e348", "type": "electric_scooter", "is_disabled": 0, "lat": 38.93201216666667, "rental_uris": {"ios": "https://dc.lft.to/lastmile_qr_scan", "android": "https://dc.lft.to/lastmile_qr_scan"}, "is_reserved": 0, "fusion_lon": 0.0, "fusion_lat": 0.0, "lon": -77.03663516666667, "name": "900a2d4dd4cc0f991c0735d08257e348"}, {"bike_id": "befca0befeaebf6a9abe19ef7014b21e", "type": "electric_scooter", "is_disabled": 0, "lat": 38.92228733333334, "rental_uris": {"ios": "https://dc.lft.to/lastmile_qr_scan", "android": "https://dc.lft.to/lastmile_qr_scan"}, "is_reserved": 0, "fusion_lon": 0.0, "fusion_lat": 0.0, "lon": -77.04701266666666, "name": "befca0befeaebf6a9abe19ef7014b21e"}, {"bike_id": "ed48a9f084a2df4f2b4e95c15bc33286", "type": "electric_scooter", "is_disabled": 0, "lat": 38.8923275, "rental_uris": {"ios": "https://dc.lft.to/lastmile_qr_scan", "android": "https://dc.lft.to/lastmile_qr_scan"}, "is_reserved": 0, "fusion_lon": 0.0, "fusion_lat": 0.0, "lon": -77.023827, "name": "ed48a9f084a2df4f2b4e95c15bc33286"}, {"bike_id": "6f7e08ecca9f25787b88f5f5c2d720e7", "type": "electric_bike", "is_disabled": 0, "lat": 38.823666833333334, "rental_uris": {"ios": "https://dc.lft.to/lastmile_qr_scan", "android": "https://dc.lft.to/lastmile_qr_scan"}, "is_reserved": 0, "fusion_lon": 0.0, "fusion_lat": 0.0, "lon": -77.00218516666666, "name": "6f7e08ecca9f25787b88f5f5c2d720e7"}, {"bike_id": "3b5d72ad0a2ea701dff0fa1ae159653e", "type": "electric_bike", "is_disabled": 0, "lat": 38.898078166666664, "rental_uris": {"ios": "https://dc.lft.to/lastmile_qr_scan", "android": "https://dc.lft.to/lastmile_qr_scan"}, "is_reserved": 0, "fusion_lon": 0.0, "fusion_lat": 0.0, "lon": -76.99070866666666, "name": "3b5d72ad0a2ea701dff0fa1ae159653e"}, {"bike_id": "642d909ed34d5f4be31b79d97b811252", "type": "electric_bike", "is_disabled": 0, "lat": 38.87078616666667, "rental_uris": {"ios": "https://dc.lft.to/lastmile_qr_scan", "android": "https://dc.lft.to/lastmile_qr_scan"}, "is_reserved": 0, "fusion_lon": 0.0, "fusion_lat": 0.0, "lon": -77.01211433333333, "name": "642d909ed34d5f4be31b79d97b811252"}, {"bike_id": "c0226f01acb293deba0cdfcc7e9b9776", "type": "electric_scooter", "is_disabled": 0, "lat": 38.9058855, "rental_uris": {"ios": "https://dc.lft.to/lastmile_qr_scan", "android": "https://dc.lft.to/lastmile_qr_scan"}, "is_reserved": 0, "fusion_lon": 0.0, "fusion_lat": 0.0, "lon": -77.06806183333333, "name": "c0226f01acb293deba0cdfcc7e9b9776"}, {"bike_id": "68709d9da399162b16d2e9516b0afc41", "type": "electric_scooter", "is_disabled": 0, "lat": 38.9419575, "rental_uris": {"ios": "https://dc.lft.to/lastmile_qr_scan", "android": "https://dc.lft.to/lastmile_qr_scan"}, "is_reserved": 0, "fusion_lon": 0.0, "fusion_lat": 0.0, "lon": -77.02349883333333, "name": "68709d9da399162b16d2e9516b0afc41"}, {"bike_id": "b89444dbee2d176039063bfbf2aa7afa", "type": "electric_scooter", "is_disabled": 0, "lat": 38.87021566666667, "rental_uris": {"ios": "https://dc.lft.to/lastmile_qr_scan", "android": "https://dc.lft.to/lastmile_qr_scan"}, "is_reserved": 0, "fusion_lon": 0.0, "fusion_lat": 0.0, "lon": -76.98082416666666, "name": "b89444dbee2d176039063bfbf2aa7afa"}, {"bike_id": "2542378b8d70b72755205cf9f7d062d5", "type": "electric_scooter", "is_disabled": 0, "lat": 38.9165765, "rental_uris": {"ios": "https://dc.lft.to/lastmile_qr_scan", "android": "https://dc.lft.to/lastmile_qr_scan"}, "is_reserved": 0, "fusion_lon": 0.0, "fusion_lat": 0.0, "lon": -77.02698, "name": "2542378b8d70b72755205cf9f7d062d5"}, {"bike_id": "f470e5be90e0159d6337419b4c922aa4", "type": "electric_scooter", "is_disabled": 0, "lat": 38.926711, "rental_uris": {"ios": "https://dc.lft.to/lastmile_qr_scan", "android": "https://dc.lft.to/lastmile_qr_scan"}, "is_reserved": 0, "fusion_lon": 0.0, "fusion_lat": 0.0, "lon": -77.01468516666667, "name": "f470e5be90e0159d6337419b4c922aa4"}, {"bike_id": "69e62b0f9e2ab9f127a92b3ecd09ffda", "type": "electric_scooter", "is_disabled": 0, "lat": 38.93528933333333, "rental_uris": {"ios": "https://dc.lft.to/lastmile_qr_scan", "android": "https://dc.lft.to/lastmile_qr_scan"}, "is_reserved": 0, "fusion_lon": 0.0, "fusion_lat": 0.0, "lon": -77.0235555, "name": "69e62b0f9e2ab9f127a92b3ecd09ffda"}, {"bike_id": "2fbc947b824ae7f0e41679964fc1fb98", "type": "electric_scooter", "is_disabled": 0, "lat": 38.934644666666664, "rental_uris": {"ios": "https://dc.lft.to/lastmile_qr_scan", "android": "https://dc.lft.to/lastmile_qr_scan"}, "is_reserved": 0, "fusion_lon": 0.0, "fusion_lat": 0.0, "lon": -77.029324, "name": "2fbc947b824ae7f0e41679964fc1fb98"}, {"bike_id": "8e600ef4f9a4dac3b3930d9cf940ffde", "type": "electric_scooter", "is_disabled": 0, "lat": 38.9071325, "rental_uris": {"ios": "https://dc.lft.to/lastmile_qr_scan", "android": "https://dc.lft.to/lastmile_qr_scan"}, "is_reserved": 0, "fusion_lon": 0.0, "fusion_lat": 0.0, "lon": -77.01470483333334, "name": "8e600ef4f9a4dac3b3930d9cf940ffde"}, {"bike_id": "5677d59462f4b5208afbb769018106b3", "type": "electric_scooter", "is_disabled": 0, "lat": 38.89175916666667, "rental_uris": {"ios": "https://dc.lft.to/lastmile_qr_scan", "android": "https://dc.lft.to/lastmile_qr_scan"}, "is_reserved": 0, "fusion_lon": 0.0, "fusion_lat": 0.0, "lon": -77.02206416666667, "name": "5677d59462f4b5208afbb769018106b3"}, {"bike_id": "7835edbeb7b227f81ab42cac81f4aae2", "type": "electric_scooter", "is_disabled": 0, "lat": 38.91415083333333, "rental_uris": {"ios": "https://dc.lft.to/lastmile_qr_scan", "android": "https://dc.lft.to/lastmile_qr_scan"}, "is_reserved": 0, "fusion_lon": 0.0, "fusion_lat": 0.0, "lon": -77.0228965, "name": "7835edbeb7b227f81ab42cac81f4aae2"}, {"bike_id": "d30bd64307e188bc5a1263c1863124ab", "type": "electric_scooter", "is_disabled": 0, "lat": 38.88429466666667, "rental_uris": {"ios": "https://dc.lft.to/lastmile_qr_scan", "android": "https://dc.lft.to/lastmile_qr_scan"}, "is_reserved": 0, "fusion_lon": 0.0, "fusion_lat": 0.0, "lon": -76.95754966666667, "name": "d30bd64307e188bc5a1263c1863124ab"}, {"bike_id": "a1cbc73e5befd261cf0ac2d273cd05e8", "type": "electric_scooter", "is_disabled": 0, "lat": 38.903215, "rental_uris": {"ios": "https://dc.lft.to/lastmile_qr_scan", "android": "https://dc.lft.to/lastmile_qr_scan"}, "is_reserved": 0, "fusion_lon": 0.0, "fusion_lat": 0.0, "lon": -77.02877916666667, "name": "a1cbc73e5befd261cf0ac2d273cd05e8"}, {"bike_id": "bc5d968b241f07662abcca94af8e20a0", "type": "electric_scooter", "is_disabled": 0, "lat": 38.928524, "rental_uris": {"ios": "https://dc.lft.to/lastmile_qr_scan", "android": "https://dc.lft.to/lastmile_qr_scan"}, "is_reserved": 0, "fusion_lon": 0.0, "fusion_lat": 0.0, "lon": -77.013877, "name": "bc5d968b241f07662abcca94af8e20a0"}, {"bike_id": "bad83723bfd83199cc977b609080307b", "type": "electric_bike", "is_disabled": 0, "lat": 38.872851, "rental_uris": {"ios": "https://dc.lft.to/lastmile_qr_scan", "android": "https://dc.lft.to/lastmile_qr_scan"}, "is_reserved": 0, "fusion_lon": 0.0, "fusion_lat": 0.0, "lon": -77.13921116666667, "name": "bad83723bfd83199cc977b609080307b"}, {"bike_id": "ea5579662f2d397aaf3986ad270215b7", "type": "electric_scooter", "is_disabled": 0, "lat": 38.90547766666667, "rental_uris": {"ios": "https://dc.lft.to/lastmile_qr_scan", "android": "https://dc.lft.to/lastmile_qr_scan"}, "is_reserved": 0, "fusion_lon": 0.0, "fusion_lat": 0.0, "lon": -77.0053545, "name": "ea5579662f2d397aaf3986ad270215b7"}, {"bike_id": "47f8ea5d2c200a1181b40514a6114de5", "type": "electric_scooter", "is_disabled": 0, "lat": 38.90981216666667, "rental_uris": {"ios": "https://dc.lft.to/lastmile_qr_scan", "android": "https://dc.lft.to/lastmile_qr_scan"}, "is_reserved": 0, "fusion_lon": 0.0, "fusion_lat": 0.0, "lon": -77.03372, "name": "47f8ea5d2c200a1181b40514a6114de5"}, {"bike_id": "ae93915cf5654e6df01bed0e1fa095ee", "type": "electric_scooter", "is_disabled": 0, "lat": 38.944842333333334, "rental_uris": {"ios": "https://dc.lft.to/lastmile_qr_scan", "android": "https://dc.lft.to/lastmile_qr_scan"}, "is_reserved": 0, "fusion_lon": 0.0, "fusion_lat": 0.0, "lon": -77.06370633333333, "name": "ae93915cf5654e6df01bed0e1fa095ee"}, {"bike_id": "28244250cce5a091d74b41eafef4b39a", "type": "electric_scooter", "is_disabled": 0, "lat": 38.9030915, "rental_uris": {"ios": "https://dc.lft.to/lastmile_qr_scan", "android": "https://dc.lft.to/lastmile_qr_scan"}, "is_reserved": 0, "fusion_lon": 0.0, "fusion_lat": 0.0, "lon": -76.983589, "name": "28244250cce5a091d74b41eafef4b39a"}, {"bike_id": "a18e376e8d4fe5662cc48f702b11e8d6", "type": "electric_scooter", "is_disabled": 0, "lat": 38.907708166666666, "rental_uris": {"ios": "https://dc.lft.to/lastmile_qr_scan", "android": "https://dc.lft.to/lastmile_qr_scan"}, "is_reserved": 0, "fusion_lon": 0.0, "fusion_lat": 0.0, "lon": -77.012096, "name": "a18e376e8d4fe5662cc48f702b11e8d6"}, {"bike_id": "0b6cc5faf47ccf28014f179bf52161d1", "type": "electric_scooter", "is_disabled": 0, "lat": 38.92753833333333, "rental_uris": {"ios": "https://dc.lft.to/lastmile_qr_scan", "android": "https://dc.lft.to/lastmile_qr_scan"}, "is_reserved": 0, "fusion_lon": 0.0, "fusion_lat": 0.0, "lon": -77.02423616666667, "name": "0b6cc5faf47ccf28014f179bf52161d1"}, {"bike_id": "a04c592f23a13b89f46c0387f60bfc79", "type": "electric_scooter", "is_disabled": 0, "lat": 38.93611883333333, "rental_uris": {"ios": "https://dc.lft.to/lastmile_qr_scan", "android": "https://dc.lft.to/lastmile_qr_scan"}, "is_reserved": 0, "fusion_lon": 0.0, "fusion_lat": 0.0, "lon": -77.06750783333334, "name": "a04c592f23a13b89f46c0387f60bfc79"}, {"bike_id": "ff23bb74187669607e64ccdc365b5804", "type": "electric_scooter", "is_disabled": 0, "lat": 38.91537966666667, "rental_uris": {"ios": "https://dc.lft.to/lastmile_qr_scan", "android": "https://dc.lft.to/lastmile_qr_scan"}, "is_reserved": 0, "fusion_lon": 0.0, "fusion_lat": 0.0, "lon": -77.01270533333333, "name": "ff23bb74187669607e64ccdc365b5804"}, {"bike_id": "791b110d3e77868c158e603d5b130a12", "type": "electric_scooter", "is_disabled": 0, "lat": 38.9359065, "rental_uris": {"ios": "https://dc.lft.to/lastmile_qr_scan", "android": "https://dc.lft.to/lastmile_qr_scan"}, "is_reserved": 0, "fusion_lon": 0.0, "fusion_lat": 0.0, "lon": -77.03813883333333, "name": "791b110d3e77868c158e603d5b130a12"}, {"bike_id": "28577c0aae9e6eed7e39283ff13e9ab6", "type": "electric_scooter", "is_disabled": 0, "lat": 38.920435499999996, "rental_uris": {"ios": "https://dc.lft.to/lastmile_qr_scan", "android": "https://dc.lft.to/lastmile_qr_scan"}, "is_reserved": 0, "fusion_lon": 0.0, "fusion_lat": 0.0, "lon": -77.02440666666666, "name": "28577c0aae9e6eed7e39283ff13e9ab6"}, {"bike_id": "7ae035721b56aba3bf2cbe82838bfb09", "type": "electric_scooter", "is_disabled": 0, "lat": 38.92333383333333, "rental_uris": {"ios": "https://dc.lft.to/lastmile_qr_scan", "android": "https://dc.lft.to/lastmile_qr_scan"}, "is_reserved": 0, "fusion_lon": 0.0, "fusion_lat": 0.0, "lon": -77.0461765, "name": "7ae035721b56aba3bf2cbe82838bfb09"}, {"bike_id": "3e1c6c3675c1b4e4009a2043843ff22b", "type": "electric_scooter", "is_disabled": 0, "lat": 38.913903833333336, "rental_uris": {"ios": "https://dc.lft.to/lastmile_qr_scan", "android": "https://dc.lft.to/lastmile_qr_scan"}, "is_reserved": 0, "fusion_lon": 0.0, "fusion_lat": 0.0, "lon": -77.02198966666667, "name": "3e1c6c3675c1b4e4009a2043843ff22b"}, {"bike_id": "5329ac9e2581b531914f65b791d485f4", "type": "electric_scooter", "is_disabled": 0, "lat": 38.90088083333333, "rental_uris": {"ios": "https://dc.lft.to/lastmile_qr_scan", "android": "https://dc.lft.to/lastmile_qr_scan"}, "is_reserved": 0, "fusion_lon": 0.0, "fusion_lat": 0.0, "lon": -77.05013883333334, "name": "5329ac9e2581b531914f65b791d485f4"}, {"bike_id": "e5c26302ea41147a5c534d7ad700232d", "type": "electric_scooter", "is_disabled": 0, "lat": 38.92286716666667, "rental_uris": {"ios": "https://dc.lft.to/lastmile_qr_scan", "android": "https://dc.lft.to/lastmile_qr_scan"}, "is_reserved": 0, "fusion_lon": 0.0, "fusion_lat": 0.0, "lon": -77.020708, "name": "e5c26302ea41147a5c534d7ad700232d"}, {"bike_id": "9e345ffeb9fcddb4d40e138e53fb00a7", "type": "electric_scooter", "is_disabled": 0, "lat": 38.907320666666664, "rental_uris": {"ios": "https://dc.lft.to/lastmile_qr_scan", "android": "https://dc.lft.to/lastmile_qr_scan"}, "is_reserved": 0, "fusion_lon": 0.0, "fusion_lat": 0.0, "lon": -77.00758683333333, "name": "9e345ffeb9fcddb4d40e138e53fb00a7"}, {"bike_id": "d897712f2ada2e8698500e18ccf7feaa", "type": "electric_scooter", "is_disabled": 0, "lat": 38.9523315, "rental_uris": {"ios": "https://dc.lft.to/lastmile_qr_scan", "android": "https://dc.lft.to/lastmile_qr_scan"}, "is_reserved": 0, "fusion_lon": 0.0, "fusion_lat": 0.0, "lon": -77.0095405, "name": "d897712f2ada2e8698500e18ccf7feaa"}, {"bike_id": "ad6f0f1b242db002f6e62341796edc41", "type": "electric_scooter", "is_disabled": 0, "lat": 38.935407833333336, "rental_uris": {"ios": "https://dc.lft.to/lastmile_qr_scan", "android": "https://dc.lft.to/lastmile_qr_scan"}, "is_reserved": 0, "fusion_lon": 0.0, "fusion_lat": 0.0, "lon": -77.05828883333334, "name": "ad6f0f1b242db002f6e62341796edc41"}, {"bike_id": "c5502acda6c5f2071e1077fb1a8ff644", "type": "electric_bike", "is_disabled": 0, "lat": 38.89219383333333, "rental_uris": {"ios": "https://dc.lft.to/lastmile_qr_scan", "android": "https://dc.lft.to/lastmile_qr_scan"}, "is_reserved": 0, "fusion_lon": 0.0, "fusion_lat": 0.0, "lon": -76.9708265, "name": "c5502acda6c5f2071e1077fb1a8ff644"}, {"bike_id": "7a20d280358e558665ee98706af51267", "type": "electric_scooter", "is_disabled": 0, "lat": 38.971970166666665, "rental_uris": {"ios": "https://dc.lft.to/lastmile_qr_scan", "android": "https://dc.lft.to/lastmile_qr_scan"}, "is_reserved": 0, "fusion_lon": 0.0, "fusion_lat": 0.0, "lon": -77.02689016666666, "name": "7a20d280358e558665ee98706af51267"}, {"bike_id": "8408d82778fe93115576dcdf82235d26", "type": "electric_scooter", "is_disabled": 0, "lat": 38.911114833333336, "rental_uris": {"ios": "https://dc.lft.to/lastmile_qr_scan", "android": "https://dc.lft.to/lastmile_qr_scan"}, "is_reserved": 0, "fusion_lon": 0.0, "fusion_lat": 0.0, "lon": -77.03915683333334, "name": "8408d82778fe93115576dcdf82235d26"}, {"bike_id": "253eeadf8e1b2b2b2649c22d44d868a6", "type": "electric_bike", "is_disabled": 0, "lat": 38.955929166666664, "rental_uris": {"ios": "https://dc.lft.to/lastmile_qr_scan", "android": "https://dc.lft.to/lastmile_qr_scan"}, "is_reserved": 0, "fusion_lon": 0.0, "fusion_lat": 0.0, "lon": -77.08792983333333, "name": "253eeadf8e1b2b2b2649c22d44d868a6"}, {"bike_id": "37f0884dfa508a70c62009d04304d173", "type": "electric_scooter", "is_disabled": 0, "lat": 38.93525116666667, "rental_uris": {"ios": "https://dc.lft.to/lastmile_qr_scan", "android": "https://dc.lft.to/lastmile_qr_scan"}, "is_reserved": 0, "fusion_lon": 0.0, "fusion_lat": 0.0, "lon": -77.029596, "name": "37f0884dfa508a70c62009d04304d173"}, {"bike_id": "f03de1643896fcecf8c52008da783f6b", "type": "electric_bike", "is_disabled": 0, "lat": 38.952428833333336, "rental_uris": {"ios": "https://dc.lft.to/lastmile_qr_scan", "android": "https://dc.lft.to/lastmile_qr_scan"}, "is_reserved": 0, "fusion_lon": 0.0, "fusion_lat": 0.0, "lon": -76.97673216666666, "name": "f03de1643896fcecf8c52008da783f6b"}, {"bike_id": "5e9a4558574ddd34857b4fde547f682d", "type": "electric_scooter", "is_disabled": 0, "lat": 38.91709816666667, "rental_uris": {"ios": "https://dc.lft.to/lastmile_qr_scan", "android": "https://dc.lft.to/lastmile_qr_scan"}, "is_reserved": 0, "fusion_lon": 0.0, "fusion_lat": 0.0, "lon": -77.03462183333333, "name": "5e9a4558574ddd34857b4fde547f682d"}, {"bike_id": "a9fe6d0ee84c50cab811802d92f3ac13", "type": "electric_scooter", "is_disabled": 0, "lat": 38.906384333333335, "rental_uris": {"ios": "https://dc.lft.to/lastmile_qr_scan", "android": "https://dc.lft.to/lastmile_qr_scan"}, "is_reserved": 0, "fusion_lon": 0.0, "fusion_lat": 0.0, "lon": -77.0100895, "name": "a9fe6d0ee84c50cab811802d92f3ac13"}, {"bike_id": "da7102309ebbd8cb3177da44526936b8", "type": "electric_scooter", "is_disabled": 0, "lat": 38.92630533333333, "rental_uris": {"ios": "https://dc.lft.to/lastmile_qr_scan", "android": "https://dc.lft.to/lastmile_qr_scan"}, "is_reserved": 0, "fusion_lon": 0.0, "fusion_lat": 0.0, "lon": -77.03229483333334, "name": "da7102309ebbd8cb3177da44526936b8"}, {"bike_id": "2adffb567533d151abf747ccd5864ccd", "type": "electric_scooter", "is_disabled": 0, "lat": 38.905493, "rental_uris": {"ios": "https://dc.lft.to/lastmile_qr_scan", "android": "https://dc.lft.to/lastmile_qr_scan"}, "is_reserved": 0, "fusion_lon": 0.0, "fusion_lat": 0.0, "lon": -77.05007483333333, "name": "2adffb567533d151abf747ccd5864ccd"}, {"bike_id": "5cd4fc8376c07738482ad0338ea0952b", "type": "electric_scooter", "is_disabled": 0, "lat": 38.893374666666666, "rental_uris": {"ios": "https://dc.lft.to/lastmile_qr_scan", "android": "https://dc.lft.to/lastmile_qr_scan"}, "is_reserved": 0, "fusion_lon": 0.0, "fusion_lat": 0.0, "lon": -77.02402983333333, "name": "5cd4fc8376c07738482ad0338ea0952b"}, {"bike_id": "558c66204eff1e155cab7744dc2c96bc", "type": "electric_scooter", "is_disabled": 0, "lat": 38.895444499999996, "rental_uris": {"ios": "https://dc.lft.to/lastmile_qr_scan", "android": "https://dc.lft.to/lastmile_qr_scan"}, "is_reserved": 0, "fusion_lon": 0.0, "fusion_lat": 0.0, "lon": -76.9295445, "name": "558c66204eff1e155cab7744dc2c96bc"}, {"bike_id": "996c3350a949406c70dcce1b38c667b5", "type": "electric_scooter", "is_disabled": 0, "lat": 38.90561433333333, "rental_uris": {"ios": "https://dc.lft.to/lastmile_qr_scan", "android": "https://dc.lft.to/lastmile_qr_scan"}, "is_reserved": 0, "fusion_lon": 0.0, "fusion_lat": 0.0, "lon": -76.98141666666666, "name": "996c3350a949406c70dcce1b38c667b5"}, {"bike_id": "88362f0c59ef901e43e0c7cd9e1bd7ff", "type": "electric_bike", "is_disabled": 0, "lat": 38.85786133333333, "rental_uris": {"ios": "https://dc.lft.to/lastmile_qr_scan", "android": "https://dc.lft.to/lastmile_qr_scan"}, "is_reserved": 0, "fusion_lon": 0.0, "fusion_lat": 0.0, "lon": -77.1201935, "name": "88362f0c59ef901e43e0c7cd9e1bd7ff"}, {"bike_id": "9e12a299272cb9dcb910e36f2d03bafe", "type": "electric_scooter", "is_disabled": 0, "lat": 38.9267775, "rental_uris": {"ios": "https://dc.lft.to/lastmile_qr_scan", "android": "https://dc.lft.to/lastmile_qr_scan"}, "is_reserved": 0, "fusion_lon": 0.0, "fusion_lat": 0.0, "lon": -77.04361316666666, "name": "9e12a299272cb9dcb910e36f2d03bafe"}, {"bike_id": "f6b6b35df9e1d49cd7b76c906746f9f9", "type": "electric_scooter", "is_disabled": 0, "lat": 38.9113025, "rental_uris": {"ios": "https://dc.lft.to/lastmile_qr_scan", "android": "https://dc.lft.to/lastmile_qr_scan"}, "is_reserved": 0, "fusion_lon": 0.0, "fusion_lat": 0.0, "lon": -77.065351, "name": "f6b6b35df9e1d49cd7b76c906746f9f9"}, {"bike_id": "d99cf4314295455757e327cf060a4fc6", "type": "electric_scooter", "is_disabled": 0, "lat": 38.884121, "rental_uris": {"ios": "https://dc.lft.to/lastmile_qr_scan", "android": "https://dc.lft.to/lastmile_qr_scan"}, "is_reserved": 0, "fusion_lon": 0.0, "fusion_lat": 0.0, "lon": -77.03175716666667, "name": "d99cf4314295455757e327cf060a4fc6"}, {"bike_id": "f94452306558ab248572c79a33ec21d8", "type": "electric_scooter", "is_disabled": 0, "lat": 38.932874, "rental_uris": {"ios": "https://dc.lft.to/lastmile_qr_scan", "android": "https://dc.lft.to/lastmile_qr_scan"}, "is_reserved": 0, "fusion_lon": 0.0, "fusion_lat": 0.0, "lon": -77.041201, "name": "f94452306558ab248572c79a33ec21d8"}, {"bike_id": "7609aaf102322c625f1a5ac53680c522", "type": "electric_scooter", "is_disabled": 0, "lat": 38.9021555, "rental_uris": {"ios": "https://dc.lft.to/lastmile_qr_scan", "android": "https://dc.lft.to/lastmile_qr_scan"}, "is_reserved": 0, "fusion_lon": 0.0, "fusion_lat": 0.0, "lon": -77.02384166666667, "name": "7609aaf102322c625f1a5ac53680c522"}, {"bike_id": "29f7703c8ed9e39e2857d1ead959be73", "type": "electric_scooter", "is_disabled": 0, "lat": 38.930066833333335, "rental_uris": {"ios": "https://dc.lft.to/lastmile_qr_scan", "android": "https://dc.lft.to/lastmile_qr_scan"}, "is_reserved": 0, "fusion_lon": 0.0, "fusion_lat": 0.0, "lon": -77.01431983333333, "name": "29f7703c8ed9e39e2857d1ead959be73"}, {"bike_id": "d4533958df3747a0e647c2c33cb3b735", "type": "electric_scooter", "is_disabled": 0, "lat": 38.93534433333333, "rental_uris": {"ios": "https://dc.lft.to/lastmile_qr_scan", "android": "https://dc.lft.to/lastmile_qr_scan"}, "is_reserved": 0, "fusion_lon": 0.0, "fusion_lat": 0.0, "lon": -77.02349783333334, "name": "d4533958df3747a0e647c2c33cb3b735"}, {"bike_id": "034760d41a75ec44ea8f8c5ec708f44c", "type": "electric_bike", "is_disabled": 0, "lat": 38.896031666666666, "rental_uris": {"ios": "https://dc.lft.to/lastmile_qr_scan", "android": "https://dc.lft.to/lastmile_qr_scan"}, "is_reserved": 0, "fusion_lon": 0.0, "fusion_lat": 0.0, "lon": -77.02215683333333, "name": "034760d41a75ec44ea8f8c5ec708f44c"}, {"bike_id": "2b0f24e79ae1b30e6aac4b1a23d66bea", "type": "electric_scooter", "is_disabled": 0, "lat": 38.901424, "rental_uris": {"ios": "https://dc.lft.to/lastmile_qr_scan", "android": "https://dc.lft.to/lastmile_qr_scan"}, "is_reserved": 0, "fusion_lon": 0.0, "fusion_lat": 0.0, "lon": -77.022096, "name": "2b0f24e79ae1b30e6aac4b1a23d66bea"}, {"bike_id": "158ea7be69b4c215b253edf62669c0e7", "type": "electric_scooter", "is_disabled": 0, "lat": 38.915718166666665, "rental_uris": {"ios": "https://dc.lft.to/lastmile_qr_scan", "android": "https://dc.lft.to/lastmile_qr_scan"}, "is_reserved": 0, "fusion_lon": 0.0, "fusion_lat": 0.0, "lon": -77.01998633333334, "name": "158ea7be69b4c215b253edf62669c0e7"}, {"bike_id": "9027ee79e99b07e8d9e4c0ab60283058", "type": "electric_scooter", "is_disabled": 0, "lat": 38.9036095, "rental_uris": {"ios": "https://dc.lft.to/lastmile_qr_scan", "android": "https://dc.lft.to/lastmile_qr_scan"}, "is_reserved": 0, "fusion_lon": 0.0, "fusion_lat": 0.0, "lon": -76.99383883333333, "name": "9027ee79e99b07e8d9e4c0ab60283058"}, {"bike_id": "e613bb655e886523db42acf4a18ade67", "type": "electric_scooter", "is_disabled": 0, "lat": 38.93443, "rental_uris": {"ios": "https://dc.lft.to/lastmile_qr_scan", "android": "https://dc.lft.to/lastmile_qr_scan"}, "is_reserved": 0, "fusion_lon": 0.0, "fusion_lat": 0.0, "lon": -77.02983666666667, "name": "e613bb655e886523db42acf4a18ade67"}, {"bike_id": "8e22164819c684334ee0fffb03fbb791", "type": "electric_scooter", "is_disabled": 0, "lat": 38.92191316666667, "rental_uris": {"ios": "https://dc.lft.to/lastmile_qr_scan", "android": "https://dc.lft.to/lastmile_qr_scan"}, "is_reserved": 0, "fusion_lon": 0.0, "fusion_lat": 0.0, "lon": -76.99364066666666, "name": "8e22164819c684334ee0fffb03fbb791"}, {"bike_id": "67ea94750f0ab99dd9489886047dd54b", "type": "electric_bike", "is_disabled": 0, "lat": 39.057874166666664, "rental_uris": {"ios": "https://dc.lft.to/lastmile_qr_scan", "android": "https://dc.lft.to/lastmile_qr_scan"}, "is_reserved": 0, "fusion_lon": 0.0, "fusion_lat": 0.0, "lon": -77.15017333333333, "name": "67ea94750f0ab99dd9489886047dd54b"}, {"bike_id": "360639e24b15d2725ec79908f0e2c84a", "type": "electric_scooter", "is_disabled": 0, "lat": 38.84442166666667, "rental_uris": {"ios": "https://dc.lft.to/lastmile_qr_scan", "android": "https://dc.lft.to/lastmile_qr_scan"}, "is_reserved": 0, "fusion_lon": 0.0, "fusion_lat": 0.0, "lon": -76.98743783333333, "name": "360639e24b15d2725ec79908f0e2c84a"}, {"bike_id": "7b27a450ff87489093263a70e5eb9857", "type": "electric_scooter", "is_disabled": 0, "lat": 38.8569895, "rental_uris": {"ios": "https://dc.lft.to/lastmile_qr_scan", "android": "https://dc.lft.to/lastmile_qr_scan"}, "is_reserved": 0, "fusion_lon": 0.0, "fusion_lat": 0.0, "lon": -76.9896825, "name": "7b27a450ff87489093263a70e5eb9857"}, {"bike_id": "991d7cf6b9db74ff1c1399e307c21c83", "type": "electric_bike", "is_disabled": 0, "lat": 38.89736833333333, "rental_uris": {"ios": "https://dc.lft.to/lastmile_qr_scan", "android": "https://dc.lft.to/lastmile_qr_scan"}, "is_reserved": 0, "fusion_lon": 0.0, "fusion_lat": 0.0, "lon": -76.94247633333333, "name": "991d7cf6b9db74ff1c1399e307c21c83"}, {"bike_id": "63afa8429703465573dc47f3ee29e37a", "type": "electric_scooter", "is_disabled": 0, "lat": 38.90061766666667, "rental_uris": {"ios": "https://dc.lft.to/lastmile_qr_scan", "android": "https://dc.lft.to/lastmile_qr_scan"}, "is_reserved": 0, "fusion_lon": 0.0, "fusion_lat": 0.0, "lon": -76.934778, "name": "63afa8429703465573dc47f3ee29e37a"}, {"bike_id": "9d1bee1a879a3301fbe155ab6671ac43", "type": "electric_scooter", "is_disabled": 0, "lat": 38.8900965, "rental_uris": {"ios": "https://dc.lft.to/lastmile_qr_scan", "android": "https://dc.lft.to/lastmile_qr_scan"}, "is_reserved": 0, "fusion_lon": 0.0, "fusion_lat": 0.0, "lon": -76.9374695, "name": "9d1bee1a879a3301fbe155ab6671ac43"}, {"bike_id": "ace531ce7bc6f63a54d709a051908bfe", "type": "electric_scooter", "is_disabled": 0, "lat": 38.912715, "rental_uris": {"ios": "https://dc.lft.to/lastmile_qr_scan", "android": "https://dc.lft.to/lastmile_qr_scan"}, "is_reserved": 0, "fusion_lon": 0.0, "fusion_lat": 0.0, "lon": -77.04733133333333, "name": "ace531ce7bc6f63a54d709a051908bfe"}, {"bike_id": "64443754c8d659b24616503760190399", "type": "electric_scooter", "is_disabled": 0, "lat": 38.93176033333334, "rental_uris": {"ios": "https://dc.lft.to/lastmile_qr_scan", "android": "https://dc.lft.to/lastmile_qr_scan"}, "is_reserved": 0, "fusion_lon": 0.0, "fusion_lat": 0.0, "lon": -76.9948155, "name": "64443754c8d659b24616503760190399"}, {"bike_id": "3efacdd57fa284acdf52e619d716fcf8", "type": "electric_scooter", "is_disabled": 0, "lat": 38.9215875, "rental_uris": {"ios": "https://dc.lft.to/lastmile_qr_scan", "android": "https://dc.lft.to/lastmile_qr_scan"}, "is_reserved": 0, "fusion_lon": 0.0, "fusion_lat": 0.0, "lon": -77.03376233333333, "name": "3efacdd57fa284acdf52e619d716fcf8"}, {"bike_id": "aa3a3e1930903a2b577efcfd2d6e9253", "type": "electric_scooter", "is_disabled": 0, "lat": 38.915688, "rental_uris": {"ios": "https://dc.lft.to/lastmile_qr_scan", "android": "https://dc.lft.to/lastmile_qr_scan"}, "is_reserved": 0, "fusion_lon": 0.0, "fusion_lat": 0.0, "lon": -77.04281116666667, "name": "aa3a3e1930903a2b577efcfd2d6e9253"}, {"bike_id": "142554dffac401e4d0cd6997f9f83fc8", "type": "electric_scooter", "is_disabled": 0, "lat": 38.911078833333335, "rental_uris": {"ios": "https://dc.lft.to/lastmile_qr_scan", "android": "https://dc.lft.to/lastmile_qr_scan"}, "is_reserved": 0, "fusion_lon": 0.0, "fusion_lat": 0.0, "lon": -77.03289033333333, "name": "142554dffac401e4d0cd6997f9f83fc8"}, {"bike_id": "9c3d6ba7ad3d6b78bb02736c0d654bb4", "type": "electric_scooter", "is_disabled": 0, "lat": 38.916573, "rental_uris": {"ios": "https://dc.lft.to/lastmile_qr_scan", "android": "https://dc.lft.to/lastmile_qr_scan"}, "is_reserved": 0, "fusion_lon": 0.0, "fusion_lat": 0.0, "lon": -77.02891583333333, "name": "9c3d6ba7ad3d6b78bb02736c0d654bb4"}, {"bike_id": "f737e1b58b82742eca4f84a279bfa765", "type": "electric_scooter", "is_disabled": 0, "lat": 38.8885815, "rental_uris": {"ios": "https://dc.lft.to/lastmile_qr_scan", "android": "https://dc.lft.to/lastmile_qr_scan"}, "is_reserved": 0, "fusion_lon": 0.0, "fusion_lat": 0.0, "lon": -77.00049583333333, "name": "f737e1b58b82742eca4f84a279bfa765"}, {"bike_id": "25c8ef8524925d1d98d99583fae6af7f", "type": "electric_scooter", "is_disabled": 0, "lat": 38.91417383333334, "rental_uris": {"ios": "https://dc.lft.to/lastmile_qr_scan", "android": "https://dc.lft.to/lastmile_qr_scan"}, "is_reserved": 0, "fusion_lon": 0.0, "fusion_lat": 0.0, "lon": -77.04159216666666, "name": "25c8ef8524925d1d98d99583fae6af7f"}, {"bike_id": "6aa0e616e3b86ac3dbb77754ef4c76eb", "type": "electric_scooter", "is_disabled": 0, "lat": 38.90658716666667, "rental_uris": {"ios": "https://dc.lft.to/lastmile_qr_scan", "android": "https://dc.lft.to/lastmile_qr_scan"}, "is_reserved": 0, "fusion_lon": 0.0, "fusion_lat": 0.0, "lon": -77.0531705, "name": "6aa0e616e3b86ac3dbb77754ef4c76eb"}, {"bike_id": "78e7c1af70587dbbffe79fc453ae932b", "type": "electric_scooter", "is_disabled": 0, "lat": 38.92406866666666, "rental_uris": {"ios": "https://dc.lft.to/lastmile_qr_scan", "android": "https://dc.lft.to/lastmile_qr_scan"}, "is_reserved": 0, "fusion_lon": 0.0, "fusion_lat": 0.0, "lon": -77.02979866666666, "name": "78e7c1af70587dbbffe79fc453ae932b"}, {"bike_id": "417b47a43c90511aad818e651d92fe54", "type": "electric_scooter", "is_disabled": 0, "lat": 38.92262816666667, "rental_uris": {"ios": "https://dc.lft.to/lastmile_qr_scan", "android": "https://dc.lft.to/lastmile_qr_scan"}, "is_reserved": 0, "fusion_lon": 0.0, "fusion_lat": 0.0, "lon": -77.04198016666666, "name": "417b47a43c90511aad818e651d92fe54"}, {"bike_id": "ae66a39739bd63e91ebe3f1741d3add2", "type": "electric_scooter", "is_disabled": 0, "lat": 38.8806525, "rental_uris": {"ios": "https://dc.lft.to/lastmile_qr_scan", "android": "https://dc.lft.to/lastmile_qr_scan"}, "is_reserved": 0, "fusion_lon": 0.0, "fusion_lat": 0.0, "lon": -76.93217916666667, "name": "ae66a39739bd63e91ebe3f1741d3add2"}, {"bike_id": "5c086e9185b3552cad1cd84b92bfd1b9", "type": "electric_scooter", "is_disabled": 0, "lat": 38.87625383333334, "rental_uris": {"ios": "https://dc.lft.to/lastmile_qr_scan", "android": "https://dc.lft.to/lastmile_qr_scan"}, "is_reserved": 0, "fusion_lon": 0.0, "fusion_lat": 0.0, "lon": -76.96526366666667, "name": "5c086e9185b3552cad1cd84b92bfd1b9"}, {"bike_id": "364ce53ea6348eb5e589f75f5826a7a0", "type": "electric_scooter", "is_disabled": 0, "lat": 38.90426133333333, "rental_uris": {"ios": "https://dc.lft.to/lastmile_qr_scan", "android": "https://dc.lft.to/lastmile_qr_scan"}, "is_reserved": 0, "fusion_lon": 0.0, "fusion_lat": 0.0, "lon": -77.053245, "name": "364ce53ea6348eb5e589f75f5826a7a0"}, {"bike_id": "be0a9cdb6c9eb26ac7331f67dc169014", "type": "electric_scooter", "is_disabled": 0, "lat": 38.900641666666665, "rental_uris": {"ios": "https://dc.lft.to/lastmile_qr_scan", "android": "https://dc.lft.to/lastmile_qr_scan"}, "is_reserved": 0, "fusion_lon": 0.0, "fusion_lat": 0.0, "lon": -76.92746066666666, "name": "be0a9cdb6c9eb26ac7331f67dc169014"}, {"bike_id": "2e8dc1e8429fb9267b339ce737af68c6", "type": "electric_scooter", "is_disabled": 0, "lat": 38.964044, "rental_uris": {"ios": "https://dc.lft.to/lastmile_qr_scan", "android": "https://dc.lft.to/lastmile_qr_scan"}, "is_reserved": 0, "fusion_lon": 0.0, "fusion_lat": 0.0, "lon": -77.02770383333333, "name": "2e8dc1e8429fb9267b339ce737af68c6"}, {"bike_id": "eaa98be588359ad9dd27e7c7d51565ef", "type": "electric_scooter", "is_disabled": 0, "lat": 38.90030483333334, "rental_uris": {"ios": "https://dc.lft.to/lastmile_qr_scan", "android": "https://dc.lft.to/lastmile_qr_scan"}, "is_reserved": 0, "fusion_lon": 0.0, "fusion_lat": 0.0, "lon": -77.02407866666667, "name": "eaa98be588359ad9dd27e7c7d51565ef"}, {"bike_id": "4feb1eca7893f295e44530c4f4002186", "type": "electric_scooter", "is_disabled": 0, "lat": 38.902697, "rental_uris": {"ios": "https://dc.lft.to/lastmile_qr_scan", "android": "https://dc.lft.to/lastmile_qr_scan"}, "is_reserved": 0, "fusion_lon": 0.0, "fusion_lat": 0.0, "lon": -77.044731, "name": "4feb1eca7893f295e44530c4f4002186"}, {"bike_id": "e3058dea40892c148114bd8dd4779a8e", "type": "electric_scooter", "is_disabled": 0, "lat": 38.9115115, "rental_uris": {"ios": "https://dc.lft.to/lastmile_qr_scan", "android": "https://dc.lft.to/lastmile_qr_scan"}, "is_reserved": 0, "fusion_lon": 0.0, "fusion_lat": 0.0, "lon": -77.022934, "name": "e3058dea40892c148114bd8dd4779a8e"}, {"bike_id": "3e2e1aca92b8cf266c282f71dbed398b", "type": "electric_scooter", "is_disabled": 0, "lat": 38.9027875, "rental_uris": {"ios": "https://dc.lft.to/lastmile_qr_scan", "android": "https://dc.lft.to/lastmile_qr_scan"}, "is_reserved": 0, "fusion_lon": 0.0, "fusion_lat": 0.0, "lon": -77.03837783333333, "name": "3e2e1aca92b8cf266c282f71dbed398b"}, {"bike_id": "6b694f7ba47dc101e309f6aa8473e7c5", "type": "electric_scooter", "is_disabled": 0, "lat": 38.86215716666667, "rental_uris": {"ios": "https://dc.lft.to/lastmile_qr_scan", "android": "https://dc.lft.to/lastmile_qr_scan"}, "is_reserved": 0, "fusion_lon": 0.0, "fusion_lat": 0.0, "lon": -76.99487883333333, "name": "6b694f7ba47dc101e309f6aa8473e7c5"}, {"bike_id": "2b46bebec0141739c126dab2ec25a00b", "type": "electric_scooter", "is_disabled": 0, "lat": 38.87197283333333, "rental_uris": {"ios": "https://dc.lft.to/lastmile_qr_scan", "android": "https://dc.lft.to/lastmile_qr_scan"}, "is_reserved": 0, "fusion_lon": 0.0, "fusion_lat": 0.0, "lon": -77.0093495, "name": "2b46bebec0141739c126dab2ec25a00b"}, {"bike_id": "ccf11cc7d545d92eba24c80b3edaae25", "type": "electric_scooter", "is_disabled": 0, "lat": 38.90150633333333, "rental_uris": {"ios": "https://dc.lft.to/lastmile_qr_scan", "android": "https://dc.lft.to/lastmile_qr_scan"}, "is_reserved": 0, "fusion_lon": 0.0, "fusion_lat": 0.0, "lon": -76.93057366666666, "name": "ccf11cc7d545d92eba24c80b3edaae25"}, {"bike_id": "5d02bfdd7c55bd4bf038ac844449969a", "type": "electric_scooter", "is_disabled": 0, "lat": 38.9052785, "rental_uris": {"ios": "https://dc.lft.to/lastmile_qr_scan", "android": "https://dc.lft.to/lastmile_qr_scan"}, "is_reserved": 0, "fusion_lon": 0.0, "fusion_lat": 0.0, "lon": -77.05935283333334, "name": "5d02bfdd7c55bd4bf038ac844449969a"}, {"bike_id": "65b76d56858c3d7b1df14a8bcc42c780", "type": "electric_bike", "is_disabled": 0, "lat": 39.06293266666667, "rental_uris": {"ios": "https://dc.lft.to/lastmile_qr_scan", "android": "https://dc.lft.to/lastmile_qr_scan"}, "is_reserved": 0, "fusion_lon": 0.0, "fusion_lat": 0.0, "lon": -77.04983283333334, "name": "65b76d56858c3d7b1df14a8bcc42c780"}, {"bike_id": "f34231c357f7e639ec79d86d0f105c17", "type": "electric_scooter", "is_disabled": 0, "lat": 38.89221833333333, "rental_uris": {"ios": "https://dc.lft.to/lastmile_qr_scan", "android": "https://dc.lft.to/lastmile_qr_scan"}, "is_reserved": 0, "fusion_lon": 0.0, "fusion_lat": 0.0, "lon": -77.02583483333333, "name": "f34231c357f7e639ec79d86d0f105c17"}, {"bike_id": "f95600a39f41103a0e5b79ae9094cd16", "type": "electric_scooter", "is_disabled": 0, "lat": 38.93885183333333, "rental_uris": {"ios": "https://dc.lft.to/lastmile_qr_scan", "android": "https://dc.lft.to/lastmile_qr_scan"}, "is_reserved": 0, "fusion_lon": 0.0, "fusion_lat": 0.0, "lon": -77.02493516666667, "name": "f95600a39f41103a0e5b79ae9094cd16"}, {"bike_id": "cb63babeb528a0cf559acc4afb9893ff", "type": "electric_scooter", "is_disabled": 0, "lat": 38.902034, "rental_uris": {"ios": "https://dc.lft.to/lastmile_qr_scan", "android": "https://dc.lft.to/lastmile_qr_scan"}, "is_reserved": 0, "fusion_lon": 0.0, "fusion_lat": 0.0, "lon": -77.023742, "name": "cb63babeb528a0cf559acc4afb9893ff"}, {"bike_id": "bef9991ba39c49112a83677ef8b06a5d", "type": "electric_scooter", "is_disabled": 0, "lat": 38.93845483333333, "rental_uris": {"ios": "https://dc.lft.to/lastmile_qr_scan", "android": "https://dc.lft.to/lastmile_qr_scan"}, "is_reserved": 0, "fusion_lon": 0.0, "fusion_lat": 0.0, "lon": -77.07233083333334, "name": "bef9991ba39c49112a83677ef8b06a5d"}, {"bike_id": "56f22fb0ecf51b60f4d67a87d6fde865", "type": "electric_scooter", "is_disabled": 0, "lat": 38.9251615, "rental_uris": {"ios": "https://dc.lft.to/lastmile_qr_scan", "android": "https://dc.lft.to/lastmile_qr_scan"}, "is_reserved": 0, "fusion_lon": 0.0, "fusion_lat": 0.0, "lon": -77.07723666666666, "name": "56f22fb0ecf51b60f4d67a87d6fde865"}, {"bike_id": "d0a95b0a7c25281d8170fb9a45591734", "type": "electric_scooter", "is_disabled": 0, "lat": 38.88879633333333, "rental_uris": {"ios": "https://dc.lft.to/lastmile_qr_scan", "android": "https://dc.lft.to/lastmile_qr_scan"}, "is_reserved": 0, "fusion_lon": 0.0, "fusion_lat": 0.0, "lon": -76.99030516666667, "name": "d0a95b0a7c25281d8170fb9a45591734"}, {"bike_id": "d55576241a7ecacac6cda99f4f99ff06", "type": "electric_scooter", "is_disabled": 0, "lat": 38.892289833333336, "rental_uris": {"ios": "https://dc.lft.to/lastmile_qr_scan", "android": "https://dc.lft.to/lastmile_qr_scan"}, "is_reserved": 0, "fusion_lon": 0.0, "fusion_lat": 0.0, "lon": -77.0499635, "name": "d55576241a7ecacac6cda99f4f99ff06"}, {"bike_id": "8fca9525a4d74d794502c8a19c273900", "type": "electric_scooter", "is_disabled": 0, "lat": 38.909553, "rental_uris": {"ios": "https://dc.lft.to/lastmile_qr_scan", "android": "https://dc.lft.to/lastmile_qr_scan"}, "is_reserved": 0, "fusion_lon": 0.0, "fusion_lat": 0.0, "lon": -77.02302, "name": "8fca9525a4d74d794502c8a19c273900"}, {"bike_id": "4aab9984002668e3e99466fa781e1b73", "type": "electric_scooter", "is_disabled": 0, "lat": 38.91998783333333, "rental_uris": {"ios": "https://dc.lft.to/lastmile_qr_scan", "android": "https://dc.lft.to/lastmile_qr_scan"}, "is_reserved": 0, "fusion_lon": 0.0, "fusion_lat": 0.0, "lon": -77.0238605, "name": "4aab9984002668e3e99466fa781e1b73"}, {"bike_id": "41d2f6b7ecd52d8572506f83ff83e9ba", "type": "electric_scooter", "is_disabled": 0, "lat": 38.921064666666666, "rental_uris": {"ios": "https://dc.lft.to/lastmile_qr_scan", "android": "https://dc.lft.to/lastmile_qr_scan"}, "is_reserved": 0, "fusion_lon": 0.0, "fusion_lat": 0.0, "lon": -77.0177185, "name": "41d2f6b7ecd52d8572506f83ff83e9ba"}, {"bike_id": "549789fe7a0c9e9f64c18bca2e4d77ed", "type": "electric_scooter", "is_disabled": 0, "lat": 38.927525333333335, "rental_uris": {"ios": "https://dc.lft.to/lastmile_qr_scan", "android": "https://dc.lft.to/lastmile_qr_scan"}, "is_reserved": 0, "fusion_lon": 0.0, "fusion_lat": 0.0, "lon": -77.032693, "name": "549789fe7a0c9e9f64c18bca2e4d77ed"}, {"bike_id": "ef3cdf4338035c4758f7c3c6f2026524", "type": "electric_scooter", "is_disabled": 0, "lat": 38.9170775, "rental_uris": {"ios": "https://dc.lft.to/lastmile_qr_scan", "android": "https://dc.lft.to/lastmile_qr_scan"}, "is_reserved": 0, "fusion_lon": 0.0, "fusion_lat": 0.0, "lon": -77.03109266666667, "name": "ef3cdf4338035c4758f7c3c6f2026524"}, {"bike_id": "a22a8aeae9db5a1c25f1a8c5ebc9f452", "type": "electric_bike", "is_disabled": 0, "lat": 38.9908815, "rental_uris": {"ios": "https://dc.lft.to/lastmile_qr_scan", "android": "https://dc.lft.to/lastmile_qr_scan"}, "is_reserved": 0, "fusion_lon": 0.0, "fusion_lat": 0.0, "lon": -76.87495633333333, "name": "a22a8aeae9db5a1c25f1a8c5ebc9f452"}, {"bike_id": "ce16ff7c53c68df7f3af27300c356d65", "type": "electric_scooter", "is_disabled": 0, "lat": 38.89727166666667, "rental_uris": {"ios": "https://dc.lft.to/lastmile_qr_scan", "android": "https://dc.lft.to/lastmile_qr_scan"}, "is_reserved": 0, "fusion_lon": 0.0, "fusion_lat": 0.0, "lon": -77.0036795, "name": "ce16ff7c53c68df7f3af27300c356d65"}, {"bike_id": "eb67e9a94629cc6f6c81a0265e94abe9", "type": "electric_scooter", "is_disabled": 0, "lat": 38.843110333333335, "rental_uris": {"ios": "https://dc.lft.to/lastmile_qr_scan", "android": "https://dc.lft.to/lastmile_qr_scan"}, "is_reserved": 0, "fusion_lon": 0.0, "fusion_lat": 0.0, "lon": -76.9992815, "name": "eb67e9a94629cc6f6c81a0265e94abe9"}, {"bike_id": "7015e1a87ac319c95253521a4d7c216b", "type": "electric_scooter", "is_disabled": 0, "lat": 38.897663666666666, "rental_uris": {"ios": "https://dc.lft.to/lastmile_qr_scan", "android": "https://dc.lft.to/lastmile_qr_scan"}, "is_reserved": 0, "fusion_lon": 0.0, "fusion_lat": 0.0, "lon": -77.02953216666667, "name": "7015e1a87ac319c95253521a4d7c216b"}, {"bike_id": "444324c8031cfae42505222771b82be8", "type": "electric_scooter", "is_disabled": 0, "lat": 38.89490933333333, "rental_uris": {"ios": "https://dc.lft.to/lastmile_qr_scan", "android": "https://dc.lft.to/lastmile_qr_scan"}, "is_reserved": 0, "fusion_lon": 0.0, "fusion_lat": 0.0, "lon": -76.9883855, "name": "444324c8031cfae42505222771b82be8"}, {"bike_id": "05fff51cc1390eb677d201416270fbb6", "type": "electric_scooter", "is_disabled": 0, "lat": 38.904983333333334, "rental_uris": {"ios": "https://dc.lft.to/lastmile_qr_scan", "android": "https://dc.lft.to/lastmile_qr_scan"}, "is_reserved": 0, "fusion_lon": 0.0, "fusion_lat": 0.0, "lon": -77.06007216666667, "name": "05fff51cc1390eb677d201416270fbb6"}, {"bike_id": "cd8ea1f3c326589895da70a07abd59fa", "type": "electric_scooter", "is_disabled": 0, "lat": 38.93003083333333, "rental_uris": {"ios": "https://dc.lft.to/lastmile_qr_scan", "android": "https://dc.lft.to/lastmile_qr_scan"}, "is_reserved": 0, "fusion_lon": 0.0, "fusion_lat": 0.0, "lon": -77.037648, "name": "cd8ea1f3c326589895da70a07abd59fa"}, {"bike_id": "1397ec7203f39b38644ae9f9608f5d09", "type": "electric_scooter", "is_disabled": 0, "lat": 38.9080935, "rental_uris": {"ios": "https://dc.lft.to/lastmile_qr_scan", "android": "https://dc.lft.to/lastmile_qr_scan"},