{"data": {"bikes": [{"lat": 38.9164285, "fusion_lat": 0.0, "type": "electric_scooter", "bike_id": "8d1ff74440d67fbd588cad207314df07", "is_reserved": 0, "rental_uris": {"ios": "https://dc.lft.to/lastmile_qr_scan", "android": "https://dc.lft.to/lastmile_qr_scan"}, "is_disabled": 0, "lon": -77.04237766666667, "name": "8d1ff74440d67fbd588cad207314df07", "fusion_lon": 0.0}, {"lat": 38.874199, "fusion_lat": 0.0, "type": "electric_scooter", "bike_id": "4b549f7680943f5b14b1f9903af2176c", "is_reserved": 0, "rental_uris": {"ios": "https://dc.lft.to/lastmile_qr_scan", "android": "https://dc.lft.to/lastmile_qr_scan"}, "is_disabled": 0, "lon": -76.97116116666666, "name": "4b549f7680943f5b14b1f9903af2176c", "fusion_lon": 0.0}, {"lat": 38.95151716666667, "fusion_lat": 0.0, "type": "electric_scooter", "bike_id": "f30adf3b2491f343775bcc45fc21f70b", "is_reserved": 0, "rental_uris": {"ios": "https://dc.lft.to/lastmile_qr_scan", "android": "https://dc.lft.to/lastmile_qr_scan"}, "is_disabled": 0, "lon": -77.01870116666667, "name": "f30adf3b2491f343775bcc45fc21f70b", "fusion_lon": 0.0}, {"lat": 38.90731483333333, "fusion_lat": 0.0, "type": "electric_scooter", "bike_id": "100cf3d89b2fccf2cef17b8d10051cdd", "is_reserved": 0, "rental_uris": {"ios": "https://dc.lft.to/lastmile_qr_scan", "android": "https://dc.lft.to/lastmile_qr_scan"}, "is_disabled": 0, "lon": -77.02971233333334, "name": "100cf3d89b2fccf2cef17b8d10051cdd", "fusion_lon": 0.0}, {"lat": 38.893292333333335, "fusion_lat": 0.0, "type": "electric_scooter", "bike_id": "a2d7cf58b99885eed4425b560eb1c312", "is_reserved": 0, "rental_uris": {"ios": "https://dc.lft.to/lastmile_qr_scan", "android": "https://dc.lft.to/lastmile_qr_scan"}, "is_disabled": 0, "lon": -77.04877416666666, "name": "a2d7cf58b99885eed4425b560eb1c312", "fusion_lon": 0.0}, {"lat": 38.91866133333333, "fusion_lat": 0.0, "type": "electric_scooter", "bike_id": "43dce29da20a93c1189d280782139ee0", "is_reserved": 0, "rental_uris": {"ios": "https://dc.lft.to/lastmile_qr_scan", "android": "https://dc.lft.to/lastmile_qr_scan"}, "is_disabled": 0, "lon": -77.04503033333333, "name": "43dce29da20a93c1189d280782139ee0", "fusion_lon": 0.0}, {"lat": 38.91711333333333, "fusion_lat": 0.0, "type": "electric_scooter", "bike_id": "af6fea8c689ee63471b3a34122ebd17f", "is_reserved": 0, "rental_uris": {"ios": "https://dc.lft.to/lastmile_qr_scan", "android": "https://dc.lft.to/lastmile_qr_scan"}, "is_disabled": 0, "lon": -77.03587116666667, "name": "af6fea8c689ee63471b3a34122ebd17f", "fusion_lon": 0.0}, {"lat": 38.90709433333333, "fusion_lat": 0.0, "type": "electric_scooter", "bike_id": "f06b83449578f248f2130a0ccd1ddc5a", "is_reserved": 0, "rental_uris": {"ios": "https://dc.lft.to/lastmile_qr_scan", "android": "https://dc.lft.to/lastmile_qr_scan"}, "is_disabled": 0, "lon": -77.0296855, "name": "f06b83449578f248f2130a0ccd1ddc5a", "fusion_lon": 0.0}, {"lat": 38.95657333333333, "fusion_lat": 0.0, "type": "electric_scooter", "bike_id": "c13e47ef301f48738e01ae5b5e87df4f", "is_reserved": 0, "rental_uris": {"ios": "https://dc.lft.to/lastmile_qr_scan", "android": "https://dc.lft.to/lastmile_qr_scan"}, "is_disabled": 0, "lon": -77.01270216666667, "name": "c13e47ef301f48738e01ae5b5e87df4f", "fusion_lon": 0.0}, {"lat": 38.933994166666665, "fusion_lat": 0.0, "type": "electric_scooter", "bike_id": "08252b6bdb5ea3f0118a0acdd5d57714", "is_reserved": 0, "rental_uris": {"ios": "https://dc.lft.to/lastmile_qr_scan", "android": "https://dc.lft.to/lastmile_qr_scan"}, "is_disabled": 0, "lon": -77.0399465, "name": "08252b6bdb5ea3f0118a0acdd5d57714", "fusion_lon": 0.0}, {"lat": 38.926154833333335, "fusion_lat": 0.0, "type": "electric_scooter", "bike_id": "81eb2fb5da8b14c605e4ddad230bf6ed", "is_reserved": 0, "rental_uris": {"ios": "https://dc.lft.to/lastmile_qr_scan", "android": "https://dc.lft.to/lastmile_qr_scan"}, "is_disabled": 0, "lon": -77.02161966666667, "name": "81eb2fb5da8b14c605e4ddad230bf6ed", "fusion_lon": 0.0}, {"lat": 38.9171095, "fusion_lat": 0.0, "type": "electric_scooter", "bike_id": "48f88ad24e2e6c5a3da0735ce54f4574", "is_reserved": 0, "rental_uris": {"ios": "https://dc.lft.to/lastmile_qr_scan", "android": "https://dc.lft.to/lastmile_qr_scan"}, "is_disabled": 0, "lon": -77.04125366666666, "name": "48f88ad24e2e6c5a3da0735ce54f4574", "fusion_lon": 0.0}, {"lat": 38.92966966666667, "fusion_lat": 0.0, "type": "electric_bike", "bike_id": "316ea1d600f60b5573341bd1d5ed6a6e", "is_reserved": 0, "rental_uris": {"ios": "https://dc.lft.to/lastmile_qr_scan", "android": "https://dc.lft.to/lastmile_qr_scan"}, "is_disabled": 0, "lon": -77.18564233333333, "name": "316ea1d600f60b5573341bd1d5ed6a6e", "fusion_lon": 0.0}, {"lat": 38.92249116666667, "fusion_lat": 0.0, "type": "electric_scooter", "bike_id": "550e6e020e7a25aa3978f30ecd0ac817", "is_reserved": 0, "rental_uris": {"ios": "https://dc.lft.to/lastmile_qr_scan", "android": "https://dc.lft.to/lastmile_qr_scan"}, "is_disabled": 0, "lon": -77.03507266666666, "name": "550e6e020e7a25aa3978f30ecd0ac817", "fusion_lon": 0.0}, {"lat": 38.90363283333333, "fusion_lat": 0.0, "type": "electric_scooter", "bike_id": "1b8afaf1a9984a933f662f8a36ecf8ae", "is_reserved": 0, "rental_uris": {"ios": "https://dc.lft.to/lastmile_qr_scan", "android": "https://dc.lft.to/lastmile_qr_scan"}, "is_disabled": 0, "lon": -77.04322383333333, "name": "1b8afaf1a9984a933f662f8a36ecf8ae", "fusion_lon": 0.0}, {"lat": 38.91411083333333, "fusion_lat": 0.0, "type": "electric_scooter", "bike_id": "4e4ce1e16525a2363370765cba769ee8", "is_reserved": 0, "rental_uris": {"ios": "https://dc.lft.to/lastmile_qr_scan", "android": "https://dc.lft.to/lastmile_qr_scan"}, "is_disabled": 0, "lon": -77.02676466666666, "name": "4e4ce1e16525a2363370765cba769ee8", "fusion_lon": 0.0}, {"lat": 39.055077, "fusion_lat": 0.0, "type": "electric_bike", "bike_id": "29b2a073f82df715d3a6357bb0947531", "is_reserved": 0, "rental_uris": {"ios": "https://dc.lft.to/lastmile_qr_scan", "android": "https://dc.lft.to/lastmile_qr_scan"}, "is_disabled": 0, "lon": -77.046448, "name": "29b2a073f82df715d3a6357bb0947531", "fusion_lon": 0.0}, {"lat": 38.902915166666666, "fusion_lat": 0.0, "type": "electric_scooter", "bike_id": "542ff9d0dfc4898c5262ba5610e971f5", "is_reserved": 0, "rental_uris": {"ios": "https://dc.lft.to/lastmile_qr_scan", "android": "https://dc.lft.to/lastmile_qr_scan"}, "is_disabled": 0, "lon": -77.05807316666667, "name": "542ff9d0dfc4898c5262ba5610e971f5", "fusion_lon": 0.0}, {"lat": 38.906296, "fusion_lat": 0.0, "type": "electric_scooter", "bike_id": "8b2202343d1eec536bb260c37d4eacf3", "is_reserved": 0, "rental_uris": {"ios": "https://dc.lft.to/lastmile_qr_scan", "android": "https://dc.lft.to/lastmile_qr_scan"}, "is_disabled": 0, "lon": -77.05149633333333, "name": "8b2202343d1eec536bb260c37d4eacf3", "fusion_lon": 0.0}, {"lat": 38.88611216666666, "fusion_lat": 0.0, "type": "electric_scooter", "bike_id": "f146195bff2da3562de64d3dd20c535c", "is_reserved": 0, "rental_uris": {"ios": "https://dc.lft.to/lastmile_qr_scan", "android": "https://dc.lft.to/lastmile_qr_scan"}, "is_disabled": 0, "lon": -76.99513866666666, "name": "f146195bff2da3562de64d3dd20c535c", "fusion_lon": 0.0}, {"lat": 38.893017, "fusion_lat": 0.0, "type": "electric_scooter", "bike_id": "5d9db3583bfa8479dc473460d49e6826", "is_reserved": 0, "rental_uris": {"ios": "https://dc.lft.to/lastmile_qr_scan", "android": "https://dc.lft.to/lastmile_qr_scan"}, "is_disabled": 0, "lon": -76.9392745, "name": "5d9db3583bfa8479dc473460d49e6826", "fusion_lon": 0.0}, {"lat": 38.901043666666666, "fusion_lat": 0.0, "type": "electric_scooter", "bike_id": "5a7263ae423e7dfded81fdeaf84178f1", "is_reserved": 0, "rental_uris": {"ios": "https://dc.lft.to/lastmile_qr_scan", "android": "https://dc.lft.to/lastmile_qr_scan"}, "is_disabled": 0, "lon": -77.00615016666667, "name": "5a7263ae423e7dfded81fdeaf84178f1", "fusion_lon": 0.0}, {"lat": 38.917748833333334, "fusion_lat": 0.0, "type": "electric_scooter", "bike_id": "c3d2fd7ab65a37661e0cd9dac1e5948a", "is_reserved": 0, "rental_uris": {"ios": "https://dc.lft.to/lastmile_qr_scan", "android": "https://dc.lft.to/lastmile_qr_scan"}, "is_disabled": 0, "lon": -77.047662, "name": "c3d2fd7ab65a37661e0cd9dac1e5948a", "fusion_lon": 0.0}, {"lat": 38.9563075, "fusion_lat": 0.0, "type": "electric_bike", "bike_id": "302d985db6d4d28e5dc324efa22f606f", "is_reserved": 0, "rental_uris": {"ios": "https://dc.lft.to/lastmile_qr_scan", "android": "https://dc.lft.to/lastmile_qr_scan"}, "is_disabled": 0, "lon": -76.93869816666667, "name": "302d985db6d4d28e5dc324efa22f606f", "fusion_lon": 0.0}, {"lat": 38.9073, "fusion_lat": 0.0, "type": "electric_scooter", "bike_id": "aa6b3f3bba4ceca04f4bbe1ee46d0c41", "is_reserved": 0, "rental_uris": {"ios": "https://dc.lft.to/lastmile_qr_scan", "android": "https://dc.lft.to/lastmile_qr_scan"}, "is_disabled": 0, "lon": -77.02675883333333, "name": "aa6b3f3bba4ceca04f4bbe1ee46d0c41", "fusion_lon": 0.0}, {"lat": 38.9843115, "fusion_lat": 0.0, "type": "electric_scooter", "bike_id": "11ede6dc3871b7fafd7813480d5eab5b", "is_reserved": 0, "rental_uris": {"ios": "https://dc.lft.to/lastmile_qr_scan", "android": "https://dc.lft.to/lastmile_qr_scan"}, "is_disabled": 0, "lon": -77.02676633333333, "name": "11ede6dc3871b7fafd7813480d5eab5b", "fusion_lon": 0.0}, {"lat": 38.89242466666666, "fusion_lat": 0.0, "type": "electric_scooter", "bike_id": "a5e8643746bbe19e8fca96852af89c5e", "is_reserved": 0, "rental_uris": {"ios": "https://dc.lft.to/lastmile_qr_scan", "android": "https://dc.lft.to/lastmile_qr_scan"}, "is_disabled": 0, "lon": -77.02412166666667, "name": "a5e8643746bbe19e8fca96852af89c5e", "fusion_lon": 0.0}, {"lat": 38.894787666666666, "fusion_lat": 0.0, "type": "electric_scooter", "bike_id": "92565dbd22c95797b702c76205977147", "is_reserved": 0, "rental_uris": {"ios": "https://dc.lft.to/lastmile_qr_scan", "android": "https://dc.lft.to/lastmile_qr_scan"}, "is_disabled": 0, "lon": -77.04656066666666, "name": "92565dbd22c95797b702c76205977147", "fusion_lon": 0.0}, {"lat": 38.909329166666666, "fusion_lat": 0.0, "type": "electric_scooter", "bike_id": "bf9bd20896fabb38d514e55e8f01d6ca", "is_reserved": 0, "rental_uris": {"ios": "https://dc.lft.to/lastmile_qr_scan", "android": "https://dc.lft.to/lastmile_qr_scan"}, "is_disabled": 0, "lon": -77.022928, "name": "bf9bd20896fabb38d514e55e8f01d6ca", "fusion_lon": 0.0}, {"lat": 38.87237783333333, "fusion_lat": 0.0, "type": "electric_scooter", "bike_id": "cfb0a36286ae732f4179e1efaf4e4ab2", "is_reserved": 0, "rental_uris": {"ios": "https://dc.lft.to/lastmile_qr_scan", "android": "https://dc.lft.to/lastmile_qr_scan"}, "is_disabled": 0, "lon": -77.01167233333334, "name": "cfb0a36286ae732f4179e1efaf4e4ab2", "fusion_lon": 0.0}, {"lat": 38.936005333333334, "fusion_lat": 0.0, "type": "electric_scooter", "bike_id": "4acb69953d77c9ac743c5aecdda7059d", "is_reserved": 0, "rental_uris": {"ios": "https://dc.lft.to/lastmile_qr_scan", "android": "https://dc.lft.to/lastmile_qr_scan"}, "is_disabled": 0, "lon": -77.03658266666666, "name": "4acb69953d77c9ac743c5aecdda7059d", "fusion_lon": 0.0}, {"lat": 38.9402155, "fusion_lat": 0.0, "type": "electric_bike", "bike_id": "fcb6b757206289e85506bb79b692a247", "is_reserved": 0, "rental_uris": {"ios": "https://dc.lft.to/lastmile_qr_scan", "android": "https://dc.lft.to/lastmile_qr_scan"}, "is_disabled": 0, "lon": -76.97615, "name": "fcb6b757206289e85506bb79b692a247", "fusion_lon": 0.0}, {"lat": 38.91179016666667, "fusion_lat": 0.0, "type": "electric_scooter", "bike_id": "f9c85742e0fbbd570c92fbd6c5666907", "is_reserved": 0, "rental_uris": {"ios": "https://dc.lft.to/lastmile_qr_scan", "android": "https://dc.lft.to/lastmile_qr_scan"}, "is_disabled": 0, "lon": -77.0609135, "name": "f9c85742e0fbbd570c92fbd6c5666907", "fusion_lon": 0.0}, {"lat": 38.926524, "fusion_lat": 0.0, "type": "electric_scooter", "bike_id": "13bb12b17efa37542908fef05191f9f8", "is_reserved": 0, "rental_uris": {"ios": "https://dc.lft.to/lastmile_qr_scan", "android": "https://dc.lft.to/lastmile_qr_scan"}, "is_disabled": 0, "lon": -77.03229133333333, "name": "13bb12b17efa37542908fef05191f9f8", "fusion_lon": 0.0}, {"lat": 38.902546666666666, "fusion_lat": 0.0, "type": "electric_scooter", "bike_id": "927dd9a347cb0b2f85680ba7b91e8e95", "is_reserved": 0, "rental_uris": {"ios": "https://dc.lft.to/lastmile_qr_scan", "android": "https://dc.lft.to/lastmile_qr_scan"}, "is_disabled": 0, "lon": -77.01714616666666, "name": "927dd9a347cb0b2f85680ba7b91e8e95", "fusion_lon": 0.0}, {"lat": 38.91811116666667, "fusion_lat": 0.0, "type": "electric_scooter", "bike_id": "731194db4de4400610069cde8fde6f93", "is_reserved": 0, "rental_uris": {"ios": "https://dc.lft.to/lastmile_qr_scan", "android": "https://dc.lft.to/lastmile_qr_scan"}, "is_disabled": 0, "lon": -77.0077525, "name": "731194db4de4400610069cde8fde6f93", "fusion_lon": 0.0}, {"lat": 38.910252166666666, "fusion_lat": 0.0, "type": "electric_scooter", "bike_id": "e91e504cf1394a2c933984da534b0a07", "is_reserved": 0, "rental_uris": {"ios": "https://dc.lft.to/lastmile_qr_scan", "android": "https://dc.lft.to/lastmile_qr_scan"}, "is_disabled": 0, "lon": -77.00765333333334, "name": "e91e504cf1394a2c933984da534b0a07", "fusion_lon": 0.0}, {"lat": 38.897025, "fusion_lat": 0.0, "type": "electric_scooter", "bike_id": "ed0dabf2d739be0c486d79969941628a", "is_reserved": 0, "rental_uris": {"ios": "https://dc.lft.to/lastmile_qr_scan", "android": "https://dc.lft.to/lastmile_qr_scan"}, "is_disabled": 0, "lon": -76.93000633333334, "name": "ed0dabf2d739be0c486d79969941628a", "fusion_lon": 0.0}, {"lat": 38.90859866666667, "fusion_lat": 0.0, "type": "electric_scooter", "bike_id": "3f890359c695bd28cd1af9045f43f4a4", "is_reserved": 0, "rental_uris": {"ios": "https://dc.lft.to/lastmile_qr_scan", "android": "https://dc.lft.to/lastmile_qr_scan"}, "is_disabled": 0, "lon": -77.04734983333333, "name": "3f890359c695bd28cd1af9045f43f4a4", "fusion_lon": 0.0}, {"lat": 38.90984733333333, "fusion_lat": 0.0, "type": "electric_scooter", "bike_id": "d61b8a3eee95e46a5d6cbf9413d4de85", "is_reserved": 0, "rental_uris": {"ios": "https://dc.lft.to/lastmile_qr_scan", "android": "https://dc.lft.to/lastmile_qr_scan"}, "is_disabled": 0, "lon": -77.02176383333334, "name": "d61b8a3eee95e46a5d6cbf9413d4de85", "fusion_lon": 0.0}, {"lat": 38.911113666666665, "fusion_lat": 0.0, "type": "electric_scooter", "bike_id": "16debfbd40101bf46ac10fcc97e50536", "is_reserved": 0, "rental_uris": {"ios": "https://dc.lft.to/lastmile_qr_scan", "android": "https://dc.lft.to/lastmile_qr_scan"}, "is_disabled": 0, "lon": -77.03724866666667, "name": "16debfbd40101bf46ac10fcc97e50536", "fusion_lon": 0.0}, {"lat": 38.8663435, "fusion_lat": 0.0, "type": "electric_scooter", "bike_id": "c1f20e1922cfc60b017ad48c3c9ec9f3", "is_reserved": 0, "rental_uris": {"ios": "https://dc.lft.to/lastmile_qr_scan", "android": "https://dc.lft.to/lastmile_qr_scan"}, "is_disabled": 0, "lon": -76.98899083333333, "name": "c1f20e1922cfc60b017ad48c3c9ec9f3", "fusion_lon": 0.0}, {"lat": 38.90020233333333, "fusion_lat": 0.0, "type": "electric_scooter", "bike_id": "9b489b2960116dff9a812c5fb03a5a99", "is_reserved": 0, "rental_uris": {"ios": "https://dc.lft.to/lastmile_qr_scan", "android": "https://dc.lft.to/lastmile_qr_scan"}, "is_disabled": 0, "lon": -76.9986145, "name": "9b489b2960116dff9a812c5fb03a5a99", "fusion_lon": 0.0}, {"lat": 38.8592515, "fusion_lat": 0.0, "type": "electric_scooter", "bike_id": "c5a62cc54edf912e785d35f177c349b7", "is_reserved": 0, "rental_uris": {"ios": "https://dc.lft.to/lastmile_qr_scan", "android": "https://dc.lft.to/lastmile_qr_scan"}, "is_disabled": 0, "lon": -76.989781, "name": "c5a62cc54edf912e785d35f177c349b7", "fusion_lon": 0.0}, {"lat": 38.9059715, "fusion_lat": 0.0, "type": "electric_scooter", "bike_id": "9ca9b3291bc39aa9559dc0c9c5bde193", "is_reserved": 0, "rental_uris": {"ios": "https://dc.lft.to/lastmile_qr_scan", "android": "https://dc.lft.to/lastmile_qr_scan"}, "is_disabled": 0, "lon": -77.05129183333334, "name": "9ca9b3291bc39aa9559dc0c9c5bde193", "fusion_lon": 0.0}, {"lat": 38.9363925, "fusion_lat": 0.0, "type": "electric_scooter", "bike_id": "f80ca6b28a0d3ffb92dd7032eed57b4c", "is_reserved": 0, "rental_uris": {"ios": "https://dc.lft.to/lastmile_qr_scan", "android": "https://dc.lft.to/lastmile_qr_scan"}, "is_disabled": 0, "lon": -77.03259283333334, "name": "f80ca6b28a0d3ffb92dd7032eed57b4c", "fusion_lon": 0.0}, {"lat": 38.896172166666666, "fusion_lat": 0.0, "type": "electric_scooter", "bike_id": "2e3b51f2af0f15313743bf61d285cb66", "is_reserved": 0, "rental_uris": {"ios": "https://dc.lft.to/lastmile_qr_scan", "android": "https://dc.lft.to/lastmile_qr_scan"}, "is_disabled": 0, "lon": -77.0297505, "name": "2e3b51f2af0f15313743bf61d285cb66", "fusion_lon": 0.0}, {"lat": 38.897364333333336, "fusion_lat": 0.0, "type": "electric_scooter", "bike_id": "c7cadc5bfdbd544f2c7f375e4ecc9eda", "is_reserved": 0, "rental_uris": {"ios": "https://dc.lft.to/lastmile_qr_scan", "android": "https://dc.lft.to/lastmile_qr_scan"}, "is_disabled": 0, "lon": -77.0299925, "name": "c7cadc5bfdbd544f2c7f375e4ecc9eda", "fusion_lon": 0.0}, {"lat": 38.892927, "fusion_lat": 0.0, "type": "electric_bike", "bike_id": "a5e4304e9589f25f6b8141709bc24d96", "is_reserved": 0, "rental_uris": {"ios": "https://dc.lft.to/lastmile_qr_scan", "android": "https://dc.lft.to/lastmile_qr_scan"}, "is_disabled": 0, "lon": -76.97617583333333, "name": "a5e4304e9589f25f6b8141709bc24d96", "fusion_lon": 0.0}, {"lat": 38.9215155, "fusion_lat": 0.0, "type": "electric_scooter", "bike_id": "288ed385925efa60cafe5b72b420b3d8", "is_reserved": 0, "rental_uris": {"ios": "https://dc.lft.to/lastmile_qr_scan", "android": "https://dc.lft.to/lastmile_qr_scan"}, "is_disabled": 0, "lon": -77.04350183333334, "name": "288ed385925efa60cafe5b72b420b3d8", "fusion_lon": 0.0}, {"lat": 38.903433166666666, "fusion_lat": 0.0, "type": "electric_scooter", "bike_id": "4441c2598432d8fe3d5e53beb503d803", "is_reserved": 0, "rental_uris": {"ios": "https://dc.lft.to/lastmile_qr_scan", "android": "https://dc.lft.to/lastmile_qr_scan"}, "is_disabled": 0, "lon": -77.0258835, "name": "4441c2598432d8fe3d5e53beb503d803", "fusion_lon": 0.0}, {"lat": 38.9022105, "fusion_lat": 0.0, "type": "electric_scooter", "bike_id": "7041246f06e3770cfa77adce2cc86cf9", "is_reserved": 0, "rental_uris": {"ios": "https://dc.lft.to/lastmile_qr_scan", "android": "https://dc.lft.to/lastmile_qr_scan"}, "is_disabled": 0, "lon": -77.02319366666667, "name": "7041246f06e3770cfa77adce2cc86cf9", "fusion_lon": 0.0}, {"lat": 38.93264083333333, "fusion_lat": 0.0, "type": "electric_scooter", "bike_id": "5513e90a470f6328961c6905c3bd29ad", "is_reserved": 0, "rental_uris": {"ios": "https://dc.lft.to/lastmile_qr_scan", "android": "https://dc.lft.to/lastmile_qr_scan"}, "is_disabled": 0, "lon": -77.03263233333334, "name": "5513e90a470f6328961c6905c3bd29ad", "fusion_lon": 0.0}, {"lat": 38.9036155, "fusion_lat": 0.0, "type": "electric_scooter", "bike_id": "0300a9e1202d7ea44be3ad3e496a876e", "is_reserved": 0, "rental_uris": {"ios": "https://dc.lft.to/lastmile_qr_scan", "android": "https://dc.lft.to/lastmile_qr_scan"}, "is_disabled": 0, "lon": -77.04271666666666, "name": "0300a9e1202d7ea44be3ad3e496a876e", "fusion_lon": 0.0}, {"lat": 38.9215215, "fusion_lat": 0.0, "type": "electric_scooter", "bike_id": "68e35264eda200b3d90873c0bad0298b", "is_reserved": 0, "rental_uris": {"ios": "https://dc.lft.to/lastmile_qr_scan", "android": "https://dc.lft.to/lastmile_qr_scan"}, "is_disabled": 0, "lon": -77.01813116666666, "name": "68e35264eda200b3d90873c0bad0298b", "fusion_lon": 0.0}, {"lat": 38.829397666666665, "fusion_lat": 0.0, "type": "electric_bike", "bike_id": "3d9b715411f1131f11325730d60c9a64", "is_reserved": 0, "rental_uris": {"ios": "https://dc.lft.to/lastmile_qr_scan", "android": "https://dc.lft.to/lastmile_qr_scan"}, "is_disabled": 0, "lon": -77.12365866666667, "name": "3d9b715411f1131f11325730d60c9a64", "fusion_lon": 0.0}, {"lat": 38.907185, "fusion_lat": 0.0, "type": "electric_scooter", "bike_id": "bd86029742e1224f0581d9515bf7f14f", "is_reserved": 0, "rental_uris": {"ios": "https://dc.lft.to/lastmile_qr_scan", "android": "https://dc.lft.to/lastmile_qr_scan"}, "is_disabled": 0, "lon": -76.9892585, "name": "bd86029742e1224f0581d9515bf7f14f", "fusion_lon": 0.0}, {"lat": 38.86066116666667, "fusion_lat": 0.0, "type": "electric_scooter", "bike_id": "daf71965d9127f9e1cbd3eca92eb61d4", "is_reserved": 0, "rental_uris": {"ios": "https://dc.lft.to/lastmile_qr_scan", "android": "https://dc.lft.to/lastmile_qr_scan"}, "is_disabled": 0, "lon": -76.98417866666666, "name": "daf71965d9127f9e1cbd3eca92eb61d4", "fusion_lon": 0.0}, {"lat": 38.9053945, "fusion_lat": 0.0, "type": "electric_scooter", "bike_id": "afac5de9bc523fcc3d00aac0007a32bf", "is_reserved": 0, "rental_uris": {"ios": "https://dc.lft.to/lastmile_qr_scan", "android": "https://dc.lft.to/lastmile_qr_scan"}, "is_disabled": 0, "lon": -76.98107016666667, "name": "afac5de9bc523fcc3d00aac0007a32bf", "fusion_lon": 0.0}, {"lat": 38.89725416666667, "fusion_lat": 0.0, "type": "electric_scooter", "bike_id": "cca199e078359c6052548863f3594534", "is_reserved": 0, "rental_uris": {"ios": "https://dc.lft.to/lastmile_qr_scan", "android": "https://dc.lft.to/lastmile_qr_scan"}, "is_disabled": 0, "lon": -76.9835945, "name": "cca199e078359c6052548863f3594534", "fusion_lon": 0.0}, {"lat": 38.90441416666667, "fusion_lat": 0.0, "type": "electric_scooter", "bike_id": "07bdbd118fe1a0ca8fcc5f3a3f709e4f", "is_reserved": 0, "rental_uris": {"ios": "https://dc.lft.to/lastmile_qr_scan", "android": "https://dc.lft.to/lastmile_qr_scan"}, "is_disabled": 0, "lon": -77.03449066666667, "name": "07bdbd118fe1a0ca8fcc5f3a3f709e4f", "fusion_lon": 0.0}, {"lat": 38.862433, "fusion_lat": 0.0, "type": "electric_scooter", "bike_id": "bb633dbde4437ae1ec73134322d46d7e", "is_reserved": 0, "rental_uris": {"ios": "https://dc.lft.to/lastmile_qr_scan", "android": "https://dc.lft.to/lastmile_qr_scan"}, "is_disabled": 0, "lon": -76.99494633333333, "name": "bb633dbde4437ae1ec73134322d46d7e", "fusion_lon": 0.0}, {"lat": 38.92452083333333, "fusion_lat": 0.0, "type": "electric_scooter", "bike_id": "5c4bba9c65ca21fa1b30f6c41c534a66", "is_reserved": 0, "rental_uris": {"ios": "https://dc.lft.to/lastmile_qr_scan", "android": "https://dc.lft.to/lastmile_qr_scan"}, "is_disabled": 0, "lon": -77.04112583333334, "name": "5c4bba9c65ca21fa1b30f6c41c534a66", "fusion_lon": 0.0}, {"lat": 38.89625983333333, "fusion_lat": 0.0, "type": "electric_scooter", "bike_id": "7668b6b4014bc6f83d7f13fc54d0166a", "is_reserved": 0, "rental_uris": {"ios": "https://dc.lft.to/lastmile_qr_scan", "android": "https://dc.lft.to/lastmile_qr_scan"}, "is_disabled": 0, "lon": -77.031288, "name": "7668b6b4014bc6f83d7f13fc54d0166a", "fusion_lon": 0.0}, {"lat": 38.89758583333333, "fusion_lat": 0.0, "type": "electric_scooter", "bike_id": "a14a4329890dfe7c254bd0d46d641868", "is_reserved": 0, "rental_uris": {"ios": "https://dc.lft.to/lastmile_qr_scan", "android": "https://dc.lft.to/lastmile_qr_scan"}, "is_disabled": 0, "lon": -76.92586933333334, "name": "a14a4329890dfe7c254bd0d46d641868", "fusion_lon": 0.0}, {"lat": 38.9180885, "fusion_lat": 0.0, "type": "electric_scooter", "bike_id": "da1dedcc136f604138e1389b5a8502e9", "is_reserved": 0, "rental_uris": {"ios": "https://dc.lft.to/lastmile_qr_scan", "android": "https://dc.lft.to/lastmile_qr_scan"}, "is_disabled": 0, "lon": -77.0456305, "name": "da1dedcc136f604138e1389b5a8502e9", "fusion_lon": 0.0}, {"lat": 38.89487966666667, "fusion_lat": 0.0, "type": "electric_scooter", "bike_id": "f9e895239f2ab214c3d28ec427a6713c", "is_reserved": 0, "rental_uris": {"ios": "https://dc.lft.to/lastmile_qr_scan", "android": "https://dc.lft.to/lastmile_qr_scan"}, "is_disabled": 0, "lon": -77.027835, "name": "f9e895239f2ab214c3d28ec427a6713c", "fusion_lon": 0.0}, {"lat": 38.8850155, "fusion_lat": 0.0, "type": "electric_scooter", "bike_id": "39e8fc856460f5986027428f9dd0cf8f", "is_reserved": 0, "rental_uris": {"ios": "https://dc.lft.to/lastmile_qr_scan", "android": "https://dc.lft.to/lastmile_qr_scan"}, "is_disabled": 0, "lon": -77.0154685, "name": "39e8fc856460f5986027428f9dd0cf8f", "fusion_lon": 0.0}, {"lat": 38.92788016666667, "fusion_lat": 0.0, "type": "electric_scooter", "bike_id": "c8303fe9f19a36a7324366e3dfdef4bd", "is_reserved": 0, "rental_uris": {"ios": "https://dc.lft.to/lastmile_qr_scan", "android": "https://dc.lft.to/lastmile_qr_scan"}, "is_disabled": 0, "lon": -77.02675316666667, "name": "c8303fe9f19a36a7324366e3dfdef4bd", "fusion_lon": 0.0}, {"lat": 38.936359, "fusion_lat": 0.0, "type": "electric_scooter", "bike_id": "7bf347cc43f6cdd06d9dd31c4ac3d60a", "is_reserved": 0, "rental_uris": {"ios": "https://dc.lft.to/lastmile_qr_scan", "android": "https://dc.lft.to/lastmile_qr_scan"}, "is_disabled": 0, "lon": -77.03267133333334, "name": "7bf347cc43f6cdd06d9dd31c4ac3d60a", "fusion_lon": 0.0}, {"lat": 38.83208666666667, "fusion_lat": 0.0, "type": "electric_scooter", "bike_id": "dc9dd4e4632d53992310488645287bd3", "is_reserved": 0, "rental_uris": {"ios": "https://dc.lft.to/lastmile_qr_scan", "android": "https://dc.lft.to/lastmile_qr_scan"}, "is_disabled": 0, "lon": -77.00792983333334, "name": "dc9dd4e4632d53992310488645287bd3", "fusion_lon": 0.0}, {"lat": 38.88715666666667, "fusion_lat": 0.0, "type": "electric_scooter", "bike_id": "a92b5fe2c4a87401e7d5c72fe1af3a06", "is_reserved": 0, "rental_uris": {"ios": "https://dc.lft.to/lastmile_qr_scan", "android": "https://dc.lft.to/lastmile_qr_scan"}, "is_disabled": 0, "lon": -77.02208416666667, "name": "a92b5fe2c4a87401e7d5c72fe1af3a06", "fusion_lon": 0.0}, {"lat": 38.87642433333333, "fusion_lat": 0.0, "type": "electric_scooter", "bike_id": "87a35ede452210c4bec09e7c3d0c113e", "is_reserved": 0, "rental_uris": {"ios": "https://dc.lft.to/lastmile_qr_scan", "android": "https://dc.lft.to/lastmile_qr_scan"}, "is_disabled": 0, "lon": -77.0045575, "name": "87a35ede452210c4bec09e7c3d0c113e", "fusion_lon": 0.0}, {"lat": 38.8926675, "fusion_lat": 0.0, "type": "electric_scooter", "bike_id": "86158f9c2afe42bc8d275f6f6cb5c2d5", "is_reserved": 0, "rental_uris": {"ios": "https://dc.lft.to/lastmile_qr_scan", "android": "https://dc.lft.to/lastmile_qr_scan"}, "is_disabled": 0, "lon": -77.003535, "name": "86158f9c2afe42bc8d275f6f6cb5c2d5", "fusion_lon": 0.0}, {"lat": 38.894286666666666, "fusion_lat": 0.0, "type": "electric_scooter", "bike_id": "622a0c4de38da69169d6f082bc81cd5c", "is_reserved": 0, "rental_uris": {"ios": "https://dc.lft.to/lastmile_qr_scan", "android": "https://dc.lft.to/lastmile_qr_scan"}, "is_disabled": 0, "lon": -77.000494, "name": "622a0c4de38da69169d6f082bc81cd5c", "fusion_lon": 0.0}, {"lat": 38.918537666666666, "fusion_lat": 0.0, "type": "electric_scooter", "bike_id": "38e064d8d4757a107d0f2967fba88145", "is_reserved": 0, "rental_uris": {"ios": "https://dc.lft.to/lastmile_qr_scan", "android": "https://dc.lft.to/lastmile_qr_scan"}, "is_disabled": 0, "lon": -77.01558533333333, "name": "38e064d8d4757a107d0f2967fba88145", "fusion_lon": 0.0}, {"lat": 38.92340633333333, "fusion_lat": 0.0, "type": "electric_scooter", "bike_id": "ecb9e361257ce5c2e4ca0b3950beb80f", "is_reserved": 0, "rental_uris": {"ios": "https://dc.lft.to/lastmile_qr_scan", "android": "https://dc.lft.to/lastmile_qr_scan"}, "is_disabled": 0, "lon": -77.05247733333333, "name": "ecb9e361257ce5c2e4ca0b3950beb80f", "fusion_lon": 0.0}, {"lat": 38.9084545, "fusion_lat": 0.0, "type": "electric_bike", "bike_id": "83b1c7f23f0142fcb4b73ab40ad96cd3", "is_reserved": 0, "rental_uris": {"ios": "https://dc.lft.to/lastmile_qr_scan", "android": "https://dc.lft.to/lastmile_qr_scan"}, "is_disabled": 0, "lon": -77.04021133333333, "name": "83b1c7f23f0142fcb4b73ab40ad96cd3", "fusion_lon": 0.0}, {"lat": 38.897294, "fusion_lat": 0.0, "type": "electric_scooter", "bike_id": "43045f9decaae1e314c3224d8a04cdfb", "is_reserved": 0, "rental_uris": {"ios": "https://dc.lft.to/lastmile_qr_scan", "android": "https://dc.lft.to/lastmile_qr_scan"}, "is_disabled": 0, "lon": -77.03344116666666, "name": "43045f9decaae1e314c3224d8a04cdfb", "fusion_lon": 0.0}, {"lat": 38.94106433333333, "fusion_lat": 0.0, "type": "electric_scooter", "bike_id": "fdcdb75ef80ff26dfe321c042b86d2a1", "is_reserved": 0, "rental_uris": {"ios": "https://dc.lft.to/lastmile_qr_scan", "android": "https://dc.lft.to/lastmile_qr_scan"}, "is_disabled": 0, "lon": -77.07740116666666, "name": "fdcdb75ef80ff26dfe321c042b86d2a1", "fusion_lon": 0.0}, {"lat": 38.898276, "fusion_lat": 0.0, "type": "electric_scooter", "bike_id": "bb7048ad40ac4ac242b51ccd9b0de12a", "is_reserved": 0, "rental_uris": {"ios": "https://dc.lft.to/lastmile_qr_scan", "android": "https://dc.lft.to/lastmile_qr_scan"}, "is_disabled": 0, "lon": -77.0435505, "name": "bb7048ad40ac4ac242b51ccd9b0de12a", "fusion_lon": 0.0}, {"lat": 38.925839833333335, "fusion_lat": 0.0, "type": "electric_scooter", "bike_id": "e1d1d2054b798215536ac1ba2e0e4045", "is_reserved": 0, "rental_uris": {"ios": "https://dc.lft.to/lastmile_qr_scan", "android": "https://dc.lft.to/lastmile_qr_scan"}, "is_disabled": 0, "lon": -77.02613066666666, "name": "e1d1d2054b798215536ac1ba2e0e4045", "fusion_lon": 0.0}, {"lat": 38.937392833333334, "fusion_lat": 0.0, "type": "electric_scooter", "bike_id": "207908bc762699afb33014dcb243bb39", "is_reserved": 0, "rental_uris": {"ios": "https://dc.lft.to/lastmile_qr_scan", "android": "https://dc.lft.to/lastmile_qr_scan"}, "is_disabled": 0, "lon": -77.03348166666666, "name": "207908bc762699afb33014dcb243bb39", "fusion_lon": 0.0}, {"lat": 38.92060166666667, "fusion_lat": 0.0, "type": "electric_scooter", "bike_id": "9e2b7ebc9cfd363b72991e8ca1fa88a1", "is_reserved": 0, "rental_uris": {"ios": "https://dc.lft.to/lastmile_qr_scan", "android": "https://dc.lft.to/lastmile_qr_scan"}, "is_disabled": 0, "lon": -77.033428, "name": "9e2b7ebc9cfd363b72991e8ca1fa88a1", "fusion_lon": 0.0}, {"lat": 38.89183516666667, "fusion_lat": 0.0, "type": "electric_scooter", "bike_id": "87efa2876690ceb81118dcacf36b682e", "is_reserved": 0, "rental_uris": {"ios": "https://dc.lft.to/lastmile_qr_scan", "android": "https://dc.lft.to/lastmile_qr_scan"}, "is_disabled": 0, "lon": -76.91188466666667, "name": "87efa2876690ceb81118dcacf36b682e", "fusion_lon": 0.0}, {"lat": 38.9056875, "fusion_lat": 0.0, "type": "electric_scooter", "bike_id": "dbe41334b3316f4f29698fb284de7492", "is_reserved": 0, "rental_uris": {"ios": "https://dc.lft.to/lastmile_qr_scan", "android": "https://dc.lft.to/lastmile_qr_scan"}, "is_disabled": 0, "lon": -77.02832716666667, "name": "dbe41334b3316f4f29698fb284de7492", "fusion_lon": 0.0}, {"lat": 38.90827016666667, "fusion_lat": 0.0, "type": "electric_scooter", "bike_id": "87031629101c0ae5a62dbe0db4707b40", "is_reserved": 0, "rental_uris": {"ios": "https://dc.lft.to/lastmile_qr_scan", "android": "https://dc.lft.to/lastmile_qr_scan"}, "is_disabled": 0, "lon": -77.03861933333333, "name": "87031629101c0ae5a62dbe0db4707b40", "fusion_lon": 0.0}, {"lat": 38.92922316666667, "fusion_lat": 0.0, "type": "electric_scooter", "bike_id": "af3c11297391da6bf9a8b1fb104dea8a", "is_reserved": 0, "rental_uris": {"ios": "https://dc.lft.to/lastmile_qr_scan", "android": "https://dc.lft.to/lastmile_qr_scan"}, "is_disabled": 0, "lon": -77.032848, "name": "af3c11297391da6bf9a8b1fb104dea8a", "fusion_lon": 0.0}, {"lat": 38.908833, "fusion_lat": 0.0, "type": "electric_scooter", "bike_id": "cd46eb361e6feb2d6fe3abec2a385024", "is_reserved": 0, "rental_uris": {"ios": "https://dc.lft.to/lastmile_qr_scan", "android": "https://dc.lft.to/lastmile_qr_scan"}, "is_disabled": 0, "lon": -76.99854966666666, "name": "cd46eb361e6feb2d6fe3abec2a385024", "fusion_lon": 0.0}, {"lat": 38.89985933333333, "fusion_lat": 0.0, "type": "electric_scooter", "bike_id": "f29e7e086a0c6175b47344ce9b5780f0", "is_reserved": 0, "rental_uris": {"ios": "https://dc.lft.to/lastmile_qr_scan", "android": "https://dc.lft.to/lastmile_qr_scan"}, "is_disabled": 0, "lon": -77.02610333333334, "name": "f29e7e086a0c6175b47344ce9b5780f0", "fusion_lon": 0.0}, {"lat": 38.9234375, "fusion_lat": 0.0, "type": "electric_scooter", "bike_id": "6c2e5bfaceb9b6fd4acd9898a32b929e", "is_reserved": 0, "rental_uris": {"ios": "https://dc.lft.to/lastmile_qr_scan", "android": "https://dc.lft.to/lastmile_qr_scan"}, "is_disabled": 0, "lon": -77.04168133333333, "name": "6c2e5bfaceb9b6fd4acd9898a32b929e", "fusion_lon": 0.0}, {"lat": 38.9553235, "fusion_lat": 0.0, "type": "electric_bike", "bike_id": "d038549d9fce6c5fbd98d03e9bd785a9", "is_reserved": 0, "rental_uris": {"ios": "https://dc.lft.to/lastmile_qr_scan", "android": "https://dc.lft.to/lastmile_qr_scan"}, "is_disabled": 0, "lon": -76.96828383333333, "name": "d038549d9fce6c5fbd98d03e9bd785a9", "fusion_lon": 0.0}, {"lat": 38.90509733333333, "fusion_lat": 0.0, "type": "electric_scooter", "bike_id": "0f4901e2582a5ffb2887662f5431b0cc", "is_reserved": 0, "rental_uris": {"ios": "https://dc.lft.to/lastmile_qr_scan", "android": "https://dc.lft.to/lastmile_qr_scan"}, "is_disabled": 0, "lon": -77.060131, "name": "0f4901e2582a5ffb2887662f5431b0cc", "fusion_lon": 0.0}, {"lat": 38.918159333333335, "fusion_lat": 0.0, "type": "electric_scooter", "bike_id": "76b94546c6f7369749d11c65c7c894b9", "is_reserved": 0, "rental_uris": {"ios": "https://dc.lft.to/lastmile_qr_scan", "android": "https://dc.lft.to/lastmile_qr_scan"}, "is_disabled": 0, "lon": -77.08964533333334, "name": "76b94546c6f7369749d11c65c7c894b9", "fusion_lon": 0.0}, {"lat": 38.916889166666664, "fusion_lat": 0.0, "type": "electric_scooter", "bike_id": "b789fa5b8f474af767678fc82694c267", "is_reserved": 0, "rental_uris": {"ios": "https://dc.lft.to/lastmile_qr_scan", "android": "https://dc.lft.to/lastmile_qr_scan"}, "is_disabled": 0, "lon": -77.01576, "name": "b789fa5b8f474af767678fc82694c267", "fusion_lon": 0.0}, {"lat": 38.91918716666667, "fusion_lat": 0.0, "type": "electric_scooter", "bike_id": "ee9ef2365c284e2b378399b6df756ab2", "is_reserved": 0, "rental_uris": {"ios": "https://dc.lft.to/lastmile_qr_scan", "android": "https://dc.lft.to/lastmile_qr_scan"}, "is_disabled": 0, "lon": -77.01540216666666, "name": "ee9ef2365c284e2b378399b6df756ab2", "fusion_lon": 0.0}, {"lat": 38.905275, "fusion_lat": 0.0, "type": "electric_scooter", "bike_id": "da865450cbb7b36aebcd08bf74907585", "is_reserved": 0, "rental_uris": {"ios": "https://dc.lft.to/lastmile_qr_scan", "android": "https://dc.lft.to/lastmile_qr_scan"}, "is_disabled": 0, "lon": -77.06135466666667, "name": "da865450cbb7b36aebcd08bf74907585", "fusion_lon": 0.0}, {"lat": 38.96327516666667, "fusion_lat": 0.0, "type": "electric_bike", "bike_id": "11bd430f11b6bfd03651cb244ab54aff", "is_reserved": 0, "rental_uris": {"ios": "https://dc.lft.to/lastmile_qr_scan", "android": "https://dc.lft.to/lastmile_qr_scan"}, "is_disabled": 0, "lon": -76.97363016666667, "name": "11bd430f11b6bfd03651cb244ab54aff", "fusion_lon": 0.0}, {"lat": 38.963122166666665, "fusion_lat": 0.0, "type": "electric_bike", "bike_id": "f1770e9813f9a6d9ad2f51f88788fc28", "is_reserved": 0, "rental_uris": {"ios": "https://dc.lft.to/lastmile_qr_scan", "android": "https://dc.lft.to/lastmile_qr_scan"}, "is_disabled": 0, "lon": -77.0110375, "name": "f1770e9813f9a6d9ad2f51f88788fc28", "fusion_lon": 0.0}, {"lat": 38.908559833333335, "fusion_lat": 0.0, "type": "electric_scooter", "bike_id": "4cee05d048ad860aa4ef4b005fa8bcc4", "is_reserved": 0, "rental_uris": {"ios": "https://dc.lft.to/lastmile_qr_scan", "android": "https://dc.lft.to/lastmile_qr_scan"}, "is_disabled": 0, "lon": -77.02235366666666, "name": "4cee05d048ad860aa4ef4b005fa8bcc4", "fusion_lon": 0.0}, {"lat": 38.920683333333336, "fusion_lat": 0.0, "type": "electric_scooter", "bike_id": "660eec3b9900e40a2033c0ce9b9d0cc4", "is_reserved": 0, "rental_uris": {"ios": "https://dc.lft.to/lastmile_qr_scan", "android": "https://dc.lft.to/lastmile_qr_scan"}, "is_disabled": 0, "lon": -77.029395, "name": "660eec3b9900e40a2033c0ce9b9d0cc4", "fusion_lon": 0.0}, {"lat": 38.9244245, "fusion_lat": 0.0, "type": "electric_scooter", "bike_id": "2a3da402194343257e3ec14570fb9aaf", "is_reserved": 0, "rental_uris": {"ios": "https://dc.lft.to/lastmile_qr_scan", "android": "https://dc.lft.to/lastmile_qr_scan"}, "is_disabled": 0, "lon": -77.04394266666667, "name": "2a3da402194343257e3ec14570fb9aaf", "fusion_lon": 0.0}, {"lat": 38.90623866666667, "fusion_lat": 0.0, "type": "electric_scooter", "bike_id": "aff58b2b7e21bf0bb479dd8594d37a2e", "is_reserved": 0, "rental_uris": {"ios": "https://dc.lft.to/lastmile_qr_scan", "android": "https://dc.lft.to/lastmile_qr_scan"}, "is_disabled": 0, "lon": -77.04155183333333, "name": "aff58b2b7e21bf0bb479dd8594d37a2e", "fusion_lon": 0.0}, {"lat": 38.8887745, "fusion_lat": 0.0, "type": "electric_scooter", "bike_id": "87d41808ec3ea469dc58688e314f5bb2", "is_reserved": 0, "rental_uris": {"ios": "https://dc.lft.to/lastmile_qr_scan", "android": "https://dc.lft.to/lastmile_qr_scan"}, "is_disabled": 0, "lon": -76.99032083333333, "name": "87d41808ec3ea469dc58688e314f5bb2", "fusion_lon": 0.0}, {"lat": 38.919718, "fusion_lat": 0.0, "type": "electric_scooter", "bike_id": "30125bab8f5fda387926e77153468215", "is_reserved": 0, "rental_uris": {"ios": "https://dc.lft.to/lastmile_qr_scan", "android": "https://dc.lft.to/lastmile_qr_scan"}, "is_disabled": 0, "lon": -77.03856733333333, "name": "30125bab8f5fda387926e77153468215", "fusion_lon": 0.0}, {"lat": 38.956446, "fusion_lat": 0.0, "type": "electric_bike", "bike_id": "8691ed4446164cf2a4efbc8d55602388", "is_reserved": 0, "rental_uris": {"ios": "https://dc.lft.to/lastmile_qr_scan", "android": "https://dc.lft.to/lastmile_qr_scan"}, "is_disabled": 0, "lon": -76.99791333333333, "name": "8691ed4446164cf2a4efbc8d55602388", "fusion_lon": 0.0}, {"lat": 39.01373566666667, "fusion_lat": 0.0, "type": "electric_bike", "bike_id": "3735478d82018064a5bd151a44559d7c", "is_reserved": 0, "rental_uris": {"ios": "https://dc.lft.to/lastmile_qr_scan", "android": "https://dc.lft.to/lastmile_qr_scan"}, "is_disabled": 0, "lon": -76.92138983333334, "name": "3735478d82018064a5bd151a44559d7c", "fusion_lon": 0.0}, {"lat": 38.9097715, "fusion_lat": 0.0, "type": "electric_scooter", "bike_id": "5e10d9594dfcb5b953b7f8fb0ac8618d", "is_reserved": 0, "rental_uris": {"ios": "https://dc.lft.to/lastmile_qr_scan", "android": "https://dc.lft.to/lastmile_qr_scan"}, "is_disabled": 0, "lon": -77.03315733333334, "name": "5e10d9594dfcb5b953b7f8fb0ac8618d", "fusion_lon": 0.0}, {"lat": 38.92420516666667, "fusion_lat": 0.0, "type": "electric_scooter", "bike_id": "309ca781713928a7f6f4d7de47f2eab4", "is_reserved": 0, "rental_uris": {"ios": "https://dc.lft.to/lastmile_qr_scan", "android": "https://dc.lft.to/lastmile_qr_scan"}, "is_disabled": 0, "lon": -77.02028633333333, "name": "309ca781713928a7f6f4d7de47f2eab4", "fusion_lon": 0.0}, {"lat": 38.911943, "fusion_lat": 0.0, "type": "electric_scooter", "bike_id": "4b0c0a68ed639642e2c3c6cf39a62f63", "is_reserved": 0, "rental_uris": {"ios": "https://dc.lft.to/lastmile_qr_scan", "android": "https://dc.lft.to/lastmile_qr_scan"}, "is_disabled": 0, "lon": -77.03215583333333, "name": "4b0c0a68ed639642e2c3c6cf39a62f63", "fusion_lon": 0.0}, {"lat": 38.90098183333333, "fusion_lat": 0.0, "type": "electric_scooter", "bike_id": "ef854b0bed2a8a56c523c877e1a3ac55", "is_reserved": 0, "rental_uris": {"ios": "https://dc.lft.to/lastmile_qr_scan", "android": "https://dc.lft.to/lastmile_qr_scan"}, "is_disabled": 0, "lon": -77.0473325, "name": "ef854b0bed2a8a56c523c877e1a3ac55", "fusion_lon": 0.0}, {"lat": 38.87416, "fusion_lat": 0.0, "type": "electric_scooter", "bike_id": "5f5cd5e49ea7b38deeb5653d805d47be", "is_reserved": 0, "rental_uris": {"ios": "https://dc.lft.to/lastmile_qr_scan", "android": "https://dc.lft.to/lastmile_qr_scan"}, "is_disabled": 0, "lon": -76.971196, "name": "5f5cd5e49ea7b38deeb5653d805d47be", "fusion_lon": 0.0}, {"lat": 38.927196, "fusion_lat": 0.0, "type": "electric_scooter", "bike_id": "b3323358219d57471325c42c5fbb4304", "is_reserved": 0, "rental_uris": {"ios": "https://dc.lft.to/lastmile_qr_scan", "android": "https://dc.lft.to/lastmile_qr_scan"}, "is_disabled": 0, "lon": -77.029666, "name": "b3323358219d57471325c42c5fbb4304", "fusion_lon": 0.0}, {"lat": 38.90831216666667, "fusion_lat": 0.0, "type": "electric_scooter", "bike_id": "090464685719dae9ae09f8c4be78818f", "is_reserved": 0, "rental_uris": {"ios": "https://dc.lft.to/lastmile_qr_scan", "android": "https://dc.lft.to/lastmile_qr_scan"}, "is_disabled": 0, "lon": -76.93447683333333, "name": "090464685719dae9ae09f8c4be78818f", "fusion_lon": 0.0}, {"lat": 38.920821333333336, "fusion_lat": 0.0, "type": "electric_scooter", "bike_id": "bc34c0bae204804e55ef45b3e087a144", "is_reserved": 0, "rental_uris": {"ios": "https://dc.lft.to/lastmile_qr_scan", "android": "https://dc.lft.to/lastmile_qr_scan"}, "is_disabled": 0, "lon": -77.04198983333333, "name": "bc34c0bae204804e55ef45b3e087a144", "fusion_lon": 0.0}, {"lat": 38.900962166666666, "fusion_lat": 0.0, "type": "electric_scooter", "bike_id": "6fc4ffd75edb837fd05b84a96224ba96", "is_reserved": 0, "rental_uris": {"ios": "https://dc.lft.to/lastmile_qr_scan", "android": "https://dc.lft.to/lastmile_qr_scan"}, "is_disabled": 0, "lon": -76.97641366666667, "name": "6fc4ffd75edb837fd05b84a96224ba96", "fusion_lon": 0.0}, {"lat": 38.86510533333333, "fusion_lat": 0.0, "type": "electric_scooter", "bike_id": "1d33b39025b1a1ef7ed94a98b01436b7", "is_reserved": 0, "rental_uris": {"ios": "https://dc.lft.to/lastmile_qr_scan", "android": "https://dc.lft.to/lastmile_qr_scan"}, "is_disabled": 0, "lon": -76.99009216666667, "name": "1d33b39025b1a1ef7ed94a98b01436b7", "fusion_lon": 0.0}, {"lat": 38.898564666666665, "fusion_lat": 0.0, "type": "electric_scooter", "bike_id": "664c15fb8fffc0c02bd84420281ef1ff", "is_reserved": 0, "rental_uris": {"ios": "https://dc.lft.to/lastmile_qr_scan", "android": "https://dc.lft.to/lastmile_qr_scan"}, "is_disabled": 0, "lon": -76.981743, "name": "664c15fb8fffc0c02bd84420281ef1ff", "fusion_lon": 0.0}, {"lat": 38.89460916666667, "fusion_lat": 0.0, "type": "electric_scooter", "bike_id": "003e47d9d519da460ba32f43f46fa306", "is_reserved": 0, "rental_uris": {"ios": "https://dc.lft.to/lastmile_qr_scan", "android": "https://dc.lft.to/lastmile_qr_scan"}, "is_disabled": 0, "lon": -77.02256166666666, "name": "003e47d9d519da460ba32f43f46fa306", "fusion_lon": 0.0}, {"lat": 38.92969266666667, "fusion_lat": 0.0, "type": "electric_scooter", "bike_id": "bafeb566c34304c045826c7f6f7d4ee9", "is_reserved": 0, "rental_uris": {"ios": "https://dc.lft.to/lastmile_qr_scan", "android": "https://dc.lft.to/lastmile_qr_scan"}, "is_disabled": 0, "lon": -77.02827483333333, "name": "bafeb566c34304c045826c7f6f7d4ee9", "fusion_lon": 0.0}, {"lat": 38.91201566666667, "fusion_lat": 0.0, "type": "electric_scooter", "bike_id": "ab9f5eb02de572825006c9fe753e9d38", "is_reserved": 0, "rental_uris": {"ios": "https://dc.lft.to/lastmile_qr_scan", "android": "https://dc.lft.to/lastmile_qr_scan"}, "is_disabled": 0, "lon": -77.03858366666667, "name": "ab9f5eb02de572825006c9fe753e9d38", "fusion_lon": 0.0}, {"lat": 38.886251, "fusion_lat": 0.0, "type": "electric_scooter", "bike_id": "b41671a965c5bd067a04727e623133e7", "is_reserved": 0, "rental_uris": {"ios": "https://dc.lft.to/lastmile_qr_scan", "android": "https://dc.lft.to/lastmile_qr_scan"}, "is_disabled": 0, "lon": -76.95574, "name": "b41671a965c5bd067a04727e623133e7", "fusion_lon": 0.0}, {"lat": 38.92068733333333, "fusion_lat": 0.0, "type": "electric_scooter", "bike_id": "cb480ad521b6b39c3460908cc52105c0", "is_reserved": 0, "rental_uris": {"ios": "https://dc.lft.to/lastmile_qr_scan", "android": "https://dc.lft.to/lastmile_qr_scan"}, "is_disabled": 0, "lon": -77.03196833333334, "name": "cb480ad521b6b39c3460908cc52105c0", "fusion_lon": 0.0}, {"lat": 38.934282833333334, "fusion_lat": 0.0, "type": "electric_scooter", "bike_id": "4fc8b1e25acdf0c55420f8199b1f625f", "is_reserved": 0, "rental_uris": {"ios": "https://dc.lft.to/lastmile_qr_scan", "android": "https://dc.lft.to/lastmile_qr_scan"}, "is_disabled": 0, "lon": -77.04005666666667, "name": "4fc8b1e25acdf0c55420f8199b1f625f", "fusion_lon": 0.0}, {"lat": 38.808953, "fusion_lat": 0.0, "type": "electric_bike", "bike_id": "374ca26cbd94dcdc0d96afc53162876d", "is_reserved": 0, "rental_uris": {"ios": "https://dc.lft.to/lastmile_qr_scan", "android": "https://dc.lft.to/lastmile_qr_scan"}, "is_disabled": 0, "lon": -77.08662133333333, "name": "374ca26cbd94dcdc0d96afc53162876d", "fusion_lon": 0.0}, {"lat": 38.903256999999996, "fusion_lat": 0.0, "type": "electric_scooter", "bike_id": "640d225e75822988cc151c76ed6d1e8b", "is_reserved": 0, "rental_uris": {"ios": "https://dc.lft.to/lastmile_qr_scan", "android": "https://dc.lft.to/lastmile_qr_scan"}, "is_disabled": 0, "lon": -76.975486, "name": "640d225e75822988cc151c76ed6d1e8b", "fusion_lon": 0.0}, {"lat": 38.92220116666667, "fusion_lat": 0.0, "type": "electric_scooter", "bike_id": "dd763a42157a4f1db96d026fe70dc425", "is_reserved": 0, "rental_uris": {"ios": "https://dc.lft.to/lastmile_qr_scan", "android": "https://dc.lft.to/lastmile_qr_scan"}, "is_disabled": 0, "lon": -77.03457166666666, "name": "dd763a42157a4f1db96d026fe70dc425", "fusion_lon": 0.0}, {"lat": 38.92857766666667, "fusion_lat": 0.0, "type": "electric_scooter", "bike_id": "39b2fd4551d017012f83b1ad2eee7782", "is_reserved": 0, "rental_uris": {"ios": "https://dc.lft.to/lastmile_qr_scan", "android": "https://dc.lft.to/lastmile_qr_scan"}, "is_disabled": 0, "lon": -77.014121, "name": "39b2fd4551d017012f83b1ad2eee7782", "fusion_lon": 0.0}, {"lat": 38.93485716666667, "fusion_lat": 0.0, "type": "electric_scooter", "bike_id": "3ce05c642e3620ce870a95988df1ec7d", "is_reserved": 0, "rental_uris": {"ios": "https://dc.lft.to/lastmile_qr_scan", "android": "https://dc.lft.to/lastmile_qr_scan"}, "is_disabled": 0, "lon": -77.07274733333334, "name": "3ce05c642e3620ce870a95988df1ec7d", "fusion_lon": 0.0}, {"lat": 38.97239183333333, "fusion_lat": 0.0, "type": "electric_bike", "bike_id": "4f1477cb226e4ce86edcca3de682d89c", "is_reserved": 0, "rental_uris": {"ios": "https://dc.lft.to/lastmile_qr_scan", "android": "https://dc.lft.to/lastmile_qr_scan"}, "is_disabled": 0, "lon": -77.0271905, "name": "4f1477cb226e4ce86edcca3de682d89c", "fusion_lon": 0.0}, {"lat": 38.88748416666667, "fusion_lat": 0.0, "type": "electric_scooter", "bike_id": "ddac50815828563aed81f9c525eb5e24", "is_reserved": 0, "rental_uris": {"ios": "https://dc.lft.to/lastmile_qr_scan", "android": "https://dc.lft.to/lastmile_qr_scan"}, "is_disabled": 0, "lon": -77.02729166666667, "name": "ddac50815828563aed81f9c525eb5e24", "fusion_lon": 0.0}, {"lat": 38.90030766666667, "fusion_lat": 0.0, "type": "electric_scooter", "bike_id": "4cce2027148b893d27479d4584995d87", "is_reserved": 0, "rental_uris": {"ios": "https://dc.lft.to/lastmile_qr_scan", "android": "https://dc.lft.to/lastmile_qr_scan"}, "is_disabled": 0, "lon": -77.04467166666667, "name": "4cce2027148b893d27479d4584995d87", "fusion_lon": 0.0}, {"lat": 38.804294666666664, "fusion_lat": 0.0, "type": "electric_bike", "bike_id": "98f87673e47b22520d31b116fafa3ab5", "is_reserved": 0, "rental_uris": {"ios": "https://dc.lft.to/lastmile_qr_scan", "android": "https://dc.lft.to/lastmile_qr_scan"}, "is_disabled": 0, "lon": -77.055668, "name": "98f87673e47b22520d31b116fafa3ab5", "fusion_lon": 0.0}, {"lat": 38.865192666666665, "fusion_lat": 0.0, "type": "electric_scooter", "bike_id": "07d4997218822d85676e26e676f76d2e", "is_reserved": 0, "rental_uris": {"ios": "https://dc.lft.to/lastmile_qr_scan", "android": "https://dc.lft.to/lastmile_qr_scan"}, "is_disabled": 0, "lon": -76.99019266666667, "name": "07d4997218822d85676e26e676f76d2e", "fusion_lon": 0.0}, {"lat": 38.863943666666664, "fusion_lat": 0.0, "type": "electric_scooter", "bike_id": "eb88442c707d4e165cbb28c453496025", "is_reserved": 0, "rental_uris": {"ios": "https://dc.lft.to/lastmile_qr_scan", "android": "https://dc.lft.to/lastmile_qr_scan"}, "is_disabled": 0, "lon": -76.99039016666667, "name": "eb88442c707d4e165cbb28c453496025", "fusion_lon": 0.0}, {"lat": 38.922389833333334, "fusion_lat": 0.0, "type": "electric_scooter", "bike_id": "a14045aa001843d53c270c58abe06502", "is_reserved": 0, "rental_uris": {"ios": "https://dc.lft.to/lastmile_qr_scan", "android": "https://dc.lft.to/lastmile_qr_scan"}, "is_disabled": 0, "lon": -77.03522316666667, "name": "a14045aa001843d53c270c58abe06502", "fusion_lon": 0.0}, {"lat": 38.9323025, "fusion_lat": 0.0, "type": "electric_scooter", "bike_id": "0fd21e53c23815b4c7e92928ce105685", "is_reserved": 0, "rental_uris": {"ios": "https://dc.lft.to/lastmile_qr_scan", "android": "https://dc.lft.to/lastmile_qr_scan"}, "is_disabled": 0, "lon": -76.99619383333334, "name": "0fd21e53c23815b4c7e92928ce105685", "fusion_lon": 0.0}, {"lat": 38.880669, "fusion_lat": 0.0, "type": "electric_scooter", "bike_id": "46df38e9fc3b098acdef90caf390accd", "is_reserved": 0, "rental_uris": {"ios": "https://dc.lft.to/lastmile_qr_scan", "android": "https://dc.lft.to/lastmile_qr_scan"}, "is_disabled": 0, "lon": -76.93219466666666, "name": "46df38e9fc3b098acdef90caf390accd", "fusion_lon": 0.0}, {"lat": 38.928589333333335, "fusion_lat": 0.0, "type": "electric_scooter", "bike_id": "469408231d44f04fa4f09b2691a812df", "is_reserved": 0, "rental_uris": {"ios": "https://dc.lft.to/lastmile_qr_scan", "android": "https://dc.lft.to/lastmile_qr_scan"}, "is_disabled": 0, "lon": -77.0310705, "name": "469408231d44f04fa4f09b2691a812df", "fusion_lon": 0.0}, {"lat": 38.92653466666667, "fusion_lat": 0.0, "type": "electric_scooter", "bike_id": "6b6ec06ef2a8936375ec0056738199c3", "is_reserved": 0, "rental_uris": {"ios": "https://dc.lft.to/lastmile_qr_scan", "android": "https://dc.lft.to/lastmile_qr_scan"}, "is_disabled": 0, "lon": -77.03837566666667, "name": "6b6ec06ef2a8936375ec0056738199c3", "fusion_lon": 0.0}, {"lat": 38.90508233333333, "fusion_lat": 0.0, "type": "electric_scooter", "bike_id": "c12f50bed7080d76b8772f20a9d000ae", "is_reserved": 0, "rental_uris": {"ios": "https://dc.lft.to/lastmile_qr_scan", "android": "https://dc.lft.to/lastmile_qr_scan"}, "is_disabled": 0, "lon": -77.04638866666667, "name": "c12f50bed7080d76b8772f20a9d000ae", "fusion_lon": 0.0}, {"lat": 38.879410666666665, "fusion_lat": 0.0, "type": "electric_scooter", "bike_id": "719924517dc07fdfcb5e0caf5b0a6927", "is_reserved": 0, "rental_uris": {"ios": "https://dc.lft.to/lastmile_qr_scan", "android": "https://dc.lft.to/lastmile_qr_scan"}, "is_disabled": 0, "lon": -77.01461383333333, "name": "719924517dc07fdfcb5e0caf5b0a6927", "fusion_lon": 0.0}, {"lat": 38.899839, "fusion_lat": 0.0, "type": "electric_scooter", "bike_id": "675138f65cb988b91efa5ea5d510297a", "is_reserved": 0, "rental_uris": {"ios": "https://dc.lft.to/lastmile_qr_scan", "android": "https://dc.lft.to/lastmile_qr_scan"}, "is_disabled": 0, "lon": -77.03191633333333, "name": "675138f65cb988b91efa5ea5d510297a", "fusion_lon": 0.0}, {"lat": 38.93347516666667, "fusion_lat": 0.0, "type": "electric_scooter", "bike_id": "5476e1c0f64b1bd415a25a81460cbde6", "is_reserved": 0, "rental_uris": {"ios": "https://dc.lft.to/lastmile_qr_scan", "android": "https://dc.lft.to/lastmile_qr_scan"}, "is_disabled": 0, "lon": -77.03873666666667, "name": "5476e1c0f64b1bd415a25a81460cbde6", "fusion_lon": 0.0}, {"lat": 38.90427233333333, "fusion_lat": 0.0, "type": "electric_scooter", "bike_id": "fe080f2dbe5acff02b1d4049789ae7b7", "is_reserved": 0, "rental_uris": {"ios": "https://dc.lft.to/lastmile_qr_scan", "android": "https://dc.lft.to/lastmile_qr_scan"}, "is_disabled": 0, "lon": -77.04340833333333, "name": "fe080f2dbe5acff02b1d4049789ae7b7", "fusion_lon": 0.0}, {"lat": 38.90125283333333, "fusion_lat": 0.0, "type": "electric_scooter", "bike_id": "165631e0d3b69a1cc2bb032807fbf6b8", "is_reserved": 0, "rental_uris": {"ios": "https://dc.lft.to/lastmile_qr_scan", "android": "https://dc.lft.to/lastmile_qr_scan"}, "is_disabled": 0, "lon": -77.02683216666667, "name": "165631e0d3b69a1cc2bb032807fbf6b8", "fusion_lon": 0.0}, {"lat": 38.9343635, "fusion_lat": 0.0, "type": "electric_scooter", "bike_id": "312576662f6a24789185084fdb23ac43", "is_reserved": 0, "rental_uris": {"ios": "https://dc.lft.to/lastmile_qr_scan", "android": "https://dc.lft.to/lastmile_qr_scan"}, "is_disabled": 0, "lon": -77.04538183333334, "name": "312576662f6a24789185084fdb23ac43", "fusion_lon": 0.0}, {"lat": 38.956314, "fusion_lat": 0.0, "type": "electric_scooter", "bike_id": "fde6f41e1ca13a1164ebe0805dd2020a", "is_reserved": 0, "rental_uris": {"ios": "https://dc.lft.to/lastmile_qr_scan", "android": "https://dc.lft.to/lastmile_qr_scan"}, "is_disabled": 0, "lon": -77.02783516666666, "name": "fde6f41e1ca13a1164ebe0805dd2020a", "fusion_lon": 0.0}, {"lat": 38.90044966666667, "fusion_lat": 0.0, "type": "electric_scooter", "bike_id": "9f977b5827832750194ba4057f22c7d6", "is_reserved": 0, "rental_uris": {"ios": "https://dc.lft.to/lastmile_qr_scan", "android": "https://dc.lft.to/lastmile_qr_scan"}, "is_disabled": 0, "lon": -76.98551466666666, "name": "9f977b5827832750194ba4057f22c7d6", "fusion_lon": 0.0}, {"lat": 38.912621666666666, "fusion_lat": 0.0, "type": "electric_scooter", "bike_id": "cc9ef5a5f1b90dc09eec8fa12bdd28c5", "is_reserved": 0, "rental_uris": {"ios": "https://dc.lft.to/lastmile_qr_scan", "android": "https://dc.lft.to/lastmile_qr_scan"}, "is_disabled": 0, "lon": -77.00771033333334, "name": "cc9ef5a5f1b90dc09eec8fa12bdd28c5", "fusion_lon": 0.0}, {"lat": 38.973724833333335, "fusion_lat": 0.0, "type": "electric_scooter", "bike_id": "612f93f2ad9d24fc6d3c135937b4458d", "is_reserved": 0, "rental_uris": {"ios": "https://dc.lft.to/lastmile_qr_scan", "android": "https://dc.lft.to/lastmile_qr_scan"}, "is_disabled": 0, "lon": -77.01853083333333, "name": "612f93f2ad9d24fc6d3c135937b4458d", "fusion_lon": 0.0}, {"lat": 38.90608016666667, "fusion_lat": 0.0, "type": "electric_scooter", "bike_id": "5cc5a9a516f19aa3d5853ca61550e92a", "is_reserved": 0, "rental_uris": {"ios": "https://dc.lft.to/lastmile_qr_scan", "android": "https://dc.lft.to/lastmile_qr_scan"}, "is_disabled": 0, "lon": -77.04113683333334, "name": "5cc5a9a516f19aa3d5853ca61550e92a", "fusion_lon": 0.0}, {"lat": 38.94996066666667, "fusion_lat": 0.0, "type": "electric_scooter", "bike_id": "002d864ec470c7d194b9501fc9a0e635", "is_reserved": 0, "rental_uris": {"ios": "https://dc.lft.to/lastmile_qr_scan", "android": "https://dc.lft.to/lastmile_qr_scan"}, "is_disabled": 0, "lon": -77.03330033333333, "name": "002d864ec470c7d194b9501fc9a0e635", "fusion_lon": 0.0}, {"lat": 38.898821166666664, "fusion_lat": 0.0, "type": "electric_scooter", "bike_id": "91c1f5cdfd785bacfefae1423a1ccae9", "is_reserved": 0, "rental_uris": {"ios": "https://dc.lft.to/lastmile_qr_scan", "android": "https://dc.lft.to/lastmile_qr_scan"}, "is_disabled": 0, "lon": -77.02168716666667, "name": "91c1f5cdfd785bacfefae1423a1ccae9", "fusion_lon": 0.0}, {"lat": 38.866422166666666, "fusion_lat": 0.0, "type": "electric_scooter", "bike_id": "ff317e67761a29d137cd8e2a07f7965d", "is_reserved": 0, "rental_uris": {"ios": "https://dc.lft.to/lastmile_qr_scan", "android": "https://dc.lft.to/lastmile_qr_scan"}, "is_disabled": 0, "lon": -76.982548, "name": "ff317e67761a29d137cd8e2a07f7965d", "fusion_lon": 0.0}, {"lat": 38.94701633333333, "fusion_lat": 0.0, "type": "electric_scooter", "bike_id": "f83761d01da9b8de8c5723133d1a5fc6", "is_reserved": 0, "rental_uris": {"ios": "https://dc.lft.to/lastmile_qr_scan", "android": "https://dc.lft.to/lastmile_qr_scan"}, "is_disabled": 0, "lon": -77.032885, "name": "f83761d01da9b8de8c5723133d1a5fc6", "fusion_lon": 0.0}, {"lat": 38.92932866666666, "fusion_lat": 0.0, "type": "electric_scooter", "bike_id": "3334c427015b2c468760cd6b72217088", "is_reserved": 0, "rental_uris": {"ios": "https://dc.lft.to/lastmile_qr_scan", "android": "https://dc.lft.to/lastmile_qr_scan"}, "is_disabled": 0, "lon": -77.03766416666667, "name": "3334c427015b2c468760cd6b72217088", "fusion_lon": 0.0}, {"lat": 38.907253, "fusion_lat": 0.0, "type": "electric_scooter", "bike_id": "f79fac15c952d2581c997d81c66e9a79", "is_reserved": 0, "rental_uris": {"ios": "https://dc.lft.to/lastmile_qr_scan", "android": "https://dc.lft.to/lastmile_qr_scan"}, "is_disabled": 0, "lon": -77.023735, "name": "f79fac15c952d2581c997d81c66e9a79", "fusion_lon": 0.0}, {"lat": 38.908705499999996, "fusion_lat": 0.0, "type": "electric_scooter", "bike_id": "31c866909d44ed58a852f6b85b33ea8c", "is_reserved": 0, "rental_uris": {"ios": "https://dc.lft.to/lastmile_qr_scan", "android": "https://dc.lft.to/lastmile_qr_scan"}, "is_disabled": 0, "lon": -77.024171, "name": "31c866909d44ed58a852f6b85b33ea8c", "fusion_lon": 0.0}, {"lat": 38.90618816666667, "fusion_lat": 0.0, "type": "electric_scooter", "bike_id": "326d50cbe2f651824c29c986ef7cf715", "is_reserved": 0, "rental_uris": {"ios": "https://dc.lft.to/lastmile_qr_scan", "android": "https://dc.lft.to/lastmile_qr_scan"}, "is_disabled": 0, "lon": -76.9928765, "name": "326d50cbe2f651824c29c986ef7cf715", "fusion_lon": 0.0}, {"lat": 38.884619, "fusion_lat": 0.0, "type": "electric_scooter", "bike_id": "edde9b7646f0c1996b923e08ccd61d31", "is_reserved": 0, "rental_uris": {"ios": "https://dc.lft.to/lastmile_qr_scan", "android": "https://dc.lft.to/lastmile_qr_scan"}, "is_disabled": 0, "lon": -76.957485, "name": "edde9b7646f0c1996b923e08ccd61d31", "fusion_lon": 0.0}, {"lat": 38.898629166666666, "fusion_lat": 0.0, "type": "electric_scooter", "bike_id": "d0aac51fcce18c4c0ee05a5b52972939", "is_reserved": 0, "rental_uris": {"ios": "https://dc.lft.to/lastmile_qr_scan", "android": "https://dc.lft.to/lastmile_qr_scan"}, "is_disabled": 0, "lon": -77.03951683333334, "name": "d0aac51fcce18c4c0ee05a5b52972939", "fusion_lon": 0.0}, {"lat": 38.919573666666665, "fusion_lat": 0.0, "type": "electric_scooter", "bike_id": "5a80ac4e2ffb155524bd2a676ff41d53", "is_reserved": 0, "rental_uris": {"ios": "https://dc.lft.to/lastmile_qr_scan", "android": "https://dc.lft.to/lastmile_qr_scan"}, "is_disabled": 0, "lon": -77.04491483333334, "name": "5a80ac4e2ffb155524bd2a676ff41d53", "fusion_lon": 0.0}, {"lat": 38.85896483333333, "fusion_lat": 0.0, "type": "electric_bike", "bike_id": "9149defde0e0a50a4a1f3248bbf53692", "is_reserved": 0, "rental_uris": {"ios": "https://dc.lft.to/lastmile_qr_scan", "android": "https://dc.lft.to/lastmile_qr_scan"}, "is_disabled": 0, "lon": -77.1186485, "name": "9149defde0e0a50a4a1f3248bbf53692", "fusion_lon": 0.0}, {"lat": 38.903156833333334, "fusion_lat": 0.0, "type": "electric_scooter", "bike_id": "ce0c88ad7bddaae45b198049feb298d9", "is_reserved": 0, "rental_uris": {"ios": "https://dc.lft.to/lastmile_qr_scan", "android": "https://dc.lft.to/lastmile_qr_scan"}, "is_disabled": 0, "lon": -76.97801566666666, "name": "ce0c88ad7bddaae45b198049feb298d9", "fusion_lon": 0.0}, {"lat": 38.90627, "fusion_lat": 0.0, "type": "electric_scooter", "bike_id": "52b8c97aa1a6ebb534fd3712443aff8d", "is_reserved": 0, "rental_uris": {"ios": "https://dc.lft.to/lastmile_qr_scan", "android": "https://dc.lft.to/lastmile_qr_scan"}, "is_disabled": 0, "lon": -77.02464483333333, "name": "52b8c97aa1a6ebb534fd3712443aff8d", "fusion_lon": 0.0}, {"lat": 38.91334766666667, "fusion_lat": 0.0, "type": "electric_scooter", "bike_id": "00648db0c564f70fd210914dd89bf8f3", "is_reserved": 0, "rental_uris": {"ios": "https://dc.lft.to/lastmile_qr_scan", "android": "https://dc.lft.to/lastmile_qr_scan"}, "is_disabled": 0, "lon": -77.04233616666667, "name": "00648db0c564f70fd210914dd89bf8f3", "fusion_lon": 0.0}, {"lat": 38.922354166666665, "fusion_lat": 0.0, "type": "electric_scooter", "bike_id": "768ab1a66a1dbc60ec1ffd366a65ad13", "is_reserved": 0, "rental_uris": {"ios": "https://dc.lft.to/lastmile_qr_scan", "android": "https://dc.lft.to/lastmile_qr_scan"}, "is_disabled": 0, "lon": -77.029765, "name": "768ab1a66a1dbc60ec1ffd366a65ad13", "fusion_lon": 0.0}, {"lat": 38.90858033333333, "fusion_lat": 0.0, "type": "electric_scooter", "bike_id": "b2f8e87a7047390af605162da20c4431", "is_reserved": 0, "rental_uris": {"ios": "https://dc.lft.to/lastmile_qr_scan", "android": "https://dc.lft.to/lastmile_qr_scan"}, "is_disabled": 0, "lon": -77.04762933333333, "name": "b2f8e87a7047390af605162da20c4431", "fusion_lon": 0.0}, {"lat": 38.934405, "fusion_lat": 0.0, "type": "electric_scooter", "bike_id": "701e5458cdf2edc819bc9b9ad0fe2de9", "is_reserved": 0, "rental_uris": {"ios": "https://dc.lft.to/lastmile_qr_scan", "android": "https://dc.lft.to/lastmile_qr_scan"}, "is_disabled": 0, "lon": -77.03283916666666, "name": "701e5458cdf2edc819bc9b9ad0fe2de9", "fusion_lon": 0.0}, {"lat": 38.8771645, "fusion_lat": 0.0, "type": "electric_scooter", "bike_id": "777d8b23ede8f04c07491443778caa1c", "is_reserved": 0, "rental_uris": {"ios": "https://dc.lft.to/lastmile_qr_scan", "android": "https://dc.lft.to/lastmile_qr_scan"}, "is_disabled": 0, "lon": -77.017499, "name": "777d8b23ede8f04c07491443778caa1c", "fusion_lon": 0.0}, {"lat": 38.899339833333336, "fusion_lat": 0.0, "type": "electric_scooter", "bike_id": "c5ab14c55962864fbfa191f94b5b3f58", "is_reserved": 0, "rental_uris": {"ios": "https://dc.lft.to/lastmile_qr_scan", "android": "https://dc.lft.to/lastmile_qr_scan"}, "is_disabled": 0, "lon": -77.0075285, "name": "c5ab14c55962864fbfa191f94b5b3f58", "fusion_lon": 0.0}, {"lat": 38.85066033333333, "fusion_lat": 0.0, "type": "electric_scooter", "bike_id": "154b4e6b0db87c6b84720ca11ccc628e", "is_reserved": 0, "rental_uris": {"ios": "https://dc.lft.to/lastmile_qr_scan", "android": "https://dc.lft.to/lastmile_qr_scan"}, "is_disabled": 0, "lon": -76.97010833333333, "name": "154b4e6b0db87c6b84720ca11ccc628e", "fusion_lon": 0.0}, {"lat": 38.90393, "fusion_lat": 0.0, "type": "electric_scooter", "bike_id": "b363a44c3c64574a07ed8975581c4e8e", "is_reserved": 0, "rental_uris": {"ios": "https://dc.lft.to/lastmile_qr_scan", "android": "https://dc.lft.to/lastmile_qr_scan"}, "is_disabled": 0, "lon": -77.03327216666666, "name": "b363a44c3c64574a07ed8975581c4e8e", "fusion_lon": 0.0}, {"lat": 38.89315283333333, "fusion_lat": 0.0, "type": "electric_scooter", "bike_id": "e69de2473dc0077f280d1fb2e8cc7bfa", "is_reserved": 0, "rental_uris": {"ios": "https://dc.lft.to/lastmile_qr_scan", "android": "https://dc.lft.to/lastmile_qr_scan"}, "is_disabled": 0, "lon": -76.93972033333333, "name": "e69de2473dc0077f280d1fb2e8cc7bfa", "fusion_lon": 0.0}, {"lat": 38.915659833333336, "fusion_lat": 0.0, "type": "electric_scooter", "bike_id": "04a8df42182722fe8741ec9a1d4a7250", "is_reserved": 0, "rental_uris": {"ios": "https://dc.lft.to/lastmile_qr_scan", "android": "https://dc.lft.to/lastmile_qr_scan"}, "is_disabled": 0, "lon": -77.03956066666667, "name": "04a8df42182722fe8741ec9a1d4a7250", "fusion_lon": 0.0}, {"lat": 38.883722, "fusion_lat": 0.0, "type": "electric_scooter", "bike_id": "8d0405a37b9eee5a0c2cc66743a56ea6", "is_reserved": 0, "rental_uris": {"ios": "https://dc.lft.to/lastmile_qr_scan", "android": "https://dc.lft.to/lastmile_qr_scan"}, "is_disabled": 0, "lon": -76.9952105, "name": "8d0405a37b9eee5a0c2cc66743a56ea6", "fusion_lon": 0.0}, {"lat": 38.9158775, "fusion_lat": 0.0, "type": "electric_scooter", "bike_id": "4c2951808d8c4acdc60c22fc2d515490", "is_reserved": 0, "rental_uris": {"ios": "https://dc.lft.to/lastmile_qr_scan", "android": "https://dc.lft.to/lastmile_qr_scan"}, "is_disabled": 0, "lon": -77.04534083333333, "name": "4c2951808d8c4acdc60c22fc2d515490", "fusion_lon": 0.0}, {"lat": 38.91699633333333, "fusion_lat": 0.0, "type": "electric_scooter", "bike_id": "5699d198d6128a3221d4154f6a5be4f9", "is_reserved": 0, "rental_uris": {"ios": "https://dc.lft.to/lastmile_qr_scan", "android": "https://dc.lft.to/lastmile_qr_scan"}, "is_disabled": 0, "lon": -77.010507, "name": "5699d198d6128a3221d4154f6a5be4f9", "fusion_lon": 0.0}, {"lat": 38.9054905, "fusion_lat": 0.0, "type": "electric_scooter", "bike_id": "e02e54fdaa7cdf2ce03caaa5883bcc6a", "is_reserved": 0, "rental_uris": {"ios": "https://dc.lft.to/lastmile_qr_scan", "android": "https://dc.lft.to/lastmile_qr_scan"}, "is_disabled": 0, "lon": -77.03080616666666, "name": "e02e54fdaa7cdf2ce03caaa5883bcc6a", "fusion_lon": 0.0}, {"lat": 38.95944083333333, "fusion_lat": 0.0, "type": "electric_scooter", "bike_id": "03f6963bc942474dde5475d7ac56834d", "is_reserved": 0, "rental_uris": {"ios": "https://dc.lft.to/lastmile_qr_scan", "android": "https://dc.lft.to/lastmile_qr_scan"}, "is_disabled": 0, "lon": -77.03049866666667, "name": "03f6963bc942474dde5475d7ac56834d", "fusion_lon": 0.0}, {"lat": 38.90026133333333, "fusion_lat": 0.0, "type": "electric_scooter", "bike_id": "8944c812672d8be5c9e642fe6a607965", "is_reserved": 0, "rental_uris": {"ios": "https://dc.lft.to/lastmile_qr_scan", "android": "https://dc.lft.to/lastmile_qr_scan"}, "is_disabled": 0, "lon": -76.99925133333333, "name": "8944c812672d8be5c9e642fe6a607965", "fusion_lon": 0.0}, {"lat": 38.90284583333333, "fusion_lat": 0.0, "type": "electric_scooter", "bike_id": "89ff7594d4e385ba5b305aa2050645c0", "is_reserved": 0, "rental_uris": {"ios": "https://dc.lft.to/lastmile_qr_scan", "android": "https://dc.lft.to/lastmile_qr_scan"}, "is_disabled": 0, "lon": -77.0383515, "name": "89ff7594d4e385ba5b305aa2050645c0", "fusion_lon": 0.0}, {"lat": 38.926600666666666, "fusion_lat": 0.0, "type": "electric_scooter", "bike_id": "86b69e72dc61fb8036d94c4b5b958b4c", "is_reserved": 0, "rental_uris": {"ios": "https://dc.lft.to/lastmile_qr_scan", "android": "https://dc.lft.to/lastmile_qr_scan"}, "is_disabled": 0, "lon": -76.995367, "name": "86b69e72dc61fb8036d94c4b5b958b4c", "fusion_lon": 0.0}, {"lat": 38.89862766666667, "fusion_lat": 0.0, "type": "electric_scooter", "bike_id": "858bc70920e054e5726a70b4f52dc70a", "is_reserved": 0, "rental_uris": {"ios": "https://dc.lft.to/lastmile_qr_scan", "android": "https://dc.lft.to/lastmile_qr_scan"}, "is_disabled": 0, "lon": -76.92754416666666, "name": "858bc70920e054e5726a70b4f52dc70a", "fusion_lon": 0.0}, {"lat": 38.929748833333335, "fusion_lat": 0.0, "type": "electric_scooter", "bike_id": "8c762bed57e4d6f3235f9cadf8ca7fdf", "is_reserved": 0, "rental_uris": {"ios": "https://dc.lft.to/lastmile_qr_scan", "android": "https://dc.lft.to/lastmile_qr_scan"}, "is_disabled": 0, "lon": -77.01687883333334, "name": "8c762bed57e4d6f3235f9cadf8ca7fdf", "fusion_lon": 0.0}, {"lat": 38.9087115, "fusion_lat": 0.0, "type": "electric_scooter", "bike_id": "4edf8f8d0a09bd4b8aa689cd91f53b09", "is_reserved": 0, "rental_uris": {"ios": "https://dc.lft.to/lastmile_qr_scan", "android": "https://dc.lft.to/lastmile_qr_scan"}, "is_disabled": 0, "lon": -77.032233, "name": "4edf8f8d0a09bd4b8aa689cd91f53b09", "fusion_lon": 0.0}, {"lat": 38.9131755, "fusion_lat": 0.0, "type": "electric_bike", "bike_id": "0128c0a8ade06c883a2719ebb53b7d7f", "is_reserved": 0, "rental_uris": {"ios": "https://dc.lft.to/lastmile_qr_scan", "android": "https://dc.lft.to/lastmile_qr_scan"}, "is_disabled": 0, "lon": -77.22307333333333, "name": "0128c0a8ade06c883a2719ebb53b7d7f", "fusion_lon": 0.0}, {"lat": 38.86378933333334, "fusion_lat": 0.0, "type": "electric_scooter", "bike_id": "adb007d4405920d053c996373890af6a", "is_reserved": 0, "rental_uris": {"ios": "https://dc.lft.to/lastmile_qr_scan", "android": "https://dc.lft.to/lastmile_qr_scan"}, "is_disabled": 0, "lon": -76.9905845, "name": "adb007d4405920d053c996373890af6a", "fusion_lon": 0.0}, {"lat": 38.915637, "fusion_lat": 0.0, "type": "electric_scooter", "bike_id": "775fca2a93c95a12dcb26de5595cb00e", "is_reserved": 0, "rental_uris": {"ios": "https://dc.lft.to/lastmile_qr_scan", "android": "https://dc.lft.to/lastmile_qr_scan"}, "is_disabled": 0, "lon": -77.03159016666666, "name": "775fca2a93c95a12dcb26de5595cb00e", "fusion_lon": 0.0}, {"lat": 38.90400866666667, "fusion_lat": 0.0, "type": "electric_scooter", "bike_id": "285985ee773b992148dd7b98daebc702", "is_reserved": 0, "rental_uris": {"ios": "https://dc.lft.to/lastmile_qr_scan", "android": "https://dc.lft.to/lastmile_qr_scan"}, "is_disabled": 0, "lon": -77.01615666666666, "name": "285985ee773b992148dd7b98daebc702", "fusion_lon": 0.0}, {"lat": 38.908546666666666, "fusion_lat": 0.0, "type": "electric_scooter", "bike_id": "95729b19f565f108ceb076e5c7a9e439", "is_reserved": 0, "rental_uris": {"ios": "https://dc.lft.to/lastmile_qr_scan", "android": "https://dc.lft.to/lastmile_qr_scan"}, "is_disabled": 0, "lon": -76.9979395, "name": "95729b19f565f108ceb076e5c7a9e439", "fusion_lon": 0.0}, {"lat": 38.88373516666667, "fusion_lat": 0.0, "type": "electric_scooter", "bike_id": "a39bba60d51080aabcbfc90bdedbebdd", "is_reserved": 0, "rental_uris": {"ios": "https://dc.lft.to/lastmile_qr_scan", "android": "https://dc.lft.to/lastmile_qr_scan"}, "is_disabled": 0, "lon": -76.99518833333333, "name": "a39bba60d51080aabcbfc90bdedbebdd", "fusion_lon": 0.0}, {"lat": 38.866848833333336, "fusion_lat": 0.0, "type": "electric_scooter", "bike_id": "5b1eee0401d78044e1aa7cad42182b93", "is_reserved": 0, "rental_uris": {"ios": "https://dc.lft.to/lastmile_qr_scan", "android": "https://dc.lft.to/lastmile_qr_scan"}, "is_disabled": 0, "lon": -76.98559383333334, "name": "5b1eee0401d78044e1aa7cad42182b93", "fusion_lon": 0.0}, {"lat": 38.91100216666667, "fusion_lat": 0.0, "type": "electric_scooter", "bike_id": "d583a7dab6dda94d9e4ff08a838057c7", "is_reserved": 0, "rental_uris": {"ios": "https://dc.lft.to/lastmile_qr_scan", "android": "https://dc.lft.to/lastmile_qr_scan"}, "is_disabled": 0, "lon": -77.03203983333333, "name": "d583a7dab6dda94d9e4ff08a838057c7", "fusion_lon": 0.0}, {"lat": 38.919297, "fusion_lat": 0.0, "type": "electric_scooter", "bike_id": "0554ca9216e59c0cca746a9394033a0f", "is_reserved": 0, "rental_uris": {"ios": "https://dc.lft.to/lastmile_qr_scan", "android": "https://dc.lft.to/lastmile_qr_scan"}, "is_disabled": 0, "lon": -77.04249916666667, "name": "0554ca9216e59c0cca746a9394033a0f", "fusion_lon": 0.0}, {"lat": 38.9023715, "fusion_lat": 0.0, "type": "electric_scooter", "bike_id": "56b0a1b13a4f3fd0173470a185dd6b66", "is_reserved": 0, "rental_uris": {"ios": "https://dc.lft.to/lastmile_qr_scan", "android": "https://dc.lft.to/lastmile_qr_scan"}, "is_disabled": 0, "lon": -77.039627, "name": "56b0a1b13a4f3fd0173470a185dd6b66", "fusion_lon": 0.0}, {"lat": 38.90474316666667, "fusion_lat": 0.0, "type": "electric_scooter", "bike_id": "c9355e48250ae38a3618609d79fc420f", "is_reserved": 0, "rental_uris": {"ios": "https://dc.lft.to/lastmile_qr_scan", "android": "https://dc.lft.to/lastmile_qr_scan"}, "is_disabled": 0, "lon": -77.05336083333333, "name": "c9355e48250ae38a3618609d79fc420f", "fusion_lon": 0.0}, {"lat": 38.887153833333336, "fusion_lat": 0.0, "type": "electric_scooter", "bike_id": "3960b7a9fd965ed2dc9fd2f8da9c1a59", "is_reserved": 0, "rental_uris": {"ios": "https://dc.lft.to/lastmile_qr_scan", "android": "https://dc.lft.to/lastmile_qr_scan"}, "is_disabled": 0, "lon": -77.02208133333333, "name": "3960b7a9fd965ed2dc9fd2f8da9c1a59", "fusion_lon": 0.0}, {"lat": 38.92105216666667, "fusion_lat": 0.0, "type": "electric_scooter", "bike_id": "82605d97db937adedf09406e9bc049e5", "is_reserved": 0, "rental_uris": {"ios": "https://dc.lft.to/lastmile_qr_scan", "android": "https://dc.lft.to/lastmile_qr_scan"}, "is_disabled": 0, "lon": -77.0304805, "name": "82605d97db937adedf09406e9bc049e5", "fusion_lon": 0.0}, {"lat": 38.90086933333333, "fusion_lat": 0.0, "type": "electric_scooter", "bike_id": "fa923a64db0318238fbd42863975d3a6", "is_reserved": 0, "rental_uris": {"ios": "https://dc.lft.to/lastmile_qr_scan", "android": "https://dc.lft.to/lastmile_qr_scan"}, "is_disabled": 0, "lon": -77.009108, "name": "fa923a64db0318238fbd42863975d3a6", "fusion_lon": 0.0}, {"lat": 38.9083925, "fusion_lat": 0.0, "type": "electric_scooter", "bike_id": "f16416540eecfc100853105a02dcaf71", "is_reserved": 0, "rental_uris": {"ios": "https://dc.lft.to/lastmile_qr_scan", "android": "https://dc.lft.to/lastmile_qr_scan"}, "is_disabled": 0, "lon": -77.04317, "name": "f16416540eecfc100853105a02dcaf71", "fusion_lon": 0.0}, {"lat": 38.913994833333334, "fusion_lat": 0.0, "type": "electric_scooter", "bike_id": "166db64f33c01cfbc720ea4cc8dde26c", "is_reserved": 0, "rental_uris": {"ios": "https://dc.lft.to/lastmile_qr_scan", "android": "https://dc.lft.to/lastmile_qr_scan"}, "is_disabled": 0, "lon": -77.0318025, "name": "166db64f33c01cfbc720ea4cc8dde26c", "fusion_lon": 0.0}, {"lat": 38.916343499999996, "fusion_lat": 0.0, "type": "electric_scooter", "bike_id": "60a09abb86b7c2ed7292fd9c437dbd13", "is_reserved": 0, "rental_uris": {"ios": "https://dc.lft.to/lastmile_qr_scan", "android": "https://dc.lft.to/lastmile_qr_scan"}, "is_disabled": 0, "lon": -77.02561116666666, "name": "60a09abb86b7c2ed7292fd9c437dbd13", "fusion_lon": 0.0}, {"lat": 38.90647, "fusion_lat": 0.0, "type": "electric_scooter", "bike_id": "5f47e205bfce66b07b95a2079fc266c3", "is_reserved": 0, "rental_uris": {"ios": "https://dc.lft.to/lastmile_qr_scan", "android": "https://dc.lft.to/lastmile_qr_scan"}, "is_disabled": 0, "lon": -77.00223033333333, "name": "5f47e205bfce66b07b95a2079fc266c3", "fusion_lon": 0.0}, {"lat": 38.924958, "fusion_lat": 0.0, "type": "electric_scooter", "bike_id": "b199119fa6c910c490ae40c379bd355c", "is_reserved": 0, "rental_uris": {"ios": "https://dc.lft.to/lastmile_qr_scan", "android": "https://dc.lft.to/lastmile_qr_scan"}, "is_disabled": 0, "lon": -77.05251116666666, "name": "b199119fa6c910c490ae40c379bd355c", "fusion_lon": 0.0}, {"lat": 38.87185983333333, "fusion_lat": 0.0, "type": "electric_scooter", "bike_id": "9fa1607e6ebbd8fb96d0fdf89bbe456d", "is_reserved": 0, "rental_uris": {"ios": "https://dc.lft.to/lastmile_qr_scan", "android": "https://dc.lft.to/lastmile_qr_scan"}, "is_disabled": 0, "lon": -77.0122325, "name": "9fa1607e6ebbd8fb96d0fdf89bbe456d", "fusion_lon": 0.0}, {"lat": 38.909666666666666, "fusion_lat": 0.0, "type": "electric_scooter", "bike_id": "e0b0e904dc370b0160b3b4a603622e4c", "is_reserved": 0, "rental_uris": {"ios": "https://dc.lft.to/lastmile_qr_scan", "android": "https://dc.lft.to/lastmile_qr_scan"}, "is_disabled": 0, "lon": -77.0394805, "name": "e0b0e904dc370b0160b3b4a603622e4c", "fusion_lon": 0.0}, {"lat": 38.87011783333333, "fusion_lat": 0.0, "type": "electric_scooter", "bike_id": "09eef4cd87783d113adbcbe22ff3cf0d", "is_reserved": 0, "rental_uris": {"ios": "https://dc.lft.to/lastmile_qr_scan", "android": "https://dc.lft.to/lastmile_qr_scan"}, "is_disabled": 0, "lon": -77.00833366666667, "name": "09eef4cd87783d113adbcbe22ff3cf0d", "fusion_lon": 0.0}, {"lat": 38.903961, "fusion_lat": 0.0, "type": "electric_scooter", "bike_id": "4cf3534b90846f5a2f83dd4c0a69f715", "is_reserved": 0, "rental_uris": {"ios": "https://dc.lft.to/lastmile_qr_scan", "android": "https://dc.lft.to/lastmile_qr_scan"}, "is_disabled": 0, "lon": -76.98199866666667, "name": "4cf3534b90846f5a2f83dd4c0a69f715", "fusion_lon": 0.0}, {"lat": 38.93254966666667, "fusion_lat": 0.0, "type": "electric_scooter", "bike_id": "240e8265f32c4347c0a29933c291503c", "is_reserved": 0, "rental_uris": {"ios": "https://dc.lft.to/lastmile_qr_scan", "android": "https://dc.lft.to/lastmile_qr_scan"}, "is_disabled": 0, "lon": -77.03283516666667, "name": "240e8265f32c4347c0a29933c291503c", "fusion_lon": 0.0}, {"lat": 38.891841166666666, "fusion_lat": 0.0, "type": "electric_scooter", "bike_id": "7747d2762b72a5a763b811fa388cce5b", "is_reserved": 0, "rental_uris": {"ios": "https://dc.lft.to/lastmile_qr_scan", "android": "https://dc.lft.to/lastmile_qr_scan"}, "is_disabled": 0, "lon": -77.02206116666666, "name": "7747d2762b72a5a763b811fa388cce5b", "fusion_lon": 0.0}, {"lat": 38.89801966666667, "fusion_lat": 0.0, "type": "electric_scooter", "bike_id": "14e1a396bcb4b55c8fbf2030ca26b412", "is_reserved": 0, "rental_uris": {"ios": "https://dc.lft.to/lastmile_qr_scan", "android": "https://dc.lft.to/lastmile_qr_scan"}, "is_disabled": 0, "lon": -77.01188466666666, "name": "14e1a396bcb4b55c8fbf2030ca26b412", "fusion_lon": 0.0}, {"lat": 38.92885233333333, "fusion_lat": 0.0, "type": "electric_scooter", "bike_id": "b57d4764dbcdd4cbd3572dc66c867898", "is_reserved": 0, "rental_uris": {"ios": "https://dc.lft.to/lastmile_qr_scan", "android": "https://dc.lft.to/lastmile_qr_scan"}, "is_disabled": 0, "lon": -77.033384, "name": "b57d4764dbcdd4cbd3572dc66c867898", "fusion_lon": 0.0}, {"lat": 38.90014633333333, "fusion_lat": 0.0, "type": "electric_scooter", "bike_id": "b0f7669793e1707a636f7105c35cffca", "is_reserved": 0, "rental_uris": {"ios": "https://dc.lft.to/lastmile_qr_scan", "android": "https://dc.lft.to/lastmile_qr_scan"}, "is_disabled": 0, "lon": -77.00678383333333, "name": "b0f7669793e1707a636f7105c35cffca", "fusion_lon": 0.0}, {"lat": 38.92450183333333, "fusion_lat": 0.0, "type": "electric_scooter", "bike_id": "f79faf8a2277294d74a429a8c30ec9ce", "is_reserved": 0, "rental_uris": {"ios": "https://dc.lft.to/lastmile_qr_scan", "android": "https://dc.lft.to/lastmile_qr_scan"}, "is_disabled": 0, "lon": -77.04117683333334, "name": "f79faf8a2277294d74a429a8c30ec9ce", "fusion_lon": 0.0}, {"lat": 38.897445, "fusion_lat": 0.0, "type": "electric_scooter", "bike_id": "1eb90bb2d575795bc52606dc6e65ff4c", "is_reserved": 0, "rental_uris": {"ios": "https://dc.lft.to/lastmile_qr_scan", "android": "https://dc.lft.to/lastmile_qr_scan"}, "is_disabled": 0, "lon": -77.02705383333333, "name": "1eb90bb2d575795bc52606dc6e65ff4c", "fusion_lon": 0.0}, {"lat": 38.91937166666666, "fusion_lat": 0.0, "type": "electric_scooter", "bike_id": "0478fd210bd3ef31c277d29ddbce2969", "is_reserved": 0, "rental_uris": {"ios": "https://dc.lft.to/lastmile_qr_scan", "android": "https://dc.lft.to/lastmile_qr_scan"}, "is_disabled": 0, "lon": -77.044874, "name": "0478fd210bd3ef31c277d29ddbce2969", "fusion_lon": 0.0}, {"lat": 38.8954495, "fusion_lat": 0.0, "type": "electric_scooter", "bike_id": "82f62c22782f97162238c514acb833d0", "is_reserved": 0, "rental_uris": {"ios": "https://dc.lft.to/lastmile_qr_scan", "android": "https://dc.lft.to/lastmile_qr_scan"}, "is_disabled": 0, "lon": -76.94935716666667, "name": "82f62c22782f97162238c514acb833d0", "fusion_lon": 0.0}, {"lat": 38.9103835, "fusion_lat": 0.0, "type": "electric_scooter", "bike_id": "c588eec0640c5432937fbb5ab094b7f7", "is_reserved": 0, "rental_uris": {"ios": "https://dc.lft.to/lastmile_qr_scan", "android": "https://dc.lft.to/lastmile_qr_scan"}, "is_disabled": 0, "lon": -77.03433616666666, "name": "c588eec0640c5432937fbb5ab094b7f7", "fusion_lon": 0.0}, {"lat": 38.866572833333336, "fusion_lat": 0.0, "type": "electric_scooter", "bike_id": "191e19143cc6e8be9e2c1d10e6b9c3a3", "is_reserved": 0, "rental_uris": {"ios": "https://dc.lft.to/lastmile_qr_scan", "android": "https://dc.lft.to/lastmile_qr_scan"}, "is_disabled": 0, "lon": -76.98885433333334, "name": "191e19143cc6e8be9e2c1d10e6b9c3a3", "fusion_lon": 0.0}, {"lat": 38.849246, "fusion_lat": 0.0, "type": "electric_bike", "bike_id": "aa88e1bead48bd36ca58948dd810a221", "is_reserved": 0, "rental_uris": {"ios": "https://dc.lft.to/lastmile_qr_scan", "android": "https://dc.lft.to/lastmile_qr_scan"}, "is_disabled": 0, "lon": -77.07787816666666, "name": "aa88e1bead48bd36ca58948dd810a221", "fusion_lon": 0.0}, {"lat": 38.9447775, "fusion_lat": 0.0, "type": "electric_bike", "bike_id": "ac09a207bbdffcfee8b876ae5bec37c5", "is_reserved": 0, "rental_uris": {"ios": "https://dc.lft.to/lastmile_qr_scan", "android": "https://dc.lft.to/lastmile_qr_scan"}, "is_disabled": 0, "lon": -76.986853, "name": "ac09a207bbdffcfee8b876ae5bec37c5", "fusion_lon": 0.0}, {"lat": 38.9160815, "fusion_lat": 0.0, "type": "electric_scooter", "bike_id": "0a91bc57d59a5d73782f5563738b9294", "is_reserved": 0, "rental_uris": {"ios": "https://dc.lft.to/lastmile_qr_scan", "android": "https://dc.lft.to/lastmile_qr_scan"}, "is_disabled": 0, "lon": -77.0317885, "name": "0a91bc57d59a5d73782f5563738b9294", "fusion_lon": 0.0}, {"lat": 38.90411483333333, "fusion_lat": 0.0, "type": "electric_scooter", "bike_id": "35915333a8a5da15ee99cf3a902630b8", "is_reserved": 0, "rental_uris": {"ios": "https://dc.lft.to/lastmile_qr_scan", "android": "https://dc.lft.to/lastmile_qr_scan"}, "is_disabled": 0, "lon": -76.973338, "name": "35915333a8a5da15ee99cf3a902630b8", "fusion_lon": 0.0}, {"lat": 38.91038783333333, "fusion_lat": 0.0, "type": "electric_scooter", "bike_id": "408e9d416dac54c1386de192adc6385d", "is_reserved": 0, "rental_uris": {"ios": "https://dc.lft.to/lastmile_qr_scan", "android": "https://dc.lft.to/lastmile_qr_scan"}, "is_disabled": 0, "lon": -76.98670716666666, "name": "408e9d416dac54c1386de192adc6385d", "fusion_lon": 0.0}, {"lat": 38.898518, "fusion_lat": 0.0, "type": "electric_scooter", "bike_id": "e5ff3111d963d30cdc1d342de9767345", "is_reserved": 0, "rental_uris": {"ios": "https://dc.lft.to/lastmile_qr_scan", "android": "https://dc.lft.to/lastmile_qr_scan"}, "is_disabled": 0, "lon": -77.02224066666666, "name": "e5ff3111d963d30cdc1d342de9767345", "fusion_lon": 0.0}, {"lat": 38.905145, "fusion_lat": 0.0, "type": "electric_scooter", "bike_id": "16256093130b11c4e1c8c1eae71df2b3", "is_reserved": 0, "rental_uris": {"ios": "https://dc.lft.to/lastmile_qr_scan", "android": "https://dc.lft.to/lastmile_qr_scan"}, "is_disabled": 0, "lon": -77.001385, "name": "16256093130b11c4e1c8c1eae71df2b3", "fusion_lon": 0.0}, {"lat": 38.90399016666667, "fusion_lat": 0.0, "type": "electric_scooter", "bike_id": "d3d31500e829e54254713500938ad6d9", "is_reserved": 0, "rental_uris": {"ios": "https://dc.lft.to/lastmile_qr_scan", "android": "https://dc.lft.to/lastmile_qr_scan"}, "is_disabled": 0, "lon": -77.0678235, "name": "d3d31500e829e54254713500938ad6d9", "fusion_lon": 0.0}, {"lat": 38.92089983333334, "fusion_lat": 0.0, "type": "electric_scooter", "bike_id": "e0e16fa45d53cf1cef27748bc4aa2bb9", "is_reserved": 0, "rental_uris": {"ios": "https://dc.lft.to/lastmile_qr_scan", "android": "https://dc.lft.to/lastmile_qr_scan"}, "is_disabled": 0, "lon": -77.03876666666666, "name": "e0e16fa45d53cf1cef27748bc4aa2bb9", "fusion_lon": 0.0}, {"lat": 38.92545, "fusion_lat": 0.0, "type": "electric_scooter", "bike_id": "2af2fe0b64641299397e4d03c67f2700", "is_reserved": 0, "rental_uris": {"ios": "https://dc.lft.to/lastmile_qr_scan", "android": "https://dc.lft.to/lastmile_qr_scan"}, "is_disabled": 0, "lon": -77.032943, "name": "2af2fe0b64641299397e4d03c67f2700", "fusion_lon": 0.0}, {"lat": 39.021055, "fusion_lat": 0.0, "type": "electric_bike", "bike_id": "3f795508955e5734d03d6852c536f8ac", "is_reserved": 0, "rental_uris": {"ios": "https://dc.lft.to/lastmile_qr_scan", "android": "https://dc.lft.to/lastmile_qr_scan"}, "is_disabled": 0, "lon": -77.01241066666667, "name": "3f795508955e5734d03d6852c536f8ac", "fusion_lon": 0.0}, {"lat": 38.86243666666667, "fusion_lat": 0.0, "type": "electric_scooter", "bike_id": "0f6a5105c80d762093be2e0274e2db25", "is_reserved": 0, "rental_uris": {"ios": "https://dc.lft.to/lastmile_qr_scan", "android": "https://dc.lft.to/lastmile_qr_scan"}, "is_disabled": 0, "lon": -76.99495433333334, "name": "0f6a5105c80d762093be2e0274e2db25", "fusion_lon": 0.0}, {"lat": 38.900552833333336, "fusion_lat": 0.0, "type": "electric_scooter", "bike_id": "92deb85b653eb43d22f8d6b56ca101b0", "is_reserved": 0, "rental_uris": {"ios": "https://dc.lft.to/lastmile_qr_scan", "android": "https://dc.lft.to/lastmile_qr_scan"}, "is_disabled": 0, "lon": -77.01229716666667, "name": "92deb85b653eb43d22f8d6b56ca101b0", "fusion_lon": 0.0}, {"lat": 38.918558166666664, "fusion_lat": 0.0, "type": "electric_scooter", "bike_id": "c07fc770dd1d63b872b33678d6cd22a0", "is_reserved": 0, "rental_uris": {"ios": "https://dc.lft.to/lastmile_qr_scan", "android": "https://dc.lft.to/lastmile_qr_scan"}, "is_disabled": 0, "lon": -77.04104566666666, "name": "c07fc770dd1d63b872b33678d6cd22a0", "fusion_lon": 0.0}, {"lat": 38.893232, "fusion_lat": 0.0, "type": "electric_scooter", "bike_id": "a69b05c43f151a5fba6c5cd86578c843", "is_reserved": 0, "rental_uris": {"ios": "https://dc.lft.to/lastmile_qr_scan", "android": "https://dc.lft.to/lastmile_qr_scan"}, "is_disabled": 0, "lon": -77.04994616666667, "name": "a69b05c43f151a5fba6c5cd86578c843", "fusion_lon": 0.0}, {"lat": 38.88611816666667, "fusion_lat": 0.0, "type": "electric_scooter", "bike_id": "4517ee7fd117e958faf5e750530028dd", "is_reserved": 0, "rental_uris": {"ios": "https://dc.lft.to/lastmile_qr_scan", "android": "https://dc.lft.to/lastmile_qr_scan"}, "is_disabled": 0, "lon": -77.019136, "name": "4517ee7fd117e958faf5e750530028dd", "fusion_lon": 0.0}, {"lat": 38.90708383333333, "fusion_lat": 0.0, "type": "electric_scooter", "bike_id": "9cea1b28d6d9baa25dde4eac20256851", "is_reserved": 0, "rental_uris": {"ios": "https://dc.lft.to/lastmile_qr_scan", "android": "https://dc.lft.to/lastmile_qr_scan"}, "is_disabled": 0, "lon": -77.02955433333334, "name": "9cea1b28d6d9baa25dde4eac20256851", "fusion_lon": 0.0}, {"lat": 38.92874166666667, "fusion_lat": 0.0, "type": "electric_scooter", "bike_id": "8195081a4d8fa87df9c5c61e5dcdf6a3", "is_reserved": 0, "rental_uris": {"ios": "https://dc.lft.to/lastmile_qr_scan", "android": "https://dc.lft.to/lastmile_qr_scan"}, "is_disabled": 0, "lon": -77.0285215, "name": "8195081a4d8fa87df9c5c61e5dcdf6a3", "fusion_lon": 0.0}, {"lat": 38.87180733333334, "fusion_lat": 0.0, "type": "electric_scooter", "bike_id": "0973c2fa46a6f5129c27568bd869f386", "is_reserved": 0, "rental_uris": {"ios": "https://dc.lft.to/lastmile_qr_scan", "android": "https://dc.lft.to/lastmile_qr_scan"}, "is_disabled": 0, "lon": -77.006135, "name": "0973c2fa46a6f5129c27568bd869f386", "fusion_lon": 0.0}, {"lat": 38.88750533333334, "fusion_lat": 0.0, "type": "electric_scooter", "bike_id": "effe7fa2a6d2d5b282b56dbf866674a7", "is_reserved": 0, "rental_uris": {"ios": "https://dc.lft.to/lastmile_qr_scan", "android": "https://dc.lft.to/lastmile_qr_scan"}, "is_disabled": 0, "lon": -77.02845516666666, "name": "effe7fa2a6d2d5b282b56dbf866674a7", "fusion_lon": 0.0}, {"lat": 38.91846533333333, "fusion_lat": 0.0, "type": "electric_scooter", "bike_id": "f00d7e5ba486c3d0b8c86fe2586b546f", "is_reserved": 0, "rental_uris": {"ios": "https://dc.lft.to/lastmile_qr_scan", "android": "https://dc.lft.to/lastmile_qr_scan"}, "is_disabled": 0, "lon": -77.04035816666666, "name": "f00d7e5ba486c3d0b8c86fe2586b546f", "fusion_lon": 0.0}, {"lat": 38.9197505, "fusion_lat": 0.0, "type": "electric_scooter", "bike_id": "e40aace8b76346fac046a185586577ea", "is_reserved": 0, "rental_uris": {"ios": "https://dc.lft.to/lastmile_qr_scan", "android": "https://dc.lft.to/lastmile_qr_scan"}, "is_disabled": 0, "lon": -77.01914766666667, "name": "e40aace8b76346fac046a185586577ea", "fusion_lon": 0.0}, {"lat": 38.908247333333335, "fusion_lat": 0.0, "type": "electric_scooter", "bike_id": "f30a78bd26a8da81ddee72d27cbd3ed5", "is_reserved": 0, "rental_uris": {"ios": "https://dc.lft.to/lastmile_qr_scan", "android": "https://dc.lft.to/lastmile_qr_scan"}, "is_disabled": 0, "lon": -77.03445283333333, "name": "f30a78bd26a8da81ddee72d27cbd3ed5", "fusion_lon": 0.0}, {"lat": 38.907024666666665, "fusion_lat": 0.0, "type": "electric_scooter", "bike_id": "de644fbdbb62fd362ac43080c93a081b", "is_reserved": 0, "rental_uris": {"ios": "https://dc.lft.to/lastmile_qr_scan", "android": "https://dc.lft.to/lastmile_qr_scan"}, "is_disabled": 0, "lon": -77.023921, "name": "de644fbdbb62fd362ac43080c93a081b", "fusion_lon": 0.0}, {"lat": 38.9365505, "fusion_lat": 0.0, "type": "electric_scooter", "bike_id": "7d622b5fc168c18c832546593b096652", "is_reserved": 0, "rental_uris": {"ios": "https://dc.lft.to/lastmile_qr_scan", "android": "https://dc.lft.to/lastmile_qr_scan"}, "is_disabled": 0, "lon": -77.02640266666667, "name": "7d622b5fc168c18c832546593b096652", "fusion_lon": 0.0}, {"lat": 38.86940083333333, "fusion_lat": 0.0, "type": "electric_bike", "bike_id": "28445c8d0865378cfec84948eca2fe76", "is_reserved": 0, "rental_uris": {"ios": "https://dc.lft.to/lastmile_qr_scan", "android": "https://dc.lft.to/lastmile_qr_scan"}, "is_disabled": 0, "lon": -77.09468283333334, "name": "28445c8d0865378cfec84948eca2fe76", "fusion_lon": 0.0}, {"lat": 38.883743833333334, "fusion_lat": 0.0, "type": "electric_scooter", "bike_id": "403e11b0737fb6d29ec1ae60698b822a", "is_reserved": 0, "rental_uris": {"ios": "https://dc.lft.to/lastmile_qr_scan", "android": "https://dc.lft.to/lastmile_qr_scan"}, "is_disabled": 0, "lon": -76.9951865, "name": "403e11b0737fb6d29ec1ae60698b822a", "fusion_lon": 0.0}, {"lat": 38.95918783333333, "fusion_lat": 0.0, "type": "electric_bike", "bike_id": "72ad093492c1b2e7cee8407f76971b1f", "is_reserved": 0, "rental_uris": {"ios": "https://dc.lft.to/lastmile_qr_scan", "android": "https://dc.lft.to/lastmile_qr_scan"}, "is_disabled": 0, "lon": -77.08476666666667, "name": "72ad093492c1b2e7cee8407f76971b1f", "fusion_lon": 0.0}, {"lat": 38.888507, "fusion_lat": 0.0, "type": "electric_scooter", "bike_id": "fb821b5855801f807e878ca5198950f3", "is_reserved": 0, "rental_uris": {"ios": "https://dc.lft.to/lastmile_qr_scan", "android": "https://dc.lft.to/lastmile_qr_scan"}, "is_disabled": 0, "lon": -76.92682916666666, "name": "fb821b5855801f807e878ca5198950f3", "fusion_lon": 0.0}, {"lat": 38.907417333333335, "fusion_lat": 0.0, "type": "electric_scooter", "bike_id": "ff7b4a15c1f46cfc7b9b513108f37871", "is_reserved": 0, "rental_uris": {"ios": "https://dc.lft.to/lastmile_qr_scan", "android": "https://dc.lft.to/lastmile_qr_scan"}, "is_disabled": 0, "lon": -77.00930683333333, "name": "ff7b4a15c1f46cfc7b9b513108f37871", "fusion_lon": 0.0}, {"lat": 38.91701283333333, "fusion_lat": 0.0, "type": "electric_scooter", "bike_id": "2aa4c27eb2ea1a9115ab26cd588765ab", "is_reserved": 0, "rental_uris": {"ios": "https://dc.lft.to/lastmile_qr_scan", "android": "https://dc.lft.to/lastmile_qr_scan"}, "is_disabled": 0, "lon": -77.03390466666667, "name": "2aa4c27eb2ea1a9115ab26cd588765ab", "fusion_lon": 0.0}, {"lat": 38.88436633333333, "fusion_lat": 0.0, "type": "electric_scooter", "bike_id": "de70e70f8765df1c221563e811a46d8b", "is_reserved": 0, "rental_uris": {"ios": "https://dc.lft.to/lastmile_qr_scan", "android": "https://dc.lft.to/lastmile_qr_scan"}, "is_disabled": 0, "lon": -76.95750466666667, "name": "de70e70f8765df1c221563e811a46d8b", "fusion_lon": 0.0}, {"lat": 38.91516583333333, "fusion_lat": 0.0, "type": "electric_scooter", "bike_id": "ea9dc3b5f70b3363b165ddac1e1f143a", "is_reserved": 0, "rental_uris": {"ios": "https://dc.lft.to/lastmile_qr_scan", "android": "https://dc.lft.to/lastmile_qr_scan"}, "is_disabled": 0, "lon": -77.06851883333333, "name": "ea9dc3b5f70b3363b165ddac1e1f143a", "fusion_lon": 0.0}, {"lat": 38.92585183333333, "fusion_lat": 0.0, "type": "electric_scooter", "bike_id": "83a7997168db6822517c1bae19896e1a", "is_reserved": 0, "rental_uris": {"ios": "https://dc.lft.to/lastmile_qr_scan", "android": "https://dc.lft.to/lastmile_qr_scan"}, "is_disabled": 0, "lon": -77.02759766666667, "name": "83a7997168db6822517c1bae19896e1a", "fusion_lon": 0.0}, {"lat": 38.93717616666667, "fusion_lat": 0.0, "type": "electric_scooter", "bike_id": "72934f75306e67197b4626fbf0c0bd46", "is_reserved": 0, "rental_uris": {"ios": "https://dc.lft.to/lastmile_qr_scan", "android": "https://dc.lft.to/lastmile_qr_scan"}, "is_disabled": 0, "lon": -77.036375, "name": "72934f75306e67197b4626fbf0c0bd46", "fusion_lon": 0.0}, {"lat": 38.899192, "fusion_lat": 0.0, "type": "electric_scooter", "bike_id": "ad766b6175535e7f1380411fd9c15e46", "is_reserved": 0, "rental_uris": {"ios": "https://dc.lft.to/lastmile_qr_scan", "android": "https://dc.lft.to/lastmile_qr_scan"}, "is_disabled": 0, "lon": -76.93407533333334, "name": "ad766b6175535e7f1380411fd9c15e46", "fusion_lon": 0.0}, {"lat": 38.833672, "fusion_lat": 0.0, "type": "electric_scooter", "bike_id": "388bac2dba30d892410065a28ad6df8d", "is_reserved": 0, "rental_uris": {"ios": "https://dc.lft.to/lastmile_qr_scan", "android": "https://dc.lft.to/lastmile_qr_scan"}, "is_disabled": 0, "lon": -76.99661666666667, "name": "388bac2dba30d892410065a28ad6df8d", "fusion_lon": 0.0}, {"lat": 38.911323333333335, "fusion_lat": 0.0, "type": "electric_scooter", "bike_id": "b398ffdf45f5ec44fece1f77ee307704", "is_reserved": 0, "rental_uris": {"ios": "https://dc.lft.to/lastmile_qr_scan", "android": "https://dc.lft.to/lastmile_qr_scan"}, "is_disabled": 0, "lon": -77.03849683333334, "name": "b398ffdf45f5ec44fece1f77ee307704", "fusion_lon": 0.0}, {"lat": 38.93495016666667, "fusion_lat": 0.0, "type": "electric_scooter", "bike_id": "672be6be9fc127a8257224e28f364c8a", "is_reserved": 0, "rental_uris": {"ios": "https://dc.lft.to/lastmile_qr_scan", "android": "https://dc.lft.to/lastmile_qr_scan"}, "is_disabled": 0, "lon": -77.03284533333333, "name": "672be6be9fc127a8257224e28f364c8a", "fusion_lon": 0.0}, {"lat": 38.910824, "fusion_lat": 0.0, "type": "electric_scooter", "bike_id": "32d38562943cc44b17b585ca3fb60a4b", "is_reserved": 0, "rental_uris": {"ios": "https://dc.lft.to/lastmile_qr_scan", "android": "https://dc.lft.to/lastmile_qr_scan"}, "is_disabled": 0, "lon": -77.00857483333333, "name": "32d38562943cc44b17b585ca3fb60a4b", "fusion_lon": 0.0}, {"lat": 38.9354535, "fusion_lat": 0.0, "type": "electric_scooter", "bike_id": "5da235c54b32ad79c510a8e4f4116608", "is_reserved": 0, "rental_uris": {"ios": "https://dc.lft.to/lastmile_qr_scan", "android": "https://dc.lft.to/lastmile_qr_scan"}, "is_disabled": 0, "lon": -77.05823266666667, "name": "5da235c54b32ad79c510a8e4f4116608", "fusion_lon": 0.0}, {"lat": 38.932682666666665, "fusion_lat": 0.0, "type": "electric_scooter", "bike_id": "8be6d7780b3f2c840a522da12096f7fb", "is_reserved": 0, "rental_uris": {"ios": "https://dc.lft.to/lastmile_qr_scan", "android": "https://dc.lft.to/lastmile_qr_scan"}, "is_disabled": 0, "lon": -77.01923066666667, "name": "8be6d7780b3f2c840a522da12096f7fb", "fusion_lon": 0.0}, {"lat": 38.893451166666665, "fusion_lat": 0.0, "type": "electric_scooter", "bike_id": "089e6354674465fa6e5705233ee0774f", "is_reserved": 0, "rental_uris": {"ios": "https://dc.lft.to/lastmile_qr_scan", "android": "https://dc.lft.to/lastmile_qr_scan"}, "is_disabled": 0, "lon": -77.02416666666667, "name": "089e6354674465fa6e5705233ee0774f", "fusion_lon": 0.0}, {"lat": 38.900288833333335, "fusion_lat": 0.0, "type": "electric_scooter", "bike_id": "4aef2c495aa07462158f3854e91edc7b", "is_reserved": 0, "rental_uris": {"ios": "https://dc.lft.to/lastmile_qr_scan", "android": "https://dc.lft.to/lastmile_qr_scan"}, "is_disabled": 0, "lon": -76.9948595, "name": "4aef2c495aa07462158f3854e91edc7b", "fusion_lon": 0.0}, {"lat": 38.93285216666666, "fusion_lat": 0.0, "type": "electric_scooter", "bike_id": "1538b89cbf7cacb8736fe19a02e04188", "is_reserved": 0, "rental_uris": {"ios": "https://dc.lft.to/lastmile_qr_scan", "android": "https://dc.lft.to/lastmile_qr_scan"}, "is_disabled": 0, "lon": -77.0265495, "name": "1538b89cbf7cacb8736fe19a02e04188", "fusion_lon": 0.0}, {"lat": 38.90226533333333, "fusion_lat": 0.0, "type": "electric_scooter", "bike_id": "c119ccb475c9f5c08e4eadd094db060e", "is_reserved": 0, "rental_uris": {"ios": "https://dc.lft.to/lastmile_qr_scan", "android": "https://dc.lft.to/lastmile_qr_scan"}, "is_disabled": 0, "lon": -77.023803, "name": "c119ccb475c9f5c08e4eadd094db060e", "fusion_lon": 0.0}, {"lat": 38.952537666666665, "fusion_lat": 0.0, "type": "electric_bike", "bike_id": "2ce2b985b6f07a13464ae9d62afe860c", "is_reserved": 0, "rental_uris": {"ios": "https://dc.lft.to/lastmile_qr_scan", "android": "https://dc.lft.to/lastmile_qr_scan"}, "is_disabled": 0, "lon": -76.97673233333333, "name": "2ce2b985b6f07a13464ae9d62afe860c", "fusion_lon": 0.0}, {"lat": 38.90660583333333, "fusion_lat": 0.0, "type": "electric_scooter", "bike_id": "5d83108702491f58e25dc200b7dd0228", "is_reserved": 0, "rental_uris": {"ios": "https://dc.lft.to/lastmile_qr_scan", "android": "https://dc.lft.to/lastmile_qr_scan"}, "is_disabled": 0, "lon": -77.00996816666667, "name": "5d83108702491f58e25dc200b7dd0228", "fusion_lon": 0.0}, {"lat": 38.91728533333333, "fusion_lat": 0.0, "type": "electric_scooter", "bike_id": "549791e6df73e29d0f5f9895c74d0df6", "is_reserved": 0, "rental_uris": {"ios": "https://dc.lft.to/lastmile_qr_scan", "android": "https://dc.lft.to/lastmile_qr_scan"}, "is_disabled": 0, "lon": -77.02507916666667, "name": "549791e6df73e29d0f5f9895c74d0df6", "fusion_lon": 0.0}, {"lat": 38.913661166666664, "fusion_lat": 0.0, "type": "electric_scooter", "bike_id": "e32101514c685d27d396140b0ccfe50a", "is_reserved": 0, "rental_uris": {"ios": "https://dc.lft.to/lastmile_qr_scan", "android": "https://dc.lft.to/lastmile_qr_scan"}, "is_disabled": 0, "lon": -77.06935933333334, "name": "e32101514c685d27d396140b0ccfe50a", "fusion_lon": 0.0}, {"lat": 38.92266433333333, "fusion_lat": 0.0, "type": "electric_scooter", "bike_id": "9d851b754ea85317967931be8be4cf30", "is_reserved": 0, "rental_uris": {"ios": "https://dc.lft.to/lastmile_qr_scan", "android": "https://dc.lft.to/lastmile_qr_scan"}, "is_disabled": 0, "lon": -77.02182133333334, "name": "9d851b754ea85317967931be8be4cf30", "fusion_lon": 0.0}, {"lat": 38.91903333333333, "fusion_lat": 0.0, "type": "electric_scooter", "bike_id": "48f68ce9bcfb141919663491dcde8278", "is_reserved": 0, "rental_uris": {"ios": "https://dc.lft.to/lastmile_qr_scan", "android": "https://dc.lft.to/lastmile_qr_scan"}, "is_disabled": 0, "lon": -77.024062, "name": "48f68ce9bcfb141919663491dcde8278", "fusion_lon": 0.0}, {"lat": 38.834320166666664, "fusion_lat": 0.0, "type": "electric_bike", "bike_id": "ae0c0f0551b92e6818d966ffeaeed8fb", "is_reserved": 0, "rental_uris": {"ios": "https://dc.lft.to/lastmile_qr_scan", "android": "https://dc.lft.to/lastmile_qr_scan"}, "is_disabled": 0, "lon": -77.10357766666667, "name": "ae0c0f0551b92e6818d966ffeaeed8fb", "fusion_lon": 0.0}, {"lat": 38.90688683333333, "fusion_lat": 0.0, "type": "electric_scooter", "bike_id": "f3c3c650bba0f7957a89bf5e46bb08ba", "is_reserved": 0, "rental_uris": {"ios": "https://dc.lft.to/lastmile_qr_scan", "android": "https://dc.lft.to/lastmile_qr_scan"}, "is_disabled": 0, "lon": -77.053173, "name": "f3c3c650bba0f7957a89bf5e46bb08ba", "fusion_lon": 0.0}, {"lat": 38.920224833333336, "fusion_lat": 0.0, "type": "electric_scooter", "bike_id": "0358d1666058828e49a51135f8de10bb", "is_reserved": 0, "rental_uris": {"ios": "https://dc.lft.to/lastmile_qr_scan", "android": "https://dc.lft.to/lastmile_qr_scan"}, "is_disabled": 0, "lon": -77.019578, "name": "0358d1666058828e49a51135f8de10bb", "fusion_lon": 0.0}, {"lat": 38.9025345, "fusion_lat": 0.0, "type": "electric_scooter", "bike_id": "31bde57bcda67bcdb892ad35d1971371", "is_reserved": 0, "rental_uris": {"ios": "https://dc.lft.to/lastmile_qr_scan", "android": "https://dc.lft.to/lastmile_qr_scan"}, "is_disabled": 0, "lon": -77.0176225, "name": "31bde57bcda67bcdb892ad35d1971371", "fusion_lon": 0.0}, {"lat": 38.91043616666666, "fusion_lat": 0.0, "type": "electric_scooter", "bike_id": "acef3b43598e3ff64fc7abf09f9a33b7", "is_reserved": 0, "rental_uris": {"ios": "https://dc.lft.to/lastmile_qr_scan", "android": "https://dc.lft.to/lastmile_qr_scan"}, "is_disabled": 0, "lon": -77.04349716666667, "name": "acef3b43598e3ff64fc7abf09f9a33b7", "fusion_lon": 0.0}, {"lat": 38.956597333333335, "fusion_lat": 0.0, "type": "electric_scooter", "bike_id": "b046fa7f0ea0ff74d2de0261ab11e05c", "is_reserved": 0, "rental_uris": {"ios": "https://dc.lft.to/lastmile_qr_scan", "android": "https://dc.lft.to/lastmile_qr_scan"}, "is_disabled": 0, "lon": -77.01032383333333, "name": "b046fa7f0ea0ff74d2de0261ab11e05c", "fusion_lon": 0.0}, {"lat": 38.949871, "fusion_lat": 0.0, "type": "electric_scooter", "bike_id": "dc0d1f4c83c58b05c444ef5b51912645", "is_reserved": 0, "rental_uris": {"ios": "https://dc.lft.to/lastmile_qr_scan", "android": "https://dc.lft.to/lastmile_qr_scan"}, "is_disabled": 0, "lon": -77.02648483333333, "name": "dc0d1f4c83c58b05c444ef5b51912645", "fusion_lon": 0.0}, {"lat": 38.9275985, "fusion_lat": 0.0, "type": "electric_scooter", "bike_id": "ea91cd70dd7e16152a459928703cf26e", "is_reserved": 0, "rental_uris": {"ios": "https://dc.lft.to/lastmile_qr_scan", "android": "https://dc.lft.to/lastmile_qr_scan"}, "is_disabled": 0, "lon": -77.03276, "name": "ea91cd70dd7e16152a459928703cf26e", "fusion_lon": 0.0}, {"lat": 38.91425616666667, "fusion_lat": 0.0, "type": "electric_scooter", "bike_id": "ccadcf1beea19fd043aeae0b11a91a49", "is_reserved": 0, "rental_uris": {"ios": "https://dc.lft.to/lastmile_qr_scan", "android": "https://dc.lft.to/lastmile_qr_scan"}, "is_disabled": 0, "lon": -77.03209483333333, "name": "ccadcf1beea19fd043aeae0b11a91a49", "fusion_lon": 0.0},