{"data": {"bikes": [{"lat": 38.92476533333333, "fusion_lat": 0.0, "type": "electric_scooter", "name": "03017e2a45b05b0412388b3e9c459963", "is_disabled": 0, "bike_id": "03017e2a45b05b0412388b3e9c459963", "lon": -77.02890883333333, "rental_uris": {"android": "https://dc.lft.to/lastmile_qr_scan", "ios": "https://dc.lft.to/lastmile_qr_scan"}, "fusion_lon": 0.0, "is_reserved": 0}, {"lat": 38.90123783333333, "fusion_lat": 0.0, "type": "electric_scooter", "name": "9dd90a361008b89d55514bc3845129a6", "is_disabled": 0, "bike_id": "9dd90a361008b89d55514bc3845129a6", "lon": -77.04157433333333, "rental_uris": {"android": "https://dc.lft.to/lastmile_qr_scan", "ios": "https://dc.lft.to/lastmile_qr_scan"}, "fusion_lon": 0.0, "is_reserved": 0}, {"lat": 38.996720333333336, "fusion_lat": 0.0, "type": "electric_bike", "name": "1a7a9fa1892c27f5e61f901e56c92d20", "is_disabled": 0, "bike_id": "1a7a9fa1892c27f5e61f901e56c92d20", "lon": -77.0379655, "rental_uris": {"android": "https://dc.lft.to/lastmile_qr_scan", "ios": "https://dc.lft.to/lastmile_qr_scan"}, "fusion_lon": 0.0, "is_reserved": 0}, {"lat": 38.926839, "fusion_lat": 0.0, "type": "electric_scooter", "name": "68ce6ac8922033ae1cd5cf7908df109f", "is_disabled": 0, "bike_id": "68ce6ac8922033ae1cd5cf7908df109f", "lon": -77.00699216666666, "rental_uris": {"android": "https://dc.lft.to/lastmile_qr_scan", "ios": "https://dc.lft.to/lastmile_qr_scan"}, "fusion_lon": 0.0, "is_reserved": 0}, {"lat": 38.93047416666667, "fusion_lat": 0.0, "type": "electric_scooter", "name": "89133656a98ede8db57f2e55c1a67e92", "is_disabled": 0, "bike_id": "89133656a98ede8db57f2e55c1a67e92", "lon": -77.02346916666667, "rental_uris": {"android": "https://dc.lft.to/lastmile_qr_scan", "ios": "https://dc.lft.to/lastmile_qr_scan"}, "fusion_lon": 0.0, "is_reserved": 0}, {"lat": 38.89656733333333, "fusion_lat": 0.0, "type": "electric_scooter", "name": "dee6cdfe76d0f5204d16917c00d6fb58", "is_disabled": 0, "bike_id": "dee6cdfe76d0f5204d16917c00d6fb58", "lon": -77.050222, "rental_uris": {"android": "https://dc.lft.to/lastmile_qr_scan", "ios": "https://dc.lft.to/lastmile_qr_scan"}, "fusion_lon": 0.0, "is_reserved": 0}, {"lat": 38.9086505, "fusion_lat": 0.0, "type": "electric_scooter", "name": "ac024650e24e29e2eb62790b3df3ead7", "is_disabled": 0, "bike_id": "ac024650e24e29e2eb62790b3df3ead7", "lon": -77.04499266666667, "rental_uris": {"android": "https://dc.lft.to/lastmile_qr_scan", "ios": "https://dc.lft.to/lastmile_qr_scan"}, "fusion_lon": 0.0, "is_reserved": 0}, {"lat": 38.92457116666667, "fusion_lat": 0.0, "type": "electric_scooter", "name": "2a30ed7795a1e08a0253d95717006116", "is_disabled": 0, "bike_id": "2a30ed7795a1e08a0253d95717006116", "lon": -77.03298816666667, "rental_uris": {"android": "https://dc.lft.to/lastmile_qr_scan", "ios": "https://dc.lft.to/lastmile_qr_scan"}, "fusion_lon": 0.0, "is_reserved": 0}, {"lat": 38.92312116666667, "fusion_lat": 0.0, "type": "electric_scooter", "name": "2b5b68128cace3b32a9ed6534d751078", "is_disabled": 0, "bike_id": "2b5b68128cace3b32a9ed6534d751078", "lon": -77.04216433333333, "rental_uris": {"android": "https://dc.lft.to/lastmile_qr_scan", "ios": "https://dc.lft.to/lastmile_qr_scan"}, "fusion_lon": 0.0, "is_reserved": 0}, {"lat": 38.91845433333334, "fusion_lat": 0.0, "type": "electric_scooter", "name": "26a76df93a31cc8d9ac1ec1d596c5b7d", "is_disabled": 0, "bike_id": "26a76df93a31cc8d9ac1ec1d596c5b7d", "lon": -77.04829116666667, "rental_uris": {"android": "https://dc.lft.to/lastmile_qr_scan", "ios": "https://dc.lft.to/lastmile_qr_scan"}, "fusion_lon": 0.0, "is_reserved": 0}, {"lat": 38.8898495, "fusion_lat": 0.0, "type": "electric_scooter", "name": "93145c1fbe6ae4ba38c3130b7ff39fd3", "is_disabled": 0, "bike_id": "93145c1fbe6ae4ba38c3130b7ff39fd3", "lon": -76.95422616666667, "rental_uris": {"android": "https://dc.lft.to/lastmile_qr_scan", "ios": "https://dc.lft.to/lastmile_qr_scan"}, "fusion_lon": 0.0, "is_reserved": 0}, {"lat": 38.9309285, "fusion_lat": 0.0, "type": "electric_scooter", "name": "23d2f640a5365ca2086902561c2a6a5a", "is_disabled": 0, "bike_id": "23d2f640a5365ca2086902561c2a6a5a", "lon": -77.024905, "rental_uris": {"android": "https://dc.lft.to/lastmile_qr_scan", "ios": "https://dc.lft.to/lastmile_qr_scan"}, "fusion_lon": 0.0, "is_reserved": 0}, {"lat": 38.8956295, "fusion_lat": 0.0, "type": "electric_scooter", "name": "f3063d00e640949a23e5028b9ad98372", "is_disabled": 0, "bike_id": "f3063d00e640949a23e5028b9ad98372", "lon": -77.04673033333333, "rental_uris": {"android": "https://dc.lft.to/lastmile_qr_scan", "ios": "https://dc.lft.to/lastmile_qr_scan"}, "fusion_lon": 0.0, "is_reserved": 0}, {"lat": 38.90468516666667, "fusion_lat": 0.0, "type": "electric_scooter", "name": "2b749918f71f75f5d8b384176dce586b", "is_disabled": 0, "bike_id": "2b749918f71f75f5d8b384176dce586b", "lon": -77.04379183333333, "rental_uris": {"android": "https://dc.lft.to/lastmile_qr_scan", "ios": "https://dc.lft.to/lastmile_qr_scan"}, "fusion_lon": 0.0, "is_reserved": 0}, {"lat": 38.92071683333333, "fusion_lat": 0.0, "type": "electric_scooter", "name": "d76c1d389b20aa3eacc53e561886f953", "is_disabled": 0, "bike_id": "d76c1d389b20aa3eacc53e561886f953", "lon": -77.02433716666667, "rental_uris": {"android": "https://dc.lft.to/lastmile_qr_scan", "ios": "https://dc.lft.to/lastmile_qr_scan"}, "fusion_lon": 0.0, "is_reserved": 0}, {"lat": 38.91327233333333, "fusion_lat": 0.0, "type": "electric_scooter", "name": "d8da17c162c96354ae740df56c0eb539", "is_disabled": 0, "bike_id": "d8da17c162c96354ae740df56c0eb539", "lon": -77.03181, "rental_uris": {"android": "https://dc.lft.to/lastmile_qr_scan", "ios": "https://dc.lft.to/lastmile_qr_scan"}, "fusion_lon": 0.0, "is_reserved": 0}, {"lat": 38.949023, "fusion_lat": 0.0, "type": "electric_bike", "name": "e091e5ee163f6f40c4eebb2ce161211f", "is_disabled": 0, "bike_id": "e091e5ee163f6f40c4eebb2ce161211f", "lon": -76.963705, "rental_uris": {"android": "https://dc.lft.to/lastmile_qr_scan", "ios": "https://dc.lft.to/lastmile_qr_scan"}, "fusion_lon": 0.0, "is_reserved": 0}, {"lat": 38.892209666666666, "fusion_lat": 0.0, "type": "electric_scooter", "name": "d7481ae749425b914224039072db30b4", "is_disabled": 0, "bike_id": "d7481ae749425b914224039072db30b4", "lon": -77.041905, "rental_uris": {"android": "https://dc.lft.to/lastmile_qr_scan", "ios": "https://dc.lft.to/lastmile_qr_scan"}, "fusion_lon": 0.0, "is_reserved": 0}, {"lat": 38.942302166666664, "fusion_lat": 0.0, "type": "electric_scooter", "name": "a71731e758176fbf81994f24a6b52be7", "is_disabled": 0, "bike_id": "a71731e758176fbf81994f24a6b52be7", "lon": -77.013892, "rental_uris": {"android": "https://dc.lft.to/lastmile_qr_scan", "ios": "https://dc.lft.to/lastmile_qr_scan"}, "fusion_lon": 0.0, "is_reserved": 0}, {"lat": 38.902322166666664, "fusion_lat": 0.0, "type": "electric_scooter", "name": "40435566d5639e714a50cd13c4b33ba7", "is_disabled": 0, "bike_id": "40435566d5639e714a50cd13c4b33ba7", "lon": -77.03159883333333, "rental_uris": {"android": "https://dc.lft.to/lastmile_qr_scan", "ios": "https://dc.lft.to/lastmile_qr_scan"}, "fusion_lon": 0.0, "is_reserved": 0}, {"lat": 38.91717033333333, "fusion_lat": 0.0, "type": "electric_scooter", "name": "6ea74bb0e6ddabbd585f3a794d96c670", "is_disabled": 0, "bike_id": "6ea74bb0e6ddabbd585f3a794d96c670", "lon": -77.03858166666667, "rental_uris": {"android": "https://dc.lft.to/lastmile_qr_scan", "ios": "https://dc.lft.to/lastmile_qr_scan"}, "fusion_lon": 0.0, "is_reserved": 0}, {"lat": 38.90428283333333, "fusion_lat": 0.0, "type": "electric_bike", "name": "563559f86e494dabe10b93687474b589", "is_disabled": 0, "bike_id": "563559f86e494dabe10b93687474b589", "lon": -76.972328, "rental_uris": {"android": "https://dc.lft.to/lastmile_qr_scan", "ios": "https://dc.lft.to/lastmile_qr_scan"}, "fusion_lon": 0.0, "is_reserved": 0}, {"lat": 38.903721, "fusion_lat": 0.0, "type": "electric_scooter", "name": "905a85713dcf35abfd1aa02dd52028d6", "is_disabled": 0, "bike_id": "905a85713dcf35abfd1aa02dd52028d6", "lon": -77.03313666666666, "rental_uris": {"android": "https://dc.lft.to/lastmile_qr_scan", "ios": "https://dc.lft.to/lastmile_qr_scan"}, "fusion_lon": 0.0, "is_reserved": 0}, {"lat": 38.93048066666667, "fusion_lat": 0.0, "type": "electric_bike", "name": "9d110bc92590fecb8669e877b2a75f98", "is_disabled": 0, "bike_id": "9d110bc92590fecb8669e877b2a75f98", "lon": -76.95835433333333, "rental_uris": {"android": "https://dc.lft.to/lastmile_qr_scan", "ios": "https://dc.lft.to/lastmile_qr_scan"}, "fusion_lon": 0.0, "is_reserved": 0}, {"lat": 38.981093333333334, "fusion_lat": 0.0, "type": "electric_scooter", "name": "756c89a2747f89a461a3fee71e91d49e", "is_disabled": 0, "bike_id": "756c89a2747f89a461a3fee71e91d49e", "lon": -77.02238283333334, "rental_uris": {"android": "https://dc.lft.to/lastmile_qr_scan", "ios": "https://dc.lft.to/lastmile_qr_scan"}, "fusion_lon": 0.0, "is_reserved": 0}, {"lat": 38.87178316666667, "fusion_lat": 0.0, "type": "electric_scooter", "name": "0169d37c2a03a65c8357354a09c0f5ef", "is_disabled": 0, "bike_id": "0169d37c2a03a65c8357354a09c0f5ef", "lon": -77.0060855, "rental_uris": {"android": "https://dc.lft.to/lastmile_qr_scan", "ios": "https://dc.lft.to/lastmile_qr_scan"}, "fusion_lon": 0.0, "is_reserved": 0}, {"lat": 38.92379316666667, "fusion_lat": 0.0, "type": "electric_scooter", "name": "18eec298cf947c663372f6506b53c74c", "is_disabled": 0, "bike_id": "18eec298cf947c663372f6506b53c74c", "lon": -77.05148833333334, "rental_uris": {"android": "https://dc.lft.to/lastmile_qr_scan", "ios": "https://dc.lft.to/lastmile_qr_scan"}, "fusion_lon": 0.0, "is_reserved": 0}, {"lat": 38.90031233333333, "fusion_lat": 0.0, "type": "electric_scooter", "name": "3ff2dc8bde19bc9d14c62766bb88ac4d", "is_disabled": 0, "bike_id": "3ff2dc8bde19bc9d14c62766bb88ac4d", "lon": -76.98767216666667, "rental_uris": {"android": "https://dc.lft.to/lastmile_qr_scan", "ios": "https://dc.lft.to/lastmile_qr_scan"}, "fusion_lon": 0.0, "is_reserved": 0}, {"lat": 38.90113066666667, "fusion_lat": 0.0, "type": "electric_scooter", "name": "8c36e8cce7914304cfa2e4372e3e9070", "is_disabled": 0, "bike_id": "8c36e8cce7914304cfa2e4372e3e9070", "lon": -77.0243295, "rental_uris": {"android": "https://dc.lft.to/lastmile_qr_scan", "ios": "https://dc.lft.to/lastmile_qr_scan"}, "fusion_lon": 0.0, "is_reserved": 0}, {"lat": 38.91827033333333, "fusion_lat": 0.0, "type": "electric_scooter", "name": "12b8152c087497097d6a8a6d1c600c93", "is_disabled": 0, "bike_id": "12b8152c087497097d6a8a6d1c600c93", "lon": -77.034646, "rental_uris": {"android": "https://dc.lft.to/lastmile_qr_scan", "ios": "https://dc.lft.to/lastmile_qr_scan"}, "fusion_lon": 0.0, "is_reserved": 0}, {"lat": 38.893663, "fusion_lat": 0.0, "type": "electric_scooter", "name": "5a66349f3d2e44fb341a7f18abbd3b61", "is_disabled": 0, "bike_id": "5a66349f3d2e44fb341a7f18abbd3b61", "lon": -77.02835366666666, "rental_uris": {"android": "https://dc.lft.to/lastmile_qr_scan", "ios": "https://dc.lft.to/lastmile_qr_scan"}, "fusion_lon": 0.0, "is_reserved": 0}, {"lat": 38.8579075, "fusion_lat": 0.0, "type": "electric_bike", "name": "fad9bc66bfcefc35a556df3807018f7d", "is_disabled": 0, "bike_id": "fad9bc66bfcefc35a556df3807018f7d", "lon": -77.09957866666667, "rental_uris": {"android": "https://dc.lft.to/lastmile_qr_scan", "ios": "https://dc.lft.to/lastmile_qr_scan"}, "fusion_lon": 0.0, "is_reserved": 0}, {"lat": 39.03304966666666, "fusion_lat": 0.0, "type": "electric_bike", "name": "e5456b9d4d955bf314e65e0d004c4224", "is_disabled": 0, "bike_id": "e5456b9d4d955bf314e65e0d004c4224", "lon": -77.045263, "rental_uris": {"android": "https://dc.lft.to/lastmile_qr_scan", "ios": "https://dc.lft.to/lastmile_qr_scan"}, "fusion_lon": 0.0, "is_reserved": 0}, {"lat": 38.91352966666667, "fusion_lat": 0.0, "type": "electric_scooter", "name": "44a099364486d2795fee389030cce7b6", "is_disabled": 0, "bike_id": "44a099364486d2795fee389030cce7b6", "lon": -77.0320355, "rental_uris": {"android": "https://dc.lft.to/lastmile_qr_scan", "ios": "https://dc.lft.to/lastmile_qr_scan"}, "fusion_lon": 0.0, "is_reserved": 0}, {"lat": 38.9156715, "fusion_lat": 0.0, "type": "electric_scooter", "name": "221676bcbf490ccae4eaf3874301f361", "is_disabled": 0, "bike_id": "221676bcbf490ccae4eaf3874301f361", "lon": -77.01190816666667, "rental_uris": {"android": "https://dc.lft.to/lastmile_qr_scan", "ios": "https://dc.lft.to/lastmile_qr_scan"}, "fusion_lon": 0.0, "is_reserved": 0}, {"lat": 38.89727533333333, "fusion_lat": 0.0, "type": "electric_scooter", "name": "481bc924a1fb520e0a3922f31d87af6c", "is_disabled": 0, "bike_id": "481bc924a1fb520e0a3922f31d87af6c", "lon": -76.94704066666667, "rental_uris": {"android": "https://dc.lft.to/lastmile_qr_scan", "ios": "https://dc.lft.to/lastmile_qr_scan"}, "fusion_lon": 0.0, "is_reserved": 0}, {"lat": 38.93607466666667, "fusion_lat": 0.0, "type": "electric_scooter", "name": "e4c4dd741c86f9ad717f8dfc33c4a46c", "is_disabled": 0, "bike_id": "e4c4dd741c86f9ad717f8dfc33c4a46c", "lon": -77.05849266666667, "rental_uris": {"android": "https://dc.lft.to/lastmile_qr_scan", "ios": "https://dc.lft.to/lastmile_qr_scan"}, "fusion_lon": 0.0, "is_reserved": 0}, {"lat": 38.901236, "fusion_lat": 0.0, "type": "electric_scooter", "name": "77f057766714092e1cccad52bcae7c44", "is_disabled": 0, "bike_id": "77f057766714092e1cccad52bcae7c44", "lon": -77.049909, "rental_uris": {"android": "https://dc.lft.to/lastmile_qr_scan", "ios": "https://dc.lft.to/lastmile_qr_scan"}, "fusion_lon": 0.0, "is_reserved": 0}, {"lat": 38.863889, "fusion_lat": 0.0, "type": "electric_scooter", "name": "d297aa55a1706524edae455efebcdd3c", "is_disabled": 0, "bike_id": "d297aa55a1706524edae455efebcdd3c", "lon": -76.99037033333333, "rental_uris": {"android": "https://dc.lft.to/lastmile_qr_scan", "ios": "https://dc.lft.to/lastmile_qr_scan"}, "fusion_lon": 0.0, "is_reserved": 0}, {"lat": 38.90267583333333, "fusion_lat": 0.0, "type": "electric_scooter", "name": "0cdd0d64a0fc0cc95e52392a2ac98530", "is_disabled": 0, "bike_id": "0cdd0d64a0fc0cc95e52392a2ac98530", "lon": -77.03862633333334, "rental_uris": {"android": "https://dc.lft.to/lastmile_qr_scan", "ios": "https://dc.lft.to/lastmile_qr_scan"}, "fusion_lon": 0.0, "is_reserved": 0}, {"lat": 38.8639005, "fusion_lat": 0.0, "type": "electric_scooter", "name": "779b929cc302f44527d2993d0210d8cb", "is_disabled": 0, "bike_id": "779b929cc302f44527d2993d0210d8cb", "lon": -76.9903875, "rental_uris": {"android": "https://dc.lft.to/lastmile_qr_scan", "ios": "https://dc.lft.to/lastmile_qr_scan"}, "fusion_lon": 0.0, "is_reserved": 0}, {"lat": 38.985332, "fusion_lat": 0.0, "type": "electric_scooter", "name": "c5178f12642c4be03b11c9f9e63531f6", "is_disabled": 0, "bike_id": "c5178f12642c4be03b11c9f9e63531f6", "lon": -77.03653366666667, "rental_uris": {"android": "https://dc.lft.to/lastmile_qr_scan", "ios": "https://dc.lft.to/lastmile_qr_scan"}, "fusion_lon": 0.0, "is_reserved": 0}, {"lat": 38.907909333333336, "fusion_lat": 0.0, "type": "electric_scooter", "name": "50ca9f84797864d9ecc7e3f39253ddd9", "is_disabled": 0, "bike_id": "50ca9f84797864d9ecc7e3f39253ddd9", "lon": -76.99229583333333, "rental_uris": {"android": "https://dc.lft.to/lastmile_qr_scan", "ios": "https://dc.lft.to/lastmile_qr_scan"}, "fusion_lon": 0.0, "is_reserved": 0}, {"lat": 39.0510895, "fusion_lat": 0.0, "type": "electric_bike", "name": "b565908e68b60496351db5c1522b040a", "is_disabled": 0, "bike_id": "b565908e68b60496351db5c1522b040a", "lon": -77.11738483333333, "rental_uris": {"android": "https://dc.lft.to/lastmile_qr_scan", "ios": "https://dc.lft.to/lastmile_qr_scan"}, "fusion_lon": 0.0, "is_reserved": 0}, {"lat": 38.900311333333335, "fusion_lat": 0.0, "type": "electric_scooter", "name": "66ee1a96852093932d488168ebe5e5bb", "is_disabled": 0, "bike_id": "66ee1a96852093932d488168ebe5e5bb", "lon": -77.03208983333333, "rental_uris": {"android": "https://dc.lft.to/lastmile_qr_scan", "ios": "https://dc.lft.to/lastmile_qr_scan"}, "fusion_lon": 0.0, "is_reserved": 0}, {"lat": 38.89890316666666, "fusion_lat": 0.0, "type": "electric_scooter", "name": "703ab3c4b1fa26011fc931fea0e62318", "is_disabled": 0, "bike_id": "703ab3c4b1fa26011fc931fea0e62318", "lon": -77.03276783333334, "rental_uris": {"android": "https://dc.lft.to/lastmile_qr_scan", "ios": "https://dc.lft.to/lastmile_qr_scan"}, "fusion_lon": 0.0, "is_reserved": 0}, {"lat": 38.88397533333333, "fusion_lat": 0.0, "type": "electric_bike", "name": "df5eecfb19bbcc747fb026efec500276", "is_disabled": 0, "bike_id": "df5eecfb19bbcc747fb026efec500276", "lon": -76.960517, "rental_uris": {"android": "https://dc.lft.to/lastmile_qr_scan", "ios": "https://dc.lft.to/lastmile_qr_scan"}, "fusion_lon": 0.0, "is_reserved": 0}, {"lat": 38.922683666666664, "fusion_lat": 0.0, "type": "electric_scooter", "name": "7d2be8bb0e146e97c9721f6384ca01ed", "is_disabled": 0, "bike_id": "7d2be8bb0e146e97c9721f6384ca01ed", "lon": -77.03403566666667, "rental_uris": {"android": "https://dc.lft.to/lastmile_qr_scan", "ios": "https://dc.lft.to/lastmile_qr_scan"}, "fusion_lon": 0.0, "is_reserved": 0}, {"lat": 38.90483966666667, "fusion_lat": 0.0, "type": "electric_scooter", "name": "7b62880ef579a4a67f40cf3e3f8bed78", "is_disabled": 0, "bike_id": "7b62880ef579a4a67f40cf3e3f8bed78", "lon": -77.03836683333333, "rental_uris": {"android": "https://dc.lft.to/lastmile_qr_scan", "ios": "https://dc.lft.to/lastmile_qr_scan"}, "fusion_lon": 0.0, "is_reserved": 0}, {"lat": 38.9999975, "fusion_lat": 0.0, "type": "electric_bike", "name": "2167341a9a86bc3eb58fa8df8fc1648e", "is_disabled": 0, "bike_id": "2167341a9a86bc3eb58fa8df8fc1648e", "lon": -76.91801866666667, "rental_uris": {"android": "https://dc.lft.to/lastmile_qr_scan", "ios": "https://dc.lft.to/lastmile_qr_scan"}, "fusion_lon": 0.0, "is_reserved": 0}, {"lat": 38.874706833333335, "fusion_lat": 0.0, "type": "electric_scooter", "name": "5f9d23103ad7b3adfcbee9d92239d0aa", "is_disabled": 0, "bike_id": "5f9d23103ad7b3adfcbee9d92239d0aa", "lon": -77.00514783333334, "rental_uris": {"android": "https://dc.lft.to/lastmile_qr_scan", "ios": "https://dc.lft.to/lastmile_qr_scan"}, "fusion_lon": 0.0, "is_reserved": 0}, {"lat": 38.9041425, "fusion_lat": 0.0, "type": "electric_scooter", "name": "a1c22e820a161eccc5a578e688b70c7a", "is_disabled": 0, "bike_id": "a1c22e820a161eccc5a578e688b70c7a", "lon": -77.05336616666666, "rental_uris": {"android": "https://dc.lft.to/lastmile_qr_scan", "ios": "https://dc.lft.to/lastmile_qr_scan"}, "fusion_lon": 0.0, "is_reserved": 0}, {"lat": 38.90348866666667, "fusion_lat": 0.0, "type": "electric_scooter", "name": "284089fdb3cff7959f46350c416fcd54", "is_disabled": 0, "bike_id": "284089fdb3cff7959f46350c416fcd54", "lon": -77.034477, "rental_uris": {"android": "https://dc.lft.to/lastmile_qr_scan", "ios": "https://dc.lft.to/lastmile_qr_scan"}, "fusion_lon": 0.0, "is_reserved": 0}, {"lat": 38.88420516666667, "fusion_lat": 0.0, "type": "electric_scooter", "name": "658a1e0a7583750945cc45283daf8038", "is_disabled": 0, "bike_id": "658a1e0a7583750945cc45283daf8038", "lon": -77.0236105, "rental_uris": {"android": "https://dc.lft.to/lastmile_qr_scan", "ios": "https://dc.lft.to/lastmile_qr_scan"}, "fusion_lon": 0.0, "is_reserved": 0}, {"lat": 38.95752, "fusion_lat": 0.0, "type": "electric_scooter", "name": "a3740530fa1a633a24c0b46b4f9eaa1a", "is_disabled": 0, "bike_id": "a3740530fa1a633a24c0b46b4f9eaa1a", "lon": -77.02210166666667, "rental_uris": {"android": "https://dc.lft.to/lastmile_qr_scan", "ios": "https://dc.lft.to/lastmile_qr_scan"}, "fusion_lon": 0.0, "is_reserved": 0}, {"lat": 38.8716885, "fusion_lat": 0.0, "type": "electric_scooter", "name": "e6d7ffbd141caa44f1e72ec71bdddf36", "is_disabled": 0, "bike_id": "e6d7ffbd141caa44f1e72ec71bdddf36", "lon": -77.00678266666667, "rental_uris": {"android": "https://dc.lft.to/lastmile_qr_scan", "ios": "https://dc.lft.to/lastmile_qr_scan"}, "fusion_lon": 0.0, "is_reserved": 0}, {"lat": 38.893435333333336, "fusion_lat": 0.0, "type": "electric_scooter", "name": "900e1b3a72b73cc36b0b24b531e534f8", "is_disabled": 0, "bike_id": "900e1b3a72b73cc36b0b24b531e534f8", "lon": -76.93968366666667, "rental_uris": {"android": "https://dc.lft.to/lastmile_qr_scan", "ios": "https://dc.lft.to/lastmile_qr_scan"}, "fusion_lon": 0.0, "is_reserved": 0}, {"lat": 38.89724283333334, "fusion_lat": 0.0, "type": "electric_scooter", "name": "59f3ffa7db4c329bc375dde40e2433db", "is_disabled": 0, "bike_id": "59f3ffa7db4c329bc375dde40e2433db", "lon": -77.02167266666666, "rental_uris": {"android": "https://dc.lft.to/lastmile_qr_scan", "ios": "https://dc.lft.to/lastmile_qr_scan"}, "fusion_lon": 0.0, "is_reserved": 0}, {"lat": 38.89220483333333, "fusion_lat": 0.0, "type": "electric_scooter", "name": "cc73d353bff872ae06e3de2327f0d736", "is_disabled": 0, "bike_id": "cc73d353bff872ae06e3de2327f0d736", "lon": -77.02406533333334, "rental_uris": {"android": "https://dc.lft.to/lastmile_qr_scan", "ios": "https://dc.lft.to/lastmile_qr_scan"}, "fusion_lon": 0.0, "is_reserved": 0}, {"lat": 38.914983666666664, "fusion_lat": 0.0, "type": "electric_scooter", "name": "4d17112a59e6b63c6785540ac618027e", "is_disabled": 0, "bike_id": "4d17112a59e6b63c6785540ac618027e", "lon": -76.98363916666666, "rental_uris": {"android": "https://dc.lft.to/lastmile_qr_scan", "ios": "https://dc.lft.to/lastmile_qr_scan"}, "fusion_lon": 0.0, "is_reserved": 0}, {"lat": 38.897472, "fusion_lat": 0.0, "type": "electric_bike", "name": "0a73bb1c6dd967d9ce233217ae53c7ca", "is_disabled": 0, "bike_id": "0a73bb1c6dd967d9ce233217ae53c7ca", "lon": -77.02099666666666, "rental_uris": {"android": "https://dc.lft.to/lastmile_qr_scan", "ios": "https://dc.lft.to/lastmile_qr_scan"}, "fusion_lon": 0.0, "is_reserved": 0}, {"lat": 38.908079, "fusion_lat": 0.0, "type": "electric_scooter", "name": "8670e7efe95bb3fad58a3154a5689289", "is_disabled": 0, "bike_id": "8670e7efe95bb3fad58a3154a5689289", "lon": -77.0428275, "rental_uris": {"android": "https://dc.lft.to/lastmile_qr_scan", "ios": "https://dc.lft.to/lastmile_qr_scan"}, "fusion_lon": 0.0, "is_reserved": 0}, {"lat": 38.91324616666667, "fusion_lat": 0.0, "type": "electric_scooter", "name": "2103bccb686f30c17775659345b29107", "is_disabled": 0, "bike_id": "2103bccb686f30c17775659345b29107", "lon": -77.015108, "rental_uris": {"android": "https://dc.lft.to/lastmile_qr_scan", "ios": "https://dc.lft.to/lastmile_qr_scan"}, "fusion_lon": 0.0, "is_reserved": 0}, {"lat": 38.91776333333333, "fusion_lat": 0.0, "type": "electric_scooter", "name": "6532f37e47b8d607c24a98912623d544", "is_disabled": 0, "bike_id": "6532f37e47b8d607c24a98912623d544", "lon": -77.0231505, "rental_uris": {"android": "https://dc.lft.to/lastmile_qr_scan", "ios": "https://dc.lft.to/lastmile_qr_scan"}, "fusion_lon": 0.0, "is_reserved": 0}, {"lat": 38.92726716666667, "fusion_lat": 0.0, "type": "electric_scooter", "name": "7f187ead0105ff925d6ba47ddc1319a1", "is_disabled": 0, "bike_id": "7f187ead0105ff925d6ba47ddc1319a1", "lon": -77.03236983333333, "rental_uris": {"android": "https://dc.lft.to/lastmile_qr_scan", "ios": "https://dc.lft.to/lastmile_qr_scan"}, "fusion_lon": 0.0, "is_reserved": 0}, {"lat": 38.895817666666666, "fusion_lat": 0.0, "type": "electric_scooter", "name": "1de87d92164ca6b503b102bd260608d2", "is_disabled": 0, "bike_id": "1de87d92164ca6b503b102bd260608d2", "lon": -77.02309966666667, "rental_uris": {"android": "https://dc.lft.to/lastmile_qr_scan", "ios": "https://dc.lft.to/lastmile_qr_scan"}, "fusion_lon": 0.0, "is_reserved": 0}, {"lat": 38.9017115, "fusion_lat": 0.0, "type": "electric_scooter", "name": "1d2d15d263838ec69d41333debdb4b99", "is_disabled": 0, "bike_id": "1d2d15d263838ec69d41333debdb4b99", "lon": -77.03435766666666, "rental_uris": {"android": "https://dc.lft.to/lastmile_qr_scan", "ios": "https://dc.lft.to/lastmile_qr_scan"}, "fusion_lon": 0.0, "is_reserved": 0}, {"lat": 38.89739816666667, "fusion_lat": 0.0, "type": "electric_scooter", "name": "8b837ee207e1b09ab5860fbc407cd91a", "is_disabled": 0, "bike_id": "8b837ee207e1b09ab5860fbc407cd91a", "lon": -76.94721233333334, "rental_uris": {"android": "https://dc.lft.to/lastmile_qr_scan", "ios": "https://dc.lft.to/lastmile_qr_scan"}, "fusion_lon": 0.0, "is_reserved": 0}, {"lat": 38.922663666666665, "fusion_lat": 0.0, "type": "electric_scooter", "name": "7d69670a84b6ed63a6b122734dce6a5e", "is_disabled": 0, "bike_id": "7d69670a84b6ed63a6b122734dce6a5e", "lon": -77.01850216666666, "rental_uris": {"android": "https://dc.lft.to/lastmile_qr_scan", "ios": "https://dc.lft.to/lastmile_qr_scan"}, "fusion_lon": 0.0, "is_reserved": 0}, {"lat": 38.8922165, "fusion_lat": 0.0, "type": "electric_scooter", "name": "fd59155cecf8ad70ce8dcca5d7baf7a2", "is_disabled": 0, "bike_id": "fd59155cecf8ad70ce8dcca5d7baf7a2", "lon": -77.04682416666667, "rental_uris": {"android": "https://dc.lft.to/lastmile_qr_scan", "ios": "https://dc.lft.to/lastmile_qr_scan"}, "fusion_lon": 0.0, "is_reserved": 0}, {"lat": 38.913214833333335, "fusion_lat": 0.0, "type": "electric_scooter", "name": "f95049bd4bb73353b513db193020b031", "is_disabled": 0, "bike_id": "f95049bd4bb73353b513db193020b031", "lon": -77.043285, "rental_uris": {"android": "https://dc.lft.to/lastmile_qr_scan", "ios": "https://dc.lft.to/lastmile_qr_scan"}, "fusion_lon": 0.0, "is_reserved": 0}, {"lat": 38.941763, "fusion_lat": 0.0, "type": "electric_scooter", "name": "58982106df9eb128d1244ad013f07c9a", "is_disabled": 0, "bike_id": "58982106df9eb128d1244ad013f07c9a", "lon": -77.03143716666666, "rental_uris": {"android": "https://dc.lft.to/lastmile_qr_scan", "ios": "https://dc.lft.to/lastmile_qr_scan"}, "fusion_lon": 0.0, "is_reserved": 0}, {"lat": 38.89575333333333, "fusion_lat": 0.0, "type": "electric_scooter", "name": "7348f82e000ac4a5cc410ea932127170", "is_disabled": 0, "bike_id": "7348f82e000ac4a5cc410ea932127170", "lon": -77.02216616666666, "rental_uris": {"android": "https://dc.lft.to/lastmile_qr_scan", "ios": "https://dc.lft.to/lastmile_qr_scan"}, "fusion_lon": 0.0, "is_reserved": 0}, {"lat": 38.923812166666664, "fusion_lat": 0.0, "type": "electric_scooter", "name": "87bbb74582cebea477365d23bdcbae77", "is_disabled": 0, "bike_id": "87bbb74582cebea477365d23bdcbae77", "lon": -77.04073633333333, "rental_uris": {"android": "https://dc.lft.to/lastmile_qr_scan", "ios": "https://dc.lft.to/lastmile_qr_scan"}, "fusion_lon": 0.0, "is_reserved": 0}, {"lat": 38.89221166666667, "fusion_lat": 0.0, "type": "electric_scooter", "name": "4f3a5e25ee3ce55d28c64b7d482aec72", "is_disabled": 0, "bike_id": "4f3a5e25ee3ce55d28c64b7d482aec72", "lon": -77.0451075, "rental_uris": {"android": "https://dc.lft.to/lastmile_qr_scan", "ios": "https://dc.lft.to/lastmile_qr_scan"}, "fusion_lon": 0.0, "is_reserved": 0}, {"lat": 38.86564583333333, "fusion_lat": 0.0, "type": "electric_scooter", "name": "0536098aef14abc1e2bbe209aa21232c", "is_disabled": 0, "bike_id": "0536098aef14abc1e2bbe209aa21232c", "lon": -76.9833535, "rental_uris": {"android": "https://dc.lft.to/lastmile_qr_scan", "ios": "https://dc.lft.to/lastmile_qr_scan"}, "fusion_lon": 0.0, "is_reserved": 0}, {"lat": 38.90353183333333, "fusion_lat": 0.0, "type": "electric_scooter", "name": "0b9543054fa1a4e29d77284a63c924fa", "is_disabled": 0, "bike_id": "0b9543054fa1a4e29d77284a63c924fa", "lon": -77.04742983333334, "rental_uris": {"android": "https://dc.lft.to/lastmile_qr_scan", "ios": "https://dc.lft.to/lastmile_qr_scan"}, "fusion_lon": 0.0, "is_reserved": 0}, {"lat": 38.9441485, "fusion_lat": 0.0, "type": "electric_scooter", "name": "7a8f57b8cf46209e5577b0a10fd89815", "is_disabled": 0, "bike_id": "7a8f57b8cf46209e5577b0a10fd89815", "lon": -77.05515116666666, "rental_uris": {"android": "https://dc.lft.to/lastmile_qr_scan", "ios": "https://dc.lft.to/lastmile_qr_scan"}, "fusion_lon": 0.0, "is_reserved": 0}, {"lat": 38.94293616666667, "fusion_lat": 0.0, "type": "electric_scooter", "name": "c919c489879ab4d6d1367e1785549d44", "is_disabled": 0, "bike_id": "c919c489879ab4d6d1367e1785549d44", "lon": -77.021678, "rental_uris": {"android": "https://dc.lft.to/lastmile_qr_scan", "ios": "https://dc.lft.to/lastmile_qr_scan"}, "fusion_lon": 0.0, "is_reserved": 0}, {"lat": 38.92468816666667, "fusion_lat": 0.0, "type": "electric_scooter", "name": "8fe3917d1f8258e65597ed86e1b080c1", "is_disabled": 0, "bike_id": "8fe3917d1f8258e65597ed86e1b080c1", "lon": -77.02236533333334, "rental_uris": {"android": "https://dc.lft.to/lastmile_qr_scan", "ios": "https://dc.lft.to/lastmile_qr_scan"}, "fusion_lon": 0.0, "is_reserved": 0}, {"lat": 38.923263, "fusion_lat": 0.0, "type": "electric_scooter", "name": "b15fbcfcc92557ac46a13e537f9d8e01", "is_disabled": 0, "bike_id": "b15fbcfcc92557ac46a13e537f9d8e01", "lon": -77.0207285, "rental_uris": {"android": "https://dc.lft.to/lastmile_qr_scan", "ios": "https://dc.lft.to/lastmile_qr_scan"}, "fusion_lon": 0.0, "is_reserved": 0}, {"lat": 38.906526, "fusion_lat": 0.0, "type": "electric_scooter", "name": "7e1017c802b0cdad12770651bb2f4c9e", "is_disabled": 0, "bike_id": "7e1017c802b0cdad12770651bb2f4c9e", "lon": -77.038853, "rental_uris": {"android": "https://dc.lft.to/lastmile_qr_scan", "ios": "https://dc.lft.to/lastmile_qr_scan"}, "fusion_lon": 0.0, "is_reserved": 0}, {"lat": 38.90269383333333, "fusion_lat": 0.0, "type": "electric_scooter", "name": "213689076f77f6b996b429b7f1bea216", "is_disabled": 0, "bike_id": "213689076f77f6b996b429b7f1bea216", "lon": -77.03862633333334, "rental_uris": {"android": "https://dc.lft.to/lastmile_qr_scan", "ios": "https://dc.lft.to/lastmile_qr_scan"}, "fusion_lon": 0.0, "is_reserved": 0}, {"lat": 38.917341, "fusion_lat": 0.0, "type": "electric_scooter", "name": "abcda479f913847441dc3d94d68e74bd", "is_disabled": 0, "bike_id": "abcda479f913847441dc3d94d68e74bd", "lon": -77.03640583333333, "rental_uris": {"android": "https://dc.lft.to/lastmile_qr_scan", "ios": "https://dc.lft.to/lastmile_qr_scan"}, "fusion_lon": 0.0, "is_reserved": 0}, {"lat": 38.92240283333334, "fusion_lat": 0.0, "type": "electric_scooter", "name": "e00c8eef006db6ef884287f456223090", "is_disabled": 0, "bike_id": "e00c8eef006db6ef884287f456223090", "lon": -77.0242315, "rental_uris": {"android": "https://dc.lft.to/lastmile_qr_scan", "ios": "https://dc.lft.to/lastmile_qr_scan"}, "fusion_lon": 0.0, "is_reserved": 0}, {"lat": 38.933570833333334, "fusion_lat": 0.0, "type": "electric_scooter", "name": "1fe67479970161e1f13633553c121217", "is_disabled": 0, "bike_id": "1fe67479970161e1f13633553c121217", "lon": -77.04114433333334, "rental_uris": {"android": "https://dc.lft.to/lastmile_qr_scan", "ios": "https://dc.lft.to/lastmile_qr_scan"}, "fusion_lon": 0.0, "is_reserved": 0}, {"lat": 38.799861666666665, "fusion_lat": 0.0, "type": "electric_bike", "name": "538a1e494bf48c44fe8322decbe2b9c5", "is_disabled": 0, "bike_id": "538a1e494bf48c44fe8322decbe2b9c5", "lon": -77.12977316666667, "rental_uris": {"android": "https://dc.lft.to/lastmile_qr_scan", "ios": "https://dc.lft.to/lastmile_qr_scan"}, "fusion_lon": 0.0, "is_reserved": 0}, {"lat": 38.892228333333335, "fusion_lat": 0.0, "type": "electric_scooter", "name": "266163c7065093b78d7bb947bb353fd1", "is_disabled": 0, "bike_id": "266163c7065093b78d7bb947bb353fd1", "lon": -77.02629466666667, "rental_uris": {"android": "https://dc.lft.to/lastmile_qr_scan", "ios": "https://dc.lft.to/lastmile_qr_scan"}, "fusion_lon": 0.0, "is_reserved": 0}, {"lat": 38.90116233333333, "fusion_lat": 0.0, "type": "electric_scooter", "name": "8ee378fecb662bc7016574723f044009", "is_disabled": 0, "bike_id": "8ee378fecb662bc7016574723f044009", "lon": -77.04983466666667, "rental_uris": {"android": "https://dc.lft.to/lastmile_qr_scan", "ios": "https://dc.lft.to/lastmile_qr_scan"}, "fusion_lon": 0.0, "is_reserved": 0}, {"lat": 38.90263316666667, "fusion_lat": 0.0, "type": "electric_scooter", "name": "67022d00c8a724b6205a7a4755527443", "is_disabled": 0, "bike_id": "67022d00c8a724b6205a7a4755527443", "lon": -77.00329383333333, "rental_uris": {"android": "https://dc.lft.to/lastmile_qr_scan", "ios": "https://dc.lft.to/lastmile_qr_scan"}, "fusion_lon": 0.0, "is_reserved": 0}, {"lat": 38.988590333333335, "fusion_lat": 0.0, "type": "electric_bike", "name": "a1622a4bcd5020a8187691ce43742eb1", "is_disabled": 0, "bike_id": "a1622a4bcd5020a8187691ce43742eb1", "lon": -77.09650966666666, "rental_uris": {"android": "https://dc.lft.to/lastmile_qr_scan", "ios": "https://dc.lft.to/lastmile_qr_scan"}, "fusion_lon": 0.0, "is_reserved": 0}, {"lat": 38.90684183333333, "fusion_lat": 0.0, "type": "electric_scooter", "name": "3e661bac5ab77db7228cf16508ccd1ec", "is_disabled": 0, "bike_id": "3e661bac5ab77db7228cf16508ccd1ec", "lon": -77.026926, "rental_uris": {"android": "https://dc.lft.to/lastmile_qr_scan", "ios": "https://dc.lft.to/lastmile_qr_scan"}, "fusion_lon": 0.0, "is_reserved": 0}, {"lat": 38.904494, "fusion_lat": 0.0, "type": "electric_scooter", "name": "905b54bf8e5a156c4da2e7c63ccfd07f", "is_disabled": 0, "bike_id": "905b54bf8e5a156c4da2e7c63ccfd07f", "lon": -77.0591615, "rental_uris": {"android": "https://dc.lft.to/lastmile_qr_scan", "ios": "https://dc.lft.to/lastmile_qr_scan"}, "fusion_lon": 0.0, "is_reserved": 0}, {"lat": 38.886609166666666, "fusion_lat": 0.0, "type": "electric_bike", "name": "1ca7ff1d4235596c78d16d299d70bfae", "is_disabled": 0, "bike_id": "1ca7ff1d4235596c78d16d299d70bfae", "lon": -77.16230016666667, "rental_uris": {"android": "https://dc.lft.to/lastmile_qr_scan", "ios": "https://dc.lft.to/lastmile_qr_scan"}, "fusion_lon": 0.0, "is_reserved": 0}, {"lat": 38.91028283333333, "fusion_lat": 0.0, "type": "electric_scooter", "name": "8053a2da358882f9e966678db1130a9b", "is_disabled": 0, "bike_id": "8053a2da358882f9e966678db1130a9b", "lon": -77.03441166666667, "rental_uris": {"android": "https://dc.lft.to/lastmile_qr_scan", "ios": "https://dc.lft.to/lastmile_qr_scan"}, "fusion_lon": 0.0, "is_reserved": 0}, {"lat": 38.901051333333335, "fusion_lat": 0.0, "type": "electric_scooter", "name": "cc0e055e0838f03ae05a9ee047331cdb", "is_disabled": 0, "bike_id": "cc0e055e0838f03ae05a9ee047331cdb", "lon": -76.9948825, "rental_uris": {"android": "https://dc.lft.to/lastmile_qr_scan", "ios": "https://dc.lft.to/lastmile_qr_scan"}, "fusion_lon": 0.0, "is_reserved": 0}, {"lat": 38.916973166666665, "fusion_lat": 0.0, "type": "electric_scooter", "name": "ea10b83c77ae6f4129f047ab86497bae", "is_disabled": 0, "bike_id": "ea10b83c77ae6f4129f047ab86497bae", "lon": -77.03587166666667, "rental_uris": {"android": "https://dc.lft.to/lastmile_qr_scan", "ios": "https://dc.lft.to/lastmile_qr_scan"}, "fusion_lon": 0.0, "is_reserved": 0}, {"lat": 38.86006166666667, "fusion_lat": 0.0, "type": "electric_scooter", "name": "8d7c2e6cf52aa9a1977aca5d709316b8", "is_disabled": 0, "bike_id": "8d7c2e6cf52aa9a1977aca5d709316b8", "lon": -76.98516816666667, "rental_uris": {"android": "https://dc.lft.to/lastmile_qr_scan", "ios": "https://dc.lft.to/lastmile_qr_scan"}, "fusion_lon": 0.0, "is_reserved": 0}, {"lat": 38.933195833333336, "fusion_lat": 0.0, "type": "electric_scooter", "name": "8ef25ad5349ade3f98fcf02d0cc1a4eb", "is_disabled": 0, "bike_id": "8ef25ad5349ade3f98fcf02d0cc1a4eb", "lon": -77.03413083333334, "rental_uris": {"android": "https://dc.lft.to/lastmile_qr_scan", "ios": "https://dc.lft.to/lastmile_qr_scan"}, "fusion_lon": 0.0, "is_reserved": 0}, {"lat": 38.90224833333333, "fusion_lat": 0.0, "type": "electric_scooter", "name": "499a996968fb14b19df2cdd388b78432", "is_disabled": 0, "bike_id": "499a996968fb14b19df2cdd388b78432", "lon": -77.04567216666666, "rental_uris": {"android": "https://dc.lft.to/lastmile_qr_scan", "ios": "https://dc.lft.to/lastmile_qr_scan"}, "fusion_lon": 0.0, "is_reserved": 0}, {"lat": 38.9025905, "fusion_lat": 0.0, "type": "electric_scooter", "name": "85e34bf9de74f2be203006057cbda1be", "is_disabled": 0, "bike_id": "85e34bf9de74f2be203006057cbda1be", "lon": -77.03037483333334, "rental_uris": {"android": "https://dc.lft.to/lastmile_qr_scan", "ios": "https://dc.lft.to/lastmile_qr_scan"}, "fusion_lon": 0.0, "is_reserved": 0}, {"lat": 38.9059565, "fusion_lat": 0.0, "type": "electric_scooter", "name": "2b3e9975ede0fd5f66d9126b9bb0af06", "is_disabled": 0, "bike_id": "2b3e9975ede0fd5f66d9126b9bb0af06", "lon": -77.04021533333334, "rental_uris": {"android": "https://dc.lft.to/lastmile_qr_scan", "ios": "https://dc.lft.to/lastmile_qr_scan"}, "fusion_lon": 0.0, "is_reserved": 0}, {"lat": 38.91551066666667, "fusion_lat": 0.0, "type": "electric_scooter", "name": "58549cd66d86e02e5e333119896513f6", "is_disabled": 0, "bike_id": "58549cd66d86e02e5e333119896513f6", "lon": -77.02710866666666, "rental_uris": {"android": "https://dc.lft.to/lastmile_qr_scan", "ios": "https://dc.lft.to/lastmile_qr_scan"}, "fusion_lon": 0.0, "is_reserved": 0}, {"lat": 38.89227833333333, "fusion_lat": 0.0, "type": "electric_scooter", "name": "3dee0905928503bc2c98e287ff1fb360", "is_disabled": 0, "bike_id": "3dee0905928503bc2c98e287ff1fb360", "lon": -77.02382033333333, "rental_uris": {"android": "https://dc.lft.to/lastmile_qr_scan", "ios": "https://dc.lft.to/lastmile_qr_scan"}, "fusion_lon": 0.0, "is_reserved": 0}, {"lat": 38.8987015, "fusion_lat": 0.0, "type": "electric_scooter", "name": "da39a303716a3f84c786d622910a808a", "is_disabled": 0, "bike_id": "da39a303716a3f84c786d622910a808a", "lon": -76.946388, "rental_uris": {"android": "https://dc.lft.to/lastmile_qr_scan", "ios": "https://dc.lft.to/lastmile_qr_scan"}, "fusion_lon": 0.0, "is_reserved": 0}, {"lat": 38.892242333333336, "fusion_lat": 0.0, "type": "electric_scooter", "name": "f93ad0565fa150513a803d25b9a29c6e", "is_disabled": 0, "bike_id": "f93ad0565fa150513a803d25b9a29c6e", "lon": -77.04377266666667, "rental_uris": {"android": "https://dc.lft.to/lastmile_qr_scan", "ios": "https://dc.lft.to/lastmile_qr_scan"}, "fusion_lon": 0.0, "is_reserved": 0}, {"lat": 38.906067666666665, "fusion_lat": 0.0, "type": "electric_scooter", "name": "95515aadc297381ab8c9cec27b7fede9", "is_disabled": 0, "bike_id": "95515aadc297381ab8c9cec27b7fede9", "lon": -77.04193116666667, "rental_uris": {"android": "https://dc.lft.to/lastmile_qr_scan", "ios": "https://dc.lft.to/lastmile_qr_scan"}, "fusion_lon": 0.0, "is_reserved": 0}, {"lat": 38.86520066666667, "fusion_lat": 0.0, "type": "electric_scooter", "name": "3d1717a9105a1f7afa73e77c739bbaf4", "is_disabled": 0, "bike_id": "3d1717a9105a1f7afa73e77c739bbaf4", "lon": -76.97326483333333, "rental_uris": {"android": "https://dc.lft.to/lastmile_qr_scan", "ios": "https://dc.lft.to/lastmile_qr_scan"}, "fusion_lon": 0.0, "is_reserved": 0}, {"lat": 38.92084633333333, "fusion_lat": 0.0, "type": "electric_scooter", "name": "1a346959feab3445fd897a31e2c1fea6", "is_disabled": 0, "bike_id": "1a346959feab3445fd897a31e2c1fea6", "lon": -77.02551166666667, "rental_uris": {"android": "https://dc.lft.to/lastmile_qr_scan", "ios": "https://dc.lft.to/lastmile_qr_scan"}, "fusion_lon": 0.0, "is_reserved": 0}, {"lat": 38.923132833333334, "fusion_lat": 0.0, "type": "electric_scooter", "name": "e257418c660e8bcb222647d561c2ef1c", "is_disabled": 0, "bike_id": "e257418c660e8bcb222647d561c2ef1c", "lon": -77.02133533333334, "rental_uris": {"android": "https://dc.lft.to/lastmile_qr_scan", "ios": "https://dc.lft.to/lastmile_qr_scan"}, "fusion_lon": 0.0, "is_reserved": 0}, {"lat": 38.922701833333335, "fusion_lat": 0.0, "type": "electric_scooter", "name": "75833e842bf8e51d306e3b83bac32c98", "is_disabled": 0, "bike_id": "75833e842bf8e51d306e3b83bac32c98", "lon": -77.042376, "rental_uris": {"android": "https://dc.lft.to/lastmile_qr_scan", "ios": "https://dc.lft.to/lastmile_qr_scan"}, "fusion_lon": 0.0, "is_reserved": 0}, {"lat": 38.89487483333333, "fusion_lat": 0.0, "type": "electric_scooter", "name": "d1bd846d7b326edac317b5e7e6953657", "is_disabled": 0, "bike_id": "d1bd846d7b326edac317b5e7e6953657", "lon": -77.0029655, "rental_uris": {"android": "https://dc.lft.to/lastmile_qr_scan", "ios": "https://dc.lft.to/lastmile_qr_scan"}, "fusion_lon": 0.0, "is_reserved": 0}, {"lat": 38.89687216666667, "fusion_lat": 0.0, "type": "electric_scooter", "name": "55287368d11bc3d2962a4471886e8f31", "is_disabled": 0, "bike_id": "55287368d11bc3d2962a4471886e8f31", "lon": -77.0240975, "rental_uris": {"android": "https://dc.lft.to/lastmile_qr_scan", "ios": "https://dc.lft.to/lastmile_qr_scan"}, "fusion_lon": 0.0, "is_reserved": 0}, {"lat": 38.90018933333333, "fusion_lat": 0.0, "type": "electric_scooter", "name": "38f1b23a5288c9dc1ffc14b5cb57eb07", "is_disabled": 0, "bike_id": "38f1b23a5288c9dc1ffc14b5cb57eb07", "lon": -77.01189583333333, "rental_uris": {"android": "https://dc.lft.to/lastmile_qr_scan", "ios": "https://dc.lft.to/lastmile_qr_scan"}, "fusion_lon": 0.0, "is_reserved": 0}, {"lat": 38.86512033333333, "fusion_lat": 0.0, "type": "electric_scooter", "name": "f26e635447145ec571bf03d58f965918", "is_disabled": 0, "bike_id": "f26e635447145ec571bf03d58f965918", "lon": -76.99006216666666, "rental_uris": {"android": "https://dc.lft.to/lastmile_qr_scan", "ios": "https://dc.lft.to/lastmile_qr_scan"}, "fusion_lon": 0.0, "is_reserved": 0}, {"lat": 38.90538316666667, "fusion_lat": 0.0, "type": "electric_scooter", "name": "81ee5e2a446eb6106cae5227bc5ce273", "is_disabled": 0, "bike_id": "81ee5e2a446eb6106cae5227bc5ce273", "lon": -77.04159683333333, "rental_uris": {"android": "https://dc.lft.to/lastmile_qr_scan", "ios": "https://dc.lft.to/lastmile_qr_scan"}, "fusion_lon": 0.0, "is_reserved": 0}, {"lat": 38.87448283333333, "fusion_lat": 0.0, "type": "electric_scooter", "name": "f55f6c71d428567e7cd35020d07426a1", "is_disabled": 0, "bike_id": "f55f6c71d428567e7cd35020d07426a1", "lon": -77.0006115, "rental_uris": {"android": "https://dc.lft.to/lastmile_qr_scan", "ios": "https://dc.lft.to/lastmile_qr_scan"}, "fusion_lon": 0.0, "is_reserved": 0}, {"lat": 38.939103, "fusion_lat": 0.0, "type": "electric_scooter", "name": "da367ff5105c51e2b2009241b3e5254b", "is_disabled": 0, "bike_id": "da367ff5105c51e2b2009241b3e5254b", "lon": -77.06039266666667, "rental_uris": {"android": "https://dc.lft.to/lastmile_qr_scan", "ios": "https://dc.lft.to/lastmile_qr_scan"}, "fusion_lon": 0.0, "is_reserved": 0}, {"lat": 38.92071583333333, "fusion_lat": 0.0, "type": "electric_bike", "name": "ab977c4cf676152b73945036686a3b1a", "is_disabled": 0, "bike_id": "ab977c4cf676152b73945036686a3b1a", "lon": -77.07452233333333, "rental_uris": {"android": "https://dc.lft.to/lastmile_qr_scan", "ios": "https://dc.lft.to/lastmile_qr_scan"}, "fusion_lon": 0.0, "is_reserved": 0}, {"lat": 38.9225285, "fusion_lat": 0.0, "type": "electric_scooter", "name": "4a2564ab8ed8000626c7375e701e0367", "is_disabled": 0, "bike_id": "4a2564ab8ed8000626c7375e701e0367", "lon": -77.03518416666667, "rental_uris": {"android": "https://dc.lft.to/lastmile_qr_scan", "ios": "https://dc.lft.to/lastmile_qr_scan"}, "fusion_lon": 0.0, "is_reserved": 0}, {"lat": 38.90374416666667, "fusion_lat": 0.0, "type": "electric_scooter", "name": "3b01791f600876c5ab029f8ce6c168e3", "is_disabled": 0, "bike_id": "3b01791f600876c5ab029f8ce6c168e3", "lon": -77.04524033333334, "rental_uris": {"android": "https://dc.lft.to/lastmile_qr_scan", "ios": "https://dc.lft.to/lastmile_qr_scan"}, "fusion_lon": 0.0, "is_reserved": 0}, {"lat": 38.90733, "fusion_lat": 0.0, "type": "electric_scooter", "name": "68cd667ca5283c01c4646e6de03e8f67", "is_disabled": 0, "bike_id": "68cd667ca5283c01c4646e6de03e8f67", "lon": -77.042853, "rental_uris": {"android": "https://dc.lft.to/lastmile_qr_scan", "ios": "https://dc.lft.to/lastmile_qr_scan"}, "fusion_lon": 0.0, "is_reserved": 0}, {"lat": 38.8624055, "fusion_lat": 0.0, "type": "electric_bike", "name": "381554b9203e76c2b3a76ffc78555268", "is_disabled": 0, "bike_id": "381554b9203e76c2b3a76ffc78555268", "lon": -76.9527905, "rental_uris": {"android": "https://dc.lft.to/lastmile_qr_scan", "ios": "https://dc.lft.to/lastmile_qr_scan"}, "fusion_lon": 0.0, "is_reserved": 0}, {"lat": 38.913192, "fusion_lat": 0.0, "type": "electric_scooter", "name": "f4b6fde7269f74af2ae7103f15a71fac", "is_disabled": 0, "bike_id": "f4b6fde7269f74af2ae7103f15a71fac", "lon": -77.03318533333334, "rental_uris": {"android": "https://dc.lft.to/lastmile_qr_scan", "ios": "https://dc.lft.to/lastmile_qr_scan"}, "fusion_lon": 0.0, "is_reserved": 0}, {"lat": 38.9067005, "fusion_lat": 0.0, "type": "electric_scooter", "name": "30bcb7c2ac832785fc537d1017ba9424", "is_disabled": 0, "bike_id": "30bcb7c2ac832785fc537d1017ba9424", "lon": -77.027035, "rental_uris": {"android": "https://dc.lft.to/lastmile_qr_scan", "ios": "https://dc.lft.to/lastmile_qr_scan"}, "fusion_lon": 0.0, "is_reserved": 0}, {"lat": 38.923266166666664, "fusion_lat": 0.0, "type": "electric_scooter", "name": "996b8e0f26af972abf7f25d6bdaa99a6", "is_disabled": 0, "bike_id": "996b8e0f26af972abf7f25d6bdaa99a6", "lon": -77.0190865, "rental_uris": {"android": "https://dc.lft.to/lastmile_qr_scan", "ios": "https://dc.lft.to/lastmile_qr_scan"}, "fusion_lon": 0.0, "is_reserved": 0}, {"lat": 38.893515, "fusion_lat": 0.0, "type": "electric_bike", "name": "25eb6b50188c346471f17723de427c82", "is_disabled": 0, "bike_id": "25eb6b50188c346471f17723de427c82", "lon": -77.1874515, "rental_uris": {"android": "https://dc.lft.to/lastmile_qr_scan", "ios": "https://dc.lft.to/lastmile_qr_scan"}, "fusion_lon": 0.0, "is_reserved": 0}, {"lat": 38.916857666666665, "fusion_lat": 0.0, "type": "electric_scooter", "name": "70b66f73db0fd9704d765755ba9a35df", "is_disabled": 0, "bike_id": "70b66f73db0fd9704d765755ba9a35df", "lon": -77.0295015, "rental_uris": {"android": "https://dc.lft.to/lastmile_qr_scan", "ios": "https://dc.lft.to/lastmile_qr_scan"}, "fusion_lon": 0.0, "is_reserved": 0}, {"lat": 38.9258855, "fusion_lat": 0.0, "type": "electric_scooter", "name": "45c280e90924620470f8e3d9eb9f5b46", "is_disabled": 0, "bike_id": "45c280e90924620470f8e3d9eb9f5b46", "lon": -77.03225116666667, "rental_uris": {"android": "https://dc.lft.to/lastmile_qr_scan", "ios": "https://dc.lft.to/lastmile_qr_scan"}, "fusion_lon": 0.0, "is_reserved": 0}, {"lat": 38.91056066666667, "fusion_lat": 0.0, "type": "electric_scooter", "name": "b52a17f2330684ada6adb6a9a065afbd", "is_disabled": 0, "bike_id": "b52a17f2330684ada6adb6a9a065afbd", "lon": -77.0218395, "rental_uris": {"android": "https://dc.lft.to/lastmile_qr_scan", "ios": "https://dc.lft.to/lastmile_qr_scan"}, "fusion_lon": 0.0, "is_reserved": 0}, {"lat": 38.89623116666667, "fusion_lat": 0.0, "type": "electric_scooter", "name": "3a89ff819e180ae3c353c6e5299ab163", "is_disabled": 0, "bike_id": "3a89ff819e180ae3c353c6e5299ab163", "lon": -77.0394785, "rental_uris": {"android": "https://dc.lft.to/lastmile_qr_scan", "ios": "https://dc.lft.to/lastmile_qr_scan"}, "fusion_lon": 0.0, "is_reserved": 0}, {"lat": 38.918927333333336, "fusion_lat": 0.0, "type": "electric_scooter", "name": "7b5f68cca3b3e4661b0525a313dc3fc2", "is_disabled": 0, "bike_id": "7b5f68cca3b3e4661b0525a313dc3fc2", "lon": -77.02069683333333, "rental_uris": {"android": "https://dc.lft.to/lastmile_qr_scan", "ios": "https://dc.lft.to/lastmile_qr_scan"}, "fusion_lon": 0.0, "is_reserved": 0}, {"lat": 38.92273083333333, "fusion_lat": 0.0, "type": "electric_scooter", "name": "b571b09a9ea4ccfb9505636f8482ecbd", "is_disabled": 0, "bike_id": "b571b09a9ea4ccfb9505636f8482ecbd", "lon": -77.02120466666666, "rental_uris": {"android": "https://dc.lft.to/lastmile_qr_scan", "ios": "https://dc.lft.to/lastmile_qr_scan"}, "fusion_lon": 0.0, "is_reserved": 0}, {"lat": 38.833748666666665, "fusion_lat": 0.0, "type": "electric_bike", "name": "0bec1cc3fa0bf2f19bf9caa113912caa", "is_disabled": 0, "bike_id": "0bec1cc3fa0bf2f19bf9caa113912caa", "lon": -77.00294516666666, "rental_uris": {"android": "https://dc.lft.to/lastmile_qr_scan", "ios": "https://dc.lft.to/lastmile_qr_scan"}, "fusion_lon": 0.0, "is_reserved": 0}, {"lat": 38.90329833333333, "fusion_lat": 0.0, "type": "electric_scooter", "name": "72abaf7d2e5f8a75fbfe6713b0a87264", "is_disabled": 0, "bike_id": "72abaf7d2e5f8a75fbfe6713b0a87264", "lon": -77.0345555, "rental_uris": {"android": "https://dc.lft.to/lastmile_qr_scan", "ios": "https://dc.lft.to/lastmile_qr_scan"}, "fusion_lon": 0.0, "is_reserved": 0}, {"lat": 38.8988605, "fusion_lat": 0.0, "type": "electric_scooter", "name": "a7079b90a17a154b44d8064bbdfe7722", "is_disabled": 0, "bike_id": "a7079b90a17a154b44d8064bbdfe7722", "lon": -77.00920783333333, "rental_uris": {"android": "https://dc.lft.to/lastmile_qr_scan", "ios": "https://dc.lft.to/lastmile_qr_scan"}, "fusion_lon": 0.0, "is_reserved": 0}, {"lat": 38.87749016666667, "fusion_lat": 0.0, "type": "electric_scooter", "name": "7a8d9f920df3451ee68ebaf64e0e7c34", "is_disabled": 0, "bike_id": "7a8d9f920df3451ee68ebaf64e0e7c34", "lon": -77.0031685, "rental_uris": {"android": "https://dc.lft.to/lastmile_qr_scan", "ios": "https://dc.lft.to/lastmile_qr_scan"}, "fusion_lon": 0.0, "is_reserved": 0}, {"lat": 38.9315685, "fusion_lat": 0.0, "type": "electric_scooter", "name": "9981da22c9149839b5a8f5ce93961711", "is_disabled": 0, "bike_id": "9981da22c9149839b5a8f5ce93961711", "lon": -77.03608216666667, "rental_uris": {"android": "https://dc.lft.to/lastmile_qr_scan", "ios": "https://dc.lft.to/lastmile_qr_scan"}, "fusion_lon": 0.0, "is_reserved": 0}, {"lat": 38.90013783333333, "fusion_lat": 0.0, "type": "electric_scooter", "name": "f4900a19112d30d0c84537d118a478af", "is_disabled": 0, "bike_id": "f4900a19112d30d0c84537d118a478af", "lon": -77.04047, "rental_uris": {"android": "https://dc.lft.to/lastmile_qr_scan", "ios": "https://dc.lft.to/lastmile_qr_scan"}, "fusion_lon": 0.0, "is_reserved": 0}, {"lat": 38.917069166666664, "fusion_lat": 0.0, "type": "electric_scooter", "name": "46d23dabd6f89b9efcf99f6407137d18", "is_disabled": 0, "bike_id": "46d23dabd6f89b9efcf99f6407137d18", "lon": -77.04172683333333, "rental_uris": {"android": "https://dc.lft.to/lastmile_qr_scan", "ios": "https://dc.lft.to/lastmile_qr_scan"}, "fusion_lon": 0.0, "is_reserved": 0}, {"lat": 38.907423666666666, "fusion_lat": 0.0, "type": "electric_scooter", "name": "c643e6ee785c14cc0f86d3d3259732e8", "is_disabled": 0, "bike_id": "c643e6ee785c14cc0f86d3d3259732e8", "lon": -77.041379, "rental_uris": {"android": "https://dc.lft.to/lastmile_qr_scan", "ios": "https://dc.lft.to/lastmile_qr_scan"}, "fusion_lon": 0.0, "is_reserved": 0}, {"lat": 38.9035705, "fusion_lat": 0.0, "type": "electric_scooter", "name": "d15c66b3dafa78294a5c77088121d910", "is_disabled": 0, "bike_id": "d15c66b3dafa78294a5c77088121d910", "lon": -77.04561566666666, "rental_uris": {"android": "https://dc.lft.to/lastmile_qr_scan", "ios": "https://dc.lft.to/lastmile_qr_scan"}, "fusion_lon": 0.0, "is_reserved": 0}, {"lat": 38.9141705, "fusion_lat": 0.0, "type": "electric_scooter", "name": "398842ccb176bd8d9a2b6ac3e985f213", "is_disabled": 0, "bike_id": "398842ccb176bd8d9a2b6ac3e985f213", "lon": -77.04498183333334, "rental_uris": {"android": "https://dc.lft.to/lastmile_qr_scan", "ios": "https://dc.lft.to/lastmile_qr_scan"}, "fusion_lon": 0.0, "is_reserved": 0}, {"lat": 38.897284166666665, "fusion_lat": 0.0, "type": "electric_bike", "name": "ce0e52f15bb4be10f252fdde6eec0e38", "is_disabled": 0, "bike_id": "ce0e52f15bb4be10f252fdde6eec0e38", "lon": -77.05524766666667, "rental_uris": {"android": "https://dc.lft.to/lastmile_qr_scan", "ios": "https://dc.lft.to/lastmile_qr_scan"}, "fusion_lon": 0.0, "is_reserved": 0}, {"lat": 38.896067333333335, "fusion_lat": 0.0, "type": "electric_scooter", "name": "233a47b69160f905a1fb406485aaac29", "is_disabled": 0, "bike_id": "233a47b69160f905a1fb406485aaac29", "lon": -77.00928416666666, "rental_uris": {"android": "https://dc.lft.to/lastmile_qr_scan", "ios": "https://dc.lft.to/lastmile_qr_scan"}, "fusion_lon": 0.0, "is_reserved": 0}, {"lat": 38.90511266666667, "fusion_lat": 0.0, "type": "electric_scooter", "name": "1acff833290cc03816633aa3ac4e5a74", "is_disabled": 0, "bike_id": "1acff833290cc03816633aa3ac4e5a74", "lon": -77.0306075, "rental_uris": {"android": "https://dc.lft.to/lastmile_qr_scan", "ios": "https://dc.lft.to/lastmile_qr_scan"}, "fusion_lon": 0.0, "is_reserved": 0}, {"lat": 38.930519, "fusion_lat": 0.0, "type": "electric_scooter", "name": "5939f4b4e9d39fb7f8c38e342db5c12d", "is_disabled": 0, "bike_id": "5939f4b4e9d39fb7f8c38e342db5c12d", "lon": -77.05845266666667, "rental_uris": {"android": "https://dc.lft.to/lastmile_qr_scan", "ios": "https://dc.lft.to/lastmile_qr_scan"}, "fusion_lon": 0.0, "is_reserved": 0}, {"lat": 38.914178666666665, "fusion_lat": 0.0, "type": "electric_scooter", "name": "aacf92a46aee6fcd770aa1855240c25d", "is_disabled": 0, "bike_id": "aacf92a46aee6fcd770aa1855240c25d", "lon": -77.0317265, "rental_uris": {"android": "https://dc.lft.to/lastmile_qr_scan", "ios": "https://dc.lft.to/lastmile_qr_scan"}, "fusion_lon": 0.0, "is_reserved": 0}, {"lat": 38.899695, "fusion_lat": 0.0, "type": "electric_scooter", "name": "7ce919fd2b820c562fb566f91b301e3b", "is_disabled": 0, "bike_id": "7ce919fd2b820c562fb566f91b301e3b", "lon": -77.03072916666666, "rental_uris": {"android": "https://dc.lft.to/lastmile_qr_scan", "ios": "https://dc.lft.to/lastmile_qr_scan"}, "fusion_lon": 0.0, "is_reserved": 0}, {"lat": 38.907090833333335, "fusion_lat": 0.0, "type": "electric_scooter", "name": "16a19a2fdeb90bf329a7f393a476eb16", "is_disabled": 0, "bike_id": "16a19a2fdeb90bf329a7f393a476eb16", "lon": -77.03518566666666, "rental_uris": {"android": "https://dc.lft.to/lastmile_qr_scan", "ios": "https://dc.lft.to/lastmile_qr_scan"}, "fusion_lon": 0.0, "is_reserved": 0}, {"lat": 38.884229, "fusion_lat": 0.0, "type": "electric_bike", "name": "a618c0a53b3a913ad353910704838eb2", "is_disabled": 0, "bike_id": "a618c0a53b3a913ad353910704838eb2", "lon": -76.95391216666667, "rental_uris": {"android": "https://dc.lft.to/lastmile_qr_scan", "ios": "https://dc.lft.to/lastmile_qr_scan"}, "fusion_lon": 0.0, "is_reserved": 0}, {"lat": 38.90843566666667, "fusion_lat": 0.0, "type": "electric_scooter", "name": "e5d5ae3c73d7046d69a8bf12b7d485a8", "is_disabled": 0, "bike_id": "e5d5ae3c73d7046d69a8bf12b7d485a8", "lon": -77.0416065, "rental_uris": {"android": "https://dc.lft.to/lastmile_qr_scan", "ios": "https://dc.lft.to/lastmile_qr_scan"}, "fusion_lon": 0.0, "is_reserved": 0}, {"lat": 38.903377666666664, "fusion_lat": 0.0, "type": "electric_scooter", "name": "cb7b36c376d8daf82bea42eb10a779e8", "is_disabled": 0, "bike_id": "cb7b36c376d8daf82bea42eb10a779e8", "lon": -77.06184983333333, "rental_uris": {"android": "https://dc.lft.to/lastmile_qr_scan", "ios": "https://dc.lft.to/lastmile_qr_scan"}, "fusion_lon": 0.0, "is_reserved": 0}, {"lat": 38.91094966666667, "fusion_lat": 0.0, "type": "electric_scooter", "name": "1036aa9bac4f396748e050b418e99e67", "is_disabled": 0, "bike_id": "1036aa9bac4f396748e050b418e99e67", "lon": -77.031806, "rental_uris": {"android": "https://dc.lft.to/lastmile_qr_scan", "ios": "https://dc.lft.to/lastmile_qr_scan"}, "fusion_lon": 0.0, "is_reserved": 0}, {"lat": 38.92639916666667, "fusion_lat": 0.0, "type": "electric_scooter", "name": "f456a717446b95f75198a95f0c6c5aa3", "is_disabled": 0, "bike_id": "f456a717446b95f75198a95f0c6c5aa3", "lon": -77.01337666666667, "rental_uris": {"android": "https://dc.lft.to/lastmile_qr_scan", "ios": "https://dc.lft.to/lastmile_qr_scan"}, "fusion_lon": 0.0, "is_reserved": 0}, {"lat": 38.885122333333335, "fusion_lat": 0.0, "type": "electric_scooter", "name": "3cf2117379e836b5df5414b7414dd881", "is_disabled": 0, "bike_id": "3cf2117379e836b5df5414b7414dd881", "lon": -77.02105033333333, "rental_uris": {"android": "https://dc.lft.to/lastmile_qr_scan", "ios": "https://dc.lft.to/lastmile_qr_scan"}, "fusion_lon": 0.0, "is_reserved": 0}, {"lat": 38.88744533333333, "fusion_lat": 0.0, "type": "electric_scooter", "name": "cfdfbadb9c0fdaacf946c64dd12cf3ea", "is_disabled": 0, "bike_id": "cfdfbadb9c0fdaacf946c64dd12cf3ea", "lon": -77.02116616666666, "rental_uris": {"android": "https://dc.lft.to/lastmile_qr_scan", "ios": "https://dc.lft.to/lastmile_qr_scan"}, "fusion_lon": 0.0, "is_reserved": 0}, {"lat": 38.86662783333333, "fusion_lat": 0.0, "type": "electric_scooter", "name": "bd58f6b0e20fe59fc28707a2b4bdf711", "is_disabled": 0, "bike_id": "bd58f6b0e20fe59fc28707a2b4bdf711", "lon": -76.98893966666667, "rental_uris": {"android": "https://dc.lft.to/lastmile_qr_scan", "ios": "https://dc.lft.to/lastmile_qr_scan"}, "fusion_lon": 0.0, "is_reserved": 0}, {"lat": 38.905667, "fusion_lat": 0.0, "type": "electric_scooter", "name": "1c4ed2d1e468fb8d888b025c54b86602", "is_disabled": 0, "bike_id": "1c4ed2d1e468fb8d888b025c54b86602", "lon": -77.0006925, "rental_uris": {"android": "https://dc.lft.to/lastmile_qr_scan", "ios": "https://dc.lft.to/lastmile_qr_scan"}, "fusion_lon": 0.0, "is_reserved": 0}, {"lat": 38.89776466666667, "fusion_lat": 0.0, "type": "electric_scooter", "name": "489bc4e009d21bb165e491abac7dc4b7", "is_disabled": 0, "bike_id": "489bc4e009d21bb165e491abac7dc4b7", "lon": -77.02019016666667, "rental_uris": {"android": "https://dc.lft.to/lastmile_qr_scan", "ios": "https://dc.lft.to/lastmile_qr_scan"}, "fusion_lon": 0.0, "is_reserved": 0}, {"lat": 38.914711, "fusion_lat": 0.0, "type": "electric_scooter", "name": "a5292ef66c71dc918e6e8fef626e9552", "is_disabled": 0, "bike_id": "a5292ef66c71dc918e6e8fef626e9552", "lon": -76.98110516666667, "rental_uris": {"android": "https://dc.lft.to/lastmile_qr_scan", "ios": "https://dc.lft.to/lastmile_qr_scan"}, "fusion_lon": 0.0, "is_reserved": 0}, {"lat": 38.910350666666666, "fusion_lat": 0.0, "type": "electric_scooter", "name": "2367da63017140811a6d20a8890e97ed", "is_disabled": 0, "bike_id": "2367da63017140811a6d20a8890e97ed", "lon": -76.99337433333334, "rental_uris": {"android": "https://dc.lft.to/lastmile_qr_scan", "ios": "https://dc.lft.to/lastmile_qr_scan"}, "fusion_lon": 0.0, "is_reserved": 0}, {"lat": 38.903851333333336, "fusion_lat": 0.0, "type": "electric_scooter", "name": "fb6afec5de1518434797a8f3dcb2d02a", "is_disabled": 0, "bike_id": "fb6afec5de1518434797a8f3dcb2d02a", "lon": -77.04217416666667, "rental_uris": {"android": "https://dc.lft.to/lastmile_qr_scan", "ios": "https://dc.lft.to/lastmile_qr_scan"}, "fusion_lon": 0.0, "is_reserved": 0}, {"lat": 38.920884666666666, "fusion_lat": 0.0, "type": "electric_scooter", "name": "099219f7dd6a85c514c9c8be003436b2", "is_disabled": 0, "bike_id": "099219f7dd6a85c514c9c8be003436b2", "lon": -77.02533066666666, "rental_uris": {"android": "https://dc.lft.to/lastmile_qr_scan", "ios": "https://dc.lft.to/lastmile_qr_scan"}, "fusion_lon": 0.0, "is_reserved": 0}, {"lat": 38.9761415, "fusion_lat": 0.0, "type": "electric_bike", "name": "1f61c300a8eb2edc38237cca005fa378", "is_disabled": 0, "bike_id": "1f61c300a8eb2edc38237cca005fa378", "lon": -77.02650483333333, "rental_uris": {"android": "https://dc.lft.to/lastmile_qr_scan", "ios": "https://dc.lft.to/lastmile_qr_scan"}, "fusion_lon": 0.0, "is_reserved": 0}, {"lat": 38.892435, "fusion_lat": 0.0, "type": "electric_scooter", "name": "84c5740743f3f49029278590068e21c4", "is_disabled": 0, "bike_id": "84c5740743f3f49029278590068e21c4", "lon": -77.03345866666666, "rental_uris": {"android": "https://dc.lft.to/lastmile_qr_scan", "ios": "https://dc.lft.to/lastmile_qr_scan"}, "fusion_lon": 0.0, "is_reserved": 0}, {"lat": 38.920407166666664, "fusion_lat": 0.0, "type": "electric_scooter", "name": "46c739d20a0e5b3796e2856777ff2687", "is_disabled": 0, "bike_id": "46c739d20a0e5b3796e2856777ff2687", "lon": -76.995719, "rental_uris": {"android": "https://dc.lft.to/lastmile_qr_scan", "ios": "https://dc.lft.to/lastmile_qr_scan"}, "fusion_lon": 0.0, "is_reserved": 0}, {"lat": 38.93157333333333, "fusion_lat": 0.0, "type": "electric_scooter", "name": "9193b6ca19b95edfa4ee81b0145d60ee", "is_disabled": 0, "bike_id": "9193b6ca19b95edfa4ee81b0145d60ee", "lon": -77.035014, "rental_uris": {"android": "https://dc.lft.to/lastmile_qr_scan", "ios": "https://dc.lft.to/lastmile_qr_scan"}, "fusion_lon": 0.0, "is_reserved": 0}, {"lat": 38.8923405, "fusion_lat": 0.0, "type": "electric_scooter", "name": "0105967afcffbaa900ebfe722eae7b9d", "is_disabled": 0, "bike_id": "0105967afcffbaa900ebfe722eae7b9d", "lon": -77.02588566666667, "rental_uris": {"android": "https://dc.lft.to/lastmile_qr_scan", "ios": "https://dc.lft.to/lastmile_qr_scan"}, "fusion_lon": 0.0, "is_reserved": 0}, {"lat": 38.98436266666667, "fusion_lat": 0.0, "type": "electric_scooter", "name": "661c2494c3adc31e08c89b3f6a8282b5", "is_disabled": 0, "bike_id": "661c2494c3adc31e08c89b3f6a8282b5", "lon": -77.02650883333334, "rental_uris": {"android": "https://dc.lft.to/lastmile_qr_scan", "ios": "https://dc.lft.to/lastmile_qr_scan"}, "fusion_lon": 0.0, "is_reserved": 0}, {"lat": 38.9214905, "fusion_lat": 0.0, "type": "electric_scooter", "name": "d352e7780a3e47d297e21b6d8fa26d3a", "is_disabled": 0, "bike_id": "d352e7780a3e47d297e21b6d8fa26d3a", "lon": -77.03438216666666, "rental_uris": {"android": "https://dc.lft.to/lastmile_qr_scan", "ios": "https://dc.lft.to/lastmile_qr_scan"}, "fusion_lon": 0.0, "is_reserved": 0}, {"lat": 38.915487, "fusion_lat": 0.0, "type": "electric_scooter", "name": "391782440ff4a91d618399bb05623def", "is_disabled": 0, "bike_id": "391782440ff4a91d618399bb05623def", "lon": -77.02362816666667, "rental_uris": {"android": "https://dc.lft.to/lastmile_qr_scan", "ios": "https://dc.lft.to/lastmile_qr_scan"}, "fusion_lon": 0.0, "is_reserved": 0}, {"lat": 38.91690066666666, "fusion_lat": 0.0, "type": "electric_scooter", "name": "dc8e0c0ba8fd781bb1f75d99a9511920", "is_disabled": 0, "bike_id": "dc8e0c0ba8fd781bb1f75d99a9511920", "lon": -77.02318866666667, "rental_uris": {"android": "https://dc.lft.to/lastmile_qr_scan", "ios": "https://dc.lft.to/lastmile_qr_scan"}, "fusion_lon": 0.0, "is_reserved": 0}, {"lat": 38.9191385, "fusion_lat": 0.0, "type": "electric_scooter", "name": "f08a9125f30944387f00f10d77399b60", "is_disabled": 0, "bike_id": "f08a9125f30944387f00f10d77399b60", "lon": -77.01344583333334, "rental_uris": {"android": "https://dc.lft.to/lastmile_qr_scan", "ios": "https://dc.lft.to/lastmile_qr_scan"}, "fusion_lon": 0.0, "is_reserved": 0}, {"lat": 38.932912, "fusion_lat": 0.0, "type": "electric_scooter", "name": "a45d4b4fa75a51ee235a0e5c43fe42a8", "is_disabled": 0, "bike_id": "a45d4b4fa75a51ee235a0e5c43fe42a8", "lon": -76.98627033333334, "rental_uris": {"android": "https://dc.lft.to/lastmile_qr_scan", "ios": "https://dc.lft.to/lastmile_qr_scan"}, "fusion_lon": 0.0, "is_reserved": 0}, {"lat": 38.9845985, "fusion_lat": 0.0, "type": "electric_bike", "name": "935ec594809847ad288a32d61701f43f", "is_disabled": 0, "bike_id": "935ec594809847ad288a32d61701f43f", "lon": -76.97050466666667, "rental_uris": {"android": "https://dc.lft.to/lastmile_qr_scan", "ios": "https://dc.lft.to/lastmile_qr_scan"}, "fusion_lon": 0.0, "is_reserved": 0}, {"lat": 38.87208183333333, "fusion_lat": 0.0, "type": "electric_scooter", "name": "3db1e9ccf6d5a859b11e1cc7229535d5", "is_disabled": 0, "bike_id": "3db1e9ccf6d5a859b11e1cc7229535d5", "lon": -77.01234233333334, "rental_uris": {"android": "https://dc.lft.to/lastmile_qr_scan", "ios": "https://dc.lft.to/lastmile_qr_scan"}, "fusion_lon": 0.0, "is_reserved": 0}, {"lat": 38.9286865, "fusion_lat": 0.0, "type": "electric_scooter", "name": "724bcf2d2fa28b5a41cb1e0d219ad6da", "is_disabled": 0, "bike_id": "724bcf2d2fa28b5a41cb1e0d219ad6da", "lon": -77.0331915, "rental_uris": {"android": "https://dc.lft.to/lastmile_qr_scan", "ios": "https://dc.lft.to/lastmile_qr_scan"}, "fusion_lon": 0.0, "is_reserved": 0}, {"lat": 38.911895333333334, "fusion_lat": 0.0, "type": "electric_scooter", "name": "aeba8935e76cdc02d378d4b9fb28c49a", "is_disabled": 0, "bike_id": "aeba8935e76cdc02d378d4b9fb28c49a", "lon": -77.0070615, "rental_uris": {"android": "https://dc.lft.to/lastmile_qr_scan", "ios": "https://dc.lft.to/lastmile_qr_scan"}, "fusion_lon": 0.0, "is_reserved": 0}, {"lat": 38.921455, "fusion_lat": 0.0, "type": "electric_scooter", "name": "6b10794af06652c3d7b8baf967af2d67", "is_disabled": 0, "bike_id": "6b10794af06652c3d7b8baf967af2d67", "lon": -77.0343755, "rental_uris": {"android": "https://dc.lft.to/lastmile_qr_scan", "ios": "https://dc.lft.to/lastmile_qr_scan"}, "fusion_lon": 0.0, "is_reserved": 0}, {"lat": 38.910034333333336, "fusion_lat": 0.0, "type": "electric_scooter", "name": "f85a4abd02726e437a1a4ba62252d48d", "is_disabled": 0, "bike_id": "f85a4abd02726e437a1a4ba62252d48d", "lon": -77.0365645, "rental_uris": {"android": "https://dc.lft.to/lastmile_qr_scan", "ios": "https://dc.lft.to/lastmile_qr_scan"}, "fusion_lon": 0.0, "is_reserved": 0}, {"lat": 38.90426383333333, "fusion_lat": 0.0, "type": "electric_scooter", "name": "f6d7fcd37201d66973a0bc3cc2990eb0", "is_disabled": 0, "bike_id": "f6d7fcd37201d66973a0bc3cc2990eb0", "lon": -77.04351816666667, "rental_uris": {"android": "https://dc.lft.to/lastmile_qr_scan", "ios": "https://dc.lft.to/lastmile_qr_scan"}, "fusion_lon": 0.0, "is_reserved": 0}, {"lat": 38.92249833333333, "fusion_lat": 0.0, "type": "electric_scooter", "name": "8c353b340e16b7b204412a669ec512dc", "is_disabled": 0, "bike_id": "8c353b340e16b7b204412a669ec512dc", "lon": -77.03899483333333, "rental_uris": {"android": "https://dc.lft.to/lastmile_qr_scan", "ios": "https://dc.lft.to/lastmile_qr_scan"}, "fusion_lon": 0.0, "is_reserved": 0}, {"lat": 38.90366133333333, "fusion_lat": 0.0, "type": "electric_scooter", "name": "ca72eb347ae78fc6dabfdda3129a60ca", "is_disabled": 0, "bike_id": "ca72eb347ae78fc6dabfdda3129a60ca", "lon": -77.04330716666666, "rental_uris": {"android": "https://dc.lft.to/lastmile_qr_scan", "ios": "https://dc.lft.to/lastmile_qr_scan"}, "fusion_lon": 0.0, "is_reserved": 0}, {"lat": 38.92437016666667, "fusion_lat": 0.0, "type": "electric_scooter", "name": "86e53952c77ce9eefddf1364af228526", "is_disabled": 0, "bike_id": "86e53952c77ce9eefddf1364af228526", "lon": -77.0399495, "rental_uris": {"android": "https://dc.lft.to/lastmile_qr_scan", "ios": "https://dc.lft.to/lastmile_qr_scan"}, "fusion_lon": 0.0, "is_reserved": 0}, {"lat": 38.898412666666665, "fusion_lat": 0.0, "type": "electric_scooter", "name": "69a861578e5f1acab9aeb15edc9dacaf", "is_disabled": 0, "bike_id": "69a861578e5f1acab9aeb15edc9dacaf", "lon": -77.02616683333333, "rental_uris": {"android": "https://dc.lft.to/lastmile_qr_scan", "ios": "https://dc.lft.to/lastmile_qr_scan"}, "fusion_lon": 0.0, "is_reserved": 0}, {"lat": 38.88500033333333, "fusion_lat": 0.0, "type": "electric_scooter", "name": "77972d3cccdafbf3b4c916854ea6b233", "is_disabled": 0, "bike_id": "77972d3cccdafbf3b4c916854ea6b233", "lon": -77.00891016666667, "rental_uris": {"android": "https://dc.lft.to/lastmile_qr_scan", "ios": "https://dc.lft.to/lastmile_qr_scan"}, "fusion_lon": 0.0, "is_reserved": 0}, {"lat": 38.93368, "fusion_lat": 0.0, "type": "electric_scooter", "name": "56caf8ac1e5c5c29402be5ebb90e22fd", "is_disabled": 0, "bike_id": "56caf8ac1e5c5c29402be5ebb90e22fd", "lon": -77.057273, "rental_uris": {"android": "https://dc.lft.to/lastmile_qr_scan", "ios": "https://dc.lft.to/lastmile_qr_scan"}, "fusion_lon": 0.0, "is_reserved": 0}, {"lat": 38.864506, "fusion_lat": 0.0, "type": "electric_bike", "name": "6c001307668312801e46e5ef71344abc", "is_disabled": 0, "bike_id": "6c001307668312801e46e5ef71344abc", "lon": -77.1068535, "rental_uris": {"android": "https://dc.lft.to/lastmile_qr_scan", "ios": "https://dc.lft.to/lastmile_qr_scan"}, "fusion_lon": 0.0, "is_reserved": 0}, {"lat": 38.907628333333335, "fusion_lat": 0.0, "type": "electric_scooter", "name": "2c475c6c7328b348836893e6d060405a", "is_disabled": 0, "bike_id": "2c475c6c7328b348836893e6d060405a", "lon": -77.04334, "rental_uris": {"android": "https://dc.lft.to/lastmile_qr_scan", "ios": "https://dc.lft.to/lastmile_qr_scan"}, "fusion_lon": 0.0, "is_reserved": 0}, {"lat": 38.91121616666667, "fusion_lat": 0.0, "type": "electric_scooter", "name": "5218cdff8cd628b6574e6482d49a1358", "is_disabled": 0, "bike_id": "5218cdff8cd628b6574e6482d49a1358", "lon": -77.03294533333333, "rental_uris": {"android": "https://dc.lft.to/lastmile_qr_scan", "ios": "https://dc.lft.to/lastmile_qr_scan"}, "fusion_lon": 0.0, "is_reserved": 0}, {"lat": 38.9152725, "fusion_lat": 0.0, "type": "electric_scooter", "name": "7126542495c580bea4074ebc503c36dd", "is_disabled": 0, "bike_id": "7126542495c580bea4074ebc503c36dd", "lon": -77.0383975, "rental_uris": {"android": "https://dc.lft.to/lastmile_qr_scan", "ios": "https://dc.lft.to/lastmile_qr_scan"}, "fusion_lon": 0.0, "is_reserved": 0}, {"lat": 38.918375166666664, "fusion_lat": 0.0, "type": "electric_scooter", "name": "3df0ea0cb2811daad1690d8271e6cd27", "is_disabled": 0, "bike_id": "3df0ea0cb2811daad1690d8271e6cd27", "lon": -77.03224033333333, "rental_uris": {"android": "https://dc.lft.to/lastmile_qr_scan", "ios": "https://dc.lft.to/lastmile_qr_scan"}, "fusion_lon": 0.0, "is_reserved": 0}, {"lat": 38.940228, "fusion_lat": 0.0, "type": "electric_bike", "name": "bbcc8d5e8a1cb6b08799053b1eaaa42a", "is_disabled": 0, "bike_id": "bbcc8d5e8a1cb6b08799053b1eaaa42a", "lon": -76.992228, "rental_uris": {"android": "https://dc.lft.to/lastmile_qr_scan", "ios": "https://dc.lft.to/lastmile_qr_scan"}, "fusion_lon": 0.0, "is_reserved": 0}, {"lat": 38.931579166666666, "fusion_lat": 0.0, "type": "electric_scooter", "name": "c7d9e51c11514e72a258935421303081", "is_disabled": 0, "bike_id": "c7d9e51c11514e72a258935421303081", "lon": -77.056777, "rental_uris": {"android": "https://dc.lft.to/lastmile_qr_scan", "ios": "https://dc.lft.to/lastmile_qr_scan"}, "fusion_lon": 0.0, "is_reserved": 0}, {"lat": 38.923613833333334, "fusion_lat": 0.0, "type": "electric_scooter", "name": "d63ed533a047bf4f25464a0b47e3cede", "is_disabled": 0, "bike_id": "d63ed533a047bf4f25464a0b47e3cede", "lon": -77.05131033333333, "rental_uris": {"android": "https://dc.lft.to/lastmile_qr_scan", "ios": "https://dc.lft.to/lastmile_qr_scan"}, "fusion_lon": 0.0, "is_reserved": 0}, {"lat": 38.917092833333335, "fusion_lat": 0.0, "type": "electric_scooter", "name": "37d6d328cc08f396fdf45d3368ecd4ae", "is_disabled": 0, "bike_id": "37d6d328cc08f396fdf45d3368ecd4ae", "lon": -77.0278285, "rental_uris": {"android": "https://dc.lft.to/lastmile_qr_scan", "ios": "https://dc.lft.to/lastmile_qr_scan"}, "fusion_lon": 0.0, "is_reserved": 0}, {"lat": 38.934307, "fusion_lat": 0.0, "type": "electric_scooter", "name": "a604ee33fad3fe471b3c959302c5eeef", "is_disabled": 0, "bike_id": "a604ee33fad3fe471b3c959302c5eeef", "lon": -77.0558065, "rental_uris": {"android": "https://dc.lft.to/lastmile_qr_scan", "ios": "https://dc.lft.to/lastmile_qr_scan"}, "fusion_lon": 0.0, "is_reserved": 0}, {"lat": 38.910695833333335, "fusion_lat": 0.0, "type": "electric_scooter", "name": "79bfa9060882dc8fd6e965d9f02df329", "is_disabled": 0, "bike_id": "79bfa9060882dc8fd6e965d9f02df329", "lon": -76.98659466666666, "rental_uris": {"android": "https://dc.lft.to/lastmile_qr_scan", "ios": "https://dc.lft.to/lastmile_qr_scan"}, "fusion_lon": 0.0, "is_reserved": 0}, {"lat": 38.92625133333333, "fusion_lat": 0.0, "type": "electric_scooter", "name": "8a1a83fe4956700ce48b80b95d765db5", "is_disabled": 0, "bike_id": "8a1a83fe4956700ce48b80b95d765db5", "lon": -77.04219616666667, "rental_uris": {"android": "https://dc.lft.to/lastmile_qr_scan", "ios": "https://dc.lft.to/lastmile_qr_scan"}, "fusion_lon": 0.0, "is_reserved": 0}, {"lat": 38.89221783333333, "fusion_lat": 0.0, "type": "electric_scooter", "name": "28f37dbcda162e8bc3be3f823cac3191", "is_disabled": 0, "bike_id": "28f37dbcda162e8bc3be3f823cac3191", "lon": -77.04515466666666, "rental_uris": {"android": "https://dc.lft.to/lastmile_qr_scan", "ios": "https://dc.lft.to/lastmile_qr_scan"}, "fusion_lon": 0.0, "is_reserved": 0}, {"lat": 38.865659, "fusion_lat": 0.0, "type": "electric_scooter", "name": "6a6a8cb58c0d0ba5c926120d5e38ee9a", "is_disabled": 0, "bike_id": "6a6a8cb58c0d0ba5c926120d5e38ee9a", "lon": -76.98335333333333, "rental_uris": {"android": "https://dc.lft.to/lastmile_qr_scan", "ios": "https://dc.lft.to/lastmile_qr_scan"}, "fusion_lon": 0.0, "is_reserved": 0}, {"lat": 38.89222816666667, "fusion_lat": 0.0, "type": "electric_scooter", "name": "9c4610b0c740e15d7dcd66bddd107ad8", "is_disabled": 0, "bike_id": "9c4610b0c740e15d7dcd66bddd107ad8", "lon": -77.04688933333334, "rental_uris": {"android": "https://dc.lft.to/lastmile_qr_scan", "ios": "https://dc.lft.to/lastmile_qr_scan"}, "fusion_lon": 0.0, "is_reserved": 0}, {"lat": 38.91110533333333, "fusion_lat": 0.0, "type": "electric_scooter", "name": "d8acc4341ffa90ba337c710f89dc1126", "is_disabled": 0, "bike_id": "d8acc4341ffa90ba337c710f89dc1126", "lon": -77.0383265, "rental_uris": {"android": "https://dc.lft.to/lastmile_qr_scan", "ios": "https://dc.lft.to/lastmile_qr_scan"}, "fusion_lon": 0.0, "is_reserved": 0}, {"lat": 38.9229675, "fusion_lat": 0.0, "type": "electric_scooter", "name": "b5a472d7e12b875e8f92f8e5a5f53643", "is_disabled": 0, "bike_id": "b5a472d7e12b875e8f92f8e5a5f53643", "lon": -77.02524733333334, "rental_uris": {"android": "https://dc.lft.to/lastmile_qr_scan", "ios": "https://dc.lft.to/lastmile_qr_scan"}, "fusion_lon": 0.0, "is_reserved": 0}, {"lat": 38.920840166666665, "fusion_lat": 0.0, "type": "electric_scooter", "name": "2510f6b7fe50e8d23835d2d5e7bd7c40", "is_disabled": 0, "bike_id": "2510f6b7fe50e8d23835d2d5e7bd7c40", "lon": -77.02292766666666, "rental_uris": {"android": "https://dc.lft.to/lastmile_qr_scan", "ios": "https://dc.lft.to/lastmile_qr_scan"}, "fusion_lon": 0.0, "is_reserved": 0}, {"lat": 38.903109666666666, "fusion_lat": 0.0, "type": "electric_scooter", "name": "2382eb498bc833df204df817ad9870cd", "is_disabled": 0, "bike_id": "2382eb498bc833df204df817ad9870cd", "lon": -77.034599, "rental_uris": {"android": "https://dc.lft.to/lastmile_qr_scan", "ios": "https://dc.lft.to/lastmile_qr_scan"}, "fusion_lon": 0.0, "is_reserved": 0}, {"lat": 38.904745, "fusion_lat": 0.0, "type": "electric_bike", "name": "fd3b671deffbad50ff5ca1175bc83ae3", "is_disabled": 0, "bike_id": "fd3b671deffbad50ff5ca1175bc83ae3", "lon": -77.05479266666667, "rental_uris": {"android": "https://dc.lft.to/lastmile_qr_scan", "ios": "https://dc.lft.to/lastmile_qr_scan"}, "fusion_lon": 0.0, "is_reserved": 0}, {"lat": 38.9146835, "fusion_lat": 0.0, "type": "electric_scooter", "name": "5a11ddb499c8e0ff4426aa4f91a005bb", "is_disabled": 0, "bike_id": "5a11ddb499c8e0ff4426aa4f91a005bb", "lon": -77.01423283333334, "rental_uris": {"android": "https://dc.lft.to/lastmile_qr_scan", "ios": "https://dc.lft.to/lastmile_qr_scan"}, "fusion_lon": 0.0, "is_reserved": 0}, {"lat": 38.804477, "fusion_lat": 0.0, "type": "electric_bike", "name": "e5d43def7e347cc431772d782b3438a6", "is_disabled": 0, "bike_id": "e5d43def7e347cc431772d782b3438a6", "lon": -77.05394516666667, "rental_uris": {"android": "https://dc.lft.to/lastmile_qr_scan", "ios": "https://dc.lft.to/lastmile_qr_scan"}, "fusion_lon": 0.0, "is_reserved": 0}, {"lat": 38.92684083333333, "fusion_lat": 0.0, "type": "electric_scooter", "name": "f2dc7e5fd6dd6851d45bf059c0b27936", "is_disabled": 0, "bike_id": "f2dc7e5fd6dd6851d45bf059c0b27936", "lon": -77.0148495, "rental_uris": {"android": "https://dc.lft.to/lastmile_qr_scan", "ios": "https://dc.lft.to/lastmile_qr_scan"}, "fusion_lon": 0.0, "is_reserved": 0}, {"lat": 38.89858816666667, "fusion_lat": 0.0, "type": "electric_scooter", "name": "1c2899e219c577f8b963b411977cf47e", "is_disabled": 0, "bike_id": "1c2899e219c577f8b963b411977cf47e", "lon": -77.0415745, "rental_uris": {"android": "https://dc.lft.to/lastmile_qr_scan", "ios": "https://dc.lft.to/lastmile_qr_scan"}, "fusion_lon": 0.0, "is_reserved": 0}, {"lat": 38.899899833333336, "fusion_lat": 0.0, "type": "electric_scooter", "name": "53c352da5d51a7c734705c32e16b3ff1", "is_disabled": 0, "bike_id": "53c352da5d51a7c734705c32e16b3ff1", "lon": -76.98087366666667, "rental_uris": {"android": "https://dc.lft.to/lastmile_qr_scan", "ios": "https://dc.lft.to/lastmile_qr_scan"}, "fusion_lon": 0.0, "is_reserved": 0}, {"lat": 38.89167966666667, "fusion_lat": 0.0, "type": "electric_scooter", "name": "b209fb2ce3d90233619188ff6078dfcb", "is_disabled": 0, "bike_id": "b209fb2ce3d90233619188ff6078dfcb", "lon": -77.01537533333334, "rental_uris": {"android": "https://dc.lft.to/lastmile_qr_scan", "ios": "https://dc.lft.to/lastmile_qr_scan"}, "fusion_lon": 0.0, "is_reserved": 0}, {"lat": 38.905644, "fusion_lat": 0.0, "type": "electric_scooter", "name": "cdb2fac23305e976e16deafde6ba05f8", "is_disabled": 0, "bike_id": "cdb2fac23305e976e16deafde6ba05f8", "lon": -77.02243016666667, "rental_uris": {"android": "https://dc.lft.to/lastmile_qr_scan", "ios": "https://dc.lft.to/lastmile_qr_scan"}, "fusion_lon": 0.0, "is_reserved": 0}, {"lat": 38.9189065, "fusion_lat": 0.0, "type": "electric_scooter", "name": "da1924730e81e9cb2380e8c2523564e5", "is_disabled": 0, "bike_id": "da1924730e81e9cb2380e8c2523564e5", "lon": -77.0417, "rental_uris": {"android": "https://dc.lft.to/lastmile_qr_scan", "ios": "https://dc.lft.to/lastmile_qr_scan"}, "fusion_lon": 0.0, "is_reserved": 0}, {"lat": 38.883801166666665, "fusion_lat": 0.0, "type": "electric_scooter", "name": "85b852e16c6f0ce5c4ec308a22d3cdf6", "is_disabled": 0, "bike_id": "85b852e16c6f0ce5c4ec308a22d3cdf6", "lon": -77.01916216666666, "rental_uris": {"android": "https://dc.lft.to/lastmile_qr_scan", "ios": "https://dc.lft.to/lastmile_qr_scan"}, "fusion_lon": 0.0, "is_reserved": 0}, {"lat": 38.897333833333334, "fusion_lat": 0.0, "type": "electric_scooter", "name": "96b4d9e3b9ab907a20e7639b4f7c7868", "is_disabled": 0, "bike_id": "96b4d9e3b9ab907a20e7639b4f7c7868", "lon": -77.04776666666666, "rental_uris": {"android": "https://dc.lft.to/lastmile_qr_scan", "ios": "https://dc.lft.to/lastmile_qr_scan"}, "fusion_lon": 0.0, "is_reserved": 0}, {"lat": 38.90568616666667, "fusion_lat": 0.0, "type": "electric_scooter", "name": "b1ad5485339c7bfd518c56477f1848da", "is_disabled": 0, "bike_id": "b1ad5485339c7bfd518c56477f1848da", "lon": -77.02171866666667, "rental_uris": {"android": "https://dc.lft.to/lastmile_qr_scan", "ios": "https://dc.lft.to/lastmile_qr_scan"}, "fusion_lon": 0.0, "is_reserved": 0}, {"lat": 38.878680333333335, "fusion_lat": 0.0, "type": "electric_scooter", "name": "3552008574bb41b5eecd8fa8c7cdc790", "is_disabled": 0, "bike_id": "3552008574bb41b5eecd8fa8c7cdc790", "lon": -77.0161335, "rental_uris": {"android": "https://dc.lft.to/lastmile_qr_scan", "ios": "https://dc.lft.to/lastmile_qr_scan"}, "fusion_lon": 0.0, "is_reserved": 0}, {"lat": 38.8662805, "fusion_lat": 0.0, "type": "electric_scooter", "name": "d06c34182ae7f71ea6a645335b4bc0ef", "is_disabled": 0, "bike_id": "d06c34182ae7f71ea6a645335b4bc0ef", "lon": -76.98714633333333, "rental_uris": {"android": "https://dc.lft.to/lastmile_qr_scan", "ios": "https://dc.lft.to/lastmile_qr_scan"}, "fusion_lon": 0.0, "is_reserved": 0}, {"lat": 38.91104833333333, "fusion_lat": 0.0, "type": "electric_scooter", "name": "b87f11423b051db2d607d5d69166ac1a", "is_disabled": 0, "bike_id": "b87f11423b051db2d607d5d69166ac1a", "lon": -77.00214433333333, "rental_uris": {"android": "https://dc.lft.to/lastmile_qr_scan", "ios": "https://dc.lft.to/lastmile_qr_scan"}, "fusion_lon": 0.0, "is_reserved": 0}, {"lat": 38.85176583333333, "fusion_lat": 0.0, "type": "electric_scooter", "name": "75ab8befe82d78a043a570812f3ff34e", "is_disabled": 0, "bike_id": "75ab8befe82d78a043a570812f3ff34e", "lon": -76.99579633333333, "rental_uris": {"android": "https://dc.lft.to/lastmile_qr_scan", "ios": "https://dc.lft.to/lastmile_qr_scan"}, "fusion_lon": 0.0, "is_reserved": 0}, {"lat": 38.879254833333334, "fusion_lat": 0.0, "type": "electric_scooter", "name": "8f1409b0935b9d97b307466ac903c2e5", "is_disabled": 0, "bike_id": "8f1409b0935b9d97b307466ac903c2e5", "lon": -76.99519516666666, "rental_uris": {"android": "https://dc.lft.to/lastmile_qr_scan", "ios": "https://dc.lft.to/lastmile_qr_scan"}, "fusion_lon": 0.0, "is_reserved": 0}, {"lat": 38.89699183333333, "fusion_lat": 0.0, "type": "electric_scooter", "name": "dd46d3e645e1c5ba36b7826f1423dfb9", "is_disabled": 0, "bike_id": "dd46d3e645e1c5ba36b7826f1423dfb9", "lon": -77.011831, "rental_uris": {"android": "https://dc.lft.to/lastmile_qr_scan", "ios": "https://dc.lft.to/lastmile_qr_scan"}, "fusion_lon": 0.0, "is_reserved": 0}, {"lat": 38.87931283333333, "fusion_lat": 0.0, "type": "electric_bike", "name": "98a78ed39a940653a13f755a90d26da7", "is_disabled": 0, "bike_id": "98a78ed39a940653a13f755a90d26da7", "lon": -77.02353083333334, "rental_uris": {"android": "https://dc.lft.to/lastmile_qr_scan", "ios": "https://dc.lft.to/lastmile_qr_scan"}, "fusion_lon": 0.0, "is_reserved": 0}, {"lat": 38.89704233333333, "fusion_lat": 0.0, "type": "electric_scooter", "name": "4b0f4ac0d55494f8f49c6aa1f96b5f6e", "is_disabled": 0, "bike_id": "4b0f4ac0d55494f8f49c6aa1f96b5f6e", "lon": -77.0228785, "rental_uris": {"android": "https://dc.lft.to/lastmile_qr_scan", "ios": "https://dc.lft.to/lastmile_qr_scan"}, "fusion_lon": 0.0, "is_reserved": 0}, {"lat": 38.931126166666665, "fusion_lat": 0.0, "type": "electric_scooter", "name": "f020dbbeae4adcc7a2b5cbb65801d559", "is_disabled": 0, "bike_id": "f020dbbeae4adcc7a2b5cbb65801d559", "lon": -77.03025533333333, "rental_uris": {"android": "https://dc.lft.to/lastmile_qr_scan", "ios": "https://dc.lft.to/lastmile_qr_scan"}, "fusion_lon": 0.0, "is_reserved": 0}, {"lat": 38.85635533333333, "fusion_lat": 0.0, "type": "electric_scooter", "name": "2a10c9565a392586516f7f0c89225813", "is_disabled": 0, "bike_id": "2a10c9565a392586516f7f0c89225813", "lon": -76.96686433333333, "rental_uris": {"android": "https://dc.lft.to/lastmile_qr_scan", "ios": "https://dc.lft.to/lastmile_qr_scan"}, "fusion_lon": 0.0, "is_reserved": 0}, {"lat": 38.87674583333333, "fusion_lat": 0.0, "type": "electric_scooter", "name": "9d24f6f0693430bab0667a46aceef4ee", "is_disabled": 0, "bike_id": "9d24f6f0693430bab0667a46aceef4ee", "lon": -77.00572266666667, "rental_uris": {"android": "https://dc.lft.to/lastmile_qr_scan", "ios": "https://dc.lft.to/lastmile_qr_scan"}, "fusion_lon": 0.0, "is_reserved": 0}, {"lat": 38.90372516666667, "fusion_lat": 0.0, "type": "electric_scooter", "name": "cb57d0e5a0c8e8c6dcba95a8a1fcf292", "is_disabled": 0, "bike_id": "cb57d0e5a0c8e8c6dcba95a8a1fcf292", "lon": -77.03845733333333, "rental_uris": {"android": "https://dc.lft.to/lastmile_qr_scan", "ios": "https://dc.lft.to/lastmile_qr_scan"}, "fusion_lon": 0.0, "is_reserved": 0}, {"lat": 38.90960283333333, "fusion_lat": 0.0, "type": "electric_scooter", "name": "694be3eff2deb3ad60ece5068e1b1053", "is_disabled": 0, "bike_id": "694be3eff2deb3ad60ece5068e1b1053", "lon": -77.02558366666666, "rental_uris": {"android": "https://dc.lft.to/lastmile_qr_scan", "ios": "https://dc.lft.to/lastmile_qr_scan"}, "fusion_lon": 0.0, "is_reserved": 0}, {"lat": 38.894668, "fusion_lat": 0.0, "type": "electric_scooter", "name": "ba1a990c6f03890a7483b46f62df9ef6", "is_disabled": 0, "bike_id": "ba1a990c6f03890a7483b46f62df9ef6", "lon": -77.003419, "rental_uris": {"android": "https://dc.lft.to/lastmile_qr_scan", "ios": "https://dc.lft.to/lastmile_qr_scan"}, "fusion_lon": 0.0, "is_reserved": 0}, {"lat": 38.8447035, "fusion_lat": 0.0, "type": "electric_bike", "name": "1640ddcdb538e8fad70521c0813af5b4", "is_disabled": 0, "bike_id": "1640ddcdb538e8fad70521c0813af5b4", "lon": -76.978536, "rental_uris": {"android": "https://dc.lft.to/lastmile_qr_scan", "ios": "https://dc.lft.to/lastmile_qr_scan"}, "fusion_lon": 0.0, "is_reserved": 0}, {"lat": 38.914914833333334, "fusion_lat": 0.0, "type": "electric_scooter", "name": "ee4a7894867575de30954880b92184f6", "is_disabled": 0, "bike_id": "ee4a7894867575de30954880b92184f6", "lon": -77.04834733333334, "rental_uris": {"android": "https://dc.lft.to/lastmile_qr_scan", "ios": "https://dc.lft.to/lastmile_qr_scan"}, "fusion_lon": 0.0, "is_reserved": 0}, {"lat": 38.89347566666667, "fusion_lat": 0.0, "type": "electric_scooter", "name": "58fe206535a5e6dc60328cab5c25d464", "is_disabled": 0, "bike_id": "58fe206535a5e6dc60328cab5c25d464", "lon": -76.94935733333334, "rental_uris": {"android": "https://dc.lft.to/lastmile_qr_scan", "ios": "https://dc.lft.to/lastmile_qr_scan"}, "fusion_lon": 0.0, "is_reserved": 0}, {"lat": 38.92356316666667, "fusion_lat": 0.0, "type": "electric_scooter", "name": "f8364fae42c654fb920e79776aae5c4e", "is_disabled": 0, "bike_id": "f8364fae42c654fb920e79776aae5c4e", "lon": -77.018932, "rental_uris": {"android": "https://dc.lft.to/lastmile_qr_scan", "ios": "https://dc.lft.to/lastmile_qr_scan"}, "fusion_lon": 0.0, "is_reserved": 0}, {"lat": 38.9163355, "fusion_lat": 0.0, "type": "electric_scooter", "name": "dafb4d18b4b239ed8647690ccd49f338", "is_disabled": 0, "bike_id": "dafb4d18b4b239ed8647690ccd49f338", "lon": -77.02549516666667, "rental_uris": {"android": "https://dc.lft.to/lastmile_qr_scan", "ios": "https://dc.lft.to/lastmile_qr_scan"}, "fusion_lon": 0.0, "is_reserved": 0}, {"lat": 38.960514333333336, "fusion_lat": 0.0, "type": "electric_scooter", "name": "e22ec2b600a0c39102a861df78c354b6", "is_disabled": 0, "bike_id": "e22ec2b600a0c39102a861df78c354b6", "lon": -77.027957, "rental_uris": {"android": "https://dc.lft.to/lastmile_qr_scan", "ios": "https://dc.lft.to/lastmile_qr_scan"}, "fusion_lon": 0.0, "is_reserved": 0}, {"lat": 38.899130166666666, "fusion_lat": 0.0, "type": "electric_bike", "name": "46099f2908cf16bd6e7f7f5d6936a6b7", "is_disabled": 0, "bike_id": "46099f2908cf16bd6e7f7f5d6936a6b7", "lon": -77.04873266666667, "rental_uris": {"android": "https://dc.lft.to/lastmile_qr_scan", "ios": "https://dc.lft.to/lastmile_qr_scan"}, "fusion_lon": 0.0, "is_reserved": 0}, {"lat": 38.89609183333334, "fusion_lat": 0.0, "type": "electric_scooter", "name": "c57a336ee1ca111f2a29a2f7beabfc73", "is_disabled": 0, "bike_id": "c57a336ee1ca111f2a29a2f7beabfc73", "lon": -77.02376366666667, "rental_uris": {"android": "https://dc.lft.to/lastmile_qr_scan", "ios": "https://dc.lft.to/lastmile_qr_scan"}, "fusion_lon": 0.0, "is_reserved": 0}, {"lat": 38.89671366666666, "fusion_lat": 0.0, "type": "electric_scooter", "name": "eb89ce6f1ec26c358a285224536a5fa9", "is_disabled": 0, "bike_id": "eb89ce6f1ec26c358a285224536a5fa9", "lon": -77.051363, "rental_uris": {"android": "https://dc.lft.to/lastmile_qr_scan", "ios": "https://dc.lft.to/lastmile_qr_scan"}, "fusion_lon": 0.0, "is_reserved": 0}, {"lat": 38.89520683333333, "fusion_lat": 0.0, "type": "electric_scooter", "name": "4e36f2d1a006e0f94b49aea2745dc121", "is_disabled": 0, "bike_id": "4e36f2d1a006e0f94b49aea2745dc121", "lon": -77.0229235, "rental_uris": {"android": "https://dc.lft.to/lastmile_qr_scan", "ios": "https://dc.lft.to/lastmile_qr_scan"}, "fusion_lon": 0.0, "is_reserved": 0}, {"lat": 38.94415866666667, "fusion_lat": 0.0, "type": "electric_scooter", "name": "677fb66587982e7c5e49a96936b4db1f", "is_disabled": 0, "bike_id": "677fb66587982e7c5e49a96936b4db1f", "lon": -77.05514383333333, "rental_uris": {"android": "https://dc.lft.to/lastmile_qr_scan", "ios": "https://dc.lft.to/lastmile_qr_scan"}, "fusion_lon": 0.0, "is_reserved": 0}, {"lat": 38.92484133333333, "fusion_lat": 0.0, "type": "electric_scooter", "name": "130e66c3ad463e0eb94caca0be526119", "is_disabled": 0, "bike_id": "130e66c3ad463e0eb94caca0be526119", "lon": -77.031768, "rental_uris": {"android": "https://dc.lft.to/lastmile_qr_scan", "ios": "https://dc.lft.to/lastmile_qr_scan"}, "fusion_lon": 0.0, "is_reserved": 0}, {"lat": 38.884946666666664, "fusion_lat": 0.0, "type": "electric_scooter", "name": "a83175635a109559d826e1c87ef89665", "is_disabled": 0, "bike_id": "a83175635a109559d826e1c87ef89665", "lon": -77.00890233333334, "rental_uris": {"android": "https://dc.lft.to/lastmile_qr_scan", "ios": "https://dc.lft.to/lastmile_qr_scan"}, "fusion_lon": 0.0, "is_reserved": 0}, {"lat": 38.943256833333336, "fusion_lat": 0.0, "type": "electric_bike", "name": "99423c469369b0b715378b4212a219d5", "is_disabled": 0, "bike_id": "99423c469369b0b715378b4212a219d5", "lon": -77.06291033333333, "rental_uris": {"android": "https://dc.lft.to/lastmile_qr_scan", "ios": "https://dc.lft.to/lastmile_qr_scan"}, "fusion_lon": 0.0, "is_reserved": 0}, {"lat": 38.912685333333336, "fusion_lat": 0.0, "type": "electric_scooter", "name": "8ba6fe20e76db6172da1a8dab699b932", "is_disabled": 0, "bike_id": "8ba6fe20e76db6172da1a8dab699b932", "lon": -77.04837733333333, "rental_uris": {"android": "https://dc.lft.to/lastmile_qr_scan", "ios": "https://dc.lft.to/lastmile_qr_scan"}, "fusion_lon": 0.0, "is_reserved": 0}, {"lat": 38.910518333333336, "fusion_lat": 0.0, "type": "electric_scooter", "name": "401285ae5d412bd1966a7e6cdae893ee", "is_disabled": 0, "bike_id": "401285ae5d412bd1966a7e6cdae893ee", "lon": -77.021938, "rental_uris": {"android": "https://dc.lft.to/lastmile_qr_scan", "ios": "https://dc.lft.to/lastmile_qr_scan"}, "fusion_lon": 0.0, "is_reserved": 0}, {"lat": 38.887637166666664, "fusion_lat": 0.0, "type": "electric_scooter", "name": "5452f7b8ecdbe3b085a9215a40ebf664", "is_disabled": 0, "bike_id": "5452f7b8ecdbe3b085a9215a40ebf664", "lon": -77.00208383333333, "rental_uris": {"android": "https://dc.lft.to/lastmile_qr_scan", "ios": "https://dc.lft.to/lastmile_qr_scan"}, "fusion_lon": 0.0, "is_reserved": 0}, {"lat": 38.8651685, "fusion_lat": 0.0, "type": "electric_bike", "name": "fcb0ef82223f1fae334507b2fb0860c0", "is_disabled": 0, "bike_id": "fcb0ef82223f1fae334507b2fb0860c0", "lon": -77.12934883333334, "rental_uris": {"android": "https://dc.lft.to/lastmile_qr_scan", "ios": "https://dc.lft.to/lastmile_qr_scan"}, "fusion_lon": 0.0, "is_reserved": 0}, {"lat": 38.9363955, "fusion_lat": 0.0, "type": "electric_scooter", "name": "36999643df54fe33e40e9ce605c9d95e", "is_disabled": 0, "bike_id": "36999643df54fe33e40e9ce605c9d95e", "lon": -77.06008683333333, "rental_uris": {"android": "https://dc.lft.to/lastmile_qr_scan", "ios": "https://dc.lft.to/lastmile_qr_scan"}, "fusion_lon": 0.0, "is_reserved": 0}, {"lat": 38.87170883333334, "fusion_lat": 0.0, "type": "electric_scooter", "name": "b7a373b60c0da271255473d18b805e9a", "is_disabled": 0, "bike_id": "b7a373b60c0da271255473d18b805e9a", "lon": -77.00680016666666, "rental_uris": {"android": "https://dc.lft.to/lastmile_qr_scan", "ios": "https://dc.lft.to/lastmile_qr_scan"}, "fusion_lon": 0.0, "is_reserved": 0}, {"lat": 38.924610333333334, "fusion_lat": 0.0, "type": "electric_scooter", "name": "3250affd83f1ddbf7931b36a973a0083", "is_disabled": 0, "bike_id": "3250affd83f1ddbf7931b36a973a0083", "lon": -77.02157533333333, "rental_uris": {"android": "https://dc.lft.to/lastmile_qr_scan", "ios": "https://dc.lft.to/lastmile_qr_scan"}, "fusion_lon": 0.0, "is_reserved": 0}, {"lat": 38.937127833333335, "fusion_lat": 0.0, "type": "electric_scooter", "name": "a659d48be624092cfeb1b976edc070f8", "is_disabled": 0, "bike_id": "a659d48be624092cfeb1b976edc070f8", "lon": -77.02424616666667, "rental_uris": {"android": "https://dc.lft.to/lastmile_qr_scan", "ios": "https://dc.lft.to/lastmile_qr_scan"}, "fusion_lon": 0.0, "is_reserved": 0}, {"lat": 38.91254766666667, "fusion_lat": 0.0, "type": "electric_scooter", "name": "ec392dbb31bfca788b5df21446aa9635", "is_disabled": 0, "bike_id": "ec392dbb31bfca788b5df21446aa9635", "lon": -77.03823516666667, "rental_uris": {"android": "https://dc.lft.to/lastmile_qr_scan", "ios": "https://dc.lft.to/lastmile_qr_scan"}, "fusion_lon": 0.0, "is_reserved": 0}, {"lat": 38.874901, "fusion_lat": 0.0, "type": "electric_scooter", "name": "ce1d9854cb4e85b158434e914bfd1f3b", "is_disabled": 0, "bike_id": "ce1d9854cb4e85b158434e914bfd1f3b", "lon": -77.00093683333333, "rental_uris": {"android": "https://dc.lft.to/lastmile_qr_scan", "ios": "https://dc.lft.to/lastmile_qr_scan"}, "fusion_lon": 0.0, "is_reserved": 0}, {"lat": 38.89533566666667, "fusion_lat": 0.0, "type": "electric_scooter", "name": "1995470b0d0a7020b01d3d7d21fada5c", "is_disabled": 0, "bike_id": "1995470b0d0a7020b01d3d7d21fada5c", "lon": -77.01983733333333, "rental_uris": {"android": "https://dc.lft.to/lastmile_qr_scan", "ios": "https://dc.lft.to/lastmile_qr_scan"}, "fusion_lon": 0.0, "is_reserved": 0}, {"lat": 38.896896, "fusion_lat": 0.0, "type": "electric_scooter", "name": "9c63a1d0572d98db63a8902dbce4bd57", "is_disabled": 0, "bike_id": "9c63a1d0572d98db63a8902dbce4bd57", "lon": -77.00490733333334, "rental_uris": {"android": "https://dc.lft.to/lastmile_qr_scan", "ios": "https://dc.lft.to/lastmile_qr_scan"}, "fusion_lon": 0.0, "is_reserved": 0}, {"lat": 38.926762, "fusion_lat": 0.0, "type": "electric_scooter", "name": "d73b18debb7d38b77ac355c7ebcdee1d", "is_disabled": 0, "bike_id": "d73b18debb7d38b77ac355c7ebcdee1d", "lon": -77.01555733333333, "rental_uris": {"android": "https://dc.lft.to/lastmile_qr_scan", "ios": "https://dc.lft.to/lastmile_qr_scan"}, "fusion_lon": 0.0, "is_reserved": 0}, {"lat": 38.90562466666667, "fusion_lat": 0.0, "type": "electric_scooter", "name": "237af41f138ee88761e5711f116f4804", "is_disabled": 0, "bike_id": "237af41f138ee88761e5711f116f4804", "lon": -77.03453, "rental_uris": {"android": "https://dc.lft.to/lastmile_qr_scan", "ios": "https://dc.lft.to/lastmile_qr_scan"}, "fusion_lon": 0.0, "is_reserved": 0}, {"lat": 38.938241833333336, "fusion_lat": 0.0, "type": "electric_scooter", "name": "25a0c8d9cf56243ff9c904e1773c254c", "is_disabled": 0, "bike_id": "25a0c8d9cf56243ff9c904e1773c254c", "lon": -77.059905, "rental_uris": {"android": "https://dc.lft.to/lastmile_qr_scan", "ios": "https://dc.lft.to/lastmile_qr_scan"}, "fusion_lon": 0.0, "is_reserved": 0}, {"lat": 38.91380366666667, "fusion_lat": 0.0, "type": "electric_scooter", "name": "f0cb2478e44569e428ff9ddf95aca8a5", "is_disabled": 0, "bike_id": "f0cb2478e44569e428ff9ddf95aca8a5", "lon": -77.04137583333333, "rental_uris": {"android": "https://dc.lft.to/lastmile_qr_scan", "ios": "https://dc.lft.to/lastmile_qr_scan"}, "fusion_lon": 0.0, "is_reserved": 0}, {"lat": 38.902011, "fusion_lat": 0.0, "type": "electric_scooter", "name": "a69059fb3ca9e12ecfadcedeea750649", "is_disabled": 0, "bike_id": "a69059fb3ca9e12ecfadcedeea750649", "lon": -77.0612305, "rental_uris": {"android": "https://dc.lft.to/lastmile_qr_scan", "ios": "https://dc.lft.to/lastmile_qr_scan"}, "fusion_lon": 0.0, "is_reserved": 0}, {"lat": 38.885027666666666, "fusion_lat": 0.0, "type": "electric_bike", "name": "c066f7216524ec89599fd812efaf783d", "is_disabled": 0, "bike_id": "c066f7216524ec89599fd812efaf783d", "lon": -76.99705716666666, "rental_uris": {"android": "https://dc.lft.to/lastmile_qr_scan", "ios": "https://dc.lft.to/lastmile_qr_scan"}, "fusion_lon": 0.0, "is_reserved": 0}, {"lat": 38.89220433333333, "fusion_lat": 0.0, "type": "electric_scooter", "name": "308f785012d7f200f37795b173959248", "is_disabled": 0, "bike_id": "308f785012d7f200f37795b173959248", "lon": -77.0463885, "rental_uris": {"android": "https://dc.lft.to/lastmile_qr_scan", "ios": "https://dc.lft.to/lastmile_qr_scan"}, "fusion_lon": 0.0, "is_reserved": 0}, {"lat": 38.93235966666667, "fusion_lat": 0.0, "type": "electric_bike", "name": "0ca2c80daecbdf23c37dce375359bf7c", "is_disabled": 0, "bike_id": "0ca2c80daecbdf23c37dce375359bf7c", "lon": -76.97423383333333, "rental_uris": {"android": "https://dc.lft.to/lastmile_qr_scan", "ios": "https://dc.lft.to/lastmile_qr_scan"}, "fusion_lon": 0.0, "is_reserved": 0}, {"lat": 38.8922595, "fusion_lat": 0.0, "type": "electric_scooter", "name": "fd1f24b76e8367408f87ca13d9b60d03", "is_disabled": 0, "bike_id": "fd1f24b76e8367408f87ca13d9b60d03", "lon": -77.04987233333334, "rental_uris": {"android": "https://dc.lft.to/lastmile_qr_scan", "ios": "https://dc.lft.to/lastmile_qr_scan"}, "fusion_lon": 0.0, "is_reserved": 0}, {"lat": 38.93880133333333, "fusion_lat": 0.0, "type": "electric_scooter", "name": "e602904b495196c93bcc696b4231e9fa", "is_disabled": 0, "bike_id": "e602904b495196c93bcc696b4231e9fa", "lon": -77.02482033333334, "rental_uris": {"android": "https://dc.lft.to/lastmile_qr_scan", "ios": "https://dc.lft.to/lastmile_qr_scan"}, "fusion_lon": 0.0, "is_reserved": 0}, {"lat": 38.90048, "fusion_lat": 0.0, "type": "electric_scooter", "name": "f5226a3fb7200a673c1228e2fc0e03c1", "is_disabled": 0, "bike_id": "f5226a3fb7200a673c1228e2fc0e03c1", "lon": -77.03189866666666, "rental_uris": {"android": "https://dc.lft.to/lastmile_qr_scan", "ios": "https://dc.lft.to/lastmile_qr_scan"}, "fusion_lon": 0.0, "is_reserved": 0}, {"lat": 38.950561, "fusion_lat": 0.0, "type": "electric_bike", "name": "3c4f4d5a79b52ee965e042c671c3ab5c", "is_disabled": 0, "bike_id": "3c4f4d5a79b52ee965e042c671c3ab5c", "lon": -77.01389366666666, "rental_uris": {"android": "https://dc.lft.to/lastmile_qr_scan", "ios": "https://dc.lft.to/lastmile_qr_scan"}, "fusion_lon": 0.0, "is_reserved": 0}, {"lat": 38.87491216666667, "fusion_lat": 0.0, "type": "electric_bike", "name": "7c65dbc2758e46ad887c4b30a1d84696", "is_disabled": 0, "bike_id": "7c65dbc2758e46ad887c4b30a1d84696", "lon": -77.21124516666667, "rental_uris": {"android": "https://dc.lft.to/lastmile_qr_scan", "ios": "https://dc.lft.to/lastmile_qr_scan"}, "fusion_lon": 0.0, "is_reserved": 0}, {"lat": 38.903751666666665, "fusion_lat": 0.0, "type": "electric_scooter", "name": "fe1a1cc963ece04a5897210b7dbf4cf6", "is_disabled": 0, "bike_id": "fe1a1cc963ece04a5897210b7dbf4cf6", "lon": -77.0421595, "rental_uris": {"android": "https://dc.lft.to/lastmile_qr_scan", "ios": "https://dc.lft.to/lastmile_qr_scan"}, "fusion_lon": 0.0, "is_reserved": 0}, {"lat": 38.896136, "fusion_lat": 0.0, "type": "electric_bike", "name": "8f53c63d09c8824770087bbae58bd41f", "is_disabled": 0, "bike_id": "8f53c63d09c8824770087bbae58bd41f", "lon": -76.90735, "rental_uris": {"android": "https://dc.lft.to/lastmile_qr_scan", "ios": "https://dc.lft.to/lastmile_qr_scan"}, "fusion_lon": 0.0, "is_reserved": 0}, {"lat": 38.91415683333334, "fusion_lat": 0.0, "type": "electric_scooter", "name": "d1af90347286fcc7be415c372641e2e3", "is_disabled": 0, "bike_id": "d1af90347286fcc7be415c372641e2e3", "lon": -77.02584616666667, "rental_uris": {"android": "https://dc.lft.to/lastmile_qr_scan", "ios": "https://dc.lft.to/lastmile_qr_scan"}, "fusion_lon": 0.0, "is_reserved": 0}, {"lat": 38.9336785, "fusion_lat": 0.0, "type": "electric_scooter", "name": "ad4360c2c51dad8f4604ab1718c54e7e", "is_disabled": 0, "bike_id": "ad4360c2c51dad8f4604ab1718c54e7e", "lon": -77.0572555, "rental_uris": {"android": "https://dc.lft.to/lastmile_qr_scan", "ios": "https://dc.lft.to/lastmile_qr_scan"}, "fusion_lon": 0.0, "is_reserved": 0}, {"lat": 38.900937666666664, "fusion_lat": 0.0, "type": "electric_scooter", "name": "dd0ce794094e0bffbf071538776c7302", "is_disabled": 0, "bike_id": "dd0ce794094e0bffbf071538776c7302", "lon": -77.03956133333334, "rental_uris": {"android": "https://dc.lft.to/lastmile_qr_scan", "ios": "https://dc.lft.to/lastmile_qr_scan"}, "fusion_lon": 0.0, "is_reserved": 0}, {"lat": 38.89225316666667, "fusion_lat": 0.0, "type": "electric_scooter", "name": "927cd7c239893868943da669f7aa65d4", "is_disabled": 0, "bike_id": "927cd7c239893868943da669f7aa65d4", "lon": -77.02385466666667, "rental_uris": {"android": "https://dc.lft.to/lastmile_qr_scan", "ios": "https://dc.lft.to/lastmile_qr_scan"}, "fusion_lon": 0.0, "is_reserved": 0}, {"lat": 38.94978366666667, "fusion_lat": 0.0, "type": "electric_scooter", "name": "53b747efc48841421b9a133fb99ea331", "is_disabled": 0, "bike_id": "53b747efc48841421b9a133fb99ea331", "lon": -77.02699616666666, "rental_uris": {"android": "https://dc.lft.to/lastmile_qr_scan", "ios": "https://dc.lft.to/lastmile_qr_scan"}, "fusion_lon": 0.0, "is_reserved": 0}, {"lat": 38.92466483333333, "fusion_lat": 0.0, "type": "electric_scooter", "name": "61f885cb8545b77935ed8c26de8d1570", "is_disabled": 0, "bike_id": "61f885cb8545b77935ed8c26de8d1570", "lon": -77.05236433333333, "rental_uris": {"android": "https://dc.lft.to/lastmile_qr_scan", "ios": "https://dc.lft.to/lastmile_qr_scan"}, "fusion_lon": 0.0, "is_reserved": 0}, {"lat": 38.835513666666664, "fusion_lat": 0.0, "type": "electric_bike", "name": "dd53fda51e3dd268d5423d6dd83e7ae5", "is_disabled": 0, "bike_id": "dd53fda51e3dd268d5423d6dd83e7ae5", "lon": -76.9872545, "rental_uris": {"android": "https://dc.lft.to/lastmile_qr_scan", "ios": "https://dc.lft.to/lastmile_qr_scan"}, "fusion_lon": 0.0, "is_reserved": 0}, {"lat": 38.892218166666666, "fusion_lat": 0.0, "type": "electric_scooter", "name": "b8382f1027a2227047410084b00f4fe3", "is_disabled": 0, "bike_id": "b8382f1027a2227047410084b00f4fe3", "lon": -77.04194233333334, "rental_uris": {"android": "https://dc.lft.to/lastmile_qr_scan", "ios": "https://dc.lft.to/lastmile_qr_scan"}, "fusion_lon": 0.0, "is_reserved": 0},