{"data": {"bikes": [{"is_reserved": 0, "fusion_lon": 0.0, "fusion_lat": 0.0, "name": "e37401aebd8e45a2ae350543169a1f25", "type": "electric_scooter", "is_disabled": 0, "lat": 38.9024415, "rental_uris": {"android": "https://dc.lft.to/lastmile_qr_scan", "ios": "https://dc.lft.to/lastmile_qr_scan"}, "bike_id": "e37401aebd8e45a2ae350543169a1f25", "lon": -76.989695}, {"is_reserved": 0, "fusion_lon": 0.0, "fusion_lat": 0.0, "name": "ecb34cf57a37c7be1a4d83935e72db50", "type": "electric_scooter", "is_disabled": 0, "lat": 38.90876883333333, "rental_uris": {"android": "https://dc.lft.to/lastmile_qr_scan", "ios": "https://dc.lft.to/lastmile_qr_scan"}, "bike_id": "ecb34cf57a37c7be1a4d83935e72db50", "lon": -77.00217516666666}, {"is_reserved": 0, "fusion_lon": 0.0, "fusion_lat": 0.0, "name": "04c8e13c0f81475fe89c7da34ea8083d", "type": "electric_scooter", "is_disabled": 0, "lat": 38.866911, "rental_uris": {"android": "https://dc.lft.to/lastmile_qr_scan", "ios": "https://dc.lft.to/lastmile_qr_scan"}, "bike_id": "04c8e13c0f81475fe89c7da34ea8083d", "lon": -76.986142}, {"is_reserved": 0, "fusion_lon": 0.0, "fusion_lat": 0.0, "name": "c7ae719bfa2dcb3506c8dc8c7ea8e12d", "type": "electric_bike", "is_disabled": 0, "lat": 38.842751, "rental_uris": {"android": "https://dc.lft.to/lastmile_qr_scan", "ios": "https://dc.lft.to/lastmile_qr_scan"}, "bike_id": "c7ae719bfa2dcb3506c8dc8c7ea8e12d", "lon": -76.98837333333333}, {"is_reserved": 0, "fusion_lon": 0.0, "fusion_lat": 0.0, "name": "97297afd2528173a9fe62028ffb686c8", "type": "electric_scooter", "is_disabled": 0, "lat": 38.91552183333334, "rental_uris": {"android": "https://dc.lft.to/lastmile_qr_scan", "ios": "https://dc.lft.to/lastmile_qr_scan"}, "bike_id": "97297afd2528173a9fe62028ffb686c8", "lon": -77.0236945}, {"is_reserved": 0, "fusion_lon": 0.0, "fusion_lat": 0.0, "name": "8e1235a5b46efc0a7b513c564fd1515a", "type": "electric_scooter", "is_disabled": 0, "lat": 38.89494416666667, "rental_uris": {"android": "https://dc.lft.to/lastmile_qr_scan", "ios": "https://dc.lft.to/lastmile_qr_scan"}, "bike_id": "8e1235a5b46efc0a7b513c564fd1515a", "lon": -77.02318466666667}, {"is_reserved": 0, "fusion_lon": 0.0, "fusion_lat": 0.0, "name": "32388583d5da4de56b128ca4276e86bb", "type": "electric_scooter", "is_disabled": 0, "lat": 38.898738, "rental_uris": {"android": "https://dc.lft.to/lastmile_qr_scan", "ios": "https://dc.lft.to/lastmile_qr_scan"}, "bike_id": "32388583d5da4de56b128ca4276e86bb", "lon": -76.93185333333334}, {"is_reserved": 0, "fusion_lon": 0.0, "fusion_lat": 0.0, "name": "a9d644794884992f99a646b6324f1391", "type": "electric_scooter", "is_disabled": 0, "lat": 38.910591833333335, "rental_uris": {"android": "https://dc.lft.to/lastmile_qr_scan", "ios": "https://dc.lft.to/lastmile_qr_scan"}, "bike_id": "a9d644794884992f99a646b6324f1391", "lon": -77.02973066666667}, {"is_reserved": 0, "fusion_lon": 0.0, "fusion_lat": 0.0, "name": "3da8253fe0411a0e2baf497071cbfd02", "type": "electric_scooter", "is_disabled": 0, "lat": 38.901323833333336, "rental_uris": {"android": "https://dc.lft.to/lastmile_qr_scan", "ios": "https://dc.lft.to/lastmile_qr_scan"}, "bike_id": "3da8253fe0411a0e2baf497071cbfd02", "lon": -77.04017016666667}, {"is_reserved": 0, "fusion_lon": 0.0, "fusion_lat": 0.0, "name": "4acef0fb754c3a4145ac6324034d85a2", "type": "electric_scooter", "is_disabled": 0, "lat": 38.88732516666666, "rental_uris": {"android": "https://dc.lft.to/lastmile_qr_scan", "ios": "https://dc.lft.to/lastmile_qr_scan"}, "bike_id": "4acef0fb754c3a4145ac6324034d85a2", "lon": -77.01747316666666}, {"is_reserved": 0, "fusion_lon": 0.0, "fusion_lat": 0.0, "name": "1c0345155daf556c5f1549dd25e7de3d", "type": "electric_scooter", "is_disabled": 0, "lat": 38.899966166666665, "rental_uris": {"android": "https://dc.lft.to/lastmile_qr_scan", "ios": "https://dc.lft.to/lastmile_qr_scan"}, "bike_id": "1c0345155daf556c5f1549dd25e7de3d", "lon": -76.99839816666666}, {"is_reserved": 0, "fusion_lon": 0.0, "fusion_lat": 0.0, "name": "e447355485599229ccb20cb133c5c9a8", "type": "electric_scooter", "is_disabled": 0, "lat": 38.906624666666666, "rental_uris": {"android": "https://dc.lft.to/lastmile_qr_scan", "ios": "https://dc.lft.to/lastmile_qr_scan"}, "bike_id": "e447355485599229ccb20cb133c5c9a8", "lon": -77.04150483333333}, {"is_reserved": 0, "fusion_lon": 0.0, "fusion_lat": 0.0, "name": "b458ccb42f9c48a9ee26f1efddd175ea", "type": "electric_scooter", "is_disabled": 0, "lat": 38.905636333333334, "rental_uris": {"android": "https://dc.lft.to/lastmile_qr_scan", "ios": "https://dc.lft.to/lastmile_qr_scan"}, "bike_id": "b458ccb42f9c48a9ee26f1efddd175ea", "lon": -77.00589533333333}, {"is_reserved": 0, "fusion_lon": 0.0, "fusion_lat": 0.0, "name": "dc25cd6e44226a458c0ffaacb57284bf", "type": "electric_scooter", "is_disabled": 0, "lat": 38.89233866666667, "rental_uris": {"android": "https://dc.lft.to/lastmile_qr_scan", "ios": "https://dc.lft.to/lastmile_qr_scan"}, "bike_id": "dc25cd6e44226a458c0ffaacb57284bf", "lon": -77.032122}, {"is_reserved": 0, "fusion_lon": 0.0, "fusion_lat": 0.0, "name": "4bbfa7414d5d4c600f0a0fa2e0a66bb0", "type": "electric_scooter", "is_disabled": 0, "lat": 38.935371833333335, "rental_uris": {"android": "https://dc.lft.to/lastmile_qr_scan", "ios": "https://dc.lft.to/lastmile_qr_scan"}, "bike_id": "4bbfa7414d5d4c600f0a0fa2e0a66bb0", "lon": -77.02346883333334}, {"is_reserved": 0, "fusion_lon": 0.0, "fusion_lat": 0.0, "name": "0a4fa314e9512d6a5ac410cb1bc85571", "type": "electric_scooter", "is_disabled": 0, "lat": 38.901715, "rental_uris": {"android": "https://dc.lft.to/lastmile_qr_scan", "ios": "https://dc.lft.to/lastmile_qr_scan"}, "bike_id": "0a4fa314e9512d6a5ac410cb1bc85571", "lon": -76.98014233333333}, {"is_reserved": 0, "fusion_lon": 0.0, "fusion_lat": 0.0, "name": "e3f37a47c0fc914cde58151860983207", "type": "electric_scooter", "is_disabled": 0, "lat": 38.91550216666667, "rental_uris": {"android": "https://dc.lft.to/lastmile_qr_scan", "ios": "https://dc.lft.to/lastmile_qr_scan"}, "bike_id": "e3f37a47c0fc914cde58151860983207", "lon": -77.0036465}, {"is_reserved": 0, "fusion_lon": 0.0, "fusion_lat": 0.0, "name": "236c4059f26c7caac51614fca59db053", "type": "electric_scooter", "is_disabled": 0, "lat": 38.9080095, "rental_uris": {"android": "https://dc.lft.to/lastmile_qr_scan", "ios": "https://dc.lft.to/lastmile_qr_scan"}, "bike_id": "236c4059f26c7caac51614fca59db053", "lon": -77.032042}, {"is_reserved": 0, "fusion_lon": 0.0, "fusion_lat": 0.0, "name": "0e70ce58eee3643d1ba668e20e7c7ffc", "type": "electric_scooter", "is_disabled": 0, "lat": 38.905393333333336, "rental_uris": {"android": "https://dc.lft.to/lastmile_qr_scan", "ios": "https://dc.lft.to/lastmile_qr_scan"}, "bike_id": "0e70ce58eee3643d1ba668e20e7c7ffc", "lon": -77.021983}, {"is_reserved": 0, "fusion_lon": 0.0, "fusion_lat": 0.0, "name": "894bcad7956e6ac564c67881df16de2b", "type": "electric_scooter", "is_disabled": 0, "lat": 38.897420333333336, "rental_uris": {"android": "https://dc.lft.to/lastmile_qr_scan", "ios": "https://dc.lft.to/lastmile_qr_scan"}, "bike_id": "894bcad7956e6ac564c67881df16de2b", "lon": -77.03348383333334}, {"is_reserved": 0, "fusion_lon": 0.0, "fusion_lat": 0.0, "name": "eb546a6cd5fb7727d1efa4e23a4a9ee7", "type": "electric_bike", "is_disabled": 0, "lat": 38.9678915, "rental_uris": {"android": "https://dc.lft.to/lastmile_qr_scan", "ios": "https://dc.lft.to/lastmile_qr_scan"}, "bike_id": "eb546a6cd5fb7727d1efa4e23a4a9ee7", "lon": -77.00036883333334}, {"is_reserved": 0, "fusion_lon": 0.0, "fusion_lat": 0.0, "name": "2ade887300be0d5115679622c0ade610", "type": "electric_scooter", "is_disabled": 0, "lat": 38.923371833333334, "rental_uris": {"android": "https://dc.lft.to/lastmile_qr_scan", "ios": "https://dc.lft.to/lastmile_qr_scan"}, "bike_id": "2ade887300be0d5115679622c0ade610", "lon": -77.03620433333333}, {"is_reserved": 0, "fusion_lon": 0.0, "fusion_lat": 0.0, "name": "570fec45d8899a6b769d5249f05e06b4", "type": "electric_scooter", "is_disabled": 0, "lat": 38.961168, "rental_uris": {"android": "https://dc.lft.to/lastmile_qr_scan", "ios": "https://dc.lft.to/lastmile_qr_scan"}, "bike_id": "570fec45d8899a6b769d5249f05e06b4", "lon": -77.02789333333334}, {"is_reserved": 0, "fusion_lon": 0.0, "fusion_lat": 0.0, "name": "d147ab41e6c0218a32a43dfbed71ae69", "type": "electric_bike", "is_disabled": 0, "lat": 38.959313333333334, "rental_uris": {"android": "https://dc.lft.to/lastmile_qr_scan", "ios": "https://dc.lft.to/lastmile_qr_scan"}, "bike_id": "d147ab41e6c0218a32a43dfbed71ae69", "lon": -76.92533766666666}, {"is_reserved": 0, "fusion_lon": 0.0, "fusion_lat": 0.0, "name": "d4146176708d5b1c927f0bf6a430468e", "type": "electric_scooter", "is_disabled": 0, "lat": 38.907309, "rental_uris": {"android": "https://dc.lft.to/lastmile_qr_scan", "ios": "https://dc.lft.to/lastmile_qr_scan"}, "bike_id": "d4146176708d5b1c927f0bf6a430468e", "lon": -76.98692133333333}, {"is_reserved": 0, "fusion_lon": 0.0, "fusion_lat": 0.0, "name": "a70aac887fa33225c5fefe61fd4f4ec5", "type": "electric_scooter", "is_disabled": 0, "lat": 38.87234433333333, "rental_uris": {"android": "https://dc.lft.to/lastmile_qr_scan", "ios": "https://dc.lft.to/lastmile_qr_scan"}, "bike_id": "a70aac887fa33225c5fefe61fd4f4ec5", "lon": -77.011718}, {"is_reserved": 0, "fusion_lon": 0.0, "fusion_lat": 0.0, "name": "c6174f710dc14b2d1f4697be119b29b7", "type": "electric_scooter", "is_disabled": 0, "lat": 38.9170885, "rental_uris": {"android": "https://dc.lft.to/lastmile_qr_scan", "ios": "https://dc.lft.to/lastmile_qr_scan"}, "bike_id": "c6174f710dc14b2d1f4697be119b29b7", "lon": -77.0311345}, {"is_reserved": 0, "fusion_lon": 0.0, "fusion_lat": 0.0, "name": "0d5355adf9591ba69349b7f9ad209991", "type": "electric_scooter", "is_disabled": 0, "lat": 38.90048266666667, "rental_uris": {"android": "https://dc.lft.to/lastmile_qr_scan", "ios": "https://dc.lft.to/lastmile_qr_scan"}, "bike_id": "0d5355adf9591ba69349b7f9ad209991", "lon": -77.04191566666667}, {"is_reserved": 0, "fusion_lon": 0.0, "fusion_lat": 0.0, "name": "3e7bc646481e76744f088be175cd4284", "type": "electric_scooter", "is_disabled": 0, "lat": 38.892216, "rental_uris": {"android": "https://dc.lft.to/lastmile_qr_scan", "ios": "https://dc.lft.to/lastmile_qr_scan"}, "bike_id": "3e7bc646481e76744f088be175cd4284", "lon": -77.0437815}, {"is_reserved": 0, "fusion_lon": 0.0, "fusion_lat": 0.0, "name": "0c9f47e50230bc576900624a97715f84", "type": "electric_scooter", "is_disabled": 0, "lat": 38.892218666666665, "rental_uris": {"android": "https://dc.lft.to/lastmile_qr_scan", "ios": "https://dc.lft.to/lastmile_qr_scan"}, "bike_id": "0c9f47e50230bc576900624a97715f84", "lon": -77.0437285}, {"is_reserved": 0, "fusion_lon": 0.0, "fusion_lat": 0.0, "name": "6661ffad77c5746c2c89a98b6f0aba84", "type": "electric_scooter", "is_disabled": 0, "lat": 38.89299916666667, "rental_uris": {"android": "https://dc.lft.to/lastmile_qr_scan", "ios": "https://dc.lft.to/lastmile_qr_scan"}, "bike_id": "6661ffad77c5746c2c89a98b6f0aba84", "lon": -76.93926883333333}, {"is_reserved": 0, "fusion_lon": 0.0, "fusion_lat": 0.0, "name": "a8bf0806fb032a40edbbab1d703017b9", "type": "electric_scooter", "is_disabled": 0, "lat": 38.88111583333333, "rental_uris": {"android": "https://dc.lft.to/lastmile_qr_scan", "ios": "https://dc.lft.to/lastmile_qr_scan"}, "bike_id": "a8bf0806fb032a40edbbab1d703017b9", "lon": -77.01666083333333}, {"is_reserved": 0, "fusion_lon": 0.0, "fusion_lat": 0.0, "name": "f31c524f1152804c66bd31d111320edb", "type": "electric_scooter", "is_disabled": 0, "lat": 38.90980583333333, "rental_uris": {"android": "https://dc.lft.to/lastmile_qr_scan", "ios": "https://dc.lft.to/lastmile_qr_scan"}, "bike_id": "f31c524f1152804c66bd31d111320edb", "lon": -77.04226183333333}, {"is_reserved": 0, "fusion_lon": 0.0, "fusion_lat": 0.0, "name": "c9cdf50b6042e9bfc3ed4f7665139ea4", "type": "electric_scooter", "is_disabled": 0, "lat": 38.93673966666667, "rental_uris": {"android": "https://dc.lft.to/lastmile_qr_scan", "ios": "https://dc.lft.to/lastmile_qr_scan"}, "bike_id": "c9cdf50b6042e9bfc3ed4f7665139ea4", "lon": -77.0357665}, {"is_reserved": 0, "fusion_lon": 0.0, "fusion_lat": 0.0, "name": "7a82a13fb70a54d9a01a3d3dcf7f2c4b", "type": "electric_scooter", "is_disabled": 0, "lat": 38.89617883333333, "rental_uris": {"android": "https://dc.lft.to/lastmile_qr_scan", "ios": "https://dc.lft.to/lastmile_qr_scan"}, "bike_id": "7a82a13fb70a54d9a01a3d3dcf7f2c4b", "lon": -77.022203}, {"is_reserved": 0, "fusion_lon": 0.0, "fusion_lat": 0.0, "name": "29151a8b675d56ecbb5f7ce2f03ed9e3", "type": "electric_scooter", "is_disabled": 0, "lat": 38.91662016666667, "rental_uris": {"android": "https://dc.lft.to/lastmile_qr_scan", "ios": "https://dc.lft.to/lastmile_qr_scan"}, "bike_id": "29151a8b675d56ecbb5f7ce2f03ed9e3", "lon": -77.03854166666666}, {"is_reserved": 0, "fusion_lon": 0.0, "fusion_lat": 0.0, "name": "885673768d27ce4fb1bccc367ade68a6", "type": "electric_bike", "is_disabled": 0, "lat": 38.812019, "rental_uris": {"android": "https://dc.lft.to/lastmile_qr_scan", "ios": "https://dc.lft.to/lastmile_qr_scan"}, "bike_id": "885673768d27ce4fb1bccc367ade68a6", "lon": -77.108386}, {"is_reserved": 0, "fusion_lon": 0.0, "fusion_lat": 0.0, "name": "533ed5f143719b84d6692ce059b4f78d", "type": "electric_bike", "is_disabled": 0, "lat": 38.948931333333334, "rental_uris": {"android": "https://dc.lft.to/lastmile_qr_scan", "ios": "https://dc.lft.to/lastmile_qr_scan"}, "bike_id": "533ed5f143719b84d6692ce059b4f78d", "lon": -77.03441816666667}, {"is_reserved": 0, "fusion_lon": 0.0, "fusion_lat": 0.0, "name": "098466b2c6a4af2549fd45cd70bd1bbb", "type": "electric_scooter", "is_disabled": 0, "lat": 38.901788, "rental_uris": {"android": "https://dc.lft.to/lastmile_qr_scan", "ios": "https://dc.lft.to/lastmile_qr_scan"}, "bike_id": "098466b2c6a4af2549fd45cd70bd1bbb", "lon": -77.01309983333333}, {"is_reserved": 0, "fusion_lon": 0.0, "fusion_lat": 0.0, "name": "30822a4d475f667e68db32916e5c9b5d", "type": "electric_scooter", "is_disabled": 0, "lat": 38.926605333333335, "rental_uris": {"android": "https://dc.lft.to/lastmile_qr_scan", "ios": "https://dc.lft.to/lastmile_qr_scan"}, "bike_id": "30822a4d475f667e68db32916e5c9b5d", "lon": -77.022814}, {"is_reserved": 0, "fusion_lon": 0.0, "fusion_lat": 0.0, "name": "f95c64e22e4139f467a33df3a94e977a", "type": "electric_bike", "is_disabled": 0, "lat": 38.96467, "rental_uris": {"android": "https://dc.lft.to/lastmile_qr_scan", "ios": "https://dc.lft.to/lastmile_qr_scan"}, "bike_id": "f95c64e22e4139f467a33df3a94e977a", "lon": -77.03562933333333}, {"is_reserved": 0, "fusion_lon": 0.0, "fusion_lat": 0.0, "name": "b5838843f778e06cf31d2f10a2f657ce", "type": "electric_scooter", "is_disabled": 0, "lat": 38.9012935, "rental_uris": {"android": "https://dc.lft.to/lastmile_qr_scan", "ios": "https://dc.lft.to/lastmile_qr_scan"}, "bike_id": "b5838843f778e06cf31d2f10a2f657ce", "lon": -77.04024733333334}, {"is_reserved": 0, "fusion_lon": 0.0, "fusion_lat": 0.0, "name": "665cb4a2afb7522fd93b38aa41c06cd3", "type": "electric_scooter", "is_disabled": 0, "lat": 38.89314733333333, "rental_uris": {"android": "https://dc.lft.to/lastmile_qr_scan", "ios": "https://dc.lft.to/lastmile_qr_scan"}, "bike_id": "665cb4a2afb7522fd93b38aa41c06cd3", "lon": -76.92907066666666}, {"is_reserved": 0, "fusion_lon": 0.0, "fusion_lat": 0.0, "name": "246ef20ff7bb2b6fcd27e06a677cd177", "type": "electric_scooter", "is_disabled": 0, "lat": 38.906009833333336, "rental_uris": {"android": "https://dc.lft.to/lastmile_qr_scan", "ios": "https://dc.lft.to/lastmile_qr_scan"}, "bike_id": "246ef20ff7bb2b6fcd27e06a677cd177", "lon": -77.00388683333334}, {"is_reserved": 0, "fusion_lon": 0.0, "fusion_lat": 0.0, "name": "3e8305ad9f8f41ee7cdfa8fe17462f7b", "type": "electric_scooter", "is_disabled": 0, "lat": 38.864786, "rental_uris": {"android": "https://dc.lft.to/lastmile_qr_scan", "ios": "https://dc.lft.to/lastmile_qr_scan"}, "bike_id": "3e8305ad9f8f41ee7cdfa8fe17462f7b", "lon": -76.982302}, {"is_reserved": 0, "fusion_lon": 0.0, "fusion_lat": 0.0, "name": "02451c615898d11d4f4d8f2375c678ea", "type": "electric_scooter", "is_disabled": 0, "lat": 38.914890166666666, "rental_uris": {"android": "https://dc.lft.to/lastmile_qr_scan", "ios": "https://dc.lft.to/lastmile_qr_scan"}, "bike_id": "02451c615898d11d4f4d8f2375c678ea", "lon": -77.01997466666667}, {"is_reserved": 0, "fusion_lon": 0.0, "fusion_lat": 0.0, "name": "7c054c635a2c600c12e5e2ed1bdce58b", "type": "electric_scooter", "is_disabled": 0, "lat": 38.939487666666665, "rental_uris": {"android": "https://dc.lft.to/lastmile_qr_scan", "ios": "https://dc.lft.to/lastmile_qr_scan"}, "bike_id": "7c054c635a2c600c12e5e2ed1bdce58b", "lon": -77.02486866666666}, {"is_reserved": 0, "fusion_lon": 0.0, "fusion_lat": 0.0, "name": "d2079d91e857f21a871744c1253a2ec7", "type": "electric_scooter", "is_disabled": 0, "lat": 38.90269033333333, "rental_uris": {"android": "https://dc.lft.to/lastmile_qr_scan", "ios": "https://dc.lft.to/lastmile_qr_scan"}, "bike_id": "d2079d91e857f21a871744c1253a2ec7", "lon": -77.03644583333333}, {"is_reserved": 0, "fusion_lon": 0.0, "fusion_lat": 0.0, "name": "f5744390b122879de4884d25e7d3b58e", "type": "electric_scooter", "is_disabled": 0, "lat": 38.923203, "rental_uris": {"android": "https://dc.lft.to/lastmile_qr_scan", "ios": "https://dc.lft.to/lastmile_qr_scan"}, "bike_id": "f5744390b122879de4884d25e7d3b58e", "lon": -77.03546666666666}, {"is_reserved": 0, "fusion_lon": 0.0, "fusion_lat": 0.0, "name": "194782ed96adb9505fe55ddf50cfa702", "type": "electric_scooter", "is_disabled": 0, "lat": 38.90881483333333, "rental_uris": {"android": "https://dc.lft.to/lastmile_qr_scan", "ios": "https://dc.lft.to/lastmile_qr_scan"}, "bike_id": "194782ed96adb9505fe55ddf50cfa702", "lon": -76.99856633333333}, {"is_reserved": 0, "fusion_lon": 0.0, "fusion_lat": 0.0, "name": "71470d825228f7dc6c0babdab00d12a4", "type": "electric_scooter", "is_disabled": 0, "lat": 38.996083166666665, "rental_uris": {"android": "https://dc.lft.to/lastmile_qr_scan", "ios": "https://dc.lft.to/lastmile_qr_scan"}, "bike_id": "71470d825228f7dc6c0babdab00d12a4", "lon": -77.0322345}, {"is_reserved": 0, "fusion_lon": 0.0, "fusion_lat": 0.0, "name": "c15f94e3b60d9e96b1704820d2c78e3e", "type": "electric_scooter", "is_disabled": 0, "lat": 38.906707, "rental_uris": {"android": "https://dc.lft.to/lastmile_qr_scan", "ios": "https://dc.lft.to/lastmile_qr_scan"}, "bike_id": "c15f94e3b60d9e96b1704820d2c78e3e", "lon": -77.027191}, {"is_reserved": 0, "fusion_lon": 0.0, "fusion_lat": 0.0, "name": "f6a3ef21478bbd81b50adab729b33138", "type": "electric_scooter", "is_disabled": 0, "lat": 38.904838166666664, "rental_uris": {"android": "https://dc.lft.to/lastmile_qr_scan", "ios": "https://dc.lft.to/lastmile_qr_scan"}, "bike_id": "f6a3ef21478bbd81b50adab729b33138", "lon": -76.98228633333333}, {"is_reserved": 0, "fusion_lon": 0.0, "fusion_lat": 0.0, "name": "9d6f3f823ad0eeff07066779316f43d0", "type": "electric_scooter", "is_disabled": 0, "lat": 38.892166833333334, "rental_uris": {"android": "https://dc.lft.to/lastmile_qr_scan", "ios": "https://dc.lft.to/lastmile_qr_scan"}, "bike_id": "9d6f3f823ad0eeff07066779316f43d0", "lon": -76.99259766666667}, {"is_reserved": 0, "fusion_lon": 0.0, "fusion_lat": 0.0, "name": "9a7ac04818bbb419de47d8c72d7d5ac2", "type": "electric_scooter", "is_disabled": 0, "lat": 38.928745666666664, "rental_uris": {"android": "https://dc.lft.to/lastmile_qr_scan", "ios": "https://dc.lft.to/lastmile_qr_scan"}, "bike_id": "9a7ac04818bbb419de47d8c72d7d5ac2", "lon": -77.033323}, {"is_reserved": 0, "fusion_lon": 0.0, "fusion_lat": 0.0, "name": "29f6ea61645afcf38e473718dcdb81ea", "type": "electric_bike", "is_disabled": 0, "lat": 38.874273, "rental_uris": {"android": "https://dc.lft.to/lastmile_qr_scan", "ios": "https://dc.lft.to/lastmile_qr_scan"}, "bike_id": "29f6ea61645afcf38e473718dcdb81ea", "lon": -77.10829433333333}, {"is_reserved": 0, "fusion_lon": 0.0, "fusion_lat": 0.0, "name": "fe8c6f7390f8e2ef9ed036b501a10da7", "type": "electric_scooter", "is_disabled": 0, "lat": 38.919162666666665, "rental_uris": {"android": "https://dc.lft.to/lastmile_qr_scan", "ios": "https://dc.lft.to/lastmile_qr_scan"}, "bike_id": "fe8c6f7390f8e2ef9ed036b501a10da7", "lon": -77.07891266666667}, {"is_reserved": 0, "fusion_lon": 0.0, "fusion_lat": 0.0, "name": "f5344ed5b9904339e436013ec3fdf406", "type": "electric_scooter", "is_disabled": 0, "lat": 38.9223465, "rental_uris": {"android": "https://dc.lft.to/lastmile_qr_scan", "ios": "https://dc.lft.to/lastmile_qr_scan"}, "bike_id": "f5344ed5b9904339e436013ec3fdf406", "lon": -77.044958}, {"is_reserved": 0, "fusion_lon": 0.0, "fusion_lat": 0.0, "name": "5e36203d60b9f38c99ce4d8fdb2b1749", "type": "electric_scooter", "is_disabled": 0, "lat": 38.917939, "rental_uris": {"android": "https://dc.lft.to/lastmile_qr_scan", "ios": "https://dc.lft.to/lastmile_qr_scan"}, "bike_id": "5e36203d60b9f38c99ce4d8fdb2b1749", "lon": -77.03458916666666}, {"is_reserved": 0, "fusion_lon": 0.0, "fusion_lat": 0.0, "name": "fc070869c5edec1cb6bca364ba3a2f91", "type": "electric_scooter", "is_disabled": 0, "lat": 38.900253, "rental_uris": {"android": "https://dc.lft.to/lastmile_qr_scan", "ios": "https://dc.lft.to/lastmile_qr_scan"}, "bike_id": "fc070869c5edec1cb6bca364ba3a2f91", "lon": -77.03296016666667}, {"is_reserved": 0, "fusion_lon": 0.0, "fusion_lat": 0.0, "name": "2ba5f7abad7b5e7c8e44427b8deb1307", "type": "electric_scooter", "is_disabled": 0, "lat": 38.883643, "rental_uris": {"android": "https://dc.lft.to/lastmile_qr_scan", "ios": "https://dc.lft.to/lastmile_qr_scan"}, "bike_id": "2ba5f7abad7b5e7c8e44427b8deb1307", "lon": -76.94154616666667}, {"is_reserved": 0, "fusion_lon": 0.0, "fusion_lat": 0.0, "name": "52f2e8df1660e711e376e9138dac94a2", "type": "electric_bike", "is_disabled": 0, "lat": 38.91128916666667, "rental_uris": {"android": "https://dc.lft.to/lastmile_qr_scan", "ios": "https://dc.lft.to/lastmile_qr_scan"}, "bike_id": "52f2e8df1660e711e376e9138dac94a2", "lon": -77.08614683333333}, {"is_reserved": 0, "fusion_lon": 0.0, "fusion_lat": 0.0, "name": "059a4740352ac17ec92e7434ecf8630e", "type": "electric_scooter", "is_disabled": 0, "lat": 38.912648833333336, "rental_uris": {"android": "https://dc.lft.to/lastmile_qr_scan", "ios": "https://dc.lft.to/lastmile_qr_scan"}, "bike_id": "059a4740352ac17ec92e7434ecf8630e", "lon": -77.02256733333333}, {"is_reserved": 0, "fusion_lon": 0.0, "fusion_lat": 0.0, "name": "9e34d53675d95f7aff0399a7291d5e29", "type": "electric_scooter", "is_disabled": 0, "lat": 38.9712435, "rental_uris": {"android": "https://dc.lft.to/lastmile_qr_scan", "ios": "https://dc.lft.to/lastmile_qr_scan"}, "bike_id": "9e34d53675d95f7aff0399a7291d5e29", "lon": -77.0168805}, {"is_reserved": 0, "fusion_lon": 0.0, "fusion_lat": 0.0, "name": "536e92de28fa96414c8b4b44aaeb3394", "type": "electric_scooter", "is_disabled": 0, "lat": 38.941767666666664, "rental_uris": {"android": "https://dc.lft.to/lastmile_qr_scan", "ios": "https://dc.lft.to/lastmile_qr_scan"}, "bike_id": "536e92de28fa96414c8b4b44aaeb3394", "lon": -77.0256015}, {"is_reserved": 0, "fusion_lon": 0.0, "fusion_lat": 0.0, "name": "fd5f3512a22dcdb2391524662b5a7619", "type": "electric_bike", "is_disabled": 0, "lat": 38.85771316666667, "rental_uris": {"android": "https://dc.lft.to/lastmile_qr_scan", "ios": "https://dc.lft.to/lastmile_qr_scan"}, "bike_id": "fd5f3512a22dcdb2391524662b5a7619", "lon": -76.98770616666667}, {"is_reserved": 0, "fusion_lon": 0.0, "fusion_lat": 0.0, "name": "85c250935f33396f1a66bd12762ba290", "type": "electric_scooter", "is_disabled": 0, "lat": 38.866654833333335, "rental_uris": {"android": "https://dc.lft.to/lastmile_qr_scan", "ios": "https://dc.lft.to/lastmile_qr_scan"}, "bike_id": "85c250935f33396f1a66bd12762ba290", "lon": -76.985206}, {"is_reserved": 0, "fusion_lon": 0.0, "fusion_lat": 0.0, "name": "6ac553cb8eafc8c4f433c644817d6cc7", "type": "electric_scooter", "is_disabled": 0, "lat": 38.898849, "rental_uris": {"android": "https://dc.lft.to/lastmile_qr_scan", "ios": "https://dc.lft.to/lastmile_qr_scan"}, "bike_id": "6ac553cb8eafc8c4f433c644817d6cc7", "lon": -76.9771855}, {"is_reserved": 0, "fusion_lon": 0.0, "fusion_lat": 0.0, "name": "ead4ddaac4cc5881a27757f442816334", "type": "electric_scooter", "is_disabled": 0, "lat": 38.94988266666667, "rental_uris": {"android": "https://dc.lft.to/lastmile_qr_scan", "ios": "https://dc.lft.to/lastmile_qr_scan"}, "bike_id": "ead4ddaac4cc5881a27757f442816334", "lon": -77.0270515}, {"is_reserved": 0, "fusion_lon": 0.0, "fusion_lat": 0.0, "name": "bb4223afca028357b83095672ce883db", "type": "electric_scooter", "is_disabled": 0, "lat": 38.888380833333336, "rental_uris": {"android": "https://dc.lft.to/lastmile_qr_scan", "ios": "https://dc.lft.to/lastmile_qr_scan"}, "bike_id": "bb4223afca028357b83095672ce883db", "lon": -77.04903666666667}, {"is_reserved": 0, "fusion_lon": 0.0, "fusion_lat": 0.0, "name": "da44e3ed81f2c4176f087e6ad60ccccd", "type": "electric_scooter", "is_disabled": 0, "lat": 38.930156833333335, "rental_uris": {"android": "https://dc.lft.to/lastmile_qr_scan", "ios": "https://dc.lft.to/lastmile_qr_scan"}, "bike_id": "da44e3ed81f2c4176f087e6ad60ccccd", "lon": -77.06093716666666}, {"is_reserved": 0, "fusion_lon": 0.0, "fusion_lat": 0.0, "name": "974bafbeee11df184c507b2fddca3005", "type": "electric_bike", "is_disabled": 0, "lat": 38.83812483333333, "rental_uris": {"android": "https://dc.lft.to/lastmile_qr_scan", "ios": "https://dc.lft.to/lastmile_qr_scan"}, "bike_id": "974bafbeee11df184c507b2fddca3005", "lon": -77.09524166666667}, {"is_reserved": 0, "fusion_lon": 0.0, "fusion_lat": 0.0, "name": "19c96e4dbb687b22ff29254613bdf30a", "type": "electric_scooter", "is_disabled": 0, "lat": 38.907803333333334, "rental_uris": {"android": "https://dc.lft.to/lastmile_qr_scan", "ios": "https://dc.lft.to/lastmile_qr_scan"}, "bike_id": "19c96e4dbb687b22ff29254613bdf30a", "lon": -77.0725085}, {"is_reserved": 0, "fusion_lon": 0.0, "fusion_lat": 0.0, "name": "4e05710b70cb76e6ef4a7080fa7b59c9", "type": "electric_scooter", "is_disabled": 0, "lat": 38.907092, "rental_uris": {"android": "https://dc.lft.to/lastmile_qr_scan", "ios": "https://dc.lft.to/lastmile_qr_scan"}, "bike_id": "4e05710b70cb76e6ef4a7080fa7b59c9", "lon": -77.08208733333333}, {"is_reserved": 0, "fusion_lon": 0.0, "fusion_lat": 0.0, "name": "28c6a998af87c40ac36e0082d2757b5a", "type": "electric_bike", "is_disabled": 0, "lat": 38.872738166666664, "rental_uris": {"android": "https://dc.lft.to/lastmile_qr_scan", "ios": "https://dc.lft.to/lastmile_qr_scan"}, "bike_id": "28c6a998af87c40ac36e0082d2757b5a", "lon": -77.23325883333334}, {"is_reserved": 0, "fusion_lon": 0.0, "fusion_lat": 0.0, "name": "16cba27727924bef33a20877e26f9374", "type": "electric_scooter", "is_disabled": 0, "lat": 38.90634983333333, "rental_uris": {"android": "https://dc.lft.to/lastmile_qr_scan", "ios": "https://dc.lft.to/lastmile_qr_scan"}, "bike_id": "16cba27727924bef33a20877e26f9374", "lon": -77.0690675}, {"is_reserved": 0, "fusion_lon": 0.0, "fusion_lat": 0.0, "name": "978c169234c68b7a8dbc3440e53cb074", "type": "electric_scooter", "is_disabled": 0, "lat": 38.92719866666667, "rental_uris": {"android": "https://dc.lft.to/lastmile_qr_scan", "ios": "https://dc.lft.to/lastmile_qr_scan"}, "bike_id": "978c169234c68b7a8dbc3440e53cb074", "lon": -77.03990783333333}, {"is_reserved": 0, "fusion_lon": 0.0, "fusion_lat": 0.0, "name": "bb0d251e783a0e008d6622ff7e9be2f1", "type": "electric_scooter", "is_disabled": 0, "lat": 38.90579983333333, "rental_uris": {"android": "https://dc.lft.to/lastmile_qr_scan", "ios": "https://dc.lft.to/lastmile_qr_scan"}, "bike_id": "bb0d251e783a0e008d6622ff7e9be2f1", "lon": -77.00316633333334}, {"is_reserved": 0, "fusion_lon": 0.0, "fusion_lat": 0.0, "name": "2c30a1b4a711983f360219c94d6aeeeb", "type": "electric_scooter", "is_disabled": 0, "lat": 38.9013315, "rental_uris": {"android": "https://dc.lft.to/lastmile_qr_scan", "ios": "https://dc.lft.to/lastmile_qr_scan"}, "bike_id": "2c30a1b4a711983f360219c94d6aeeeb", "lon": -77.040093}, {"is_reserved": 0, "fusion_lon": 0.0, "fusion_lat": 0.0, "name": "13557eeb7d5f9d18e9f47fccbc3b8f91", "type": "electric_scooter", "is_disabled": 0, "lat": 38.908275833333335, "rental_uris": {"android": "https://dc.lft.to/lastmile_qr_scan", "ios": "https://dc.lft.to/lastmile_qr_scan"}, "bike_id": "13557eeb7d5f9d18e9f47fccbc3b8f91", "lon": -76.94162583333333}, {"is_reserved": 0, "fusion_lon": 0.0, "fusion_lat": 0.0, "name": "6499da804fa0b9567d59e2c8d3b9a653", "type": "electric_scooter", "is_disabled": 0, "lat": 38.92502016666667, "rental_uris": {"android": "https://dc.lft.to/lastmile_qr_scan", "ios": "https://dc.lft.to/lastmile_qr_scan"}, "bike_id": "6499da804fa0b9567d59e2c8d3b9a653", "lon": -77.0235725}, {"is_reserved": 0, "fusion_lon": 0.0, "fusion_lat": 0.0, "name": "19383450e62f662f9656c1f3dbee1a1d", "type": "electric_scooter", "is_disabled": 0, "lat": 38.90973783333333, "rental_uris": {"android": "https://dc.lft.to/lastmile_qr_scan", "ios": "https://dc.lft.to/lastmile_qr_scan"}, "bike_id": "19383450e62f662f9656c1f3dbee1a1d", "lon": -77.038584}, {"is_reserved": 0, "fusion_lon": 0.0, "fusion_lat": 0.0, "name": "f612c6bc2a337da91a8f074d56a90608", "type": "electric_scooter", "is_disabled": 0, "lat": 38.92339466666667, "rental_uris": {"android": "https://dc.lft.to/lastmile_qr_scan", "ios": "https://dc.lft.to/lastmile_qr_scan"}, "bike_id": "f612c6bc2a337da91a8f074d56a90608", "lon": -77.04192916666666}, {"is_reserved": 0, "fusion_lon": 0.0, "fusion_lat": 0.0, "name": "971239d6fce6c77be841951cb294dc49", "type": "electric_scooter", "is_disabled": 0, "lat": 38.90165983333333, "rental_uris": {"android": "https://dc.lft.to/lastmile_qr_scan", "ios": "https://dc.lft.to/lastmile_qr_scan"}, "bike_id": "971239d6fce6c77be841951cb294dc49", "lon": -77.06012633333333}, {"is_reserved": 0, "fusion_lon": 0.0, "fusion_lat": 0.0, "name": "d73503e5265dd5c28505afb3b2650300", "type": "electric_scooter", "is_disabled": 0, "lat": 38.907446, "rental_uris": {"android": "https://dc.lft.to/lastmile_qr_scan", "ios": "https://dc.lft.to/lastmile_qr_scan"}, "bike_id": "d73503e5265dd5c28505afb3b2650300", "lon": -76.985105}, {"is_reserved": 0, "fusion_lon": 0.0, "fusion_lat": 0.0, "name": "ad523cab1c91c784b8a32e005418666e", "type": "electric_scooter", "is_disabled": 0, "lat": 38.905352, "rental_uris": {"android": "https://dc.lft.to/lastmile_qr_scan", "ios": "https://dc.lft.to/lastmile_qr_scan"}, "bike_id": "ad523cab1c91c784b8a32e005418666e", "lon": -77.04866416666667}, {"is_reserved": 0, "fusion_lon": 0.0, "fusion_lat": 0.0, "name": "6c43ee53d96351863ada972848186fdf", "type": "electric_scooter", "is_disabled": 0, "lat": 38.913780333333335, "rental_uris": {"android": "https://dc.lft.to/lastmile_qr_scan", "ios": "https://dc.lft.to/lastmile_qr_scan"}, "bike_id": "6c43ee53d96351863ada972848186fdf", "lon": -77.04131116666667}, {"is_reserved": 0, "fusion_lon": 0.0, "fusion_lat": 0.0, "name": "f8feae4ee45b98138fb2f85f3aa02f69", "type": "electric_scooter", "is_disabled": 0, "lat": 38.89553183333334, "rental_uris": {"android": "https://dc.lft.to/lastmile_qr_scan", "ios": "https://dc.lft.to/lastmile_qr_scan"}, "bike_id": "f8feae4ee45b98138fb2f85f3aa02f69", "lon": -76.9488495}, {"is_reserved": 0, "fusion_lon": 0.0, "fusion_lat": 0.0, "name": "edfdcc825bf384c7ef73d74ceb52fb3c", "type": "electric_scooter", "is_disabled": 0, "lat": 38.9295005, "rental_uris": {"android": "https://dc.lft.to/lastmile_qr_scan", "ios": "https://dc.lft.to/lastmile_qr_scan"}, "bike_id": "edfdcc825bf384c7ef73d74ceb52fb3c", "lon": -77.0279025}, {"is_reserved": 0, "fusion_lon": 0.0, "fusion_lat": 0.0, "name": "ee208fa681c0cd1688a07f1536cb93f7", "type": "electric_scooter", "is_disabled": 0, "lat": 38.88485083333333, "rental_uris": {"android": "https://dc.lft.to/lastmile_qr_scan", "ios": "https://dc.lft.to/lastmile_qr_scan"}, "bike_id": "ee208fa681c0cd1688a07f1536cb93f7", "lon": -76.92619433333333}, {"is_reserved": 0, "fusion_lon": 0.0, "fusion_lat": 0.0, "name": "8062429248c16b8895ee8a40b795d893", "type": "electric_scooter", "is_disabled": 0, "lat": 38.914771, "rental_uris": {"android": "https://dc.lft.to/lastmile_qr_scan", "ios": "https://dc.lft.to/lastmile_qr_scan"}, "bike_id": "8062429248c16b8895ee8a40b795d893", "lon": -76.98364416666666}, {"is_reserved": 0, "fusion_lon": 0.0, "fusion_lat": 0.0, "name": "914d6dc36874438db0ac56d76e905bf3", "type": "electric_scooter", "is_disabled": 0, "lat": 38.85538316666667, "rental_uris": {"android": "https://dc.lft.to/lastmile_qr_scan", "ios": "https://dc.lft.to/lastmile_qr_scan"}, "bike_id": "914d6dc36874438db0ac56d76e905bf3", "lon": -76.9841935}, {"is_reserved": 0, "fusion_lon": 0.0, "fusion_lat": 0.0, "name": "709dadadde96043509076229b51b1f81", "type": "electric_bike", "is_disabled": 0, "lat": 38.892926, "rental_uris": {"android": "https://dc.lft.to/lastmile_qr_scan", "ios": "https://dc.lft.to/lastmile_qr_scan"}, "bike_id": "709dadadde96043509076229b51b1f81", "lon": -76.97617866666667}, {"is_reserved": 0, "fusion_lon": 0.0, "fusion_lat": 0.0, "name": "58a6fc878eeb4d3ec8c392e2adc87e55", "type": "electric_bike", "is_disabled": 0, "lat": 38.935673, "rental_uris": {"android": "https://dc.lft.to/lastmile_qr_scan", "ios": "https://dc.lft.to/lastmile_qr_scan"}, "bike_id": "58a6fc878eeb4d3ec8c392e2adc87e55", "lon": -77.108531}, {"is_reserved": 0, "fusion_lon": 0.0, "fusion_lat": 0.0, "name": "63d3a44869f67e5ce9adc420bb4be98d", "type": "electric_scooter", "is_disabled": 0, "lat": 38.900838, "rental_uris": {"android": "https://dc.lft.to/lastmile_qr_scan", "ios": "https://dc.lft.to/lastmile_qr_scan"}, "bike_id": "63d3a44869f67e5ce9adc420bb4be98d", "lon": -76.93018933333333}, {"is_reserved": 0, "fusion_lon": 0.0, "fusion_lat": 0.0, "name": "e6e295453e089b0cbc4b0050ffd2acc6", "type": "electric_scooter", "is_disabled": 0, "lat": 38.8987075, "rental_uris": {"android": "https://dc.lft.to/lastmile_qr_scan", "ios": "https://dc.lft.to/lastmile_qr_scan"}, "bike_id": "e6e295453e089b0cbc4b0050ffd2acc6", "lon": -76.9275035}, {"is_reserved": 0, "fusion_lon": 0.0, "fusion_lat": 0.0, "name": "5e97f52d777542f88c94543d08760d27", "type": "electric_bike", "is_disabled": 0, "lat": 38.956503, "rental_uris": {"android": "https://dc.lft.to/lastmile_qr_scan", "ios": "https://dc.lft.to/lastmile_qr_scan"}, "bike_id": "5e97f52d777542f88c94543d08760d27", "lon": -77.01279233333334}, {"is_reserved": 0, "fusion_lon": 0.0, "fusion_lat": 0.0, "name": "5e02616df50d6af524a172ee925019d0", "type": "electric_scooter", "is_disabled": 0, "lat": 38.913495166666664, "rental_uris": {"android": "https://dc.lft.to/lastmile_qr_scan", "ios": "https://dc.lft.to/lastmile_qr_scan"}, "bike_id": "5e02616df50d6af524a172ee925019d0", "lon": -77.01551116666667}, {"is_reserved": 0, "fusion_lon": 0.0, "fusion_lat": 0.0, "name": "971a4ffe750e765c90f2f0122718a6ad", "type": "electric_scooter", "is_disabled": 0, "lat": 38.89002266666667, "rental_uris": {"android": "https://dc.lft.to/lastmile_qr_scan", "ios": "https://dc.lft.to/lastmile_qr_scan"}, "bike_id": "971a4ffe750e765c90f2f0122718a6ad", "lon": -77.048939}, {"is_reserved": 0, "fusion_lon": 0.0, "fusion_lat": 0.0, "name": "cbb601c506e1903fe5fd73b5ff9c24d2", "type": "electric_bike", "is_disabled": 0, "lat": 38.965075, "rental_uris": {"android": "https://dc.lft.to/lastmile_qr_scan", "ios": "https://dc.lft.to/lastmile_qr_scan"}, "bike_id": "cbb601c506e1903fe5fd73b5ff9c24d2", "lon": -77.02816566666667}, {"is_reserved": 0, "fusion_lon": 0.0, "fusion_lat": 0.0, "name": "a4746f75781ec5776983a28fc8abb4de", "type": "electric_scooter", "is_disabled": 0, "lat": 38.94123966666667, "rental_uris": {"android": "https://dc.lft.to/lastmile_qr_scan", "ios": "https://dc.lft.to/lastmile_qr_scan"}, "bike_id": "a4746f75781ec5776983a28fc8abb4de", "lon": -77.0154165}, {"is_reserved": 0, "fusion_lon": 0.0, "fusion_lat": 0.0, "name": "b731fccde7468fbac938c12354cb50c8", "type": "electric_scooter", "is_disabled": 0, "lat": 38.887167, "rental_uris": {"android": "https://dc.lft.to/lastmile_qr_scan", "ios": "https://dc.lft.to/lastmile_qr_scan"}, "bike_id": "b731fccde7468fbac938c12354cb50c8", "lon": -77.01778566666667}, {"is_reserved": 0, "fusion_lon": 0.0, "fusion_lat": 0.0, "name": "7a2a32925b14a9e5c09a675b4e20c32c", "type": "electric_scooter", "is_disabled": 0, "lat": 38.9043725, "rental_uris": {"android": "https://dc.lft.to/lastmile_qr_scan", "ios": "https://dc.lft.to/lastmile_qr_scan"}, "bike_id": "7a2a32925b14a9e5c09a675b4e20c32c", "lon": -77.04335883333333}, {"is_reserved": 0, "fusion_lon": 0.0, "fusion_lat": 0.0, "name": "a66650c8277a59f0822c54456a18448a", "type": "electric_scooter", "is_disabled": 0, "lat": 38.906367333333336, "rental_uris": {"android": "https://dc.lft.to/lastmile_qr_scan", "ios": "https://dc.lft.to/lastmile_qr_scan"}, "bike_id": "a66650c8277a59f0822c54456a18448a", "lon": -77.069017}, {"is_reserved": 0, "fusion_lon": 0.0, "fusion_lat": 0.0, "name": "4c433a59d698f5b1efb03f1735c474f6", "type": "electric_scooter", "is_disabled": 0, "lat": 38.954983666666664, "rental_uris": {"android": "https://dc.lft.to/lastmile_qr_scan", "ios": "https://dc.lft.to/lastmile_qr_scan"}, "bike_id": "4c433a59d698f5b1efb03f1735c474f6", "lon": -77.02964133333333}, {"is_reserved": 0, "fusion_lon": 0.0, "fusion_lat": 0.0, "name": "8a7fd22c13caa38b6a78fea065e84de5", "type": "electric_scooter", "is_disabled": 0, "lat": 38.917216333333336, "rental_uris": {"android": "https://dc.lft.to/lastmile_qr_scan", "ios": "https://dc.lft.to/lastmile_qr_scan"}, "bike_id": "8a7fd22c13caa38b6a78fea065e84de5", "lon": -77.03662}, {"is_reserved": 0, "fusion_lon": 0.0, "fusion_lat": 0.0, "name": "c558588267157e15292f8658ede98579", "type": "electric_scooter", "is_disabled": 0, "lat": 38.900663, "rental_uris": {"android": "https://dc.lft.to/lastmile_qr_scan", "ios": "https://dc.lft.to/lastmile_qr_scan"}, "bike_id": "c558588267157e15292f8658ede98579", "lon": -77.04534316666667}, {"is_reserved": 0, "fusion_lon": 0.0, "fusion_lat": 0.0, "name": "daef4f008fdd174692cd53c10a57a457", "type": "electric_bike", "is_disabled": 0, "lat": 38.9245585, "rental_uris": {"android": "https://dc.lft.to/lastmile_qr_scan", "ios": "https://dc.lft.to/lastmile_qr_scan"}, "bike_id": "daef4f008fdd174692cd53c10a57a457", "lon": -76.97557016666667}, {"is_reserved": 0, "fusion_lon": 0.0, "fusion_lat": 0.0, "name": "013fc3801d240ef9a89acebc4282f0ec", "type": "electric_scooter", "is_disabled": 0, "lat": 38.928856, "rental_uris": {"android": "https://dc.lft.to/lastmile_qr_scan", "ios": "https://dc.lft.to/lastmile_qr_scan"}, "bike_id": "013fc3801d240ef9a89acebc4282f0ec", "lon": -77.03342016666667}, {"is_reserved": 0, "fusion_lon": 0.0, "fusion_lat": 0.0, "name": "84f8174c7535138c1f98be9c7c32509a", "type": "electric_scooter", "is_disabled": 0, "lat": 38.91698433333333, "rental_uris": {"android": "https://dc.lft.to/lastmile_qr_scan", "ios": "https://dc.lft.to/lastmile_qr_scan"}, "bike_id": "84f8174c7535138c1f98be9c7c32509a", "lon": -77.03306266666667}, {"is_reserved": 0, "fusion_lon": 0.0, "fusion_lat": 0.0, "name": "81a5b0643523ec69c4706e95b3c4ed71", "type": "electric_scooter", "is_disabled": 0, "lat": 38.930956333333334, "rental_uris": {"android": "https://dc.lft.to/lastmile_qr_scan", "ios": "https://dc.lft.to/lastmile_qr_scan"}, "bike_id": "81a5b0643523ec69c4706e95b3c4ed71", "lon": -77.02793883333334}, {"is_reserved": 0, "fusion_lon": 0.0, "fusion_lat": 0.0, "name": "1a3df858a9bf54b9e5c6dda813ef5eb6", "type": "electric_scooter", "is_disabled": 0, "lat": 38.893256, "rental_uris": {"android": "https://dc.lft.to/lastmile_qr_scan", "ios": "https://dc.lft.to/lastmile_qr_scan"}, "bike_id": "1a3df858a9bf54b9e5c6dda813ef5eb6", "lon": -77.01807066666667}, {"is_reserved": 0, "fusion_lon": 0.0, "fusion_lat": 0.0, "name": "f16588209b20847df71a34e647916211", "type": "electric_scooter", "is_disabled": 0, "lat": 38.891645, "rental_uris": {"android": "https://dc.lft.to/lastmile_qr_scan", "ios": "https://dc.lft.to/lastmile_qr_scan"}, "bike_id": "f16588209b20847df71a34e647916211", "lon": -76.95183133333333}, {"is_reserved": 0, "fusion_lon": 0.0, "fusion_lat": 0.0, "name": "9e722932d8194744f6ee4a6cd8bbfe66", "type": "electric_scooter", "is_disabled": 0, "lat": 38.90080716666667, "rental_uris": {"android": "https://dc.lft.to/lastmile_qr_scan", "ios": "https://dc.lft.to/lastmile_qr_scan"}, "bike_id": "9e722932d8194744f6ee4a6cd8bbfe66", "lon": -77.00212033333334}, {"is_reserved": 0, "fusion_lon": 0.0, "fusion_lat": 0.0, "name": "3a90d41cce648e5bdba117aa960b0db2", "type": "electric_scooter", "is_disabled": 0, "lat": 38.90233533333333, "rental_uris": {"android": "https://dc.lft.to/lastmile_qr_scan", "ios": "https://dc.lft.to/lastmile_qr_scan"}, "bike_id": "3a90d41cce648e5bdba117aa960b0db2", "lon": -77.05345083333333}, {"is_reserved": 0, "fusion_lon": 0.0, "fusion_lat": 0.0, "name": "9fac64b7ac2373c12a27a288c556b181", "type": "electric_bike", "is_disabled": 0, "lat": 38.8065425, "rental_uris": {"android": "https://dc.lft.to/lastmile_qr_scan", "ios": "https://dc.lft.to/lastmile_qr_scan"}, "bike_id": "9fac64b7ac2373c12a27a288c556b181", "lon": -77.08759733333333}, {"is_reserved": 0, "fusion_lon": 0.0, "fusion_lat": 0.0, "name": "27aa5fed0d6c5aa01be7d580db254843", "type": "electric_bike", "is_disabled": 0, "lat": 38.956494166666666, "rental_uris": {"android": "https://dc.lft.to/lastmile_qr_scan", "ios": "https://dc.lft.to/lastmile_qr_scan"}, "bike_id": "27aa5fed0d6c5aa01be7d580db254843", "lon": -77.0225835}, {"is_reserved": 0, "fusion_lon": 0.0, "fusion_lat": 0.0, "name": "5d1b4110c67bd43bf2a3cbbda21bf6c6", "type": "electric_scooter", "is_disabled": 0, "lat": 38.887422, "rental_uris": {"android": "https://dc.lft.to/lastmile_qr_scan", "ios": "https://dc.lft.to/lastmile_qr_scan"}, "bike_id": "5d1b4110c67bd43bf2a3cbbda21bf6c6", "lon": -77.02213633333334}, {"is_reserved": 0, "fusion_lon": 0.0, "fusion_lat": 0.0, "name": "91266850ead5e03d307219affc722d64", "type": "electric_scooter", "is_disabled": 0, "lat": 38.9038905, "rental_uris": {"android": "https://dc.lft.to/lastmile_qr_scan", "ios": "https://dc.lft.to/lastmile_qr_scan"}, "bike_id": "91266850ead5e03d307219affc722d64", "lon": -77.042059}, {"is_reserved": 0, "fusion_lon": 0.0, "fusion_lat": 0.0, "name": "8580de9a77b20396ec6faa3837265f6b", "type": "electric_bike", "is_disabled": 0, "lat": 38.79683633333333, "rental_uris": {"android": "https://dc.lft.to/lastmile_qr_scan", "ios": "https://dc.lft.to/lastmile_qr_scan"}, "bike_id": "8580de9a77b20396ec6faa3837265f6b", "lon": -76.99333683333333}, {"is_reserved": 0, "fusion_lon": 0.0, "fusion_lat": 0.0, "name": "fb38b29ff32cdd0e317a22719961c66c", "type": "electric_scooter", "is_disabled": 0, "lat": 38.92079283333333, "rental_uris": {"android": "https://dc.lft.to/lastmile_qr_scan", "ios": "https://dc.lft.to/lastmile_qr_scan"}, "bike_id": "fb38b29ff32cdd0e317a22719961c66c", "lon": -77.04691516666666}, {"is_reserved": 0, "fusion_lon": 0.0, "fusion_lat": 0.0, "name": "6c0f134d2e79d137fddab05daeea628f", "type": "electric_scooter", "is_disabled": 0, "lat": 38.9001685, "rental_uris": {"android": "https://dc.lft.to/lastmile_qr_scan", "ios": "https://dc.lft.to/lastmile_qr_scan"}, "bike_id": "6c0f134d2e79d137fddab05daeea628f", "lon": -77.0068195}, {"is_reserved": 0, "fusion_lon": 0.0, "fusion_lat": 0.0, "name": "062816882a7b68e26297be32ef3dac31", "type": "electric_scooter", "is_disabled": 0, "lat": 38.916824166666665, "rental_uris": {"android": "https://dc.lft.to/lastmile_qr_scan", "ios": "https://dc.lft.to/lastmile_qr_scan"}, "bike_id": "062816882a7b68e26297be32ef3dac31", "lon": -77.0271195}, {"is_reserved": 0, "fusion_lon": 0.0, "fusion_lat": 0.0, "name": "f63e3e7eceedcc63bd9c9b73d17e7063", "type": "electric_bike", "is_disabled": 0, "lat": 38.930684, "rental_uris": {"android": "https://dc.lft.to/lastmile_qr_scan", "ios": "https://dc.lft.to/lastmile_qr_scan"}, "bike_id": "f63e3e7eceedcc63bd9c9b73d17e7063", "lon": -77.03734833333333}, {"is_reserved": 0, "fusion_lon": 0.0, "fusion_lat": 0.0, "name": "3f7bcbd34f86f40600862461ed05c0f3", "type": "electric_scooter", "is_disabled": 0, "lat": 38.86408933333333, "rental_uris": {"android": "https://dc.lft.to/lastmile_qr_scan", "ios": "https://dc.lft.to/lastmile_qr_scan"}, "bike_id": "3f7bcbd34f86f40600862461ed05c0f3", "lon": -77.01212283333334}, {"is_reserved": 0, "fusion_lon": 0.0, "fusion_lat": 0.0, "name": "b3d4685ada7d32d44b10827c5f1f8596", "type": "electric_scooter", "is_disabled": 0, "lat": 38.915598333333335, "rental_uris": {"android": "https://dc.lft.to/lastmile_qr_scan", "ios": "https://dc.lft.to/lastmile_qr_scan"}, "bike_id": "b3d4685ada7d32d44b10827c5f1f8596", "lon": -77.03166883333333}, {"is_reserved": 0, "fusion_lon": 0.0, "fusion_lat": 0.0, "name": "51c0f325bae16e797e291c2b6138b68f", "type": "electric_scooter", "is_disabled": 0, "lat": 38.899808, "rental_uris": {"android": "https://dc.lft.to/lastmile_qr_scan", "ios": "https://dc.lft.to/lastmile_qr_scan"}, "bike_id": "51c0f325bae16e797e291c2b6138b68f", "lon": -77.05550566666666}, {"is_reserved": 0, "fusion_lon": 0.0, "fusion_lat": 0.0, "name": "997fbf7dd77e465982f95565e68b1a6c", "type": "electric_scooter", "is_disabled": 0, "lat": 38.90732883333333, "rental_uris": {"android": "https://dc.lft.to/lastmile_qr_scan", "ios": "https://dc.lft.to/lastmile_qr_scan"}, "bike_id": "997fbf7dd77e465982f95565e68b1a6c", "lon": -77.022992}, {"is_reserved": 0, "fusion_lon": 0.0, "fusion_lat": 0.0, "name": "e5b1a671568f92ed1b279a7020baa251", "type": "electric_scooter", "is_disabled": 0, "lat": 38.917946666666666, "rental_uris": {"android": "https://dc.lft.to/lastmile_qr_scan", "ios": "https://dc.lft.to/lastmile_qr_scan"}, "bike_id": "e5b1a671568f92ed1b279a7020baa251", "lon": -77.03187883333334}, {"is_reserved": 0, "fusion_lon": 0.0, "fusion_lat": 0.0, "name": "5b813c7dc9d38d9019ddf2dea6dee4a6", "type": "electric_scooter", "is_disabled": 0, "lat": 38.934777833333335, "rental_uris": {"android": "https://dc.lft.to/lastmile_qr_scan", "ios": "https://dc.lft.to/lastmile_qr_scan"}, "bike_id": "5b813c7dc9d38d9019ddf2dea6dee4a6", "lon": -77.0647765}, {"is_reserved": 0, "fusion_lon": 0.0, "fusion_lat": 0.0, "name": "a5201c0a804e0ca956b5e830ede5d1f3", "type": "electric_scooter", "is_disabled": 0, "lat": 38.89796183333333, "rental_uris": {"android": "https://dc.lft.to/lastmile_qr_scan", "ios": "https://dc.lft.to/lastmile_qr_scan"}, "bike_id": "a5201c0a804e0ca956b5e830ede5d1f3", "lon": -77.0401885}, {"is_reserved": 0, "fusion_lon": 0.0, "fusion_lat": 0.0, "name": "22c9a8bc26ab70cbcda15f8e5fa2f496", "type": "electric_scooter", "is_disabled": 0, "lat": 38.92049166666666, "rental_uris": {"android": "https://dc.lft.to/lastmile_qr_scan", "ios": "https://dc.lft.to/lastmile_qr_scan"}, "bike_id": "22c9a8bc26ab70cbcda15f8e5fa2f496", "lon": -77.0346815}, {"is_reserved": 0, "fusion_lon": 0.0, "fusion_lat": 0.0, "name": "ff4a18e9addf84080cbb871357ae878b", "type": "electric_scooter", "is_disabled": 0, "lat": 38.951994, "rental_uris": {"android": "https://dc.lft.to/lastmile_qr_scan", "ios": "https://dc.lft.to/lastmile_qr_scan"}, "bike_id": "ff4a18e9addf84080cbb871357ae878b", "lon": -77.02739233333334}, {"is_reserved": 0, "fusion_lon": 0.0, "fusion_lat": 0.0, "name": "e1978c7ba8c00e5d78358bda0115ddd6", "type": "electric_scooter", "is_disabled": 0, "lat": 38.87540083333333, "rental_uris": {"android": "https://dc.lft.to/lastmile_qr_scan", "ios": "https://dc.lft.to/lastmile_qr_scan"}, "bike_id": "e1978c7ba8c00e5d78358bda0115ddd6", "lon": -77.00595216666666}, {"is_reserved": 0, "fusion_lon": 0.0, "fusion_lat": 0.0, "name": "6ce0e466e895559f432a8241a26b6d63", "type": "electric_scooter", "is_disabled": 0, "lat": 38.9072755, "rental_uris": {"android": "https://dc.lft.to/lastmile_qr_scan", "ios": "https://dc.lft.to/lastmile_qr_scan"}, "bike_id": "6ce0e466e895559f432a8241a26b6d63", "lon": -77.04813366666667}, {"is_reserved": 0, "fusion_lon": 0.0, "fusion_lat": 0.0, "name": "3ec89715098a17996cadd12708739cdd", "type": "electric_scooter", "is_disabled": 0, "lat": 38.901383833333334, "rental_uris": {"android": "https://dc.lft.to/lastmile_qr_scan", "ios": "https://dc.lft.to/lastmile_qr_scan"}, "bike_id": "3ec89715098a17996cadd12708739cdd", "lon": -77.04038233333333}, {"is_reserved": 0, "fusion_lon": 0.0, "fusion_lat": 0.0, "name": "eac7739653d5f1c96d3fc723af11dad1", "type": "electric_scooter", "is_disabled": 0, "lat": 38.903370333333335, "rental_uris": {"android": "https://dc.lft.to/lastmile_qr_scan", "ios": "https://dc.lft.to/lastmile_qr_scan"}, "bike_id": "eac7739653d5f1c96d3fc723af11dad1", "lon": -77.00578966666667}, {"is_reserved": 0, "fusion_lon": 0.0, "fusion_lat": 0.0, "name": "e57863e18f86bd119dabd014420d402c", "type": "electric_scooter", "is_disabled": 0, "lat": 38.913795666666665, "rental_uris": {"android": "https://dc.lft.to/lastmile_qr_scan", "ios": "https://dc.lft.to/lastmile_qr_scan"}, "bike_id": "e57863e18f86bd119dabd014420d402c", "lon": -77.01703433333333}, {"is_reserved": 0, "fusion_lon": 0.0, "fusion_lat": 0.0, "name": "ba8a663b9ea875543e5c0a5a8c171f14", "type": "electric_scooter", "is_disabled": 0, "lat": 38.8901905, "rental_uris": {"android": "https://dc.lft.to/lastmile_qr_scan", "ios": "https://dc.lft.to/lastmile_qr_scan"}, "bike_id": "ba8a663b9ea875543e5c0a5a8c171f14", "lon": -76.93738466666667}, {"is_reserved": 0, "fusion_lon": 0.0, "fusion_lat": 0.0, "name": "7bdd0077529a03b63147f7a18b447ced", "type": "electric_scooter", "is_disabled": 0, "lat": 38.90128333333333, "rental_uris": {"android": "https://dc.lft.to/lastmile_qr_scan", "ios": "https://dc.lft.to/lastmile_qr_scan"}, "bike_id": "7bdd0077529a03b63147f7a18b447ced", "lon": -77.03253266666667}, {"is_reserved": 0, "fusion_lon": 0.0, "fusion_lat": 0.0, "name": "d7a76bfa9e762903c6641e4377d27600", "type": "electric_scooter", "is_disabled": 0, "lat": 38.90975566666667, "rental_uris": {"android": "https://dc.lft.to/lastmile_qr_scan", "ios": "https://dc.lft.to/lastmile_qr_scan"}, "bike_id": "d7a76bfa9e762903c6641e4377d27600", "lon": -77.038584}, {"is_reserved": 0, "fusion_lon": 0.0, "fusion_lat": 0.0, "name": "8c880c42075868d9efbbb111f4a714b4", "type": "electric_scooter", "is_disabled": 0, "lat": 38.907351, "rental_uris": {"android": "https://dc.lft.to/lastmile_qr_scan", "ios": "https://dc.lft.to/lastmile_qr_scan"}, "bike_id": "8c880c42075868d9efbbb111f4a714b4", "lon": -77.02971966666667}, {"is_reserved": 0, "fusion_lon": 0.0, "fusion_lat": 0.0, "name": "cf8bf2cda2f5580b96f61c374fdbfc5d", "type": "electric_scooter", "is_disabled": 0, "lat": 38.910237, "rental_uris": {"android": "https://dc.lft.to/lastmile_qr_scan", "ios": "https://dc.lft.to/lastmile_qr_scan"}, "bike_id": "cf8bf2cda2f5580b96f61c374fdbfc5d", "lon": -77.03447733333333}, {"is_reserved": 0, "fusion_lon": 0.0, "fusion_lat": 0.0, "name": "66978128ff295088df2a0feeda2d8cc7", "type": "electric_scooter", "is_disabled": 0, "lat": 38.91834683333333, "rental_uris": {"android": "https://dc.lft.to/lastmile_qr_scan", "ios": "https://dc.lft.to/lastmile_qr_scan"}, "bike_id": "66978128ff295088df2a0feeda2d8cc7", "lon": -77.0246035}, {"is_reserved": 0, "fusion_lon": 0.0, "fusion_lat": 0.0, "name": "8463e75da0ee11a380ca569232a34d02", "type": "electric_scooter", "is_disabled": 0, "lat": 38.875429, "rental_uris": {"android": "https://dc.lft.to/lastmile_qr_scan", "ios": "https://dc.lft.to/lastmile_qr_scan"}, "bike_id": "8463e75da0ee11a380ca569232a34d02", "lon": -77.006071}, {"is_reserved": 0, "fusion_lon": 0.0, "fusion_lat": 0.0, "name": "c235586a4a07ca36b8bc8d5111c94b80", "type": "electric_scooter", "is_disabled": 0, "lat": 38.917056333333335, "rental_uris": {"android": "https://dc.lft.to/lastmile_qr_scan", "ios": "https://dc.lft.to/lastmile_qr_scan"}, "bike_id": "c235586a4a07ca36b8bc8d5111c94b80", "lon": -77.03095383333333}, {"is_reserved": 0, "fusion_lon": 0.0, "fusion_lat": 0.0, "name": "3fa6f1c2f8efa07b4629fa6d33f49baf", "type": "electric_bike", "is_disabled": 0, "lat": 38.925990666666664, "rental_uris": {"android": "https://dc.lft.to/lastmile_qr_scan", "ios": "https://dc.lft.to/lastmile_qr_scan"}, "bike_id": "3fa6f1c2f8efa07b4629fa6d33f49baf", "lon": -77.02429183333334}, {"is_reserved": 0, "fusion_lon": 0.0, "fusion_lat": 0.0, "name": "cb6cef562e0e080b15c81415f3e6087f", "type": "electric_bike", "is_disabled": 0, "lat": 38.85442466666667, "rental_uris": {"android": "https://dc.lft.to/lastmile_qr_scan", "ios": "https://dc.lft.to/lastmile_qr_scan"}, "bike_id": "cb6cef562e0e080b15c81415f3e6087f", "lon": -77.08330733333334}, {"is_reserved": 0, "fusion_lon": 0.0, "fusion_lat": 0.0, "name": "5e3bc8225118b4d6f320255404d901f5", "type": "electric_scooter", "is_disabled": 0, "lat": 38.930536333333336, "rental_uris": {"android": "https://dc.lft.to/lastmile_qr_scan", "ios": "https://dc.lft.to/lastmile_qr_scan"}, "bike_id": "5e3bc8225118b4d6f320255404d901f5", "lon": -77.03942883333333}, {"is_reserved": 0, "fusion_lon": 0.0, "fusion_lat": 0.0, "name": "67541d79d253a4c6737f2afee6c59cec", "type": "electric_scooter", "is_disabled": 0, "lat": 38.876386, "rental_uris": {"android": "https://dc.lft.to/lastmile_qr_scan", "ios": "https://dc.lft.to/lastmile_qr_scan"}, "bike_id": "67541d79d253a4c6737f2afee6c59cec", "lon": -77.00518366666667}, {"is_reserved": 0, "fusion_lon": 0.0, "fusion_lat": 0.0, "name": "0ebc7914e4d09d986e082924460503cf", "type": "electric_scooter", "is_disabled": 0, "lat": 38.8874125, "rental_uris": {"android": "https://dc.lft.to/lastmile_qr_scan", "ios": "https://dc.lft.to/lastmile_qr_scan"}, "bike_id": "0ebc7914e4d09d986e082924460503cf", "lon": -77.02388166666667}, {"is_reserved": 0, "fusion_lon": 0.0, "fusion_lat": 0.0, "name": "72291cc536493c0a81bde7463e1114aa", "type": "electric_scooter", "is_disabled": 0, "lat": 38.93872316666667, "rental_uris": {"android": "https://dc.lft.to/lastmile_qr_scan", "ios": "https://dc.lft.to/lastmile_qr_scan"}, "bike_id": "72291cc536493c0a81bde7463e1114aa", "lon": -77.02455666666667}, {"is_reserved": 0, "fusion_lon": 0.0, "fusion_lat": 0.0, "name": "dd986d5ff8cbe059283c93935ba8c3ad", "type": "electric_scooter", "is_disabled": 0, "lat": 38.896063, "rental_uris": {"android": "https://dc.lft.to/lastmile_qr_scan", "ios": "https://dc.lft.to/lastmile_qr_scan"}, "bike_id": "dd986d5ff8cbe059283c93935ba8c3ad", "lon": -77.03173033333333}, {"is_reserved": 0, "fusion_lon": 0.0, "fusion_lat": 0.0, "name": "0a7b5cbcbb0d19258cf4ae6b97246551", "type": "electric_scooter", "is_disabled": 0, "lat": 38.921038, "rental_uris": {"android": "https://dc.lft.to/lastmile_qr_scan", "ios": "https://dc.lft.to/lastmile_qr_scan"}, "bike_id": "0a7b5cbcbb0d19258cf4ae6b97246551", "lon": -77.02506066666666}, {"is_reserved": 0, "fusion_lon": 0.0, "fusion_lat": 0.0, "name": "5cb512fdd600be49b07750a7288c1f39", "type": "electric_scooter", "is_disabled": 0, "lat": 38.906619166666665, "rental_uris": {"android": "https://dc.lft.to/lastmile_qr_scan", "ios": "https://dc.lft.to/lastmile_qr_scan"}, "bike_id": "5cb512fdd600be49b07750a7288c1f39", "lon": -77.0384695}, {"is_reserved": 0, "fusion_lon": 0.0, "fusion_lat": 0.0, "name": "46a1e59359a944421795fe8061705dca", "type": "electric_bike", "is_disabled": 0, "lat": 38.956502666666665, "rental_uris": {"android": "https://dc.lft.to/lastmile_qr_scan", "ios": "https://dc.lft.to/lastmile_qr_scan"}, "bike_id": "46a1e59359a944421795fe8061705dca", "lon": -77.0127985}, {"is_reserved": 0, "fusion_lon": 0.0, "fusion_lat": 0.0, "name": "19fa7c0c75b007bef00e158c7ff98a99", "type": "electric_scooter", "is_disabled": 0, "lat": 38.9046935, "rental_uris": {"android": "https://dc.lft.to/lastmile_qr_scan", "ios": "https://dc.lft.to/lastmile_qr_scan"}, "bike_id": "19fa7c0c75b007bef00e158c7ff98a99", "lon": -77.03787433333333}, {"is_reserved": 0, "fusion_lon": 0.0, "fusion_lat": 0.0, "name": "d156d82f24a1838d8b7592d36432123a", "type": "electric_scooter", "is_disabled": 0, "lat": 38.86658466666667, "rental_uris": {"android": "https://dc.lft.to/lastmile_qr_scan", "ios": "https://dc.lft.to/lastmile_qr_scan"}, "bike_id": "d156d82f24a1838d8b7592d36432123a", "lon": -76.9888485}, {"is_reserved": 0, "fusion_lon": 0.0, "fusion_lat": 0.0, "name": "488ec4f34edc74844a44b7c71d425da9", "type": "electric_scooter", "is_disabled": 0, "lat": 38.919151166666666, "rental_uris": {"android": "https://dc.lft.to/lastmile_qr_scan", "ios": "https://dc.lft.to/lastmile_qr_scan"}, "bike_id": "488ec4f34edc74844a44b7c71d425da9", "lon": -77.0252355}, {"is_reserved": 0, "fusion_lon": 0.0, "fusion_lat": 0.0, "name": "7ac8ad6b9683ba3628d8f20abdcb1088", "type": "electric_scooter", "is_disabled": 0, "lat": 38.919158333333336, "rental_uris": {"android": "https://dc.lft.to/lastmile_qr_scan", "ios": "https://dc.lft.to/lastmile_qr_scan"}, "bike_id": "7ac8ad6b9683ba3628d8f20abdcb1088", "lon": -77.03180216666667}, {"is_reserved": 0, "fusion_lon": 0.0, "fusion_lat": 0.0, "name": "e6610a310ab4ef71a5985383ad0482a7", "type": "electric_scooter", "is_disabled": 0, "lat": 38.8714015, "rental_uris": {"android": "https://dc.lft.to/lastmile_qr_scan", "ios": "https://dc.lft.to/lastmile_qr_scan"}, "bike_id": "e6610a310ab4ef71a5985383ad0482a7", "lon": -77.00703566666667}, {"is_reserved": 0, "fusion_lon": 0.0, "fusion_lat": 0.0, "name": "94c01d1afd608ca1b7d59567426a98be", "type": "electric_bike", "is_disabled": 0, "lat": 38.98817066666667, "rental_uris": {"android": "https://dc.lft.to/lastmile_qr_scan", "ios": "https://dc.lft.to/lastmile_qr_scan"}, "bike_id": "94c01d1afd608ca1b7d59567426a98be", "lon": -77.02657633333334}, {"is_reserved": 0, "fusion_lon": 0.0, "fusion_lat": 0.0, "name": "faf0279c4a00d5e658483349a7ff23dc", "type": "electric_scooter", "is_disabled": 0, "lat": 38.932663, "rental_uris": {"android": "https://dc.lft.to/lastmile_qr_scan", "ios": "https://dc.lft.to/lastmile_qr_scan"}, "bike_id": "faf0279c4a00d5e658483349a7ff23dc", "lon": -77.02838833333334}, {"is_reserved": 0, "fusion_lon": 0.0, "fusion_lat": 0.0, "name": "69ccfe0d0db6553c1c365b79ce055020", "type": "electric_scooter", "is_disabled": 0, "lat": 38.93172633333333, "rental_uris": {"android": "https://dc.lft.to/lastmile_qr_scan", "ios": "https://dc.lft.to/lastmile_qr_scan"}, "bike_id": "69ccfe0d0db6553c1c365b79ce055020", "lon": -77.0281475}, {"is_reserved": 0, "fusion_lon": 0.0, "fusion_lat": 0.0, "name": "cb55768c104491b6bfd6bf33b7c07200", "type": "electric_scooter", "is_disabled": 0, "lat": 38.9352955, "rental_uris": {"android": "https://dc.lft.to/lastmile_qr_scan", "ios": "https://dc.lft.to/lastmile_qr_scan"}, "bike_id": "cb55768c104491b6bfd6bf33b7c07200", "lon": -77.034766}, {"is_reserved": 0, "fusion_lon": 0.0, "fusion_lat": 0.0, "name": "8f2c0ed5ffaaaee6aef3f2cc0654da14", "type": "electric_scooter", "is_disabled": 0, "lat": 38.9276865, "rental_uris": {"android": "https://dc.lft.to/lastmile_qr_scan", "ios": "https://dc.lft.to/lastmile_qr_scan"}, "bike_id": "8f2c0ed5ffaaaee6aef3f2cc0654da14", "lon": -77.02065933333333}, {"is_reserved": 0, "fusion_lon": 0.0, "fusion_lat": 0.0, "name": "e128ead61e0744fa7f6f684e64c12c01", "type": "electric_bike", "is_disabled": 0, "lat": 38.947581666666665, "rental_uris": {"android": "https://dc.lft.to/lastmile_qr_scan", "ios": "https://dc.lft.to/lastmile_qr_scan"}, "bike_id": "e128ead61e0744fa7f6f684e64c12c01", "lon": -77.02369766666666}, {"is_reserved": 0, "fusion_lon": 0.0, "fusion_lat": 0.0, "name": "601d9383c2a3ee5569f3d5a268715c6c", "type": "electric_scooter", "is_disabled": 0, "lat": 38.90077, "rental_uris": {"android": "https://dc.lft.to/lastmile_qr_scan", "ios": "https://dc.lft.to/lastmile_qr_scan"}, "bike_id": "601d9383c2a3ee5569f3d5a268715c6c", "lon": -77.00209133333334}, {"is_reserved": 0, "fusion_lon": 0.0, "fusion_lat": 0.0, "name": "055e88c9b6c03b44248036fa8e43b942", "type": "electric_scooter", "is_disabled": 0, "lat": 38.91183216666667, "rental_uris": {"android": "https://dc.lft.to/lastmile_qr_scan", "ios": "https://dc.lft.to/lastmile_qr_scan"}, "bike_id": "055e88c9b6c03b44248036fa8e43b942", "lon": -77.004555}, {"is_reserved": 0, "fusion_lon": 0.0, "fusion_lat": 0.0, "name": "21eb4417e08ba4ec1d90dab4b1575e62", "type": "electric_scooter", "is_disabled": 0, "lat": 38.9071865, "rental_uris": {"android": "https://dc.lft.to/lastmile_qr_scan", "ios": "https://dc.lft.to/lastmile_qr_scan"}, "bike_id": "21eb4417e08ba4ec1d90dab4b1575e62", "lon": -76.99816366666667}, {"is_reserved": 0, "fusion_lon": 0.0, "fusion_lat": 0.0, "name": "5ec358e34418a471aa9fc6f6310b2c92", "type": "electric_scooter", "is_disabled": 0, "lat": 38.911069833333336, "rental_uris": {"android": "https://dc.lft.to/lastmile_qr_scan", "ios": "https://dc.lft.to/lastmile_qr_scan"}, "bike_id": "5ec358e34418a471aa9fc6f6310b2c92", "lon": -77.024252}, {"is_reserved": 0, "fusion_lon": 0.0, "fusion_lat": 0.0, "name": "d05d7ab2852ae58859049c316d6a81ec", "type": "electric_scooter", "is_disabled": 0, "lat": 38.89018766666667, "rental_uris": {"android": "https://dc.lft.to/lastmile_qr_scan", "ios": "https://dc.lft.to/lastmile_qr_scan"}, "bike_id": "d05d7ab2852ae58859049c316d6a81ec", "lon": -76.93741016666667}, {"is_reserved": 0, "fusion_lon": 0.0, "fusion_lat": 0.0, "name": "3661a7b4f2272abb6bd8fb455cb67efc", "type": "electric_scooter", "is_disabled": 0, "lat": 38.882990166666666, "rental_uris": {"android": "https://dc.lft.to/lastmile_qr_scan", "ios": "https://dc.lft.to/lastmile_qr_scan"}, "bike_id": "3661a7b4f2272abb6bd8fb455cb67efc", "lon": -77.03142766666667}, {"is_reserved": 0, "fusion_lon": 0.0, "fusion_lat": 0.0, "name": "dcac7981995171a85791bb9cb4449ec3", "type": "electric_scooter", "is_disabled": 0, "lat": 38.938121, "rental_uris": {"android": "https://dc.lft.to/lastmile_qr_scan", "ios": "https://dc.lft.to/lastmile_qr_scan"}, "bike_id": "dcac7981995171a85791bb9cb4449ec3", "lon": -77.03387016666667}, {"is_reserved": 0, "fusion_lon": 0.0, "fusion_lat": 0.0, "name": "9205ff0d6e4990a1c9c87efcf2c8e944", "type": "electric_scooter", "is_disabled": 0, "lat": 38.911190500000004, "rental_uris": {"android": "https://dc.lft.to/lastmile_qr_scan", "ios": "https://dc.lft.to/lastmile_qr_scan"}, "bike_id": "9205ff0d6e4990a1c9c87efcf2c8e944", "lon": -77.0228045}, {"is_reserved": 0, "fusion_lon": 0.0, "fusion_lat": 0.0, "name": "fcdc95ac985fd738729ec2da88fcd41d", "type": "electric_scooter", "is_disabled": 0, "lat": 38.920893666666665, "rental_uris": {"android": "https://dc.lft.to/lastmile_qr_scan", "ios": "https://dc.lft.to/lastmile_qr_scan"}, "bike_id": "fcdc95ac985fd738729ec2da88fcd41d", "lon": -77.02422233333333}, {"is_reserved": 0, "fusion_lon": 0.0, "fusion_lat": 0.0, "name": "ab8e4b57a3a4a18448b33bdd47af7ae2", "type": "electric_scooter", "is_disabled": 0, "lat": 38.893713, "rental_uris": {"android": "https://dc.lft.to/lastmile_qr_scan", "ios": "https://dc.lft.to/lastmile_qr_scan"}, "bike_id": "ab8e4b57a3a4a18448b33bdd47af7ae2", "lon": -77.04788033333334}, {"is_reserved": 0, "fusion_lon": 0.0, "fusion_lat": 0.0, "name": "6b1af9d5e00a583fbfdddad3942d4a52", "type": "electric_scooter", "is_disabled": 0, "lat": 38.89217416666666, "rental_uris": {"android": "https://dc.lft.to/lastmile_qr_scan", "ios": "https://dc.lft.to/lastmile_qr_scan"}, "bike_id": "6b1af9d5e00a583fbfdddad3942d4a52", "lon": -77.023493}, {"is_reserved": 0, "fusion_lon": 0.0, "fusion_lat": 0.0, "name": "f34daf04bad32a44b7b517367a72c53e", "type": "electric_scooter", "is_disabled": 0, "lat": 38.90364983333333, "rental_uris": {"android": "https://dc.lft.to/lastmile_qr_scan", "ios": "https://dc.lft.to/lastmile_qr_scan"}, "bike_id": "f34daf04bad32a44b7b517367a72c53e", "lon": -77.043401}, {"is_reserved": 0, "fusion_lon": 0.0, "fusion_lat": 0.0, "name": "e4ba1ad362f72b1029f67baa04432b36", "type": "electric_scooter", "is_disabled": 0, "lat": 38.922323166666665, "rental_uris": {"android": "https://dc.lft.to/lastmile_qr_scan", "ios": "https://dc.lft.to/lastmile_qr_scan"}, "bike_id": "e4ba1ad362f72b1029f67baa04432b36", "lon": -77.04500583333333}, {"is_reserved": 0, "fusion_lon": 0.0, "fusion_lat": 0.0, "name": "8b3426d742f6628d3a7b03f8e13801d5", "type": "electric_scooter", "is_disabled": 0, "lat": 38.93113666666667, "rental_uris": {"android": "https://dc.lft.to/lastmile_qr_scan", "ios": "https://dc.lft.to/lastmile_qr_scan"}, "bike_id": "8b3426d742f6628d3a7b03f8e13801d5", "lon": -77.02362116666667}, {"is_reserved": 0, "fusion_lon": 0.0, "fusion_lat": 0.0, "name": "3a74eb5dc4de858457e2086f8eae3414", "type": "electric_scooter", "is_disabled": 0, "lat": 38.92033883333333, "rental_uris": {"android": "https://dc.lft.to/lastmile_qr_scan", "ios": "https://dc.lft.to/lastmile_qr_scan"}, "bike_id": "3a74eb5dc4de858457e2086f8eae3414", "lon": -76.98489416666666}, {"is_reserved": 0, "fusion_lon": 0.0, "fusion_lat": 0.0, "name": "1e7ebff7239286204176aaecc5b2cfab", "type": "electric_scooter", "is_disabled": 0, "lat": 38.905014, "rental_uris": {"android": "https://dc.lft.to/lastmile_qr_scan", "ios": "https://dc.lft.to/lastmile_qr_scan"}, "bike_id": "1e7ebff7239286204176aaecc5b2cfab", "lon": -77.02951633333333}, {"is_reserved": 0, "fusion_lon": 0.0, "fusion_lat": 0.0, "name": "fe44c76a8388389cd0a0ed3e2e73b9a5", "type": "electric_scooter", "is_disabled": 0, "lat": 38.954815333333336, "rental_uris": {"android": "https://dc.lft.to/lastmile_qr_scan", "ios": "https://dc.lft.to/lastmile_qr_scan"}, "bike_id": "fe44c76a8388389cd0a0ed3e2e73b9a5", "lon": -76.9887485}, {"is_reserved": 0, "fusion_lon": 0.0, "fusion_lat": 0.0, "name": "e123706ea02c7ec40d5504d843dd541c", "type": "electric_scooter", "is_disabled": 0, "lat": 38.89223466666667, "rental_uris": {"android": "https://dc.lft.to/lastmile_qr_scan", "ios": "https://dc.lft.to/lastmile_qr_scan"}, "bike_id": "e123706ea02c7ec40d5504d843dd541c", "lon": -77.0486565}, {"is_reserved": 0, "fusion_lon": 0.0, "fusion_lat": 0.0, "name": "c4a22eae18bb2a63a84ee675ab0d574c", "type": "electric_bike", "is_disabled": 0, "lat": 38.961408666666664, "rental_uris": {"android": "https://dc.lft.to/lastmile_qr_scan", "ios": "https://dc.lft.to/lastmile_qr_scan"}, "bike_id": "c4a22eae18bb2a63a84ee675ab0d574c", "lon": -77.0229395}, {"is_reserved": 0, "fusion_lon": 0.0, "fusion_lat": 0.0, "name": "5bfa672742c404aa91f9569c61e80199", "type": "electric_scooter", "is_disabled": 0, "lat": 38.923126833333335, "rental_uris": {"android": "https://dc.lft.to/lastmile_qr_scan", "ios": "https://dc.lft.to/lastmile_qr_scan"}, "bike_id": "5bfa672742c404aa91f9569c61e80199", "lon": -77.02766066666666}, {"is_reserved": 0, "fusion_lon": 0.0, "fusion_lat": 0.0, "name": "7575320fb2cd1d9462a5039b7cf3d638", "type": "electric_scooter", "is_disabled": 0, "lat": 38.907304833333335, "rental_uris": {"android": "https://dc.lft.to/lastmile_qr_scan", "ios": "https://dc.lft.to/lastmile_qr_scan"}, "bike_id": "7575320fb2cd1d9462a5039b7cf3d638", "lon": -77.01138116666667}, {"is_reserved": 0, "fusion_lon": 0.0, "fusion_lat": 0.0, "name": "1e16d969a9ccaeb2ddcdd46dde292161", "type": "electric_scooter", "is_disabled": 0, "lat": 38.865369, "rental_uris": {"android": "https://dc.lft.to/lastmile_qr_scan", "ios": "https://dc.lft.to/lastmile_qr_scan"}, "bike_id": "1e16d969a9ccaeb2ddcdd46dde292161", "lon": -76.98706416666667}, {"is_reserved": 0, "fusion_lon": 0.0, "fusion_lat": 0.0, "name": "50f6c0c3e1e10023e9fc40ea692f0332", "type": "electric_scooter", "is_disabled": 0, "lat": 38.94201783333333, "rental_uris": {"android": "https://dc.lft.to/lastmile_qr_scan", "ios": "https://dc.lft.to/lastmile_qr_scan"}, "bike_id": "50f6c0c3e1e10023e9fc40ea692f0332", "lon": -77.025189}, {"is_reserved": 0, "fusion_lon": 0.0, "fusion_lat": 0.0, "name": "a1e0a422729e761736959a8e98a04d65", "type": "electric_scooter", "is_disabled": 0, "lat": 38.86699083333333, "rental_uris": {"android": "https://dc.lft.to/lastmile_qr_scan", "ios": "https://dc.lft.to/lastmile_qr_scan"}, "bike_id": "a1e0a422729e761736959a8e98a04d65", "lon": -76.98592466666666}, {"is_reserved": 0, "fusion_lon": 0.0, "fusion_lat": 0.0, "name": "06213482e62629c484e2341d8dd833d6", "type": "electric_scooter", "is_disabled": 0, "lat": 38.9156095, "rental_uris": {"android": "https://dc.lft.to/lastmile_qr_scan", "ios": "https://dc.lft.to/lastmile_qr_scan"}, "bike_id": "06213482e62629c484e2341d8dd833d6", "lon": -77.03168583333333}, {"is_reserved": 0, "fusion_lon": 0.0, "fusion_lat": 0.0, "name": "6ce52cf96a29a76e320ede5a32cb67f8", "type": "electric_bike", "is_disabled": 0, "lat": 38.951684666666665, "rental_uris": {"android": "https://dc.lft.to/lastmile_qr_scan", "ios": "https://dc.lft.to/lastmile_qr_scan"}, "bike_id": "6ce52cf96a29a76e320ede5a32cb67f8", "lon": -76.9639105}, {"is_reserved": 0, "fusion_lon": 0.0, "fusion_lat": 0.0, "name": "9183f6ad0ac841571de73337d5cff0c1", "type": "electric_bike", "is_disabled": 0, "lat": 38.880078, "rental_uris": {"android": "https://dc.lft.to/lastmile_qr_scan", "ios": "https://dc.lft.to/lastmile_qr_scan"}, "bike_id": "9183f6ad0ac841571de73337d5cff0c1", "lon": -76.9845895}, {"is_reserved": 0, "fusion_lon": 0.0, "fusion_lat": 0.0, "name": "19eb8f80c226df958f83213560318e71", "type": "electric_bike", "is_disabled": 0, "lat": 38.910144833333334, "rental_uris": {"android": "https://dc.lft.to/lastmile_qr_scan", "ios": "https://dc.lft.to/lastmile_qr_scan"}, "bike_id": "19eb8f80c226df958f83213560318e71", "lon": -77.22798566666667}, {"is_reserved": 0, "fusion_lon": 0.0, "fusion_lat": 0.0, "name": "acb908890b28037f92f123ceff7acaee", "type": "electric_scooter", "is_disabled": 0, "lat": 38.90784683333333, "rental_uris": {"android": "https://dc.lft.to/lastmile_qr_scan", "ios": "https://dc.lft.to/lastmile_qr_scan"}, "bike_id": "acb908890b28037f92f123ceff7acaee", "lon": -77.03857516666666}, {"is_reserved": 0, "fusion_lon": 0.0, "fusion_lat": 0.0, "name": "54fda3e8a444ed89123ab612c7ccc54d", "type": "electric_scooter", "is_disabled": 0, "lat": 38.9244785, "rental_uris": {"android": "https://dc.lft.to/lastmile_qr_scan", "ios": "https://dc.lft.to/lastmile_qr_scan"}, "bike_id": "54fda3e8a444ed89123ab612c7ccc54d", "lon": -77.04119083333333}, {"is_reserved": 0, "fusion_lon": 0.0, "fusion_lat": 0.0, "name": "b029e2ffa91fdabc237825310a6bb3d3", "type": "electric_scooter", "is_disabled": 0, "lat": 38.903796, "rental_uris": {"android": "https://dc.lft.to/lastmile_qr_scan", "ios": "https://dc.lft.to/lastmile_qr_scan"}, "bike_id": "b029e2ffa91fdabc237825310a6bb3d3", "lon": -77.03830466666666}, {"is_reserved": 0, "fusion_lon": 0.0, "fusion_lat": 0.0, "name": "6070e0047aee86c1594a6350ff989399", "type": "electric_scooter", "is_disabled": 0, "lat": 38.897380166666665, "rental_uris": {"android": "https://dc.lft.to/lastmile_qr_scan", "ios": "https://dc.lft.to/lastmile_qr_scan"}, "bike_id": "6070e0047aee86c1594a6350ff989399", "lon": -76.9957235}, {"is_reserved": 0, "fusion_lon": 0.0, "fusion_lat": 0.0, "name": "e42b328ca2528d969aae7368d4d83fc6", "type": "electric_scooter", "is_disabled": 0, "lat": 38.918530833333335, "rental_uris": {"android": "https://dc.lft.to/lastmile_qr_scan", "ios": "https://dc.lft.to/lastmile_qr_scan"}, "bike_id": "e42b328ca2528d969aae7368d4d83fc6", "lon": -77.01673533333333}, {"is_reserved": 0, "fusion_lon": 0.0, "fusion_lat": 0.0, "name": "ce69bcaa2e845a374baf1a83adee86e2", "type": "electric_scooter", "is_disabled": 0, "lat": 38.900505833333334, "rental_uris": {"android": "https://dc.lft.to/lastmile_qr_scan", "ios": "https://dc.lft.to/lastmile_qr_scan"}, "bike_id": "ce69bcaa2e845a374baf1a83adee86e2", "lon": -77.011783}, {"is_reserved": 0, "fusion_lon": 0.0, "fusion_lat": 0.0, "name": "83df385f3f22b71060d26d2762aaf3db", "type": "electric_scooter", "is_disabled": 0, "lat": 38.87501183333333, "rental_uris": {"android": "https://dc.lft.to/lastmile_qr_scan", "ios": "https://dc.lft.to/lastmile_qr_scan"}, "bike_id": "83df385f3f22b71060d26d2762aaf3db", "lon": -76.999791}, {"is_reserved": 0, "fusion_lon": 0.0, "fusion_lat": 0.0, "name": "011be805e5692f9f837fbd4088d1fdd9", "type": "electric_bike", "is_disabled": 0, "lat": 38.87279933333333, "rental_uris": {"android": "https://dc.lft.to/lastmile_qr_scan", "ios": "https://dc.lft.to/lastmile_qr_scan"}, "bike_id": "011be805e5692f9f837fbd4088d1fdd9", "lon": -77.23320183333334}, {"is_reserved": 0, "fusion_lon": 0.0, "fusion_lat": 0.0, "name": "332813516ff3f80ffa77e5f07575fbdd", "type": "electric_scooter", "is_disabled": 0, "lat": 38.88725433333333, "rental_uris": {"android": "https://dc.lft.to/lastmile_qr_scan", "ios": "https://dc.lft.to/lastmile_qr_scan"}, "bike_id": "332813516ff3f80ffa77e5f07575fbdd", "lon": -77.0283285}, {"is_reserved": 0, "fusion_lon": 0.0, "fusion_lat": 0.0, "name": "8ec01ebb0d818e2712a37919ac59cf5e", "type": "electric_scooter", "is_disabled": 0, "lat": 38.935368833333335, "rental_uris": {"android": "https://dc.lft.to/lastmile_qr_scan", "ios": "https://dc.lft.to/lastmile_qr_scan"}, "bike_id": "8ec01ebb0d818e2712a37919ac59cf5e", "lon": -77.0234575}, {"is_reserved": 0, "fusion_lon": 0.0, "fusion_lat": 0.0, "name": "5309764259dbbf68f2c428e387ac1fa6", "type": "electric_scooter", "is_disabled": 0, "lat": 38.903833, "rental_uris": {"android": "https://dc.lft.to/lastmile_qr_scan", "ios": "https://dc.lft.to/lastmile_qr_scan"}, "bike_id": "5309764259dbbf68f2c428e387ac1fa6", "lon": -77.04497933333333}, {"is_reserved": 0, "fusion_lon": 0.0, "fusion_lat": 0.0, "name": "a7ad46093fee796c51eac94ab61160a9", "type": "electric_scooter", "is_disabled": 0, "lat": 38.878487, "rental_uris": {"android": "https://dc.lft.to/lastmile_qr_scan", "ios": "https://dc.lft.to/lastmile_qr_scan"}, "bike_id": "a7ad46093fee796c51eac94ab61160a9", "lon": -77.01967883333333}, {"is_reserved": 0, "fusion_lon": 0.0, "fusion_lat": 0.0, "name": "0702522169d7dcaa0e15c62791ffcec8", "type": "electric_scooter", "is_disabled": 0, "lat": 38.918251833333336, "rental_uris": {"android": "https://dc.lft.to/lastmile_qr_scan", "ios": "https://dc.lft.to/lastmile_qr_scan"}, "bike_id": "0702522169d7dcaa0e15c62791ffcec8", "lon": -77.01210716666667}, {"is_reserved": 0, "fusion_lon": 0.0, "fusion_lat": 0.0, "name": "0565c5ed7845e77eb2b1defaf3f0c97b", "type": "electric_scooter", "is_disabled": 0, "lat": 38.90087066666667, "rental_uris": {"android": "https://dc.lft.to/lastmile_qr_scan", "ios": "https://dc.lft.to/lastmile_qr_scan"}, "bike_id": "0565c5ed7845e77eb2b1defaf3f0c97b", "lon": -76.930257}, {"is_reserved": 0, "fusion_lon": 0.0, "fusion_lat": 0.0, "name": "1594d38deb3ea4138bb5f1c1603e6eb8", "type": "electric_scooter", "is_disabled": 0, "lat": 38.94200583333333, "rental_uris": {"android": "https://dc.lft.to/lastmile_qr_scan", "ios": "https://dc.lft.to/lastmile_qr_scan"}, "bike_id": "1594d38deb3ea4138bb5f1c1603e6eb8", "lon": -77.0250075}, {"is_reserved": 0, "fusion_lon": 0.0, "fusion_lat": 0.0, "name": "57552cee982b3207621e8fc80af9254f", "type": "electric_scooter", "is_disabled": 0, "lat": 38.92509733333333, "rental_uris": {"android": "https://dc.lft.to/lastmile_qr_scan", "ios": "https://dc.lft.to/lastmile_qr_scan"}, "bike_id": "57552cee982b3207621e8fc80af9254f", "lon": -77.0022605}, {"is_reserved": 0, "fusion_lon": 0.0, "fusion_lat": 0.0, "name": "c1e0ff53c470a52040a937ae33dbc0b9", "type": "electric_scooter", "is_disabled": 0, "lat": 38.9333765, "rental_uris": {"android": "https://dc.lft.to/lastmile_qr_scan", "ios": "https://dc.lft.to/lastmile_qr_scan"}, "bike_id": "c1e0ff53c470a52040a937ae33dbc0b9", "lon": -77.0262255}, {"is_reserved": 0, "fusion_lon": 0.0, "fusion_lat": 0.0, "name": "231f220a039171d5014a47e44ce93e51", "type": "electric_scooter", "is_disabled": 0, "lat": 38.91125066666667, "rental_uris": {"android": "https://dc.lft.to/lastmile_qr_scan", "ios": "https://dc.lft.to/lastmile_qr_scan"}, "bike_id": "231f220a039171d5014a47e44ce93e51", "lon": -77.044182}, {"is_reserved": 0, "fusion_lon": 0.0, "fusion_lat": 0.0, "name": "3c2925785542ab03d67a32671c9a9250", "type": "electric_scooter", "is_disabled": 0, "lat": 38.88623316666666, "rental_uris": {"android": "https://dc.lft.to/lastmile_qr_scan", "ios": "https://dc.lft.to/lastmile_qr_scan"}, "bike_id": "3c2925785542ab03d67a32671c9a9250", "lon": -77.02002766666666}, {"is_reserved": 0, "fusion_lon": 0.0, "fusion_lat": 0.0, "name": "f1a7a846367f7411c7f7b1b8a1a6907c", "type": "electric_scooter", "is_disabled": 0, "lat": 38.94499483333333, "rental_uris": {"android": "https://dc.lft.to/lastmile_qr_scan", "ios": "https://dc.lft.to/lastmile_qr_scan"}, "bike_id": "f1a7a846367f7411c7f7b1b8a1a6907c", "lon": -77.03496733333333}, {"is_reserved": 0, "fusion_lon": 0.0, "fusion_lat": 0.0, "name": "98740ff7d4b2b4b2fcf67cc9fe65c3db", "type": "electric_scooter", "is_disabled": 0, "lat": 38.891981333333334, "rental_uris": {"android": "https://dc.lft.to/lastmile_qr_scan", "ios": "https://dc.lft.to/lastmile_qr_scan"}, "bike_id": "98740ff7d4b2b4b2fcf67cc9fe65c3db", "lon": -76.95697483333333}, {"is_reserved": 0, "fusion_lon": 0.0, "fusion_lat": 0.0, "name": "360fc930ad9be8ba805e14784468b4df", "type": "electric_scooter", "is_disabled": 0, "lat": 38.881259666666665, "rental_uris": {"android": "https://dc.lft.to/lastmile_qr_scan", "ios": "https://dc.lft.to/lastmile_qr_scan"}, "bike_id": "360fc930ad9be8ba805e14784468b4df", "lon": -77.00080816666667}, {"is_reserved": 0, "fusion_lon": 0.0, "fusion_lat": 0.0, "name": "90349ba1bc63580a79a1c1cdb348bf81", "type": "electric_bike", "is_disabled": 0, "lat": 38.883351, "rental_uris": {"android": "https://dc.lft.to/lastmile_qr_scan", "ios": "https://dc.lft.to/lastmile_qr_scan"}, "bike_id": "90349ba1bc63580a79a1c1cdb348bf81", "lon": -77.06566533333333}, {"is_reserved": 0, "fusion_lon": 0.0, "fusion_lat": 0.0, "name": "a58c8d679b4eda2e4991b0ef480af7e7", "type": "electric_scooter", "is_disabled": 0, "lat": 38.926595666666664, "rental_uris": {"android": "https://dc.lft.to/lastmile_qr_scan", "ios": "https://dc.lft.to/lastmile_qr_scan"}, "bike_id": "a58c8d679b4eda2e4991b0ef480af7e7", "lon": -77.00866666666667}, {"is_reserved": 0, "fusion_lon": 0.0, "fusion_lat": 0.0, "name": "3e0cc4ba201dc9bcba5e7c5a80a617f8", "type": "electric_scooter", "is_disabled": 0, "lat": 38.92963066666667, "rental_uris": {"android": "https://dc.lft.to/lastmile_qr_scan", "ios": "https://dc.lft.to/lastmile_qr_scan"}, "bike_id": "3e0cc4ba201dc9bcba5e7c5a80a617f8", "lon": -77.0275905}, {"is_reserved": 0, "fusion_lon": 0.0, "fusion_lat": 0.0, "name": "5c8c960cc5e1b0062d875b73d63307c0", "type": "electric_bike", "is_disabled": 0, "lat": 39.054936833333336, "rental_uris": {"android": "https://dc.lft.to/lastmile_qr_scan", "ios": "https://dc.lft.to/lastmile_qr_scan"}, "bike_id": "5c8c960cc5e1b0062d875b73d63307c0", "lon": -77.11789533333334}, {"is_reserved": 0, "fusion_lon": 0.0, "fusion_lat": 0.0, "name": "556ec26267ae3269b6117bb5f4c6136c", "type": "electric_bike", "is_disabled": 0, "lat": 39.03434933333333, "rental_uris": {"android": "https://dc.lft.to/lastmile_qr_scan", "ios": "https://dc.lft.to/lastmile_qr_scan"}, "bike_id": "556ec26267ae3269b6117bb5f4c6136c", "lon": -77.0409335}, {"is_reserved": 0, "fusion_lon": 0.0, "fusion_lat": 0.0, "name": "5e994ec82c3595d16035bcdedbbcaf7b", "type": "electric_scooter", "is_disabled": 0, "lat": 38.9050105, "rental_uris": {"android": "https://dc.lft.to/lastmile_qr_scan", "ios": "https://dc.lft.to/lastmile_qr_scan"}, "bike_id": "5e994ec82c3595d16035bcdedbbcaf7b", "lon": -76.97926466666667}, {"is_reserved": 0, "fusion_lon": 0.0, "fusion_lat": 0.0, "name": "c28499ba05702bc2ceea03daf2521c28", "type": "electric_scooter", "is_disabled": 0, "lat": 38.899159, "rental_uris": {"android": "https://dc.lft.to/lastmile_qr_scan", "ios": "https://dc.lft.to/lastmile_qr_scan"}, "bike_id": "c28499ba05702bc2ceea03daf2521c28", "lon": -76.93381033333333}, {"is_reserved": 0, "fusion_lon": 0.0, "fusion_lat": 0.0, "name": "c724f8aa64cdf933902d376d1e562ecf", "type": "electric_bike", "is_disabled": 0, "lat": 38.96621616666667, "rental_uris": {"android": "https://dc.lft.to/lastmile_qr_scan", "ios": "https://dc.lft.to/lastmile_qr_scan"}, "bike_id": "c724f8aa64cdf933902d376d1e562ecf", "lon": -77.03433416666667}, {"is_reserved": 0, "fusion_lon": 0.0, "fusion_lat": 0.0, "name": "fba577035e456baee51530048419621b", "type": "electric_bike", "is_disabled": 0, "lat": 38.893531333333335, "rental_uris": {"android": "https://dc.lft.to/lastmile_qr_scan", "ios": "https://dc.lft.to/lastmile_qr_scan"}, "bike_id": "fba577035e456baee51530048419621b", "lon": -77.187394}, {"is_reserved": 0, "fusion_lon": 0.0, "fusion_lat": 0.0, "name": "c3ed8a12638ebffd68f3a703bd955e2f", "type": "electric_scooter", "is_disabled": 0, "lat": 38.9216035, "rental_uris": {"android": "https://dc.lft.to/lastmile_qr_scan", "ios": "https://dc.lft.to/lastmile_qr_scan"}, "bike_id": "c3ed8a12638ebffd68f3a703bd955e2f", "lon": -77.04356883333334}, {"is_reserved": 0, "fusion_lon": 0.0, "fusion_lat": 0.0, "name": "595a86ccb28faf68926f43040f89e170", "type": "electric_bike", "is_disabled": 0, "lat": 38.85421866666667, "rental_uris": {"android": "https://dc.lft.to/lastmile_qr_scan", "ios": "https://dc.lft.to/lastmile_qr_scan"}, "bike_id": "595a86ccb28faf68926f43040f89e170", "lon": -77.12077966666666}, {"is_reserved": 0, "fusion_lon": 0.0, "fusion_lat": 0.0, "name": "ea48050408e9ef96e66bd3a35aef6f19", "type": "electric_scooter", "is_disabled": 0, "lat": 38.897347, "rental_uris": {"android": "https://dc.lft.to/lastmile_qr_scan", "ios": "https://dc.lft.to/lastmile_qr_scan"}, "bike_id": "ea48050408e9ef96e66bd3a35aef6f19", "lon": -77.047282}, {"is_reserved": 0, "fusion_lon": 0.0, "fusion_lat": 0.0, "name": "b76f84d461c6cff0955bb3c646bea7df", "type": "electric_scooter", "is_disabled": 0, "lat": 38.89930316666667, "rental_uris": {"android": "https://dc.lft.to/lastmile_qr_scan", "ios": "https://dc.lft.to/lastmile_qr_scan"}, "bike_id": "b76f84d461c6cff0955bb3c646bea7df", "lon": -76.9457435}, {"is_reserved": 0, "fusion_lon": 0.0, "fusion_lat": 0.0, "name": "344796eed229a971d67de6d4d8ef16ec", "type": "electric_scooter", "is_disabled": 0, "lat": 38.91266383333333, "rental_uris": {"android": "https://dc.lft.to/lastmile_qr_scan", "ios": "https://dc.lft.to/lastmile_qr_scan"}, "bike_id": "344796eed229a971d67de6d4d8ef16ec", "lon": -77.03177766666667}, {"is_reserved": 0, "fusion_lon": 0.0, "fusion_lat": 0.0, "name": "d5b9d5387753619eb31e4a21d2588b5e", "type": "electric_scooter", "is_disabled": 0, "lat": 38.89388566666667, "rental_uris": {"android": "https://dc.lft.to/lastmile_qr_scan", "ios": "https://dc.lft.to/lastmile_qr_scan"}, "bike_id": "d5b9d5387753619eb31e4a21d2588b5e", "lon": -77.022498}, {"is_reserved": 0, "fusion_lon": 0.0, "fusion_lat": 0.0, "name": "4c3e7c777335551ac6307f9597fcda96", "type": "electric_scooter", "is_disabled": 0, "lat": 38.908115, "rental_uris": {"android": "https://dc.lft.to/lastmile_qr_scan", "ios": "https://dc.lft.to/lastmile_qr_scan"}, "bike_id": "4c3e7c777335551ac6307f9597fcda96", "lon": -77.03449633333334}, {"is_reserved": 0, "fusion_lon": 0.0, "fusion_lat": 0.0, "name": "2fb44caadfc9860d94380244411f80bf", "type": "electric_scooter", "is_disabled": 0, "lat": 38.93241916666667, "rental_uris": {"android": "https://dc.lft.to/lastmile_qr_scan", "ios": "https://dc.lft.to/lastmile_qr_scan"}, "bike_id": "2fb44caadfc9860d94380244411f80bf", "lon": -77.03849966666667}, {"is_reserved": 0, "fusion_lon": 0.0, "fusion_lat": 0.0, "name": "049390f5fada43007795864f45c44244", "type": "electric_scooter", "is_disabled": 0, "lat": 38.917361166666666, "rental_uris": {"android": "https://dc.lft.to/lastmile_qr_scan", "ios": "https://dc.lft.to/lastmile_qr_scan"}, "bike_id": "049390f5fada43007795864f45c44244", "lon": -77.06846266666666}, {"is_reserved": 0, "fusion_lon": 0.0, "fusion_lat": 0.0, "name": "4b9da19e7713dac6c0f2994ac304e304", "type": "electric_scooter", "is_disabled": 0, "lat": 38.89901316666667, "rental_uris": {"android": "https://dc.lft.to/lastmile_qr_scan", "ios": "https://dc.lft.to/lastmile_qr_scan"}, "bike_id": "4b9da19e7713dac6c0f2994ac304e304", "lon": -76.99158916666667}, {"is_reserved": 0, "fusion_lon": 0.0, "fusion_lat": 0.0, "name": "18785dbb7f60d3f4d1bcfeec60534535", "type": "electric_scooter", "is_disabled": 0, "lat": 38.87117033333333, "rental_uris": {"android": "https://dc.lft.to/lastmile_qr_scan", "ios": "https://dc.lft.to/lastmile_qr_scan"}, "bike_id": "18785dbb7f60d3f4d1bcfeec60534535", "lon": -77.00756966666667}, {"is_reserved": 0, "fusion_lon": 0.0, "fusion_lat": 0.0, "name": "fc759c0f5de96b2e219e6dd06c82ac57", "type": "electric_scooter", "is_disabled": 0, "lat": 38.907368166666664, "rental_uris": {"android": "https://dc.lft.to/lastmile_qr_scan", "ios": "https://dc.lft.to/lastmile_qr_scan"}, "bike_id": "fc759c0f5de96b2e219e6dd06c82ac57", "lon": -77.02693683333334}, {"is_reserved": 0, "fusion_lon": 0.0, "fusion_lat": 0.0, "name": "033f7741d1ab5d401a0b986092816689", "type": "electric_scooter", "is_disabled": 0, "lat": 38.951778, "rental_uris": {"android": "https://dc.lft.to/lastmile_qr_scan", "ios": "https://dc.lft.to/lastmile_qr_scan"}, "bike_id": "033f7741d1ab5d401a0b986092816689", "lon": -77.02738233333334}, {"is_reserved": 0, "fusion_lon": 0.0, "fusion_lat": 0.0, "name": "a31423bdd652fb3b1f64e20937dee7fd", "type": "electric_scooter", "is_disabled": 0, "lat": 38.896017666666665, "rental_uris": {"android": "https://dc.lft.to/lastmile_qr_scan", "ios": "https://dc.lft.to/lastmile_qr_scan"}, "bike_id": "a31423bdd652fb3b1f64e20937dee7fd", "lon": -77.0076985}, {"is_reserved": 0, "fusion_lon": 0.0, "fusion_lat": 0.0, "name": "4ec057b09e343bb3f37552b39fe4deed", "type": "electric_bike", "is_disabled": 0, "lat": 38.90272916666667, "rental_uris": {"android": "https://dc.lft.to/lastmile_qr_scan", "ios": "https://dc.lft.to/lastmile_qr_scan"}, "bike_id": "4ec057b09e343bb3f37552b39fe4deed", "lon": -76.9292565}, {"is_reserved": 0, "fusion_lon": 0.0, "fusion_lat": 0.0, "name": "5ff040d6207ac0ca4e65aaed297fa477", "type": "electric_bike", "is_disabled": 0, "lat": 38.938552333333334, "rental_uris": {"android": "https://dc.lft.to/lastmile_qr_scan", "ios": "https://dc.lft.to/lastmile_qr_scan"}, "bike_id": "5ff040d6207ac0ca4e65aaed297fa477", "lon": -76.99312433333333}, {"is_reserved": 0, "fusion_lon": 0.0, "fusion_lat": 0.0, "name": "1423d3856da96efd80f497c65e238805", "type": "electric_scooter", "is_disabled": 0, "lat": 38.97224533333333, "rental_uris": {"android": "https://dc.lft.to/lastmile_qr_scan", "ios": "https://dc.lft.to/lastmile_qr_scan"}, "bike_id": "1423d3856da96efd80f497c65e238805", "lon": -77.02625216666667}, {"is_reserved": 0, "fusion_lon": 0.0, "fusion_lat": 0.0, "name": "d12524fc6e7eb19d526ebc7c817fb51a", "type": "electric_scooter", "is_disabled": 0, "lat": 38.90744633333333, "rental_uris": {"android": "https://dc.lft.to/lastmile_qr_scan", "ios": "https://dc.lft.to/lastmile_qr_scan"}, "bike_id": "d12524fc6e7eb19d526ebc7c817fb51a", "lon": -77.00245583333333}, {"is_reserved": 0, "fusion_lon": 0.0, "fusion_lat": 0.0, "name": "9e13e569ada1cea8a99a06d54286b515", "type": "electric_scooter", "is_disabled": 0, "lat": 38.911011, "rental_uris": {"android": "https://dc.lft.to/lastmile_qr_scan", "ios": "https://dc.lft.to/lastmile_qr_scan"}, "bike_id": "9e13e569ada1cea8a99a06d54286b515", "lon": -77.02970383333333}, {"is_reserved": 0, "fusion_lon": 0.0, "fusion_lat": 0.0, "name": "c1c091080bcb82ca00f55f77ef89e87c", "type": "electric_scooter", "is_disabled": 0, "lat": 38.89219883333333, "rental_uris": {"android": "https://dc.lft.to/lastmile_qr_scan", "ios": "https://dc.lft.to/lastmile_qr_scan"}, "bike_id": "c1c091080bcb82ca00f55f77ef89e87c", "lon": -77.04375583333334}, {"is_reserved": 0, "fusion_lon": 0.0, "fusion_lat": 0.0, "name": "a2fbbb35165ddd213dfb8f440db5f495", "type": "electric_scooter", "is_disabled": 0, "lat": 38.87680066666667, "rental_uris": {"android": "https://dc.lft.to/lastmile_qr_scan", "ios": "https://dc.lft.to/lastmile_qr_scan"}, "bike_id": "a2fbbb35165ddd213dfb8f440db5f495", "lon": -76.99828283333333}, {"is_reserved": 0, "fusion_lon": 0.0, "fusion_lat": 0.0, "name": "6ae4c54d4d03357c177c983a6e15b451", "type": "electric_scooter", "is_disabled": 0, "lat": 38.922494666666665, "rental_uris": {"android": "https://dc.lft.to/lastmile_qr_scan", "ios": "https://dc.lft.to/lastmile_qr_scan"}, "bike_id": "6ae4c54d4d03357c177c983a6e15b451", "lon": -77.03087016666667}, {"is_reserved": 0, "fusion_lon": 0.0, "fusion_lat": 0.0, "name": "83e2b7ade9c046c57ddda2cb65a180ce", "type": "electric_bike", "is_disabled": 0, "lat": 39.042331833333336, "rental_uris": {"android": "https://dc.lft.to/lastmile_qr_scan", "ios": "https://dc.lft.to/lastmile_qr_scan"}, "bike_id": "83e2b7ade9c046c57ddda2cb65a180ce", "lon": -76.997359}, {"is_reserved": 0, "fusion_lon": 0.0, "fusion_lat": 0.0, "name": "6ed013195e755403479d92ac70aa3850", "type": "electric_scooter", "is_disabled": 0, "lat": 38.905135, "rental_uris": {"android": "https://dc.lft.to/lastmile_qr_scan", "ios": "https://dc.lft.to/lastmile_qr_scan"}, "bike_id": "6ed013195e755403479d92ac70aa3850", "lon": -77.00134166666666}, {"is_reserved": 0, "fusion_lon": 0.0, "fusion_lat": 0.0, "name": "db05c61fb0629f369d1e42314810f127", "type": "electric_scooter", "is_disabled": 0, "lat": 38.9309955, "rental_uris": {"android": "https://dc.lft.to/lastmile_qr_scan", "ios": "https://dc.lft.to/lastmile_qr_scan"}, "bike_id": "db05c61fb0629f369d1e42314810f127", "lon": -77.026686}, {"is_reserved": 0, "fusion_lon": 0.0, "fusion_lat": 0.0, "name": "6cbbb658a2de955bbf3c3aabc234d8de", "type": "electric_scooter", "is_disabled": 0, "lat": 38.903704833333336, "rental_uris": {"android": "https://dc.lft.to/lastmile_qr_scan", "ios": "https://dc.lft.to/lastmile_qr_scan"}, "bike_id": "6cbbb658a2de955bbf3c3aabc234d8de", "lon": -77.0300485}, {"is_reserved": 0, "fusion_lon": 0.0, "fusion_lat": 0.0, "name": "29c9ceee97fd125a192ca86b956971ed", "type": "electric_scooter", "is_disabled": 0, "lat": 38.897412833333334, "rental_uris": {"android": "https://dc.lft.to/lastmile_qr_scan", "ios": "https://dc.lft.to/lastmile_qr_scan"}, "bike_id": "29c9ceee97fd125a192ca86b956971ed", "lon": -77.03359716666667}, {"is_reserved": 0, "fusion_lon": 0.0, "fusion_lat": 0.0, "name": "7adc1f3eaa325b81bbdd82bdb2668ce9", "type": "electric_bike", "is_disabled": 0, "lat": 38.8961815, "rental_uris": {"android": "https://dc.lft.to/lastmile_qr_scan", "ios": "https://dc.lft.to/lastmile_qr_scan"}, "bike_id": "7adc1f3eaa325b81bbdd82bdb2668ce9", "lon": -76.9074205}, {"is_reserved": 0, "fusion_lon": 0.0, "fusion_lat": 0.0, "name": "28fb7d569f5a066df9d955196568a14a", "type": "electric_scooter", "is_disabled": 0, "lat": 38.9049705, "rental_uris": {"android": "https://dc.lft.to/lastmile_qr_scan", "ios": "https://dc.lft.to/lastmile_qr_scan"}, "bike_id": "28fb7d569f5a066df9d955196568a14a", "lon": -76.9742615}, {"is_reserved": 0, "fusion_lon": 0.0, "fusion_lat": 0.0, "name": "544731ed6cc0ffe4516edab18ba8d94e", "type": "electric_scooter", "is_disabled": 0, "lat": 38.89732566666667, "rental_uris": {"android": "https://dc.lft.to/lastmile_qr_scan", "ios": "https://dc.lft.to/lastmile_qr_scan"}, "bike_id": "544731ed6cc0ffe4516edab18ba8d94e", "lon": -77.05565533333333}, {"is_reserved": 0, "fusion_lon": 0.0, "fusion_lat": 0.0, "name": "0e5b883d427bb09f10f5e3a14bad640f", "type": "electric_scooter", "is_disabled": 0, "lat": 38.88532516666667, "rental_uris": {"android": "https://dc.lft.to/lastmile_qr_scan", "ios": "https://dc.lft.to/lastmile_qr_scan"}, "bike_id": "0e5b883d427bb09f10f5e3a14bad640f", "lon": -76.98271183333334}, {"is_reserved": 0, "fusion_lon": 0.0, "fusion_lat": 0.0, "name": "3f7cc784e13974d14b0979b876680252", "type": "electric_scooter", "is_disabled": 0, "lat": 38.87918916666667, "rental_uris": {"android": "https://dc.lft.to/lastmile_qr_scan", "ios": "https://dc.lft.to/lastmile_qr_scan"}, "bike_id": "3f7cc784e13974d14b0979b876680252", "lon": -77.0073685}, {"is_reserved": 0, "fusion_lon": 0.0, "fusion_lat": 0.0, "name": "1d83cf49364738a2d728353148f64799", "type": "electric_scooter", "is_disabled": 0, "lat": 38.904696333333334, "rental_uris": {"android": "https://dc.lft.to/lastmile_qr_scan", "ios": "https://dc.lft.to/lastmile_qr_scan"}, "bike_id": "1d83cf49364738a2d728353148f64799", "lon": -77.01734083333334}, {"is_reserved": 0, "fusion_lon": 0.0, "fusion_lat": 0.0, "name": "2f1cb6e319c7254d982cfa981194d147", "type": "electric_scooter", "is_disabled": 0, "lat": 38.933205666666666, "rental_uris": {"android": "https://dc.lft.to/lastmile_qr_scan", "ios": "https://dc.lft.to/lastmile_qr_scan"}, "bike_id": "2f1cb6e319c7254d982cfa981194d147", "lon": -77.034307}, {"is_reserved": 0, "fusion_lon": 0.0, "fusion_lat": 0.0, "name": "0fd5ffb84515271553c87e39be50c5bb", "type": "electric_scooter", "is_disabled": 0, "lat": 38.918184833333335, "rental_uris": {"android": "https://dc.lft.to/lastmile_qr_scan", "ios": "https://dc.lft.to/lastmile_qr_scan"}, "bike_id": "0fd5ffb84515271553c87e39be50c5bb", "lon": -77.03457433333334}, {"is_reserved": 0, "fusion_lon": 0.0, "fusion_lat": 0.0, "name": "2f3918518fdfbeb81c350a16eabbf54b", "type": "electric_bike", "is_disabled": 0, "lat": 38.834242, "rental_uris": {"android": "https://dc.lft.to/lastmile_qr_scan", "ios": "https://dc.lft.to/lastmile_qr_scan"}, "bike_id": "2f3918518fdfbeb81c350a16eabbf54b", "lon": -77.10355933333334}, {"is_reserved": 0, "fusion_lon": 0.0, "fusion_lat": 0.0, "name": "40264f2fd448d72f567c742e977a0326", "type": "electric_scooter", "is_disabled": 0, "lat": 38.938895, "rental_uris": {"android": "https://dc.lft.to/lastmile_qr_scan", "ios": "https://dc.lft.to/lastmile_qr_scan"}, "bike_id": "40264f2fd448d72f567c742e977a0326", "lon": -77.03319633333334}, {"is_reserved": 0, "fusion_lon": 0.0, "fusion_lat": 0.0, "name": "d79b17dae98ed395078a7c3ebfc749b9", "type": "electric_scooter", "is_disabled": 0, "lat": 38.90262716666667, "rental_uris": {"android": "https://dc.lft.to/lastmile_qr_scan", "ios": "https://dc.lft.to/lastmile_qr_scan"}, "bike_id": "d79b17dae98ed395078a7c3ebfc749b9", "lon": -77.0612075}, {"is_reserved": 0, "fusion_lon": 0.0, "fusion_lat": 0.0, "name": "48d0958a448760f1535747abd8e584ec", "type": "electric_scooter", "is_disabled": 0, "lat": 38.948374, "rental_uris": {"android": "https://dc.lft.to/lastmile_qr_scan", "ios": "https://dc.lft.to/lastmile_qr_scan"}, "bike_id": "48d0958a448760f1535747abd8e584ec", "lon": -77.02545783333333}, {"is_reserved": 0, "fusion_lon": 0.0, "fusion_lat": 0.0, "name": "6bc7909826b90b5713e234da3153be61", "type": "electric_scooter", "is_disabled": 0, "lat": 38.913574, "rental_uris": {"android": "https://dc.lft.to/lastmile_qr_scan", "ios": "https://dc.lft.to/lastmile_qr_scan"}, "bike_id": "6bc7909826b90b5713e234da3153be61", "lon": -77.02954933333334}, {"is_reserved": 0, "fusion_lon": 0.0, "fusion_lat": 0.0, "name": "a9277ce903b7033abe70d8a0483325f9", "type": "electric_scooter", "is_disabled": 0, "lat": 38.92369683333333, "rental_uris": {"android": "https://dc.lft.to/lastmile_qr_scan", "ios": "https://dc.lft.to/lastmile_qr_scan"}, "bike_id": "a9277ce903b7033abe70d8a0483325f9", "lon": -77.03128166666667}, {"is_reserved": 0, "fusion_lon": 0.0, "fusion_lat": 0.0, "name": "29aa1b979fc92b5f8fa312598fd00f9b", "type": "electric_scooter", "is_disabled": 0, "lat": 38.949561, "rental_uris": {"android": "https://dc.lft.to/lastmile_qr_scan", "ios": "https://dc.lft.to/lastmile_qr_scan"}, "bike_id": "29aa1b979fc92b5f8fa312598fd00f9b", "lon": -77.02719483333334}, {"is_reserved": 0, "fusion_lon": 0.0, "fusion_lat": 0.0, "name": "e8305af4419c62a1d05ee85f8fa10b62", "type": "electric_scooter", "is_disabled": 0, "lat": 38.90807366666667, "rental_uris": {"android": "https://dc.lft.to/lastmile_qr_scan", "ios": "https://dc.lft.to/lastmile_qr_scan"}, "bike_id": "e8305af4419c62a1d05ee85f8fa10b62", "lon": -77.04347566666667}, {"is_reserved": 0, "fusion_lon": 0.0, "fusion_lat": 0.0, "name": "d0d0dfaf14a7ad6c492a4fd84f45db9b", "type": "electric_scooter", "is_disabled": 0, "lat": 38.8442945, "rental_uris": {"android": "https://dc.lft.to/lastmile_qr_scan", "ios": "https://dc.lft.to/lastmile_qr_scan"}, "bike_id": "d0d0dfaf14a7ad6c492a4fd84f45db9b", "lon": -76.998149}, {"is_reserved": 0, "fusion_lon": 0.0, "fusion_lat": 0.0, "name": "e656ad4ab2f3c6296c4ee82cbc066705", "type": "electric_scooter", "is_disabled": 0, "lat": 38.9142565, "rental_uris": {"android": "https://dc.lft.to/lastmile_qr_scan", "ios": "https://dc.lft.to/lastmile_qr_scan"}, "bike_id": "e656ad4ab2f3c6296c4ee82cbc066705", "lon": -77.0320275}, {"is_reserved": 0, "fusion_lon": 0.0, "fusion_lat": 0.0, "name": "5eab345489ca007212d7cf721f4c66df", "type": "electric_bike", "is_disabled": 0, "lat": 38.913855, "rental_uris": {"android": "https://dc.lft.to/lastmile_qr_scan", "ios": "https://dc.lft.to/lastmile_qr_scan"}, "bike_id": "5eab345489ca007212d7cf721f4c66df", "lon": -77.0892345}, {"is_reserved": 0, "fusion_lon": 0.0, "fusion_lat": 0.0, "name": "4929f2445bff6a9d4d8ce26c2afa2e98", "type": "electric_scooter", "is_disabled": 0, "lat": 38.908785333333334, "rental_uris": {"android": "https://dc.lft.to/lastmile_qr_scan", "ios": "https://dc.lft.to/lastmile_qr_scan"}, "bike_id": "4929f2445bff6a9d4d8ce26c2afa2e98", "lon": -77.0717265}, {"is_reserved": 0, "fusion_lon": 0.0, "fusion_lat": 0.0, "name": "98927c74fc21bbfda54a1b8d43f6bbad", "type": "electric_scooter", "is_disabled": 0, "lat": 38.90080733333333, "rental_uris": {"android": "https://dc.lft.to/lastmile_qr_scan", "ios": "https://dc.lft.to/lastmile_qr_scan"}, "bike_id": "98927c74fc21bbfda54a1b8d43f6bbad", "lon": -77.0475665}, {"is_reserved": 0, "fusion_lon": 0.0, "fusion_lat": 0.0, "name": "91de61ae782818931aba9e6f46f02352", "type": "electric_scooter", "is_disabled": 0, "lat": 38.879772, "rental_uris": {"android": "https://dc.lft.to/lastmile_qr_scan", "ios": "https://dc.lft.to/lastmile_qr_scan"}, "bike_id": "91de61ae782818931aba9e6f46f02352", "lon": -77.01376533333334}, {"is_reserved": 0, "fusion_lon": 0.0, "fusion_lat": 0.0, "name": "bbbccc974e97f88eff859b27c53fb25a", "type": "electric_scooter", "is_disabled": 0, "lat": 38.956618, "rental_uris": {"android": "https://dc.lft.to/lastmile_qr_scan", "ios": "https://dc.lft.to/lastmile_qr_scan"}, "bike_id": "bbbccc974e97f88eff859b27c53fb25a", "lon": -77.010379}, {"is_reserved": 0, "fusion_lon": 0.0, "fusion_lat": 0.0, "name": "4b8ce0f67dbc0d020e3db3864af72c52", "type": "electric_scooter", "is_disabled": 0, "lat": 38.9035565, "rental_uris": {"android": "https://dc.lft.to/lastmile_qr_scan", "ios": "https://dc.lft.to/lastmile_qr_scan"}, "bike_id": "4b8ce0f67dbc0d020e3db3864af72c52", "lon": -77.05343316666666}, {"is_reserved": 0, "fusion_lon": 0.0, "fusion_lat": 0.0, "name": "b07f594faebd6190b0fa35b7a7c8f0ee", "type": "electric_scooter", "is_disabled": 0, "lat": 38.924434, "rental_uris": {"android": "https://dc.lft.to/lastmile_qr_scan", "ios": "https://dc.lft.to/lastmile_qr_scan"}, "bike_id": "b07f594faebd6190b0fa35b7a7c8f0ee", "lon": -77.05746916666666}, {"is_reserved": 0, "fusion_lon": 0.0, "fusion_lat": 0.0, "name": "b6e66705e8dc5ae1b0b288338ab8bada", "type": "electric_scooter", "is_disabled": 0, "lat": 38.92326516666667, "rental_uris": {"android": "https://dc.lft.to/lastmile_qr_scan", "ios": "https://dc.lft.to/lastmile_qr_scan"}, "bike_id": "b6e66705e8dc5ae1b0b288338ab8bada", "lon": -77.03548166666667}, {"is_reserved": 0, "fusion_lon": 0.0, "fusion_lat": 0.0, "name": "0edf1f5c0f3ada383e85ef0f759953ce", "type": "electric_scooter", "is_disabled": 0, "lat": 38.91047833333333, "rental_uris": {"android": "https://dc.lft.to/lastmile_qr_scan", "ios": "https://dc.lft.to/lastmile_qr_scan"}, "bike_id": "0edf1f5c0f3ada383e85ef0f759953ce", "lon": -77.04103233333333}, {"is_reserved": 0, "fusion_lon": 0.0, "fusion_lat": 0.0, "name": "916cffbe4f0217f595c6b2e8345e2fc4", "type": "electric_scooter", "is_disabled": 0, "lat": 38.93048566666667, "rental_uris": {"android": "https://dc.lft.to/lastmile_qr_scan", "ios": "https://dc.lft.to/lastmile_qr_scan"}, "bike_id": "916cffbe4f0217f595c6b2e8345e2fc4", "lon": -77.03799433333333}, {"is_reserved": 0, "fusion_lon": 0.0, "fusion_lat": 0.0, "name": "84d3d6dac0c908929d5dfe3a739bc630", "type": "electric_scooter", "is_disabled": 0, "lat": 38.921894, "rental_uris": {"android": "https://dc.lft.to/lastmile_qr_scan", "ios": "https://dc.lft.to/lastmile_qr_scan"}, "bike_id": "84d3d6dac0c908929d5dfe3a739bc630", "lon": -77.042371}, {"is_reserved": 0, "fusion_lon": 0.0, "fusion_lat": 0.0, "name": "1528ee7bf3dca6286d800195e9846a45", "type": "electric_scooter", "is_disabled": 0, "lat": 38.89731033333333, "rental_uris": {"android": "https://dc.lft.to/lastmile_qr_scan", "ios": "https://dc.lft.to/lastmile_qr_scan"},