{"data": {"bikes": [{"lat": 38.91048283333333, "is_disabled": 0, "type": "electric_scooter", "lon": -77.01506283333333, "bike_id": "8700146eaaf10d1f90b442c1082e1f48", "fusion_lat": 0.0, "name": "8700146eaaf10d1f90b442c1082e1f48", "is_reserved": 0, "rental_uris": {"android": "https://dc.lft.to/lastmile_qr_scan", "ios": "https://dc.lft.to/lastmile_qr_scan"}, "fusion_lon": 0.0}, {"lat": 38.8812765, "is_disabled": 0, "type": "electric_scooter", "lon": -77.01406816666666, "bike_id": "1c52f12017d3878feb12b08b6b199d11", "fusion_lat": 0.0, "name": "1c52f12017d3878feb12b08b6b199d11", "is_reserved": 0, "rental_uris": {"android": "https://dc.lft.to/lastmile_qr_scan", "ios": "https://dc.lft.to/lastmile_qr_scan"}, "fusion_lon": 0.0}, {"lat": 38.95879016666667, "is_disabled": 0, "type": "electric_bike", "lon": -77.01030666666666, "bike_id": "c1b6933fb8e15c1d07e3f3e9712227df", "fusion_lat": 0.0, "name": "c1b6933fb8e15c1d07e3f3e9712227df", "is_reserved": 0, "rental_uris": {"android": "https://dc.lft.to/lastmile_qr_scan", "ios": "https://dc.lft.to/lastmile_qr_scan"}, "fusion_lon": 0.0}, {"lat": 38.897347333333336, "is_disabled": 0, "type": "electric_scooter", "lon": -77.02155116666667, "bike_id": "4af3721293823947578db0de7595f28b", "fusion_lat": 0.0, "name": "4af3721293823947578db0de7595f28b", "is_reserved": 0, "rental_uris": {"android": "https://dc.lft.to/lastmile_qr_scan", "ios": "https://dc.lft.to/lastmile_qr_scan"}, "fusion_lon": 0.0}, {"lat": 38.92207166666667, "is_disabled": 0, "type": "electric_scooter", "lon": -77.04012983333334, "bike_id": "127adaa498306864d28b27a4e9a5bc5a", "fusion_lat": 0.0, "name": "127adaa498306864d28b27a4e9a5bc5a", "is_reserved": 0, "rental_uris": {"android": "https://dc.lft.to/lastmile_qr_scan", "ios": "https://dc.lft.to/lastmile_qr_scan"}, "fusion_lon": 0.0}, {"lat": 38.907374833333336, "is_disabled": 0, "type": "electric_scooter", "lon": -77.02965433333334, "bike_id": "07da1d432d8891df7cab5c16a1546f6d", "fusion_lat": 0.0, "name": "07da1d432d8891df7cab5c16a1546f6d", "is_reserved": 0, "rental_uris": {"android": "https://dc.lft.to/lastmile_qr_scan", "ios": "https://dc.lft.to/lastmile_qr_scan"}, "fusion_lon": 0.0}, {"lat": 38.92067333333333, "is_disabled": 0, "type": "electric_scooter", "lon": -77.03211983333334, "bike_id": "68cd07f3de651375b2012d6511b236f5", "fusion_lat": 0.0, "name": "68cd07f3de651375b2012d6511b236f5", "is_reserved": 0, "rental_uris": {"android": "https://dc.lft.to/lastmile_qr_scan", "ios": "https://dc.lft.to/lastmile_qr_scan"}, "fusion_lon": 0.0}, {"lat": 38.90557316666667, "is_disabled": 0, "type": "electric_scooter", "lon": -77.05706233333333, "bike_id": "26669a2d865bca9fa0275a882c9550ae", "fusion_lat": 0.0, "name": "26669a2d865bca9fa0275a882c9550ae", "is_reserved": 0, "rental_uris": {"android": "https://dc.lft.to/lastmile_qr_scan", "ios": "https://dc.lft.to/lastmile_qr_scan"}, "fusion_lon": 0.0}, {"lat": 38.914111, "is_disabled": 0, "type": "electric_scooter", "lon": -77.025678, "bike_id": "712a4df7612a31e27ada092a58980a78", "fusion_lat": 0.0, "name": "712a4df7612a31e27ada092a58980a78", "is_reserved": 0, "rental_uris": {"android": "https://dc.lft.to/lastmile_qr_scan", "ios": "https://dc.lft.to/lastmile_qr_scan"}, "fusion_lon": 0.0}, {"lat": 38.95403433333333, "is_disabled": 0, "type": "electric_scooter", "lon": -77.03631933333334, "bike_id": "199f30eb5e951853aa165a7ae75434d9", "fusion_lat": 0.0, "name": "199f30eb5e951853aa165a7ae75434d9", "is_reserved": 0, "rental_uris": {"android": "https://dc.lft.to/lastmile_qr_scan", "ios": "https://dc.lft.to/lastmile_qr_scan"}, "fusion_lon": 0.0}, {"lat": 38.899078333333335, "is_disabled": 0, "type": "electric_scooter", "lon": -77.0327515, "bike_id": "b2d861e84da4145afdd28cbf14de6429", "fusion_lat": 0.0, "name": "b2d861e84da4145afdd28cbf14de6429", "is_reserved": 0, "rental_uris": {"android": "https://dc.lft.to/lastmile_qr_scan", "ios": "https://dc.lft.to/lastmile_qr_scan"}, "fusion_lon": 0.0}, {"lat": 38.920905833333336, "is_disabled": 0, "type": "electric_scooter", "lon": -77.042133, "bike_id": "698224196f17359a93a83a799d5e78ec", "fusion_lat": 0.0, "name": "698224196f17359a93a83a799d5e78ec", "is_reserved": 0, "rental_uris": {"android": "https://dc.lft.to/lastmile_qr_scan", "ios": "https://dc.lft.to/lastmile_qr_scan"}, "fusion_lon": 0.0}, {"lat": 38.91216883333333, "is_disabled": 0, "type": "electric_scooter", "lon": -77.04472183333333, "bike_id": "cf5c3ae621b84f92c455cdeff59df5a8", "fusion_lat": 0.0, "name": "cf5c3ae621b84f92c455cdeff59df5a8", "is_reserved": 0, "rental_uris": {"android": "https://dc.lft.to/lastmile_qr_scan", "ios": "https://dc.lft.to/lastmile_qr_scan"}, "fusion_lon": 0.0}, {"lat": 38.8691105, "is_disabled": 0, "type": "electric_bike", "lon": -77.13184083333333, "bike_id": "6c76795326568df42b8e80d8a7420055", "fusion_lat": 0.0, "name": "6c76795326568df42b8e80d8a7420055", "is_reserved": 0, "rental_uris": {"android": "https://dc.lft.to/lastmile_qr_scan", "ios": "https://dc.lft.to/lastmile_qr_scan"}, "fusion_lon": 0.0}, {"lat": 38.80440516666667, "is_disabled": 0, "type": "electric_bike", "lon": -77.06088216666667, "bike_id": "9fc12a64fec18e28a8971d66792bb87c", "fusion_lat": 0.0, "name": "9fc12a64fec18e28a8971d66792bb87c", "is_reserved": 0, "rental_uris": {"android": "https://dc.lft.to/lastmile_qr_scan", "ios": "https://dc.lft.to/lastmile_qr_scan"}, "fusion_lon": 0.0}, {"lat": 38.907622333333336, "is_disabled": 0, "type": "electric_scooter", "lon": -77.04263633333333, "bike_id": "cacc1c94dc318f305f21cb68398c3a62", "fusion_lat": 0.0, "name": "cacc1c94dc318f305f21cb68398c3a62", "is_reserved": 0, "rental_uris": {"android": "https://dc.lft.to/lastmile_qr_scan", "ios": "https://dc.lft.to/lastmile_qr_scan"}, "fusion_lon": 0.0}, {"lat": 38.9049275, "is_disabled": 0, "type": "electric_scooter", "lon": -77.02814266666667, "bike_id": "d85f8f01f655653eb09730aa209f3227", "fusion_lat": 0.0, "name": "d85f8f01f655653eb09730aa209f3227", "is_reserved": 0, "rental_uris": {"android": "https://dc.lft.to/lastmile_qr_scan", "ios": "https://dc.lft.to/lastmile_qr_scan"}, "fusion_lon": 0.0}, {"lat": 39.015755, "is_disabled": 0, "type": "electric_bike", "lon": -77.042367, "bike_id": "d1ad5f7332df2779259d39a1e459c566", "fusion_lat": 0.0, "name": "d1ad5f7332df2779259d39a1e459c566", "is_reserved": 0, "rental_uris": {"android": "https://dc.lft.to/lastmile_qr_scan", "ios": "https://dc.lft.to/lastmile_qr_scan"}, "fusion_lon": 0.0}, {"lat": 38.95570516666667, "is_disabled": 0, "type": "electric_scooter", "lon": -77.07005566666666, "bike_id": "f25d6e9f055aaa72ef79497abcc966d9", "fusion_lat": 0.0, "name": "f25d6e9f055aaa72ef79497abcc966d9", "is_reserved": 0, "rental_uris": {"android": "https://dc.lft.to/lastmile_qr_scan", "ios": "https://dc.lft.to/lastmile_qr_scan"}, "fusion_lon": 0.0}, {"lat": 38.909915, "is_disabled": 0, "type": "electric_scooter", "lon": -76.99737366666666, "bike_id": "2f64bab0e2ab06e41a5d48866a404ba7", "fusion_lat": 0.0, "name": "2f64bab0e2ab06e41a5d48866a404ba7", "is_reserved": 0, "rental_uris": {"android": "https://dc.lft.to/lastmile_qr_scan", "ios": "https://dc.lft.to/lastmile_qr_scan"}, "fusion_lon": 0.0}, {"lat": 38.936058, "is_disabled": 0, "type": "electric_scooter", "lon": -77.036561, "bike_id": "5ce065b0fc46050f33accabba39414bb", "fusion_lat": 0.0, "name": "5ce065b0fc46050f33accabba39414bb", "is_reserved": 0, "rental_uris": {"android": "https://dc.lft.to/lastmile_qr_scan", "ios": "https://dc.lft.to/lastmile_qr_scan"}, "fusion_lon": 0.0}, {"lat": 38.92395833333333, "is_disabled": 0, "type": "electric_scooter", "lon": -77.03227016666666, "bike_id": "609abf9767faab36df0ad33e119dd79a", "fusion_lat": 0.0, "name": "609abf9767faab36df0ad33e119dd79a", "is_reserved": 0, "rental_uris": {"android": "https://dc.lft.to/lastmile_qr_scan", "ios": "https://dc.lft.to/lastmile_qr_scan"}, "fusion_lon": 0.0}, {"lat": 38.8995245, "is_disabled": 0, "type": "electric_scooter", "lon": -77.0518175, "bike_id": "ec7e8e40c786fa5a096ec3c82d47b3ff", "fusion_lat": 0.0, "name": "ec7e8e40c786fa5a096ec3c82d47b3ff", "is_reserved": 0, "rental_uris": {"android": "https://dc.lft.to/lastmile_qr_scan", "ios": "https://dc.lft.to/lastmile_qr_scan"}, "fusion_lon": 0.0}, {"lat": 39.004806, "is_disabled": 0, "type": "electric_bike", "lon": -76.9013855, "bike_id": "26b5ac915d73239f873fdd720a735980", "fusion_lat": 0.0, "name": "26b5ac915d73239f873fdd720a735980", "is_reserved": 0, "rental_uris": {"android": "https://dc.lft.to/lastmile_qr_scan", "ios": "https://dc.lft.to/lastmile_qr_scan"}, "fusion_lon": 0.0}, {"lat": 38.90073316666667, "is_disabled": 0, "type": "electric_scooter", "lon": -77.0020555, "bike_id": "b7390d668ecea04df5a63a30aece1d55", "fusion_lat": 0.0, "name": "b7390d668ecea04df5a63a30aece1d55", "is_reserved": 0, "rental_uris": {"android": "https://dc.lft.to/lastmile_qr_scan", "ios": "https://dc.lft.to/lastmile_qr_scan"}, "fusion_lon": 0.0}, {"lat": 38.892200333333335, "is_disabled": 0, "type": "electric_scooter", "lon": -77.03158866666666, "bike_id": "11bbdafbad2150d0614f8b1e9445dfb2", "fusion_lat": 0.0, "name": "11bbdafbad2150d0614f8b1e9445dfb2", "is_reserved": 0, "rental_uris": {"android": "https://dc.lft.to/lastmile_qr_scan", "ios": "https://dc.lft.to/lastmile_qr_scan"}, "fusion_lon": 0.0}, {"lat": 38.82873133333333, "is_disabled": 0, "type": "electric_bike", "lon": -77.1122325, "bike_id": "490fc40185d47ed51ecc2294f4d44064", "fusion_lat": 0.0, "name": "490fc40185d47ed51ecc2294f4d44064", "is_reserved": 0, "rental_uris": {"android": "https://dc.lft.to/lastmile_qr_scan", "ios": "https://dc.lft.to/lastmile_qr_scan"}, "fusion_lon": 0.0}, {"lat": 38.931593666666664, "is_disabled": 0, "type": "electric_scooter", "lon": -77.03629566666666, "bike_id": "0b186d86214d5a2bbdd3bf5c4b499a95", "fusion_lat": 0.0, "name": "0b186d86214d5a2bbdd3bf5c4b499a95", "is_reserved": 0, "rental_uris": {"android": "https://dc.lft.to/lastmile_qr_scan", "ios": "https://dc.lft.to/lastmile_qr_scan"}, "fusion_lon": 0.0}, {"lat": 38.930225666666665, "is_disabled": 0, "type": "electric_scooter", "lon": -77.0444625, "bike_id": "46335bc775bdda154928d44541b10359", "fusion_lat": 0.0, "name": "46335bc775bdda154928d44541b10359", "is_reserved": 0, "rental_uris": {"android": "https://dc.lft.to/lastmile_qr_scan", "ios": "https://dc.lft.to/lastmile_qr_scan"}, "fusion_lon": 0.0}, {"lat": 38.907265333333335, "is_disabled": 0, "type": "electric_scooter", "lon": -77.02965783333333, "bike_id": "b04bdb1d8912af540da3b6674fb695b1", "fusion_lat": 0.0, "name": "b04bdb1d8912af540da3b6674fb695b1", "is_reserved": 0, "rental_uris": {"android": "https://dc.lft.to/lastmile_qr_scan", "ios": "https://dc.lft.to/lastmile_qr_scan"}, "fusion_lon": 0.0}, {"lat": 38.9073185, "is_disabled": 0, "type": "electric_bike", "lon": -77.01071266666666, "bike_id": "b9e1d8805ed26e4ab0719e192c9d62a1", "fusion_lat": 0.0, "name": "b9e1d8805ed26e4ab0719e192c9d62a1", "is_reserved": 0, "rental_uris": {"android": "https://dc.lft.to/lastmile_qr_scan", "ios": "https://dc.lft.to/lastmile_qr_scan"}, "fusion_lon": 0.0}, {"lat": 38.8610055, "is_disabled": 0, "type": "electric_scooter", "lon": -76.98886033333334, "bike_id": "c0d8722c2cd200e609c0990ee7766a47", "fusion_lat": 0.0, "name": "c0d8722c2cd200e609c0990ee7766a47", "is_reserved": 0, "rental_uris": {"android": "https://dc.lft.to/lastmile_qr_scan", "ios": "https://dc.lft.to/lastmile_qr_scan"}, "fusion_lon": 0.0}, {"lat": 38.89614516666666, "is_disabled": 0, "type": "electric_scooter", "lon": -77.03167483333333, "bike_id": "abbc93795732b14d2ede771cb60b3236", "fusion_lat": 0.0, "name": "abbc93795732b14d2ede771cb60b3236", "is_reserved": 0, "rental_uris": {"android": "https://dc.lft.to/lastmile_qr_scan", "ios": "https://dc.lft.to/lastmile_qr_scan"}, "fusion_lon": 0.0}, {"lat": 38.9660875, "is_disabled": 0, "type": "electric_scooter", "lon": -77.0205365, "bike_id": "1ba4ad11e4844631198b3a1068c723a8", "fusion_lat": 0.0, "name": "1ba4ad11e4844631198b3a1068c723a8", "is_reserved": 0, "rental_uris": {"android": "https://dc.lft.to/lastmile_qr_scan", "ios": "https://dc.lft.to/lastmile_qr_scan"}, "fusion_lon": 0.0}, {"lat": 38.904950666666664, "is_disabled": 0, "type": "electric_scooter", "lon": -77.02954983333333, "bike_id": "bd451f808a4706a7849158e8b41e0b95", "fusion_lat": 0.0, "name": "bd451f808a4706a7849158e8b41e0b95", "is_reserved": 0, "rental_uris": {"android": "https://dc.lft.to/lastmile_qr_scan", "ios": "https://dc.lft.to/lastmile_qr_scan"}, "fusion_lon": 0.0}, {"lat": 38.896101333333334, "is_disabled": 0, "type": "electric_scooter", "lon": -77.0317315, "bike_id": "621d652bc2bf307164953e6d7c61ebd3", "fusion_lat": 0.0, "name": "621d652bc2bf307164953e6d7c61ebd3", "is_reserved": 0, "rental_uris": {"android": "https://dc.lft.to/lastmile_qr_scan", "ios": "https://dc.lft.to/lastmile_qr_scan"}, "fusion_lon": 0.0}, {"lat": 38.92068716666667, "is_disabled": 0, "type": "electric_scooter", "lon": -77.02516466666667, "bike_id": "b6d04dcbaf5ed0bc6fbae37facc0e756", "fusion_lat": 0.0, "name": "b6d04dcbaf5ed0bc6fbae37facc0e756", "is_reserved": 0, "rental_uris": {"android": "https://dc.lft.to/lastmile_qr_scan", "ios": "https://dc.lft.to/lastmile_qr_scan"}, "fusion_lon": 0.0}, {"lat": 38.917570833333336, "is_disabled": 0, "type": "electric_scooter", "lon": -77.01163683333333, "bike_id": "b26fb6c0a124aa74261e1aaffa6c2c01", "fusion_lat": 0.0, "name": "b26fb6c0a124aa74261e1aaffa6c2c01", "is_reserved": 0, "rental_uris": {"android": "https://dc.lft.to/lastmile_qr_scan", "ios": "https://dc.lft.to/lastmile_qr_scan"}, "fusion_lon": 0.0}, {"lat": 38.901389, "is_disabled": 0, "type": "electric_scooter", "lon": -77.03271966666667, "bike_id": "429e1bd02a9e6c4a3032931e0780bd90", "fusion_lat": 0.0, "name": "429e1bd02a9e6c4a3032931e0780bd90", "is_reserved": 0, "rental_uris": {"android": "https://dc.lft.to/lastmile_qr_scan", "ios": "https://dc.lft.to/lastmile_qr_scan"}, "fusion_lon": 0.0}, {"lat": 38.88610333333333, "is_disabled": 0, "type": "electric_scooter", "lon": -77.01896583333334, "bike_id": "593559e46d4179016a041fe3fcca28a8", "fusion_lat": 0.0, "name": "593559e46d4179016a041fe3fcca28a8", "is_reserved": 0, "rental_uris": {"android": "https://dc.lft.to/lastmile_qr_scan", "ios": "https://dc.lft.to/lastmile_qr_scan"}, "fusion_lon": 0.0}, {"lat": 38.94822533333333, "is_disabled": 0, "type": "electric_scooter", "lon": -76.99903983333333, "bike_id": "1009af63e09450848381d8e039767e26", "fusion_lat": 0.0, "name": "1009af63e09450848381d8e039767e26", "is_reserved": 0, "rental_uris": {"android": "https://dc.lft.to/lastmile_qr_scan", "ios": "https://dc.lft.to/lastmile_qr_scan"}, "fusion_lon": 0.0}, {"lat": 38.91705683333333, "is_disabled": 0, "type": "electric_scooter", "lon": -76.97929, "bike_id": "2a8a0b4d40be9e77b4b13ce4677a95c9", "fusion_lat": 0.0, "name": "2a8a0b4d40be9e77b4b13ce4677a95c9", "is_reserved": 0, "rental_uris": {"android": "https://dc.lft.to/lastmile_qr_scan", "ios": "https://dc.lft.to/lastmile_qr_scan"}, "fusion_lon": 0.0}, {"lat": 38.922079, "is_disabled": 0, "type": "electric_bike", "lon": -77.08195483333333, "bike_id": "c3f448c83d9a784a72b7b20180d3005c", "fusion_lat": 0.0, "name": "c3f448c83d9a784a72b7b20180d3005c", "is_reserved": 0, "rental_uris": {"android": "https://dc.lft.to/lastmile_qr_scan", "ios": "https://dc.lft.to/lastmile_qr_scan"}, "fusion_lon": 0.0}, {"lat": 38.90829383333333, "is_disabled": 0, "type": "electric_scooter", "lon": -77.02007916666666, "bike_id": "726c7242b15692324a3c2c15dbee95da", "fusion_lat": 0.0, "name": "726c7242b15692324a3c2c15dbee95da", "is_reserved": 0, "rental_uris": {"android": "https://dc.lft.to/lastmile_qr_scan", "ios": "https://dc.lft.to/lastmile_qr_scan"}, "fusion_lon": 0.0}, {"lat": 38.919647499999996, "is_disabled": 0, "type": "electric_scooter", "lon": -77.014379, "bike_id": "e08d39f688f81036e972d87b58449f60", "fusion_lat": 0.0, "name": "e08d39f688f81036e972d87b58449f60", "is_reserved": 0, "rental_uris": {"android": "https://dc.lft.to/lastmile_qr_scan", "ios": "https://dc.lft.to/lastmile_qr_scan"}, "fusion_lon": 0.0}, {"lat": 38.906290166666665, "is_disabled": 0, "type": "electric_bike", "lon": -76.98605366666666, "bike_id": "aa82c59bafc56a81412dcfbc1f6a086d", "fusion_lat": 0.0, "name": "aa82c59bafc56a81412dcfbc1f6a086d", "is_reserved": 0, "rental_uris": {"android": "https://dc.lft.to/lastmile_qr_scan", "ios": "https://dc.lft.to/lastmile_qr_scan"}, "fusion_lon": 0.0}, {"lat": 38.88684816666667, "is_disabled": 0, "type": "electric_bike", "lon": -77.16240083333334, "bike_id": "24c90951a0b9c3cbb911a4c181a5f503", "fusion_lat": 0.0, "name": "24c90951a0b9c3cbb911a4c181a5f503", "is_reserved": 0, "rental_uris": {"android": "https://dc.lft.to/lastmile_qr_scan", "ios": "https://dc.lft.to/lastmile_qr_scan"}, "fusion_lon": 0.0}, {"lat": 38.904072, "is_disabled": 0, "type": "electric_scooter", "lon": -77.05070633333334, "bike_id": "ab38faacba3943b3280d3ce64c0e23f4", "fusion_lat": 0.0, "name": "ab38faacba3943b3280d3ce64c0e23f4", "is_reserved": 0, "rental_uris": {"android": "https://dc.lft.to/lastmile_qr_scan", "ios": "https://dc.lft.to/lastmile_qr_scan"}, "fusion_lon": 0.0}, {"lat": 38.903941, "is_disabled": 0, "type": "electric_scooter", "lon": -76.99007933333333, "bike_id": "3dbc59f9286bfedaf2dd31c813c7b8a5", "fusion_lat": 0.0, "name": "3dbc59f9286bfedaf2dd31c813c7b8a5", "is_reserved": 0, "rental_uris": {"android": "https://dc.lft.to/lastmile_qr_scan", "ios": "https://dc.lft.to/lastmile_qr_scan"}, "fusion_lon": 0.0}, {"lat": 38.8772285, "is_disabled": 0, "type": "electric_scooter", "lon": -77.01762933333333, "bike_id": "a8f7f3fd95b0063e581051e443b2bd8b", "fusion_lat": 0.0, "name": "a8f7f3fd95b0063e581051e443b2bd8b", "is_reserved": 0, "rental_uris": {"android": "https://dc.lft.to/lastmile_qr_scan", "ios": "https://dc.lft.to/lastmile_qr_scan"}, "fusion_lon": 0.0}, {"lat": 38.8854935, "is_disabled": 0, "type": "electric_bike", "lon": -77.11786066666667, "bike_id": "424c0851c7aa960a4f01f3365d844628", "fusion_lat": 0.0, "name": "424c0851c7aa960a4f01f3365d844628", "is_reserved": 0, "rental_uris": {"android": "https://dc.lft.to/lastmile_qr_scan", "ios": "https://dc.lft.to/lastmile_qr_scan"}, "fusion_lon": 0.0}, {"lat": 38.93092633333333, "is_disabled": 0, "type": "electric_scooter", "lon": -77.03746533333333, "bike_id": "54c595b52a3f96dde5443eab035a15bb", "fusion_lat": 0.0, "name": "54c595b52a3f96dde5443eab035a15bb", "is_reserved": 0, "rental_uris": {"android": "https://dc.lft.to/lastmile_qr_scan", "ios": "https://dc.lft.to/lastmile_qr_scan"}, "fusion_lon": 0.0}, {"lat": 38.893504, "is_disabled": 0, "type": "electric_scooter", "lon": -77.04138583333334, "bike_id": "71b98ff8d68d1c2a3ffb9452d58eaf76", "fusion_lat": 0.0, "name": "71b98ff8d68d1c2a3ffb9452d58eaf76", "is_reserved": 0, "rental_uris": {"android": "https://dc.lft.to/lastmile_qr_scan", "ios": "https://dc.lft.to/lastmile_qr_scan"}, "fusion_lon": 0.0}, {"lat": 38.925261, "is_disabled": 0, "type": "electric_scooter", "lon": -77.04419516666667, "bike_id": "577b4f1e295e90ba2b83f759e35fc081", "fusion_lat": 0.0, "name": "577b4f1e295e90ba2b83f759e35fc081", "is_reserved": 0, "rental_uris": {"android": "https://dc.lft.to/lastmile_qr_scan", "ios": "https://dc.lft.to/lastmile_qr_scan"}, "fusion_lon": 0.0}, {"lat": 38.900312166666666, "is_disabled": 0, "type": "electric_scooter", "lon": -76.993797, "bike_id": "8d8911ccb0e4b4090c878beced8251fa", "fusion_lat": 0.0, "name": "8d8911ccb0e4b4090c878beced8251fa", "is_reserved": 0, "rental_uris": {"android": "https://dc.lft.to/lastmile_qr_scan", "ios": "https://dc.lft.to/lastmile_qr_scan"}, "fusion_lon": 0.0}, {"lat": 38.909025166666666, "is_disabled": 0, "type": "electric_scooter", "lon": -77.031493, "bike_id": "43122c5dae72b4295d2a43b931be1304", "fusion_lat": 0.0, "name": "43122c5dae72b4295d2a43b931be1304", "is_reserved": 0, "rental_uris": {"android": "https://dc.lft.to/lastmile_qr_scan", "ios": "https://dc.lft.to/lastmile_qr_scan"}, "fusion_lon": 0.0}, {"lat": 38.9226145, "is_disabled": 0, "type": "electric_scooter", "lon": -77.04309266666667, "bike_id": "d73ea1ef976e5ac0de097f1d0ba87b9d", "fusion_lat": 0.0, "name": "d73ea1ef976e5ac0de097f1d0ba87b9d", "is_reserved": 0, "rental_uris": {"android": "https://dc.lft.to/lastmile_qr_scan", "ios": "https://dc.lft.to/lastmile_qr_scan"}, "fusion_lon": 0.0}, {"lat": 38.90081433333334, "is_disabled": 0, "type": "electric_scooter", "lon": -77.018214, "bike_id": "be33b80f382190dc628179e0aefa6bfe", "fusion_lat": 0.0, "name": "be33b80f382190dc628179e0aefa6bfe", "is_reserved": 0, "rental_uris": {"android": "https://dc.lft.to/lastmile_qr_scan", "ios": "https://dc.lft.to/lastmile_qr_scan"}, "fusion_lon": 0.0}, {"lat": 38.9363875, "is_disabled": 0, "type": "electric_scooter", "lon": -77.0250305, "bike_id": "8992ed891d65c803cc2fb7b4f86f037b", "fusion_lat": 0.0, "name": "8992ed891d65c803cc2fb7b4f86f037b", "is_reserved": 0, "rental_uris": {"android": "https://dc.lft.to/lastmile_qr_scan", "ios": "https://dc.lft.to/lastmile_qr_scan"}, "fusion_lon": 0.0}, {"lat": 38.91790783333333, "is_disabled": 0, "type": "electric_scooter", "lon": -77.04044133333333, "bike_id": "12a1b1a59671607c1cfc6cf2526b3be5", "fusion_lat": 0.0, "name": "12a1b1a59671607c1cfc6cf2526b3be5", "is_reserved": 0, "rental_uris": {"android": "https://dc.lft.to/lastmile_qr_scan", "ios": "https://dc.lft.to/lastmile_qr_scan"}, "fusion_lon": 0.0}, {"lat": 38.91122266666667, "is_disabled": 0, "type": "electric_scooter", "lon": -77.0383455, "bike_id": "c4e020c49222804fa4d3ef3010777344", "fusion_lat": 0.0, "name": "c4e020c49222804fa4d3ef3010777344", "is_reserved": 0, "rental_uris": {"android": "https://dc.lft.to/lastmile_qr_scan", "ios": "https://dc.lft.to/lastmile_qr_scan"}, "fusion_lon": 0.0}, {"lat": 38.91634116666667, "is_disabled": 0, "type": "electric_scooter", "lon": -77.047735, "bike_id": "c9b63bec296c1e12416ec1711c365283", "fusion_lat": 0.0, "name": "c9b63bec296c1e12416ec1711c365283", "is_reserved": 0, "rental_uris": {"android": "https://dc.lft.to/lastmile_qr_scan", "ios": "https://dc.lft.to/lastmile_qr_scan"}, "fusion_lon": 0.0}, {"lat": 38.923513166666666, "is_disabled": 0, "type": "electric_scooter", "lon": -77.02446366666666, "bike_id": "dcc17237a52d3dd7c8c45ce1409a7de1", "fusion_lat": 0.0, "name": "dcc17237a52d3dd7c8c45ce1409a7de1", "is_reserved": 0, "rental_uris": {"android": "https://dc.lft.to/lastmile_qr_scan", "ios": "https://dc.lft.to/lastmile_qr_scan"}, "fusion_lon": 0.0}, {"lat": 38.859523833333334, "is_disabled": 0, "type": "electric_scooter", "lon": -76.991374, "bike_id": "ecdcbc187b2d853dda075e2b914de393", "fusion_lat": 0.0, "name": "ecdcbc187b2d853dda075e2b914de393", "is_reserved": 0, "rental_uris": {"android": "https://dc.lft.to/lastmile_qr_scan", "ios": "https://dc.lft.to/lastmile_qr_scan"}, "fusion_lon": 0.0}, {"lat": 38.93341216666666, "is_disabled": 0, "type": "electric_scooter", "lon": -77.02498083333333, "bike_id": "f7b7cd371ebaccb2dd72e635ccfa5408", "fusion_lat": 0.0, "name": "f7b7cd371ebaccb2dd72e635ccfa5408", "is_reserved": 0, "rental_uris": {"android": "https://dc.lft.to/lastmile_qr_scan", "ios": "https://dc.lft.to/lastmile_qr_scan"}, "fusion_lon": 0.0}, {"lat": 38.802693, "is_disabled": 0, "type": "electric_bike", "lon": -77.0811225, "bike_id": "a64617c653d3962a298b7babf61efb11", "fusion_lat": 0.0, "name": "a64617c653d3962a298b7babf61efb11", "is_reserved": 0, "rental_uris": {"android": "https://dc.lft.to/lastmile_qr_scan", "ios": "https://dc.lft.to/lastmile_qr_scan"}, "fusion_lon": 0.0}, {"lat": 39.00381616666667, "is_disabled": 0, "type": "electric_bike", "lon": -77.01285983333334, "bike_id": "80471bb53822f57bc2684f422663cc45", "fusion_lat": 0.0, "name": "80471bb53822f57bc2684f422663cc45", "is_reserved": 0, "rental_uris": {"android": "https://dc.lft.to/lastmile_qr_scan", "ios": "https://dc.lft.to/lastmile_qr_scan"}, "fusion_lon": 0.0}, {"lat": 38.902454166666665, "is_disabled": 0, "type": "electric_scooter", "lon": -77.01968066666667, "bike_id": "01e9773a13f4b8a7325d0301c251ec2f", "fusion_lat": 0.0, "name": "01e9773a13f4b8a7325d0301c251ec2f", "is_reserved": 0, "rental_uris": {"android": "https://dc.lft.to/lastmile_qr_scan", "ios": "https://dc.lft.to/lastmile_qr_scan"}, "fusion_lon": 0.0}, {"lat": 38.90166383333333, "is_disabled": 0, "type": "electric_scooter", "lon": -76.99851366666667, "bike_id": "1a3ad7c0c3e9da753b0d1c1f1be09d92", "fusion_lat": 0.0, "name": "1a3ad7c0c3e9da753b0d1c1f1be09d92", "is_reserved": 0, "rental_uris": {"android": "https://dc.lft.to/lastmile_qr_scan", "ios": "https://dc.lft.to/lastmile_qr_scan"}, "fusion_lon": 0.0}, {"lat": 38.88488566666667, "is_disabled": 0, "type": "electric_scooter", "lon": -77.03472133333334, "bike_id": "41cda32b7beb22272a387824e2e3ac0b", "fusion_lat": 0.0, "name": "41cda32b7beb22272a387824e2e3ac0b", "is_reserved": 0, "rental_uris": {"android": "https://dc.lft.to/lastmile_qr_scan", "ios": "https://dc.lft.to/lastmile_qr_scan"}, "fusion_lon": 0.0}, {"lat": 38.95957883333333, "is_disabled": 0, "type": "electric_bike", "lon": -77.10089416666666, "bike_id": "a993dd3767c39d51e07d8ec2cd967e69", "fusion_lat": 0.0, "name": "a993dd3767c39d51e07d8ec2cd967e69", "is_reserved": 0, "rental_uris": {"android": "https://dc.lft.to/lastmile_qr_scan", "ios": "https://dc.lft.to/lastmile_qr_scan"}, "fusion_lon": 0.0}, {"lat": 38.92500033333334, "is_disabled": 0, "type": "electric_scooter", "lon": -77.02157083333333, "bike_id": "7a23cd338f21f68a4620cbb305d41726", "fusion_lat": 0.0, "name": "7a23cd338f21f68a4620cbb305d41726", "is_reserved": 0, "rental_uris": {"android": "https://dc.lft.to/lastmile_qr_scan", "ios": "https://dc.lft.to/lastmile_qr_scan"}, "fusion_lon": 0.0}, {"lat": 38.916161, "is_disabled": 0, "type": "electric_bike", "lon": -77.00293066666667, "bike_id": "f057f38c155909779212ee99a3ba83f0", "fusion_lat": 0.0, "name": "f057f38c155909779212ee99a3ba83f0", "is_reserved": 0, "rental_uris": {"android": "https://dc.lft.to/lastmile_qr_scan", "ios": "https://dc.lft.to/lastmile_qr_scan"}, "fusion_lon": 0.0}, {"lat": 38.90546783333333, "is_disabled": 0, "type": "electric_scooter", "lon": -77.05702616666666, "bike_id": "fab45e06050cee9f59fcc23906d37b39", "fusion_lat": 0.0, "name": "fab45e06050cee9f59fcc23906d37b39", "is_reserved": 0, "rental_uris": {"android": "https://dc.lft.to/lastmile_qr_scan", "ios": "https://dc.lft.to/lastmile_qr_scan"}, "fusion_lon": 0.0}, {"lat": 38.913314666666665, "is_disabled": 0, "type": "electric_scooter", "lon": -77.03259133333333, "bike_id": "92b6d8d137bc1a0818d82c1888df3c26", "fusion_lat": 0.0, "name": "92b6d8d137bc1a0818d82c1888df3c26", "is_reserved": 0, "rental_uris": {"android": "https://dc.lft.to/lastmile_qr_scan", "ios": "https://dc.lft.to/lastmile_qr_scan"}, "fusion_lon": 0.0}, {"lat": 38.89224016666667, "is_disabled": 0, "type": "electric_scooter", "lon": -77.04681033333334, "bike_id": "c9797e3883f02bae413f24ea6803df21", "fusion_lat": 0.0, "name": "c9797e3883f02bae413f24ea6803df21", "is_reserved": 0, "rental_uris": {"android": "https://dc.lft.to/lastmile_qr_scan", "ios": "https://dc.lft.to/lastmile_qr_scan"}, "fusion_lon": 0.0}, {"lat": 38.9234565, "is_disabled": 0, "type": "electric_scooter", "lon": -77.0350905, "bike_id": "ab435a90cc937f38cfa0d3a441c44e69", "fusion_lat": 0.0, "name": "ab435a90cc937f38cfa0d3a441c44e69", "is_reserved": 0, "rental_uris": {"android": "https://dc.lft.to/lastmile_qr_scan", "ios": "https://dc.lft.to/lastmile_qr_scan"}, "fusion_lon": 0.0}, {"lat": 38.918091, "is_disabled": 0, "type": "electric_scooter", "lon": -77.03200166666667, "bike_id": "66314d0762277d17cf9837f44fdde48f", "fusion_lat": 0.0, "name": "66314d0762277d17cf9837f44fdde48f", "is_reserved": 0, "rental_uris": {"android": "https://dc.lft.to/lastmile_qr_scan", "ios": "https://dc.lft.to/lastmile_qr_scan"}, "fusion_lon": 0.0}, {"lat": 38.919245833333335, "is_disabled": 0, "type": "electric_scooter", "lon": -77.0481075, "bike_id": "02196b58c6150a329171020557c49507", "fusion_lat": 0.0, "name": "02196b58c6150a329171020557c49507", "is_reserved": 0, "rental_uris": {"android": "https://dc.lft.to/lastmile_qr_scan", "ios": "https://dc.lft.to/lastmile_qr_scan"}, "fusion_lon": 0.0}, {"lat": 38.959616833333335, "is_disabled": 0, "type": "electric_scooter", "lon": -77.0331195, "bike_id": "101da3b17fd270a6eb9ef6449e12d92e", "fusion_lat": 0.0, "name": "101da3b17fd270a6eb9ef6449e12d92e", "is_reserved": 0, "rental_uris": {"android": "https://dc.lft.to/lastmile_qr_scan", "ios": "https://dc.lft.to/lastmile_qr_scan"}, "fusion_lon": 0.0}, {"lat": 38.871968833333334, "is_disabled": 0, "type": "electric_bike", "lon": -77.01215316666666, "bike_id": "6d2028e78f44cf05c13a6db28a24330c", "fusion_lat": 0.0, "name": "6d2028e78f44cf05c13a6db28a24330c", "is_reserved": 0, "rental_uris": {"android": "https://dc.lft.to/lastmile_qr_scan", "ios": "https://dc.lft.to/lastmile_qr_scan"}, "fusion_lon": 0.0}, {"lat": 38.9004155, "is_disabled": 0, "type": "electric_scooter", "lon": -77.01870716666667, "bike_id": "015b05c2ad1e454dbf216bf144a7e1f0", "fusion_lat": 0.0, "name": "015b05c2ad1e454dbf216bf144a7e1f0", "is_reserved": 0, "rental_uris": {"android": "https://dc.lft.to/lastmile_qr_scan", "ios": "https://dc.lft.to/lastmile_qr_scan"}, "fusion_lon": 0.0}, {"lat": 38.90612433333333, "is_disabled": 0, "type": "electric_scooter", "lon": -76.98982716666667, "bike_id": "8bd244e071405b9def6cd9a01b0523ee", "fusion_lat": 0.0, "name": "8bd244e071405b9def6cd9a01b0523ee", "is_reserved": 0, "rental_uris": {"android": "https://dc.lft.to/lastmile_qr_scan", "ios": "https://dc.lft.to/lastmile_qr_scan"}, "fusion_lon": 0.0}, {"lat": 38.90918583333333, "is_disabled": 0, "type": "electric_scooter", "lon": -77.0440605, "bike_id": "67782257f671660b8f8780e0654b9908", "fusion_lat": 0.0, "name": "67782257f671660b8f8780e0654b9908", "is_reserved": 0, "rental_uris": {"android": "https://dc.lft.to/lastmile_qr_scan", "ios": "https://dc.lft.to/lastmile_qr_scan"}, "fusion_lon": 0.0}, {"lat": 38.87722633333333, "is_disabled": 0, "type": "electric_scooter", "lon": -77.01763216666667, "bike_id": "611b39a6eb32379d0d32842848b17e9f", "fusion_lat": 0.0, "name": "611b39a6eb32379d0d32842848b17e9f", "is_reserved": 0, "rental_uris": {"android": "https://dc.lft.to/lastmile_qr_scan", "ios": "https://dc.lft.to/lastmile_qr_scan"}, "fusion_lon": 0.0}, {"lat": 38.9176105, "is_disabled": 0, "type": "electric_scooter", "lon": -77.02297116666666, "bike_id": "adb326e75ab97b3e7ca3c2dc53a6e9eb", "fusion_lat": 0.0, "name": "adb326e75ab97b3e7ca3c2dc53a6e9eb", "is_reserved": 0, "rental_uris": {"android": "https://dc.lft.to/lastmile_qr_scan", "ios": "https://dc.lft.to/lastmile_qr_scan"}, "fusion_lon": 0.0}, {"lat": 38.905287666666666, "is_disabled": 0, "type": "electric_scooter", "lon": -77.0624295, "bike_id": "165584aeb1cdafecc3cdde7c46a177ee", "fusion_lat": 0.0, "name": "165584aeb1cdafecc3cdde7c46a177ee", "is_reserved": 0, "rental_uris": {"android": "https://dc.lft.to/lastmile_qr_scan", "ios": "https://dc.lft.to/lastmile_qr_scan"}, "fusion_lon": 0.0}, {"lat": 38.86999216666667, "is_disabled": 0, "type": "electric_bike", "lon": -77.065689, "bike_id": "074e22a3fcc1dffc9a9beb3b0edcb46f", "fusion_lat": 0.0, "name": "074e22a3fcc1dffc9a9beb3b0edcb46f", "is_reserved": 0, "rental_uris": {"android": "https://dc.lft.to/lastmile_qr_scan", "ios": "https://dc.lft.to/lastmile_qr_scan"}, "fusion_lon": 0.0}, {"lat": 38.912572, "is_disabled": 0, "type": "electric_scooter", "lon": -77.02534683333333, "bike_id": "12cd5b05986896d9a4748c82f97ef9f8", "fusion_lat": 0.0, "name": "12cd5b05986896d9a4748c82f97ef9f8", "is_reserved": 0, "rental_uris": {"android": "https://dc.lft.to/lastmile_qr_scan", "ios": "https://dc.lft.to/lastmile_qr_scan"}, "fusion_lon": 0.0}, {"lat": 38.924102166666664, "is_disabled": 0, "type": "electric_scooter", "lon": -77.0274605, "bike_id": "b5087e7e391457478ddab96fd97abcba", "fusion_lat": 0.0, "name": "b5087e7e391457478ddab96fd97abcba", "is_reserved": 0, "rental_uris": {"android": "https://dc.lft.to/lastmile_qr_scan", "ios": "https://dc.lft.to/lastmile_qr_scan"}, "fusion_lon": 0.0}, {"lat": 38.90350766666667, "is_disabled": 0, "type": "electric_scooter", "lon": -77.04242766666667, "bike_id": "a00f4090e32d95faa44ed8a7b1f3508a", "fusion_lat": 0.0, "name": "a00f4090e32d95faa44ed8a7b1f3508a", "is_reserved": 0, "rental_uris": {"android": "https://dc.lft.to/lastmile_qr_scan", "ios": "https://dc.lft.to/lastmile_qr_scan"}, "fusion_lon": 0.0}, {"lat": 38.89403766666667, "is_disabled": 0, "type": "electric_scooter", "lon": -76.9866265, "bike_id": "5a34af9b92b829e6fbd04cf679a00e49", "fusion_lat": 0.0, "name": "5a34af9b92b829e6fbd04cf679a00e49", "is_reserved": 0, "rental_uris": {"android": "https://dc.lft.to/lastmile_qr_scan", "ios": "https://dc.lft.to/lastmile_qr_scan"}, "fusion_lon": 0.0}, {"lat": 38.94924233333333, "is_disabled": 0, "type": "electric_bike", "lon": -77.00794883333333, "bike_id": "b9b8cb57501ff147f6c61243db347e19", "fusion_lat": 0.0, "name": "b9b8cb57501ff147f6c61243db347e19", "is_reserved": 0, "rental_uris": {"android": "https://dc.lft.to/lastmile_qr_scan", "ios": "https://dc.lft.to/lastmile_qr_scan"}, "fusion_lon": 0.0}, {"lat": 38.93447466666667, "is_disabled": 0, "type": "electric_scooter", "lon": -77.030949, "bike_id": "0fa9d9d184ae7fe8bc14b1513ebab1bb", "fusion_lat": 0.0, "name": "0fa9d9d184ae7fe8bc14b1513ebab1bb", "is_reserved": 0, "rental_uris": {"android": "https://dc.lft.to/lastmile_qr_scan", "ios": "https://dc.lft.to/lastmile_qr_scan"}, "fusion_lon": 0.0}, {"lat": 38.865213833333335, "is_disabled": 0, "type": "electric_scooter", "lon": -76.9902635, "bike_id": "cfd81d1d79d5c2d082a0c27641b68a10", "fusion_lat": 0.0, "name": "cfd81d1d79d5c2d082a0c27641b68a10", "is_reserved": 0, "rental_uris": {"android": "https://dc.lft.to/lastmile_qr_scan", "ios": "https://dc.lft.to/lastmile_qr_scan"}, "fusion_lon": 0.0}, {"lat": 38.924906166666666, "is_disabled": 0, "type": "electric_scooter", "lon": -77.073316, "bike_id": "c7f5c8ca4a101f7fa8715813b252ca42", "fusion_lat": 0.0, "name": "c7f5c8ca4a101f7fa8715813b252ca42", "is_reserved": 0, "rental_uris": {"android": "https://dc.lft.to/lastmile_qr_scan", "ios": "https://dc.lft.to/lastmile_qr_scan"}, "fusion_lon": 0.0}, {"lat": 38.881968666666666, "is_disabled": 0, "type": "electric_scooter", "lon": -76.99621766666667, "bike_id": "7fd5642c3793694f0ca49a18af0aa378", "fusion_lat": 0.0, "name": "7fd5642c3793694f0ca49a18af0aa378", "is_reserved": 0, "rental_uris": {"android": "https://dc.lft.to/lastmile_qr_scan", "ios": "https://dc.lft.to/lastmile_qr_scan"}, "fusion_lon": 0.0}, {"lat": 38.87065916666667, "is_disabled": 0, "type": "electric_scooter", "lon": -77.00841216666667, "bike_id": "ff6199366632976c0f81d115bd9b0899", "fusion_lat": 0.0, "name": "ff6199366632976c0f81d115bd9b0899", "is_reserved": 0, "rental_uris": {"android": "https://dc.lft.to/lastmile_qr_scan", "ios": "https://dc.lft.to/lastmile_qr_scan"}, "fusion_lon": 0.0}, {"lat": 38.930990666666666, "is_disabled": 0, "type": "electric_scooter", "lon": -77.03076833333333, "bike_id": "92f76b41f64fdf99aece7db54dd2825d", "fusion_lat": 0.0, "name": "92f76b41f64fdf99aece7db54dd2825d", "is_reserved": 0, "rental_uris": {"android": "https://dc.lft.to/lastmile_qr_scan", "ios": "https://dc.lft.to/lastmile_qr_scan"}, "fusion_lon": 0.0}, {"lat": 38.9173535, "is_disabled": 0, "type": "electric_scooter", "lon": -77.036637, "bike_id": "2b2afc5f16b3f3e8403a2059a01b599f", "fusion_lat": 0.0, "name": "2b2afc5f16b3f3e8403a2059a01b599f", "is_reserved": 0, "rental_uris": {"android": "https://dc.lft.to/lastmile_qr_scan", "ios": "https://dc.lft.to/lastmile_qr_scan"}, "fusion_lon": 0.0}, {"lat": 38.9271265, "is_disabled": 0, "type": "electric_scooter", "lon": -77.02088516666667, "bike_id": "e5b07aeafe217b6f24c59c6fa82d1aa0", "fusion_lat": 0.0, "name": "e5b07aeafe217b6f24c59c6fa82d1aa0", "is_reserved": 0, "rental_uris": {"android": "https://dc.lft.to/lastmile_qr_scan", "ios": "https://dc.lft.to/lastmile_qr_scan"}, "fusion_lon": 0.0}, {"lat": 38.90814683333333, "is_disabled": 0, "type": "electric_scooter", "lon": -77.034544, "bike_id": "713102f2165fe3747b7728e4a4cc8baa", "fusion_lat": 0.0, "name": "713102f2165fe3747b7728e4a4cc8baa", "is_reserved": 0, "rental_uris": {"android": "https://dc.lft.to/lastmile_qr_scan", "ios": "https://dc.lft.to/lastmile_qr_scan"}, "fusion_lon": 0.0}, {"lat": 38.91979633333333, "is_disabled": 0, "type": "electric_scooter", "lon": -77.03228216666666, "bike_id": "90ba0231881d1089538a7de0a4d18fec", "fusion_lat": 0.0, "name": "90ba0231881d1089538a7de0a4d18fec", "is_reserved": 0, "rental_uris": {"android": "https://dc.lft.to/lastmile_qr_scan", "ios": "https://dc.lft.to/lastmile_qr_scan"}, "fusion_lon": 0.0}, {"lat": 38.895052166666666, "is_disabled": 0, "type": "electric_scooter", "lon": -77.00326083333333, "bike_id": "ec1fa8002af53d3eddd0dd8dbd3f8fd4", "fusion_lat": 0.0, "name": "ec1fa8002af53d3eddd0dd8dbd3f8fd4", "is_reserved": 0, "rental_uris": {"android": "https://dc.lft.to/lastmile_qr_scan", "ios": "https://dc.lft.to/lastmile_qr_scan"}, "fusion_lon": 0.0}, {"lat": 38.917937333333334, "is_disabled": 0, "type": "electric_scooter", "lon": -77.02295183333334, "bike_id": "f87417b998b2a06548a5d663edc5b520", "fusion_lat": 0.0, "name": "f87417b998b2a06548a5d663edc5b520", "is_reserved": 0, "rental_uris": {"android": "https://dc.lft.to/lastmile_qr_scan", "ios": "https://dc.lft.to/lastmile_qr_scan"}, "fusion_lon": 0.0}, {"lat": 38.93401383333333, "is_disabled": 0, "type": "electric_scooter", "lon": -77.041205, "bike_id": "955d5315f9b0fd44199c694adea8bb79", "fusion_lat": 0.0, "name": "955d5315f9b0fd44199c694adea8bb79", "is_reserved": 0, "rental_uris": {"android": "https://dc.lft.to/lastmile_qr_scan", "ios": "https://dc.lft.to/lastmile_qr_scan"}, "fusion_lon": 0.0}, {"lat": 38.921148333333335, "is_disabled": 0, "type": "electric_bike", "lon": -77.03929416666666, "bike_id": "16900695cb0217c52dcf5ba05637011f", "fusion_lat": 0.0, "name": "16900695cb0217c52dcf5ba05637011f", "is_reserved": 0, "rental_uris": {"android": "https://dc.lft.to/lastmile_qr_scan", "ios": "https://dc.lft.to/lastmile_qr_scan"}, "fusion_lon": 0.0}, {"lat": 38.9609565, "is_disabled": 0, "type": "electric_scooter", "lon": -77.08289016666667, "bike_id": "d4f9366248d426d532adaa53a3bc0ed5", "fusion_lat": 0.0, "name": "d4f9366248d426d532adaa53a3bc0ed5", "is_reserved": 0, "rental_uris": {"android": "https://dc.lft.to/lastmile_qr_scan", "ios": "https://dc.lft.to/lastmile_qr_scan"}, "fusion_lon": 0.0}, {"lat": 38.92213566666667, "is_disabled": 0, "type": "electric_scooter", "lon": -77.03288233333333, "bike_id": "bf965beaaae99064d1c0a6bd64dae4be", "fusion_lat": 0.0, "name": "bf965beaaae99064d1c0a6bd64dae4be", "is_reserved": 0, "rental_uris": {"android": "https://dc.lft.to/lastmile_qr_scan", "ios": "https://dc.lft.to/lastmile_qr_scan"}, "fusion_lon": 0.0}, {"lat": 38.918336833333335, "is_disabled": 0, "type": "electric_scooter", "lon": -77.02292333333334, "bike_id": "1e77dfe85df674f0744214e8a1ecc68a", "fusion_lat": 0.0, "name": "1e77dfe85df674f0744214e8a1ecc68a", "is_reserved": 0, "rental_uris": {"android": "https://dc.lft.to/lastmile_qr_scan", "ios": "https://dc.lft.to/lastmile_qr_scan"}, "fusion_lon": 0.0}, {"lat": 38.90495766666667, "is_disabled": 0, "type": "electric_scooter", "lon": -77.02951916666666, "bike_id": "114398ba39d42ce25732ecc5d960d0b9", "fusion_lat": 0.0, "name": "114398ba39d42ce25732ecc5d960d0b9", "is_reserved": 0, "rental_uris": {"android": "https://dc.lft.to/lastmile_qr_scan", "ios": "https://dc.lft.to/lastmile_qr_scan"}, "fusion_lon": 0.0}, {"lat": 38.902182833333335, "is_disabled": 0, "type": "electric_scooter", "lon": -77.0486295, "bike_id": "d2ae600bbfa763bdc5f04cc4d9eb5340", "fusion_lat": 0.0, "name": "d2ae600bbfa763bdc5f04cc4d9eb5340", "is_reserved": 0, "rental_uris": {"android": "https://dc.lft.to/lastmile_qr_scan", "ios": "https://dc.lft.to/lastmile_qr_scan"}, "fusion_lon": 0.0}, {"lat": 39.029347, "is_disabled": 0, "type": "electric_bike", "lon": -77.04925133333333, "bike_id": "1142b60458f435ffeef26ed944c47049", "fusion_lat": 0.0, "name": "1142b60458f435ffeef26ed944c47049", "is_reserved": 0, "rental_uris": {"android": "https://dc.lft.to/lastmile_qr_scan", "ios": "https://dc.lft.to/lastmile_qr_scan"}, "fusion_lon": 0.0}, {"lat": 38.92233783333333, "is_disabled": 0, "type": "electric_scooter", "lon": -77.04255, "bike_id": "749fdc9ec677886467875bcea2f5f4bc", "fusion_lat": 0.0, "name": "749fdc9ec677886467875bcea2f5f4bc", "is_reserved": 0, "rental_uris": {"android": "https://dc.lft.to/lastmile_qr_scan", "ios": "https://dc.lft.to/lastmile_qr_scan"}, "fusion_lon": 0.0}, {"lat": 38.89218183333333, "is_disabled": 0, "type": "electric_scooter", "lon": -76.9958585, "bike_id": "310e9fb1043452a7c4666e652891608b", "fusion_lat": 0.0, "name": "310e9fb1043452a7c4666e652891608b", "is_reserved": 0, "rental_uris": {"android": "https://dc.lft.to/lastmile_qr_scan", "ios": "https://dc.lft.to/lastmile_qr_scan"}, "fusion_lon": 0.0}, {"lat": 38.93112416666666, "is_disabled": 0, "type": "electric_scooter", "lon": -77.03841833333334, "bike_id": "fc20cb37d9a61d367e5330faebbded23", "fusion_lat": 0.0, "name": "fc20cb37d9a61d367e5330faebbded23", "is_reserved": 0, "rental_uris": {"android": "https://dc.lft.to/lastmile_qr_scan", "ios": "https://dc.lft.to/lastmile_qr_scan"}, "fusion_lon": 0.0}, {"lat": 38.88497366666667, "is_disabled": 0, "type": "electric_scooter", "lon": -77.007067, "bike_id": "816355458a7d9fad704405e2ad979b7e", "fusion_lat": 0.0, "name": "816355458a7d9fad704405e2ad979b7e", "is_reserved": 0, "rental_uris": {"android": "https://dc.lft.to/lastmile_qr_scan", "ios": "https://dc.lft.to/lastmile_qr_scan"}, "fusion_lon": 0.0}, {"lat": 38.80754233333333, "is_disabled": 0, "type": "electric_bike", "lon": -77.09458566666666, "bike_id": "f4b04e0de0c33b2cbc0b3ec66388085d", "fusion_lat": 0.0, "name": "f4b04e0de0c33b2cbc0b3ec66388085d", "is_reserved": 0, "rental_uris": {"android": "https://dc.lft.to/lastmile_qr_scan", "ios": "https://dc.lft.to/lastmile_qr_scan"}, "fusion_lon": 0.0}, {"lat": 38.92465333333333, "is_disabled": 0, "type": "electric_scooter", "lon": -77.02715933333333, "bike_id": "4112ffd970921629546eab12b4684bee", "fusion_lat": 0.0, "name": "4112ffd970921629546eab12b4684bee", "is_reserved": 0, "rental_uris": {"android": "https://dc.lft.to/lastmile_qr_scan", "ios": "https://dc.lft.to/lastmile_qr_scan"}, "fusion_lon": 0.0}, {"lat": 38.915523, "is_disabled": 0, "type": "electric_scooter", "lon": -77.04187216666666, "bike_id": "797e9a767095dbbc28eec1ee1099eb1e", "fusion_lat": 0.0, "name": "797e9a767095dbbc28eec1ee1099eb1e", "is_reserved": 0, "rental_uris": {"android": "https://dc.lft.to/lastmile_qr_scan", "ios": "https://dc.lft.to/lastmile_qr_scan"}, "fusion_lon": 0.0}, {"lat": 38.916432, "is_disabled": 0, "type": "electric_scooter", "lon": -77.03837783333333, "bike_id": "0d31ace6ddf643ab08f8f784d6f9c6ec", "fusion_lat": 0.0, "name": "0d31ace6ddf643ab08f8f784d6f9c6ec", "is_reserved": 0, "rental_uris": {"android": "https://dc.lft.to/lastmile_qr_scan", "ios": "https://dc.lft.to/lastmile_qr_scan"}, "fusion_lon": 0.0}, {"lat": 39.03045766666666, "is_disabled": 0, "type": "electric_bike", "lon": -77.09480866666667, "bike_id": "e9782c45643a3aa9f4475ec648aedf9a", "fusion_lat": 0.0, "name": "e9782c45643a3aa9f4475ec648aedf9a", "is_reserved": 0, "rental_uris": {"android": "https://dc.lft.to/lastmile_qr_scan", "ios": "https://dc.lft.to/lastmile_qr_scan"}, "fusion_lon": 0.0}, {"lat": 38.907925, "is_disabled": 0, "type": "electric_scooter", "lon": -77.03801, "bike_id": "585362aefee9eac7d28158b0ccccac9e", "fusion_lat": 0.0, "name": "585362aefee9eac7d28158b0ccccac9e", "is_reserved": 0, "rental_uris": {"android": "https://dc.lft.to/lastmile_qr_scan", "ios": "https://dc.lft.to/lastmile_qr_scan"}, "fusion_lon": 0.0}, {"lat": 38.86364483333333, "is_disabled": 0, "type": "electric_scooter", "lon": -76.990362, "bike_id": "6a1ed2ba87ecb278ad3ca5b447b6eb93", "fusion_lat": 0.0, "name": "6a1ed2ba87ecb278ad3ca5b447b6eb93", "is_reserved": 0, "rental_uris": {"android": "https://dc.lft.to/lastmile_qr_scan", "ios": "https://dc.lft.to/lastmile_qr_scan"}, "fusion_lon": 0.0}, {"lat": 38.91313483333333, "is_disabled": 0, "type": "electric_scooter", "lon": -77.0416515, "bike_id": "9cc8517df70ceff0db7a4918527a37f3", "fusion_lat": 0.0, "name": "9cc8517df70ceff0db7a4918527a37f3", "is_reserved": 0, "rental_uris": {"android": "https://dc.lft.to/lastmile_qr_scan", "ios": "https://dc.lft.to/lastmile_qr_scan"}, "fusion_lon": 0.0}, {"lat": 38.92745466666667, "is_disabled": 0, "type": "electric_scooter", "lon": -76.99725, "bike_id": "2828674e9814cc38ddf26724402a5a5e", "fusion_lat": 0.0, "name": "2828674e9814cc38ddf26724402a5a5e", "is_reserved": 0, "rental_uris": {"android": "https://dc.lft.to/lastmile_qr_scan", "ios": "https://dc.lft.to/lastmile_qr_scan"}, "fusion_lon": 0.0}, {"lat": 38.905038833333336, "is_disabled": 0, "type": "electric_scooter", "lon": -77.06284916666667, "bike_id": "efafbe307a7d1deb0d94f2d64f19c1d1", "fusion_lat": 0.0, "name": "efafbe307a7d1deb0d94f2d64f19c1d1", "is_reserved": 0, "rental_uris": {"android": "https://dc.lft.to/lastmile_qr_scan", "ios": "https://dc.lft.to/lastmile_qr_scan"}, "fusion_lon": 0.0}, {"lat": 38.9037285, "is_disabled": 0, "type": "electric_scooter", "lon": -77.0292835, "bike_id": "de8ee54c2619887a3780d7d7eb4f69b1", "fusion_lat": 0.0, "name": "de8ee54c2619887a3780d7d7eb4f69b1", "is_reserved": 0, "rental_uris": {"android": "https://dc.lft.to/lastmile_qr_scan", "ios": "https://dc.lft.to/lastmile_qr_scan"}, "fusion_lon": 0.0}, {"lat": 38.9096485, "is_disabled": 0, "type": "electric_scooter", "lon": -77.039373, "bike_id": "80432a6cb66bb65870314967b037b505", "fusion_lat": 0.0, "name": "80432a6cb66bb65870314967b037b505", "is_reserved": 0, "rental_uris": {"android": "https://dc.lft.to/lastmile_qr_scan", "ios": "https://dc.lft.to/lastmile_qr_scan"}, "fusion_lon": 0.0}, {"lat": 38.8757735, "is_disabled": 0, "type": "electric_scooter", "lon": -77.02082816666666, "bike_id": "1bab2e068c25f45f7ad84a433c85462e", "fusion_lat": 0.0, "name": "1bab2e068c25f45f7ad84a433c85462e", "is_reserved": 0, "rental_uris": {"android": "https://dc.lft.to/lastmile_qr_scan", "ios": "https://dc.lft.to/lastmile_qr_scan"}, "fusion_lon": 0.0}, {"lat": 38.91923233333333, "is_disabled": 0, "type": "electric_scooter", "lon": -77.03178983333333, "bike_id": "a30ec5f2130e4563682892eb9cc6fa76", "fusion_lat": 0.0, "name": "a30ec5f2130e4563682892eb9cc6fa76", "is_reserved": 0, "rental_uris": {"android": "https://dc.lft.to/lastmile_qr_scan", "ios": "https://dc.lft.to/lastmile_qr_scan"}, "fusion_lon": 0.0}, {"lat": 38.94362533333333, "is_disabled": 0, "type": "electric_bike", "lon": -76.96781316666667, "bike_id": "3ce5c5f9a8caf909f9a3ec8a3a514bab", "fusion_lat": 0.0, "name": "3ce5c5f9a8caf909f9a3ec8a3a514bab", "is_reserved": 0, "rental_uris": {"android": "https://dc.lft.to/lastmile_qr_scan", "ios": "https://dc.lft.to/lastmile_qr_scan"}, "fusion_lon": 0.0}, {"lat": 38.90850433333333, "is_disabled": 0, "type": "electric_scooter", "lon": -76.99961333333333, "bike_id": "7ce88be142b3b5480391a1f13e81b539", "fusion_lat": 0.0, "name": "7ce88be142b3b5480391a1f13e81b539", "is_reserved": 0, "rental_uris": {"android": "https://dc.lft.to/lastmile_qr_scan", "ios": "https://dc.lft.to/lastmile_qr_scan"}, "fusion_lon": 0.0}, {"lat": 38.90419516666667, "is_disabled": 0, "type": "electric_scooter", "lon": -77.04004733333333, "bike_id": "5add94a4f70a3e66c7e6563b0e8524df", "fusion_lat": 0.0, "name": "5add94a4f70a3e66c7e6563b0e8524df", "is_reserved": 0, "rental_uris": {"android": "https://dc.lft.to/lastmile_qr_scan", "ios": "https://dc.lft.to/lastmile_qr_scan"}, "fusion_lon": 0.0}, {"lat": 38.88513566666666, "is_disabled": 0, "type": "electric_scooter", "lon": -77.00679433333333, "bike_id": "445d4ed825978920038f685f732d14ac", "fusion_lat": 0.0, "name": "445d4ed825978920038f685f732d14ac", "is_reserved": 0, "rental_uris": {"android": "https://dc.lft.to/lastmile_qr_scan", "ios": "https://dc.lft.to/lastmile_qr_scan"}, "fusion_lon": 0.0}, {"lat": 38.913404, "is_disabled": 0, "type": "electric_scooter", "lon": -77.04892, "bike_id": "576d4965893b908c84a2ad60b3c400f3", "fusion_lat": 0.0, "name": "576d4965893b908c84a2ad60b3c400f3", "is_reserved": 0, "rental_uris": {"android": "https://dc.lft.to/lastmile_qr_scan", "ios": "https://dc.lft.to/lastmile_qr_scan"}, "fusion_lon": 0.0}, {"lat": 38.91826783333333, "is_disabled": 0, "type": "electric_scooter", "lon": -77.0241855, "bike_id": "1f4db581898449a2e283415eee6cdd39", "fusion_lat": 0.0, "name": "1f4db581898449a2e283415eee6cdd39", "is_reserved": 0, "rental_uris": {"android": "https://dc.lft.to/lastmile_qr_scan", "ios": "https://dc.lft.to/lastmile_qr_scan"}, "fusion_lon": 0.0}, {"lat": 38.91114566666667, "is_disabled": 0, "type": "electric_scooter", "lon": -77.02337066666666, "bike_id": "3d3fca91f846719b121154195d3eef65", "fusion_lat": 0.0, "name": "3d3fca91f846719b121154195d3eef65", "is_reserved": 0, "rental_uris": {"android": "https://dc.lft.to/lastmile_qr_scan", "ios": "https://dc.lft.to/lastmile_qr_scan"}, "fusion_lon": 0.0}, {"lat": 38.923625333333334, "is_disabled": 0, "type": "electric_scooter", "lon": -77.043821, "bike_id": "4862164632e9e63ad563ab8221321305", "fusion_lat": 0.0, "name": "4862164632e9e63ad563ab8221321305", "is_reserved": 0, "rental_uris": {"android": "https://dc.lft.to/lastmile_qr_scan", "ios": "https://dc.lft.to/lastmile_qr_scan"}, "fusion_lon": 0.0}, {"lat": 38.85460583333333, "is_disabled": 0, "type": "electric_scooter", "lon": -76.97239566666667, "bike_id": "7e531ef6a15c96c97e212cc401f02521", "fusion_lat": 0.0, "name": "7e531ef6a15c96c97e212cc401f02521", "is_reserved": 0, "rental_uris": {"android": "https://dc.lft.to/lastmile_qr_scan", "ios": "https://dc.lft.to/lastmile_qr_scan"}, "fusion_lon": 0.0}, {"lat": 38.916633, "is_disabled": 0, "type": "electric_scooter", "lon": -77.02193716666666, "bike_id": "a616eaea0a0d969f87083b5e6c5188b9", "fusion_lat": 0.0, "name": "a616eaea0a0d969f87083b5e6c5188b9", "is_reserved": 0, "rental_uris": {"android": "https://dc.lft.to/lastmile_qr_scan", "ios": "https://dc.lft.to/lastmile_qr_scan"}, "fusion_lon": 0.0}, {"lat": 38.943091333333335, "is_disabled": 0, "type": "electric_scooter", "lon": -77.059209, "bike_id": "6f608c36dc22bb4c0280517b9a0dd2ec", "fusion_lat": 0.0, "name": "6f608c36dc22bb4c0280517b9a0dd2ec", "is_reserved": 0, "rental_uris": {"android": "https://dc.lft.to/lastmile_qr_scan", "ios": "https://dc.lft.to/lastmile_qr_scan"}, "fusion_lon": 0.0}, {"lat": 38.9081835, "is_disabled": 0, "type": "electric_scooter", "lon": -77.04341666666667, "bike_id": "c4cda34d5693c377a5528ae4e47004bf", "fusion_lat": 0.0, "name": "c4cda34d5693c377a5528ae4e47004bf", "is_reserved": 0, "rental_uris": {"android": "https://dc.lft.to/lastmile_qr_scan", "ios": "https://dc.lft.to/lastmile_qr_scan"}, "fusion_lon": 0.0}, {"lat": 38.902947833333336, "is_disabled": 0, "type": "electric_bike", "lon": -77.06339483333333, "bike_id": "f39057812a83d04f8fdd4bf9c5ec1e02", "fusion_lat": 0.0, "name": "f39057812a83d04f8fdd4bf9c5ec1e02", "is_reserved": 0, "rental_uris": {"android": "https://dc.lft.to/lastmile_qr_scan", "ios": "https://dc.lft.to/lastmile_qr_scan"}, "fusion_lon": 0.0}, {"lat": 38.924662, "is_disabled": 0, "type": "electric_scooter", "lon": -77.02713116666666, "bike_id": "95a0fec76b57814381ff4b58830925ba", "fusion_lat": 0.0, "name": "95a0fec76b57814381ff4b58830925ba", "is_reserved": 0, "rental_uris": {"android": "https://dc.lft.to/lastmile_qr_scan", "ios": "https://dc.lft.to/lastmile_qr_scan"}, "fusion_lon": 0.0}, {"lat": 38.863789833333335, "is_disabled": 0, "type": "electric_scooter", "lon": -76.99251216666667, "bike_id": "7a52ad3c785671f0bdc4426f3a9f7f79", "fusion_lat": 0.0, "name": "7a52ad3c785671f0bdc4426f3a9f7f79", "is_reserved": 0, "rental_uris": {"android": "https://dc.lft.to/lastmile_qr_scan", "ios": "https://dc.lft.to/lastmile_qr_scan"}, "fusion_lon": 0.0}, {"lat": 38.909571, "is_disabled": 0, "type": "electric_scooter", "lon": -77.0381585, "bike_id": "2d727ae89ab9effe5a64424d18a670fe", "fusion_lat": 0.0, "name": "2d727ae89ab9effe5a64424d18a670fe", "is_reserved": 0, "rental_uris": {"android": "https://dc.lft.to/lastmile_qr_scan", "ios": "https://dc.lft.to/lastmile_qr_scan"}, "fusion_lon": 0.0}, {"lat": 38.97835383333334, "is_disabled": 0, "type": "electric_bike", "lon": -77.02640633333333, "bike_id": "d93b94ccef0d1d0d3cf7fa082f9a362b", "fusion_lat": 0.0, "name": "d93b94ccef0d1d0d3cf7fa082f9a362b", "is_reserved": 0, "rental_uris": {"android": "https://dc.lft.to/lastmile_qr_scan", "ios": "https://dc.lft.to/lastmile_qr_scan"}, "fusion_lon": 0.0}, {"lat": 38.92275883333333, "is_disabled": 0, "type": "electric_scooter", "lon": -77.04477683333333, "bike_id": "b0314570fc63d4876bc2f75ef38f847c", "fusion_lat": 0.0, "name": "b0314570fc63d4876bc2f75ef38f847c", "is_reserved": 0, "rental_uris": {"android": "https://dc.lft.to/lastmile_qr_scan", "ios": "https://dc.lft.to/lastmile_qr_scan"}, "fusion_lon": 0.0}, {"lat": 38.90655116666667, "is_disabled": 0, "type": "electric_scooter", "lon": -77.074304, "bike_id": "1aa208d0d791bef412389821f304a5a7", "fusion_lat": 0.0, "name": "1aa208d0d791bef412389821f304a5a7", "is_reserved": 0, "rental_uris": {"android": "https://dc.lft.to/lastmile_qr_scan", "ios": "https://dc.lft.to/lastmile_qr_scan"}, "fusion_lon": 0.0}, {"lat": 38.92390183333333, "is_disabled": 0, "type": "electric_scooter", "lon": -77.03537733333333, "bike_id": "0a13fbfb2b70fc5cb34bc23c070cff21", "fusion_lat": 0.0, "name": "0a13fbfb2b70fc5cb34bc23c070cff21", "is_reserved": 0, "rental_uris": {"android": "https://dc.lft.to/lastmile_qr_scan", "ios": "https://dc.lft.to/lastmile_qr_scan"}, "fusion_lon": 0.0}, {"lat": 38.914313, "is_disabled": 0, "type": "electric_scooter", "lon": -77.03179583333333, "bike_id": "e5247f0e4edd03f0c03ee3c1c184133d", "fusion_lat": 0.0, "name": "e5247f0e4edd03f0c03ee3c1c184133d", "is_reserved": 0, "rental_uris": {"android": "https://dc.lft.to/lastmile_qr_scan", "ios": "https://dc.lft.to/lastmile_qr_scan"}, "fusion_lon": 0.0}, {"lat": 38.90538433333333, "is_disabled": 0, "type": "electric_scooter", "lon": -77.05144, "bike_id": "7973d028a2495c9a2c56eb2f7f36ca73", "fusion_lat": 0.0, "name": "7973d028a2495c9a2c56eb2f7f36ca73", "is_reserved": 0, "rental_uris": {"android": "https://dc.lft.to/lastmile_qr_scan", "ios": "https://dc.lft.to/lastmile_qr_scan"}, "fusion_lon": 0.0}, {"lat": 38.85799, "is_disabled": 0, "type": "electric_scooter", "lon": -76.98707966666667, "bike_id": "458192002ea6921c47dea5e2cbe26b8c", "fusion_lat": 0.0, "name": "458192002ea6921c47dea5e2cbe26b8c", "is_reserved": 0, "rental_uris": {"android": "https://dc.lft.to/lastmile_qr_scan", "ios": "https://dc.lft.to/lastmile_qr_scan"}, "fusion_lon": 0.0}, {"lat": 38.880396, "is_disabled": 0, "type": "electric_scooter", "lon": -77.00359616666667, "bike_id": "b54057d2cf0fd236511159a55cac798a", "fusion_lat": 0.0, "name": "b54057d2cf0fd236511159a55cac798a", "is_reserved": 0, "rental_uris": {"android": "https://dc.lft.to/lastmile_qr_scan", "ios": "https://dc.lft.to/lastmile_qr_scan"}, "fusion_lon": 0.0}, {"lat": 38.918181833333335, "is_disabled": 0, "type": "electric_scooter", "lon": -77.0248915, "bike_id": "3e4200a5faf5a4fbd829637409110392", "fusion_lat": 0.0, "name": "3e4200a5faf5a4fbd829637409110392", "is_reserved": 0, "rental_uris": {"android": "https://dc.lft.to/lastmile_qr_scan", "ios": "https://dc.lft.to/lastmile_qr_scan"}, "fusion_lon": 0.0}, {"lat": 38.90947466666667, "is_disabled": 0, "type": "electric_bike", "lon": -77.0486765, "bike_id": "97549136980b631239fe1821c0557298", "fusion_lat": 0.0, "name": "97549136980b631239fe1821c0557298", "is_reserved": 0, "rental_uris": {"android": "https://dc.lft.to/lastmile_qr_scan", "ios": "https://dc.lft.to/lastmile_qr_scan"}, "fusion_lon": 0.0}, {"lat": 38.921546666666664, "is_disabled": 0, "type": "electric_scooter", "lon": -77.03519266666666, "bike_id": "134116dc17771c6aa446f185d95dca0e", "fusion_lat": 0.0, "name": "134116dc17771c6aa446f185d95dca0e", "is_reserved": 0, "rental_uris": {"android": "https://dc.lft.to/lastmile_qr_scan", "ios": "https://dc.lft.to/lastmile_qr_scan"}, "fusion_lon": 0.0}, {"lat": 38.91307616666667, "is_disabled": 0, "type": "electric_scooter", "lon": -77.039936, "bike_id": "a85032eacabe2d0a62e70ff16ee29126", "fusion_lat": 0.0, "name": "a85032eacabe2d0a62e70ff16ee29126", "is_reserved": 0, "rental_uris": {"android": "https://dc.lft.to/lastmile_qr_scan", "ios": "https://dc.lft.to/lastmile_qr_scan"}, "fusion_lon": 0.0}, {"lat": 38.92910233333333, "is_disabled": 0, "type": "electric_scooter", "lon": -77.0373235, "bike_id": "e525a40216612b3438c2a15df6c106cb", "fusion_lat": 0.0, "name": "e525a40216612b3438c2a15df6c106cb", "is_reserved": 0, "rental_uris": {"android": "https://dc.lft.to/lastmile_qr_scan", "ios": "https://dc.lft.to/lastmile_qr_scan"}, "fusion_lon": 0.0}, {"lat": 38.9224255, "is_disabled": 0, "type": "electric_scooter", "lon": -77.0219165, "bike_id": "2cdc04485c607e13dde340b4abd19bdb", "fusion_lat": 0.0, "name": "2cdc04485c607e13dde340b4abd19bdb", "is_reserved": 0, "rental_uris": {"android": "https://dc.lft.to/lastmile_qr_scan", "ios": "https://dc.lft.to/lastmile_qr_scan"}, "fusion_lon": 0.0}, {"lat": 39.0341895, "is_disabled": 0, "type": "electric_bike", "lon": -77.042403, "bike_id": "92903b68bbf777d39e9cd2ba971bb38a", "fusion_lat": 0.0, "name": "92903b68bbf777d39e9cd2ba971bb38a", "is_reserved": 0, "rental_uris": {"android": "https://dc.lft.to/lastmile_qr_scan", "ios": "https://dc.lft.to/lastmile_qr_scan"}, "fusion_lon": 0.0}, {"lat": 38.90241966666667, "is_disabled": 0, "type": "electric_scooter", "lon": -77.002015, "bike_id": "9a4c4202f0174287a170402fed1ea802", "fusion_lat": 0.0, "name": "9a4c4202f0174287a170402fed1ea802", "is_reserved": 0, "rental_uris": {"android": "https://dc.lft.to/lastmile_qr_scan", "ios": "https://dc.lft.to/lastmile_qr_scan"}, "fusion_lon": 0.0}, {"lat": 38.93201533333333, "is_disabled": 0, "type": "electric_scooter", "lon": -77.044287, "bike_id": "9a678776e26443162cb972ee5939d238", "fusion_lat": 0.0, "name": "9a678776e26443162cb972ee5939d238", "is_reserved": 0, "rental_uris": {"android": "https://dc.lft.to/lastmile_qr_scan", "ios": "https://dc.lft.to/lastmile_qr_scan"}, "fusion_lon": 0.0}, {"lat": 38.922338333333336, "is_disabled": 0, "type": "electric_scooter", "lon": -77.042553, "bike_id": "d2aa9b27a8397b533f89fc0de59e8b25", "fusion_lat": 0.0, "name": "d2aa9b27a8397b533f89fc0de59e8b25", "is_reserved": 0, "rental_uris": {"android": "https://dc.lft.to/lastmile_qr_scan", "ios": "https://dc.lft.to/lastmile_qr_scan"}, "fusion_lon": 0.0}, {"lat": 38.91717883333333, "is_disabled": 0, "type": "electric_scooter", "lon": -77.02937616666667, "bike_id": "4024521b750539d97bb40b0438bdee6e", "fusion_lat": 0.0, "name": "4024521b750539d97bb40b0438bdee6e", "is_reserved": 0, "rental_uris": {"android": "https://dc.lft.to/lastmile_qr_scan", "ios": "https://dc.lft.to/lastmile_qr_scan"}, "fusion_lon": 0.0}, {"lat": 38.92210016666667, "is_disabled": 0, "type": "electric_bike", "lon": -76.98796933333334, "bike_id": "675ef8d26c9c280b40b3983367321774", "fusion_lat": 0.0, "name": "675ef8d26c9c280b40b3983367321774", "is_reserved": 0, "rental_uris": {"android": "https://dc.lft.to/lastmile_qr_scan", "ios": "https://dc.lft.to/lastmile_qr_scan"}, "fusion_lon": 0.0}, {"lat": 38.93301966666667, "is_disabled": 0, "type": "electric_scooter", "lon": -77.03591683333333, "bike_id": "32cd0b0a6c7586b60677c7dc3540743c", "fusion_lat": 0.0, "name": "32cd0b0a6c7586b60677c7dc3540743c", "is_reserved": 0, "rental_uris": {"android": "https://dc.lft.to/lastmile_qr_scan", "ios": "https://dc.lft.to/lastmile_qr_scan"}, "fusion_lon": 0.0}, {"lat": 38.89754816666667, "is_disabled": 0, "type": "electric_scooter", "lon": -77.05492066666666, "bike_id": "ba483635526cf9ed2d91d0f2e368c246", "fusion_lat": 0.0, "name": "ba483635526cf9ed2d91d0f2e368c246", "is_reserved": 0, "rental_uris": {"android": "https://dc.lft.to/lastmile_qr_scan", "ios": "https://dc.lft.to/lastmile_qr_scan"}, "fusion_lon": 0.0}, {"lat": 38.87629166666667, "is_disabled": 0, "type": "electric_scooter", "lon": -76.96527983333333, "bike_id": "74977095fa109d63f30c8813f6959d60", "fusion_lat": 0.0, "name": "74977095fa109d63f30c8813f6959d60", "is_reserved": 0, "rental_uris": {"android": "https://dc.lft.to/lastmile_qr_scan", "ios": "https://dc.lft.to/lastmile_qr_scan"}, "fusion_lon": 0.0}, {"lat": 38.9262325, "is_disabled": 0, "type": "electric_scooter", "lon": -77.041958, "bike_id": "1ab5532e6431c56b31ea65e65f433f1a", "fusion_lat": 0.0, "name": "1ab5532e6431c56b31ea65e65f433f1a", "is_reserved": 0, "rental_uris": {"android": "https://dc.lft.to/lastmile_qr_scan", "ios": "https://dc.lft.to/lastmile_qr_scan"}, "fusion_lon": 0.0}, {"lat": 38.92726566666666, "is_disabled": 0, "type": "electric_bike", "lon": -77.02970466666666, "bike_id": "55990a0c870c79f22b3e2717a9b0d319", "fusion_lat": 0.0, "name": "55990a0c870c79f22b3e2717a9b0d319", "is_reserved": 0, "rental_uris": {"android": "https://dc.lft.to/lastmile_qr_scan", "ios": "https://dc.lft.to/lastmile_qr_scan"}, "fusion_lon": 0.0}, {"lat": 38.93750566666667, "is_disabled": 0, "type": "electric_scooter", "lon": -77.03455833333334, "bike_id": "f511d02e45868f239a1379f19cdafb2e", "fusion_lat": 0.0, "name": "f511d02e45868f239a1379f19cdafb2e", "is_reserved": 0, "rental_uris": {"android": "https://dc.lft.to/lastmile_qr_scan", "ios": "https://dc.lft.to/lastmile_qr_scan"}, "fusion_lon": 0.0}, {"lat": 38.90752666666667, "is_disabled": 0, "type": "electric_scooter", "lon": -76.99906416666667, "bike_id": "5b105de29240e224a15b3e9a9a965058", "fusion_lat": 0.0, "name": "5b105de29240e224a15b3e9a9a965058", "is_reserved": 0, "rental_uris": {"android": "https://dc.lft.to/lastmile_qr_scan", "ios": "https://dc.lft.to/lastmile_qr_scan"}, "fusion_lon": 0.0}, {"lat": 38.89620983333333, "is_disabled": 0, "type": "electric_scooter", "lon": -77.04503133333333, "bike_id": "323363d8474ad05a26f721c41cf6dfbc", "fusion_lat": 0.0, "name": "323363d8474ad05a26f721c41cf6dfbc", "is_reserved": 0, "rental_uris": {"android": "https://dc.lft.to/lastmile_qr_scan", "ios": "https://dc.lft.to/lastmile_qr_scan"}, "fusion_lon": 0.0}, {"lat": 38.894979666666664, "is_disabled": 0, "type": "electric_scooter", "lon": -77.00214516666666, "bike_id": "57afb10c7f409ef41120e25c1afea6b2", "fusion_lat": 0.0, "name": "57afb10c7f409ef41120e25c1afea6b2", "is_reserved": 0, "rental_uris": {"android": "https://dc.lft.to/lastmile_qr_scan", "ios": "https://dc.lft.to/lastmile_qr_scan"}, "fusion_lon": 0.0}, {"lat": 38.9202765, "is_disabled": 0, "type": "electric_scooter", "lon": -77.013271, "bike_id": "36d98b3c4ee7daacf1c19ae21fb7b857", "fusion_lat": 0.0, "name": "36d98b3c4ee7daacf1c19ae21fb7b857", "is_reserved": 0, "rental_uris": {"android": "https://dc.lft.to/lastmile_qr_scan", "ios": "https://dc.lft.to/lastmile_qr_scan"}, "fusion_lon": 0.0}, {"lat": 38.944562, "is_disabled": 0, "type": "electric_scooter", "lon": -77.06257783333334, "bike_id": "ad8f6cd7d81dcc05bcaf5fa6ec59bd05", "fusion_lat": 0.0, "name": "ad8f6cd7d81dcc05bcaf5fa6ec59bd05", "is_reserved": 0, "rental_uris": {"android": "https://dc.lft.to/lastmile_qr_scan", "ios": "https://dc.lft.to/lastmile_qr_scan"}, "fusion_lon": 0.0}, {"lat": 38.91259, "is_disabled": 0, "type": "electric_scooter", "lon": -77.03871083333334, "bike_id": "922b5e2bafdc22b68d5636431a0f31c2", "fusion_lat": 0.0, "name": "922b5e2bafdc22b68d5636431a0f31c2", "is_reserved": 0, "rental_uris": {"android": "https://dc.lft.to/lastmile_qr_scan", "ios": "https://dc.lft.to/lastmile_qr_scan"}, "fusion_lon": 0.0}, {"lat": 38.9216025, "is_disabled": 0, "type": "electric_scooter", "lon": -77.035147, "bike_id": "a886bee54a200753363cf9f316843f17", "fusion_lat": 0.0, "name": "a886bee54a200753363cf9f316843f17", "is_reserved": 0, "rental_uris": {"android": "https://dc.lft.to/lastmile_qr_scan", "ios": "https://dc.lft.to/lastmile_qr_scan"}, "fusion_lon": 0.0}, {"lat": 38.877197833333334, "is_disabled": 0, "type": "electric_scooter", "lon": -77.01767716666667, "bike_id": "83274a100b722b534cef430de9d2b28c", "fusion_lat": 0.0, "name": "83274a100b722b534cef430de9d2b28c", "is_reserved": 0, "rental_uris": {"android": "https://dc.lft.to/lastmile_qr_scan", "ios": "https://dc.lft.to/lastmile_qr_scan"}, "fusion_lon": 0.0}, {"lat": 38.908104333333334, "is_disabled": 0, "type": "electric_scooter", "lon": -77.04338716666666, "bike_id": "daa9730c4f695f46b244f76941c6a580", "fusion_lat": 0.0, "name": "daa9730c4f695f46b244f76941c6a580", "is_reserved": 0, "rental_uris": {"android": "https://dc.lft.to/lastmile_qr_scan", "ios": "https://dc.lft.to/lastmile_qr_scan"}, "fusion_lon": 0.0}, {"lat": 38.9175045, "is_disabled": 0, "type": "electric_scooter", "lon": -77.02406733333333, "bike_id": "ebbede42255042587f425f5873f91750", "fusion_lat": 0.0, "name": "ebbede42255042587f425f5873f91750", "is_reserved": 0, "rental_uris": {"android": "https://dc.lft.to/lastmile_qr_scan", "ios": "https://dc.lft.to/lastmile_qr_scan"}, "fusion_lon": 0.0}, {"lat": 38.93412, "is_disabled": 0, "type": "electric_scooter", "lon": -77.04275216666667, "bike_id": "c34c226c35219ac58851ad3021fb9cb8", "fusion_lat": 0.0, "name": "c34c226c35219ac58851ad3021fb9cb8", "is_reserved": 0, "rental_uris": {"android": "https://dc.lft.to/lastmile_qr_scan", "ios": "https://dc.lft.to/lastmile_qr_scan"}, "fusion_lon": 0.0}, {"lat": 38.906547833333335, "is_disabled": 0, "type": "electric_scooter", "lon": -77.02960866666666, "bike_id": "90f3f216f81a7ae2f9e86cee909ce895", "fusion_lat": 0.0, "name": "90f3f216f81a7ae2f9e86cee909ce895", "is_reserved": 0, "rental_uris": {"android": "https://dc.lft.to/lastmile_qr_scan", "ios": "https://dc.lft.to/lastmile_qr_scan"}, "fusion_lon": 0.0}, {"lat": 38.91844016666667, "is_disabled": 0, "type": "electric_scooter", "lon": -77.0352095, "bike_id": "67513d5c7319288a5e3d68c2a997d90d", "fusion_lat": 0.0, "name": "67513d5c7319288a5e3d68c2a997d90d", "is_reserved": 0, "rental_uris": {"android": "https://dc.lft.to/lastmile_qr_scan", "ios": "https://dc.lft.to/lastmile_qr_scan"}, "fusion_lon": 0.0}, {"lat": 38.9055385, "is_disabled": 0, "type": "electric_scooter", "lon": -77.03249816666667, "bike_id": "29ddd462a2c8b3cee2588393bb5cabdd", "fusion_lat": 0.0, "name": "29ddd462a2c8b3cee2588393bb5cabdd", "is_reserved": 0, "rental_uris": {"android": "https://dc.lft.to/lastmile_qr_scan", "ios": "https://dc.lft.to/lastmile_qr_scan"}, "fusion_lon": 0.0}, {"lat": 38.950732333333335, "is_disabled": 0, "type": "electric_scooter", "lon": -77.02714, "bike_id": "13743ec4d6fbca21af58f2f5eee62f15", "fusion_lat": 0.0, "name": "13743ec4d6fbca21af58f2f5eee62f15", "is_reserved": 0, "rental_uris": {"android": "https://dc.lft.to/lastmile_qr_scan", "ios": "https://dc.lft.to/lastmile_qr_scan"}, "fusion_lon": 0.0}, {"lat": 38.9419055, "is_disabled": 0, "type": "electric_scooter", "lon": -77.04014516666666, "bike_id": "bdebd554809aae4d4957e900aecf2215", "fusion_lat": 0.0, "name": "bdebd554809aae4d4957e900aecf2215", "is_reserved": 0, "rental_uris": {"android": "https://dc.lft.to/lastmile_qr_scan", "ios": "https://dc.lft.to/lastmile_qr_scan"}, "fusion_lon": 0.0}, {"lat": 38.886519666666665, "is_disabled": 0, "type": "electric_scooter", "lon": -77.02155016666667, "bike_id": "ebea443c623ee9e647d33cd7474cf54c", "fusion_lat": 0.0, "name": "ebea443c623ee9e647d33cd7474cf54c", "is_reserved": 0, "rental_uris": {"android": "https://dc.lft.to/lastmile_qr_scan", "ios": "https://dc.lft.to/lastmile_qr_scan"}, "fusion_lon": 0.0}, {"lat": 38.854913, "is_disabled": 0, "type": "electric_bike", "lon": -77.12048033333333, "bike_id": "d83bc79cde49c6edd172d6d13a481c55", "fusion_lat": 0.0, "name": "d83bc79cde49c6edd172d6d13a481c55", "is_reserved": 0, "rental_uris": {"android": "https://dc.lft.to/lastmile_qr_scan", "ios": "https://dc.lft.to/lastmile_qr_scan"}, "fusion_lon": 0.0}, {"lat": 38.892187, "is_disabled": 0, "type": "electric_scooter", "lon": -77.02224416666667, "bike_id": "b1878d54f87949dc86ce878d5f067f79", "fusion_lat": 0.0, "name": "b1878d54f87949dc86ce878d5f067f79", "is_reserved": 0, "rental_uris": {"android": "https://dc.lft.to/lastmile_qr_scan", "ios": "https://dc.lft.to/lastmile_qr_scan"}, "fusion_lon": 0.0}, {"lat": 38.9071915, "is_disabled": 0, "type": "electric_scooter", "lon": -77.01809833333333, "bike_id": "35d63034be542c984e85864c70c9aa00", "fusion_lat": 0.0, "name": "35d63034be542c984e85864c70c9aa00", "is_reserved": 0, "rental_uris": {"android": "https://dc.lft.to/lastmile_qr_scan", "ios": "https://dc.lft.to/lastmile_qr_scan"}, "fusion_lon": 0.0}, {"lat": 38.923782833333334, "is_disabled": 0, "type": "electric_scooter", "lon": -77.02559266666667, "bike_id": "386abd5406713c2e61909868f947f43c", "fusion_lat": 0.0, "name": "386abd5406713c2e61909868f947f43c", "is_reserved": 0, "rental_uris": {"android": "https://dc.lft.to/lastmile_qr_scan", "ios": "https://dc.lft.to/lastmile_qr_scan"}, "fusion_lon": 0.0}, {"lat": 38.90263183333333, "is_disabled": 0, "type": "electric_scooter", "lon": -77.0387835, "bike_id": "d06eafa09b9c7ad1feef383a05c00e92", "fusion_lat": 0.0, "name": "d06eafa09b9c7ad1feef383a05c00e92", "is_reserved": 0, "rental_uris": {"android": "https://dc.lft.to/lastmile_qr_scan", "ios": "https://dc.lft.to/lastmile_qr_scan"}, "fusion_lon": 0.0}, {"lat": 38.8520735, "is_disabled": 0, "type": "electric_bike", "lon": -77.10128833333333, "bike_id": "d143cce17c590faef4f2eaf9f3febdf9", "fusion_lat": 0.0, "name": "d143cce17c590faef4f2eaf9f3febdf9", "is_reserved": 0, "rental_uris": {"android": "https://dc.lft.to/lastmile_qr_scan", "ios": "https://dc.lft.to/lastmile_qr_scan"}, "fusion_lon": 0.0}, {"lat": 38.879220833333335, "is_disabled": 0, "type": "electric_scooter", "lon": -77.030945, "bike_id": "b3b9c152ba6f86b6d0aef0bd246cf484", "fusion_lat": 0.0, "name": "b3b9c152ba6f86b6d0aef0bd246cf484", "is_reserved": 0, "rental_uris": {"android": "https://dc.lft.to/lastmile_qr_scan", "ios": "https://dc.lft.to/lastmile_qr_scan"}, "fusion_lon": 0.0}, {"lat": 38.88406716666667, "is_disabled": 0, "type": "electric_bike", "lon": -76.96062666666667, "bike_id": "90ca00f0137b47b975a7535a2f648af2", "fusion_lat": 0.0, "name": "90ca00f0137b47b975a7535a2f648af2", "is_reserved": 0, "rental_uris": {"android": "https://dc.lft.to/lastmile_qr_scan", "ios": "https://dc.lft.to/lastmile_qr_scan"}, "fusion_lon": 0.0}, {"lat": 38.899584, "is_disabled": 0, "type": "electric_scooter", "lon": -77.02569483333333, "bike_id": "838436bb8262f6f42f351526ae63d93b", "fusion_lat": 0.0, "name": "838436bb8262f6f42f351526ae63d93b", "is_reserved": 0, "rental_uris": {"android": "https://dc.lft.to/lastmile_qr_scan", "ios": "https://dc.lft.to/lastmile_qr_scan"}, "fusion_lon": 0.0}, {"lat": 38.9709315, "is_disabled": 0, "type": "electric_bike", "lon": -77.0696385, "bike_id": "e0272e5b1f7c06d8d5e09fd74969c933", "fusion_lat": 0.0, "name": "e0272e5b1f7c06d8d5e09fd74969c933", "is_reserved": 0, "rental_uris": {"android": "https://dc.lft.to/lastmile_qr_scan", "ios": "https://dc.lft.to/lastmile_qr_scan"}, "fusion_lon": 0.0}, {"lat": 38.911897, "is_disabled": 0, "type": "electric_scooter", "lon": -77.0402935, "bike_id": "7bdd14f378c5b88ee6168959b8d7c6c5", "fusion_lat": 0.0, "name": "7bdd14f378c5b88ee6168959b8d7c6c5", "is_reserved": 0, "rental_uris": {"android": "https://dc.lft.to/lastmile_qr_scan", "ios": "https://dc.lft.to/lastmile_qr_scan"}, "fusion_lon": 0.0}, {"lat": 38.90579483333333, "is_disabled": 0, "type": "electric_scooter", "lon": -77.005839, "bike_id": "3da1b7194a48c3276e7d9a8bca847530", "fusion_lat": 0.0, "name": "3da1b7194a48c3276e7d9a8bca847530", "is_reserved": 0, "rental_uris": {"android": "https://dc.lft.to/lastmile_qr_scan", "ios": "https://dc.lft.to/lastmile_qr_scan"}, "fusion_lon": 0.0}, {"lat": 38.9081165, "is_disabled": 0, "type": "electric_scooter", "lon": -77.04329916666667, "bike_id": "4c718c3e4a515e5c5e070d150638081a", "fusion_lat": 0.0, "name": "4c718c3e4a515e5c5e070d150638081a", "is_reserved": 0, "rental_uris": {"android": "https://dc.lft.to/lastmile_qr_scan", "ios": "https://dc.lft.to/lastmile_qr_scan"}, "fusion_lon": 0.0}, {"lat": 38.92469216666667, "is_disabled": 0, "type": "electric_scooter", "lon": -77.0353645, "bike_id": "711ef675e4a31a27eb029e2e5fd5b527", "fusion_lat": 0.0, "name": "711ef675e4a31a27eb029e2e5fd5b527", "is_reserved": 0, "rental_uris": {"android": "https://dc.lft.to/lastmile_qr_scan", "ios": "https://dc.lft.to/lastmile_qr_scan"}, "fusion_lon": 0.0}, {"lat": 38.865248333333334, "is_disabled": 0, "type": "electric_scooter", "lon": -76.99029066666667, "bike_id": "abc054a35d86db35acc10038eb1b82bd", "fusion_lat": 0.0, "name": "abc054a35d86db35acc10038eb1b82bd", "is_reserved": 0, "rental_uris": {"android": "https://dc.lft.to/lastmile_qr_scan", "ios": "https://dc.lft.to/lastmile_qr_scan"}, "fusion_lon": 0.0}, {"lat": 38.909969, "is_disabled": 0, "type": "electric_scooter", "lon": -77.0400825, "bike_id": "40036a0f4a4179f5b453d6289a997348", "fusion_lat": 0.0, "name": "40036a0f4a4179f5b453d6289a997348", "is_reserved": 0, "rental_uris": {"android": "https://dc.lft.to/lastmile_qr_scan", "ios": "https://dc.lft.to/lastmile_qr_scan"}, "fusion_lon": 0.0}, {"lat": 38.913990166666665, "is_disabled": 0, "type": "electric_scooter", "lon": -77.03181283333333, "bike_id": "736fa1251b797a98ebc05c8ec6bb426c", "fusion_lat": 0.0, "name": "736fa1251b797a98ebc05c8ec6bb426c", "is_reserved": 0, "rental_uris": {"android": "https://dc.lft.to/lastmile_qr_scan", "ios": "https://dc.lft.to/lastmile_qr_scan"}, "fusion_lon": 0.0}, {"lat": 38.92165083333333, "is_disabled": 0, "type": "electric_scooter", "lon": -77.04023116666667, "bike_id": "6c8e4fc59049614cd76b243c8d2cf58f", "fusion_lat": 0.0, "name": "6c8e4fc59049614cd76b243c8d2cf58f", "is_reserved": 0, "rental_uris": {"android": "https://dc.lft.to/lastmile_qr_scan", "ios": "https://dc.lft.to/lastmile_qr_scan"}, "fusion_lon": 0.0}, {"lat": 38.8922425, "is_disabled": 0, "type": "electric_scooter", "lon": -77.04866566666666, "bike_id": "a7cfb33fa10e30617e6812961ecf7fbd", "fusion_lat": 0.0, "name": "a7cfb33fa10e30617e6812961ecf7fbd", "is_reserved": 0, "rental_uris": {"android": "https://dc.lft.to/lastmile_qr_scan", "ios": "https://dc.lft.to/lastmile_qr_scan"}, "fusion_lon": 0.0}, {"lat": 38.95748966666667, "is_disabled": 0, "type": "electric_bike", "lon": -77.02169533333333, "bike_id": "ec566b3c4fc429831c5bc5103f18c0b0", "fusion_lat": 0.0, "name": "ec566b3c4fc429831c5bc5103f18c0b0", "is_reserved": 0, "rental_uris": {"android": "https://dc.lft.to/lastmile_qr_scan", "ios": "https://dc.lft.to/lastmile_qr_scan"}, "fusion_lon": 0.0}, {"lat": 38.915932166666664, "is_disabled": 0, "type": "electric_scooter", "lon": -77.01594416666667, "bike_id": "0bcf5b690cf96327c704e628fc19a38f", "fusion_lat": 0.0, "name": "0bcf5b690cf96327c704e628fc19a38f", "is_reserved": 0, "rental_uris": {"android": "https://dc.lft.to/lastmile_qr_scan", "ios": "https://dc.lft.to/lastmile_qr_scan"}, "fusion_lon": 0.0}, {"lat": 38.892223, "is_disabled": 0, "type": "electric_scooter", "lon": -77.02627383333333, "bike_id": "94877ebcf70a56b1f3db9f09f8eb4b5e", "fusion_lat": 0.0, "name": "94877ebcf70a56b1f3db9f09f8eb4b5e", "is_reserved": 0, "rental_uris": {"android": "https://dc.lft.to/lastmile_qr_scan", "ios": "https://dc.lft.to/lastmile_qr_scan"}, "fusion_lon": 0.0}, {"lat": 38.91768366666667, "is_disabled": 0, "type": "electric_scooter", "lon": -77.0045075, "bike_id": "5b04ed00a649c79c6367b0ab2a4e7352", "fusion_lat": 0.0, "name": "5b04ed00a649c79c6367b0ab2a4e7352", "is_reserved": 0, "rental_uris": {"android": "https://dc.lft.to/lastmile_qr_scan", "ios": "https://dc.lft.to/lastmile_qr_scan"}, "fusion_lon": 0.0}, {"lat": 38.89223533333333, "is_disabled": 0, "type": "electric_scooter", "lon": -77.026283, "bike_id": "73a48cb489abfd782a0108fbe8927964", "fusion_lat": 0.0, "name": "73a48cb489abfd782a0108fbe8927964", "is_reserved": 0, "rental_uris": {"android": "https://dc.lft.to/lastmile_qr_scan", "ios": "https://dc.lft.to/lastmile_qr_scan"}, "fusion_lon": 0.0}, {"lat": 38.86597583333333, "is_disabled": 0, "type": "electric_bike", "lon": -76.9323015, "bike_id": "312ebac8f915abcee2f9a52f395e4f8a", "fusion_lat": 0.0, "name": "312ebac8f915abcee2f9a52f395e4f8a", "is_reserved": 0, "rental_uris": {"android": "https://dc.lft.to/lastmile_qr_scan", "ios": "https://dc.lft.to/lastmile_qr_scan"}, "fusion_lon": 0.0}, {"lat": 38.932287, "is_disabled": 0, "type": "electric_scooter", "lon": -77.04413433333333, "bike_id": "bfaf2234b692ed3c3f50c9d3e3345610", "fusion_lat": 0.0, "name": "bfaf2234b692ed3c3f50c9d3e3345610", "is_reserved": 0, "rental_uris": {"android": "https://dc.lft.to/lastmile_qr_scan", "ios": "https://dc.lft.to/lastmile_qr_scan"}, "fusion_lon": 0.0}, {"lat": 38.852221, "is_disabled": 0, "type": "electric_bike", "lon": -77.1295535, "bike_id": "b963041a923210198fd7acbffc248199", "fusion_lat": 0.0, "name": "b963041a923210198fd7acbffc248199", "is_reserved": 0, "rental_uris": {"android": "https://dc.lft.to/lastmile_qr_scan", "ios": "https://dc.lft.to/lastmile_qr_scan"}, "fusion_lon": 0.0}, {"lat": 38.88531, "is_disabled": 0, "type": "electric_scooter", "lon": -77.01523683333333, "bike_id": "67e4cadce5a65e90cb7b7a9b1bf4a5a2", "fusion_lat": 0.0, "name": "67e4cadce5a65e90cb7b7a9b1bf4a5a2", "is_reserved": 0, "rental_uris": {"android": "https://dc.lft.to/lastmile_qr_scan", "ios": "https://dc.lft.to/lastmile_qr_scan"}, "fusion_lon": 0.0}, {"lat": 38.820077166666664, "is_disabled": 0, "type": "electric_bike", "lon": -77.05765266666667, "bike_id": "089fb25fd80566a78da6a08c33dc0d9c", "fusion_lat": 0.0, "name": "089fb25fd80566a78da6a08c33dc0d9c", "is_reserved": 0, "rental_uris": {"android": "https://dc.lft.to/lastmile_qr_scan", "ios": "https://dc.lft.to/lastmile_qr_scan"}, "fusion_lon": 0.0}, {"lat": 38.905746666666666, "is_disabled": 0, "type": "electric_scooter", "lon": -77.02174166666667, "bike_id": "bdc1445d3ce7b96078d0da5740c7764d", "fusion_lat": 0.0, "name": "bdc1445d3ce7b96078d0da5740c7764d", "is_reserved": 0, "rental_uris": {"android": "https://dc.lft.to/lastmile_qr_scan", "ios": "https://dc.lft.to/lastmile_qr_scan"}, "fusion_lon": 0.0}, {"lat": 38.9192755, "is_disabled": 0, "type": "electric_scooter", "lon": -77.0317305, "bike_id": "5d10252001b629a4aeaeb9e2c4602386", "fusion_lat": 0.0, "name": "5d10252001b629a4aeaeb9e2c4602386", "is_reserved": 0, "rental_uris": {"android": "https://dc.lft.to/lastmile_qr_scan", "ios": "https://dc.lft.to/lastmile_qr_scan"}, "fusion_lon": 0.0}, {"lat": 38.91316416666667, "is_disabled": 0, "type": "electric_scooter", "lon": -77.0144485, "bike_id": "e8992ff56c8823ebc36f05579b8c6adb", "fusion_lat": 0.0, "name": "e8992ff56c8823ebc36f05579b8c6adb", "is_reserved": 0, "rental_uris": {"android": "https://dc.lft.to/lastmile_qr_scan", "ios": "https://dc.lft.to/lastmile_qr_scan"}, "fusion_lon": 0.0}, {"lat": 38.89742366666667, "is_disabled": 0, "type": "electric_scooter", "lon": -77.00072166666666, "bike_id": "b6da628cde23efcd0a217345b230a8ab", "fusion_lat": 0.0, "name": "b6da628cde23efcd0a217345b230a8ab", "is_reserved": 0, "rental_uris": {"android": "https://dc.lft.to/lastmile_qr_scan", "ios": "https://dc.lft.to/lastmile_qr_scan"}, "fusion_lon": 0.0}, {"lat": 38.866744, "is_disabled": 0, "type": "electric_scooter", "lon": -76.98539216666667, "bike_id": "f1440a6bc8bfc823b766dfd81b35f5cd", "fusion_lat": 0.0, "name": "f1440a6bc8bfc823b766dfd81b35f5cd", "is_reserved": 0, "rental_uris": {"android": "https://dc.lft.to/lastmile_qr_scan", "ios": "https://dc.lft.to/lastmile_qr_scan"}, "fusion_lon": 0.0}, {"lat": 38.8922225, "is_disabled": 0, "type": "electric_scooter", "lon": -77.04202566666666, "bike_id": "616325b994891e18e8a7d8c1c3a0d143", "fusion_lat": 0.0, "name": "616325b994891e18e8a7d8c1c3a0d143", "is_reserved": 0, "rental_uris": {"android": "https://dc.lft.to/lastmile_qr_scan", "ios": "https://dc.lft.to/lastmile_qr_scan"}, "fusion_lon": 0.0}, {"lat": 38.87730583333333, "is_disabled": 0, "type": "electric_bike", "lon": -76.98107316666666, "bike_id": "5056c5e491020331e0212ac50a308c2f", "fusion_lat": 0.0, "name": "5056c5e491020331e0212ac50a308c2f", "is_reserved": 0, "rental_uris": {"android": "https://dc.lft.to/lastmile_qr_scan", "ios": "https://dc.lft.to/lastmile_qr_scan"}, "fusion_lon": 0.0}, {"lat": 38.897719333333335, "is_disabled": 0, "type": "electric_scooter", "lon": -77.02692383333333, "bike_id": "faf859cb1e73c316820380f5ef470718", "fusion_lat": 0.0, "name": "faf859cb1e73c316820380f5ef470718", "is_reserved": 0, "rental_uris": {"android": "https://dc.lft.to/lastmile_qr_scan", "ios": "https://dc.lft.to/lastmile_qr_scan"}, "fusion_lon": 0.0}, {"lat": 38.9178235, "is_disabled": 0, "type": "electric_scooter", "lon": -77.0366015, "bike_id": "af0edd6756a6302e4aba7a085b80d578", "fusion_lat": 0.0, "name": "af0edd6756a6302e4aba7a085b80d578", "is_reserved": 0, "rental_uris": {"android": "https://dc.lft.to/lastmile_qr_scan", "ios": "https://dc.lft.to/lastmile_qr_scan"}, "fusion_lon": 0.0}, {"lat": 38.917759833333335, "is_disabled": 0, "type": "electric_scooter", "lon": -77.01452433333333, "bike_id": "d127cfcf66702602e7eba7ed92dfa527", "fusion_lat": 0.0, "name": "d127cfcf66702602e7eba7ed92dfa527", "is_reserved": 0, "rental_uris": {"android": "https://dc.lft.to/lastmile_qr_scan", "ios": "https://dc.lft.to/lastmile_qr_scan"}, "fusion_lon": 0.0}, {"lat": 38.9097165, "is_disabled": 0, "type": "electric_scooter", "lon": -77.0387005, "bike_id": "8476c75cb00b3d5d23beac37252df12c", "fusion_lat": 0.0, "name": "8476c75cb00b3d5d23beac37252df12c", "is_reserved": 0, "rental_uris": {"android": "https://dc.lft.to/lastmile_qr_scan", "ios": "https://dc.lft.to/lastmile_qr_scan"}, "fusion_lon": 0.0}, {"lat": 38.922193166666666, "is_disabled": 0, "type": "electric_scooter", "lon": -77.0401965, "bike_id": "b804bf2df6e2e4599778d0972e88dfb5", "fusion_lat": 0.0, "name": "b804bf2df6e2e4599778d0972e88dfb5", "is_reserved": 0, "rental_uris": {"android": "https://dc.lft.to/lastmile_qr_scan", "ios": "https://dc.lft.to/lastmile_qr_scan"}, "fusion_lon": 0.0}, {"lat": 38.89879533333333, "is_disabled": 0, "type": "electric_scooter", "lon": -77.02019116666666, "bike_id": "8db819a90693792d8406b6dddafe50c8", "fusion_lat": 0.0, "name": "8db819a90693792d8406b6dddafe50c8", "is_reserved": 0, "rental_uris": {"android": "https://dc.lft.to/lastmile_qr_scan", "ios": "https://dc.lft.to/lastmile_qr_scan"}, "fusion_lon": 0.0}, {"lat": 38.93316983333333, "is_disabled": 0, "type": "electric_scooter", "lon": -77.04521466666667, "bike_id": "83e094cb441ac62882fb99bfd13d1825", "fusion_lat": 0.0, "name": "83e094cb441ac62882fb99bfd13d1825", "is_reserved": 0, "rental_uris": {"android": "https://dc.lft.to/lastmile_qr_scan", "ios": "https://dc.lft.to/lastmile_qr_scan"}, "fusion_lon": 0.0}, {"lat": 38.9058445, "is_disabled": 0, "type": "electric_scooter", "lon": -77.04866216666667, "bike_id": "b0dcba5c6be1560543c57cb8c7744bcf", "fusion_lat": 0.0, "name": "b0dcba5c6be1560543c57cb8c7744bcf", "is_reserved": 0, "rental_uris": {"android": "https://dc.lft.to/lastmile_qr_scan", "ios": "https://dc.lft.to/lastmile_qr_scan"}, "fusion_lon": 0.0}, {"lat": 38.90111183333333, "is_disabled": 0, "type": "electric_scooter", "lon": -76.996219, "bike_id": "41b8de72a8a96cb277011f5a27de3d8e", "fusion_lat": 0.0, "name": "41b8de72a8a96cb277011f5a27de3d8e", "is_reserved": 0, "rental_uris": {"android": "https://dc.lft.to/lastmile_qr_scan", "ios": "https://dc.lft.to/lastmile_qr_scan"}, "fusion_lon": 0.0}, {"lat": 38.921824666666666, "is_disabled": 0, "type": "electric_scooter", "lon": -77.04716233333333, "bike_id": "6b49f09a64538e3e022cdc1649c5c528", "fusion_lat": 0.0, "name": "6b49f09a64538e3e022cdc1649c5c528", "is_reserved": 0, "rental_uris": {"android": "https://dc.lft.to/lastmile_qr_scan", "ios": "https://dc.lft.to/lastmile_qr_scan"}, "fusion_lon": 0.0}, {"lat": 38.902644, "is_disabled": 0, "type": "electric_scooter", "lon": -77.03990216666666, "bike_id": "a23c5bd69e08e7418b99931ab33189ad", "fusion_lat": 0.0, "name": "a23c5bd69e08e7418b99931ab33189ad", "is_reserved": 0, "rental_uris": {"android": "https://dc.lft.to/lastmile_qr_scan", "ios": "https://dc.lft.to/lastmile_qr_scan"}, "fusion_lon": 0.0}, {"lat": 38.892193, "is_disabled": 0, "type": "electric_scooter", "lon": -77.0316205, "bike_id": "4fbadf1d45d3ea7011338b0475d7c53c", "fusion_lat": 0.0, "name": "4fbadf1d45d3ea7011338b0475d7c53c", "is_reserved": 0, "rental_uris": {"android": "https://dc.lft.to/lastmile_qr_scan", "ios": "https://dc.lft.to/lastmile_qr_scan"}, "fusion_lon": 0.0}, {"lat": 38.93745716666667, "is_disabled": 0, "type": "electric_scooter", "lon": -77.03474916666667, "bike_id": "a154076f5b25a4dd200f7842f023b678", "fusion_lat": 0.0, "name": "a154076f5b25a4dd200f7842f023b678", "is_reserved": 0, "rental_uris": {"android": "https://dc.lft.to/lastmile_qr_scan", "ios": "https://dc.lft.to/lastmile_qr_scan"}, "fusion_lon": 0.0}, {"lat": 38.90968216666667, "is_disabled": 0, "type": "electric_scooter", "lon": -77.0227555, "bike_id": "5b7f9e3fe4ff5ef03de1de034fb61db6", "fusion_lat": 0.0, "name": "5b7f9e3fe4ff5ef03de1de034fb61db6", "is_reserved": 0, "rental_uris": {"android": "https://dc.lft.to/lastmile_qr_scan", "ios": "https://dc.lft.to/lastmile_qr_scan"}, "fusion_lon": 0.0}, {"lat": 38.90971866666667, "is_disabled": 0, "type": "electric_scooter", "lon": -77.0384205, "bike_id": "4a338e747c24b0dd5d0982c74d4ef75d", "fusion_lat": 0.0, "name": "4a338e747c24b0dd5d0982c74d4ef75d", "is_reserved": 0, "rental_uris": {"android": "https://dc.lft.to/lastmile_qr_scan", "ios": "https://dc.lft.to/lastmile_qr_scan"}, "fusion_lon": 0.0}, {"lat": 38.90515666666667, "is_disabled": 0, "type": "electric_scooter", "lon": -77.05151316666667, "bike_id": "ee80a37b429d486ea8d346c3a136c94f", "fusion_lat": 0.0, "name": "ee80a37b429d486ea8d346c3a136c94f", "is_reserved": 0, "rental_uris": {"android": "https://dc.lft.to/lastmile_qr_scan", "ios": "https://dc.lft.to/lastmile_qr_scan"}, "fusion_lon": 0.0}, {"lat": 38.8857735, "is_disabled": 0, "type": "electric_scooter", "lon": -76.91910533333333, "bike_id": "84ceb3cac2efdcf7c19d940db8ef2e6a", "fusion_lat": 0.0, "name": "84ceb3cac2efdcf7c19d940db8ef2e6a", "is_reserved": 0, "rental_uris": {"android": "https://dc.lft.to/lastmile_qr_scan", "ios": "https://dc.lft.to/lastmile_qr_scan"}, "fusion_lon": 0.0}, {"lat": 38.9255535, "is_disabled": 0, "type": "electric_scooter", "lon": -77.03218483333333, "bike_id": "63b9701372e825d4a30f5b1dc2cdb036", "fusion_lat": 0.0, "name": "63b9701372e825d4a30f5b1dc2cdb036", "is_reserved": 0, "rental_uris": {"android": "https://dc.lft.to/lastmile_qr_scan", "ios": "https://dc.lft.to/lastmile_qr_scan"}, "fusion_lon": 0.0}, {"lat": 38.9275395, "is_disabled": 0, "type": "electric_scooter", "lon": -77.02422383333334, "bike_id": "c7549be1fd97376140cc419d45ca7f84", "fusion_lat": 0.0, "name": "c7549be1fd97376140cc419d45ca7f84", "is_reserved": 0, "rental_uris": {"android": "https://dc.lft.to/lastmile_qr_scan", "ios": "https://dc.lft.to/lastmile_qr_scan"}, "fusion_lon": 0.0}, {"lat": 38.9277155, "is_disabled": 0, "type": "electric_scooter", "lon": -77.02776766666666, "bike_id": "d6265808efa8aaa5b0c1f277c4dd99b8", "fusion_lat": 0.0, "name": "d6265808efa8aaa5b0c1f277c4dd99b8", "is_reserved": 0, "rental_uris": {"android": "https://dc.lft.to/lastmile_qr_scan", "ios": "https://dc.lft.to/lastmile_qr_scan"}, "fusion_lon": 0.0}, {"lat": 38.9479505, "is_disabled": 0, "type": "electric_scooter", "lon": -77.021697, "bike_id": "e7d1930e76b81edf333cdf4e1c2f4085", "fusion_lat": 0.0, "name": "e7d1930e76b81edf333cdf4e1c2f4085", "is_reserved": 0, "rental_uris": {"android": "https://dc.lft.to/lastmile_qr_scan", "ios": "https://dc.lft.to/lastmile_qr_scan"}, "fusion_lon": 0.0}, {"lat": 38.921724, "is_disabled": 0, "type": "electric_scooter", "lon": -77.03208583333333, "bike_id": "829e6c7e05f6143dfd2ead96dd58ea05", "fusion_lat": 0.0, "name": "829e6c7e05f6143dfd2ead96dd58ea05", "is_reserved": 0, "rental_uris": {"android": "https://dc.lft.to/lastmile_qr_scan", "ios": "https://dc.lft.to/lastmile_qr_scan"}, "fusion_lon": 0.0}, {"lat": 38.9446125, "is_disabled": 0, "type": "electric_scooter", "lon": -77.0065965, "bike_id": "75adaf23b673b5eaff5c89e3bf45022c", "fusion_lat": 0.0, "name": "75adaf23b673b5eaff5c89e3bf45022c", "is_reserved": 0, "rental_uris": {"android": "https://dc.lft.to/lastmile_qr_scan", "ios": "https://dc.lft.to/lastmile_qr_scan"}, "fusion_lon": 0.0}, {"lat": 38.90241483333333, "is_disabled": 0, "type": "electric_scooter", "lon": -77.0020155, "bike_id": "bc8873f99660e5d770b08372423b4306", "fusion_lat": 0.0, "name": "bc8873f99660e5d770b08372423b4306", "is_reserved": 0, "rental_uris": {"android": "https://dc.lft.to/lastmile_qr_scan", "ios": "https://dc.lft.to/lastmile_qr_scan"}, "fusion_lon": 0.0}, {"lat": 38.90558566666667, "is_disabled": 0, "type": "electric_scooter", "lon": -77.0073225, "bike_id": "882b161e3977747716620d3e1679744a", "fusion_lat": 0.0, "name": "882b161e3977747716620d3e1679744a", "is_reserved": 0, "rental_uris": {"android": "https://dc.lft.to/lastmile_qr_scan", "ios": "https://dc.lft.to/lastmile_qr_scan"}, "fusion_lon": 0.0}, {"lat": 38.891776666666665, "is_disabled": 0, "type": "electric_scooter", "lon": -77.0320885, "bike_id": "7f1eb20f934ad2b025f76a93608b4687", "fusion_lat": 0.0, "name": "7f1eb20f934ad2b025f76a93608b4687", "is_reserved": 0, "rental_uris": {"android": "https://dc.lft.to/lastmile_qr_scan", "ios": "https://dc.lft.to/lastmile_qr_scan"}, "fusion_lon": 0.0}, {"lat": 38.916829, "is_disabled": 0, "type": "electric_scooter", "lon": -77.02976166666667, "bike_id": "751f95e9f170184237241bfb904f5a10", "fusion_lat": 0.0, "name": "751f95e9f170184237241bfb904f5a10", "is_reserved": 0, "rental_uris": {"android": "https://dc.lft.to/lastmile_qr_scan", "ios": "https://dc.lft.to/lastmile_qr_scan"}, "fusion_lon": 0.0}, {"lat": 38.8621125, "is_disabled": 0, "type": "electric_bike", "lon": -76.9977875, "bike_id": "325678102ea252d01ce0c9f2e0599fe3", "fusion_lat": 0.0, "name": "325678102ea252d01ce0c9f2e0599fe3", "is_reserved": 0, "rental_uris": {"android": "https://dc.lft.to/lastmile_qr_scan", "ios": "https://dc.lft.to/lastmile_qr_scan"}, "fusion_lon": 0.0}, {"lat": 38.87066733333333, "is_disabled": 0, "type": "electric_scooter", "lon": -77.00840116666667, "bike_id": "be99ace82f60a21ab4d7adf0f5553991", "fusion_lat": 0.0, "name": "be99ace82f60a21ab4d7adf0f5553991", "is_reserved": 0, "rental_uris": {"android": "https://dc.lft.to/lastmile_qr_scan", "ios": "https://dc.lft.to/lastmile_qr_scan"}, "fusion_lon": 0.0}, {"lat": 38.928160166666665, "is_disabled": 0, "type": "electric_scooter", "lon": -77.02880116666667, "bike_id": "0fc5c14ba8c9d71b44e7e1d025ccee14", "fusion_lat": 0.0, "name": "0fc5c14ba8c9d71b44e7e1d025ccee14", "is_reserved": 0, "rental_uris": {"android": "https://dc.lft.to/lastmile_qr_scan", "ios": "https://dc.lft.to/lastmile_qr_scan"}, "fusion_lon": 0.0}, {"lat": 38.9192685, "is_disabled": 0, "type": "electric_scooter", "lon": -77.03426883333333, "bike_id": "eef9a2ee4511b9179d55c20136de496c", "fusion_lat": 0.0, "name": "eef9a2ee4511b9179d55c20136de496c", "is_reserved": 0, "rental_uris": {"android": "https://dc.lft.to/lastmile_qr_scan", "ios": "https://dc.lft.to/lastmile_qr_scan"}, "fusion_lon": 0.0}, {"lat": 38.86677266666667, "is_disabled": 0, "type": "electric_scooter", "lon": -76.98542233333333, "bike_id": "6b70e6617f294a57e8c3b64c3ea018c4", "fusion_lat": 0.0, "name": "6b70e6617f294a57e8c3b64c3ea018c4", "is_reserved": 0, "rental_uris": {"android": "https://dc.lft.to/lastmile_qr_scan", "ios": "https://dc.lft.to/lastmile_qr_scan"}, "fusion_lon": 0.0}, {"lat": 38.89221416666667, "is_disabled": 0, "type": "electric_scooter", "lon": -77.02317733333334, "bike_id": "6684011fed6f7098ea6c2378d6f0a011", "fusion_lat": 0.0, "name": "6684011fed6f7098ea6c2378d6f0a011", "is_reserved": 0, "rental_uris": {"android": "https://dc.lft.to/lastmile_qr_scan", "ios": "https://dc.lft.to/lastmile_qr_scan"}, "fusion_lon": 0.0}, {"lat": 38.90071783333333, "is_disabled": 0, "type": "electric_scooter", "lon": -77.00208666666667, "bike_id": "49eb3403318f0d38a471cf24c4e26b35", "fusion_lat": 0.0, "name": "49eb3403318f0d38a471cf24c4e26b35", "is_reserved": 0, "rental_uris": {"android": "https://dc.lft.to/lastmile_qr_scan", "ios": "https://dc.lft.to/lastmile_qr_scan"}, "fusion_lon": 0.0}, {"lat": 38.90741716666667, "is_disabled": 0, "type": "electric_scooter", "lon": -77.03477533333333, "bike_id": "3e7b072b1dd59f8b8febe8fcf9c93900", "fusion_lat": 0.0, "name": "3e7b072b1dd59f8b8febe8fcf9c93900", "is_reserved": 0, "rental_uris": {"android": "https://dc.lft.to/lastmile_qr_scan", "ios": "https://dc.lft.to/lastmile_qr_scan"}, "fusion_lon": 0.0}, {"lat": 38.92161, "is_disabled": 0, "type": "electric_scooter", "lon": -77.02087033333333, "bike_id": "b25bf0edfc790b49a95a464c1dc07c44", "fusion_lat": 0.0, "name": "b25bf0edfc790b49a95a464c1dc07c44", "is_reserved": 0, "rental_uris": {"android": "https://dc.lft.to/lastmile_qr_scan", "ios": "https://dc.lft.to/lastmile_qr_scan"}, "fusion_lon": 0.0}, {"lat": 38.910148166666666, "is_disabled": 0, "type": "electric_scooter", "lon": -77.0221325, "bike_id": "00dc09fdf7c5227804780c21303556fc", "fusion_lat": 0.0, "name": "00dc09fdf7c5227804780c21303556fc", "is_reserved": 0, "rental_uris": {"android": "https://dc.lft.to/lastmile_qr_scan", "ios": "https://dc.lft.to/lastmile_qr_scan"}, "fusion_lon": 0.0}, {"lat": 38.912981, "is_disabled": 0, "type": "electric_scooter", "lon": -77.02397933333333, "bike_id": "e8f29f97dafd193984c772d4678290ab", "fusion_lat": 0.0, "name": "e8f29f97dafd193984c772d4678290ab", "is_reserved": 0, "rental_uris": {"android": "https://dc.lft.to/lastmile_qr_scan", "ios": "https://dc.lft.to/lastmile_qr_scan"}, "fusion_lon": 0.0}, {"lat": 38.9035865, "is_disabled": 0, "type": "electric_scooter", "lon": -77.0447, "bike_id": "4478cc4174640082dcc3c02f7df7a2da", "fusion_lat": 0.0, "name": "4478cc4174640082dcc3c02f7df7a2da", "is_reserved": 0, "rental_uris": {"android": "https://dc.lft.to/lastmile_qr_scan", "ios": "https://dc.lft.to/lastmile_qr_scan"}, "fusion_lon": 0.0}, {"lat": 38.933612333333336, "is_disabled": 0, "type": "electric_bike", "lon": -77.09963833333333, "bike_id": "f30bfc26febc55dc90afe6d87359886d", "fusion_lat": 0.0, "name": "f30bfc26febc55dc90afe6d87359886d", "is_reserved": 0, "rental_uris": {"android": "https://dc.lft.to/lastmile_qr_scan", "ios": "https://dc.lft.to/lastmile_qr_scan"}, "fusion_lon": 0.0}, {"lat": 38.919277, "is_disabled": 0, "type": "electric_scooter", "lon": -77.03180733333333, "bike_id": "f44bf2a601b7b85484b820473fa0cc02", "fusion_lat": 0.0, "name": "f44bf2a601b7b85484b820473fa0cc02", "is_reserved": 0, "rental_uris": {"android": "https://dc.lft.to/lastmile_qr_scan", "ios": "https://dc.lft.to/lastmile_qr_scan"}, "fusion_lon": 0.0}, {"lat": 38.902665999999996, "is_disabled": 0, "type": "electric_scooter", "lon": -77.03938, "bike_id": "056edcad046a97bbf17689a827e10bfb", "fusion_lat": 0.0, "name": "056edcad046a97bbf17689a827e10bfb", "is_reserved": 0, "rental_uris": {"android": "https://dc.lft.to/lastmile_qr_scan", "ios": "https://dc.lft.to/lastmile_qr_scan"}, "fusion_lon": 0.0}, {"lat": 38.91681883333333, "is_disabled": 0, "type": "electric_scooter", "lon": -77.01237, "bike_id": "6fbcb36fc179ecbe0adb2e7d61f30096", "fusion_lat": 0.0, "name": "6fbcb36fc179ecbe0adb2e7d61f30096", "is_reserved": 0, "rental_uris": {"android": "https://dc.lft.to/lastmile_qr_scan", "ios": "https://dc.lft.to/lastmile_qr_scan"}, "fusion_lon": 0.0}, {"lat": 38.9650465, "is_disabled": 0, "type": "electric_bike", "lon": -77.02826083333333, "bike_id": "c2221bb5e6b8bbb87a6ac48cc6aee799", "fusion_lat": 0.0, "name": "c2221bb5e6b8bbb87a6ac48cc6aee799", "is_reserved": 0, "rental_uris": {"android": "https://dc.lft.to/lastmile_qr_scan", "ios": "https://dc.lft.to/lastmile_qr_scan"}, "fusion_lon": 0.0}, {"lat": 38.92062766666667, "is_disabled": 0, "type": "electric_scooter", "lon": -77.07881783333333, "bike_id": "42d7aedeea2f02c7b274e0d6b67e4d7e", "fusion_lat": 0.0, "name": "42d7aedeea2f02c7b274e0d6b67e4d7e", "is_reserved": 0, "rental_uris": {"android": "https://dc.lft.to/lastmile_qr_scan", "ios": "https://dc.lft.to/lastmile_qr_scan"}, "fusion_lon": 0.0}, {"lat": 38.93414383333333, "is_disabled": 0, "type": "electric_scooter", "lon": -77.03294333333334, "bike_id": "ddfc0be3709b426f4535a0310beafd2f", "fusion_lat": 0.0, "name": "ddfc0be3709b426f4535a0310beafd2f", "is_reserved": 0, "rental_uris": {"android": "https://dc.lft.to/lastmile_qr_scan", "ios": "https://dc.lft.to/lastmile_qr_scan"}, "fusion_lon": 0.0}, {"lat": 38.883661000000004, "is_disabled": 0, "type": "electric_scooter", "lon": -76.94153733333333, "bike_id": "c7d40b50a1a46f2eda5b993b394dec2d", "fusion_lat": 0.0, "name": "c7d40b50a1a46f2eda5b993b394dec2d", "is_reserved": 0, "rental_uris": {"android": "https://dc.lft.to/lastmile_qr_scan", "ios": "https://dc.lft.to/lastmile_qr_scan"}, "fusion_lon": 0.0}, {"lat": 38.92532516666667, "is_disabled": 0, "type": "electric_scooter", "lon": -77.02640366666667, "bike_id": "812ed74ba9573e11f8228c6e2b264808", "fusion_lat": 0.0, "name": "812ed74ba9573e11f8228c6e2b264808", "is_reserved": 0, "rental_uris": {"android": "https://dc.lft.to/lastmile_qr_scan", "ios": "https://dc.lft.to/lastmile_qr_scan"}, "fusion_lon": 0.0}, {"lat": 38.90978666666667, "is_disabled": 0, "type": "electric_scooter", "lon": -77.031844, "bike_id": "ff8dda0e0843406071f540005ec4822b", "fusion_lat": 0.0, "name": "ff8dda0e0843406071f540005ec4822b", "is_reserved": 0, "rental_uris": {"android": "https://dc.lft.to/lastmile_qr_scan", "ios": "https://dc.lft.to/lastmile_qr_scan"}, "fusion_lon": 0.0}, {"lat": 38.936083333333336, "is_disabled": 0, "type": "electric_scooter", "lon": -77.05859133333334, "bike_id": "1c73f7d07c5c34be5c5c702db5beb08e", "fusion_lat": 0.0, "name": "1c73f7d07c5c34be5c5c702db5beb08e", "is_reserved": 0, "rental_uris": {"android": "https://dc.lft.to/lastmile_qr_scan", "ios": "https://dc.lft.to/lastmile_qr_scan"}, "fusion_lon": 0.0}, {"lat": 38.91684383333333, "is_disabled": 0, "type": "electric_scooter", "lon": -77.002017, "bike_id": "14da93b97825f5b288888812f5f93ebb", "fusion_lat": 0.0, "name": "14da93b97825f5b288888812f5f93ebb", "is_reserved": 0, "rental_uris": {"android": "https://dc.lft.to/lastmile_qr_scan", "ios": "https://dc.lft.to/lastmile_qr_scan"}, "fusion_lon": 0.0}, {"lat": 38.958764333333335, "is_disabled": 0, "type": "electric_bike", "lon": -76.9248285, "bike_id": "5b6710429b9bc2891b14f0f31915c197", "fusion_lat": 0.0, "name": "5b6710429b9bc2891b14f0f31915c197", "is_reserved": 0, "rental_uris": {"android": "https://dc.lft.to/lastmile_qr_scan", "ios": "https://dc.lft.to/lastmile_qr_scan"}, "fusion_lon": 0.0}, {"lat": 38.9194115, "is_disabled": 0, "type": "electric_scooter", "lon": -77.02593083333333, "bike_id": "4bdf0244c512100c0eac0ad3b178b5af", "fusion_lat": 0.0, "name": "4bdf0244c512100c0eac0ad3b178b5af", "is_reserved": 0, "rental_uris": {"android": "https://dc.lft.to/lastmile_qr_scan", "ios": "https://dc.lft.to/lastmile_qr_scan"}, "fusion_lon": 0.0}, {"lat": 38.8715185, "is_disabled": 0, "type": "electric_scooter", "lon": -77.01191133333333, "bike_id": "d9de57a2b6acee14b97247bd455996c4", "fusion_lat": 0.0, "name": "d9de57a2b6acee14b97247bd455996c4", "is_reserved": 0, "rental_uris": {"android": "https://dc.lft.to/lastmile_qr_scan", "ios": "https://dc.lft.to/lastmile_qr_scan"}, "fusion_lon": 0.0}, {"lat": 38.92240616666667, "is_disabled": 0, "type": "electric_scooter", "lon": -77.0435345, "bike_id": "edfa1ce1850c3cd604d8a1ba7202b833", "fusion_lat": 0.0, "name": "edfa1ce1850c3cd604d8a1ba7202b833", "is_reserved": 0, "rental_uris": {"android": "https://dc.lft.to/lastmile_qr_scan", "ios": "https://dc.lft.to/lastmile_qr_scan"}, "fusion_lon": 0.0}, {"lat": 38.919346166666664, "is_disabled": 0, "type": "electric_scooter", "lon": -76.970181, "bike_id": "b42bbb9eb152d9e88595cd85230cbd53", "fusion_lat": 0.0, "name": "b42bbb9eb152d9e88595cd85230cbd53", "is_reserved": 0, "rental_uris": {"android": "https://dc.lft.to/lastmile_qr_scan", "ios": "https://dc.lft.to/lastmile_qr_scan"}, "fusion_lon": 0.0},