{"data": {"bikes": [{"fusion_lat": 0.0, "name": "6be19c66701d34bc332cf8f91135b744", "is_disabled": 0, "rental_uris": {"android": "https://dc.lft.to/lastmile_qr_scan", "ios": "https://dc.lft.to/lastmile_qr_scan"}, "fusion_lon": 0.0, "lat": 38.9206965, "bike_id": "6be19c66701d34bc332cf8f91135b744", "type": "electric_scooter", "is_reserved": 0, "lon": -77.0240995}, {"fusion_lat": 0.0, "name": "c402c06bf07ad14ccdcb1f3908723493", "is_disabled": 0, "rental_uris": {"android": "https://dc.lft.to/lastmile_qr_scan", "ios": "https://dc.lft.to/lastmile_qr_scan"}, "fusion_lon": 0.0, "lat": 38.917054666666665, "bike_id": "c402c06bf07ad14ccdcb1f3908723493", "type": "electric_scooter", "is_reserved": 0, "lon": -77.03475466666667}, {"fusion_lat": 0.0, "name": "5cbbd47ca6c2cf145e35b02ef87cf889", "is_disabled": 0, "rental_uris": {"android": "https://dc.lft.to/lastmile_qr_scan", "ios": "https://dc.lft.to/lastmile_qr_scan"}, "fusion_lon": 0.0, "lat": 38.8922155, "bike_id": "5cbbd47ca6c2cf145e35b02ef87cf889", "type": "electric_scooter", "is_reserved": 0, "lon": -77.046847}, {"fusion_lat": 0.0, "name": "9c13fc4844cb1bbd1a54d99fa78ccc16", "is_disabled": 0, "rental_uris": {"android": "https://dc.lft.to/lastmile_qr_scan", "ios": "https://dc.lft.to/lastmile_qr_scan"}, "fusion_lon": 0.0, "lat": 38.96235733333333, "bike_id": "9c13fc4844cb1bbd1a54d99fa78ccc16", "type": "electric_bike", "is_reserved": 0, "lon": -76.92760433333333}, {"fusion_lat": 0.0, "name": "24c0fd616ed6152d3258f14c49527b6d", "is_disabled": 0, "rental_uris": {"android": "https://dc.lft.to/lastmile_qr_scan", "ios": "https://dc.lft.to/lastmile_qr_scan"}, "fusion_lon": 0.0, "lat": 38.918379333333334, "bike_id": "24c0fd616ed6152d3258f14c49527b6d", "type": "electric_scooter", "is_reserved": 0, "lon": -77.024435}, {"fusion_lat": 0.0, "name": "59ffdef803d5d57fa5b42bebcc667276", "is_disabled": 0, "rental_uris": {"android": "https://dc.lft.to/lastmile_qr_scan", "ios": "https://dc.lft.to/lastmile_qr_scan"}, "fusion_lon": 0.0, "lat": 38.90252316666667, "bike_id": "59ffdef803d5d57fa5b42bebcc667276", "type": "electric_scooter", "is_reserved": 0, "lon": -77.018738}, {"fusion_lat": 0.0, "name": "9b0959647dff9d0569db61490a727bcb", "is_disabled": 0, "rental_uris": {"android": "https://dc.lft.to/lastmile_qr_scan", "ios": "https://dc.lft.to/lastmile_qr_scan"}, "fusion_lon": 0.0, "lat": 38.910676, "bike_id": "9b0959647dff9d0569db61490a727bcb", "type": "electric_scooter", "is_reserved": 0, "lon": -77.004755}, {"fusion_lat": 0.0, "name": "78a5a36383195af72a29b7863d6945f8", "is_disabled": 0, "rental_uris": {"android": "https://dc.lft.to/lastmile_qr_scan", "ios": "https://dc.lft.to/lastmile_qr_scan"}, "fusion_lon": 0.0, "lat": 38.8974485, "bike_id": "78a5a36383195af72a29b7863d6945f8", "type": "electric_scooter", "is_reserved": 0, "lon": -77.04864783333333}, {"fusion_lat": 0.0, "name": "cd7fd75ebd700c4db5e61142ddb808e0", "is_disabled": 0, "rental_uris": {"android": "https://dc.lft.to/lastmile_qr_scan", "ios": "https://dc.lft.to/lastmile_qr_scan"}, "fusion_lon": 0.0, "lat": 38.9057795, "bike_id": "cd7fd75ebd700c4db5e61142ddb808e0", "type": "electric_scooter", "is_reserved": 0, "lon": -77.02204766666667}, {"fusion_lat": 0.0, "name": "6b202f8757309add44201fc358692d53", "is_disabled": 0, "rental_uris": {"android": "https://dc.lft.to/lastmile_qr_scan", "ios": "https://dc.lft.to/lastmile_qr_scan"}, "fusion_lon": 0.0, "lat": 38.9420325, "bike_id": "6b202f8757309add44201fc358692d53", "type": "electric_scooter", "is_reserved": 0, "lon": -77.02592266666667}, {"fusion_lat": 0.0, "name": "454edbd6d34bcffc6a83e3509db949e2", "is_disabled": 0, "rental_uris": {"android": "https://dc.lft.to/lastmile_qr_scan", "ios": "https://dc.lft.to/lastmile_qr_scan"}, "fusion_lon": 0.0, "lat": 38.866792833333335, "bike_id": "454edbd6d34bcffc6a83e3509db949e2", "type": "electric_bike", "is_reserved": 0, "lon": -76.98235733333334}, {"fusion_lat": 0.0, "name": "b20a021f2e50384c944d1f92ddfbb2e3", "is_disabled": 0, "rental_uris": {"android": "https://dc.lft.to/lastmile_qr_scan", "ios": "https://dc.lft.to/lastmile_qr_scan"}, "fusion_lon": 0.0, "lat": 38.902105666666664, "bike_id": "b20a021f2e50384c944d1f92ddfbb2e3", "type": "electric_scooter", "is_reserved": 0, "lon": -77.0221625}, {"fusion_lat": 0.0, "name": "b4452534b69e2015e68c087e13f0545c", "is_disabled": 0, "rental_uris": {"android": "https://dc.lft.to/lastmile_qr_scan", "ios": "https://dc.lft.to/lastmile_qr_scan"}, "fusion_lon": 0.0, "lat": 38.905823833333336, "bike_id": "b4452534b69e2015e68c087e13f0545c", "type": "electric_scooter", "is_reserved": 0, "lon": -77.03357433333333}, {"fusion_lat": 0.0, "name": "d398cc77700045badb4331fd053af2b1", "is_disabled": 0, "rental_uris": {"android": "https://dc.lft.to/lastmile_qr_scan", "ios": "https://dc.lft.to/lastmile_qr_scan"}, "fusion_lon": 0.0, "lat": 38.91801916666667, "bike_id": "d398cc77700045badb4331fd053af2b1", "type": "electric_scooter", "is_reserved": 0, "lon": -77.0344095}, {"fusion_lat": 0.0, "name": "d558b09509593ada9f7d7ca31633fcbe", "is_disabled": 0, "rental_uris": {"android": "https://dc.lft.to/lastmile_qr_scan", "ios": "https://dc.lft.to/lastmile_qr_scan"}, "fusion_lon": 0.0, "lat": 38.93409333333334, "bike_id": "d558b09509593ada9f7d7ca31633fcbe", "type": "electric_scooter", "is_reserved": 0, "lon": -77.01964033333333}, {"fusion_lat": 0.0, "name": "0cfebb0ea778dafcbcb0a9a6d9b39fc2", "is_disabled": 0, "rental_uris": {"android": "https://dc.lft.to/lastmile_qr_scan", "ios": "https://dc.lft.to/lastmile_qr_scan"}, "fusion_lon": 0.0, "lat": 38.917090333333334, "bike_id": "0cfebb0ea778dafcbcb0a9a6d9b39fc2", "type": "electric_scooter", "is_reserved": 0, "lon": -77.03867183333334}, {"fusion_lat": 0.0, "name": "97d9d28720bf771151802074edb1c231", "is_disabled": 0, "rental_uris": {"android": "https://dc.lft.to/lastmile_qr_scan", "ios": "https://dc.lft.to/lastmile_qr_scan"}, "fusion_lon": 0.0, "lat": 38.949514666666666, "bike_id": "97d9d28720bf771151802074edb1c231", "type": "electric_scooter", "is_reserved": 0, "lon": -77.02318233333334}, {"fusion_lat": 0.0, "name": "8c727b2be0f2157626ad2b395218c9ca", "is_disabled": 0, "rental_uris": {"android": "https://dc.lft.to/lastmile_qr_scan", "ios": "https://dc.lft.to/lastmile_qr_scan"}, "fusion_lon": 0.0, "lat": 38.879401333333334, "bike_id": "8c727b2be0f2157626ad2b395218c9ca", "type": "electric_scooter", "is_reserved": 0, "lon": -77.0085085}, {"fusion_lat": 0.0, "name": "b5f65450a92e3704dad05ce5df26d613", "is_disabled": 0, "rental_uris": {"android": "https://dc.lft.to/lastmile_qr_scan", "ios": "https://dc.lft.to/lastmile_qr_scan"}, "fusion_lon": 0.0, "lat": 38.93293083333333, "bike_id": "b5f65450a92e3704dad05ce5df26d613", "type": "electric_scooter", "is_reserved": 0, "lon": -77.02799133333333}, {"fusion_lat": 0.0, "name": "f3fd11a424807ab0c74f1252e4c763a0", "is_disabled": 0, "rental_uris": {"android": "https://dc.lft.to/lastmile_qr_scan", "ios": "https://dc.lft.to/lastmile_qr_scan"}, "fusion_lon": 0.0, "lat": 38.928474333333334, "bike_id": "f3fd11a424807ab0c74f1252e4c763a0", "type": "electric_scooter", "is_reserved": 0, "lon": -77.03302166666667}, {"fusion_lat": 0.0, "name": "b66b904c7d55c188e96e68140bee4c0a", "is_disabled": 0, "rental_uris": {"android": "https://dc.lft.to/lastmile_qr_scan", "ios": "https://dc.lft.to/lastmile_qr_scan"}, "fusion_lon": 0.0, "lat": 38.91935316666667, "bike_id": "b66b904c7d55c188e96e68140bee4c0a", "type": "electric_scooter", "is_reserved": 0, "lon": -77.03943383333333}, {"fusion_lat": 0.0, "name": "f933d8dbb5914355994940ee67375b2f", "is_disabled": 0, "rental_uris": {"android": "https://dc.lft.to/lastmile_qr_scan", "ios": "https://dc.lft.to/lastmile_qr_scan"}, "fusion_lon": 0.0, "lat": 38.902429166666664, "bike_id": "f933d8dbb5914355994940ee67375b2f", "type": "electric_scooter", "is_reserved": 0, "lon": -77.03166883333333}, {"fusion_lat": 0.0, "name": "a667898cb59d2d4cad81aba5600edfd8", "is_disabled": 0, "rental_uris": {"android": "https://dc.lft.to/lastmile_qr_scan", "ios": "https://dc.lft.to/lastmile_qr_scan"}, "fusion_lon": 0.0, "lat": 38.90591916666666, "bike_id": "a667898cb59d2d4cad81aba5600edfd8", "type": "electric_scooter", "is_reserved": 0, "lon": -77.03368066666667}, {"fusion_lat": 0.0, "name": "4fe696a0a53d22b2b662205c16d34f27", "is_disabled": 0, "rental_uris": {"android": "https://dc.lft.to/lastmile_qr_scan", "ios": "https://dc.lft.to/lastmile_qr_scan"}, "fusion_lon": 0.0, "lat": 38.924223166666664, "bike_id": "4fe696a0a53d22b2b662205c16d34f27", "type": "electric_scooter", "is_reserved": 0, "lon": -77.02270033333333}, {"fusion_lat": 0.0, "name": "4e941522e1c963be85e51e2a37ce64b7", "is_disabled": 0, "rental_uris": {"android": "https://dc.lft.to/lastmile_qr_scan", "ios": "https://dc.lft.to/lastmile_qr_scan"}, "fusion_lon": 0.0, "lat": 38.956878, "bike_id": "4e941522e1c963be85e51e2a37ce64b7", "type": "electric_scooter", "is_reserved": 0, "lon": -77.0324985}, {"fusion_lat": 0.0, "name": "9097454d508ca237af96c95f33467f3a", "is_disabled": 0, "rental_uris": {"android": "https://dc.lft.to/lastmile_qr_scan", "ios": "https://dc.lft.to/lastmile_qr_scan"}, "fusion_lon": 0.0, "lat": 38.9335605, "bike_id": "9097454d508ca237af96c95f33467f3a", "type": "electric_scooter", "is_reserved": 0, "lon": -77.02429416666666}, {"fusion_lat": 0.0, "name": "25c72b2b94cbae7b15e69dc24467b52e", "is_disabled": 0, "rental_uris": {"android": "https://dc.lft.to/lastmile_qr_scan", "ios": "https://dc.lft.to/lastmile_qr_scan"}, "fusion_lon": 0.0, "lat": 38.9245315, "bike_id": "25c72b2b94cbae7b15e69dc24467b52e", "type": "electric_scooter", "is_reserved": 0, "lon": -77.033193}, {"fusion_lat": 0.0, "name": "07fb05f3a3b7e6ac351abf53f40ea506", "is_disabled": 0, "rental_uris": {"android": "https://dc.lft.to/lastmile_qr_scan", "ios": "https://dc.lft.to/lastmile_qr_scan"}, "fusion_lon": 0.0, "lat": 38.892222333333336, "bike_id": "07fb05f3a3b7e6ac351abf53f40ea506", "type": "electric_scooter", "is_reserved": 0, "lon": -77.04682466666667}, {"fusion_lat": 0.0, "name": "f3aa38e4f2e042fa26bc80ab65386d5a", "is_disabled": 0, "rental_uris": {"android": "https://dc.lft.to/lastmile_qr_scan", "ios": "https://dc.lft.to/lastmile_qr_scan"}, "fusion_lon": 0.0, "lat": 38.88996483333333, "bike_id": "f3aa38e4f2e042fa26bc80ab65386d5a", "type": "electric_scooter", "is_reserved": 0, "lon": -76.98233116666667}, {"fusion_lat": 0.0, "name": "65c008e9070b4a2da5db5dd06970fdfc", "is_disabled": 0, "rental_uris": {"android": "https://dc.lft.to/lastmile_qr_scan", "ios": "https://dc.lft.to/lastmile_qr_scan"}, "fusion_lon": 0.0, "lat": 38.9156635, "bike_id": "65c008e9070b4a2da5db5dd06970fdfc", "type": "electric_scooter", "is_reserved": 0, "lon": -77.041644}, {"fusion_lat": 0.0, "name": "81b6b25d5695497b6d4c5a81176a1e3c", "is_disabled": 0, "rental_uris": {"android": "https://dc.lft.to/lastmile_qr_scan", "ios": "https://dc.lft.to/lastmile_qr_scan"}, "fusion_lon": 0.0, "lat": 38.917058833333336, "bike_id": "81b6b25d5695497b6d4c5a81176a1e3c", "type": "electric_scooter", "is_reserved": 0, "lon": -77.03221666666667}, {"fusion_lat": 0.0, "name": "0ee491e07c909be27167ccc1ae0f3138", "is_disabled": 0, "rental_uris": {"android": "https://dc.lft.to/lastmile_qr_scan", "ios": "https://dc.lft.to/lastmile_qr_scan"}, "fusion_lon": 0.0, "lat": 38.938959, "bike_id": "0ee491e07c909be27167ccc1ae0f3138", "type": "electric_scooter", "is_reserved": 0, "lon": -77.033207}, {"fusion_lat": 0.0, "name": "e251c143ad237f952d64f0ab23c12584", "is_disabled": 0, "rental_uris": {"android": "https://dc.lft.to/lastmile_qr_scan", "ios": "https://dc.lft.to/lastmile_qr_scan"}, "fusion_lon": 0.0, "lat": 38.907320666666664, "bike_id": "e251c143ad237f952d64f0ab23c12584", "type": "electric_scooter", "is_reserved": 0, "lon": -77.0346125}, {"fusion_lat": 0.0, "name": "a030ad9facc5b8920176804b6a177fc2", "is_disabled": 0, "rental_uris": {"android": "https://dc.lft.to/lastmile_qr_scan", "ios": "https://dc.lft.to/lastmile_qr_scan"}, "fusion_lon": 0.0, "lat": 38.971230166666665, "bike_id": "a030ad9facc5b8920176804b6a177fc2", "type": "electric_bike", "is_reserved": 0, "lon": -77.02090266666667}, {"fusion_lat": 0.0, "name": "38b67cf523b60d7d13395744d72bb9f3", "is_disabled": 0, "rental_uris": {"android": "https://dc.lft.to/lastmile_qr_scan", "ios": "https://dc.lft.to/lastmile_qr_scan"}, "fusion_lon": 0.0, "lat": 38.902459, "bike_id": "38b67cf523b60d7d13395744d72bb9f3", "type": "electric_scooter", "is_reserved": 0, "lon": -77.02589933333333}, {"fusion_lat": 0.0, "name": "295185fe5f79b2204c7284ee471f103f", "is_disabled": 0, "rental_uris": {"android": "https://dc.lft.to/lastmile_qr_scan", "ios": "https://dc.lft.to/lastmile_qr_scan"}, "fusion_lon": 0.0, "lat": 38.935361, "bike_id": "295185fe5f79b2204c7284ee471f103f", "type": "electric_scooter", "is_reserved": 0, "lon": -77.02352116666667}, {"fusion_lat": 0.0, "name": "3f5a0c115e1ea32a94352c038496a2d7", "is_disabled": 0, "rental_uris": {"android": "https://dc.lft.to/lastmile_qr_scan", "ios": "https://dc.lft.to/lastmile_qr_scan"}, "fusion_lon": 0.0, "lat": 38.93521616666666, "bike_id": "3f5a0c115e1ea32a94352c038496a2d7", "type": "electric_scooter", "is_reserved": 0, "lon": -77.04521166666666}, {"fusion_lat": 0.0, "name": "aa1d1f4b1a6c7ee61627844e19ab1fd1", "is_disabled": 0, "rental_uris": {"android": "https://dc.lft.to/lastmile_qr_scan", "ios": "https://dc.lft.to/lastmile_qr_scan"}, "fusion_lon": 0.0, "lat": 38.923155, "bike_id": "aa1d1f4b1a6c7ee61627844e19ab1fd1", "type": "electric_scooter", "is_reserved": 0, "lon": -77.02799416666667}, {"fusion_lat": 0.0, "name": "762b9358b39a4b8f434618a6ab5364fd", "is_disabled": 0, "rental_uris": {"android": "https://dc.lft.to/lastmile_qr_scan", "ios": "https://dc.lft.to/lastmile_qr_scan"}, "fusion_lon": 0.0, "lat": 38.933815833333334, "bike_id": "762b9358b39a4b8f434618a6ab5364fd", "type": "electric_scooter", "is_reserved": 0, "lon": -77.02423566666667}, {"fusion_lat": 0.0, "name": "ab55afbd17e5c56f9f506b52b94a6d59", "is_disabled": 0, "rental_uris": {"android": "https://dc.lft.to/lastmile_qr_scan", "ios": "https://dc.lft.to/lastmile_qr_scan"}, "fusion_lon": 0.0, "lat": 38.898884, "bike_id": "ab55afbd17e5c56f9f506b52b94a6d59", "type": "electric_scooter", "is_reserved": 0, "lon": -77.01507666666667}, {"fusion_lat": 0.0, "name": "08adf21d84bd220713b317d7b9f465ef", "is_disabled": 0, "rental_uris": {"android": "https://dc.lft.to/lastmile_qr_scan", "ios": "https://dc.lft.to/lastmile_qr_scan"}, "fusion_lon": 0.0, "lat": 38.92790983333333, "bike_id": "08adf21d84bd220713b317d7b9f465ef", "type": "electric_scooter", "is_reserved": 0, "lon": -77.03154633333334}, {"fusion_lat": 0.0, "name": "a83b183b1b2e685e959edf959a759e8e", "is_disabled": 0, "rental_uris": {"android": "https://dc.lft.to/lastmile_qr_scan", "ios": "https://dc.lft.to/lastmile_qr_scan"}, "fusion_lon": 0.0, "lat": 38.913176666666665, "bike_id": "a83b183b1b2e685e959edf959a759e8e", "type": "electric_scooter", "is_reserved": 0, "lon": -77.03631983333334}, {"fusion_lat": 0.0, "name": "2bb78809ccf5bc140e99578e9f87e1c6", "is_disabled": 0, "rental_uris": {"android": "https://dc.lft.to/lastmile_qr_scan", "ios": "https://dc.lft.to/lastmile_qr_scan"}, "fusion_lon": 0.0, "lat": 38.9362585, "bike_id": "2bb78809ccf5bc140e99578e9f87e1c6", "type": "electric_scooter", "is_reserved": 0, "lon": -77.03696266666667}, {"fusion_lat": 0.0, "name": "aef84f0ab4b582e8b9cb72fb736e5df3", "is_disabled": 0, "rental_uris": {"android": "https://dc.lft.to/lastmile_qr_scan", "ios": "https://dc.lft.to/lastmile_qr_scan"}, "fusion_lon": 0.0, "lat": 38.88062033333333, "bike_id": "aef84f0ab4b582e8b9cb72fb736e5df3", "type": "electric_scooter", "is_reserved": 0, "lon": -76.98507183333334}, {"fusion_lat": 0.0, "name": "f0757ef2bc032c55d6bb3edd3bb3ddea", "is_disabled": 0, "rental_uris": {"android": "https://dc.lft.to/lastmile_qr_scan", "ios": "https://dc.lft.to/lastmile_qr_scan"}, "fusion_lon": 0.0, "lat": 38.96011983333333, "bike_id": "f0757ef2bc032c55d6bb3edd3bb3ddea", "type": "electric_scooter", "is_reserved": 0, "lon": -77.01978933333334}, {"fusion_lat": 0.0, "name": "5938e5756387128ce591cb67084a5b17", "is_disabled": 0, "rental_uris": {"android": "https://dc.lft.to/lastmile_qr_scan", "ios": "https://dc.lft.to/lastmile_qr_scan"}, "fusion_lon": 0.0, "lat": 38.92264983333333, "bike_id": "5938e5756387128ce591cb67084a5b17", "type": "electric_scooter", "is_reserved": 0, "lon": -77.03690116666667}, {"fusion_lat": 0.0, "name": "cd432583aeca73aaf7a073af967a52ea", "is_disabled": 0, "rental_uris": {"android": "https://dc.lft.to/lastmile_qr_scan", "ios": "https://dc.lft.to/lastmile_qr_scan"}, "fusion_lon": 0.0, "lat": 38.91267233333333, "bike_id": "cd432583aeca73aaf7a073af967a52ea", "type": "electric_scooter", "is_reserved": 0, "lon": -77.04469666666667}, {"fusion_lat": 0.0, "name": "230a103bf62e31f0adf2a5472951515f", "is_disabled": 0, "rental_uris": {"android": "https://dc.lft.to/lastmile_qr_scan", "ios": "https://dc.lft.to/lastmile_qr_scan"}, "fusion_lon": 0.0, "lat": 38.917933833333336, "bike_id": "230a103bf62e31f0adf2a5472951515f", "type": "electric_scooter", "is_reserved": 0, "lon": -77.00922716666666}, {"fusion_lat": 0.0, "name": "c4c5ebe3e27a758c013a365d4915c268", "is_disabled": 0, "rental_uris": {"android": "https://dc.lft.to/lastmile_qr_scan", "ios": "https://dc.lft.to/lastmile_qr_scan"}, "fusion_lon": 0.0, "lat": 38.890655333333335, "bike_id": "c4c5ebe3e27a758c013a365d4915c268", "type": "electric_scooter", "is_reserved": 0, "lon": -76.94445016666667}, {"fusion_lat": 0.0, "name": "e884213b66759fe121b894a14eedd744", "is_disabled": 0, "rental_uris": {"android": "https://dc.lft.to/lastmile_qr_scan", "ios": "https://dc.lft.to/lastmile_qr_scan"}, "fusion_lon": 0.0, "lat": 38.89739566666667, "bike_id": "e884213b66759fe121b894a14eedd744", "type": "electric_scooter", "is_reserved": 0, "lon": -77.04545083333333}, {"fusion_lat": 0.0, "name": "1a6703745274f8f1f4e2fe1f2c715143", "is_disabled": 0, "rental_uris": {"android": "https://dc.lft.to/lastmile_qr_scan", "ios": "https://dc.lft.to/lastmile_qr_scan"}, "fusion_lon": 0.0, "lat": 38.9038825, "bike_id": "1a6703745274f8f1f4e2fe1f2c715143", "type": "electric_scooter", "is_reserved": 0, "lon": -77.00572766666667}, {"fusion_lat": 0.0, "name": "addf4ebadcd41559b263beabcead4512", "is_disabled": 0, "rental_uris": {"android": "https://dc.lft.to/lastmile_qr_scan", "ios": "https://dc.lft.to/lastmile_qr_scan"}, "fusion_lon": 0.0, "lat": 38.93531183333333, "bike_id": "addf4ebadcd41559b263beabcead4512", "type": "electric_scooter", "is_reserved": 0, "lon": -77.02349566666666}, {"fusion_lat": 0.0, "name": "e335c4284c06a5008cd9e44bab69e2c9", "is_disabled": 0, "rental_uris": {"android": "https://dc.lft.to/lastmile_qr_scan", "ios": "https://dc.lft.to/lastmile_qr_scan"}, "fusion_lon": 0.0, "lat": 38.921199666666666, "bike_id": "e335c4284c06a5008cd9e44bab69e2c9", "type": "electric_scooter", "is_reserved": 0, "lon": -77.02079583333334}, {"fusion_lat": 0.0, "name": "83e6fdc426fa8ac8923b53a356562fff", "is_disabled": 0, "rental_uris": {"android": "https://dc.lft.to/lastmile_qr_scan", "ios": "https://dc.lft.to/lastmile_qr_scan"}, "fusion_lon": 0.0, "lat": 38.924039, "bike_id": "83e6fdc426fa8ac8923b53a356562fff", "type": "electric_bike", "is_reserved": 0, "lon": -77.05038966666666}, {"fusion_lat": 0.0, "name": "12e239940e6634ca9874eea2a35f3db9", "is_disabled": 0, "rental_uris": {"android": "https://dc.lft.to/lastmile_qr_scan", "ios": "https://dc.lft.to/lastmile_qr_scan"}, "fusion_lon": 0.0, "lat": 38.9531335, "bike_id": "12e239940e6634ca9874eea2a35f3db9", "type": "electric_scooter", "is_reserved": 0, "lon": -77.02250333333333}, {"fusion_lat": 0.0, "name": "7af2a957876a63b0301f491a41451c4e", "is_disabled": 0, "rental_uris": {"android": "https://dc.lft.to/lastmile_qr_scan", "ios": "https://dc.lft.to/lastmile_qr_scan"}, "fusion_lon": 0.0, "lat": 38.85507483333333, "bike_id": "7af2a957876a63b0301f491a41451c4e", "type": "electric_scooter", "is_reserved": 0, "lon": -76.96536066666667}, {"fusion_lat": 0.0, "name": "bcb7321285411a9745774a79531d0112", "is_disabled": 0, "rental_uris": {"android": "https://dc.lft.to/lastmile_qr_scan", "ios": "https://dc.lft.to/lastmile_qr_scan"}, "fusion_lon": 0.0, "lat": 38.927425166666666, "bike_id": "bcb7321285411a9745774a79531d0112", "type": "electric_bike", "is_reserved": 0, "lon": -77.02497283333334}, {"fusion_lat": 0.0, "name": "efcf1d72326464c6bcbac9f161619aca", "is_disabled": 0, "rental_uris": {"android": "https://dc.lft.to/lastmile_qr_scan", "ios": "https://dc.lft.to/lastmile_qr_scan"}, "fusion_lon": 0.0, "lat": 38.992181333333335, "bike_id": "efcf1d72326464c6bcbac9f161619aca", "type": "electric_bike", "is_reserved": 0, "lon": -76.944346}, {"fusion_lat": 0.0, "name": "d077b343cdcc398b77ea7421916e27d8", "is_disabled": 0, "rental_uris": {"android": "https://dc.lft.to/lastmile_qr_scan", "ios": "https://dc.lft.to/lastmile_qr_scan"}, "fusion_lon": 0.0, "lat": 38.90955733333333, "bike_id": "d077b343cdcc398b77ea7421916e27d8", "type": "electric_scooter", "is_reserved": 0, "lon": -77.04865416666667}, {"fusion_lat": 0.0, "name": "f875066561a12c6f2a3914f6b28a9f3d", "is_disabled": 0, "rental_uris": {"android": "https://dc.lft.to/lastmile_qr_scan", "ios": "https://dc.lft.to/lastmile_qr_scan"}, "fusion_lon": 0.0, "lat": 38.93023683333333, "bike_id": "f875066561a12c6f2a3914f6b28a9f3d", "type": "electric_scooter", "is_reserved": 0, "lon": -77.03784633333333}, {"fusion_lat": 0.0, "name": "9cb6739e42df86152d63f6ef2f42103d", "is_disabled": 0, "rental_uris": {"android": "https://dc.lft.to/lastmile_qr_scan", "ios": "https://dc.lft.to/lastmile_qr_scan"}, "fusion_lon": 0.0, "lat": 38.9152185, "bike_id": "9cb6739e42df86152d63f6ef2f42103d", "type": "electric_scooter", "is_reserved": 0, "lon": -77.01334516666667}, {"fusion_lat": 0.0, "name": "be0602d44c584981e39982dad9810e6d", "is_disabled": 0, "rental_uris": {"android": "https://dc.lft.to/lastmile_qr_scan", "ios": "https://dc.lft.to/lastmile_qr_scan"}, "fusion_lon": 0.0, "lat": 38.917082666666666, "bike_id": "be0602d44c584981e39982dad9810e6d", "type": "electric_scooter", "is_reserved": 0, "lon": -77.03225116666667}, {"fusion_lat": 0.0, "name": "5f6186b7928041b8c5fcc5b47b9bb582", "is_disabled": 0, "rental_uris": {"android": "https://dc.lft.to/lastmile_qr_scan", "ios": "https://dc.lft.to/lastmile_qr_scan"}, "fusion_lon": 0.0, "lat": 38.88504733333333, "bike_id": "5f6186b7928041b8c5fcc5b47b9bb582", "type": "electric_scooter", "is_reserved": 0, "lon": -77.00065}, {"fusion_lat": 0.0, "name": "f87f796188a46d0c20d993ec77ae972d", "is_disabled": 0, "rental_uris": {"android": "https://dc.lft.to/lastmile_qr_scan", "ios": "https://dc.lft.to/lastmile_qr_scan"}, "fusion_lon": 0.0, "lat": 38.819093, "bike_id": "f87f796188a46d0c20d993ec77ae972d", "type": "electric_bike", "is_reserved": 0, "lon": -77.12665866666667}, {"fusion_lat": 0.0, "name": "7245fa011142acb428b8e6a30f00d64e", "is_disabled": 0, "rental_uris": {"android": "https://dc.lft.to/lastmile_qr_scan", "ios": "https://dc.lft.to/lastmile_qr_scan"}, "fusion_lon": 0.0, "lat": 38.91803783333334, "bike_id": "7245fa011142acb428b8e6a30f00d64e", "type": "electric_scooter", "is_reserved": 0, "lon": -77.0113295}, {"fusion_lat": 0.0, "name": "6cccc7270e966bc24fc111823d36a2f9", "is_disabled": 0, "rental_uris": {"android": "https://dc.lft.to/lastmile_qr_scan", "ios": "https://dc.lft.to/lastmile_qr_scan"}, "fusion_lon": 0.0, "lat": 38.948965666666666, "bike_id": "6cccc7270e966bc24fc111823d36a2f9", "type": "electric_bike", "is_reserved": 0, "lon": -76.96376966666666}, {"fusion_lat": 0.0, "name": "a566b7bcc81cb2b49c4873b5d6bdc5d0", "is_disabled": 0, "rental_uris": {"android": "https://dc.lft.to/lastmile_qr_scan", "ios": "https://dc.lft.to/lastmile_qr_scan"}, "fusion_lon": 0.0, "lat": 38.948767333333336, "bike_id": "a566b7bcc81cb2b49c4873b5d6bdc5d0", "type": "electric_scooter", "is_reserved": 0, "lon": -77.02690016666666}, {"fusion_lat": 0.0, "name": "36799d826ac36892e73d31781d5941f3", "is_disabled": 0, "rental_uris": {"android": "https://dc.lft.to/lastmile_qr_scan", "ios": "https://dc.lft.to/lastmile_qr_scan"}, "fusion_lon": 0.0, "lat": 38.927859166666664, "bike_id": "36799d826ac36892e73d31781d5941f3", "type": "electric_scooter", "is_reserved": 0, "lon": -77.03213733333334}, {"fusion_lat": 0.0, "name": "3560d3bae45fa0d18d1e05c10cf45a82", "is_disabled": 0, "rental_uris": {"android": "https://dc.lft.to/lastmile_qr_scan", "ios": "https://dc.lft.to/lastmile_qr_scan"}, "fusion_lon": 0.0, "lat": 38.91114966666667, "bike_id": "3560d3bae45fa0d18d1e05c10cf45a82", "type": "electric_scooter", "is_reserved": 0, "lon": -76.99767416666667}, {"fusion_lat": 0.0, "name": "fad0575e2e42e247870addd87f5cde02", "is_disabled": 0, "rental_uris": {"android": "https://dc.lft.to/lastmile_qr_scan", "ios": "https://dc.lft.to/lastmile_qr_scan"}, "fusion_lon": 0.0, "lat": 38.9363255, "bike_id": "fad0575e2e42e247870addd87f5cde02", "type": "electric_scooter", "is_reserved": 0, "lon": -77.036703}, {"fusion_lat": 0.0, "name": "848d7f626fb81be29b4671a382c28ed6", "is_disabled": 0, "rental_uris": {"android": "https://dc.lft.to/lastmile_qr_scan", "ios": "https://dc.lft.to/lastmile_qr_scan"}, "fusion_lon": 0.0, "lat": 38.9075985, "bike_id": "848d7f626fb81be29b4671a382c28ed6", "type": "electric_scooter", "is_reserved": 0, "lon": -77.0321905}, {"fusion_lat": 0.0, "name": "d150dc639357f913437ec34930284fb7", "is_disabled": 0, "rental_uris": {"android": "https://dc.lft.to/lastmile_qr_scan", "ios": "https://dc.lft.to/lastmile_qr_scan"}, "fusion_lon": 0.0, "lat": 38.919601166666666, "bike_id": "d150dc639357f913437ec34930284fb7", "type": "electric_scooter", "is_reserved": 0, "lon": -77.07089116666667}, {"fusion_lat": 0.0, "name": "04e0d7209b355660e99b5f05d501c927", "is_disabled": 0, "rental_uris": {"android": "https://dc.lft.to/lastmile_qr_scan", "ios": "https://dc.lft.to/lastmile_qr_scan"}, "fusion_lon": 0.0, "lat": 38.911114, "bike_id": "04e0d7209b355660e99b5f05d501c927", "type": "electric_scooter", "is_reserved": 0, "lon": -77.020696}, {"fusion_lat": 0.0, "name": "6e2723187ccfca4330691e40c084cd50", "is_disabled": 0, "rental_uris": {"android": "https://dc.lft.to/lastmile_qr_scan", "ios": "https://dc.lft.to/lastmile_qr_scan"}, "fusion_lon": 0.0, "lat": 38.92555516666667, "bike_id": "6e2723187ccfca4330691e40c084cd50", "type": "electric_scooter", "is_reserved": 0, "lon": -77.077619}, {"fusion_lat": 0.0, "name": "c97ec0a511e24ca5edb43580155b48d1", "is_disabled": 0, "rental_uris": {"android": "https://dc.lft.to/lastmile_qr_scan", "ios": "https://dc.lft.to/lastmile_qr_scan"}, "fusion_lon": 0.0, "lat": 38.93134233333333, "bike_id": "c97ec0a511e24ca5edb43580155b48d1", "type": "electric_scooter", "is_reserved": 0, "lon": -77.03258683333334}, {"fusion_lat": 0.0, "name": "67d4638b11609ca74112138bcb828aa0", "is_disabled": 0, "rental_uris": {"android": "https://dc.lft.to/lastmile_qr_scan", "ios": "https://dc.lft.to/lastmile_qr_scan"}, "fusion_lon": 0.0, "lat": 38.89612983333333, "bike_id": "67d4638b11609ca74112138bcb828aa0", "type": "electric_scooter", "is_reserved": 0, "lon": -77.02284183333333}, {"fusion_lat": 0.0, "name": "d2fa82cd40b6d7fcb99566d443f5c28d", "is_disabled": 0, "rental_uris": {"android": "https://dc.lft.to/lastmile_qr_scan", "ios": "https://dc.lft.to/lastmile_qr_scan"}, "fusion_lon": 0.0, "lat": 38.89285, "bike_id": "d2fa82cd40b6d7fcb99566d443f5c28d", "type": "electric_scooter", "is_reserved": 0, "lon": -76.98309516666667}, {"fusion_lat": 0.0, "name": "21d9513c38209010375c611eedfc8ba7", "is_disabled": 0, "rental_uris": {"android": "https://dc.lft.to/lastmile_qr_scan", "ios": "https://dc.lft.to/lastmile_qr_scan"}, "fusion_lon": 0.0, "lat": 38.9130025, "bike_id": "21d9513c38209010375c611eedfc8ba7", "type": "electric_scooter", "is_reserved": 0, "lon": -77.048758}, {"fusion_lat": 0.0, "name": "195d3c809edcf370cdc94cb67ad180ef", "is_disabled": 0, "rental_uris": {"android": "https://dc.lft.to/lastmile_qr_scan", "ios": "https://dc.lft.to/lastmile_qr_scan"}, "fusion_lon": 0.0, "lat": 38.9318915, "bike_id": "195d3c809edcf370cdc94cb67ad180ef", "type": "electric_scooter", "is_reserved": 0, "lon": -77.04306383333333}, {"fusion_lat": 0.0, "name": "ddc89cd6f3dec6327a00eae67c693de9", "is_disabled": 0, "rental_uris": {"android": "https://dc.lft.to/lastmile_qr_scan", "ios": "https://dc.lft.to/lastmile_qr_scan"}, "fusion_lon": 0.0, "lat": 38.87637183333333, "bike_id": "ddc89cd6f3dec6327a00eae67c693de9", "type": "electric_scooter", "is_reserved": 0, "lon": -77.01652116666666}, {"fusion_lat": 0.0, "name": "2d13a4cd1187e6bd7782a07778f445e9", "is_disabled": 0, "rental_uris": {"android": "https://dc.lft.to/lastmile_qr_scan", "ios": "https://dc.lft.to/lastmile_qr_scan"}, "fusion_lon": 0.0, "lat": 38.8413315, "bike_id": "2d13a4cd1187e6bd7782a07778f445e9", "type": "electric_bike", "is_reserved": 0, "lon": -76.9476255}, {"fusion_lat": 0.0, "name": "26e5cf9c11e7dcc68e5571db65e68fae", "is_disabled": 0, "rental_uris": {"android": "https://dc.lft.to/lastmile_qr_scan", "ios": "https://dc.lft.to/lastmile_qr_scan"}, "fusion_lon": 0.0, "lat": 38.905525833333336, "bike_id": "26e5cf9c11e7dcc68e5571db65e68fae", "type": "electric_scooter", "is_reserved": 0, "lon": -77.06271}, {"fusion_lat": 0.0, "name": "333f196a43620c10029c15991c500509", "is_disabled": 0, "rental_uris": {"android": "https://dc.lft.to/lastmile_qr_scan", "ios": "https://dc.lft.to/lastmile_qr_scan"}, "fusion_lon": 0.0, "lat": 38.905471666666664, "bike_id": "333f196a43620c10029c15991c500509", "type": "electric_scooter", "is_reserved": 0, "lon": -77.04648033333334}, {"fusion_lat": 0.0, "name": "8afe998161665fa5b1e6ef7bd8adfcd5", "is_disabled": 0, "rental_uris": {"android": "https://dc.lft.to/lastmile_qr_scan", "ios": "https://dc.lft.to/lastmile_qr_scan"}, "fusion_lon": 0.0, "lat": 38.88721233333333, "bike_id": "8afe998161665fa5b1e6ef7bd8adfcd5", "type": "electric_scooter", "is_reserved": 0, "lon": -76.9836095}, {"fusion_lat": 0.0, "name": "ac8cfb6356a85bfcc89859c12ccb189e", "is_disabled": 0, "rental_uris": {"android": "https://dc.lft.to/lastmile_qr_scan", "ios": "https://dc.lft.to/lastmile_qr_scan"}, "fusion_lon": 0.0, "lat": 38.884426166666664, "bike_id": "ac8cfb6356a85bfcc89859c12ccb189e", "type": "electric_scooter", "is_reserved": 0, "lon": -77.02488266666667}, {"fusion_lat": 0.0, "name": "7975df383af2098878e803b2aeb63f66", "is_disabled": 0, "rental_uris": {"android": "https://dc.lft.to/lastmile_qr_scan", "ios": "https://dc.lft.to/lastmile_qr_scan"}, "fusion_lon": 0.0, "lat": 38.92398766666667, "bike_id": "7975df383af2098878e803b2aeb63f66", "type": "electric_scooter", "is_reserved": 0, "lon": -77.03641966666666}, {"fusion_lat": 0.0, "name": "9b931b995e617fc47abaae6717b81ee5", "is_disabled": 0, "rental_uris": {"android": "https://dc.lft.to/lastmile_qr_scan", "ios": "https://dc.lft.to/lastmile_qr_scan"}, "fusion_lon": 0.0, "lat": 38.9225155, "bike_id": "9b931b995e617fc47abaae6717b81ee5", "type": "electric_scooter", "is_reserved": 0, "lon": -77.05084983333333}, {"fusion_lat": 0.0, "name": "6cedfb1fa67d52d017c87416fa97f711", "is_disabled": 0, "rental_uris": {"android": "https://dc.lft.to/lastmile_qr_scan", "ios": "https://dc.lft.to/lastmile_qr_scan"}, "fusion_lon": 0.0, "lat": 38.92542433333333, "bike_id": "6cedfb1fa67d52d017c87416fa97f711", "type": "electric_scooter", "is_reserved": 0, "lon": -77.05118583333334}, {"fusion_lat": 0.0, "name": "f66483abea12756ff9b1e15f72b75e20", "is_disabled": 0, "rental_uris": {"android": "https://dc.lft.to/lastmile_qr_scan", "ios": "https://dc.lft.to/lastmile_qr_scan"}, "fusion_lon": 0.0, "lat": 38.916818166666665, "bike_id": "f66483abea12756ff9b1e15f72b75e20", "type": "electric_scooter", "is_reserved": 0, "lon": -77.0289405}, {"fusion_lat": 0.0, "name": "6b69ba84c62f820b76aaf009555b09c2", "is_disabled": 0, "rental_uris": {"android": "https://dc.lft.to/lastmile_qr_scan", "ios": "https://dc.lft.to/lastmile_qr_scan"}, "fusion_lon": 0.0, "lat": 38.9290105, "bike_id": "6b69ba84c62f820b76aaf009555b09c2", "type": "electric_scooter", "is_reserved": 0, "lon": -77.05461133333333}, {"fusion_lat": 0.0, "name": "0242c4d4c44f571f1947c68694627833", "is_disabled": 0, "rental_uris": {"android": "https://dc.lft.to/lastmile_qr_scan", "ios": "https://dc.lft.to/lastmile_qr_scan"}, "fusion_lon": 0.0, "lat": 38.832329333333334, "bike_id": "0242c4d4c44f571f1947c68694627833", "type": "electric_bike", "is_reserved": 0, "lon": -76.94618866666667}, {"fusion_lat": 0.0, "name": "751800d72bb08c16313f90a8221b878a", "is_disabled": 0, "rental_uris": {"android": "https://dc.lft.to/lastmile_qr_scan", "ios": "https://dc.lft.to/lastmile_qr_scan"}, "fusion_lon": 0.0, "lat": 38.8875635, "bike_id": "751800d72bb08c16313f90a8221b878a", "type": "electric_scooter", "is_reserved": 0, "lon": -77.00257216666667}, {"fusion_lat": 0.0, "name": "06a71b98a4f1a7e89a65eb62e6aa510d", "is_disabled": 0, "rental_uris": {"android": "https://dc.lft.to/lastmile_qr_scan", "ios": "https://dc.lft.to/lastmile_qr_scan"}, "fusion_lon": 0.0, "lat": 38.887329666666666, "bike_id": "06a71b98a4f1a7e89a65eb62e6aa510d", "type": "electric_scooter", "is_reserved": 0, "lon": -77.01746666666666}, {"fusion_lat": 0.0, "name": "9d04e44556c99ccfb99cd094bfde22d8", "is_disabled": 0, "rental_uris": {"android": "https://dc.lft.to/lastmile_qr_scan", "ios": "https://dc.lft.to/lastmile_qr_scan"}, "fusion_lon": 0.0, "lat": 38.92134766666667, "bike_id": "9d04e44556c99ccfb99cd094bfde22d8", "type": "electric_scooter", "is_reserved": 0, "lon": -77.04581833333333}, {"fusion_lat": 0.0, "name": "66db7085b555272b8bd469a85cbae10a", "is_disabled": 0, "rental_uris": {"android": "https://dc.lft.to/lastmile_qr_scan", "ios": "https://dc.lft.to/lastmile_qr_scan"}, "fusion_lon": 0.0, "lat": 38.88847066666666, "bike_id": "66db7085b555272b8bd469a85cbae10a", "type": "electric_scooter", "is_reserved": 0, "lon": -76.92683099999999}, {"fusion_lat": 0.0, "name": "2c096254a051640a7606543065a772ba", "is_disabled": 0, "rental_uris": {"android": "https://dc.lft.to/lastmile_qr_scan", "ios": "https://dc.lft.to/lastmile_qr_scan"}, "fusion_lon": 0.0, "lat": 38.913312833333336, "bike_id": "2c096254a051640a7606543065a772ba", "type": "electric_scooter", "is_reserved": 0, "lon": -77.02134683333334}, {"fusion_lat": 0.0, "name": "9ba24cb68bb3c560545a4a512c6521cb", "is_disabled": 0, "rental_uris": {"android": "https://dc.lft.to/lastmile_qr_scan", "ios": "https://dc.lft.to/lastmile_qr_scan"}, "fusion_lon": 0.0, "lat": 38.911221166666664, "bike_id": "9ba24cb68bb3c560545a4a512c6521cb", "type": "electric_scooter", "is_reserved": 0, "lon": -77.02194483333334}, {"fusion_lat": 0.0, "name": "52feb54bfbef044c9a73e9e8ec6c7318", "is_disabled": 0, "rental_uris": {"android": "https://dc.lft.to/lastmile_qr_scan", "ios": "https://dc.lft.to/lastmile_qr_scan"}, "fusion_lon": 0.0, "lat": 38.89732633333333, "bike_id": "52feb54bfbef044c9a73e9e8ec6c7318", "type": "electric_scooter", "is_reserved": 0, "lon": -77.02255066666666}, {"fusion_lat": 0.0, "name": "392aa9fa0dcc5cc511a0d1ff2aaba315", "is_disabled": 0, "rental_uris": {"android": "https://dc.lft.to/lastmile_qr_scan", "ios": "https://dc.lft.to/lastmile_qr_scan"}, "fusion_lon": 0.0, "lat": 38.905263833333336, "bike_id": "392aa9fa0dcc5cc511a0d1ff2aaba315", "type": "electric_scooter", "is_reserved": 0, "lon": -77.06779616666667}, {"fusion_lat": 0.0, "name": "ebc6bcd20c06e7dc4059244b1da0c5af", "is_disabled": 0, "rental_uris": {"android": "https://dc.lft.to/lastmile_qr_scan", "ios": "https://dc.lft.to/lastmile_qr_scan"}, "fusion_lon": 0.0, "lat": 38.9111305, "bike_id": "ebc6bcd20c06e7dc4059244b1da0c5af", "type": "electric_scooter", "is_reserved": 0, "lon": -76.99768166666667}, {"fusion_lat": 0.0, "name": "951619f8227b7d0b4cbe2dca2066d204", "is_disabled": 0, "rental_uris": {"android": "https://dc.lft.to/lastmile_qr_scan", "ios": "https://dc.lft.to/lastmile_qr_scan"}, "fusion_lon": 0.0, "lat": 38.922781666666666, "bike_id": "951619f8227b7d0b4cbe2dca2066d204", "type": "electric_scooter", "is_reserved": 0, "lon": -77.03654383333334}, {"fusion_lat": 0.0, "name": "abfc978c5ccfd12a04b45b23e43b9b50", "is_disabled": 0, "rental_uris": {"android": "https://dc.lft.to/lastmile_qr_scan", "ios": "https://dc.lft.to/lastmile_qr_scan"}, "fusion_lon": 0.0, "lat": 38.915946, "bike_id": "abfc978c5ccfd12a04b45b23e43b9b50", "type": "electric_scooter", "is_reserved": 0, "lon": -77.01113433333333}, {"fusion_lat": 0.0, "name": "2893bdb18a547d618bdcc2739d926dee", "is_disabled": 0, "rental_uris": {"android": "https://dc.lft.to/lastmile_qr_scan", "ios": "https://dc.lft.to/lastmile_qr_scan"}, "fusion_lon": 0.0, "lat": 38.8849305, "bike_id": "2893bdb18a547d618bdcc2739d926dee", "type": "electric_scooter", "is_reserved": 0, "lon": -77.010853}, {"fusion_lat": 0.0, "name": "d6da3e4d2097cfa44158d7d14e7ba8b7", "is_disabled": 0, "rental_uris": {"android": "https://dc.lft.to/lastmile_qr_scan", "ios": "https://dc.lft.to/lastmile_qr_scan"}, "fusion_lon": 0.0, "lat": 38.88220966666667, "bike_id": "d6da3e4d2097cfa44158d7d14e7ba8b7", "type": "electric_scooter", "is_reserved": 0, "lon": -77.0294045}, {"fusion_lat": 0.0, "name": "cade0d304d7d5dbff5f16e01ef06cbc1", "is_disabled": 0, "rental_uris": {"android": "https://dc.lft.to/lastmile_qr_scan", "ios": "https://dc.lft.to/lastmile_qr_scan"}, "fusion_lon": 0.0, "lat": 38.94866283333333, "bike_id": "cade0d304d7d5dbff5f16e01ef06cbc1", "type": "electric_scooter", "is_reserved": 0, "lon": -77.0256815}, {"fusion_lat": 0.0, "name": "5dc868393464c0535e75b8303dd0b0e3", "is_disabled": 0, "rental_uris": {"android": "https://dc.lft.to/lastmile_qr_scan", "ios": "https://dc.lft.to/lastmile_qr_scan"}, "fusion_lon": 0.0, "lat": 38.919973166666665, "bike_id": "5dc868393464c0535e75b8303dd0b0e3", "type": "electric_scooter", "is_reserved": 0, "lon": -77.07195533333334}, {"fusion_lat": 0.0, "name": "5771572563444c538627beb4a2ba1788", "is_disabled": 0, "rental_uris": {"android": "https://dc.lft.to/lastmile_qr_scan", "ios": "https://dc.lft.to/lastmile_qr_scan"}, "fusion_lon": 0.0, "lat": 38.8829805, "bike_id": "5771572563444c538627beb4a2ba1788", "type": "electric_scooter", "is_reserved": 0, "lon": -76.94853}, {"fusion_lat": 0.0, "name": "31b7050a57b1bb4859c90119310a0904", "is_disabled": 0, "rental_uris": {"android": "https://dc.lft.to/lastmile_qr_scan", "ios": "https://dc.lft.to/lastmile_qr_scan"}, "fusion_lon": 0.0, "lat": 38.91257983333333, "bike_id": "31b7050a57b1bb4859c90119310a0904", "type": "electric_scooter", "is_reserved": 0, "lon": -77.00627816666666}, {"fusion_lat": 0.0, "name": "e11d0f267455fad103c39fc7397b1596", "is_disabled": 0, "rental_uris": {"android": "https://dc.lft.to/lastmile_qr_scan", "ios": "https://dc.lft.to/lastmile_qr_scan"}, "fusion_lon": 0.0, "lat": 38.9242255, "bike_id": "e11d0f267455fad103c39fc7397b1596", "type": "electric_scooter", "is_reserved": 0, "lon": -77.02547483333333}, {"fusion_lat": 0.0, "name": "5754a152056210df6bd7dc862b4cb6a7", "is_disabled": 0, "rental_uris": {"android": "https://dc.lft.to/lastmile_qr_scan", "ios": "https://dc.lft.to/lastmile_qr_scan"}, "fusion_lon": 0.0, "lat": 38.935786, "bike_id": "5754a152056210df6bd7dc862b4cb6a7", "type": "electric_scooter", "is_reserved": 0, "lon": -77.02846383333333}, {"fusion_lat": 0.0, "name": "9112b2a23b9574361d72c8118add8f5c", "is_disabled": 0, "rental_uris": {"android": "https://dc.lft.to/lastmile_qr_scan", "ios": "https://dc.lft.to/lastmile_qr_scan"}, "fusion_lon": 0.0, "lat": 38.95221433333333, "bike_id": "9112b2a23b9574361d72c8118add8f5c", "type": "electric_scooter", "is_reserved": 0, "lon": -77.08217433333333}, {"fusion_lat": 0.0, "name": "d2b11ce1d214268b0571a5f9fa08e462", "is_disabled": 0, "rental_uris": {"android": "https://dc.lft.to/lastmile_qr_scan", "ios": "https://dc.lft.to/lastmile_qr_scan"}, "fusion_lon": 0.0, "lat": 38.85416583333333, "bike_id": "d2b11ce1d214268b0571a5f9fa08e462", "type": "electric_bike", "is_reserved": 0, "lon": -77.120823}, {"fusion_lat": 0.0, "name": "c99ddee8c3f4475416c6d0a710fc888b", "is_disabled": 0, "rental_uris": {"android": "https://dc.lft.to/lastmile_qr_scan", "ios": "https://dc.lft.to/lastmile_qr_scan"}, "fusion_lon": 0.0, "lat": 38.92084116666667, "bike_id": "c99ddee8c3f4475416c6d0a710fc888b", "type": "electric_scooter", "is_reserved": 0, "lon": -76.99450516666667}, {"fusion_lat": 0.0, "name": "30b382aa4ced0c082614c0c25b873852", "is_disabled": 0, "rental_uris": {"android": "https://dc.lft.to/lastmile_qr_scan", "ios": "https://dc.lft.to/lastmile_qr_scan"}, "fusion_lon": 0.0, "lat": 38.93147116666667, "bike_id": "30b382aa4ced0c082614c0c25b873852", "type": "electric_scooter", "is_reserved": 0, "lon": -77.0396135}, {"fusion_lat": 0.0, "name": "e6373c8959552816557f709399bb57fc", "is_disabled": 0, "rental_uris": {"android": "https://dc.lft.to/lastmile_qr_scan", "ios": "https://dc.lft.to/lastmile_qr_scan"}, "fusion_lon": 0.0, "lat": 38.892194, "bike_id": "e6373c8959552816557f709399bb57fc", "type": "electric_scooter", "is_reserved": 0, "lon": -77.03227383333333}, {"fusion_lat": 0.0, "name": "b743a8e436ac3d716bc06204cf45ed47", "is_disabled": 0, "rental_uris": {"android": "https://dc.lft.to/lastmile_qr_scan", "ios": "https://dc.lft.to/lastmile_qr_scan"}, "fusion_lon": 0.0, "lat": 38.924646333333335, "bike_id": "b743a8e436ac3d716bc06204cf45ed47", "type": "electric_scooter", "is_reserved": 0, "lon": -77.02073}, {"fusion_lat": 0.0, "name": "57d8177c62fed7cda1575617c5730480", "is_disabled": 0, "rental_uris": {"android": "https://dc.lft.to/lastmile_qr_scan", "ios": "https://dc.lft.to/lastmile_qr_scan"}, "fusion_lon": 0.0, "lat": 38.920700333333336, "bike_id": "57d8177c62fed7cda1575617c5730480", "type": "electric_scooter", "is_reserved": 0, "lon": -77.024133}, {"fusion_lat": 0.0, "name": "30da404441aea023b7aaff9b20542db7", "is_disabled": 0, "rental_uris": {"android": "https://dc.lft.to/lastmile_qr_scan", "ios": "https://dc.lft.to/lastmile_qr_scan"}, "fusion_lon": 0.0, "lat": 38.89874233333333, "bike_id": "30da404441aea023b7aaff9b20542db7", "type": "electric_scooter", "is_reserved": 0, "lon": -76.93186316666667}, {"fusion_lat": 0.0, "name": "8b64203b73fef6fe0434334734928b35", "is_disabled": 0, "rental_uris": {"android": "https://dc.lft.to/lastmile_qr_scan", "ios": "https://dc.lft.to/lastmile_qr_scan"}, "fusion_lon": 0.0, "lat": 38.93524583333333, "bike_id": "8b64203b73fef6fe0434334734928b35", "type": "electric_scooter", "is_reserved": 0, "lon": -77.02854766666667}, {"fusion_lat": 0.0, "name": "55e2000365d090fa32bd21b71bb55d6f", "is_disabled": 0, "rental_uris": {"android": "https://dc.lft.to/lastmile_qr_scan", "ios": "https://dc.lft.to/lastmile_qr_scan"}, "fusion_lon": 0.0, "lat": 38.9072475, "bike_id": "55e2000365d090fa32bd21b71bb55d6f", "type": "electric_scooter", "is_reserved": 0, "lon": -77.04776383333333}, {"fusion_lat": 0.0, "name": "2c7ba031d7f4d1fa53079ce2f271f9f4", "is_disabled": 0, "rental_uris": {"android": "https://dc.lft.to/lastmile_qr_scan", "ios": "https://dc.lft.to/lastmile_qr_scan"}, "fusion_lon": 0.0, "lat": 38.90681583333333, "bike_id": "2c7ba031d7f4d1fa53079ce2f271f9f4", "type": "electric_scooter", "is_reserved": 0, "lon": -77.02179333333333}, {"fusion_lat": 0.0, "name": "39365800dcbaa0662f76464d03547eeb", "is_disabled": 0, "rental_uris": {"android": "https://dc.lft.to/lastmile_qr_scan", "ios": "https://dc.lft.to/lastmile_qr_scan"}, "fusion_lon": 0.0, "lat": 38.891955833333334, "bike_id": "39365800dcbaa0662f76464d03547eeb", "type": "electric_scooter", "is_reserved": 0, "lon": -77.02230983333334}, {"fusion_lat": 0.0, "name": "dbbf2d1aff4ede63bc0b69481ea9fa50", "is_disabled": 0, "rental_uris": {"android": "https://dc.lft.to/lastmile_qr_scan", "ios": "https://dc.lft.to/lastmile_qr_scan"}, "fusion_lon": 0.0, "lat": 38.92866566666667, "bike_id": "dbbf2d1aff4ede63bc0b69481ea9fa50", "type": "electric_scooter", "is_reserved": 0, "lon": -77.035006}, {"fusion_lat": 0.0, "name": "41f1c9caf95a32630d7fddbf0c9d816a", "is_disabled": 0, "rental_uris": {"android": "https://dc.lft.to/lastmile_qr_scan", "ios": "https://dc.lft.to/lastmile_qr_scan"}, "fusion_lon": 0.0, "lat": 38.905690166666666, "bike_id": "41f1c9caf95a32630d7fddbf0c9d816a", "type": "electric_scooter", "is_reserved": 0, "lon": -77.005133}, {"fusion_lat": 0.0, "name": "6e3da60532892f9333511ec0be880e87", "is_disabled": 0, "rental_uris": {"android": "https://dc.lft.to/lastmile_qr_scan", "ios": "https://dc.lft.to/lastmile_qr_scan"}, "fusion_lon": 0.0, "lat": 38.88636133333333, "bike_id": "6e3da60532892f9333511ec0be880e87", "type": "electric_scooter", "is_reserved": 0, "lon": -77.01810733333333}, {"fusion_lat": 0.0, "name": "e745f7f540471bb39eb67c7b6ba73222", "is_disabled": 0, "rental_uris": {"android": "https://dc.lft.to/lastmile_qr_scan", "ios": "https://dc.lft.to/lastmile_qr_scan"}, "fusion_lon": 0.0, "lat": 38.938987833333336, "bike_id": "e745f7f540471bb39eb67c7b6ba73222", "type": "electric_scooter", "is_reserved": 0, "lon": -77.03265366666666}, {"fusion_lat": 0.0, "name": "a657ae84d99beae2cc157d695aee0d5f", "is_disabled": 0, "rental_uris": {"android": "https://dc.lft.to/lastmile_qr_scan", "ios": "https://dc.lft.to/lastmile_qr_scan"}, "fusion_lon": 0.0, "lat": 38.92846483333334, "bike_id": "a657ae84d99beae2cc157d695aee0d5f", "type": "electric_scooter", "is_reserved": 0, "lon": -77.03639466666667}, {"fusion_lat": 0.0, "name": "4ad97f7fe67a6bba891bb10646d64860", "is_disabled": 0, "rental_uris": {"android": "https://dc.lft.to/lastmile_qr_scan", "ios": "https://dc.lft.to/lastmile_qr_scan"}, "fusion_lon": 0.0, "lat": 38.90091666666667, "bike_id": "4ad97f7fe67a6bba891bb10646d64860", "type": "electric_scooter", "is_reserved": 0, "lon": -77.04973183333334}, {"fusion_lat": 0.0, "name": "6d5dff79d86fc18a3fb9867b4bd8be30", "is_disabled": 0, "rental_uris": {"android": "https://dc.lft.to/lastmile_qr_scan", "ios": "https://dc.lft.to/lastmile_qr_scan"}, "fusion_lon": 0.0, "lat": 38.9878845, "bike_id": "6d5dff79d86fc18a3fb9867b4bd8be30", "type": "electric_bike", "is_reserved": 0, "lon": -77.14103516666667}, {"fusion_lat": 0.0, "name": "3b0f970470e076bd94b71a360c69ad31", "is_disabled": 0, "rental_uris": {"android": "https://dc.lft.to/lastmile_qr_scan", "ios": "https://dc.lft.to/lastmile_qr_scan"}, "fusion_lon": 0.0, "lat": 38.885191666666664, "bike_id": "3b0f970470e076bd94b71a360c69ad31", "type": "electric_scooter", "is_reserved": 0, "lon": -76.99768333333333}, {"fusion_lat": 0.0, "name": "25adb36a06780a0fbe72a72049a25f1c", "is_disabled": 0, "rental_uris": {"android": "https://dc.lft.to/lastmile_qr_scan", "ios": "https://dc.lft.to/lastmile_qr_scan"}, "fusion_lon": 0.0, "lat": 38.91568916666667, "bike_id": "25adb36a06780a0fbe72a72049a25f1c", "type": "electric_scooter", "is_reserved": 0, "lon": -77.01239533333333}, {"fusion_lat": 0.0, "name": "07fc612d831b41a1fee6114a1c320b66", "is_disabled": 0, "rental_uris": {"android": "https://dc.lft.to/lastmile_qr_scan", "ios": "https://dc.lft.to/lastmile_qr_scan"}, "fusion_lon": 0.0, "lat": 38.919186833333335, "bike_id": "07fc612d831b41a1fee6114a1c320b66", "type": "electric_scooter", "is_reserved": 0, "lon": -77.03190933333333}, {"fusion_lat": 0.0, "name": "07cfe0a1ecb8d84c59cd588610fd8a66", "is_disabled": 0, "rental_uris": {"android": "https://dc.lft.to/lastmile_qr_scan", "ios": "https://dc.lft.to/lastmile_qr_scan"}, "fusion_lon": 0.0, "lat": 38.9297095, "bike_id": "07cfe0a1ecb8d84c59cd588610fd8a66", "type": "electric_scooter", "is_reserved": 0, "lon": -77.03137116666667}, {"fusion_lat": 0.0, "name": "0a8eb8ebc46118969b3ef1785484f933", "is_disabled": 0, "rental_uris": {"android": "https://dc.lft.to/lastmile_qr_scan", "ios": "https://dc.lft.to/lastmile_qr_scan"}, "fusion_lon": 0.0, "lat": 38.90218866666667, "bike_id": "0a8eb8ebc46118969b3ef1785484f933", "type": "electric_scooter", "is_reserved": 0, "lon": -77.05977866666667}, {"fusion_lat": 0.0, "name": "06f1677fe6be2acba0ffeb8b560e3fc8", "is_disabled": 0, "rental_uris": {"android": "https://dc.lft.to/lastmile_qr_scan", "ios": "https://dc.lft.to/lastmile_qr_scan"}, "fusion_lon": 0.0, "lat": 38.94153266666667, "bike_id": "06f1677fe6be2acba0ffeb8b560e3fc8", "type": "electric_bike", "is_reserved": 0, "lon": -77.00192833333334}, {"fusion_lat": 0.0, "name": "bf60dbc808f4c5562ced107b34e34192", "is_disabled": 0, "rental_uris": {"android": "https://dc.lft.to/lastmile_qr_scan", "ios": "https://dc.lft.to/lastmile_qr_scan"}, "fusion_lon": 0.0, "lat": 38.90413266666667, "bike_id": "bf60dbc808f4c5562ced107b34e34192", "type": "electric_scooter", "is_reserved": 0, "lon": -76.973348}, {"fusion_lat": 0.0, "name": "65e051bf29acb2448867f964fbabec68", "is_disabled": 0, "rental_uris": {"android": "https://dc.lft.to/lastmile_qr_scan", "ios": "https://dc.lft.to/lastmile_qr_scan"}, "fusion_lon": 0.0, "lat": 38.94164683333333, "bike_id": "65e051bf29acb2448867f964fbabec68", "type": "electric_bike", "is_reserved": 0, "lon": -76.96646566666666}, {"fusion_lat": 0.0, "name": "f3f2a8433913ca867f6e7a91df8f06cf", "is_disabled": 0, "rental_uris": {"android": "https://dc.lft.to/lastmile_qr_scan", "ios": "https://dc.lft.to/lastmile_qr_scan"}, "fusion_lon": 0.0, "lat": 38.92070066666667, "bike_id": "f3f2a8433913ca867f6e7a91df8f06cf", "type": "electric_scooter", "is_reserved": 0, "lon": -77.02414766666666}, {"fusion_lat": 0.0, "name": "297e7c8eb2fff54b1d76f8504aa5d0d9", "is_disabled": 0, "rental_uris": {"android": "https://dc.lft.to/lastmile_qr_scan", "ios": "https://dc.lft.to/lastmile_qr_scan"}, "fusion_lon": 0.0, "lat": 38.918165, "bike_id": "297e7c8eb2fff54b1d76f8504aa5d0d9", "type": "electric_scooter", "is_reserved": 0, "lon": -77.02493333333334}, {"fusion_lat": 0.0, "name": "7aaaa4a21cdde1c676f880038ae2d612", "is_disabled": 0, "rental_uris": {"android": "https://dc.lft.to/lastmile_qr_scan", "ios": "https://dc.lft.to/lastmile_qr_scan"}, "fusion_lon": 0.0, "lat": 38.9292805, "bike_id": "7aaaa4a21cdde1c676f880038ae2d612", "type": "electric_scooter", "is_reserved": 0, "lon": -77.023419}, {"fusion_lat": 0.0, "name": "2944f2ebfda3ae8b3a8c00c15b0e174a", "is_disabled": 0, "rental_uris": {"android": "https://dc.lft.to/lastmile_qr_scan", "ios": "https://dc.lft.to/lastmile_qr_scan"}, "fusion_lon": 0.0, "lat": 38.923178666666665, "bike_id": "2944f2ebfda3ae8b3a8c00c15b0e174a", "type": "electric_scooter", "is_reserved": 0, "lon": -77.02041683333333}, {"fusion_lat": 0.0, "name": "357e95301c77d0f3b381e25976786dfc", "is_disabled": 0, "rental_uris": {"android": "https://dc.lft.to/lastmile_qr_scan", "ios": "https://dc.lft.to/lastmile_qr_scan"}, "fusion_lon": 0.0, "lat": 38.930753833333334, "bike_id": "357e95301c77d0f3b381e25976786dfc", "type": "electric_scooter", "is_reserved": 0, "lon": -77.07763766666666}, {"fusion_lat": 0.0, "name": "fb4d706bfbc7216355e2bcde46d52fb0", "is_disabled": 0, "rental_uris": {"android": "https://dc.lft.to/lastmile_qr_scan", "ios": "https://dc.lft.to/lastmile_qr_scan"}, "fusion_lon": 0.0, "lat": 38.90807383333333, "bike_id": "fb4d706bfbc7216355e2bcde46d52fb0", "type": "electric_scooter", "is_reserved": 0, "lon": -77.03431033333334}, {"fusion_lat": 0.0, "name": "402f590865f949f98a7bd005fcdad410", "is_disabled": 0, "rental_uris": {"android": "https://dc.lft.to/lastmile_qr_scan", "ios": "https://dc.lft.to/lastmile_qr_scan"}, "fusion_lon": 0.0, "lat": 38.9523415, "bike_id": "402f590865f949f98a7bd005fcdad410", "type": "electric_scooter", "is_reserved": 0, "lon": -76.99010116666666}, {"fusion_lat": 0.0, "name": "83518a0fd9f240e83bdc37aafe29c7a3", "is_disabled": 0, "rental_uris": {"android": "https://dc.lft.to/lastmile_qr_scan", "ios": "https://dc.lft.to/lastmile_qr_scan"}, "fusion_lon": 0.0, "lat": 38.92158116666667, "bike_id": "83518a0fd9f240e83bdc37aafe29c7a3", "type": "electric_scooter", "is_reserved": 0, "lon": -77.033667}, {"fusion_lat": 0.0, "name": "6171b1931287cb3c1aa214bab6671e96", "is_disabled": 0, "rental_uris": {"android": "https://dc.lft.to/lastmile_qr_scan", "ios": "https://dc.lft.to/lastmile_qr_scan"}, "fusion_lon": 0.0, "lat": 38.90731683333333, "bike_id": "6171b1931287cb3c1aa214bab6671e96", "type": "electric_scooter", "is_reserved": 0, "lon": -77.02898416666666}, {"fusion_lat": 0.0, "name": "9ed2b9cc5b550768402b4628c9ca058c", "is_disabled": 0, "rental_uris": {"android": "https://dc.lft.to/lastmile_qr_scan", "ios": "https://dc.lft.to/lastmile_qr_scan"}, "fusion_lon": 0.0, "lat": 38.90396783333333, "bike_id": "9ed2b9cc5b550768402b4628c9ca058c", "type": "electric_scooter", "is_reserved": 0, "lon": -76.99010683333333}, {"fusion_lat": 0.0, "name": "7c769f5287d389bd950e6db6c91f8137", "is_disabled": 0, "rental_uris": {"android": "https://dc.lft.to/lastmile_qr_scan", "ios": "https://dc.lft.to/lastmile_qr_scan"}, "fusion_lon": 0.0, "lat": 38.90730033333333, "bike_id": "7c769f5287d389bd950e6db6c91f8137", "type": "electric_scooter", "is_reserved": 0, "lon": -77.01223683333333}, {"fusion_lat": 0.0, "name": "6cf07b91719b6182e0d9727b79d4f15d", "is_disabled": 0, "rental_uris": {"android": "https://dc.lft.to/lastmile_qr_scan", "ios": "https://dc.lft.to/lastmile_qr_scan"}, "fusion_lon": 0.0, "lat": 38.935209, "bike_id": "6cf07b91719b6182e0d9727b79d4f15d", "type": "electric_scooter", "is_reserved": 0, "lon": -77.0326635}, {"fusion_lat": 0.0, "name": "e9dd5a0f3bf136e3860472222c7224fa", "is_disabled": 0, "rental_uris": {"android": "https://dc.lft.to/lastmile_qr_scan", "ios": "https://dc.lft.to/lastmile_qr_scan"}, "fusion_lon": 0.0, "lat": 38.904074333333334, "bike_id": "e9dd5a0f3bf136e3860472222c7224fa", "type": "electric_scooter", "is_reserved": 0, "lon": -76.97332516666667}, {"fusion_lat": 0.0, "name": "d178648eaf34983cea2ca790c9cee7b3", "is_disabled": 0, "rental_uris": {"android": "https://dc.lft.to/lastmile_qr_scan", "ios": "https://dc.lft.to/lastmile_qr_scan"}, "fusion_lon": 0.0, "lat": 38.902575666666664, "bike_id": "d178648eaf34983cea2ca790c9cee7b3", "type": "electric_scooter", "is_reserved": 0, "lon": -76.9745885}, {"fusion_lat": 0.0, "name": "34d9238aa55a7cf3a712afaf5f07f544", "is_disabled": 0, "rental_uris": {"android": "https://dc.lft.to/lastmile_qr_scan", "ios": "https://dc.lft.to/lastmile_qr_scan"}, "fusion_lon": 0.0, "lat": 38.860140333333334, "bike_id": "34d9238aa55a7cf3a712afaf5f07f544", "type": "electric_bike", "is_reserved": 0, "lon": -77.12811416666666}, {"fusion_lat": 0.0, "name": "8b094a3d20081b0e3ef71ff50e7038c2", "is_disabled": 0, "rental_uris": {"android": "https://dc.lft.to/lastmile_qr_scan", "ios": "https://dc.lft.to/lastmile_qr_scan"}, "fusion_lon": 0.0, "lat": 38.900293166666664, "bike_id": "8b094a3d20081b0e3ef71ff50e7038c2", "type": "electric_scooter", "is_reserved": 0, "lon": -76.9914145}, {"fusion_lat": 0.0, "name": "e0d95aebcb55dba638ebd7ddc7312295", "is_disabled": 0, "rental_uris": {"android": "https://dc.lft.to/lastmile_qr_scan", "ios": "https://dc.lft.to/lastmile_qr_scan"}, "fusion_lon": 0.0, "lat": 38.9206725, "bike_id": "e0d95aebcb55dba638ebd7ddc7312295", "type": "electric_scooter", "is_reserved": 0, "lon": -77.0320335}, {"fusion_lat": 0.0, "name": "da5fd6477dc7624e06d03e41a433e676", "is_disabled": 0, "rental_uris": {"android": "https://dc.lft.to/lastmile_qr_scan", "ios": "https://dc.lft.to/lastmile_qr_scan"}, "fusion_lon": 0.0, "lat": 38.88455866666666, "bike_id": "da5fd6477dc7624e06d03e41a433e676", "type": "electric_scooter", "is_reserved": 0, "lon": -76.99842066666666}, {"fusion_lat": 0.0, "name": "068b008788421093f5cd6499775d2389", "is_disabled": 0, "rental_uris": {"android": "https://dc.lft.to/lastmile_qr_scan", "ios": "https://dc.lft.to/lastmile_qr_scan"}, "fusion_lon": 0.0, "lat": 38.88481316666667, "bike_id": "068b008788421093f5cd6499775d2389", "type": "electric_scooter", "is_reserved": 0, "lon": -76.929734}, {"fusion_lat": 0.0, "name": "e60ef782437c2a2fdcde1499865e3091", "is_disabled": 0, "rental_uris": {"android": "https://dc.lft.to/lastmile_qr_scan", "ios": "https://dc.lft.to/lastmile_qr_scan"}, "fusion_lon": 0.0, "lat": 38.929885166666665, "bike_id": "e60ef782437c2a2fdcde1499865e3091", "type": "electric_scooter", "is_reserved": 0, "lon": -77.03234233333333}, {"fusion_lat": 0.0, "name": "ac957066ed6cb99dc9b3338fc86f33a4", "is_disabled": 0, "rental_uris": {"android": "https://dc.lft.to/lastmile_qr_scan", "ios": "https://dc.lft.to/lastmile_qr_scan"}, "fusion_lon": 0.0, "lat": 38.94701666666667, "bike_id": "ac957066ed6cb99dc9b3338fc86f33a4", "type": "electric_scooter", "is_reserved": 0, "lon": -77.0194305}, {"fusion_lat": 0.0, "name": "6f78208687e93486f8129018b2e6c272", "is_disabled": 0, "rental_uris": {"android": "https://dc.lft.to/lastmile_qr_scan", "ios": "https://dc.lft.to/lastmile_qr_scan"}, "fusion_lon": 0.0, "lat": 38.935831666666665, "bike_id": "6f78208687e93486f8129018b2e6c272", "type": "electric_scooter", "is_reserved": 0, "lon": -77.02363133333333}, {"fusion_lat": 0.0, "name": "752cbb7fba28a5f1f04e0f23ca376402", "is_disabled": 0, "rental_uris": {"android": "https://dc.lft.to/lastmile_qr_scan", "ios": "https://dc.lft.to/lastmile_qr_scan"}, "fusion_lon": 0.0, "lat": 38.9244325, "bike_id": "752cbb7fba28a5f1f04e0f23ca376402", "type": "electric_scooter", "is_reserved": 0, "lon": -77.033649}, {"fusion_lat": 0.0, "name": "1029413d3487635a746ed51b0d0a4425", "is_disabled": 0, "rental_uris": {"android": "https://dc.lft.to/lastmile_qr_scan", "ios": "https://dc.lft.to/lastmile_qr_scan"}, "fusion_lon": 0.0, "lat": 38.9467595, "bike_id": "1029413d3487635a746ed51b0d0a4425", "type": "electric_scooter", "is_reserved": 0, "lon": -77.03096783333334}, {"fusion_lat": 0.0, "name": "6b499eac093d3362c17c811ce9b68802", "is_disabled": 0, "rental_uris": {"android": "https://dc.lft.to/lastmile_qr_scan", "ios": "https://dc.lft.to/lastmile_qr_scan"}, "fusion_lon": 0.0, "lat": 38.904348666666664, "bike_id": "6b499eac093d3362c17c811ce9b68802", "type": "electric_scooter", "is_reserved": 0, "lon": -77.03188966666667}, {"fusion_lat": 0.0, "name": "048ddd0cb6db0daab14f777ebf9fef76", "is_disabled": 0, "rental_uris": {"android": "https://dc.lft.to/lastmile_qr_scan", "ios": "https://dc.lft.to/lastmile_qr_scan"}, "fusion_lon": 0.0, "lat": 38.930960666666664, "bike_id": "048ddd0cb6db0daab14f777ebf9fef76", "type": "electric_scooter", "is_reserved": 0, "lon": -77.02667483333333}, {"fusion_lat": 0.0, "name": "884c9d275c3d72d1963a7695364e6938", "is_disabled": 0, "rental_uris": {"android": "https://dc.lft.to/lastmile_qr_scan", "ios": "https://dc.lft.to/lastmile_qr_scan"}, "fusion_lon": 0.0, "lat": 38.907920833333336, "bike_id": "884c9d275c3d72d1963a7695364e6938", "type": "electric_scooter", "is_reserved": 0, "lon": -77.043427}, {"fusion_lat": 0.0, "name": "833a4bf48bae2c3a740fb598b784da2b", "is_disabled": 0, "rental_uris": {"android": "https://dc.lft.to/lastmile_qr_scan", "ios": "https://dc.lft.to/lastmile_qr_scan"}, "fusion_lon": 0.0, "lat": 38.948341, "bike_id": "833a4bf48bae2c3a740fb598b784da2b", "type": "electric_scooter", "is_reserved": 0, "lon": -77.02574316666667}, {"fusion_lat": 0.0, "name": "31ba2886634ab5b147da79491203eaef", "is_disabled": 0, "rental_uris": {"android": "https://dc.lft.to/lastmile_qr_scan", "ios": "https://dc.lft.to/lastmile_qr_scan"}, "fusion_lon": 0.0, "lat": 38.93175516666667, "bike_id": "31ba2886634ab5b147da79491203eaef", "type": "electric_scooter", "is_reserved": 0, "lon": -77.04306233333334}, {"fusion_lat": 0.0, "name": "ff9d80c42ff570408b540764d2f44365", "is_disabled": 0, "rental_uris": {"android": "https://dc.lft.to/lastmile_qr_scan", "ios": "https://dc.lft.to/lastmile_qr_scan"}, "fusion_lon": 0.0, "lat": 38.91110783333333, "bike_id": "ff9d80c42ff570408b540764d2f44365", "type": "electric_scooter", "is_reserved": 0, "lon": -77.01151466666667}, {"fusion_lat": 0.0, "name": "288009915e197f89112cdcdf386c3b16", "is_disabled": 0, "rental_uris": {"android": "https://dc.lft.to/lastmile_qr_scan", "ios": "https://dc.lft.to/lastmile_qr_scan"}, "fusion_lon": 0.0, "lat": 38.95706583333333, "bike_id": "288009915e197f89112cdcdf386c3b16", "type": "electric_scooter", "is_reserved": 0, "lon": -77.02401816666666}, {"fusion_lat": 0.0, "name": "92b1e4c34b3ffcfa8bc91556d1275f16", "is_disabled": 0, "rental_uris": {"android": "https://dc.lft.to/lastmile_qr_scan", "ios": "https://dc.lft.to/lastmile_qr_scan"}, "fusion_lon": 0.0, "lat": 38.894651333333336, "bike_id": "92b1e4c34b3ffcfa8bc91556d1275f16", "type": "electric_scooter", "is_reserved": 0, "lon": -77.02694983333333}, {"fusion_lat": 0.0, "name": "5f6fce55fe5bfe9aebc305e0ebce09d6", "is_disabled": 0, "rental_uris": {"android": "https://dc.lft.to/lastmile_qr_scan", "ios": "https://dc.lft.to/lastmile_qr_scan"}, "fusion_lon": 0.0, "lat": 38.857966833333336, "bike_id": "5f6fce55fe5bfe9aebc305e0ebce09d6", "type": "electric_bike", "is_reserved": 0, "lon": -77.12012116666666}, {"fusion_lat": 0.0, "name": "e8ef1d8bf9629805f0bd1123c9b69265", "is_disabled": 0, "rental_uris": {"android": "https://dc.lft.to/lastmile_qr_scan", "ios": "https://dc.lft.to/lastmile_qr_scan"}, "fusion_lon": 0.0, "lat": 38.935588333333335, "bike_id": "e8ef1d8bf9629805f0bd1123c9b69265", "type": "electric_scooter", "is_reserved": 0, "lon": -77.0348185}, {"fusion_lat": 0.0, "name": "b401898a5f56f8094b1ec3823f0a0c8e", "is_disabled": 0, "rental_uris": {"android": "https://dc.lft.to/lastmile_qr_scan", "ios": "https://dc.lft.to/lastmile_qr_scan"}, "fusion_lon": 0.0, "lat": 38.930649833333334, "bike_id": "b401898a5f56f8094b1ec3823f0a0c8e", "type": "electric_scooter", "is_reserved": 0, "lon": -77.02985633333333}, {"fusion_lat": 0.0, "name": "20bec9feb8008cb998b5076a8429399f", "is_disabled": 0, "rental_uris": {"android": "https://dc.lft.to/lastmile_qr_scan", "ios": "https://dc.lft.to/lastmile_qr_scan"}, "fusion_lon": 0.0, "lat": 38.895083666666665, "bike_id": "20bec9feb8008cb998b5076a8429399f", "type": "electric_scooter", "is_reserved": 0, "lon": -77.01111666666667}, {"fusion_lat": 0.0, "name": "8a6dc697545308fa4d406da41cf245bc", "is_disabled": 0, "rental_uris": {"android": "https://dc.lft.to/lastmile_qr_scan", "ios": "https://dc.lft.to/lastmile_qr_scan"}, "fusion_lon": 0.0, "lat": 38.916732833333334, "bike_id": "8a6dc697545308fa4d406da41cf245bc", "type": "electric_scooter", "is_reserved": 0, "lon": -77.0272335}, {"fusion_lat": 0.0, "name": "93a4c23300c8e581498dca558794070d", "is_disabled": 0, "rental_uris": {"android": "https://dc.lft.to/lastmile_qr_scan", "ios": "https://dc.lft.to/lastmile_qr_scan"}, "fusion_lon": 0.0, "lat": 38.902399333333335, "bike_id": "93a4c23300c8e581498dca558794070d", "type": "electric_scooter", "is_reserved": 0, "lon": -77.01917266666666}, {"fusion_lat": 0.0, "name": "b6c416f54d85bfb9199bacdf0bc6f989", "is_disabled": 0, "rental_uris": {"android": "https://dc.lft.to/lastmile_qr_scan", "ios": "https://dc.lft.to/lastmile_qr_scan"}, "fusion_lon": 0.0, "lat": 38.949182, "bike_id": "b6c416f54d85bfb9199bacdf0bc6f989", "type": "electric_scooter", "is_reserved": 0, "lon": -77.01853666666666}, {"fusion_lat": 0.0, "name": "8c7e934cf6060e53746674c8ed76d4fc", "is_disabled": 0, "rental_uris": {"android": "https://dc.lft.to/lastmile_qr_scan", "ios": "https://dc.lft.to/lastmile_qr_scan"}, "fusion_lon": 0.0, "lat": 38.93047716666667, "bike_id": "8c7e934cf6060e53746674c8ed76d4fc", "type": "electric_scooter", "is_reserved": 0, "lon": -77.03352783333334}, {"fusion_lat": 0.0, "name": "be631cca0a00dd280ef6104e45339b6a", "is_disabled": 0, "rental_uris": {"android": "https://dc.lft.to/lastmile_qr_scan", "ios": "https://dc.lft.to/lastmile_qr_scan"}, "fusion_lon": 0.0, "lat": 38.9112485, "bike_id": "be631cca0a00dd280ef6104e45339b6a", "type": "electric_scooter", "is_reserved": 0, "lon": -77.02201483333333}, {"fusion_lat": 0.0, "name": "305a051941835cc642a5dfde229e46d8", "is_disabled": 0, "rental_uris": {"android": "https://dc.lft.to/lastmile_qr_scan", "ios": "https://dc.lft.to/lastmile_qr_scan"}, "fusion_lon": 0.0, "lat": 38.900309166666666, "bike_id": "305a051941835cc642a5dfde229e46d8", "type": "electric_scooter", "is_reserved": 0, "lon": -76.991343}, {"fusion_lat": 0.0, "name": "1efff28ee10c8a2c2367a3fe0edbad00", "is_disabled": 0, "rental_uris": {"android": "https://dc.lft.to/lastmile_qr_scan", "ios": "https://dc.lft.to/lastmile_qr_scan"}, "fusion_lon": 0.0, "lat": 38.922797, "bike_id": "1efff28ee10c8a2c2367a3fe0edbad00", "type": "electric_scooter", "is_reserved": 0, "lon": -76.9943395}, {"fusion_lat": 0.0, "name": "f00f4d5246e4520b0a3d89f15c9a1f04", "is_disabled": 0, "rental_uris": {"android": "https://dc.lft.to/lastmile_qr_scan", "ios": "https://dc.lft.to/lastmile_qr_scan"}, "fusion_lon": 0.0, "lat": 38.890066, "bike_id": "f00f4d5246e4520b0a3d89f15c9a1f04", "type": "electric_scooter", "is_reserved": 0, "lon": -76.93738466666667}, {"fusion_lat": 0.0, "name": "e372a74b7280f40a57c9a8bb0696c231", "is_disabled": 0, "rental_uris": {"android": "https://dc.lft.to/lastmile_qr_scan", "ios": "https://dc.lft.to/lastmile_qr_scan"}, "fusion_lon": 0.0, "lat": 38.88963533333333, "bike_id": "e372a74b7280f40a57c9a8bb0696c231", "type": "electric_scooter", "is_reserved": 0, "lon": -77.015055}, {"fusion_lat": 0.0, "name": "379e1cb5693db4ea87abfe718b243807", "is_disabled": 0, "rental_uris": {"android": "https://dc.lft.to/lastmile_qr_scan", "ios": "https://dc.lft.to/lastmile_qr_scan"}, "fusion_lon": 0.0, "lat": 38.91562583333334, "bike_id": "379e1cb5693db4ea87abfe718b243807", "type": "electric_scooter", "is_reserved": 0, "lon": -77.03245283333334}, {"fusion_lat": 0.0, "name": "cdee736623c795722eba993568593710", "is_disabled": 0, "rental_uris": {"android": "https://dc.lft.to/lastmile_qr_scan", "ios": "https://dc.lft.to/lastmile_qr_scan"}, "fusion_lon": 0.0, "lat": 38.87685833333333, "bike_id": "cdee736623c795722eba993568593710", "type": "electric_scooter", "is_reserved": 0, "lon": -77.01762033333333}, {"fusion_lat": 0.0, "name": "f75dcf9238ddf9a90d87529740592f26", "is_disabled": 0, "rental_uris": {"android": "https://dc.lft.to/lastmile_qr_scan", "ios": "https://dc.lft.to/lastmile_qr_scan"}, "fusion_lon": 0.0, "lat": 38.8849095, "bike_id": "f75dcf9238ddf9a90d87529740592f26", "type": "electric_scooter", "is_reserved": 0, "lon": -77.0242785}, {"fusion_lat": 0.0, "name": "bd455ad5ac303e0ee74556ed08502677", "is_disabled": 0, "rental_uris": {"android": "https://dc.lft.to/lastmile_qr_scan", "ios": "https://dc.lft.to/lastmile_qr_scan"}, "fusion_lon": 0.0, "lat": 38.913432, "bike_id": "bd455ad5ac303e0ee74556ed08502677", "type": "electric_scooter", "is_reserved": 0, "lon": -77.00345466666667}, {"fusion_lat": 0.0, "name": "402411a055fc525dfd6cbac4e9a93d46", "is_disabled": 0, "rental_uris": {"android": "https://dc.lft.to/lastmile_qr_scan", "ios": "https://dc.lft.to/lastmile_qr_scan"}, "fusion_lon": 0.0, "lat": 38.92456816666667, "bike_id": "402411a055fc525dfd6cbac4e9a93d46", "type": "electric_scooter", "is_reserved": 0, "lon": -77.0241085}, {"fusion_lat": 0.0, "name": "dc43c97f93c8534c511f5d30ddc0668f", "is_disabled": 0, "rental_uris": {"android": "https://dc.lft.to/lastmile_qr_scan", "ios": "https://dc.lft.to/lastmile_qr_scan"}, "fusion_lon": 0.0, "lat": 38.90380116666667, "bike_id": "dc43c97f93c8534c511f5d30ddc0668f", "type": "electric_scooter", "is_reserved": 0, "lon": -76.98481716666667}, {"fusion_lat": 0.0, "name": "91f116b5742fc6236d16560d1ac2b355", "is_disabled": 0, "rental_uris": {"android": "https://dc.lft.to/lastmile_qr_scan", "ios": "https://dc.lft.to/lastmile_qr_scan"}, "fusion_lon": 0.0, "lat": 38.91112866666667, "bike_id": "91f116b5742fc6236d16560d1ac2b355", "type": "electric_scooter", "is_reserved": 0, "lon": -77.04221566666666}, {"fusion_lat": 0.0, "name": "9e4bb34e1974a478de740749aae2a45f", "is_disabled": 0, "rental_uris": {"android": "https://dc.lft.to/lastmile_qr_scan", "ios": "https://dc.lft.to/lastmile_qr_scan"}, "fusion_lon": 0.0, "lat": 38.929907, "bike_id": "9e4bb34e1974a478de740749aae2a45f", "type": "electric_scooter", "is_reserved": 0, "lon": -77.03229566666667}, {"fusion_lat": 0.0, "name": "43ed61548059f824bbedbaa73d32a0e8", "is_disabled": 0, "rental_uris": {"android": "https://dc.lft.to/lastmile_qr_scan", "ios": "https://dc.lft.to/lastmile_qr_scan"}, "fusion_lon": 0.0, "lat": 38.907642833333334, "bike_id": "43ed61548059f824bbedbaa73d32a0e8", "type": "electric_scooter", "is_reserved": 0, "lon": -77.032052}, {"fusion_lat": 0.0, "name": "e2f9526fdc35331e46185a4d24aba933", "is_disabled": 0, "rental_uris": {"android": "https://dc.lft.to/lastmile_qr_scan", "ios": "https://dc.lft.to/lastmile_qr_scan"}, "fusion_lon": 0.0, "lat": 38.92581116666667, "bike_id": "e2f9526fdc35331e46185a4d24aba933", "type": "electric_scooter", "is_reserved": 0, "lon": -77.0272785}, {"fusion_lat": 0.0, "name": "89f768793924abf6527e5cac3a272e6a", "is_disabled": 0, "rental_uris": {"android": "https://dc.lft.to/lastmile_qr_scan", "ios": "https://dc.lft.to/lastmile_qr_scan"}, "fusion_lon": 0.0, "lat": 38.920627833333334, "bike_id": "89f768793924abf6527e5cac3a272e6a", "type": "electric_scooter", "is_reserved": 0, "lon": -77.02714283333333}, {"fusion_lat": 0.0, "name": "9aac1662a910c21460bc347904b76b20", "is_disabled": 0, "rental_uris": {"android": "https://dc.lft.to/lastmile_qr_scan", "ios": "https://dc.lft.to/lastmile_qr_scan"}, "fusion_lon": 0.0, "lat": 38.901786666666666, "bike_id": "9aac1662a910c21460bc347904b76b20", "type": "electric_scooter", "is_reserved": 0, "lon": -77.05923266666667}, {"fusion_lat": 0.0, "name": "28f171f681b8c3ee883540851e1e3504", "is_disabled": 0, "rental_uris": {"android": "https://dc.lft.to/lastmile_qr_scan", "ios": "https://dc.lft.to/lastmile_qr_scan"}, "fusion_lon": 0.0, "lat": 38.923723333333335, "bike_id": "28f171f681b8c3ee883540851e1e3504", "type": "electric_scooter", "is_reserved": 0, "lon": -77.0815385}, {"fusion_lat": 0.0, "name": "8e98760c87fb30044fbde40e54525269", "is_disabled": 0, "rental_uris": {"android": "https://dc.lft.to/lastmile_qr_scan", "ios": "https://dc.lft.to/lastmile_qr_scan"}, "fusion_lon": 0.0, "lat": 38.9166825, "bike_id": "8e98760c87fb30044fbde40e54525269", "type": "electric_scooter", "is_reserved": 0, "lon": -77.02282683333334}, {"fusion_lat": 0.0, "name": "baea9f9549c3f52cf85d5e3b7dbb1e08", "is_disabled": 0, "rental_uris": {"android": "https://dc.lft.to/lastmile_qr_scan", "ios": "https://dc.lft.to/lastmile_qr_scan"}, "fusion_lon": 0.0, "lat": 38.961277, "bike_id": "baea9f9549c3f52cf85d5e3b7dbb1e08", "type": "electric_scooter", "is_reserved": 0, "lon": -77.02788}, {"fusion_lat": 0.0, "name": "477d083f4e8cb9dd28dfe80b7b76bd11", "is_disabled": 0, "rental_uris": {"android": "https://dc.lft.to/lastmile_qr_scan", "ios": "https://dc.lft.to/lastmile_qr_scan"}, "fusion_lon": 0.0, "lat": 38.895617666666666, "bike_id": "477d083f4e8cb9dd28dfe80b7b76bd11", "type": "electric_scooter", "is_reserved": 0, "lon": -76.9943525}, {"fusion_lat": 0.0, "name": "d421dc1f3a3f820e08d7b013f1934c06", "is_disabled": 0, "rental_uris": {"android": "https://dc.lft.to/lastmile_qr_scan", "ios": "https://dc.lft.to/lastmile_qr_scan"}, "fusion_lon": 0.0, "lat": 38.9215465, "bike_id": "d421dc1f3a3f820e08d7b013f1934c06", "type": "electric_scooter", "is_reserved": 0, "lon": -77.02080433333333}, {"fusion_lat": 0.0, "name": "2a0246616df8e0b4fc84838970c17220", "is_disabled": 0, "rental_uris": {"android": "https://dc.lft.to/lastmile_qr_scan", "ios": "https://dc.lft.to/lastmile_qr_scan"}, "fusion_lon": 0.0, "lat": 39.01417, "bike_id": "2a0246616df8e0b4fc84838970c17220", "type": "electric_bike", "is_reserved": 0, "lon": -77.044998}, {"fusion_lat": 0.0, "name": "9cebc4fe04ec34775695425d97c82a14", "is_disabled": 0, "rental_uris": {"android": "https://dc.lft.to/lastmile_qr_scan", "ios": "https://dc.lft.to/lastmile_qr_scan"}, "fusion_lon": 0.0, "lat": 38.88503333333333, "bike_id": "9cebc4fe04ec34775695425d97c82a14", "type": "electric_scooter", "is_reserved": 0, "lon": -76.99756783333333}, {"fusion_lat": 0.0, "name": "38f18b7d50035f9f7351d2ff312a686d", "is_disabled": 0, "rental_uris": {"android": "https://dc.lft.to/lastmile_qr_scan", "ios": "https://dc.lft.to/lastmile_qr_scan"}, "fusion_lon": 0.0, "lat": 38.90217033333333, "bike_id": "38f18b7d50035f9f7351d2ff312a686d", "type": "electric_scooter", "is_reserved": 0, "lon": -77.02372066666666}, {"fusion_lat": 0.0, "name": "9f95badd7e6423990d27feff7befef09", "is_disabled": 0, "rental_uris": {"android": "https://dc.lft.to/lastmile_qr_scan", "ios": "https://dc.lft.to/lastmile_qr_scan"}, "fusion_lon": 0.0, "lat": 38.908376, "bike_id": "9f95badd7e6423990d27feff7befef09", "type": "electric_bike", "is_reserved": 0, "lon": -77.00239}, {"fusion_lat": 0.0, "name": "ff86d5d71c257b286c7613247598afa9", "is_disabled": 0, "rental_uris": {"android": "https://dc.lft.to/lastmile_qr_scan", "ios": "https://dc.lft.to/lastmile_qr_scan"}, "fusion_lon": 0.0, "lat": 38.9006675, "bike_id": "ff86d5d71c257b286c7613247598afa9", "type": "electric_scooter", "is_reserved": 0, "lon": -76.98703333333333}, {"fusion_lat": 0.0, "name": "d0efb59cdf4e8d7e52137ca2c4e2a499", "is_disabled": 0, "rental_uris": {"android": "https://dc.lft.to/lastmile_qr_scan", "ios": "https://dc.lft.to/lastmile_qr_scan"}, "fusion_lon": 0.0, "lat": 38.91723, "bike_id": "d0efb59cdf4e8d7e52137ca2c4e2a499", "type": "electric_scooter", "is_reserved": 0, "lon": -77.028083}, {"fusion_lat": 0.0, "name": "153b9c0bdd9bcc30f6d6b30eee07f9ac", "is_disabled": 0, "rental_uris": {"android": "https://dc.lft.to/lastmile_qr_scan", "ios": "https://dc.lft.to/lastmile_qr_scan"}, "fusion_lon": 0.0, "lat": 38.90849816666667, "bike_id": "153b9c0bdd9bcc30f6d6b30eee07f9ac", "type": "electric_scooter", "is_reserved": 0, "lon": -77.047384}, {"fusion_lat": 0.0, "name": "38beb6bb4e5f0d7711ace645d83223eb", "is_disabled": 0, "rental_uris": {"android": "https://dc.lft.to/lastmile_qr_scan", "ios": "https://dc.lft.to/lastmile_qr_scan"}, "fusion_lon": 0.0, "lat": 38.9408065, "bike_id": "38beb6bb4e5f0d7711ace645d83223eb", "type": "electric_scooter", "is_reserved": 0, "lon": -77.023947}, {"fusion_lat": 0.0, "name": "cb2ecd3c87e9a9639fb940a4e875a093", "is_disabled": 0, "rental_uris": {"android": "https://dc.lft.to/lastmile_qr_scan", "ios": "https://dc.lft.to/lastmile_qr_scan"}, "fusion_lon": 0.0, "lat": 38.9248905, "bike_id": "cb2ecd3c87e9a9639fb940a4e875a093", "type": "electric_scooter", "is_reserved": 0, "lon": -77.05757266666667}, {"fusion_lat": 0.0, "name": "04e685b569efe1cdf65482820827a5d3", "is_disabled": 0, "rental_uris": {"android": "https://dc.lft.to/lastmile_qr_scan", "ios": "https://dc.lft.to/lastmile_qr_scan"}, "fusion_lon": 0.0, "lat": 38.90957316666667, "bike_id": "04e685b569efe1cdf65482820827a5d3", "type": "electric_scooter", "is_reserved": 0, "lon": -77.01042183333334}, {"fusion_lat": 0.0, "name": "ba702e39309f418608dcccd2ca75a6f6", "is_disabled": 0, "rental_uris": {"android": "https://dc.lft.to/lastmile_qr_scan", "ios": "https://dc.lft.to/lastmile_qr_scan"}, "fusion_lon": 0.0, "lat": 38.92825533333333, "bike_id": "ba702e39309f418608dcccd2ca75a6f6", "type": "electric_scooter", "is_reserved": 0, "lon": -77.02261816666666}, {"fusion_lat": 0.0, "name": "89dbe28acefbd1e2dd24dac1600a3e40", "is_disabled": 0, "rental_uris": {"android": "https://dc.lft.to/lastmile_qr_scan", "ios": "https://dc.lft.to/lastmile_qr_scan"}, "fusion_lon": 0.0, "lat": 38.93695966666667, "bike_id": "89dbe28acefbd1e2dd24dac1600a3e40", "type": "electric_scooter", "is_reserved": 0, "lon": -77.05600783333334}, {"fusion_lat": 0.0, "name": "ee60925c319bac04e0e5d5391721084f", "is_disabled": 0, "rental_uris": {"android": "https://dc.lft.to/lastmile_qr_scan", "ios": "https://dc.lft.to/lastmile_qr_scan"}, "fusion_lon": 0.0, "lat": 38.92624883333333, "bike_id": "ee60925c319bac04e0e5d5391721084f", "type": "electric_scooter", "is_reserved": 0, "lon": -77.05476116666667}, {"fusion_lat": 0.0, "name": "6994d41eb044a01fd637df15a3aa82f5", "is_disabled": 0, "rental_uris": {"android": "https://dc.lft.to/lastmile_qr_scan", "ios": "https://dc.lft.to/lastmile_qr_scan"}, "fusion_lon": 0.0, "lat": 38.904525666666665, "bike_id": "6994d41eb044a01fd637df15a3aa82f5", "type": "electric_scooter", "is_reserved": 0, "lon": -77.0016925}, {"fusion_lat": 0.0, "name": "25e60bc1494da7cc6210a50547495311", "is_disabled": 0, "rental_uris": {"android": "https://dc.lft.to/lastmile_qr_scan", "ios": "https://dc.lft.to/lastmile_qr_scan"}, "fusion_lon": 0.0, "lat": 38.8959185, "bike_id": "25e60bc1494da7cc6210a50547495311", "type": "electric_scooter", "is_reserved": 0, "lon": -77.02519716666667}, {"fusion_lat": 0.0, "name": "d43992e1e6f92e36ad9645dcee753029", "is_disabled": 0, "rental_uris": {"android": "https://dc.lft.to/lastmile_qr_scan", "ios": "https://dc.lft.to/lastmile_qr_scan"}, "fusion_lon": 0.0, "lat": 38.91160433333334, "bike_id": "d43992e1e6f92e36ad9645dcee753029", "type": "electric_scooter", "is_reserved": 0, "lon": -77.02004566666666}, {"fusion_lat": 0.0, "name": "c854472b8a0e2f38fa5cebac7c0c0e45", "is_disabled": 0, "rental_uris": {"android": "https://dc.lft.to/lastmile_qr_scan", "ios": "https://dc.lft.to/lastmile_qr_scan"}, "fusion_lon": 0.0, "lat": 38.90010266666667, "bike_id": "c854472b8a0e2f38fa5cebac7c0c0e45", "type": "electric_scooter", "is_reserved": 0, "lon": -77.00683566666666}, {"fusion_lat": 0.0, "name": "8c3faf9f73e6a1f689697a2d86a90f56", "is_disabled": 0, "rental_uris": {"android": "https://dc.lft.to/lastmile_qr_scan", "ios": "https://dc.lft.to/lastmile_qr_scan"}, "fusion_lon": 0.0, "lat": 38.89680633333333, "bike_id": "8c3faf9f73e6a1f689697a2d86a90f56", "type": "electric_scooter", "is_reserved": 0, "lon": -77.00791216666667}, {"fusion_lat": 0.0, "name": "ead0cdc4d11ab3e296ae1c3ce9391801", "is_disabled": 0, "rental_uris": {"android": "https://dc.lft.to/lastmile_qr_scan", "ios": "https://dc.lft.to/lastmile_qr_scan"}, "fusion_lon": 0.0, "lat": 38.93250166666667, "bike_id": "ead0cdc4d11ab3e296ae1c3ce9391801", "type": "electric_scooter", "is_reserved": 0, "lon": -77.04014933333333}, {"fusion_lat": 0.0, "name": "927938ff63b1ad42bea9f7c68f3424d6", "is_disabled": 0, "rental_uris": {"android": "https://dc.lft.to/lastmile_qr_scan", "ios": "https://dc.lft.to/lastmile_qr_scan"}, "fusion_lon": 0.0, "lat": 38.88525966666667, "bike_id": "927938ff63b1ad42bea9f7c68f3424d6", "type": "electric_scooter", "is_reserved": 0, "lon": -77.015223}, {"fusion_lat": 0.0, "name": "cb3a200c65008b1ae1cb6361aea3c4cc", "is_disabled": 0, "rental_uris": {"android": "https://dc.lft.to/lastmile_qr_scan", "ios": "https://dc.lft.to/lastmile_qr_scan"}, "fusion_lon": 0.0, "lat": 38.9071685, "bike_id": "cb3a200c65008b1ae1cb6361aea3c4cc", "type": "electric_scooter", "is_reserved": 0, "lon": -77.02943583333334}, {"fusion_lat": 0.0, "name": "955caffb9bdfb98ef613bc08b98bdd28", "is_disabled": 0, "rental_uris": {"android": "https://dc.lft.to/lastmile_qr_scan", "ios": "https://dc.lft.to/lastmile_qr_scan"}, "fusion_lon": 0.0, "lat": 38.904226333333334, "bike_id": "955caffb9bdfb98ef613bc08b98bdd28", "type": "electric_scooter", "is_reserved": 0, "lon": -76.94976166666666}, {"fusion_lat": 0.0, "name": "a87cdbba0e200be99727de03ae71a902", "is_disabled": 0, "rental_uris": {"android": "https://dc.lft.to/lastmile_qr_scan", "ios": "https://dc.lft.to/lastmile_qr_scan"}, "fusion_lon": 0.0, "lat": 38.935212666666665, "bike_id": "a87cdbba0e200be99727de03ae71a902", "type": "electric_scooter", "is_reserved": 0, "lon": -77.03350166666667}, {"fusion_lat": 0.0, "name": "a00589ca1a2f9022c8b6aedf97f2b480", "is_disabled": 0, "rental_uris": {"android": "https://dc.lft.to/lastmile_qr_scan", "ios": "https://dc.lft.to/lastmile_qr_scan"}, "fusion_lon": 0.0, "lat": 38.91973733333333, "bike_id": "a00589ca1a2f9022c8b6aedf97f2b480", "type": "electric_scooter", "is_reserved": 0, "lon": -77.070943}, {"fusion_lat": 0.0, "name": "f6179fc92142621bf2b38801fad927f5", "is_disabled": 0, "rental_uris": {"android": "https://dc.lft.to/lastmile_qr_scan", "ios": "https://dc.lft.to/lastmile_qr_scan"}, "fusion_lon": 0.0, "lat": 38.90391966666667, "bike_id": "f6179fc92142621bf2b38801fad927f5", "type": "electric_scooter", "is_reserved": 0, "lon": -77.0501075}, {"fusion_lat": 0.0, "name": "d54d2b3c6a7a6dfe28ef8356d085760a", "is_disabled": 0, "rental_uris": {"android": "https://dc.lft.to/lastmile_qr_scan", "ios": "https://dc.lft.to/lastmile_qr_scan"}, "fusion_lon": 0.0, "lat": 38.918232, "bike_id": "d54d2b3c6a7a6dfe28ef8356d085760a", "type": "electric_scooter", "is_reserved": 0, "lon": -77.045244}, {"fusion_lat": 0.0, "name": "fbf52c943dd8a6dfe0717ba150abbdc9", "is_disabled": 0, "rental_uris": {"android": "https://dc.lft.to/lastmile_qr_scan", "ios": "https://dc.lft.to/lastmile_qr_scan"}, "fusion_lon": 0.0, "lat": 38.937019, "bike_id": "fbf52c943dd8a6dfe0717ba150abbdc9", "type": "electric_scooter", "is_reserved": 0, "lon": -77.06098366666667}, {"fusion_lat": 0.0, "name": "fed9ba3d8113a8eb62c9039ac73acf1e", "is_disabled": 0, "rental_uris": {"android": "https://dc.lft.to/lastmile_qr_scan", "ios": "https://dc.lft.to/lastmile_qr_scan"}, "fusion_lon": 0.0, "lat": 38.903439666666664, "bike_id": "fed9ba3d8113a8eb62c9039ac73acf1e", "type": "electric_scooter", "is_reserved": 0, "lon": -76.93370966666667}, {"fusion_lat": 0.0, "name": "554a4681b6b9756b55b37f61a6b0ef18", "is_disabled": 0, "rental_uris": {"android": "https://dc.lft.to/lastmile_qr_scan", "ios": "https://dc.lft.to/lastmile_qr_scan"}, "fusion_lon": 0.0, "lat": 38.807097, "bike_id": "554a4681b6b9756b55b37f61a6b0ef18", "type": "electric_bike", "is_reserved": 0, "lon": -77.06177466666666}, {"fusion_lat": 0.0, "name": "925001f772bf7a178d8f43b557aabb96", "is_disabled": 0, "rental_uris": {"android": "https://dc.lft.to/lastmile_qr_scan", "ios": "https://dc.lft.to/lastmile_qr_scan"}, "fusion_lon": 0.0, "lat": 38.88298866666667, "bike_id": "925001f772bf7a178d8f43b557aabb96", "type": "electric_scooter", "is_reserved": 0, "lon": -76.9485975}, {"fusion_lat": 0.0, "name": "049cecf175cbd4adccd48a16fc683212", "is_disabled": 0, "rental_uris": {"android": "https://dc.lft.to/lastmile_qr_scan", "ios": "https://dc.lft.to/lastmile_qr_scan"}, "fusion_lon": 0.0, "lat": 38.92877983333333, "bike_id": "049cecf175cbd4adccd48a16fc683212", "type": "electric_scooter", "is_reserved": 0, "lon": -77.03413833333333}, {"fusion_lat": 0.0, "name": "ea65af7a05cc59cc26a8e8657074dfac", "is_disabled": 0, "rental_uris": {"android": "https://dc.lft.to/lastmile_qr_scan", "ios": "https://dc.lft.to/lastmile_qr_scan"}, "fusion_lon": 0.0, "lat": 38.8191125, "bike_id": "ea65af7a05cc59cc26a8e8657074dfac", "type": "electric_bike", "is_reserved": 0, "lon": -77.04793766666667}, {"fusion_lat": 0.0, "name": "0568a242f0e4514d6ef62dfea6f45166", "is_disabled": 0, "rental_uris": {"android": "https://dc.lft.to/lastmile_qr_scan", "ios": "https://dc.lft.to/lastmile_qr_scan"}, "fusion_lon": 0.0, "lat": 38.925324333333336, "bike_id": "0568a242f0e4514d6ef62dfea6f45166", "type": "electric_scooter", "is_reserved": 0, "lon": -77.007547}, {"fusion_lat": 0.0, "name": "e41f30902f9137f09315937277282dbd", "is_disabled": 0, "rental_uris": {"android": "https://dc.lft.to/lastmile_qr_scan", "ios": "https://dc.lft.to/lastmile_qr_scan"}, "fusion_lon": 0.0, "lat": 38.892487833333334, "bike_id": "e41f30902f9137f09315937277282dbd", "type": "electric_scooter", "is_reserved": 0, "lon": -77.03347116666667}, {"fusion_lat": 0.0, "name": "9b91b395be41ea40abf895b02fea3a83", "is_disabled": 0, "rental_uris": {"android": "https://dc.lft.to/lastmile_qr_scan", "ios": "https://dc.lft.to/lastmile_qr_scan"}, "fusion_lon": 0.0, "lat": 38.92678333333333, "bike_id": "9b91b395be41ea40abf895b02fea3a83", "type": "electric_scooter", "is_reserved": 0, "lon": -77.030889}, {"fusion_lat": 0.0, "name": "fcb8b865f632991d1a137c331849200a", "is_disabled": 0, "rental_uris": {"android": "https://dc.lft.to/lastmile_qr_scan", "ios": "https://dc.lft.to/lastmile_qr_scan"}, "fusion_lon": 0.0, "lat": 38.899684, "bike_id": "fcb8b865f632991d1a137c331849200a", "type": "electric_scooter", "is_reserved": 0, "lon": -77.03349416666667}, {"fusion_lat": 0.0, "name": "e71fbfa597fdbd1cd3f0b812c9d46ab5", "is_disabled": 0, "rental_uris": {"android": "https://dc.lft.to/lastmile_qr_scan", "ios": "https://dc.lft.to/lastmile_qr_scan"}, "fusion_lon": 0.0, "lat": 38.90725283333333, "bike_id": "e71fbfa597fdbd1cd3f0b812c9d46ab5", "type": "electric_scooter", "is_reserved": 0, "lon": -77.04756866666666}, {"fusion_lat": 0.0, "name": "9d37b9d680a697cc623cc31cb84acf41", "is_disabled": 0, "rental_uris": {"android": "https://dc.lft.to/lastmile_qr_scan", "ios": "https://dc.lft.to/lastmile_qr_scan"}, "fusion_lon": 0.0, "lat": 38.899661, "bike_id": "9d37b9d680a697cc623cc31cb84acf41", "type": "electric_scooter", "is_reserved": 0, "lon": -77.01146916666667}, {"fusion_lat": 0.0, "name": "3a7f5094ff0ac332cd0f376078708884", "is_disabled": 0, "rental_uris": {"android": "https://dc.lft.to/lastmile_qr_scan", "ios": "https://dc.lft.to/lastmile_qr_scan"}, "fusion_lon": 0.0, "lat": 38.92704916666667, "bike_id": "3a7f5094ff0ac332cd0f376078708884", "type": "electric_scooter", "is_reserved": 0, "lon": -77.037642}, {"fusion_lat": 0.0, "name": "b370d01a47a8a304ade647fd32b9c782", "is_disabled": 0, "rental_uris": {"android": "https://dc.lft.to/lastmile_qr_scan", "ios": "https://dc.lft.to/lastmile_qr_scan"}, "fusion_lon": 0.0, "lat": 38.906158, "bike_id": "b370d01a47a8a304ade647fd32b9c782", "type": "electric_scooter", "is_reserved": 0, "lon": -77.00890216666667}, {"fusion_lat": 0.0, "name": "d3b3aa89e5cfacb1e5d7dea7a44f0a66", "is_disabled": 0, "rental_uris": {"android": "https://dc.lft.to/lastmile_qr_scan", "ios": "https://dc.lft.to/lastmile_qr_scan"}, "fusion_lon": 0.0, "lat": 38.90016716666667, "bike_id": "d3b3aa89e5cfacb1e5d7dea7a44f0a66", "type": "electric_scooter", "is_reserved": 0, "lon": -76.98857383333333}, {"fusion_lat": 0.0, "name": "c634e9d50437f925bc8d06584b13e324", "is_disabled": 0, "rental_uris": {"android": "https://dc.lft.to/lastmile_qr_scan", "ios": "https://dc.lft.to/lastmile_qr_scan"}, "fusion_lon": 0.0, "lat": 38.90613883333333, "bike_id": "c634e9d50437f925bc8d06584b13e324", "type": "electric_scooter", "is_reserved": 0, "lon": -77.02406216666667}, {"fusion_lat": 0.0, "name": "414f77320f93e1de79adb28cad961351", "is_disabled": 0, "rental_uris": {"android": "https://dc.lft.to/lastmile_qr_scan", "ios": "https://dc.lft.to/lastmile_qr_scan"}, "fusion_lon": 0.0, "lat": 38.9278735, "bike_id": "414f77320f93e1de79adb28cad961351", "type": "electric_scooter", "is_reserved": 0, "lon": -77.02728583333334}, {"fusion_lat": 0.0, "name": "7672cf1aaa0d0a331ae539e2fffe8b65", "is_disabled": 0, "rental_uris": {"android": "https://dc.lft.to/lastmile_qr_scan", "ios": "https://dc.lft.to/lastmile_qr_scan"}, "fusion_lon": 0.0, "lat": 38.923155, "bike_id": "7672cf1aaa0d0a331ae539e2fffe8b65", "type": "electric_scooter", "is_reserved": 0, "lon": -77.05644383333333}, {"fusion_lat": 0.0, "name": "cc2c900ff397f36f56ce3291106af0bb", "is_disabled": 0, "rental_uris": {"android": "https://dc.lft.to/lastmile_qr_scan", "ios": "https://dc.lft.to/lastmile_qr_scan"}, "fusion_lon": 0.0, "lat": 38.88450066666667, "bike_id": "cc2c900ff397f36f56ce3291106af0bb", "type": "electric_scooter", "is_reserved": 0, "lon": -76.99842033333333}, {"fusion_lat": 0.0, "name": "768a634b0a7da56160a3a5427a1430de", "is_disabled": 0, "rental_uris": {"android": "https://dc.lft.to/lastmile_qr_scan", "ios": "https://dc.lft.to/lastmile_qr_scan"}, "fusion_lon": 0.0, "lat": 38.9002025, "bike_id": "768a634b0a7da56160a3a5427a1430de", "type": "electric_scooter", "is_reserved": 0, "lon": -77.01217716666666}, {"fusion_lat": 0.0, "name": "e17e16afb83f27cf5a39f7260c0360a4", "is_disabled": 0, "rental_uris": {"android": "https://dc.lft.to/lastmile_qr_scan", "ios": "https://dc.lft.to/lastmile_qr_scan"}, "fusion_lon": 0.0, "lat": 38.91114733333333, "bike_id": "e17e16afb83f27cf5a39f7260c0360a4", "type": "electric_scooter", "is_reserved": 0, "lon": -77.042219}, {"fusion_lat": 0.0, "name": "34ffe8aca2c3edef384cb449ae62ff40", "is_disabled": 0, "rental_uris": {"android": "https://dc.lft.to/lastmile_qr_scan", "ios": "https://dc.lft.to/lastmile_qr_scan"}, "fusion_lon": 0.0, "lat": 38.904016166666665, "bike_id": "34ffe8aca2c3edef384cb449ae62ff40", "type": "electric_scooter", "is_reserved": 0, "lon": -77.050141}, {"fusion_lat": 0.0, "name": "8f77ea728ef5154b37f874563c4287b3", "is_disabled": 0, "rental_uris": {"android": "https://dc.lft.to/lastmile_qr_scan", "ios": "https://dc.lft.to/lastmile_qr_scan"}, "fusion_lon": 0.0, "lat": 38.9393135, "bike_id": "8f77ea728ef5154b37f874563c4287b3", "type": "electric_scooter", "is_reserved": 0, "lon": -77.074836}, {"fusion_lat": 0.0, "name": "8b026daecf912bbaaa0cf35d2583a314", "is_disabled": 0, "rental_uris": {"android": "https://dc.lft.to/lastmile_qr_scan", "ios": "https://dc.lft.to/lastmile_qr_scan"}, "fusion_lon": 0.0, "lat": 38.896844, "bike_id": "8b026daecf912bbaaa0cf35d2583a314", "type": "electric_scooter", "is_reserved": 0, "lon": -76.93713316666667}, {"fusion_lat": 0.0, "name": "34ea17bb1119a72b11a178fc46b02dda", "is_disabled": 0, "rental_uris": {"android": "https://dc.lft.to/lastmile_qr_scan", "ios": "https://dc.lft.to/lastmile_qr_scan"}, "fusion_lon": 0.0, "lat": 38.927342333333335, "bike_id": "34ea17bb1119a72b11a178fc46b02dda", "type": "electric_scooter", "is_reserved": 0, "lon": -77.04226066666666}, {"fusion_lat": 0.0, "name": "8fda171bef9dc8e75f97f73c31c7aa9e", "is_disabled": 0, "rental_uris": {"android": "https://dc.lft.to/lastmile_qr_scan", "ios": "https://dc.lft.to/lastmile_qr_scan"}, "fusion_lon": 0.0, "lat": 38.802954166666666, "bike_id": "8fda171bef9dc8e75f97f73c31c7aa9e", "type": "electric_bike", "is_reserved": 0, "lon": -77.05944633333333}, {"fusion_lat": 0.0, "name": "0ea699efc1f571d6acb5632c5b0e113c", "is_disabled": 0, "rental_uris": {"android": "https://dc.lft.to/lastmile_qr_scan", "ios": "https://dc.lft.to/lastmile_qr_scan"}, "fusion_lon": 0.0, "lat": 38.961208166666665, "bike_id": "0ea699efc1f571d6acb5632c5b0e113c", "type": "electric_bike", "is_reserved": 0, "lon": -77.03274183333333}, {"fusion_lat": 0.0, "name": "d5f5f106b31b20ae725434e1f0a7c557", "is_disabled": 0, "rental_uris": {"android": "https://dc.lft.to/lastmile_qr_scan", "ios": "https://dc.lft.to/lastmile_qr_scan"}, "fusion_lon": 0.0, "lat": 38.9376515, "bike_id": "d5f5f106b31b20ae725434e1f0a7c557", "type": "electric_scooter", "is_reserved": 0, "lon": -77.03286583333333}, {"fusion_lat": 0.0, "name": "ea3b65352419813d46db543addb9b3fd", "is_disabled": 0, "rental_uris": {"android": "https://dc.lft.to/lastmile_qr_scan", "ios": "https://dc.lft.to/lastmile_qr_scan"}, "fusion_lon": 0.0, "lat": 38.897598, "bike_id": "ea3b65352419813d46db543addb9b3fd", "type": "electric_scooter", "is_reserved": 0, "lon": -77.02503483333334}, {"fusion_lat": 0.0, "name": "97e5b2f0c9872c6ce2532fc281b89816", "is_disabled": 0, "rental_uris": {"android": "https://dc.lft.to/lastmile_qr_scan", "ios": "https://dc.lft.to/lastmile_qr_scan"}, "fusion_lon": 0.0, "lat": 38.90150466666667, "bike_id": "97e5b2f0c9872c6ce2532fc281b89816", "type": "electric_scooter", "is_reserved": 0, "lon": -76.9306795}, {"fusion_lat": 0.0, "name": "8ad0e546cb8c7f0cf1a32219c6aae670", "is_disabled": 0, "rental_uris": {"android": "https://dc.lft.to/lastmile_qr_scan", "ios": "https://dc.lft.to/lastmile_qr_scan"}, "fusion_lon": 0.0, "lat": 38.88748916666667, "bike_id": "8ad0e546cb8c7f0cf1a32219c6aae670", "type": "electric_scooter", "is_reserved": 0, "lon": -77.03157216666666}, {"fusion_lat": 0.0, "name": "c98ce0f6d5f85c60779da8049154a93f", "is_disabled": 0, "rental_uris": {"android": "https://dc.lft.to/lastmile_qr_scan", "ios": "https://dc.lft.to/lastmile_qr_scan"}, "fusion_lon": 0.0, "lat": 38.920812166666664, "bike_id": "c98ce0f6d5f85c60779da8049154a93f", "type": "electric_scooter", "is_reserved": 0, "lon": -77.0230885}, {"fusion_lat": 0.0, "name": "db2107d46cfa6ffa724a433bbff7e95a", "is_disabled": 0, "rental_uris": {"android": "https://dc.lft.to/lastmile_qr_scan", "ios": "https://dc.lft.to/lastmile_qr_scan"}, "fusion_lon": 0.0, "lat": 38.909362333333334, "bike_id": "db2107d46cfa6ffa724a433bbff7e95a", "type": "electric_scooter", "is_reserved": 0, "lon": -77.0184815}, {"fusion_lat": 0.0, "name": "1ed638a64c38e6cf0426c1817b2333e2", "is_disabled": 0, "rental_uris": {"android": "https://dc.lft.to/lastmile_qr_scan", "ios": "https://dc.lft.to/lastmile_qr_scan"}, "fusion_lon": 0.0, "lat": 38.931450166666664, "bike_id": "1ed638a64c38e6cf0426c1817b2333e2", "type": "electric_bike", "is_reserved": 0, "lon": -77.03827816666667}, {"fusion_lat": 0.0, "name": "d57dde5c5b64de2c1854625b976d38ae", "is_disabled": 0, "rental_uris": {"android": "https://dc.lft.to/lastmile_qr_scan", "ios": "https://dc.lft.to/lastmile_qr_scan"}, "fusion_lon": 0.0, "lat": 38.906831833333335, "bike_id": "d57dde5c5b64de2c1854625b976d38ae", "type": "electric_bike", "is_reserved": 0, "lon": -76.944934}, {"fusion_lat": 0.0, "name": "8905d6227915421460a44bb215730571", "is_disabled": 0, "rental_uris": {"android": "https://dc.lft.to/lastmile_qr_scan", "ios": "https://dc.lft.to/lastmile_qr_scan"}, "fusion_lon": 0.0, "lat": 38.90579016666667, "bike_id": "8905d6227915421460a44bb215730571", "type": "electric_scooter", "is_reserved": 0, "lon": -77.02939733333334}, {"fusion_lat": 0.0, "name": "aa7c48cdf4a9d4189ebe9e87ee79636b", "is_disabled": 0, "rental_uris": {"android": "https://dc.lft.to/lastmile_qr_scan", "ios": "https://dc.lft.to/lastmile_qr_scan"}, "fusion_lon": 0.0, "lat": 38.887715666666665, "bike_id": "aa7c48cdf4a9d4189ebe9e87ee79636b", "type": "electric_scooter", "is_reserved": 0, "lon": -76.9775415}, {"fusion_lat": 0.0, "name": "9ee429f0f6ebbaa04bf5b68e41ec0014", "is_disabled": 0, "rental_uris": {"android": "https://dc.lft.to/lastmile_qr_scan", "ios": "https://dc.lft.to/lastmile_qr_scan"}, "fusion_lon": 0.0, "lat": 38.863679, "bike_id": "9ee429f0f6ebbaa04bf5b68e41ec0014", "type": "electric_bike", "is_reserved": 0, "lon": -76.97009133333333}, {"fusion_lat": 0.0, "name": "7ad35c8f0472e1d1829e8a793db7dbcb", "is_disabled": 0, "rental_uris": {"android": "https://dc.lft.to/lastmile_qr_scan", "ios": "https://dc.lft.to/lastmile_qr_scan"}, "fusion_lon": 0.0, "lat": 38.918357666666665, "bike_id": "7ad35c8f0472e1d1829e8a793db7dbcb", "type": "electric_scooter", "is_reserved": 0, "lon": -77.031991}, {"fusion_lat": 0.0, "name": "5db54fbbda7086737ac18313e76bf345", "is_disabled": 0, "rental_uris": {"android": "https://dc.lft.to/lastmile_qr_scan", "ios": "https://dc.lft.to/lastmile_qr_scan"}, "fusion_lon": 0.0, "lat": 38.91267233333333, "bike_id": "5db54fbbda7086737ac18313e76bf345", "type": "electric_scooter", "is_reserved": 0, "lon": -77.04926733333333}, {"fusion_lat": 0.0, "name": "39ba7286b33bf2e0be9b9fdd24c4247b", "is_disabled": 0, "rental_uris": {"android": "https://dc.lft.to/lastmile_qr_scan", "ios": "https://dc.lft.to/lastmile_qr_scan"}, "fusion_lon": 0.0, "lat": 38.89944083333334, "bike_id": "39ba7286b33bf2e0be9b9fdd24c4247b", "type": "electric_scooter", "is_reserved": 0, "lon": -77.04873316666666}, {"fusion_lat": 0.0, "name": "a041deaa87c423bffab9e806059c3ecc", "is_disabled": 0, "rental_uris": {"android": "https://dc.lft.to/lastmile_qr_scan", "ios": "https://dc.lft.to/lastmile_qr_scan"}, "fusion_lon": 0.0, "lat": 38.9230375, "bike_id": "a041deaa87c423bffab9e806059c3ecc", "type": "electric_scooter", "is_reserved": 0, "lon": -77.04261933333333}, {"fusion_lat": 0.0, "name": "90331877cdc7cc24cbd3ebb7504a4f79", "is_disabled": 0, "rental_uris": {"android": "https://dc.lft.to/lastmile_qr_scan", "ios": "https://dc.lft.to/lastmile_qr_scan"}, "fusion_lon": 0.0, "lat": 38.900266, "bike_id": "90331877cdc7cc24cbd3ebb7504a4f79", "type": "electric_scooter", "is_reserved": 0, "lon": -76.98852}, {"fusion_lat": 0.0, "name": "6d77a0354094494804f12957b9578f42", "is_disabled": 0, "rental_uris": {"android": "https://dc.lft.to/lastmile_qr_scan", "ios": "https://dc.lft.to/lastmile_qr_scan"}, "fusion_lon": 0.0, "lat": 38.87641883333333, "bike_id": "6d77a0354094494804f12957b9578f42", "type": "electric_scooter", "is_reserved": 0, "lon": -77.007481}, {"fusion_lat": 0.0, "name": "bae9e6a65eff90beaa78a1f098a75d35", "is_disabled": 0, "rental_uris": {"android": "https://dc.lft.to/lastmile_qr_scan", "ios": "https://dc.lft.to/lastmile_qr_scan"}, "fusion_lon": 0.0, "lat": 38.90457766666667, "bike_id": "bae9e6a65eff90beaa78a1f098a75d35", "type": "electric_scooter", "is_reserved": 0, "lon": -77.03344316666667}, {"fusion_lat": 0.0, "name": "9b03070fc0fd95c370356c607570dcf4", "is_disabled": 0, "rental_uris": {"android": "https://dc.lft.to/lastmile_qr_scan", "ios": "https://dc.lft.to/lastmile_qr_scan"}, "fusion_lon": 0.0, "lat": 38.9236575, "bike_id": "9b03070fc0fd95c370356c607570dcf4", "type": "electric_scooter", "is_reserved": 0, "lon": -77.0206435}, {"fusion_lat": 0.0, "name": "73c5d33b9aa7aeb0a55ff3a1a83a0102", "is_disabled": 0, "rental_uris": {"android": "https://dc.lft.to/lastmile_qr_scan", "ios": "https://dc.lft.to/lastmile_qr_scan"}, "fusion_lon": 0.0, "lat": 38.902132333333334, "bike_id": "73c5d33b9aa7aeb0a55ff3a1a83a0102", "type": "electric_scooter", "is_reserved": 0, "lon": -77.05115033333334}, {"fusion_lat": 0.0, "name": "8b6404762e95f04fa56f5e75596075af", "is_disabled": 0, "rental_uris": {"android": "https://dc.lft.to/lastmile_qr_scan", "ios": "https://dc.lft.to/lastmile_qr_scan"}, "fusion_lon": 0.0, "lat": 38.93112466666667, "bike_id": "8b6404762e95f04fa56f5e75596075af", "type": "electric_scooter", "is_reserved": 0, "lon": -77.02141216666666}, {"fusion_lat": 0.0, "name": "e24f8088922031b0c0fb6df54a7793e4", "is_disabled": 0, "rental_uris": {"android": "https://dc.lft.to/lastmile_qr_scan", "ios": "https://dc.lft.to/lastmile_qr_scan"}, "fusion_lon": 0.0, "lat": 38.932633, "bike_id": "e24f8088922031b0c0fb6df54a7793e4", "type": "electric_scooter", "is_reserved": 0, "lon": -77.03893216666667}, {"fusion_lat": 0.0, "name": "f26cff1b01834eff8c6e51594b1a0c29", "is_disabled": 0, "rental_uris": {"android": "https://dc.lft.to/lastmile_qr_scan", "ios": "https://dc.lft.to/lastmile_qr_scan"}, "fusion_lon": 0.0, "lat": 38.912653166666665, "bike_id": "f26cff1b01834eff8c6e51594b1a0c29", "type": "electric_scooter", "is_reserved": 0, "lon": -77.033901}, {"fusion_lat": 0.0, "name": "d844bf89f155bba4af7014638c1c3ab8", "is_disabled": 0, "rental_uris": {"android": "https://dc.lft.to/lastmile_qr_scan", "ios": "https://dc.lft.to/lastmile_qr_scan"}, "fusion_lon": 0.0, "lat": 38.90572933333333, "bike_id": "d844bf89f155bba4af7014638c1c3ab8", "type": "electric_scooter", "is_reserved": 0, "lon": -77.02969683333333}, {"fusion_lat": 0.0, "name": "4f9920a05fec76a91aeac0e574265d85", "is_disabled": 0, "rental_uris": {"android": "https://dc.lft.to/lastmile_qr_scan", "ios": "https://dc.lft.to/lastmile_qr_scan"}, "fusion_lon": 0.0, "lat": 38.91357283333333, "bike_id": "4f9920a05fec76a91aeac0e574265d85", "type": "electric_scooter", "is_reserved": 0, "lon": -77.04874916666667}, {"fusion_lat": 0.0, "name": "babbb4df793039f8033c02e444b253ca", "is_disabled": 0, "rental_uris": {"android": "https://dc.lft.to/lastmile_qr_scan", "ios": "https://dc.lft.to/lastmile_qr_scan"}, "fusion_lon": 0.0, "lat": 38.916447166666664, "bike_id": "babbb4df793039f8033c02e444b253ca", "type": "electric_scooter", "is_reserved": 0, "lon": -77.03165416666667}, {"fusion_lat": 0.0, "name": "800cf4d47f2041a82bacd149e7370dd2", "is_disabled": 0, "rental_uris": {"android": "https://dc.lft.to/lastmile_qr_scan", "ios": "https://dc.lft.to/lastmile_qr_scan"}, "fusion_lon": 0.0, "lat": 38.99777816666667, "bike_id": "800cf4d47f2041a82bacd149e7370dd2", "type": "electric_bike", "is_reserved": 0, "lon": -77.0471455}, {"fusion_lat": 0.0, "name": "2fafe74cc713e9647d2543053118fda5", "is_disabled": 0, "rental_uris": {"android": "https://dc.lft.to/lastmile_qr_scan", "ios": "https://dc.lft.to/lastmile_qr_scan"}, "fusion_lon": 0.0, "lat": 38.926359166666664, "bike_id": "2fafe74cc713e9647d2543053118fda5", "type": "electric_scooter", "is_reserved": 0, "lon": -77.03231433333333}, {"fusion_lat": 0.0, "name": "60b36bdf541a0ee4e1727304ca13d8e6", "is_disabled": 0, "rental_uris": {"android": "https://dc.lft.to/lastmile_qr_scan", "ios": "https://dc.lft.to/lastmile_qr_scan"}, "fusion_lon": 0.0, "lat": 38.8874455, "bike_id": "60b36bdf541a0ee4e1727304ca13d8e6", "type": "electric_scooter", "is_reserved": 0, "lon": -77.02573516666666}, {"fusion_lat": 0.0, "name": "de2761e6dec509ce900a81265c289289", "is_disabled": 0, "rental_uris": {"android": "https://dc.lft.to/lastmile_qr_scan", "ios": "https://dc.lft.to/lastmile_qr_scan"}, "fusion_lon": 0.0, "lat": 38.92409383333333, "bike_id": "de2761e6dec509ce900a81265c289289", "type": "electric_scooter", "is_reserved": 0, "lon": -77.02109},