{"data": {"bikes": [{"bike_id": "acc3e5b1d17be6be6043b1d29a66a780", "is_reserved": 0, "fusion_lon": 0.0, "lat": 38.98434816666666, "is_disabled": 0, "name": "acc3e5b1d17be6be6043b1d29a66a780", "fusion_lat": 0.0, "rental_uris": {"ios": "https://dc.lft.to/lastmile_qr_scan", "android": "https://dc.lft.to/lastmile_qr_scan"}, "lon": -77.02673866666666, "type": "electric_scooter"}, {"bike_id": "35ea00b1e421423a0669e67edfcc0687", "is_reserved": 0, "fusion_lon": 0.0, "lat": 38.8950185, "is_disabled": 0, "name": "35ea00b1e421423a0669e67edfcc0687", "fusion_lat": 0.0, "rental_uris": {"ios": "https://dc.lft.to/lastmile_qr_scan", "android": "https://dc.lft.to/lastmile_qr_scan"}, "lon": -77.02212116666666, "type": "electric_scooter"}, {"bike_id": "0c8d817bcfa85cbb307073748f3d7c7c", "is_reserved": 0, "fusion_lon": 0.0, "lat": 38.902162, "is_disabled": 0, "name": "0c8d817bcfa85cbb307073748f3d7c7c", "fusion_lat": 0.0, "rental_uris": {"ios": "https://dc.lft.to/lastmile_qr_scan", "android": "https://dc.lft.to/lastmile_qr_scan"}, "lon": -77.02282483333333, "type": "electric_scooter"}, {"bike_id": "580dc5b9f82a39247a7f285c8256d258", "is_reserved": 0, "fusion_lon": 0.0, "lat": 38.9178465, "is_disabled": 0, "name": "580dc5b9f82a39247a7f285c8256d258", "fusion_lat": 0.0, "rental_uris": {"ios": "https://dc.lft.to/lastmile_qr_scan", "android": "https://dc.lft.to/lastmile_qr_scan"}, "lon": -77.02697933333333, "type": "electric_scooter"}, {"bike_id": "9d87b941d918b902cf040da1ab95efe7", "is_reserved": 0, "fusion_lon": 0.0, "lat": 38.900685833333334, "is_disabled": 0, "name": "9d87b941d918b902cf040da1ab95efe7", "fusion_lat": 0.0, "rental_uris": {"ios": "https://dc.lft.to/lastmile_qr_scan", "android": "https://dc.lft.to/lastmile_qr_scan"}, "lon": -77.04829383333333, "type": "electric_scooter"}, {"bike_id": "972241bbd1d0cc9f2df96f54d7a99ac5", "is_reserved": 0, "fusion_lon": 0.0, "lat": 38.884908833333334, "is_disabled": 0, "name": "972241bbd1d0cc9f2df96f54d7a99ac5", "fusion_lat": 0.0, "rental_uris": {"ios": "https://dc.lft.to/lastmile_qr_scan", "android": "https://dc.lft.to/lastmile_qr_scan"}, "lon": -77.00728566666666, "type": "electric_scooter"}, {"bike_id": "009145833da6238a05c4192f60c5e0ad", "is_reserved": 0, "fusion_lon": 0.0, "lat": 38.82783216666667, "is_disabled": 0, "name": "009145833da6238a05c4192f60c5e0ad", "fusion_lat": 0.0, "rental_uris": {"ios": "https://dc.lft.to/lastmile_qr_scan", "android": "https://dc.lft.to/lastmile_qr_scan"}, "lon": -77.00914566666667, "type": "electric_bike"}, {"bike_id": "dc422e1fd963a708ffbc1a366cfd60ef", "is_reserved": 0, "fusion_lon": 0.0, "lat": 38.95645733333333, "is_disabled": 0, "name": "dc422e1fd963a708ffbc1a366cfd60ef", "fusion_lat": 0.0, "rental_uris": {"ios": "https://dc.lft.to/lastmile_qr_scan", "android": "https://dc.lft.to/lastmile_qr_scan"}, "lon": -77.03282666666667, "type": "electric_scooter"}, {"bike_id": "a729a0fc7d663a7e89a927f6af0f85e2", "is_reserved": 0, "fusion_lon": 0.0, "lat": 38.900579666666665, "is_disabled": 0, "name": "a729a0fc7d663a7e89a927f6af0f85e2", "fusion_lat": 0.0, "rental_uris": {"ios": "https://dc.lft.to/lastmile_qr_scan", "android": "https://dc.lft.to/lastmile_qr_scan"}, "lon": -77.00744066666667, "type": "electric_scooter"}, {"bike_id": "c3a54c30c1c3ac6a39ce1bb6d687ed54", "is_reserved": 0, "fusion_lon": 0.0, "lat": 39.003796666666666, "is_disabled": 0, "name": "c3a54c30c1c3ac6a39ce1bb6d687ed54", "fusion_lat": 0.0, "rental_uris": {"ios": "https://dc.lft.to/lastmile_qr_scan", "android": "https://dc.lft.to/lastmile_qr_scan"}, "lon": -77.01283883333333, "type": "electric_bike"}, {"bike_id": "aed34f2e8f1d4bf3aa66f49c16e0955d", "is_reserved": 0, "fusion_lon": 0.0, "lat": 38.8921715, "is_disabled": 0, "name": "aed34f2e8f1d4bf3aa66f49c16e0955d", "fusion_lat": 0.0, "rental_uris": {"ios": "https://dc.lft.to/lastmile_qr_scan", "android": "https://dc.lft.to/lastmile_qr_scan"}, "lon": -77.03157466666667, "type": "electric_scooter"}, {"bike_id": "3ebf8d40619e7caa9e81ff60a407777e", "is_reserved": 0, "fusion_lon": 0.0, "lat": 38.896593333333335, "is_disabled": 0, "name": "3ebf8d40619e7caa9e81ff60a407777e", "fusion_lat": 0.0, "rental_uris": {"ios": "https://dc.lft.to/lastmile_qr_scan", "android": "https://dc.lft.to/lastmile_qr_scan"}, "lon": -77.02937666666666, "type": "electric_scooter"}, {"bike_id": "9e3e054e208412b6da631f85898c1be0", "is_reserved": 0, "fusion_lon": 0.0, "lat": 38.855338333333336, "is_disabled": 0, "name": "9e3e054e208412b6da631f85898c1be0", "fusion_lat": 0.0, "rental_uris": {"ios": "https://dc.lft.to/lastmile_qr_scan", "android": "https://dc.lft.to/lastmile_qr_scan"}, "lon": -77.11330516666666, "type": "electric_bike"}, {"bike_id": "f87161e161bafe23190965be7fbdd240", "is_reserved": 0, "fusion_lon": 0.0, "lat": 38.925668, "is_disabled": 0, "name": "f87161e161bafe23190965be7fbdd240", "fusion_lat": 0.0, "rental_uris": {"ios": "https://dc.lft.to/lastmile_qr_scan", "android": "https://dc.lft.to/lastmile_qr_scan"}, "lon": -77.03899216666667, "type": "electric_scooter"}, {"bike_id": "a47680ed1dec58e9788351bb36e48e21", "is_reserved": 0, "fusion_lon": 0.0, "lat": 38.91712616666667, "is_disabled": 0, "name": "a47680ed1dec58e9788351bb36e48e21", "fusion_lat": 0.0, "rental_uris": {"ios": "https://dc.lft.to/lastmile_qr_scan", "android": "https://dc.lft.to/lastmile_qr_scan"}, "lon": -77.03101083333334, "type": "electric_scooter"}, {"bike_id": "68a2319225b7163ead4299d7c6de4957", "is_reserved": 0, "fusion_lon": 0.0, "lat": 38.883337, "is_disabled": 0, "name": "68a2319225b7163ead4299d7c6de4957", "fusion_lat": 0.0, "rental_uris": {"ios": "https://dc.lft.to/lastmile_qr_scan", "android": "https://dc.lft.to/lastmile_qr_scan"}, "lon": -77.0174845, "type": "electric_scooter"}, {"bike_id": "ccf143ba8790617518d6a7b741d56cc6", "is_reserved": 0, "fusion_lon": 0.0, "lat": 38.9168905, "is_disabled": 0, "name": "ccf143ba8790617518d6a7b741d56cc6", "fusion_lat": 0.0, "rental_uris": {"ios": "https://dc.lft.to/lastmile_qr_scan", "android": "https://dc.lft.to/lastmile_qr_scan"}, "lon": -77.029026, "type": "electric_scooter"}, {"bike_id": "9430ff44dc1ee14c0c276720f2eada64", "is_reserved": 0, "fusion_lon": 0.0, "lat": 38.90275916666667, "is_disabled": 0, "name": "9430ff44dc1ee14c0c276720f2eada64", "fusion_lat": 0.0, "rental_uris": {"ios": "https://dc.lft.to/lastmile_qr_scan", "android": "https://dc.lft.to/lastmile_qr_scan"}, "lon": -77.03906683333334, "type": "electric_scooter"}, {"bike_id": "4f78aa0d4b2f7aebca8f6068b2b6ff9b", "is_reserved": 0, "fusion_lon": 0.0, "lat": 38.92555816666667, "is_disabled": 0, "name": "4f78aa0d4b2f7aebca8f6068b2b6ff9b", "fusion_lat": 0.0, "rental_uris": {"ios": "https://dc.lft.to/lastmile_qr_scan", "android": "https://dc.lft.to/lastmile_qr_scan"}, "lon": -77.03922716666666, "type": "electric_scooter"}, {"bike_id": "37708a2202d17005d9f4ba15d3fa1494", "is_reserved": 0, "fusion_lon": 0.0, "lat": 38.91589883333333, "is_disabled": 0, "name": "37708a2202d17005d9f4ba15d3fa1494", "fusion_lat": 0.0, "rental_uris": {"ios": "https://dc.lft.to/lastmile_qr_scan", "android": "https://dc.lft.to/lastmile_qr_scan"}, "lon": -76.98377983333333, "type": "electric_scooter"}, {"bike_id": "3302119f1094b4811fdb5e1b50bffe86", "is_reserved": 0, "fusion_lon": 0.0, "lat": 38.90451316666667, "is_disabled": 0, "name": "3302119f1094b4811fdb5e1b50bffe86", "fusion_lat": 0.0, "rental_uris": {"ios": "https://dc.lft.to/lastmile_qr_scan", "android": "https://dc.lft.to/lastmile_qr_scan"}, "lon": -77.0288985, "type": "electric_scooter"}, {"bike_id": "6bec6db6305b4b77df716e387b1e918a", "is_reserved": 0, "fusion_lon": 0.0, "lat": 38.91277733333333, "is_disabled": 0, "name": "6bec6db6305b4b77df716e387b1e918a", "fusion_lat": 0.0, "rental_uris": {"ios": "https://dc.lft.to/lastmile_qr_scan", "android": "https://dc.lft.to/lastmile_qr_scan"}, "lon": -77.03859766666666, "type": "electric_scooter"}, {"bike_id": "bb81dbb7ffcc6f77852bfab3acc18c48", "is_reserved": 0, "fusion_lon": 0.0, "lat": 38.901307833333334, "is_disabled": 0, "name": "bb81dbb7ffcc6f77852bfab3acc18c48", "fusion_lat": 0.0, "rental_uris": {"ios": "https://dc.lft.to/lastmile_qr_scan", "android": "https://dc.lft.to/lastmile_qr_scan"}, "lon": -77.016065, "type": "electric_scooter"}, {"bike_id": "63f89582696990a57c9c16fb2a702538", "is_reserved": 0, "fusion_lon": 0.0, "lat": 38.8980045, "is_disabled": 0, "name": "63f89582696990a57c9c16fb2a702538", "fusion_lat": 0.0, "rental_uris": {"ios": "https://dc.lft.to/lastmile_qr_scan", "android": "https://dc.lft.to/lastmile_qr_scan"}, "lon": -77.0292915, "type": "electric_scooter"}, {"bike_id": "63049a342d0e7ab84b532a63e7b5ba35", "is_reserved": 0, "fusion_lon": 0.0, "lat": 38.936863, "is_disabled": 0, "name": "63049a342d0e7ab84b532a63e7b5ba35", "fusion_lat": 0.0, "rental_uris": {"ios": "https://dc.lft.to/lastmile_qr_scan", "android": "https://dc.lft.to/lastmile_qr_scan"}, "lon": -77.0602575, "type": "electric_scooter"}, {"bike_id": "a4b8dfba106efa3d913c41314fff5c8f", "is_reserved": 0, "fusion_lon": 0.0, "lat": 38.943686666666665, "is_disabled": 0, "name": "a4b8dfba106efa3d913c41314fff5c8f", "fusion_lat": 0.0, "rental_uris": {"ios": "https://dc.lft.to/lastmile_qr_scan", "android": "https://dc.lft.to/lastmile_qr_scan"}, "lon": -77.0218125, "type": "electric_scooter"}, {"bike_id": "2002cb5f6f0220e7cdfffaed81b1ba43", "is_reserved": 0, "fusion_lon": 0.0, "lat": 38.940324833333335, "is_disabled": 0, "name": "2002cb5f6f0220e7cdfffaed81b1ba43", "fusion_lat": 0.0, "rental_uris": {"ios": "https://dc.lft.to/lastmile_qr_scan", "android": "https://dc.lft.to/lastmile_qr_scan"}, "lon": -77.02908366666666, "type": "electric_scooter"}, {"bike_id": "8ec97ff71c10d5fb15f7ca46f7f6c608", "is_reserved": 0, "fusion_lon": 0.0, "lat": 38.895522166666666, "is_disabled": 0, "name": "8ec97ff71c10d5fb15f7ca46f7f6c608", "fusion_lat": 0.0, "rental_uris": {"ios": "https://dc.lft.to/lastmile_qr_scan", "android": "https://dc.lft.to/lastmile_qr_scan"}, "lon": -77.00915583333334, "type": "electric_scooter"}, {"bike_id": "acee5ed2c23634b740883fc9adea8a7e", "is_reserved": 0, "fusion_lon": 0.0, "lat": 38.923599833333334, "is_disabled": 0, "name": "acee5ed2c23634b740883fc9adea8a7e", "fusion_lat": 0.0, "rental_uris": {"ios": "https://dc.lft.to/lastmile_qr_scan", "android": "https://dc.lft.to/lastmile_qr_scan"}, "lon": -77.05030566666667, "type": "electric_scooter"}, {"bike_id": "d3695e5fb536246abbd88b3e74f75b12", "is_reserved": 0, "fusion_lon": 0.0, "lat": 38.88764616666667, "is_disabled": 0, "name": "d3695e5fb536246abbd88b3e74f75b12", "fusion_lat": 0.0, "rental_uris": {"ios": "https://dc.lft.to/lastmile_qr_scan", "android": "https://dc.lft.to/lastmile_qr_scan"}, "lon": -76.9804945, "type": "electric_scooter"}, {"bike_id": "f1f5d174d956adcc81a7468776ee4201", "is_reserved": 0, "fusion_lon": 0.0, "lat": 38.87337433333333, "is_disabled": 0, "name": "f1f5d174d956adcc81a7468776ee4201", "fusion_lat": 0.0, "rental_uris": {"ios": "https://dc.lft.to/lastmile_qr_scan", "android": "https://dc.lft.to/lastmile_qr_scan"}, "lon": -77.10619116666666, "type": "electric_bike"}, {"bike_id": "04c78dc09e4b1a12f7bcc6845bece420", "is_reserved": 0, "fusion_lon": 0.0, "lat": 38.90783883333334, "is_disabled": 0, "name": "04c78dc09e4b1a12f7bcc6845bece420", "fusion_lat": 0.0, "rental_uris": {"ios": "https://dc.lft.to/lastmile_qr_scan", "android": "https://dc.lft.to/lastmile_qr_scan"}, "lon": -77.04258983333334, "type": "electric_scooter"}, {"bike_id": "6cce963894b458cc663e959c961bd384", "is_reserved": 0, "fusion_lon": 0.0, "lat": 38.935039833333335, "is_disabled": 0, "name": "6cce963894b458cc663e959c961bd384", "fusion_lat": 0.0, "rental_uris": {"ios": "https://dc.lft.to/lastmile_qr_scan", "android": "https://dc.lft.to/lastmile_qr_scan"}, "lon": -77.01999866666667, "type": "electric_scooter"}, {"bike_id": "d08af4ee80fbf901b8ef76d5bc4b506d", "is_reserved": 0, "fusion_lon": 0.0, "lat": 38.892259833333334, "is_disabled": 0, "name": "d08af4ee80fbf901b8ef76d5bc4b506d", "fusion_lat": 0.0, "rental_uris": {"ios": "https://dc.lft.to/lastmile_qr_scan", "android": "https://dc.lft.to/lastmile_qr_scan"}, "lon": -77.02175266666667, "type": "electric_scooter"}, {"bike_id": "4be8167304de8619545669b88421cd4b", "is_reserved": 0, "fusion_lon": 0.0, "lat": 38.90910066666667, "is_disabled": 0, "name": "4be8167304de8619545669b88421cd4b", "fusion_lat": 0.0, "rental_uris": {"ios": "https://dc.lft.to/lastmile_qr_scan", "android": "https://dc.lft.to/lastmile_qr_scan"}, "lon": -77.03135516666667, "type": "electric_scooter"}, {"bike_id": "3d26d02cd8df27841c5ca94512154bf2", "is_reserved": 0, "fusion_lon": 0.0, "lat": 38.90952016666667, "is_disabled": 0, "name": "3d26d02cd8df27841c5ca94512154bf2", "fusion_lat": 0.0, "rental_uris": {"ios": "https://dc.lft.to/lastmile_qr_scan", "android": "https://dc.lft.to/lastmile_qr_scan"}, "lon": -77.01989933333333, "type": "electric_scooter"}, {"bike_id": "3e24b253bc576c802ed19c0c3f7868ca", "is_reserved": 0, "fusion_lon": 0.0, "lat": 38.898428, "is_disabled": 0, "name": "3e24b253bc576c802ed19c0c3f7868ca", "fusion_lat": 0.0, "rental_uris": {"ios": "https://dc.lft.to/lastmile_qr_scan", "android": "https://dc.lft.to/lastmile_qr_scan"}, "lon": -77.0334505, "type": "electric_scooter"}, {"bike_id": "e64c3fed4aa611f8d7fa152f2554a3bb", "is_reserved": 0, "fusion_lon": 0.0, "lat": 38.92184183333333, "is_disabled": 0, "name": "e64c3fed4aa611f8d7fa152f2554a3bb", "fusion_lat": 0.0, "rental_uris": {"ios": "https://dc.lft.to/lastmile_qr_scan", "android": "https://dc.lft.to/lastmile_qr_scan"}, "lon": -77.0427005, "type": "electric_scooter"}, {"bike_id": "ee38bf5ae084f49742d7335094ed9199", "is_reserved": 0, "fusion_lon": 0.0, "lat": 38.896464, "is_disabled": 0, "name": "ee38bf5ae084f49742d7335094ed9199", "fusion_lat": 0.0, "rental_uris": {"ios": "https://dc.lft.to/lastmile_qr_scan", "android": "https://dc.lft.to/lastmile_qr_scan"}, "lon": -77.0433595, "type": "electric_scooter"}, {"bike_id": "41c5ac378fd271243a6fdc9a49734eec", "is_reserved": 0, "fusion_lon": 0.0, "lat": 38.93483066666667, "is_disabled": 0, "name": "41c5ac378fd271243a6fdc9a49734eec", "fusion_lat": 0.0, "rental_uris": {"ios": "https://dc.lft.to/lastmile_qr_scan", "android": "https://dc.lft.to/lastmile_qr_scan"}, "lon": -77.03513516666666, "type": "electric_scooter"}, {"bike_id": "b8557a881e0c4cff6cc077012b3b3c7d", "is_reserved": 0, "fusion_lon": 0.0, "lat": 38.91046033333333, "is_disabled": 0, "name": "b8557a881e0c4cff6cc077012b3b3c7d", "fusion_lat": 0.0, "rental_uris": {"ios": "https://dc.lft.to/lastmile_qr_scan", "android": "https://dc.lft.to/lastmile_qr_scan"}, "lon": -77.028161, "type": "electric_scooter"}, {"bike_id": "237fd94e85df14561085bbcbd2654beb", "is_reserved": 0, "fusion_lon": 0.0, "lat": 38.93105333333333, "is_disabled": 0, "name": "237fd94e85df14561085bbcbd2654beb", "fusion_lat": 0.0, "rental_uris": {"ios": "https://dc.lft.to/lastmile_qr_scan", "android": "https://dc.lft.to/lastmile_qr_scan"}, "lon": -77.02405466666667, "type": "electric_scooter"}, {"bike_id": "13a7828bfb8822a719d8d93d87f8a503", "is_reserved": 0, "fusion_lon": 0.0, "lat": 38.95087083333333, "is_disabled": 0, "name": "13a7828bfb8822a719d8d93d87f8a503", "fusion_lat": 0.0, "rental_uris": {"ios": "https://dc.lft.to/lastmile_qr_scan", "android": "https://dc.lft.to/lastmile_qr_scan"}, "lon": -77.02829566666666, "type": "electric_scooter"}, {"bike_id": "665d4d003b8b1631302f769d992731ff", "is_reserved": 0, "fusion_lon": 0.0, "lat": 38.915607, "is_disabled": 0, "name": "665d4d003b8b1631302f769d992731ff", "fusion_lat": 0.0, "rental_uris": {"ios": "https://dc.lft.to/lastmile_qr_scan", "android": "https://dc.lft.to/lastmile_qr_scan"}, "lon": -77.03917333333334, "type": "electric_scooter"}, {"bike_id": "d404b1b22b7dba9f5563d723588b2361", "is_reserved": 0, "fusion_lon": 0.0, "lat": 38.925759, "is_disabled": 0, "name": "d404b1b22b7dba9f5563d723588b2361", "fusion_lat": 0.0, "rental_uris": {"ios": "https://dc.lft.to/lastmile_qr_scan", "android": "https://dc.lft.to/lastmile_qr_scan"}, "lon": -77.073053, "type": "electric_scooter"}, {"bike_id": "2644698f80686083de795a8cf7c51532", "is_reserved": 0, "fusion_lon": 0.0, "lat": 38.9306485, "is_disabled": 0, "name": "2644698f80686083de795a8cf7c51532", "fusion_lat": 0.0, "rental_uris": {"ios": "https://dc.lft.to/lastmile_qr_scan", "android": "https://dc.lft.to/lastmile_qr_scan"}, "lon": -77.02980816666667, "type": "electric_scooter"}, {"bike_id": "320c7ce6c5e05958eb79ab214f902b90", "is_reserved": 0, "fusion_lon": 0.0, "lat": 38.92199733333333, "is_disabled": 0, "name": "320c7ce6c5e05958eb79ab214f902b90", "fusion_lat": 0.0, "rental_uris": {"ios": "https://dc.lft.to/lastmile_qr_scan", "android": "https://dc.lft.to/lastmile_qr_scan"}, "lon": -77.04250666666667, "type": "electric_scooter"}, {"bike_id": "f96332ee786ee3eb792ab73460e720a8", "is_reserved": 0, "fusion_lon": 0.0, "lat": 38.91389066666667, "is_disabled": 0, "name": "f96332ee786ee3eb792ab73460e720a8", "fusion_lat": 0.0, "rental_uris": {"ios": "https://dc.lft.to/lastmile_qr_scan", "android": "https://dc.lft.to/lastmile_qr_scan"}, "lon": -77.04607383333334, "type": "electric_scooter"}, {"bike_id": "79468a4c079983692b3a89164efd26b1", "is_reserved": 0, "fusion_lon": 0.0, "lat": 38.933602, "is_disabled": 0, "name": "79468a4c079983692b3a89164efd26b1", "fusion_lat": 0.0, "rental_uris": {"ios": "https://dc.lft.to/lastmile_qr_scan", "android": "https://dc.lft.to/lastmile_qr_scan"}, "lon": -77.057306, "type": "electric_scooter"}, {"bike_id": "199ba585429f446eece2a3dbc12247ab", "is_reserved": 0, "fusion_lon": 0.0, "lat": 38.914869833333334, "is_disabled": 0, "name": "199ba585429f446eece2a3dbc12247ab", "fusion_lat": 0.0, "rental_uris": {"ios": "https://dc.lft.to/lastmile_qr_scan", "android": "https://dc.lft.to/lastmile_qr_scan"}, "lon": -76.98362616666667, "type": "electric_scooter"}, {"bike_id": "303a70c9ea73f8d1c2bd0ca8090c11b5", "is_reserved": 0, "fusion_lon": 0.0, "lat": 38.886016833333336, "is_disabled": 0, "name": "303a70c9ea73f8d1c2bd0ca8090c11b5", "fusion_lat": 0.0, "rental_uris": {"ios": "https://dc.lft.to/lastmile_qr_scan", "android": "https://dc.lft.to/lastmile_qr_scan"}, "lon": -77.01741966666667, "type": "electric_scooter"}, {"bike_id": "810a47305d6abd77012446459af54d06", "is_reserved": 0, "fusion_lon": 0.0, "lat": 38.91038416666667, "is_disabled": 0, "name": "810a47305d6abd77012446459af54d06", "fusion_lat": 0.0, "rental_uris": {"ios": "https://dc.lft.to/lastmile_qr_scan", "android": "https://dc.lft.to/lastmile_qr_scan"}, "lon": -77.0358015, "type": "electric_scooter"}, {"bike_id": "606ea7d9d9ae2c95638e4e6f47b6aa77", "is_reserved": 0, "fusion_lon": 0.0, "lat": 38.91577733333333, "is_disabled": 0, "name": "606ea7d9d9ae2c95638e4e6f47b6aa77", "fusion_lat": 0.0, "rental_uris": {"ios": "https://dc.lft.to/lastmile_qr_scan", "android": "https://dc.lft.to/lastmile_qr_scan"}, "lon": -77.01241316666666, "type": "electric_scooter"}, {"bike_id": "eb81977b8ce68e43fd028d434e213a8f", "is_reserved": 0, "fusion_lon": 0.0, "lat": 38.82261283333333, "is_disabled": 0, "name": "eb81977b8ce68e43fd028d434e213a8f", "fusion_lat": 0.0, "rental_uris": {"ios": "https://dc.lft.to/lastmile_qr_scan", "android": "https://dc.lft.to/lastmile_qr_scan"}, "lon": -77.005513, "type": "electric_bike"}, {"bike_id": "56b167669aeb7dede4157c9905c46a60", "is_reserved": 0, "fusion_lon": 0.0, "lat": 38.9077255, "is_disabled": 0, "name": "56b167669aeb7dede4157c9905c46a60", "fusion_lat": 0.0, "rental_uris": {"ios": "https://dc.lft.to/lastmile_qr_scan", "android": "https://dc.lft.to/lastmile_qr_scan"}, "lon": -77.03819833333333, "type": "electric_scooter"}, {"bike_id": "ba8b997ddf50ddb1437d6cf1a8dae49b", "is_reserved": 0, "fusion_lon": 0.0, "lat": 38.90719333333333, "is_disabled": 0, "name": "ba8b997ddf50ddb1437d6cf1a8dae49b", "fusion_lat": 0.0, "rental_uris": {"ios": "https://dc.lft.to/lastmile_qr_scan", "android": "https://dc.lft.to/lastmile_qr_scan"}, "lon": -77.0324025, "type": "electric_scooter"}, {"bike_id": "4444d870bff8b9ad6312f4f08024b116", "is_reserved": 0, "fusion_lon": 0.0, "lat": 38.93071116666667, "is_disabled": 0, "name": "4444d870bff8b9ad6312f4f08024b116", "fusion_lat": 0.0, "rental_uris": {"ios": "https://dc.lft.to/lastmile_qr_scan", "android": "https://dc.lft.to/lastmile_qr_scan"}, "lon": -77.03417033333334, "type": "electric_scooter"}, {"bike_id": "1c80e348b54185f02514c5e5f5102104", "is_reserved": 0, "fusion_lon": 0.0, "lat": 38.89359283333334, "is_disabled": 0, "name": "1c80e348b54185f02514c5e5f5102104", "fusion_lat": 0.0, "rental_uris": {"ios": "https://dc.lft.to/lastmile_qr_scan", "android": "https://dc.lft.to/lastmile_qr_scan"}, "lon": -77.02828766666667, "type": "electric_scooter"}, {"bike_id": "1876aba7e5d5449152bb76a04a06dc6a", "is_reserved": 0, "fusion_lon": 0.0, "lat": 38.864222, "is_disabled": 0, "name": "1876aba7e5d5449152bb76a04a06dc6a", "fusion_lat": 0.0, "rental_uris": {"ios": "https://dc.lft.to/lastmile_qr_scan", "android": "https://dc.lft.to/lastmile_qr_scan"}, "lon": -76.985762, "type": "electric_scooter"}, {"bike_id": "15c519f48db32173fe466c9a669e8407", "is_reserved": 0, "fusion_lon": 0.0, "lat": 38.90783183333333, "is_disabled": 0, "name": "15c519f48db32173fe466c9a669e8407", "fusion_lat": 0.0, "rental_uris": {"ios": "https://dc.lft.to/lastmile_qr_scan", "android": "https://dc.lft.to/lastmile_qr_scan"}, "lon": -77.03858483333333, "type": "electric_scooter"}, {"bike_id": "981e5ae6dc74208c22f93bebfde50b33", "is_reserved": 0, "fusion_lon": 0.0, "lat": 38.894572333333336, "is_disabled": 0, "name": "981e5ae6dc74208c22f93bebfde50b33", "fusion_lat": 0.0, "rental_uris": {"ios": "https://dc.lft.to/lastmile_qr_scan", "android": "https://dc.lft.to/lastmile_qr_scan"}, "lon": -76.9703635, "type": "electric_bike"}, {"bike_id": "7461ce4795642a99045a29ba5e672734", "is_reserved": 0, "fusion_lon": 0.0, "lat": 38.92641866666666, "is_disabled": 0, "name": "7461ce4795642a99045a29ba5e672734", "fusion_lat": 0.0, "rental_uris": {"ios": "https://dc.lft.to/lastmile_qr_scan", "android": "https://dc.lft.to/lastmile_qr_scan"}, "lon": -77.037248, "type": "electric_scooter"}, {"bike_id": "8c3047b629cfca1f370d4ed497856443", "is_reserved": 0, "fusion_lon": 0.0, "lat": 38.918386166666664, "is_disabled": 0, "name": "8c3047b629cfca1f370d4ed497856443", "fusion_lat": 0.0, "rental_uris": {"ios": "https://dc.lft.to/lastmile_qr_scan", "android": "https://dc.lft.to/lastmile_qr_scan"}, "lon": -77.026001, "type": "electric_scooter"}, {"bike_id": "d9e702eceab0ac7a5ec0570234b0f323", "is_reserved": 0, "fusion_lon": 0.0, "lat": 38.890479, "is_disabled": 0, "name": "d9e702eceab0ac7a5ec0570234b0f323", "fusion_lat": 0.0, "rental_uris": {"ios": "https://dc.lft.to/lastmile_qr_scan", "android": "https://dc.lft.to/lastmile_qr_scan"}, "lon": -76.93759216666666, "type": "electric_scooter"}, {"bike_id": "e01a1dc4c40994d19c512793af6f0151", "is_reserved": 0, "fusion_lon": 0.0, "lat": 38.90065233333333, "is_disabled": 0, "name": "e01a1dc4c40994d19c512793af6f0151", "fusion_lat": 0.0, "rental_uris": {"ios": "https://dc.lft.to/lastmile_qr_scan", "android": "https://dc.lft.to/lastmile_qr_scan"}, "lon": -77.03174516666667, "type": "electric_scooter"}, {"bike_id": "3915f8aac23c9d7db6f4e46695dfd377", "is_reserved": 0, "fusion_lon": 0.0, "lat": 38.90568616666667, "is_disabled": 0, "name": "3915f8aac23c9d7db6f4e46695dfd377", "fusion_lat": 0.0, "rental_uris": {"ios": "https://dc.lft.to/lastmile_qr_scan", "android": "https://dc.lft.to/lastmile_qr_scan"}, "lon": -77.03838316666666, "type": "electric_scooter"}, {"bike_id": "400b18813dfc31366f8e405adb695347", "is_reserved": 0, "fusion_lon": 0.0, "lat": 38.904846666666664, "is_disabled": 0, "name": "400b18813dfc31366f8e405adb695347", "fusion_lat": 0.0, "rental_uris": {"ios": "https://dc.lft.to/lastmile_qr_scan", "android": "https://dc.lft.to/lastmile_qr_scan"}, "lon": -77.02761083333333, "type": "electric_bike"}, {"bike_id": "1956d348ab99b3c7501a3f3fff7d1379", "is_reserved": 0, "fusion_lon": 0.0, "lat": 38.913343166666664, "is_disabled": 0, "name": "1956d348ab99b3c7501a3f3fff7d1379", "fusion_lat": 0.0, "rental_uris": {"ios": "https://dc.lft.to/lastmile_qr_scan", "android": "https://dc.lft.to/lastmile_qr_scan"}, "lon": -77.048397, "type": "electric_scooter"}, {"bike_id": "0eb24f3e53a8bdc4fa13060cafde3f87", "is_reserved": 0, "fusion_lon": 0.0, "lat": 38.9378685, "is_disabled": 0, "name": "0eb24f3e53a8bdc4fa13060cafde3f87", "fusion_lat": 0.0, "rental_uris": {"ios": "https://dc.lft.to/lastmile_qr_scan", "android": "https://dc.lft.to/lastmile_qr_scan"}, "lon": -77.02327766666667, "type": "electric_scooter"}, {"bike_id": "2171ca4c5471b56ffa87f5a92b71771f", "is_reserved": 0, "fusion_lon": 0.0, "lat": 38.890866, "is_disabled": 0, "name": "2171ca4c5471b56ffa87f5a92b71771f", "fusion_lat": 0.0, "rental_uris": {"ios": "https://dc.lft.to/lastmile_qr_scan", "android": "https://dc.lft.to/lastmile_qr_scan"}, "lon": -76.987453, "type": "electric_scooter"}, {"bike_id": "1a2738411fe5b9580ddab5d24806076a", "is_reserved": 0, "fusion_lon": 0.0, "lat": 38.909738, "is_disabled": 0, "name": "1a2738411fe5b9580ddab5d24806076a", "fusion_lat": 0.0, "rental_uris": {"ios": "https://dc.lft.to/lastmile_qr_scan", "android": "https://dc.lft.to/lastmile_qr_scan"}, "lon": -77.04874883333333, "type": "electric_scooter"}, {"bike_id": "38636fcef03e31b7c904ffd588ede6bf", "is_reserved": 0, "fusion_lon": 0.0, "lat": 38.9057665, "is_disabled": 0, "name": "38636fcef03e31b7c904ffd588ede6bf", "fusion_lat": 0.0, "rental_uris": {"ios": "https://dc.lft.to/lastmile_qr_scan", "android": "https://dc.lft.to/lastmile_qr_scan"}, "lon": -77.03470966666667, "type": "electric_scooter"}, {"bike_id": "b9ef9b48b24cb70072b01db487c010dc", "is_reserved": 0, "fusion_lon": 0.0, "lat": 38.914796833333334, "is_disabled": 0, "name": "b9ef9b48b24cb70072b01db487c010dc", "fusion_lat": 0.0, "rental_uris": {"ios": "https://dc.lft.to/lastmile_qr_scan", "android": "https://dc.lft.to/lastmile_qr_scan"}, "lon": -77.040885, "type": "electric_scooter"}, {"bike_id": "0306a25200d62eed63d5604576d65969", "is_reserved": 0, "fusion_lon": 0.0, "lat": 38.91412866666667, "is_disabled": 0, "name": "0306a25200d62eed63d5604576d65969", "fusion_lat": 0.0, "rental_uris": {"ios": "https://dc.lft.to/lastmile_qr_scan", "android": "https://dc.lft.to/lastmile_qr_scan"}, "lon": -77.03904183333333, "type": "electric_scooter"}, {"bike_id": "30c1a36bbd2b36bc249b4d6a957b854b", "is_reserved": 0, "fusion_lon": 0.0, "lat": 38.9420955, "is_disabled": 0, "name": "30c1a36bbd2b36bc249b4d6a957b854b", "fusion_lat": 0.0, "rental_uris": {"ios": "https://dc.lft.to/lastmile_qr_scan", "android": "https://dc.lft.to/lastmile_qr_scan"}, "lon": -77.03586666666666, "type": "electric_scooter"}, {"bike_id": "76d94bdc55a8da69fb1b4a9e476ae2e3", "is_reserved": 0, "fusion_lon": 0.0, "lat": 38.91415216666667, "is_disabled": 0, "name": "76d94bdc55a8da69fb1b4a9e476ae2e3", "fusion_lat": 0.0, "rental_uris": {"ios": "https://dc.lft.to/lastmile_qr_scan", "android": "https://dc.lft.to/lastmile_qr_scan"}, "lon": -77.03907816666667, "type": "electric_scooter"}, {"bike_id": "7bbed6a7b5c46c50ea0935171531ba94", "is_reserved": 0, "fusion_lon": 0.0, "lat": 38.907174, "is_disabled": 0, "name": "7bbed6a7b5c46c50ea0935171531ba94", "fusion_lat": 0.0, "rental_uris": {"ios": "https://dc.lft.to/lastmile_qr_scan", "android": "https://dc.lft.to/lastmile_qr_scan"}, "lon": -77.0254665, "type": "electric_scooter"}, {"bike_id": "4daaa8280e9b53449abeab8628b32a64", "is_reserved": 0, "fusion_lon": 0.0, "lat": 38.883725166666665, "is_disabled": 0, "name": "4daaa8280e9b53449abeab8628b32a64", "fusion_lat": 0.0, "rental_uris": {"ios": "https://dc.lft.to/lastmile_qr_scan", "android": "https://dc.lft.to/lastmile_qr_scan"}, "lon": -77.026133, "type": "electric_scooter"}, {"bike_id": "603189b50dcf3ce280b500faff33c7e2", "is_reserved": 0, "fusion_lon": 0.0, "lat": 38.876840333333334, "is_disabled": 0, "name": "603189b50dcf3ce280b500faff33c7e2", "fusion_lat": 0.0, "rental_uris": {"ios": "https://dc.lft.to/lastmile_qr_scan", "android": "https://dc.lft.to/lastmile_qr_scan"}, "lon": -77.007307, "type": "electric_scooter"}, {"bike_id": "462b03b3dc15aedb3729054c5d07c84e", "is_reserved": 0, "fusion_lon": 0.0, "lat": 38.91569833333333, "is_disabled": 0, "name": "462b03b3dc15aedb3729054c5d07c84e", "fusion_lat": 0.0, "rental_uris": {"ios": "https://dc.lft.to/lastmile_qr_scan", "android": "https://dc.lft.to/lastmile_qr_scan"}, "lon": -77.0503695, "type": "electric_bike"}, {"bike_id": "abf6df662e422d9057631c7096e25705", "is_reserved": 0, "fusion_lon": 0.0, "lat": 38.901841833333336, "is_disabled": 0, "name": "abf6df662e422d9057631c7096e25705", "fusion_lat": 0.0, "rental_uris": {"ios": "https://dc.lft.to/lastmile_qr_scan", "android": "https://dc.lft.to/lastmile_qr_scan"}, "lon": -76.929968, "type": "electric_scooter"}, {"bike_id": "07abcd964d61fc7c12c7823aaded2250", "is_reserved": 0, "fusion_lon": 0.0, "lat": 38.90028866666667, "is_disabled": 0, "name": "07abcd964d61fc7c12c7823aaded2250", "fusion_lat": 0.0, "rental_uris": {"ios": "https://dc.lft.to/lastmile_qr_scan", "android": "https://dc.lft.to/lastmile_qr_scan"}, "lon": -76.9879345, "type": "electric_scooter"}, {"bike_id": "18d1ab080dc9d45429b7f72aef8d28b8", "is_reserved": 0, "fusion_lon": 0.0, "lat": 38.904305666666666, "is_disabled": 0, "name": "18d1ab080dc9d45429b7f72aef8d28b8", "fusion_lat": 0.0, "rental_uris": {"ios": "https://dc.lft.to/lastmile_qr_scan", "android": "https://dc.lft.to/lastmile_qr_scan"}, "lon": -76.97914283333333, "type": "electric_scooter"}, {"bike_id": "8cd3485882d01cf7e7c3cb51ab61b4b4", "is_reserved": 0, "fusion_lon": 0.0, "lat": 38.899597666666665, "is_disabled": 0, "name": "8cd3485882d01cf7e7c3cb51ab61b4b4", "fusion_lat": 0.0, "rental_uris": {"ios": "https://dc.lft.to/lastmile_qr_scan", "android": "https://dc.lft.to/lastmile_qr_scan"}, "lon": -77.01622416666666, "type": "electric_scooter"}, {"bike_id": "4e4667159ec66f112fa240a1d4c21b0c", "is_reserved": 0, "fusion_lon": 0.0, "lat": 38.908458333333336, "is_disabled": 0, "name": "4e4667159ec66f112fa240a1d4c21b0c", "fusion_lat": 0.0, "rental_uris": {"ios": "https://dc.lft.to/lastmile_qr_scan", "android": "https://dc.lft.to/lastmile_qr_scan"}, "lon": -77.02596633333333, "type": "electric_scooter"}, {"bike_id": "91aa8c0237c164cb72735dca7558531f", "is_reserved": 0, "fusion_lon": 0.0, "lat": 38.911926666666666, "is_disabled": 0, "name": "91aa8c0237c164cb72735dca7558531f", "fusion_lat": 0.0, "rental_uris": {"ios": "https://dc.lft.to/lastmile_qr_scan", "android": "https://dc.lft.to/lastmile_qr_scan"}, "lon": -77.03259, "type": "electric_scooter"}, {"bike_id": "056f50aac2b56426857cd328a1493afe", "is_reserved": 0, "fusion_lon": 0.0, "lat": 38.892166333333336, "is_disabled": 0, "name": "056f50aac2b56426857cd328a1493afe", "fusion_lat": 0.0, "rental_uris": {"ios": "https://dc.lft.to/lastmile_qr_scan", "android": "https://dc.lft.to/lastmile_qr_scan"}, "lon": -77.10772, "type": "electric_bike"}, {"bike_id": "fe4108f056e43e10a561a7e028e620a8", "is_reserved": 0, "fusion_lon": 0.0, "lat": 38.90267633333333, "is_disabled": 0, "name": "fe4108f056e43e10a561a7e028e620a8", "fusion_lat": 0.0, "rental_uris": {"ios": "https://dc.lft.to/lastmile_qr_scan", "android": "https://dc.lft.to/lastmile_qr_scan"}, "lon": -77.05316066666667, "type": "electric_scooter"}, {"bike_id": "480af218563c295d6bda56ae6df1bccd", "is_reserved": 0, "fusion_lon": 0.0, "lat": 38.92762466666667, "is_disabled": 0, "name": "480af218563c295d6bda56ae6df1bccd", "fusion_lat": 0.0, "rental_uris": {"ios": "https://dc.lft.to/lastmile_qr_scan", "android": "https://dc.lft.to/lastmile_qr_scan"}, "lon": -77.03243016666667, "type": "electric_scooter"}, {"bike_id": "7c93f12877f769d01c4172bbccccfa8a", "is_reserved": 0, "fusion_lon": 0.0, "lat": 38.91251333333334, "is_disabled": 0, "name": "7c93f12877f769d01c4172bbccccfa8a", "fusion_lat": 0.0, "rental_uris": {"ios": "https://dc.lft.to/lastmile_qr_scan", "android": "https://dc.lft.to/lastmile_qr_scan"}, "lon": -77.03621933333334, "type": "electric_scooter"}, {"bike_id": "68f34cb6c23b8c36c81ea399f3e026b8", "is_reserved": 0, "fusion_lon": 0.0, "lat": 38.89620716666667, "is_disabled": 0, "name": "68f34cb6c23b8c36c81ea399f3e026b8", "fusion_lat": 0.0, "rental_uris": {"ios": "https://dc.lft.to/lastmile_qr_scan", "android": "https://dc.lft.to/lastmile_qr_scan"}, "lon": -77.04801, "type": "electric_scooter"}, {"bike_id": "7876ffbf3286285296a44f184288484f", "is_reserved": 0, "fusion_lon": 0.0, "lat": 38.932965833333334, "is_disabled": 0, "name": "7876ffbf3286285296a44f184288484f", "fusion_lat": 0.0, "rental_uris": {"ios": "https://dc.lft.to/lastmile_qr_scan", "android": "https://dc.lft.to/lastmile_qr_scan"}, "lon": -77.028478, "type": "electric_scooter"}, {"bike_id": "c03d8290b5ca68709395e56b7517c40b", "is_reserved": 0, "fusion_lon": 0.0, "lat": 38.932347166666666, "is_disabled": 0, "name": "c03d8290b5ca68709395e56b7517c40b", "fusion_lat": 0.0, "rental_uris": {"ios": "https://dc.lft.to/lastmile_qr_scan", "android": "https://dc.lft.to/lastmile_qr_scan"}, "lon": -77.03867883333334, "type": "electric_scooter"}, {"bike_id": "e08e660a3770706ded94c3f83699997a", "is_reserved": 0, "fusion_lon": 0.0, "lat": 38.93390633333333, "is_disabled": 0, "name": "e08e660a3770706ded94c3f83699997a", "fusion_lat": 0.0, "rental_uris": {"ios": "https://dc.lft.to/lastmile_qr_scan", "android": "https://dc.lft.to/lastmile_qr_scan"}, "lon": -77.0358105, "type": "electric_scooter"}, {"bike_id": "c39f2ae5663a6257a3a757ffb199cb62", "is_reserved": 0, "fusion_lon": 0.0, "lat": 38.90856083333333, "is_disabled": 0, "name": "c39f2ae5663a6257a3a757ffb199cb62", "fusion_lat": 0.0, "rental_uris": {"ios": "https://dc.lft.to/lastmile_qr_scan", "android": "https://dc.lft.to/lastmile_qr_scan"}, "lon": -77.027311, "type": "electric_scooter"}, {"bike_id": "55ee88d9695f9d60a6a366ef1cc5df85", "is_reserved": 0, "fusion_lon": 0.0, "lat": 38.905053833333334, "is_disabled": 0, "name": "55ee88d9695f9d60a6a366ef1cc5df85", "fusion_lat": 0.0, "rental_uris": {"ios": "https://dc.lft.to/lastmile_qr_scan", "android": "https://dc.lft.to/lastmile_qr_scan"}, "lon": -77.067564, "type": "electric_scooter"}, {"bike_id": "746ee002cacfdc27ac79935e2a2cd5a7", "is_reserved": 0, "fusion_lon": 0.0, "lat": 38.90684566666667, "is_disabled": 0, "name": "746ee002cacfdc27ac79935e2a2cd5a7", "fusion_lat": 0.0, "rental_uris": {"ios": "https://dc.lft.to/lastmile_qr_scan", "android": "https://dc.lft.to/lastmile_qr_scan"}, "lon": -77.04500633333333, "type": "electric_scooter"}, {"bike_id": "836d8acb7cb454e25124064a6939c24e", "is_reserved": 0, "fusion_lon": 0.0, "lat": 38.90912683333333, "is_disabled": 0, "name": "836d8acb7cb454e25124064a6939c24e", "fusion_lat": 0.0, "rental_uris": {"ios": "https://dc.lft.to/lastmile_qr_scan", "android": "https://dc.lft.to/lastmile_qr_scan"}, "lon": -77.00921, "type": "electric_scooter"}, {"bike_id": "002061319b164c64e60d4f5079deeefa", "is_reserved": 0, "fusion_lon": 0.0, "lat": 38.892230166666664, "is_disabled": 0, "name": "002061319b164c64e60d4f5079deeefa", "fusion_lat": 0.0, "rental_uris": {"ios": "https://dc.lft.to/lastmile_qr_scan", "android": "https://dc.lft.to/lastmile_qr_scan"}, "lon": -77.02206116666666, "type": "electric_scooter"}, {"bike_id": "2f84a8b76212923ea9dc5498c26bcf29", "is_reserved": 0, "fusion_lon": 0.0, "lat": 38.9202745, "is_disabled": 0, "name": "2f84a8b76212923ea9dc5498c26bcf29", "fusion_lat": 0.0, "rental_uris": {"ios": "https://dc.lft.to/lastmile_qr_scan", "android": "https://dc.lft.to/lastmile_qr_scan"}, "lon": -77.02797083333333, "type": "electric_scooter"}, {"bike_id": "1c3b3a9fb413271aa4ad9590c5085f35", "is_reserved": 0, "fusion_lon": 0.0, "lat": 38.94287816666667, "is_disabled": 0, "name": "1c3b3a9fb413271aa4ad9590c5085f35", "fusion_lat": 0.0, "rental_uris": {"ios": "https://dc.lft.to/lastmile_qr_scan", "android": "https://dc.lft.to/lastmile_qr_scan"}, "lon": -77.0216155, "type": "electric_scooter"}, {"bike_id": "c1a61ad8d81a6a22379e07062935a704", "is_reserved": 0, "fusion_lon": 0.0, "lat": 38.921826, "is_disabled": 0, "name": "c1a61ad8d81a6a22379e07062935a704", "fusion_lat": 0.0, "rental_uris": {"ios": "https://dc.lft.to/lastmile_qr_scan", "android": "https://dc.lft.to/lastmile_qr_scan"}, "lon": -77.04121483333333, "type": "electric_scooter"}, {"bike_id": "6809cb5d5441bb6a7335e7f2a9ca7a6a", "is_reserved": 0, "fusion_lon": 0.0, "lat": 38.90732283333333, "is_disabled": 0, "name": "6809cb5d5441bb6a7335e7f2a9ca7a6a", "fusion_lat": 0.0, "rental_uris": {"ios": "https://dc.lft.to/lastmile_qr_scan", "android": "https://dc.lft.to/lastmile_qr_scan"}, "lon": -77.042388, "type": "electric_scooter"}, {"bike_id": "fe64ac50d5ec247baca109954ecde9ef", "is_reserved": 0, "fusion_lon": 0.0, "lat": 38.904489166666664, "is_disabled": 0, "name": "fe64ac50d5ec247baca109954ecde9ef", "fusion_lat": 0.0, "rental_uris": {"ios": "https://dc.lft.to/lastmile_qr_scan", "android": "https://dc.lft.to/lastmile_qr_scan"}, "lon": -77.05329833333333, "type": "electric_scooter"}, {"bike_id": "c4cf986919777562588b9dee203424d8", "is_reserved": 0, "fusion_lon": 0.0, "lat": 38.901428333333335, "is_disabled": 0, "name": "c4cf986919777562588b9dee203424d8", "fusion_lat": 0.0, "rental_uris": {"ios": "https://dc.lft.to/lastmile_qr_scan", "android": "https://dc.lft.to/lastmile_qr_scan"}, "lon": -77.04466183333334, "type": "electric_scooter"}, {"bike_id": "7bb0d172e20c5f49c63c19d01dae08b1", "is_reserved": 0, "fusion_lon": 0.0, "lat": 38.9236115, "is_disabled": 0, "name": "7bb0d172e20c5f49c63c19d01dae08b1", "fusion_lat": 0.0, "rental_uris": {"ios": "https://dc.lft.to/lastmile_qr_scan", "android": "https://dc.lft.to/lastmile_qr_scan"}, "lon": -77.05029883333333, "type": "electric_scooter"}, {"bike_id": "5023efc389d5eb5f1c0fbf3142eca91f", "is_reserved": 0, "fusion_lon": 0.0, "lat": 38.919970666666664, "is_disabled": 0, "name": "5023efc389d5eb5f1c0fbf3142eca91f", "fusion_lat": 0.0, "rental_uris": {"ios": "https://dc.lft.to/lastmile_qr_scan", "android": "https://dc.lft.to/lastmile_qr_scan"}, "lon": -77.03229033333334, "type": "electric_scooter"}, {"bike_id": "74330e2e136a15ec5d8c3dfb034873ba", "is_reserved": 0, "fusion_lon": 0.0, "lat": 38.9284495, "is_disabled": 0, "name": "74330e2e136a15ec5d8c3dfb034873ba", "fusion_lat": 0.0, "rental_uris": {"ios": "https://dc.lft.to/lastmile_qr_scan", "android": "https://dc.lft.to/lastmile_qr_scan"}, "lon": -77.05442366666666, "type": "electric_scooter"}, {"bike_id": "ed8b6a34fc1b0d54261cdb566600b1a9", "is_reserved": 0, "fusion_lon": 0.0, "lat": 38.92324716666667, "is_disabled": 0, "name": "ed8b6a34fc1b0d54261cdb566600b1a9", "fusion_lat": 0.0, "rental_uris": {"ios": "https://dc.lft.to/lastmile_qr_scan", "android": "https://dc.lft.to/lastmile_qr_scan"}, "lon": -77.044858, "type": "electric_scooter"}, {"bike_id": "f0c1259a4740d7d97909fbd419089fba", "is_reserved": 0, "fusion_lon": 0.0, "lat": 38.92333433333334, "is_disabled": 0, "name": "f0c1259a4740d7d97909fbd419089fba", "fusion_lat": 0.0, "rental_uris": {"ios": "https://dc.lft.to/lastmile_qr_scan", "android": "https://dc.lft.to/lastmile_qr_scan"}, "lon": -77.03885333333334, "type": "electric_scooter"}, {"bike_id": "10eb91a882412b196256dd01b4668519", "is_reserved": 0, "fusion_lon": 0.0, "lat": 38.8616465, "is_disabled": 0, "name": "10eb91a882412b196256dd01b4668519", "fusion_lat": 0.0, "rental_uris": {"ios": "https://dc.lft.to/lastmile_qr_scan", "android": "https://dc.lft.to/lastmile_qr_scan"}, "lon": -76.9506635, "type": "electric_bike"}, {"bike_id": "2de776d0a31756b15a8dd71f0d25022c", "is_reserved": 0, "fusion_lon": 0.0, "lat": 38.903058, "is_disabled": 0, "name": "2de776d0a31756b15a8dd71f0d25022c", "fusion_lat": 0.0, "rental_uris": {"ios": "https://dc.lft.to/lastmile_qr_scan", "android": "https://dc.lft.to/lastmile_qr_scan"}, "lon": -77.04326016666667, "type": "electric_scooter"}, {"bike_id": "3f60e122b6d2db0fc7ea3adc554ef75f", "is_reserved": 0, "fusion_lon": 0.0, "lat": 39.0563435, "is_disabled": 0, "name": "3f60e122b6d2db0fc7ea3adc554ef75f", "fusion_lat": 0.0, "rental_uris": {"ios": "https://dc.lft.to/lastmile_qr_scan", "android": "https://dc.lft.to/lastmile_qr_scan"}, "lon": -77.12528416666666, "type": "electric_bike"}, {"bike_id": "58b5d2e8de18539d2890ef5d6622941d", "is_reserved": 0, "fusion_lon": 0.0, "lat": 38.924746166666665, "is_disabled": 0, "name": "58b5d2e8de18539d2890ef5d6622941d", "fusion_lat": 0.0, "rental_uris": {"ios": "https://dc.lft.to/lastmile_qr_scan", "android": "https://dc.lft.to/lastmile_qr_scan"}, "lon": -77.0349195, "type": "electric_scooter"}, {"bike_id": "49608e6b76678bc93eed8b3585523d34", "is_reserved": 0, "fusion_lon": 0.0, "lat": 38.92702833333333, "is_disabled": 0, "name": "49608e6b76678bc93eed8b3585523d34", "fusion_lat": 0.0, "rental_uris": {"ios": "https://dc.lft.to/lastmile_qr_scan", "android": "https://dc.lft.to/lastmile_qr_scan"}, "lon": -77.04096533333333, "type": "electric_scooter"}, {"bike_id": "579b777cc3967705f7871a302a4ef3d5", "is_reserved": 0, "fusion_lon": 0.0, "lat": 38.90464166666667, "is_disabled": 0, "name": "579b777cc3967705f7871a302a4ef3d5", "fusion_lat": 0.0, "rental_uris": {"ios": "https://dc.lft.to/lastmile_qr_scan", "android": "https://dc.lft.to/lastmile_qr_scan"}, "lon": -77.02951383333334, "type": "electric_scooter"}, {"bike_id": "3d0ee35629571008c320090f4762b940", "is_reserved": 0, "fusion_lon": 0.0, "lat": 38.8853145, "is_disabled": 0, "name": "3d0ee35629571008c320090f4762b940", "fusion_lat": 0.0, "rental_uris": {"ios": "https://dc.lft.to/lastmile_qr_scan", "android": "https://dc.lft.to/lastmile_qr_scan"}, "lon": -77.005834, "type": "electric_scooter"}, {"bike_id": "09f9bd67470dbcb778aed30a258af554", "is_reserved": 0, "fusion_lon": 0.0, "lat": 38.868209, "is_disabled": 0, "name": "09f9bd67470dbcb778aed30a258af554", "fusion_lat": 0.0, "rental_uris": {"ios": "https://dc.lft.to/lastmile_qr_scan", "android": "https://dc.lft.to/lastmile_qr_scan"}, "lon": -76.98610633333334, "type": "electric_scooter"}, {"bike_id": "3e75086bea778dc14b2bd57e3d3ebaa7", "is_reserved": 0, "fusion_lon": 0.0, "lat": 38.907010666666665, "is_disabled": 0, "name": "3e75086bea778dc14b2bd57e3d3ebaa7", "fusion_lat": 0.0, "rental_uris": {"ios": "https://dc.lft.to/lastmile_qr_scan", "android": "https://dc.lft.to/lastmile_qr_scan"}, "lon": -76.986981, "type": "electric_scooter"}, {"bike_id": "14aa3d3cd560b37a8107ec41314e14b2", "is_reserved": 0, "fusion_lon": 0.0, "lat": 38.902696666666664, "is_disabled": 0, "name": "14aa3d3cd560b37a8107ec41314e14b2", "fusion_lat": 0.0, "rental_uris": {"ios": "https://dc.lft.to/lastmile_qr_scan", "android": "https://dc.lft.to/lastmile_qr_scan"}, "lon": -77.00323233333333, "type": "electric_scooter"}, {"bike_id": "2d8eec0906563ddf3a763a66d631cd6e", "is_reserved": 0, "fusion_lon": 0.0, "lat": 38.892339666666665, "is_disabled": 0, "name": "2d8eec0906563ddf3a763a66d631cd6e", "fusion_lat": 0.0, "rental_uris": {"ios": "https://dc.lft.to/lastmile_qr_scan", "android": "https://dc.lft.to/lastmile_qr_scan"}, "lon": -77.02170483333333, "type": "electric_scooter"}, {"bike_id": "7b48e41d0d1a57bdf66a771b455b9a3c", "is_reserved": 0, "fusion_lon": 0.0, "lat": 38.91692183333333, "is_disabled": 0, "name": "7b48e41d0d1a57bdf66a771b455b9a3c", "fusion_lat": 0.0, "rental_uris": {"ios": "https://dc.lft.to/lastmile_qr_scan", "android": "https://dc.lft.to/lastmile_qr_scan"}, "lon": -77.0259505, "type": "electric_scooter"}, {"bike_id": "98041a226c7fc8043d61959cddf1052b", "is_reserved": 0, "fusion_lon": 0.0, "lat": 38.9370405, "is_disabled": 0, "name": "98041a226c7fc8043d61959cddf1052b", "fusion_lat": 0.0, "rental_uris": {"ios": "https://dc.lft.to/lastmile_qr_scan", "android": "https://dc.lft.to/lastmile_qr_scan"}, "lon": -77.02405116666667, "type": "electric_scooter"}, {"bike_id": "ebb86e20e24aa9a4586ec56414fc4037", "is_reserved": 0, "fusion_lon": 0.0, "lat": 38.90016216666667, "is_disabled": 0, "name": "ebb86e20e24aa9a4586ec56414fc4037", "fusion_lat": 0.0, "rental_uris": {"ios": "https://dc.lft.to/lastmile_qr_scan", "android": "https://dc.lft.to/lastmile_qr_scan"}, "lon": -77.011238, "type": "electric_scooter"}, {"bike_id": "00bd25a9df4279a3c9f2fbf5be751113", "is_reserved": 0, "fusion_lon": 0.0, "lat": 38.8624265, "is_disabled": 0, "name": "00bd25a9df4279a3c9f2fbf5be751113", "fusion_lat": 0.0, "rental_uris": {"ios": "https://dc.lft.to/lastmile_qr_scan", "android": "https://dc.lft.to/lastmile_qr_scan"}, "lon": -76.99484983333333, "type": "electric_scooter"}, {"bike_id": "f80e6b11d2c5c72713417d3c0b30a22e", "is_reserved": 0, "fusion_lon": 0.0, "lat": 38.901256333333336, "is_disabled": 0, "name": "f80e6b11d2c5c72713417d3c0b30a22e", "fusion_lat": 0.0, "rental_uris": {"ios": "https://dc.lft.to/lastmile_qr_scan", "android": "https://dc.lft.to/lastmile_qr_scan"}, "lon": -77.04474066666667, "type": "electric_scooter"}, {"bike_id": "2b074f25617f5475dae79f94161c1569", "is_reserved": 0, "fusion_lon": 0.0, "lat": 38.910996, "is_disabled": 0, "name": "2b074f25617f5475dae79f94161c1569", "fusion_lat": 0.0, "rental_uris": {"ios": "https://dc.lft.to/lastmile_qr_scan", "android": "https://dc.lft.to/lastmile_qr_scan"}, "lon": -77.00370833333334, "type": "electric_scooter"}, {"bike_id": "4135f4b2ff8c4edc697fa2d22dabd024", "is_reserved": 0, "fusion_lon": 0.0, "lat": 38.926314166666664, "is_disabled": 0, "name": "4135f4b2ff8c4edc697fa2d22dabd024", "fusion_lat": 0.0, "rental_uris": {"ios": "https://dc.lft.to/lastmile_qr_scan", "android": "https://dc.lft.to/lastmile_qr_scan"}, "lon": -77.0350745, "type": "electric_scooter"}, {"bike_id": "3b2d109df8d3b7c403f18c4caa0b6edb", "is_reserved": 0, "fusion_lon": 0.0, "lat": 38.905114, "is_disabled": 0, "name": "3b2d109df8d3b7c403f18c4caa0b6edb", "fusion_lat": 0.0, "rental_uris": {"ios": "https://dc.lft.to/lastmile_qr_scan", "android": "https://dc.lft.to/lastmile_qr_scan"}, "lon": -77.04146466666667, "type": "electric_scooter"}, {"bike_id": "1ed261a80fce97ffd3fc504ed5f30d04", "is_reserved": 0, "fusion_lon": 0.0, "lat": 38.898184, "is_disabled": 0, "name": "1ed261a80fce97ffd3fc504ed5f30d04", "fusion_lat": 0.0, "rental_uris": {"ios": "https://dc.lft.to/lastmile_qr_scan", "android": "https://dc.lft.to/lastmile_qr_scan"}, "lon": -77.03351383333333, "type": "electric_scooter"}, {"bike_id": "29e6369c2b14bb42022f03c43962a101", "is_reserved": 0, "fusion_lon": 0.0, "lat": 38.93347033333333, "is_disabled": 0, "name": "29e6369c2b14bb42022f03c43962a101", "fusion_lat": 0.0, "rental_uris": {"ios": "https://dc.lft.to/lastmile_qr_scan", "android": "https://dc.lft.to/lastmile_qr_scan"}, "lon": -77.0586425, "type": "electric_scooter"}, {"bike_id": "3b46e102d23ca9a8f83b2981fb83a641", "is_reserved": 0, "fusion_lon": 0.0, "lat": 38.92083483333333, "is_disabled": 0, "name": "3b46e102d23ca9a8f83b2981fb83a641", "fusion_lat": 0.0, "rental_uris": {"ios": "https://dc.lft.to/lastmile_qr_scan", "android": "https://dc.lft.to/lastmile_qr_scan"}, "lon": -77.0747115, "type": "electric_scooter"}, {"bike_id": "87933020b8e611dc2278535c4edc3cba", "is_reserved": 0, "fusion_lon": 0.0, "lat": 38.93103633333333, "is_disabled": 0, "name": "87933020b8e611dc2278535c4edc3cba", "fusion_lat": 0.0, "rental_uris": {"ios": "https://dc.lft.to/lastmile_qr_scan", "android": "https://dc.lft.to/lastmile_qr_scan"}, "lon": -77.01844783333334, "type": "electric_scooter"}, {"bike_id": "9121ff6c6cfbd84c90bc94f840fdbf5d", "is_reserved": 0, "fusion_lon": 0.0, "lat": 38.922924, "is_disabled": 0, "name": "9121ff6c6cfbd84c90bc94f840fdbf5d", "fusion_lat": 0.0, "rental_uris": {"ios": "https://dc.lft.to/lastmile_qr_scan", "android": "https://dc.lft.to/lastmile_qr_scan"}, "lon": -77.02072466666667, "type": "electric_scooter"}, {"bike_id": "d73b144ce16ddf17f04280b933a64927", "is_reserved": 0, "fusion_lon": 0.0, "lat": 38.90529183333334, "is_disabled": 0, "name": "d73b144ce16ddf17f04280b933a64927", "fusion_lat": 0.0, "rental_uris": {"ios": "https://dc.lft.to/lastmile_qr_scan", "android": "https://dc.lft.to/lastmile_qr_scan"}, "lon": -76.9980215, "type": "electric_bike"}, {"bike_id": "481658020f1e074babfec99321e26f56", "is_reserved": 0, "fusion_lon": 0.0, "lat": 38.941536, "is_disabled": 0, "name": "481658020f1e074babfec99321e26f56", "fusion_lat": 0.0, "rental_uris": {"ios": "https://dc.lft.to/lastmile_qr_scan", "android": "https://dc.lft.to/lastmile_qr_scan"}, "lon": -77.036522, "type": "electric_scooter"}, {"bike_id": "9dde3379f290855b30cab14bd942de08", "is_reserved": 0, "fusion_lon": 0.0, "lat": 38.913331, "is_disabled": 0, "name": "9dde3379f290855b30cab14bd942de08", "fusion_lat": 0.0, "rental_uris": {"ios": "https://dc.lft.to/lastmile_qr_scan", "android": "https://dc.lft.to/lastmile_qr_scan"}, "lon": -77.0304455, "type": "electric_scooter"}, {"bike_id": "2e1568938af5794ecb6aa3f7b116b4f8", "is_reserved": 0, "fusion_lon": 0.0, "lat": 38.99090183333333, "is_disabled": 0, "name": "2e1568938af5794ecb6aa3f7b116b4f8", "fusion_lat": 0.0, "rental_uris": {"ios": "https://dc.lft.to/lastmile_qr_scan", "android": "https://dc.lft.to/lastmile_qr_scan"}, "lon": -76.87498216666667, "type": "electric_bike"}, {"bike_id": "74324b294416a2d0de79555239e745fc", "is_reserved": 0, "fusion_lon": 0.0, "lat": 38.90556183333333, "is_disabled": 0, "name": "74324b294416a2d0de79555239e745fc", "fusion_lat": 0.0, "rental_uris": {"ios": "https://dc.lft.to/lastmile_qr_scan", "android": "https://dc.lft.to/lastmile_qr_scan"}, "lon": -76.99789933333334, "type": "electric_bike"}, {"bike_id": "acce60c6dada2723cd0fa88860d02763", "is_reserved": 0, "fusion_lon": 0.0, "lat": 38.9074045, "is_disabled": 0, "name": "acce60c6dada2723cd0fa88860d02763", "fusion_lat": 0.0, "rental_uris": {"ios": "https://dc.lft.to/lastmile_qr_scan", "android": "https://dc.lft.to/lastmile_qr_scan"}, "lon": -77.03467633333334, "type": "electric_scooter"}, {"bike_id": "37a461ba6341723a97a83a7b9321e274", "is_reserved": 0, "fusion_lon": 0.0, "lat": 38.92402216666667, "is_disabled": 0, "name": "37a461ba6341723a97a83a7b9321e274", "fusion_lat": 0.0, "rental_uris": {"ios": "https://dc.lft.to/lastmile_qr_scan", "android": "https://dc.lft.to/lastmile_qr_scan"}, "lon": -77.0254035, "type": "electric_scooter"}, {"bike_id": "44a8458537a44a57fec89f1944ec8769", "is_reserved": 0, "fusion_lon": 0.0, "lat": 38.884382333333335, "is_disabled": 0, "name": "44a8458537a44a57fec89f1944ec8769", "fusion_lat": 0.0, "rental_uris": {"ios": "https://dc.lft.to/lastmile_qr_scan", "android": "https://dc.lft.to/lastmile_qr_scan"}, "lon": -76.95753416666666, "type": "electric_scooter"}, {"bike_id": "fa9a91f5260cd1eca46c6cc5c29a57c2", "is_reserved": 0, "fusion_lon": 0.0, "lat": 38.90061883333333, "is_disabled": 0, "name": "fa9a91f5260cd1eca46c6cc5c29a57c2", "fusion_lat": 0.0, "rental_uris": {"ios": "https://dc.lft.to/lastmile_qr_scan", "android": "https://dc.lft.to/lastmile_qr_scan"}, "lon": -76.93387666666666, "type": "electric_scooter"}, {"bike_id": "7e2ff4d6c79869a233935bb825703d1e", "is_reserved": 0, "fusion_lon": 0.0, "lat": 38.91660516666666, "is_disabled": 0, "name": "7e2ff4d6c79869a233935bb825703d1e", "fusion_lat": 0.0, "rental_uris": {"ios": "https://dc.lft.to/lastmile_qr_scan", "android": "https://dc.lft.to/lastmile_qr_scan"}, "lon": -77.02710366666666, "type": "electric_scooter"}, {"bike_id": "25aae93e5389082bf4c6ca4b16b9b322", "is_reserved": 0, "fusion_lon": 0.0, "lat": 38.92283616666667, "is_disabled": 0, "name": "25aae93e5389082bf4c6ca4b16b9b322", "fusion_lat": 0.0, "rental_uris": {"ios": "https://dc.lft.to/lastmile_qr_scan", "android": "https://dc.lft.to/lastmile_qr_scan"}, "lon": -77.0319955, "type": "electric_scooter"}, {"bike_id": "4b3588f21016677a923b377b775cd4b4", "is_reserved": 0, "fusion_lon": 0.0, "lat": 38.90570433333333, "is_disabled": 0, "name": "4b3588f21016677a923b377b775cd4b4", "fusion_lat": 0.0, "rental_uris": {"ios": "https://dc.lft.to/lastmile_qr_scan", "android": "https://dc.lft.to/lastmile_qr_scan"}, "lon": -77.03464466666667, "type": "electric_scooter"}, {"bike_id": "bee54535ba141ad911981a52da6fff5a", "is_reserved": 0, "fusion_lon": 0.0, "lat": 38.866978833333334, "is_disabled": 0, "name": "bee54535ba141ad911981a52da6fff5a", "fusion_lat": 0.0, "rental_uris": {"ios": "https://dc.lft.to/lastmile_qr_scan", "android": "https://dc.lft.to/lastmile_qr_scan"}, "lon": -76.9870975, "type": "electric_scooter"}, {"bike_id": "eee6d547dae6fcd5b8902055ee3c4817", "is_reserved": 0, "fusion_lon": 0.0, "lat": 38.884110166666666, "is_disabled": 0, "name": "eee6d547dae6fcd5b8902055ee3c4817", "fusion_lat": 0.0, "rental_uris": {"ios": "https://dc.lft.to/lastmile_qr_scan", "android": "https://dc.lft.to/lastmile_qr_scan"}, "lon": -77.01530966666667, "type": "electric_scooter"}, {"bike_id": "4160ef90d505cb17994fc0dfa5daf7b8", "is_reserved": 0, "fusion_lon": 0.0, "lat": 38.901914166666664, "is_disabled": 0, "name": "4160ef90d505cb17994fc0dfa5daf7b8", "fusion_lat": 0.0, "rental_uris": {"ios": "https://dc.lft.to/lastmile_qr_scan", "android": "https://dc.lft.to/lastmile_qr_scan"}, "lon": -77.02161616666666, "type": "electric_scooter"}, {"bike_id": "d3eb3f126780a96170b696ff9228b4b8", "is_reserved": 0, "fusion_lon": 0.0, "lat": 38.9908495, "is_disabled": 0, "name": "d3eb3f126780a96170b696ff9228b4b8", "fusion_lat": 0.0, "rental_uris": {"ios": "https://dc.lft.to/lastmile_qr_scan", "android": "https://dc.lft.to/lastmile_qr_scan"}, "lon": -76.8749165, "type": "electric_bike"}, {"bike_id": "32995a82a64ad0511037fb06e1a0ddbd", "is_reserved": 0, "fusion_lon": 0.0, "lat": 38.919762666666664, "is_disabled": 0, "name": "32995a82a64ad0511037fb06e1a0ddbd", "fusion_lat": 0.0, "rental_uris": {"ios": "https://dc.lft.to/lastmile_qr_scan", "android": "https://dc.lft.to/lastmile_qr_scan"}, "lon": -77.02384316666667, "type": "electric_scooter"}, {"bike_id": "a87dc3a9dd9fd259004b6fd15509402b", "is_reserved": 0, "fusion_lon": 0.0, "lat": 38.919905, "is_disabled": 0, "name": "a87dc3a9dd9fd259004b6fd15509402b", "fusion_lat": 0.0, "rental_uris": {"ios": "https://dc.lft.to/lastmile_qr_scan", "android": "https://dc.lft.to/lastmile_qr_scan"}, "lon": -77.03230133333334, "type": "electric_scooter"}, {"bike_id": "39d17e104271ab6182c0c0d8d69e17d9", "is_reserved": 0, "fusion_lon": 0.0, "lat": 38.828632, "is_disabled": 0, "name": "39d17e104271ab6182c0c0d8d69e17d9", "fusion_lat": 0.0, "rental_uris": {"ios": "https://dc.lft.to/lastmile_qr_scan", "android": "https://dc.lft.to/lastmile_qr_scan"}, "lon": -77.11222466666666, "type": "electric_bike"}, {"bike_id": "489e5d2f4d1f51d29c3a7a34334f47cc", "is_reserved": 0, "fusion_lon": 0.0, "lat": 38.936052833333335, "is_disabled": 0, "name": "489e5d2f4d1f51d29c3a7a34334f47cc", "fusion_lat": 0.0, "rental_uris": {"ios": "https://dc.lft.to/lastmile_qr_scan", "android": "https://dc.lft.to/lastmile_qr_scan"}, "lon": -77.05860583333333, "type": "electric_scooter"}, {"bike_id": "6349b3945b955b9b9d501e29b8919720", "is_reserved": 0, "fusion_lon": 0.0, "lat": 38.90081633333333, "is_disabled": 0, "name": "6349b3945b955b9b9d501e29b8919720", "fusion_lat": 0.0, "rental_uris": {"ios": "https://dc.lft.to/lastmile_qr_scan", "android": "https://dc.lft.to/lastmile_qr_scan"}, "lon": -77.048807, "type": "electric_scooter"}, {"bike_id": "028c51d7c3a9797b6b70d23d69a82d25", "is_reserved": 0, "fusion_lon": 0.0, "lat": 38.900293833333336, "is_disabled": 0, "name": "028c51d7c3a9797b6b70d23d69a82d25", "fusion_lat": 0.0, "rental_uris": {"ios": "https://dc.lft.to/lastmile_qr_scan", "android": "https://dc.lft.to/lastmile_qr_scan"}, "lon": -77.013638, "type": "electric_scooter"}, {"bike_id": "68ecb0a4eb16cf74520a2592f9376efb", "is_reserved": 0, "fusion_lon": 0.0, "lat": 38.917976333333336, "is_disabled": 0, "name": "68ecb0a4eb16cf74520a2592f9376efb", "fusion_lat": 0.0, "rental_uris": {"ios": "https://dc.lft.to/lastmile_qr_scan", "android": "https://dc.lft.to/lastmile_qr_scan"}, "lon": -77.034407, "type": "electric_scooter"}, {"bike_id": "9007a63ae4fe2292f1834b3257e6cd51", "is_reserved": 0, "fusion_lon": 0.0, "lat": 38.910839333333335, "is_disabled": 0, "name": "9007a63ae4fe2292f1834b3257e6cd51", "fusion_lat": 0.0, "rental_uris": {"ios": "https://dc.lft.to/lastmile_qr_scan", "android": "https://dc.lft.to/lastmile_qr_scan"}, "lon": -77.03452566666667, "type": "electric_scooter"}, {"bike_id": "c44e522632a7cbcddec56df448c199d8", "is_reserved": 0, "fusion_lon": 0.0, "lat": 38.916857, "is_disabled": 0, "name": "c44e522632a7cbcddec56df448c199d8", "fusion_lat": 0.0, "rental_uris": {"ios": "https://dc.lft.to/lastmile_qr_scan", "android": "https://dc.lft.to/lastmile_qr_scan"}, "lon": -77.036382, "type": "electric_scooter"}, {"bike_id": "258e75cea02812a4f330c41fbc0c3d62", "is_reserved": 0, "fusion_lon": 0.0, "lat": 38.8982055, "is_disabled": 0, "name": "258e75cea02812a4f330c41fbc0c3d62", "fusion_lat": 0.0, "rental_uris": {"ios": "https://dc.lft.to/lastmile_qr_scan", "android": "https://dc.lft.to/lastmile_qr_scan"}, "lon": -77.03312766666667, "type": "electric_scooter"}, {"bike_id": "41554c97660c001bcea7de8d8c0a0209", "is_reserved": 0, "fusion_lon": 0.0, "lat": 38.88493166666667, "is_disabled": 0, "name": "41554c97660c001bcea7de8d8c0a0209", "fusion_lat": 0.0, "rental_uris": {"ios": "https://dc.lft.to/lastmile_qr_scan", "android": "https://dc.lft.to/lastmile_qr_scan"}, "lon": -77.00724616666666, "type": "electric_scooter"}, {"bike_id": "7070bda4a53b495708fc4a79dbcb32a6", "is_reserved": 0, "fusion_lon": 0.0, "lat": 38.88043966666667, "is_disabled": 0, "name": "7070bda4a53b495708fc4a79dbcb32a6", "fusion_lat": 0.0, "rental_uris": {"ios": "https://dc.lft.to/lastmile_qr_scan", "android": "https://dc.lft.to/lastmile_qr_scan"}, "lon": -77.0132945, "type": "electric_bike"}, {"bike_id": "7236e3d19925641f97dec56d06c8eb19", "is_reserved": 0, "fusion_lon": 0.0, "lat": 38.839339, "is_disabled": 0, "name": "7236e3d19925641f97dec56d06c8eb19", "fusion_lat": 0.0, "rental_uris": {"ios": "https://dc.lft.to/lastmile_qr_scan", "android": "https://dc.lft.to/lastmile_qr_scan"}, "lon": -77.07903766666666, "type": "electric_bike"}, {"bike_id": "ff9456e0ac1fa6ded607a80fc0e488dd", "is_reserved": 0, "fusion_lon": 0.0, "lat": 38.90310683333333, "is_disabled": 0, "name": "ff9456e0ac1fa6ded607a80fc0e488dd", "fusion_lat": 0.0, "rental_uris": {"ios": "https://dc.lft.to/lastmile_qr_scan", "android": "https://dc.lft.to/lastmile_qr_scan"}, "lon": -77.03321216666667, "type": "electric_scooter"}, {"bike_id": "2c854830eb646fc9fe03a3dba229ba7a", "is_reserved": 0, "fusion_lon": 0.0, "lat": 38.91590633333333, "is_disabled": 0, "name": "2c854830eb646fc9fe03a3dba229ba7a", "fusion_lat": 0.0, "rental_uris": {"ios": "https://dc.lft.to/lastmile_qr_scan", "android": "https://dc.lft.to/lastmile_qr_scan"}, "lon": -77.0318615, "type": "electric_scooter"}, {"bike_id": "82285c9e5a0e5f14c559d6bab2284f06", "is_reserved": 0, "fusion_lon": 0.0, "lat": 38.9142345, "is_disabled": 0, "name": "82285c9e5a0e5f14c559d6bab2284f06", "fusion_lat": 0.0, "rental_uris": {"ios": "https://dc.lft.to/lastmile_qr_scan", "android": "https://dc.lft.to/lastmile_qr_scan"}, "lon": -77.0415675, "type": "electric_scooter"}, {"bike_id": "f4093a70cf318150386b32ff40496d9c", "is_reserved": 0, "fusion_lon": 0.0, "lat": 38.8427125, "is_disabled": 0, "name": "f4093a70cf318150386b32ff40496d9c", "fusion_lat": 0.0, "rental_uris": {"ios": "https://dc.lft.to/lastmile_qr_scan", "android": "https://dc.lft.to/lastmile_qr_scan"}, "lon": -76.98840283333334, "type": "electric_bike"}, {"bike_id": "0c0c91750a3348656f4167f67d48545a", "is_reserved": 0, "fusion_lon": 0.0, "lat": 38.912861166666666, "is_disabled": 0, "name": "0c0c91750a3348656f4167f67d48545a", "fusion_lat": 0.0, "rental_uris": {"ios": "https://dc.lft.to/lastmile_qr_scan", "android": "https://dc.lft.to/lastmile_qr_scan"}, "lon": -77.07250466666666, "type": "electric_bike"}, {"bike_id": "6e6dfd3d69f011f2985a74ac3c178e4a", "is_reserved": 0, "fusion_lon": 0.0, "lat": 38.892236, "is_disabled": 0, "name": "6e6dfd3d69f011f2985a74ac3c178e4a", "fusion_lat": 0.0, "rental_uris": {"ios": "https://dc.lft.to/lastmile_qr_scan", "android": "https://dc.lft.to/lastmile_qr_scan"}, "lon": -77.02207566666667, "type": "electric_scooter"}, {"bike_id": "f0ddc0ab46eda76c896556c3f485a234", "is_reserved": 0, "fusion_lon": 0.0, "lat": 38.89816533333333, "is_disabled": 0, "name": "f0ddc0ab46eda76c896556c3f485a234", "fusion_lat": 0.0, "rental_uris": {"ios": "https://dc.lft.to/lastmile_qr_scan", "android": "https://dc.lft.to/lastmile_qr_scan"}, "lon": -77.03355983333333, "type": "electric_scooter"}, {"bike_id": "ec9c1c00699c18c5e8ca69e86ad4d921", "is_reserved": 0, "fusion_lon": 0.0, "lat": 38.9002215, "is_disabled": 0, "name": "ec9c1c00699c18c5e8ca69e86ad4d921", "fusion_lat": 0.0, "rental_uris": {"ios": "https://dc.lft.to/lastmile_qr_scan", "android": "https://dc.lft.to/lastmile_qr_scan"}, "lon": -77.01151183333333, "type": "electric_scooter"}, {"bike_id": "8adfd2fdc5732f76e3dd78cbc9ba5f50", "is_reserved": 0, "fusion_lon": 0.0, "lat": 38.914925, "is_disabled": 0, "name": "8adfd2fdc5732f76e3dd78cbc9ba5f50", "fusion_lat": 0.0, "rental_uris": {"ios": "https://dc.lft.to/lastmile_qr_scan", "android": "https://dc.lft.to/lastmile_qr_scan"}, "lon": -77.026954, "type": "electric_scooter"}, {"bike_id": "e7c9902e8a6b1097d004c31dfb52d87a", "is_reserved": 0, "fusion_lon": 0.0, "lat": 38.894828333333336, "is_disabled": 0, "name": "e7c9902e8a6b1097d004c31dfb52d87a", "fusion_lat": 0.0, "rental_uris": {"ios": "https://dc.lft.to/lastmile_qr_scan", "android": "https://dc.lft.to/lastmile_qr_scan"}, "lon": -77.02218166666667, "type": "electric_scooter"}, {"bike_id": "d3b508c6dcd0d777609c5d215240bbdf", "is_reserved": 0, "fusion_lon": 0.0, "lat": 38.946068833333335, "is_disabled": 0, "name": "d3b508c6dcd0d777609c5d215240bbdf", "fusion_lat": 0.0, "rental_uris": {"ios": "https://dc.lft.to/lastmile_qr_scan", "android": "https://dc.lft.to/lastmile_qr_scan"}, "lon": -77.03499366666667, "type": "electric_scooter"}, {"bike_id": "98e89a3df612fa3f6ff6491fc15179fb", "is_reserved": 0, "fusion_lon": 0.0, "lat": 38.949255666666666, "is_disabled": 0, "name": "98e89a3df612fa3f6ff6491fc15179fb", "fusion_lat": 0.0, "rental_uris": {"ios": "https://dc.lft.to/lastmile_qr_scan", "android": "https://dc.lft.to/lastmile_qr_scan"}, "lon": -77.01935833333333, "type": "electric_scooter"}, {"bike_id": "dbcd83bfa709c379a286b05f0f1d6d4f", "is_reserved": 0, "fusion_lon": 0.0, "lat": 38.943243333333335, "is_disabled": 0, "name": "dbcd83bfa709c379a286b05f0f1d6d4f", "fusion_lat": 0.0, "rental_uris": {"ios": "https://dc.lft.to/lastmile_qr_scan", "android": "https://dc.lft.to/lastmile_qr_scan"}, "lon": -77.073846, "type": "electric_scooter"}, {"bike_id": "ac457a6383766033a15bff367752255a", "is_reserved": 0, "fusion_lon": 0.0, "lat": 38.89927866666667, "is_disabled": 0, "name": "ac457a6383766033a15bff367752255a", "fusion_lat": 0.0, "rental_uris": {"ios": "https://dc.lft.to/lastmile_qr_scan", "android": "https://dc.lft.to/lastmile_qr_scan"}, "lon": -77.05392016666667, "type": "electric_scooter"}, {"bike_id": "444751cb0ec6b176e45c6658ce5c14d1", "is_reserved": 0, "fusion_lon": 0.0, "lat": 38.90980883333334, "is_disabled": 0, "name": "444751cb0ec6b176e45c6658ce5c14d1", "fusion_lat": 0.0, "rental_uris": {"ios": "https://dc.lft.to/lastmile_qr_scan", "android": "https://dc.lft.to/lastmile_qr_scan"}, "lon": -77.06713466666666, "type": "electric_scooter"}, {"bike_id": "1489a2aa65527308b0934a2abecb297e", "is_reserved": 0, "fusion_lon": 0.0, "lat": 38.90567166666666, "is_disabled": 0, "name": "1489a2aa65527308b0934a2abecb297e", "fusion_lat": 0.0, "rental_uris": {"ios": "https://dc.lft.to/lastmile_qr_scan", "android": "https://dc.lft.to/lastmile_qr_scan"}, "lon": -77.0247445, "type": "electric_scooter"}, {"bike_id": "c837acc69d7919d439dbd06edf156db0", "is_reserved": 0, "fusion_lon": 0.0, "lat": 38.918755166666664, "is_disabled": 0, "name": "c837acc69d7919d439dbd06edf156db0", "fusion_lat": 0.0, "rental_uris": {"ios": "https://dc.lft.to/lastmile_qr_scan", "android": "https://dc.lft.to/lastmile_qr_scan"}, "lon": -76.9713825, "type": "electric_scooter"}, {"bike_id": "97012b84fe7abe8c69a8f15b33ffa628", "is_reserved": 0, "fusion_lon": 0.0, "lat": 38.88331983333333, "is_disabled": 0, "name": "97012b84fe7abe8c69a8f15b33ffa628", "fusion_lat": 0.0, "rental_uris": {"ios": "https://dc.lft.to/lastmile_qr_scan", "android": "https://dc.lft.to/lastmile_qr_scan"}, "lon": -77.01774116666667, "type": "electric_scooter"}, {"bike_id": "b223b4be103643fd1266f832cedfef6b", "is_reserved": 0, "fusion_lon": 0.0, "lat": 38.93114633333333, "is_disabled": 0, "name": "b223b4be103643fd1266f832cedfef6b", "fusion_lat": 0.0, "rental_uris": {"ios": "https://dc.lft.to/lastmile_qr_scan", "android": "https://dc.lft.to/lastmile_qr_scan"}, "lon": -77.0209475, "type": "electric_scooter"}, {"bike_id": "0d5dfb1e1918f046900c3897e8ec744f", "is_reserved": 0, "fusion_lon": 0.0, "lat": 38.908983666666664, "is_disabled": 0, "name": "0d5dfb1e1918f046900c3897e8ec744f", "fusion_lat": 0.0, "rental_uris": {"ios": "https://dc.lft.to/lastmile_qr_scan", "android": "https://dc.lft.to/lastmile_qr_scan"}, "lon": -77.0269235, "type": "electric_scooter"}, {"bike_id": "125f91b0d1dcdca72c81500a5e9ca318", "is_reserved": 0, "fusion_lon": 0.0, "lat": 38.912806, "is_disabled": 0, "name": "125f91b0d1dcdca72c81500a5e9ca318", "fusion_lat": 0.0, "rental_uris": {"ios": "https://dc.lft.to/lastmile_qr_scan", "android": "https://dc.lft.to/lastmile_qr_scan"}, "lon": -77.02300966666667, "type": "electric_scooter"}, {"bike_id": "bf469ddc0369db91bf2860c2d89fd51f", "is_reserved": 0, "fusion_lon": 0.0, "lat": 38.876551666666664, "is_disabled": 0, "name": "bf469ddc0369db91bf2860c2d89fd51f", "fusion_lat": 0.0, "rental_uris": {"ios": "https://dc.lft.to/lastmile_qr_scan", "android": "https://dc.lft.to/lastmile_qr_scan"}, "lon": -77.00069983333333, "type": "electric_scooter"}, {"bike_id": "81e817ac96f84ab4c3026f01d7af445c", "is_reserved": 0, "fusion_lon": 0.0, "lat": 38.9184355, "is_disabled": 0, "name": "81e817ac96f84ab4c3026f01d7af445c", "fusion_lat": 0.0, "rental_uris": {"ios": "https://dc.lft.to/lastmile_qr_scan", "android": "https://dc.lft.to/lastmile_qr_scan"}, "lon": -77.0231265, "type": "electric_scooter"}, {"bike_id": "bc062deb3675555a0fcb358bc3fb2f71", "is_reserved": 0, "fusion_lon": 0.0, "lat": 38.90382183333333, "is_disabled": 0, "name": "bc062deb3675555a0fcb358bc3fb2f71", "fusion_lat": 0.0, "rental_uris": {"ios": "https://dc.lft.to/lastmile_qr_scan", "android": "https://dc.lft.to/lastmile_qr_scan"}, "lon": -77.04191066666667, "type": "electric_scooter"}, {"bike_id": "c196d9a3b8badaf14411a039ba32e4f1", "is_reserved": 0, "fusion_lon": 0.0, "lat": 38.92821816666667, "is_disabled": 0, "name": "c196d9a3b8badaf14411a039ba32e4f1", "fusion_lat": 0.0, "rental_uris": {"ios": "https://dc.lft.to/lastmile_qr_scan", "android": "https://dc.lft.to/lastmile_qr_scan"}, "lon": -77.02254133333334, "type": "electric_scooter"}, {"bike_id": "748805dfe847ac031986cf802fd63b29", "is_reserved": 0, "fusion_lon": 0.0, "lat": 38.901808, "is_disabled": 0, "name": "748805dfe847ac031986cf802fd63b29", "fusion_lat": 0.0, "rental_uris": {"ios": "https://dc.lft.to/lastmile_qr_scan", "android": "https://dc.lft.to/lastmile_qr_scan"}, "lon": -76.98064983333333, "type": "electric_scooter"}, {"bike_id": "f428945b7937017d119c5e6da61e251c", "is_reserved": 0, "fusion_lon": 0.0, "lat": 38.902664333333334, "is_disabled": 0, "name": "f428945b7937017d119c5e6da61e251c", "fusion_lat": 0.0, "rental_uris": {"ios": "https://dc.lft.to/lastmile_qr_scan", "android": "https://dc.lft.to/lastmile_qr_scan"}, "lon": -77.02983416666666, "type": "electric_scooter"}, {"bike_id": "d00e4208123cfc826f9c33225e718cc0", "is_reserved": 0, "fusion_lon": 0.0, "lat": 38.96203083333333, "is_disabled": 0, "name": "d00e4208123cfc826f9c33225e718cc0", "fusion_lat": 0.0, "rental_uris": {"ios": "https://dc.lft.to/lastmile_qr_scan", "android": "https://dc.lft.to/lastmile_qr_scan"}, "lon": -77.02234616666667, "type": "electric_bike"}, {"bike_id": "8ed255d0dd505beca2b6244e6c9eb56e", "is_reserved": 0, "fusion_lon": 0.0, "lat": 38.928665333333335, "is_disabled": 0, "name": "8ed255d0dd505beca2b6244e6c9eb56e", "fusion_lat": 0.0, "rental_uris": {"ios": "https://dc.lft.to/lastmile_qr_scan", "android": "https://dc.lft.to/lastmile_qr_scan"}, "lon": -77.01390583333334, "type": "electric_scooter"}, {"bike_id": "05066f42d5f23ee1d52fb80848b23805", "is_reserved": 0, "fusion_lon": 0.0, "lat": 38.905671166666664, "is_disabled": 0, "name": "05066f42d5f23ee1d52fb80848b23805", "fusion_lat": 0.0, "rental_uris": {"ios": "https://dc.lft.to/lastmile_qr_scan", "android": "https://dc.lft.to/lastmile_qr_scan"}, "lon": -77.03637566666667, "type": "electric_scooter"}, {"bike_id": "52166b10cc874d9ca37af67db3f0cf4f", "is_reserved": 0, "fusion_lon": 0.0, "lat": 38.8849685, "is_disabled": 0, "name": "52166b10cc874d9ca37af67db3f0cf4f", "fusion_lat": 0.0, "rental_uris": {"ios": "https://dc.lft.to/lastmile_qr_scan", "android": "https://dc.lft.to/lastmile_qr_scan"}, "lon": -77.00727466666666, "type": "electric_scooter"}, {"bike_id": "45a3a61c7692ac6abc56c04ca6c489a2", "is_reserved": 0, "fusion_lon": 0.0, "lat": 38.89722533333333, "is_disabled": 0, "name": "45a3a61c7692ac6abc56c04ca6c489a2", "fusion_lat": 0.0, "rental_uris": {"ios": "https://dc.lft.to/lastmile_qr_scan", "android": "https://dc.lft.to/lastmile_qr_scan"}, "lon": -77.02725666666667, "type": "electric_scooter"}, {"bike_id": "6e6e27dc52372a66758edbe49cd6a81d", "is_reserved": 0, "fusion_lon": 0.0, "lat": 38.912029, "is_disabled": 0, "name": "6e6e27dc52372a66758edbe49cd6a81d", "fusion_lat": 0.0, "rental_uris": {"ios": "https://dc.lft.to/lastmile_qr_scan", "android": "https://dc.lft.to/lastmile_qr_scan"}, "lon": -77.07319033333333, "type": "electric_scooter"}, {"bike_id": "79c0960e523b9a18b96c03856139e323", "is_reserved": 0, "fusion_lon": 0.0, "lat": 38.91193233333333, "is_disabled": 0, "name": "79c0960e523b9a18b96c03856139e323", "fusion_lat": 0.0, "rental_uris": {"ios": "https://dc.lft.to/lastmile_qr_scan", "android": "https://dc.lft.to/lastmile_qr_scan"}, "lon": -77.06095316666666, "type": "electric_scooter"}, {"bike_id": "e569aad622748b8e686f4651ff5e987d", "is_reserved": 0, "fusion_lon": 0.0, "lat": 38.888883, "is_disabled": 0, "name": "e569aad622748b8e686f4651ff5e987d", "fusion_lat": 0.0, "rental_uris": {"ios": "https://dc.lft.to/lastmile_qr_scan", "android": "https://dc.lft.to/lastmile_qr_scan"}, "lon": -77.03324666666667, "type": "electric_bike"}, {"bike_id": "317f5dbfebb326479b62d2aaae9bb20c", "is_reserved": 0, "fusion_lon": 0.0, "lat": 38.959566833333334, "is_disabled": 0, "name": "317f5dbfebb326479b62d2aaae9bb20c", "fusion_lat": 0.0, "rental_uris": {"ios": "https://dc.lft.to/lastmile_qr_scan", "android": "https://dc.lft.to/lastmile_qr_scan"}, "lon": -77.10090816666667, "type": "electric_bike"}, {"bike_id": "c92724ececeea5f45066546016e74c39", "is_reserved": 0, "fusion_lon": 0.0, "lat": 38.913559166666666, "is_disabled": 0, "name": "c92724ececeea5f45066546016e74c39", "fusion_lat": 0.0, "rental_uris": {"ios": "https://dc.lft.to/lastmile_qr_scan", "android": "https://dc.lft.to/lastmile_qr_scan"}, "lon": -77.04646133333334, "type": "electric_scooter"}, {"bike_id": "3f167802cb39d09d0f1b332356ab4df3", "is_reserved": 0, "fusion_lon": 0.0, "lat": 38.9039105, "is_disabled": 0, "name": "3f167802cb39d09d0f1b332356ab4df3", "fusion_lat": 0.0, "rental_uris": {"ios": "https://dc.lft.to/lastmile_qr_scan", "android": "https://dc.lft.to/lastmile_qr_scan"}, "lon": -77.0437595, "type": "electric_scooter"}, {"bike_id": "b04659187c7f6f63e98875abbe004623", "is_reserved": 0, "fusion_lon": 0.0, "lat": 38.9073585, "is_disabled": 0, "name": "b04659187c7f6f63e98875abbe004623", "fusion_lat": 0.0, "rental_uris": {"ios": "https://dc.lft.to/lastmile_qr_scan", "android": "https://dc.lft.to/lastmile_qr_scan"}, "lon": -77.042429, "type": "electric_scooter"}, {"bike_id": "2ff7a311b26971326c4bbc91a5444c66", "is_reserved": 0, "fusion_lon": 0.0, "lat": 38.8921915, "is_disabled": 0, "name": "2ff7a311b26971326c4bbc91a5444c66", "fusion_lat": 0.0, "rental_uris": {"ios": "https://dc.lft.to/lastmile_qr_scan", "android": "https://dc.lft.to/lastmile_qr_scan"}, "lon": -77.03159233333334, "type": "electric_scooter"}, {"bike_id": "07e06ba71e6daa72365ae6859bac1815", "is_reserved": 0, "fusion_lon": 0.0, "lat": 38.89645316666667, "is_disabled": 0, "name": "07e06ba71e6daa72365ae6859bac1815", "fusion_lat": 0.0, "rental_uris": {"ios": "https://dc.lft.to/lastmile_qr_scan", "android": "https://dc.lft.to/lastmile_qr_scan"}, "lon": -77.03227983333333, "type": "electric_scooter"}, {"bike_id": "20a596336bed2c81123b2f40f9240a4a", "is_reserved": 0, "fusion_lon": 0.0, "lat": 38.901719166666666, "is_disabled": 0, "name": "20a596336bed2c81123b2f40f9240a4a", "fusion_lat": 0.0, "rental_uris": {"ios": "https://dc.lft.to/lastmile_qr_scan", "android": "https://dc.lft.to/lastmile_qr_scan"}, "lon": -77.022077, "type": "electric_scooter"}, {"bike_id": "e42d16ed396792a5813f1e93685bed1c", "is_reserved": 0, "fusion_lon": 0.0, "lat": 38.920998166666664, "is_disabled": 0, "name": "e42d16ed396792a5813f1e93685bed1c", "fusion_lat": 0.0, "rental_uris": {"ios": "https://dc.lft.to/lastmile_qr_scan", "android": "https://dc.lft.to/lastmile_qr_scan"}, "lon": -77.0316765, "type": "electric_scooter"}, {"bike_id": "667923b92e583497fe61b7eed16895ce", "is_reserved": 0, "fusion_lon": 0.0, "lat": 38.930926666666664, "is_disabled": 0, "name": "667923b92e583497fe61b7eed16895ce", "fusion_lat": 0.0, "rental_uris": {"ios": "https://dc.lft.to/lastmile_qr_scan", "android": "https://dc.lft.to/lastmile_qr_scan"}, "lon": -77.02513783333333, "type": "electric_scooter"}, {"bike_id": "cf0a5ccb5c4e9e8889175c68c9f8479b", "is_reserved": 0, "fusion_lon": 0.0, "lat": 38.92252666666667, "is_disabled": 0, "name": "cf0a5ccb5c4e9e8889175c68c9f8479b", "fusion_lat": 0.0, "rental_uris": {"ios": "https://dc.lft.to/lastmile_qr_scan", "android": "https://dc.lft.to/lastmile_qr_scan"}, "lon": -77.018228, "type": "electric_scooter"}, {"bike_id": "607727329cc9bca196179f05a461ef32", "is_reserved": 0, "fusion_lon": 0.0, "lat": 38.890099666666664, "is_disabled": 0, "name": "607727329cc9bca196179f05a461ef32", "fusion_lat": 0.0, "rental_uris": {"ios": "https://dc.lft.to/lastmile_qr_scan", "android": "https://dc.lft.to/lastmile_qr_scan"}, "lon": -76.93747333333333, "type": "electric_scooter"}, {"bike_id": "970a9296a2f7a314b68362cb72fe8002", "is_reserved": 0, "fusion_lon": 0.0, "lat": 38.90022183333333, "is_disabled": 0, "name": "970a9296a2f7a314b68362cb72fe8002", "fusion_lat": 0.0, "rental_uris": {"ios": "https://dc.lft.to/lastmile_qr_scan", "android": "https://dc.lft.to/lastmile_qr_scan"}, "lon": -77.046637, "type": "electric_scooter"}, {"bike_id": "7a335ed030d8721b26daff6ebf39ca4b", "is_reserved": 0, "fusion_lon": 0.0, "lat": 38.90579416666667, "is_disabled": 0, "name": "7a335ed030d8721b26daff6ebf39ca4b", "fusion_lat": 0.0, "rental_uris": {"ios": "https://dc.lft.to/lastmile_qr_scan", "android": "https://dc.lft.to/lastmile_qr_scan"}, "lon": -77.00266766666667, "type": "electric_scooter"}, {"bike_id": "40b12cfe42b54183060d9c963cced260", "is_reserved": 0, "fusion_lon": 0.0, "lat": 38.9039645, "is_disabled": 0, "name": "40b12cfe42b54183060d9c963cced260", "fusion_lat": 0.0, "rental_uris": {"ios": "https://dc.lft.to/lastmile_qr_scan", "android": "https://dc.lft.to/lastmile_qr_scan"}, "lon": -77.04322483333333, "type": "electric_scooter"}, {"bike_id": "f5aa3cdb6d2c5185060ccf82a580f0ff", "is_reserved": 0, "fusion_lon": 0.0, "lat": 38.866087, "is_disabled": 0, "name": "f5aa3cdb6d2c5185060ccf82a580f0ff", "fusion_lat": 0.0, "rental_uris": {"ios": "https://dc.lft.to/lastmile_qr_scan", "android": "https://dc.lft.to/lastmile_qr_scan"}, "lon": -76.98916966666667, "type": "electric_scooter"}, {"bike_id": "9576c416b5ee8367885e6a62425b5976", "is_reserved": 0, "fusion_lon": 0.0, "lat": 38.90571933333333, "is_disabled": 0, "name": "9576c416b5ee8367885e6a62425b5976", "fusion_lat": 0.0, "rental_uris": {"ios": "https://dc.lft.to/lastmile_qr_scan", "android": "https://dc.lft.to/lastmile_qr_scan"}, "lon": -77.021729, "type": "electric_scooter"}, {"bike_id": "6238ccd75cd45feaceed278995b96c1b", "is_reserved": 0, "fusion_lon": 0.0, "lat": 38.92362983333334, "is_disabled": 0, "name": "6238ccd75cd45feaceed278995b96c1b", "fusion_lat": 0.0, "rental_uris": {"ios": "https://dc.lft.to/lastmile_qr_scan", "android": "https://dc.lft.to/lastmile_qr_scan"}, "lon": -77.05031183333334, "type": "electric_scooter"}, {"bike_id": "e0b2dbade5b96f2ef286e49047b7c0e9", "is_reserved": 0, "fusion_lon": 0.0, "lat": 38.9526635, "is_disabled": 0, "name": "e0b2dbade5b96f2ef286e49047b7c0e9", "fusion_lat": 0.0, "rental_uris": {"ios": "https://dc.lft.to/lastmile_qr_scan", "android": "https://dc.lft.to/lastmile_qr_scan"}, "lon": -77.06982033333334, "type": "electric_bike"}, {"bike_id": "3898bb6ed4e72ace1df65c6d85cac699", "is_reserved": 0, "fusion_lon": 0.0, "lat": 38.95526516666666, "is_disabled": 0, "name": "3898bb6ed4e72ace1df65c6d85cac699", "fusion_lat": 0.0, "rental_uris": {"ios": "https://dc.lft.to/lastmile_qr_scan", "android": "https://dc.lft.to/lastmile_qr_scan"}, "lon": -77.02415716666667, "type": "electric_bike"}, {"bike_id": "125bd44d8b9a1872aec7ae4271b99a7f", "is_reserved": 0, "fusion_lon": 0.0, "lat": 38.94939016666667, "is_disabled": 0, "name": "125bd44d8b9a1872aec7ae4271b99a7f", "fusion_lat": 0.0, "rental_uris": {"ios": "https://dc.lft.to/lastmile_qr_scan", "android": "https://dc.lft.to/lastmile_qr_scan"}, "lon": -77.016191, "type": "electric_scooter"}, {"bike_id": "195c7041b248633098b11ac2e068a043", "is_reserved": 0, "fusion_lon": 0.0, "lat": 38.90215766666667, "is_disabled": 0, "name": "195c7041b248633098b11ac2e068a043", "fusion_lat": 0.0, "rental_uris": {"ios": "https://dc.lft.to/lastmile_qr_scan", "android": "https://dc.lft.to/lastmile_qr_scan"}, "lon": -76.94588166666666, "type": "electric_scooter"}, {"bike_id": "ea49829457f9db326135b8e6c3ea3c64", "is_reserved": 0, "fusion_lon": 0.0, "lat": 38.9058585, "is_disabled": 0, "name": "ea49829457f9db326135b8e6c3ea3c64", "fusion_lat": 0.0, "rental_uris": {"ios": "https://dc.lft.to/lastmile_qr_scan", "android": "https://dc.lft.to/lastmile_qr_scan"}, "lon": -77.04668583333333, "type": "electric_scooter"}, {"bike_id": "61a411038495d7e8de4a4422425bf075", "is_reserved": 0, "fusion_lon": 0.0, "lat": 38.86198183333333, "is_disabled": 0, "name": "61a411038495d7e8de4a4422425bf075", "fusion_lat": 0.0, "rental_uris": {"ios": "https://dc.lft.to/lastmile_qr_scan", "android": "https://dc.lft.to/lastmile_qr_scan"}, "lon": -76.9946305, "type": "electric_scooter"}, {"bike_id": "39aef5707d0a4c3dc1475d2addf2bbd6", "is_reserved": 0, "fusion_lon": 0.0, "lat": 38.915746666666664, "is_disabled": 0, "name": "39aef5707d0a4c3dc1475d2addf2bbd6", "fusion_lat": 0.0, "rental_uris": {"ios": "https://dc.lft.to/lastmile_qr_scan", "android": "https://dc.lft.to/lastmile_qr_scan"}, "lon": -77.04677766666667, "type": "electric_scooter"}, {"bike_id": "b5a82b21ff942f02f1cc983c3fa48422", "is_reserved": 0, "fusion_lon": 0.0, "lat": 38.93558633333333, "is_disabled": 0, "name": "b5a82b21ff942f02f1cc983c3fa48422", "fusion_lat": 0.0, "rental_uris": {"ios": "https://dc.lft.to/lastmile_qr_scan", "android": "https://dc.lft.to/lastmile_qr_scan"}, "lon": -77.03695383333333, "type": "electric_bike"}, {"bike_id": "e5e019e6d4823f2f2929dc44bca884f5", "is_reserved": 0, "fusion_lon": 0.0, "lat": 38.92876833333333, "is_disabled": 0, "name": "e5e019e6d4823f2f2929dc44bca884f5", "fusion_lat": 0.0, "rental_uris": {"ios": "https://dc.lft.to/lastmile_qr_scan", "android": "https://dc.lft.to/lastmile_qr_scan"}, "lon": -77.032472, "type": "electric_bike"}, {"bike_id": "42d52250c93410cc6d32cc1b06691896", "is_reserved": 0, "fusion_lon": 0.0, "lat": 38.91966683333333, "is_disabled": 0, "name": "42d52250c93410cc6d32cc1b06691896", "fusion_lat": 0.0, "rental_uris": {"ios": "https://dc.lft.to/lastmile_qr_scan", "android": "https://dc.lft.to/lastmile_qr_scan"}, "lon": -76.9725665, "type": "electric_bike"}, {"bike_id": "7fcb663d475856bb95388608b7f8b21f", "is_reserved": 0, "fusion_lon": 0.0, "lat": 38.93161583333333, "is_disabled": 0, "name": "7fcb663d475856bb95388608b7f8b21f", "fusion_lat": 0.0, "rental_uris": {"ios": "https://dc.lft.to/lastmile_qr_scan", "android": "https://dc.lft.to/lastmile_qr_scan"}, "lon": -77.0362415, "type": "electric_scooter"}, {"bike_id": "e2ba6b7ec63b7f68e26469828190adbe", "is_reserved": 0, "fusion_lon": 0.0, "lat": 38.9032415, "is_disabled": 0, "name": "e2ba6b7ec63b7f68e26469828190adbe", "fusion_lat": 0.0, "rental_uris": {"ios": "https://dc.lft.to/lastmile_qr_scan", "android": "https://dc.lft.to/lastmile_qr_scan"}, "lon": -77.03818583333333, "type": "electric_scooter"}, {"bike_id": "e221f8986f6dae28a3aa95f1a6c00415", "is_reserved": 0, "fusion_lon": 0.0, "lat": 38.90572016666667, "is_disabled": 0, "name": "e221f8986f6dae28a3aa95f1a6c00415", "fusion_lat": 0.0, "rental_uris": {"ios": "https://dc.lft.to/lastmile_qr_scan", "android": "https://dc.lft.to/lastmile_qr_scan"}, "lon": -77.005571, "type": "electric_scooter"}, {"bike_id": "7a723f486a5b03d70db283e4bb09d612", "is_reserved": 0, "fusion_lon": 0.0, "lat": 38.925520166666665, "is_disabled": 0, "name": "7a723f486a5b03d70db283e4bb09d612", "fusion_lat": 0.0, "rental_uris": {"ios": "https://dc.lft.to/lastmile_qr_scan", "android": "https://dc.lft.to/lastmile_qr_scan"}, "lon": -77.0013865, "type": "electric_bike"}, {"bike_id": "9c622ab8a486b01647637d230874f967", "is_reserved": 0, "fusion_lon": 0.0, "lat": 38.88967916666667, "is_disabled": 0, "name": "9c622ab8a486b01647637d230874f967", "fusion_lat": 0.0, "rental_uris": {"ios": "https://dc.lft.to/lastmile_qr_scan", "android": "https://dc.lft.to/lastmile_qr_scan"}, "lon": -76.98035516666667, "type": "electric_bike"}, {"bike_id": "e1cce90b89c52520dc60412e59ee873e", "is_reserved": 0, "fusion_lon": 0.0, "lat": 38.93000716666667, "is_disabled": 0, "name": "e1cce90b89c52520dc60412e59ee873e", "fusion_lat": 0.0, "rental_uris": {"ios": "https://dc.lft.to/lastmile_qr_scan", "android": "https://dc.lft.to/lastmile_qr_scan"}, "lon": -77.05540033333334, "type": "electric_scooter"}, {"bike_id": "9ed8435ce9b0b98d634c386d1c7e19e6", "is_reserved": 0, "fusion_lon": 0.0, "lat": 38.882350833333334, "is_disabled": 0, "name": "9ed8435ce9b0b98d634c386d1c7e19e6", "fusion_lat": 0.0, "rental_uris": {"ios": "https://dc.lft.to/lastmile_qr_scan", "android": "https://dc.lft.to/lastmile_qr_scan"}, "lon": -76.99086683333333, "type": "electric_scooter"}, {"bike_id": "d4de4620775fbea65d93083a0f26e9c7", "is_reserved": 0, "fusion_lon": 0.0, "lat": 38.92402116666667, "is_disabled": 0, "name": "d4de4620775fbea65d93083a0f26e9c7", "fusion_lat": 0.0, "rental_uris": {"ios": "https://dc.lft.to/lastmile_qr_scan", "android": "https://dc.lft.to/lastmile_qr_scan"}, "lon": -77.01972466666666, "type": "electric_scooter"}, {"bike_id": "090334e2d91c729101960889bdf2661e", "is_reserved": 0, "fusion_lon": 0.0, "lat": 38.88492683333333, "is_disabled": 0, "name": "090334e2d91c729101960889bdf2661e", "fusion_lat": 0.0, "rental_uris": {"ios": "https://dc.lft.to/lastmile_qr_scan", "android": "https://dc.lft.to/lastmile_qr_scan"}, "lon": -77.00726633333333, "type": "electric_scooter"}, {"bike_id": "60d508e712c62f65ca2945175a2aec96", "is_reserved": 0, "fusion_lon": 0.0, "lat": 38.887533833333336, "is_disabled": 0, "name": "60d508e712c62f65ca2945175a2aec96", "fusion_lat": 0.0, "rental_uris": {"ios": "https://dc.lft.to/lastmile_qr_scan", "android": "https://dc.lft.to/lastmile_qr_scan"}, "lon": -77.020215, "type": "electric_scooter"}, {"bike_id": "a649d70de092fb0d9a38ba1c4303c80c", "is_reserved": 0, "fusion_lon": 0.0, "lat": 38.92482566666666, "is_disabled": 0, "name": "a649d70de092fb0d9a38ba1c4303c80c", "fusion_lat": 0.0, "rental_uris": {"ios": "https://dc.lft.to/lastmile_qr_scan", "android": "https://dc.lft.to/lastmile_qr_scan"}, "lon": -77.02713733333333, "type": "electric_scooter"}, {"bike_id": "1d75912d6cd5c13d117ca89901eac858", "is_reserved": 0, "fusion_lon": 0.0, "lat": 38.93080533333333, "is_disabled": 0, "name": "1d75912d6cd5c13d117ca89901eac858", "fusion_lat": 0.0, "rental_uris": {"ios": "https://dc.lft.to/lastmile_qr_scan", "android": "https://dc.lft.to/lastmile_qr_scan"}, "lon": -77.027967, "type": "electric_scooter"}, {"bike_id": "ecd4fe0507a7a7750c6eabf6ab5d2adb", "is_reserved": 0, "fusion_lon": 0.0, "lat": 38.93777716666666, "is_disabled": 0, "name": "ecd4fe0507a7a7750c6eabf6ab5d2adb", "fusion_lat": 0.0, "rental_uris": {"ios": "https://dc.lft.to/lastmile_qr_scan", "android": "https://dc.lft.to/lastmile_qr_scan"}, "lon": -77.0191245, "type": "electric_bike"}, {"bike_id": "74ee3ca677f54b13323b1cc15ed8d2b9", "is_reserved": 0, "fusion_lon": 0.0, "lat": 38.895027166666665, "is_disabled": 0, "name": "74ee3ca677f54b13323b1cc15ed8d2b9", "fusion_lat": 0.0, "rental_uris": {"ios": "https://dc.lft.to/lastmile_qr_scan", "android": "https://dc.lft.to/lastmile_qr_scan"}, "lon": -77.0028195, "type": "electric_scooter"}, {"bike_id": "db6b36862b90896f73f13a8d91e5d08a", "is_reserved": 0, "fusion_lon": 0.0, "lat": 38.9563905, "is_disabled": 0, "name": "db6b36862b90896f73f13a8d91e5d08a", "fusion_lat": 0.0, "rental_uris": {"ios": "https://dc.lft.to/lastmile_qr_scan", "android": "https://dc.lft.to/lastmile_qr_scan"}, "lon": -76.99788783333334, "type": "electric_scooter"}, {"bike_id": "070e54a869b179ac06521b2c376121fa", "is_reserved": 0, "fusion_lon": 0.0, "lat": 38.887425666666665, "is_disabled": 0, "name": "070e54a869b179ac06521b2c376121fa", "fusion_lat": 0.0, "rental_uris": {"ios": "https://dc.lft.to/lastmile_qr_scan", "android": "https://dc.lft.to/lastmile_qr_scan"}, "lon": -77.03127233333333, "type": "electric_scooter"}, {"bike_id": "13f9ce3d5206399fd017a3a64210821c", "is_reserved": 0, "fusion_lon": 0.0, "lat": 38.91276716666667, "is_disabled": 0, "name": "13f9ce3d5206399fd017a3a64210821c", "fusion_lat": 0.0, "rental_uris": {"ios": "https://dc.lft.to/lastmile_qr_scan", "android": "https://dc.lft.to/lastmile_qr_scan"}, "lon": -77.01601083333334, "type": "electric_scooter"}, {"bike_id": "e26ece11b0f72ac7a345c46684662eaf", "is_reserved": 0, "fusion_lon": 0.0, "lat": 38.94833116666667, "is_disabled": 0, "name": "e26ece11b0f72ac7a345c46684662eaf", "fusion_lat": 0.0, "rental_uris": {"ios": "https://dc.lft.to/lastmile_qr_scan", "android": "https://dc.lft.to/lastmile_qr_scan"}, "lon": -77.03894233333334, "type": "electric_bike"}, {"bike_id": "0674ea8851200a020c0a642f54dbbf88", "is_reserved": 0, "fusion_lon": 0.0, "lat": 38.89220266666667, "is_disabled": 0, "name": "0674ea8851200a020c0a642f54dbbf88", "fusion_lat": 0.0, "rental_uris": {"ios": "https://dc.lft.to/lastmile_qr_scan", "android": "https://dc.lft.to/lastmile_qr_scan"}, "lon": -77.031601, "type": "electric_scooter"}, {"bike_id": "83bca31ddc16dfba342c039c3b3bb435", "is_reserved": 0, "fusion_lon": 0.0, "lat": 38.877072166666665, "is_disabled": 0, "name": "83bca31ddc16dfba342c039c3b3bb435", "fusion_lat": 0.0, "rental_uris": {"ios": "https://dc.lft.to/lastmile_qr_scan", "android": "https://dc.lft.to/lastmile_qr_scan"}, "lon": -77.01760383333334, "type": "electric_scooter"}, {"bike_id": "17627bde080e33db31897ac4cc366e1d", "is_reserved": 0, "fusion_lon": 0.0, "lat": 38.907295166666664, "is_disabled": 0, "name": "17627bde080e33db31897ac4cc366e1d", "fusion_lat": 0.0, "rental_uris": {"ios": "https://dc.lft.to/lastmile_qr_scan", "android": "https://dc.lft.to/lastmile_qr_scan"}, "lon": -77.03441316666667, "type": "electric_scooter"}, {"bike_id": "ded60d28c3651eeb18f29d744d0ca9bf", "is_reserved": 0, "fusion_lon": 0.0, "lat": 38.938992, "is_disabled": 0, "name": "ded60d28c3651eeb18f29d744d0ca9bf", "fusion_lat": 0.0, "rental_uris": {"ios": "https://dc.lft.to/lastmile_qr_scan", "android": "https://dc.lft.to/lastmile_qr_scan"}, "lon": -77.07732016666667, "type": "electric_scooter"}, {"bike_id": "5d59ec11446e8aa76db8045b6bac4372", "is_reserved": 0, "fusion_lon": 0.0, "lat": 38.89451533333333, "is_disabled": 0, "name": "5d59ec11446e8aa76db8045b6bac4372", "fusion_lat": 0.0, "rental_uris": {"ios": "https://dc.lft.to/lastmile_qr_scan", "android": "https://dc.lft.to/lastmile_qr_scan"}, "lon": -77.03036833333333, "type": "electric_scooter"}, {"bike_id": "357d5590a39e786db6ba927e497883ae", "is_reserved": 0, "fusion_lon": 0.0, "lat": 38.92215266666667, "is_disabled": 0, "name": "357d5590a39e786db6ba927e497883ae", "fusion_lat": 0.0, "rental_uris": {"ios": "https://dc.lft.to/lastmile_qr_scan", "android": "https://dc.lft.to/lastmile_qr_scan"}, "lon": -77.0425935, "type": "electric_scooter"}, {"bike_id": "43d8e0106730e331e9ca6f298007275c", "is_reserved": 0, "fusion_lon": 0.0, "lat": 38.91211083333334, "is_disabled": 0, "name": "43d8e0106730e331e9ca6f298007275c", "fusion_lat": 0.0, "rental_uris": {"ios": "https://dc.lft.to/lastmile_qr_scan", "android": "https://dc.lft.to/lastmile_qr_scan"}, "lon": -77.07594066666667, "type": "electric_scooter"}, {"bike_id": "0f8e450aa3001c0d6047a06b26e7fc24", "is_reserved": 0, "fusion_lon": 0.0, "lat": 38.933737666666666, "is_disabled": 0, "name": "0f8e450aa3001c0d6047a06b26e7fc24", "fusion_lat": 0.0, "rental_uris": {"ios": "https://dc.lft.to/lastmile_qr_scan", "android": "https://dc.lft.to/lastmile_qr_scan"}, "lon": -77.03466866666666, "type": "electric_scooter"}, {"bike_id": "27fee584718cc4f0d9320d5e0d268ccf", "is_reserved": 0, "fusion_lon": 0.0, "lat": 38.91844866666667, "is_disabled": 0, "name": "27fee584718cc4f0d9320d5e0d268ccf", "fusion_lat": 0.0, "rental_uris": {"ios": "https://dc.lft.to/lastmile_qr_scan", "android": "https://dc.lft.to/lastmile_qr_scan"}, "lon": -77.02307683333333, "type": "electric_scooter"}, {"bike_id": "689e52992b94351f01083f32f28af08a", "is_reserved": 0, "fusion_lon": 0.0, "lat": 38.91896, "is_disabled": 0, "name": "689e52992b94351f01083f32f28af08a", "fusion_lat": 0.0, "rental_uris": {"ios": "https://dc.lft.to/lastmile_qr_scan", "android": "https://dc.lft.to/lastmile_qr_scan"}, "lon": -77.03193283333333, "type": "electric_scooter"}, {"bike_id": "ac5e29fd7d2c12aa492bcab3af6c4775", "is_reserved": 0, "fusion_lon": 0.0, "lat": 38.8755, "is_disabled": 0, "name": "ac5e29fd7d2c12aa492bcab3af6c4775", "fusion_lat": 0.0, "rental_uris": {"ios": "https://dc.lft.to/lastmile_qr_scan", "android": "https://dc.lft.to/lastmile_qr_scan"}, "lon": -76.96491316666666, "type": "electric_scooter"}, {"bike_id": "ba1b3629935d98c714154a7caa08fde2", "is_reserved": 0, "fusion_lon": 0.0, "lat": 38.910338, "is_disabled": 0, "name": "ba1b3629935d98c714154a7caa08fde2", "fusion_lat": 0.0, "rental_uris": {"ios": "https://dc.lft.to/lastmile_qr_scan", "android": "https://dc.lft.to/lastmile_qr_scan"}, "lon": -77.04390033333334, "type": "electric_scooter"}, {"bike_id": "978374d33e1b76a9e5a9d8523228d0d3", "is_reserved": 0, "fusion_lon": 0.0, "lat": 38.888632666666666, "is_disabled": 0, "name": "978374d33e1b76a9e5a9d8523228d0d3", "fusion_lat": 0.0, "rental_uris": {"ios": "https://dc.lft.to/lastmile_qr_scan", "android": "https://dc.lft.to/lastmile_qr_scan"}, "lon": -76.99481383333334, "type": "electric_bike"}, {"bike_id": "a380c9f98eae2d45e30aeed0fd77217c", "is_reserved": 0, "fusion_lon": 0.0, "lat": 38.8953625, "is_disabled": 0, "name": "a380c9f98eae2d45e30aeed0fd77217c", "fusion_lat": 0.0, "rental_uris": {"ios": "https://dc.lft.to/lastmile_qr_scan", "android": "https://dc.lft.to/lastmile_qr_scan"}, "lon": -77.04859433333333, "type": "electric_scooter"}, {"bike_id": "a511659e8ba9d723ea8029036e51c873", "is_reserved": 0, "fusion_lon": 0.0, "lat": 38.862008, "is_disabled": 0, "name": "a511659e8ba9d723ea8029036e51c873", "fusion_lat": 0.0, "rental_uris": {"ios": "https://dc.lft.to/lastmile_qr_scan", "android": "https://dc.lft.to/lastmile_qr_scan"}, "lon": -76.99463466666667, "type": "electric_scooter"}, {"bike_id": "375491fdde7af59f332684611764bdb0", "is_reserved": 0, "fusion_lon": 0.0, "lat": 38.899527166666665, "is_disabled": 0, "name": "375491fdde7af59f332684611764bdb0", "fusion_lat": 0.0, "rental_uris": {"ios": "https://dc.lft.to/lastmile_qr_scan", "android": "https://dc.lft.to/lastmile_qr_scan"}, "lon": -76.9755155, "type": "electric_scooter"}, {"bike_id": "9b41fd1272d6c1a7255d8572026ac8d2", "is_reserved": 0, "fusion_lon": 0.0, "lat": 38.90000716666667, "is_disabled": 0, "name": "9b41fd1272d6c1a7255d8572026ac8d2", "fusion_lat": 0.0, "rental_uris": {"ios": "https://dc.lft.to/lastmile_qr_scan", "android": "https://dc.lft.to/lastmile_qr_scan"}, "lon": -77.052335, "type": "electric_scooter"}, {"bike_id": "425e000f82a75ad84f4747cf9d79126a", "is_reserved": 0, "fusion_lon": 0.0, "lat": 38.911023166666666, "is_disabled": 0, "name": "425e000f82a75ad84f4747cf9d79126a", "fusion_lat": 0.0, "rental_uris": {"ios": "https://dc.lft.to/lastmile_qr_scan", "android": "https://dc.lft.to/lastmile_qr_scan"}, "lon": -77.0483225, "type": "electric_scooter"}, {"bike_id": "3f07cb3471b5c2c22f4430cf36a4012b", "is_reserved": 0, "fusion_lon": 0.0, "lat": 38.9002335, "is_disabled": 0, "name": "3f07cb3471b5c2c22f4430cf36a4012b", "fusion_lat": 0.0, "rental_uris": {"ios": "https://dc.lft.to/lastmile_qr_scan", "android": "https://dc.lft.to/lastmile_qr_scan"}, "lon": -76.9953805, "type": "electric_scooter"}, {"bike_id": "081eb46b95236aa76b564ec445e67c38", "is_reserved": 0, "fusion_lon": 0.0, "lat": 38.89220616666667, "is_disabled": 0, "name": "081eb46b95236aa76b564ec445e67c38", "fusion_lat": 0.0, "rental_uris": {"ios": "https://dc.lft.to/lastmile_qr_scan", "android": "https://dc.lft.to/lastmile_qr_scan"}, "lon": -77.043688, "type": "electric_scooter"}, {"bike_id": "9382389c3af4ff1e4a1d6fc0be00b603", "is_reserved": 0, "fusion_lon": 0.0, "lat": 38.894814833333335, "is_disabled": 0, "name": "9382389c3af4ff1e4a1d6fc0be00b603", "fusion_lat": 0.0, "rental_uris": {"ios": "https://dc.lft.to/lastmile_qr_scan", "android": "https://dc.lft.to/lastmile_qr_scan"}, "lon": -76.94872833333334, "type": "electric_scooter"}, {"bike_id": "9a8cac5b47614c8a82171c8c9cedd261", "is_reserved": 0, "fusion_lon": 0.0, "lat": 38.8982775, "is_disabled": 0, "name": "9a8cac5b47614c8a82171c8c9cedd261", "fusion_lat": 0.0, "rental_uris": {"ios": "https://dc.lft.to/lastmile_qr_scan", "android": "https://dc.lft.to/lastmile_qr_scan"}, "lon": -76.98047533333333, "type": "electric_scooter"}, {"bike_id": "0981491a6dcacf5a011fd0847c013908", "is_reserved": 0, "fusion_lon": 0.0, "lat": 38.88122, "is_disabled": 0, "name": "0981491a6dcacf5a011fd0847c013908", "fusion_lat": 0.0, "rental_uris": {"ios": "https://dc.lft.to/lastmile_qr_scan", "android": "https://dc.lft.to/lastmile_qr_scan"}, "lon": -77.01677066666667, "type": "electric_bike"}, {"bike_id": "1c18352e7f2cc1a5f5496102b8457355", "is_reserved": 0, "fusion_lon": 0.0, "lat": 38.90668633333333, "is_disabled": 0, "name": "1c18352e7f2cc1a5f5496102b8457355", "fusion_lat": 0.0, "rental_uris": {"ios": "https://dc.lft.to/lastmile_qr_scan", "android": "https://dc.lft.to/lastmile_qr_scan"}, "lon": -76.987851, "type": "electric_scooter"}, {"bike_id": "e3f8585c48d0c14e6e91c1f61ba74929", "is_reserved": 0, "fusion_lon": 0.0, "lat": 38.90246716666667, "is_disabled": 0, "name": "e3f8585c48d0c14e6e91c1f61ba74929", "fusion_lat": 0.0, "rental_uris": {"ios": "https://dc.lft.to/lastmile_qr_scan", "android": "https://dc.lft.to/lastmile_qr_scan"}, "lon": -77.03272933333334, "type": "electric_scooter"}, {"bike_id": "ee700dc733bd22addd97305e1e4b4196", "is_reserved": 0, "fusion_lon": 0.0, "lat": 38.925716666666666, "is_disabled": 0, "name": "ee700dc733bd22addd97305e1e4b4196", "fusion_lat": 0.0, "rental_uris": {"ios": "https://dc.lft.to/lastmile_qr_scan", "android": "https://dc.lft.to/lastmile_qr_scan"}, "lon": -77.03101916666667, "type": "electric_scooter"}, {"bike_id": "510d164f68ae67aff760769a5f1a5fac", "is_reserved": 0, "fusion_lon": 0.0, "lat": 38.958890333333336, "is_disabled": 0, "name": "510d164f68ae67aff760769a5f1a5fac", "fusion_lat": 0.0, "rental_uris": {"ios": "https://dc.lft.to/lastmile_qr_scan", "android": "https://dc.lft.to/lastmile_qr_scan"}, "lon": -76.9247655, "type": "electric_bike"}, {"bike_id": "fa0498d5318a9d44af8570d8380996c2", "is_reserved": 0, "fusion_lon": 0.0, "lat": 38.908656666666666, "is_disabled": 0, "name": "fa0498d5318a9d44af8570d8380996c2", "fusion_lat": 0.0, "rental_uris": {"ios": "https://dc.lft.to/lastmile_qr_scan", "android": "https://dc.lft.to/lastmile_qr_scan"}, "lon": -77.03291533333334, "type": "electric_scooter"}, {"bike_id": "bd4909dc033a89c1a8f608ea6b3c46e7", "is_reserved": 0, "fusion_lon": 0.0, "lat": 38.89224633333333, "is_disabled": 0, "name": "bd4909dc033a89c1a8f608ea6b3c46e7", "fusion_lat": 0.0, "rental_uris": {"ios": "https://dc.lft.to/lastmile_qr_scan", "android": "https://dc.lft.to/lastmile_qr_scan"}, "lon": -77.03343233333334, "type": "electric_scooter"}, {"bike_id": "e4fbfef1dbf6fcaf458d95c8a8fb1f9b", "is_reserved": 0, "fusion_lon": 0.0, "lat": 38.90665283333333, "is_disabled": 0, "name": "e4fbfef1dbf6fcaf458d95c8a8fb1f9b", "fusion_lat": 0.0, "rental_uris": {"ios": "https://dc.lft.to/lastmile_qr_scan", "android": "https://dc.lft.to/lastmile_qr_scan"}, "lon": -77.03863266666667, "type": "electric_scooter"}, {"bike_id": "55c73d334dc953cfb7b255784bef3904", "is_reserved": 0, "fusion_lon": 0.0, "lat": 38.902637166666665, "is_disabled": 0, "name": "55c73d334dc953cfb7b255784bef3904", "fusion_lat": 0.0, "rental_uris": {"ios": "https://dc.lft.to/lastmile_qr_scan", "android": "https://dc.lft.to/lastmile_qr_scan"}, "lon": -77.05313916666667, "type": "electric_scooter"}, {"bike_id": "c34b2f6be30d1b247d94a81622bad49d", "is_reserved": 0, "fusion_lon": 0.0, "lat": 38.905223666666664, "is_disabled": 0, "name": "c34b2f6be30d1b247d94a81622bad49d", "fusion_lat": 0.0, "rental_uris": {"ios": "https://dc.lft.to/lastmile_qr_scan", "android": "https://dc.lft.to/lastmile_qr_scan"}, "lon": -77.065317, "type": "electric_scooter"}, {"bike_id": "3207bc6c30e426d7592f816b698c38b4", "is_reserved": 0, "fusion_lon": 0.0, "lat": 38.929608333333334, "is_disabled": 0, "name": "3207bc6c30e426d7592f816b698c38b4", "fusion_lat": 0.0, "rental_uris": {"ios": "https://dc.lft.to/lastmile_qr_scan", "android": "https://dc.lft.to/lastmile_qr_scan"}, "lon": -77.01148183333333, "type": "electric_scooter"}, {"bike_id": "2effcbc3cb9748e15cfabad6ffa4fa13", "is_reserved": 0, "fusion_lon": 0.0, "lat": 38.923542833333336, "is_disabled": 0, "name": "2effcbc3cb9748e15cfabad6ffa4fa13", "fusion_lat": 0.0, "rental_uris": {"ios": "https://dc.lft.to/lastmile_qr_scan", "android": "https://dc.lft.to/lastmile_qr_scan"}, "lon": -77.03517766666667, "type": "electric_scooter"}, {"bike_id": "6566f3b8710ae0bc08c75e1ac47b3182", "is_reserved": 0, "fusion_lon": 0.0, "lat": 38.921581333333336, "is_disabled": 0, "name": "6566f3b8710ae0bc08c75e1ac47b3182", "fusion_lat": 0.0, "rental_uris": {"ios": "https://dc.lft.to/lastmile_qr_scan", "android": "https://dc.lft.to/lastmile_qr_scan"}, "lon": -77.04692133333333, "type": "electric_scooter"}, {"bike_id": "065c26112744f297e4caffacb934ac87", "is_reserved": 0, "fusion_lon": 0.0, "lat": 38.9052685, "is_disabled": 0, "name": "065c26112744f297e4caffacb934ac87", "fusion_lat": 0.0, "rental_uris": {"ios": "https://dc.lft.to/lastmile_qr_scan", "android": "https://dc.lft.to/lastmile_qr_scan"}, "lon": -77.057655, "type": "electric_scooter"}, {"bike_id": "fba81a517eb91424d5bea05b0bf09836", "is_reserved": 0, "fusion_lon": 0.0, "lat": 38.845744333333336, "is_disabled": 0, "name": "fba81a517eb91424d5bea05b0bf09836", "fusion_lat": 0.0, "rental_uris": {"ios": "https://dc.lft.to/lastmile_qr_scan", "android": "https://dc.lft.to/lastmile_qr_scan"}, "lon": -77.096211, "type": "electric_bike"}, {"bike_id": "fdf38a9652b85ca3aac4e227ef0c86fe", "is_reserved": 0, "fusion_lon": 0.0, "lat": 38.8636955, "is_disabled": 0, "name": "fdf38a9652b85ca3aac4e227ef0c86fe", "fusion_lat": 0.0, "rental_uris": {"ios": "https://dc.lft.to/lastmile_qr_scan", "android": "https://dc.lft.to/lastmile_qr_scan"}, "lon": -77.01368183333334, "type": "electric_scooter"}, {"bike_id": "63da73ee03946555e319a73d4982728d", "is_reserved": 0, "fusion_lon": 0.0, "lat": 38.898220333333335, "is_disabled": 0, "name": "63da73ee03946555e319a73d4982728d", "fusion_lat": 0.0, "rental_uris": {"ios": "https://dc.lft.to/lastmile_qr_scan", "android": "https://dc.lft.to/lastmile_qr_scan"}, "lon": -77.03302116666667, "type": "electric_scooter"},