{"data": {"bikes": [{"lat": 38.904106666666664, "type": "electric_scooter", "is_disabled": 0, "name": "40d79e9bd1948b9d9aaff46c91990781", "bike_id": "40d79e9bd1948b9d9aaff46c91990781", "fusion_lon": 0.0, "rental_uris": {"ios": "https://dc.lft.to/lastmile_qr_scan", "android": "https://dc.lft.to/lastmile_qr_scan"}, "is_reserved": 0, "fusion_lat": 0.0, "lon": -77.02582716666667}, {"lat": 38.911755166666666, "type": "electric_scooter", "is_disabled": 0, "name": "02f36cd5480fee9cf5a730e3aca894f9", "bike_id": "02f36cd5480fee9cf5a730e3aca894f9", "fusion_lon": 0.0, "rental_uris": {"ios": "https://dc.lft.to/lastmile_qr_scan", "android": "https://dc.lft.to/lastmile_qr_scan"}, "is_reserved": 0, "fusion_lat": 0.0, "lon": -77.029571}, {"lat": 38.9518375, "type": "electric_scooter", "is_disabled": 0, "name": "7ca78b8d8abdb5e27ff38b6884c37a26", "bike_id": "7ca78b8d8abdb5e27ff38b6884c37a26", "fusion_lon": 0.0, "rental_uris": {"ios": "https://dc.lft.to/lastmile_qr_scan", "android": "https://dc.lft.to/lastmile_qr_scan"}, "is_reserved": 0, "fusion_lat": 0.0, "lon": -77.026146}, {"lat": 38.93188116666666, "type": "electric_scooter", "is_disabled": 0, "name": "e8db898e8eed99b38453746d72def0cb", "bike_id": "e8db898e8eed99b38453746d72def0cb", "fusion_lon": 0.0, "rental_uris": {"ios": "https://dc.lft.to/lastmile_qr_scan", "android": "https://dc.lft.to/lastmile_qr_scan"}, "is_reserved": 0, "fusion_lat": 0.0, "lon": -77.02835483333334}, {"lat": 38.9264055, "type": "electric_scooter", "is_disabled": 0, "name": "61cce3b9fe41687dbcfd72dcd1e483cd", "bike_id": "61cce3b9fe41687dbcfd72dcd1e483cd", "fusion_lon": 0.0, "rental_uris": {"ios": "https://dc.lft.to/lastmile_qr_scan", "android": "https://dc.lft.to/lastmile_qr_scan"}, "is_reserved": 0, "fusion_lat": 0.0, "lon": -77.02507583333333}, {"lat": 38.90009333333333, "type": "electric_scooter", "is_disabled": 0, "name": "e8a5d60f84070489d0ce2eb966c44618", "bike_id": "e8a5d60f84070489d0ce2eb966c44618", "fusion_lon": 0.0, "rental_uris": {"ios": "https://dc.lft.to/lastmile_qr_scan", "android": "https://dc.lft.to/lastmile_qr_scan"}, "is_reserved": 0, "fusion_lat": 0.0, "lon": -76.99537916666667}, {"lat": 38.89224866666667, "type": "electric_scooter", "is_disabled": 0, "name": "222773ba59ee8be5186791924fbc65a7", "bike_id": "222773ba59ee8be5186791924fbc65a7", "fusion_lon": 0.0, "rental_uris": {"ios": "https://dc.lft.to/lastmile_qr_scan", "android": "https://dc.lft.to/lastmile_qr_scan"}, "is_reserved": 0, "fusion_lat": 0.0, "lon": -77.03135833333333}, {"lat": 38.93240516666667, "type": "electric_scooter", "is_disabled": 0, "name": "7f58da40be2db4e2d4cc0a98e22ca25d", "bike_id": "7f58da40be2db4e2d4cc0a98e22ca25d", "fusion_lon": 0.0, "rental_uris": {"ios": "https://dc.lft.to/lastmile_qr_scan", "android": "https://dc.lft.to/lastmile_qr_scan"}, "is_reserved": 0, "fusion_lat": 0.0, "lon": -77.0328145}, {"lat": 38.92700116666666, "type": "electric_scooter", "is_disabled": 0, "name": "7c2e2d2fc18e363ff1d9ad14901040b4", "bike_id": "7c2e2d2fc18e363ff1d9ad14901040b4", "fusion_lon": 0.0, "rental_uris": {"ios": "https://dc.lft.to/lastmile_qr_scan", "android": "https://dc.lft.to/lastmile_qr_scan"}, "is_reserved": 0, "fusion_lat": 0.0, "lon": -77.02071266666667}, {"lat": 38.92236916666667, "type": "electric_scooter", "is_disabled": 0, "name": "e1343ff06adc945491591d3b31fa285a", "bike_id": "e1343ff06adc945491591d3b31fa285a", "fusion_lon": 0.0, "rental_uris": {"ios": "https://dc.lft.to/lastmile_qr_scan", "android": "https://dc.lft.to/lastmile_qr_scan"}, "is_reserved": 0, "fusion_lat": 0.0, "lon": -77.02136166666666}, {"lat": 38.9118705, "type": "electric_scooter", "is_disabled": 0, "name": "a6d39325e0f32b643946bf08a3108811", "bike_id": "a6d39325e0f32b643946bf08a3108811", "fusion_lon": 0.0, "rental_uris": {"ios": "https://dc.lft.to/lastmile_qr_scan", "android": "https://dc.lft.to/lastmile_qr_scan"}, "is_reserved": 0, "fusion_lat": 0.0, "lon": -77.03835433333333}, {"lat": 38.923124666666666, "type": "electric_scooter", "is_disabled": 0, "name": "246b69fbdd6dbe2f24d24516fc7eebd6", "bike_id": "246b69fbdd6dbe2f24d24516fc7eebd6", "fusion_lon": 0.0, "rental_uris": {"ios": "https://dc.lft.to/lastmile_qr_scan", "android": "https://dc.lft.to/lastmile_qr_scan"}, "is_reserved": 0, "fusion_lat": 0.0, "lon": -77.01950516666666}, {"lat": 38.9352885, "type": "electric_scooter", "is_disabled": 0, "name": "1154890f231cf0ae52221454d2b52847", "bike_id": "1154890f231cf0ae52221454d2b52847", "fusion_lon": 0.0, "rental_uris": {"ios": "https://dc.lft.to/lastmile_qr_scan", "android": "https://dc.lft.to/lastmile_qr_scan"}, "is_reserved": 0, "fusion_lat": 0.0, "lon": -77.02353883333333}, {"lat": 38.924223833333336, "type": "electric_scooter", "is_disabled": 0, "name": "559fad9cdf78e79ca062b57d0fa0db5c", "bike_id": "559fad9cdf78e79ca062b57d0fa0db5c", "fusion_lon": 0.0, "rental_uris": {"ios": "https://dc.lft.to/lastmile_qr_scan", "android": "https://dc.lft.to/lastmile_qr_scan"}, "is_reserved": 0, "fusion_lat": 0.0, "lon": -77.02031233333334}, {"lat": 38.913448833333334, "type": "electric_scooter", "is_disabled": 0, "name": "416510ba49fe637e53d3eb236de75bd6", "bike_id": "416510ba49fe637e53d3eb236de75bd6", "fusion_lon": 0.0, "rental_uris": {"ios": "https://dc.lft.to/lastmile_qr_scan", "android": "https://dc.lft.to/lastmile_qr_scan"}, "is_reserved": 0, "fusion_lat": 0.0, "lon": -77.02057433333333}, {"lat": 38.913252166666666, "type": "electric_scooter", "is_disabled": 0, "name": "02d1d2a4a49699db3ee1b261215c90d4", "bike_id": "02d1d2a4a49699db3ee1b261215c90d4", "fusion_lon": 0.0, "rental_uris": {"ios": "https://dc.lft.to/lastmile_qr_scan", "android": "https://dc.lft.to/lastmile_qr_scan"}, "is_reserved": 0, "fusion_lat": 0.0, "lon": -77.0453895}, {"lat": 38.9296615, "type": "electric_scooter", "is_disabled": 0, "name": "7a49618a0fb5d703bd60b24c6dbac838", "bike_id": "7a49618a0fb5d703bd60b24c6dbac838", "fusion_lon": 0.0, "rental_uris": {"ios": "https://dc.lft.to/lastmile_qr_scan", "android": "https://dc.lft.to/lastmile_qr_scan"}, "is_reserved": 0, "fusion_lat": 0.0, "lon": -77.041143}, {"lat": 38.9064495, "type": "electric_scooter", "is_disabled": 0, "name": "8e9376ab72dcc025af78b5476ca04c14", "bike_id": "8e9376ab72dcc025af78b5476ca04c14", "fusion_lon": 0.0, "rental_uris": {"ios": "https://dc.lft.to/lastmile_qr_scan", "android": "https://dc.lft.to/lastmile_qr_scan"}, "is_reserved": 0, "fusion_lat": 0.0, "lon": -77.01693216666666}, {"lat": 38.9211175, "type": "electric_scooter", "is_disabled": 0, "name": "4f8897b99dfeb10c77340cc953244768", "bike_id": "4f8897b99dfeb10c77340cc953244768", "fusion_lon": 0.0, "rental_uris": {"ios": "https://dc.lft.to/lastmile_qr_scan", "android": "https://dc.lft.to/lastmile_qr_scan"}, "is_reserved": 0, "fusion_lat": 0.0, "lon": -77.02066033333334}, {"lat": 38.90273216666667, "type": "electric_scooter", "is_disabled": 0, "name": "c2ab6eb34a49c4ad9eb51ae4f1e88b41", "bike_id": "c2ab6eb34a49c4ad9eb51ae4f1e88b41", "fusion_lon": 0.0, "rental_uris": {"ios": "https://dc.lft.to/lastmile_qr_scan", "android": "https://dc.lft.to/lastmile_qr_scan"}, "is_reserved": 0, "fusion_lat": 0.0, "lon": -77.06433383333334}, {"lat": 38.90495816666667, "type": "electric_scooter", "is_disabled": 0, "name": "7f6426618056c9646bd916071ecf8cfa", "bike_id": "7f6426618056c9646bd916071ecf8cfa", "fusion_lon": 0.0, "rental_uris": {"ios": "https://dc.lft.to/lastmile_qr_scan", "android": "https://dc.lft.to/lastmile_qr_scan"}, "is_reserved": 0, "fusion_lat": 0.0, "lon": -77.0547305}, {"lat": 38.97336383333333, "type": "electric_bike", "is_disabled": 0, "name": "902b689b58449fb636a877ce9cc7033e", "bike_id": "902b689b58449fb636a877ce9cc7033e", "fusion_lon": 0.0, "rental_uris": {"ios": "https://dc.lft.to/lastmile_qr_scan", "android": "https://dc.lft.to/lastmile_qr_scan"}, "is_reserved": 0, "fusion_lat": 0.0, "lon": -76.99578333333334}, {"lat": 39.0423425, "type": "electric_bike", "is_disabled": 0, "name": "983f27e1afaa0deba3dd8ebf12d5b884", "bike_id": "983f27e1afaa0deba3dd8ebf12d5b884", "fusion_lon": 0.0, "rental_uris": {"ios": "https://dc.lft.to/lastmile_qr_scan", "android": "https://dc.lft.to/lastmile_qr_scan"}, "is_reserved": 0, "fusion_lat": 0.0, "lon": -76.99736416666667}, {"lat": 38.91945466666667, "type": "electric_scooter", "is_disabled": 0, "name": "c3fcd648110d98d287eccf391e7c90c8", "bike_id": "c3fcd648110d98d287eccf391e7c90c8", "fusion_lon": 0.0, "rental_uris": {"ios": "https://dc.lft.to/lastmile_qr_scan", "android": "https://dc.lft.to/lastmile_qr_scan"}, "is_reserved": 0, "fusion_lat": 0.0, "lon": -77.01798266666667}, {"lat": 38.92051633333333, "type": "electric_scooter", "is_disabled": 0, "name": "88ebea6662410c5d6bb5c0389e26c7a8", "bike_id": "88ebea6662410c5d6bb5c0389e26c7a8", "fusion_lon": 0.0, "rental_uris": {"ios": "https://dc.lft.to/lastmile_qr_scan", "android": "https://dc.lft.to/lastmile_qr_scan"}, "is_reserved": 0, "fusion_lat": 0.0, "lon": -76.984274}, {"lat": 38.858703166666665, "type": "electric_scooter", "is_disabled": 0, "name": "de0c1a04d030a86bc3fd0647c2e0fdad", "bike_id": "de0c1a04d030a86bc3fd0647c2e0fdad", "fusion_lon": 0.0, "rental_uris": {"ios": "https://dc.lft.to/lastmile_qr_scan", "android": "https://dc.lft.to/lastmile_qr_scan"}, "is_reserved": 0, "fusion_lat": 0.0, "lon": -76.98938883333334}, {"lat": 38.9231605, "type": "electric_scooter", "is_disabled": 0, "name": "03851dfbd4a1cc5c71345298b0d1c3a5", "bike_id": "03851dfbd4a1cc5c71345298b0d1c3a5", "fusion_lon": 0.0, "rental_uris": {"ios": "https://dc.lft.to/lastmile_qr_scan", "android": "https://dc.lft.to/lastmile_qr_scan"}, "is_reserved": 0, "fusion_lat": 0.0, "lon": -77.02902216666666}, {"lat": 38.924679166666664, "type": "electric_scooter", "is_disabled": 0, "name": "57729ed81dc70381e47e3d94acf9e721", "bike_id": "57729ed81dc70381e47e3d94acf9e721", "fusion_lon": 0.0, "rental_uris": {"ios": "https://dc.lft.to/lastmile_qr_scan", "android": "https://dc.lft.to/lastmile_qr_scan"}, "is_reserved": 0, "fusion_lat": 0.0, "lon": -77.03001616666667}, {"lat": 38.936938166666664, "type": "electric_scooter", "is_disabled": 0, "name": "392e70afdb350eac7fc94ec2399a6c35", "bike_id": "392e70afdb350eac7fc94ec2399a6c35", "fusion_lon": 0.0, "rental_uris": {"ios": "https://dc.lft.to/lastmile_qr_scan", "android": "https://dc.lft.to/lastmile_qr_scan"}, "is_reserved": 0, "fusion_lat": 0.0, "lon": -77.056082}, {"lat": 38.9191205, "type": "electric_scooter", "is_disabled": 0, "name": "71934b0695dd2b24f74150b7b387d81a", "bike_id": "71934b0695dd2b24f74150b7b387d81a", "fusion_lon": 0.0, "rental_uris": {"ios": "https://dc.lft.to/lastmile_qr_scan", "android": "https://dc.lft.to/lastmile_qr_scan"}, "is_reserved": 0, "fusion_lat": 0.0, "lon": -77.02618933333333}, {"lat": 38.9511415, "type": "electric_bike", "is_disabled": 0, "name": "c62b208a760c1460bec162663e340cf9", "bike_id": "c62b208a760c1460bec162663e340cf9", "fusion_lon": 0.0, "rental_uris": {"ios": "https://dc.lft.to/lastmile_qr_scan", "android": "https://dc.lft.to/lastmile_qr_scan"}, "is_reserved": 0, "fusion_lat": 0.0, "lon": -77.088743}, {"lat": 38.89488266666667, "type": "electric_scooter", "is_disabled": 0, "name": "65946cb4a23f5ec39288703b81f51979", "bike_id": "65946cb4a23f5ec39288703b81f51979", "fusion_lon": 0.0, "rental_uris": {"ios": "https://dc.lft.to/lastmile_qr_scan", "android": "https://dc.lft.to/lastmile_qr_scan"}, "is_reserved": 0, "fusion_lat": 0.0, "lon": -76.9489235}, {"lat": 38.88837633333333, "type": "electric_scooter", "is_disabled": 0, "name": "77fa3884496a32970792dffda6686f04", "bike_id": "77fa3884496a32970792dffda6686f04", "fusion_lon": 0.0, "rental_uris": {"ios": "https://dc.lft.to/lastmile_qr_scan", "android": "https://dc.lft.to/lastmile_qr_scan"}, "is_reserved": 0, "fusion_lat": 0.0, "lon": -76.977177}, {"lat": 38.93462266666667, "type": "electric_scooter", "is_disabled": 0, "name": "7148f27165d772e91eb6b130e7f1ac84", "bike_id": "7148f27165d772e91eb6b130e7f1ac84", "fusion_lon": 0.0, "rental_uris": {"ios": "https://dc.lft.to/lastmile_qr_scan", "android": "https://dc.lft.to/lastmile_qr_scan"}, "is_reserved": 0, "fusion_lat": 0.0, "lon": -77.05809883333333}, {"lat": 38.957294833333336, "type": "electric_scooter", "is_disabled": 0, "name": "05be2aa231e54fafa03d0904933b3020", "bike_id": "05be2aa231e54fafa03d0904933b3020", "fusion_lon": 0.0, "rental_uris": {"ios": "https://dc.lft.to/lastmile_qr_scan", "android": "https://dc.lft.to/lastmile_qr_scan"}, "is_reserved": 0, "fusion_lat": 0.0, "lon": -77.024017}, {"lat": 38.92855866666667, "type": "electric_bike", "is_disabled": 0, "name": "0f4d5ce8d79e4d9875a4bb502701b055", "bike_id": "0f4d5ce8d79e4d9875a4bb502701b055", "fusion_lon": 0.0, "rental_uris": {"ios": "https://dc.lft.to/lastmile_qr_scan", "android": "https://dc.lft.to/lastmile_qr_scan"}, "is_reserved": 0, "fusion_lat": 0.0, "lon": -76.99006133333333}, {"lat": 38.906849333333334, "type": "electric_scooter", "is_disabled": 0, "name": "7c7624eb7bfe5a4a2eb2d6a3f1d9d370", "bike_id": "7c7624eb7bfe5a4a2eb2d6a3f1d9d370", "fusion_lon": 0.0, "rental_uris": {"ios": "https://dc.lft.to/lastmile_qr_scan", "android": "https://dc.lft.to/lastmile_qr_scan"}, "is_reserved": 0, "fusion_lat": 0.0, "lon": -77.02692966666666}, {"lat": 38.93046283333334, "type": "electric_scooter", "is_disabled": 0, "name": "15a7ed5a1ffa7eab5f00663d8285e061", "bike_id": "15a7ed5a1ffa7eab5f00663d8285e061", "fusion_lon": 0.0, "rental_uris": {"ios": "https://dc.lft.to/lastmile_qr_scan", "android": "https://dc.lft.to/lastmile_qr_scan"}, "is_reserved": 0, "fusion_lat": 0.0, "lon": -77.0246655}, {"lat": 38.9224685, "type": "electric_scooter", "is_disabled": 0, "name": "60736cf28dd162c324c9afa7264edb01", "bike_id": "60736cf28dd162c324c9afa7264edb01", "fusion_lon": 0.0, "rental_uris": {"ios": "https://dc.lft.to/lastmile_qr_scan", "android": "https://dc.lft.to/lastmile_qr_scan"}, "is_reserved": 0, "fusion_lat": 0.0, "lon": -77.030843}, {"lat": 38.89222266666667, "type": "electric_scooter", "is_disabled": 0, "name": "b789863419ac7ecc68bff4b0a5ab5677", "bike_id": "b789863419ac7ecc68bff4b0a5ab5677", "fusion_lon": 0.0, "rental_uris": {"ios": "https://dc.lft.to/lastmile_qr_scan", "android": "https://dc.lft.to/lastmile_qr_scan"}, "is_reserved": 0, "fusion_lat": 0.0, "lon": -77.046885}, {"lat": 38.89832533333333, "type": "electric_scooter", "is_disabled": 0, "name": "ff8eecb0984c1e22793ee7365271d734", "bike_id": "ff8eecb0984c1e22793ee7365271d734", "fusion_lon": 0.0, "rental_uris": {"ios": "https://dc.lft.to/lastmile_qr_scan", "android": "https://dc.lft.to/lastmile_qr_scan"}, "is_reserved": 0, "fusion_lat": 0.0, "lon": -77.0465385}, {"lat": 38.888200833333336, "type": "electric_scooter", "is_disabled": 0, "name": "abaf64e4e9fd9fae7b212424eabfa94a", "bike_id": "abaf64e4e9fd9fae7b212424eabfa94a", "fusion_lon": 0.0, "rental_uris": {"ios": "https://dc.lft.to/lastmile_qr_scan", "android": "https://dc.lft.to/lastmile_qr_scan"}, "is_reserved": 0, "fusion_lat": 0.0, "lon": -76.97704066666667}, {"lat": 38.915294, "type": "electric_scooter", "is_disabled": 0, "name": "8d37d7955690ab561ab4d1098f4f768b", "bike_id": "8d37d7955690ab561ab4d1098f4f768b", "fusion_lon": 0.0, "rental_uris": {"ios": "https://dc.lft.to/lastmile_qr_scan", "android": "https://dc.lft.to/lastmile_qr_scan"}, "is_reserved": 0, "fusion_lat": 0.0, "lon": -77.031937}, {"lat": 38.8794325, "type": "electric_scooter", "is_disabled": 0, "name": "4c22fd03601734ff2f83962ac029547a", "bike_id": "4c22fd03601734ff2f83962ac029547a", "fusion_lon": 0.0, "rental_uris": {"ios": "https://dc.lft.to/lastmile_qr_scan", "android": "https://dc.lft.to/lastmile_qr_scan"}, "is_reserved": 0, "fusion_lat": 0.0, "lon": -77.020409}, {"lat": 38.92464983333333, "type": "electric_scooter", "is_disabled": 0, "name": "7e654970edb811adf3f0ba4552b53269", "bike_id": "7e654970edb811adf3f0ba4552b53269", "fusion_lon": 0.0, "rental_uris": {"ios": "https://dc.lft.to/lastmile_qr_scan", "android": "https://dc.lft.to/lastmile_qr_scan"}, "is_reserved": 0, "fusion_lat": 0.0, "lon": -77.0219795}, {"lat": 38.887103333333336, "type": "electric_scooter", "is_disabled": 0, "name": "382cc5084771952f352b11c17f0b1759", "bike_id": "382cc5084771952f352b11c17f0b1759", "fusion_lon": 0.0, "rental_uris": {"ios": "https://dc.lft.to/lastmile_qr_scan", "android": "https://dc.lft.to/lastmile_qr_scan"}, "is_reserved": 0, "fusion_lat": 0.0, "lon": -76.98340866666666}, {"lat": 38.931428333333336, "type": "electric_scooter", "is_disabled": 0, "name": "e86bd79c8d25f15dc9d3296a0057654b", "bike_id": "e86bd79c8d25f15dc9d3296a0057654b", "fusion_lon": 0.0, "rental_uris": {"ios": "https://dc.lft.to/lastmile_qr_scan", "android": "https://dc.lft.to/lastmile_qr_scan"}, "is_reserved": 0, "fusion_lat": 0.0, "lon": -77.07845866666666}, {"lat": 38.901719666666665, "type": "electric_scooter", "is_disabled": 0, "name": "858a9afb5107bea90fcb52884dc0b05f", "bike_id": "858a9afb5107bea90fcb52884dc0b05f", "fusion_lon": 0.0, "rental_uris": {"ios": "https://dc.lft.to/lastmile_qr_scan", "android": "https://dc.lft.to/lastmile_qr_scan"}, "is_reserved": 0, "fusion_lat": 0.0, "lon": -76.98079733333333}, {"lat": 38.926782333333335, "type": "electric_scooter", "is_disabled": 0, "name": "f0e9848a9b46c2efaa1b73e552b99e26", "bike_id": "f0e9848a9b46c2efaa1b73e552b99e26", "fusion_lon": 0.0, "rental_uris": {"ios": "https://dc.lft.to/lastmile_qr_scan", "android": "https://dc.lft.to/lastmile_qr_scan"}, "is_reserved": 0, "fusion_lat": 0.0, "lon": -77.02743316666667}, {"lat": 38.87621733333334, "type": "electric_scooter", "is_disabled": 0, "name": "17af9d16a06f817b6a91ff8c78e6d890", "bike_id": "17af9d16a06f817b6a91ff8c78e6d890", "fusion_lon": 0.0, "rental_uris": {"ios": "https://dc.lft.to/lastmile_qr_scan", "android": "https://dc.lft.to/lastmile_qr_scan"}, "is_reserved": 0, "fusion_lat": 0.0, "lon": -77.002397}, {"lat": 38.9090095, "type": "electric_scooter", "is_disabled": 0, "name": "d5df0146e4d88b5f371df4499a58fae0", "bike_id": "d5df0146e4d88b5f371df4499a58fae0", "fusion_lon": 0.0, "rental_uris": {"ios": "https://dc.lft.to/lastmile_qr_scan", "android": "https://dc.lft.to/lastmile_qr_scan"}, "is_reserved": 0, "fusion_lat": 0.0, "lon": -76.98973816666667}, {"lat": 38.878392833333336, "type": "electric_scooter", "is_disabled": 0, "name": "11e387d5ce37d7dd06f8a58f0dc5a511", "bike_id": "11e387d5ce37d7dd06f8a58f0dc5a511", "fusion_lon": 0.0, "rental_uris": {"ios": "https://dc.lft.to/lastmile_qr_scan", "android": "https://dc.lft.to/lastmile_qr_scan"}, "is_reserved": 0, "fusion_lat": 0.0, "lon": -77.00664266666666}, {"lat": 38.90638216666667, "type": "electric_scooter", "is_disabled": 0, "name": "4eea03c0ab2309a6eb9ebb60838a9bbb", "bike_id": "4eea03c0ab2309a6eb9ebb60838a9bbb", "fusion_lon": 0.0, "rental_uris": {"ios": "https://dc.lft.to/lastmile_qr_scan", "android": "https://dc.lft.to/lastmile_qr_scan"}, "is_reserved": 0, "fusion_lat": 0.0, "lon": -77.00876616666666}, {"lat": 39.02921933333333, "type": "electric_bike", "is_disabled": 0, "name": "78cfdb7b04178fd328cb603bc94684a4", "bike_id": "78cfdb7b04178fd328cb603bc94684a4", "fusion_lon": 0.0, "rental_uris": {"ios": "https://dc.lft.to/lastmile_qr_scan", "android": "https://dc.lft.to/lastmile_qr_scan"}, "is_reserved": 0, "fusion_lat": 0.0, "lon": -77.01357166666666}, {"lat": 38.8996575, "type": "electric_scooter", "is_disabled": 0, "name": "5ae2f8295a8ce0863139c52e16470ddc", "bike_id": "5ae2f8295a8ce0863139c52e16470ddc", "fusion_lon": 0.0, "rental_uris": {"ios": "https://dc.lft.to/lastmile_qr_scan", "android": "https://dc.lft.to/lastmile_qr_scan"}, "is_reserved": 0, "fusion_lat": 0.0, "lon": -77.00694216666666}, {"lat": 38.91414, "type": "electric_scooter", "is_disabled": 0, "name": "f2ce52549523c55feee112c42daf3e14", "bike_id": "f2ce52549523c55feee112c42daf3e14", "fusion_lon": 0.0, "rental_uris": {"ios": "https://dc.lft.to/lastmile_qr_scan", "android": "https://dc.lft.to/lastmile_qr_scan"}, "is_reserved": 0, "fusion_lat": 0.0, "lon": -77.05209733333334}, {"lat": 38.90434033333333, "type": "electric_scooter", "is_disabled": 0, "name": "69af34497ef17a71465d952556a57798", "bike_id": "69af34497ef17a71465d952556a57798", "fusion_lon": 0.0, "rental_uris": {"ios": "https://dc.lft.to/lastmile_qr_scan", "android": "https://dc.lft.to/lastmile_qr_scan"}, "is_reserved": 0, "fusion_lat": 0.0, "lon": -77.053158}, {"lat": 38.9289015, "type": "electric_scooter", "is_disabled": 0, "name": "cd7fa1d14ece9b1aff710cde5c467ce2", "bike_id": "cd7fa1d14ece9b1aff710cde5c467ce2", "fusion_lon": 0.0, "rental_uris": {"ios": "https://dc.lft.to/lastmile_qr_scan", "android": "https://dc.lft.to/lastmile_qr_scan"}, "is_reserved": 0, "fusion_lat": 0.0, "lon": -77.034883}, {"lat": 38.90303216666667, "type": "electric_scooter", "is_disabled": 0, "name": "2d211d073e45e10ea448e18ba8b2628c", "bike_id": "2d211d073e45e10ea448e18ba8b2628c", "fusion_lon": 0.0, "rental_uris": {"ios": "https://dc.lft.to/lastmile_qr_scan", "android": "https://dc.lft.to/lastmile_qr_scan"}, "is_reserved": 0, "fusion_lat": 0.0, "lon": -77.0504815}, {"lat": 38.93352266666667, "type": "electric_scooter", "is_disabled": 0, "name": "9af87c9a1f2afb663bc2777e4ffc7c5e", "bike_id": "9af87c9a1f2afb663bc2777e4ffc7c5e", "fusion_lon": 0.0, "rental_uris": {"ios": "https://dc.lft.to/lastmile_qr_scan", "android": "https://dc.lft.to/lastmile_qr_scan"}, "is_reserved": 0, "fusion_lat": 0.0, "lon": -77.085786}, {"lat": 38.900642833333336, "type": "electric_scooter", "is_disabled": 0, "name": "fc2f0bbe7e3d13e1611c8c5286178370", "bike_id": "fc2f0bbe7e3d13e1611c8c5286178370", "fusion_lon": 0.0, "rental_uris": {"ios": "https://dc.lft.to/lastmile_qr_scan", "android": "https://dc.lft.to/lastmile_qr_scan"}, "is_reserved": 0, "fusion_lat": 0.0, "lon": -77.04875016666666}, {"lat": 38.9268825, "type": "electric_scooter", "is_disabled": 0, "name": "d390a56436477f8a986a77d9f69fbad7", "bike_id": "d390a56436477f8a986a77d9f69fbad7", "fusion_lon": 0.0, "rental_uris": {"ios": "https://dc.lft.to/lastmile_qr_scan", "android": "https://dc.lft.to/lastmile_qr_scan"}, "is_reserved": 0, "fusion_lat": 0.0, "lon": -77.0296355}, {"lat": 38.9180215, "type": "electric_scooter", "is_disabled": 0, "name": "e0aa919e3591950da2f972f7834d6ec0", "bike_id": "e0aa919e3591950da2f972f7834d6ec0", "fusion_lon": 0.0, "rental_uris": {"ios": "https://dc.lft.to/lastmile_qr_scan", "android": "https://dc.lft.to/lastmile_qr_scan"}, "is_reserved": 0, "fusion_lat": 0.0, "lon": -77.024895}, {"lat": 38.9165415, "type": "electric_scooter", "is_disabled": 0, "name": "060e5b7ec4633a438117d409c480ec25", "bike_id": "060e5b7ec4633a438117d409c480ec25", "fusion_lon": 0.0, "rental_uris": {"ios": "https://dc.lft.to/lastmile_qr_scan", "android": "https://dc.lft.to/lastmile_qr_scan"}, "is_reserved": 0, "fusion_lat": 0.0, "lon": -77.03179416666667}, {"lat": 38.897209333333336, "type": "electric_scooter", "is_disabled": 0, "name": "fbefadddf1eb8c74c4c697c42277bd44", "bike_id": "fbefadddf1eb8c74c4c697c42277bd44", "fusion_lon": 0.0, "rental_uris": {"ios": "https://dc.lft.to/lastmile_qr_scan", "android": "https://dc.lft.to/lastmile_qr_scan"}, "is_reserved": 0, "fusion_lat": 0.0, "lon": -77.0021055}, {"lat": 38.916506, "type": "electric_scooter", "is_disabled": 0, "name": "9b2c8cabdab1a706db71b4fe0000742c", "bike_id": "9b2c8cabdab1a706db71b4fe0000742c", "fusion_lon": 0.0, "rental_uris": {"ios": "https://dc.lft.to/lastmile_qr_scan", "android": "https://dc.lft.to/lastmile_qr_scan"}, "is_reserved": 0, "fusion_lat": 0.0, "lon": -77.02029066666667}, {"lat": 38.807355666666666, "type": "electric_bike", "is_disabled": 0, "name": "277e371d8bce8178110ebf781ed5bfdc", "bike_id": "277e371d8bce8178110ebf781ed5bfdc", "fusion_lon": 0.0, "rental_uris": {"ios": "https://dc.lft.to/lastmile_qr_scan", "android": "https://dc.lft.to/lastmile_qr_scan"}, "is_reserved": 0, "fusion_lat": 0.0, "lon": -76.992556}, {"lat": 38.95082016666667, "type": "electric_scooter", "is_disabled": 0, "name": "dd4886ca203cc4eb9c94c58ddafb954f", "bike_id": "dd4886ca203cc4eb9c94c58ddafb954f", "fusion_lon": 0.0, "rental_uris": {"ios": "https://dc.lft.to/lastmile_qr_scan", "android": "https://dc.lft.to/lastmile_qr_scan"}, "is_reserved": 0, "fusion_lat": 0.0, "lon": -76.9979935}, {"lat": 38.92362383333333, "type": "electric_scooter", "is_disabled": 0, "name": "9526203c5dcce22d4e26cf42a5fb8135", "bike_id": "9526203c5dcce22d4e26cf42a5fb8135", "fusion_lon": 0.0, "rental_uris": {"ios": "https://dc.lft.to/lastmile_qr_scan", "android": "https://dc.lft.to/lastmile_qr_scan"}, "is_reserved": 0, "fusion_lat": 0.0, "lon": -77.050277}, {"lat": 38.884315, "type": "electric_scooter", "is_disabled": 0, "name": "fba4fcf72bad58ac392cc988d8c29732", "bike_id": "fba4fcf72bad58ac392cc988d8c29732", "fusion_lon": 0.0, "rental_uris": {"ios": "https://dc.lft.to/lastmile_qr_scan", "android": "https://dc.lft.to/lastmile_qr_scan"}, "is_reserved": 0, "fusion_lat": 0.0, "lon": -76.95748}, {"lat": 38.9261425, "type": "electric_scooter", "is_disabled": 0, "name": "bddfa870f418bfd16e09f546ecf96a53", "bike_id": "bddfa870f418bfd16e09f546ecf96a53", "fusion_lon": 0.0, "rental_uris": {"ios": "https://dc.lft.to/lastmile_qr_scan", "android": "https://dc.lft.to/lastmile_qr_scan"}, "is_reserved": 0, "fusion_lat": 0.0, "lon": -77.02161066666666}, {"lat": 38.92059666666667, "type": "electric_scooter", "is_disabled": 0, "name": "af17307d81ff98ee3e79b658c2e6363e", "bike_id": "af17307d81ff98ee3e79b658c2e6363e", "fusion_lon": 0.0, "rental_uris": {"ios": "https://dc.lft.to/lastmile_qr_scan", "android": "https://dc.lft.to/lastmile_qr_scan"}, "is_reserved": 0, "fusion_lat": 0.0, "lon": -77.04185666666666}, {"lat": 38.892239000000004, "type": "electric_scooter", "is_disabled": 0, "name": "66ae252a31fa547ff2fb05b32a2145c6", "bike_id": "66ae252a31fa547ff2fb05b32a2145c6", "fusion_lon": 0.0, "rental_uris": {"ios": "https://dc.lft.to/lastmile_qr_scan", "android": "https://dc.lft.to/lastmile_qr_scan"}, "is_reserved": 0, "fusion_lat": 0.0, "lon": -77.04371533333334}, {"lat": 38.92389716666667, "type": "electric_scooter", "is_disabled": 0, "name": "e0af9829576a23fc9229841d613c2bfc", "bike_id": "e0af9829576a23fc9229841d613c2bfc", "fusion_lon": 0.0, "rental_uris": {"ios": "https://dc.lft.to/lastmile_qr_scan", "android": "https://dc.lft.to/lastmile_qr_scan"}, "is_reserved": 0, "fusion_lat": 0.0, "lon": -77.02656416666666}, {"lat": 38.899678, "type": "electric_scooter", "is_disabled": 0, "name": "510a5aa7f776cbfabe565695145921d3", "bike_id": "510a5aa7f776cbfabe565695145921d3", "fusion_lon": 0.0, "rental_uris": {"ios": "https://dc.lft.to/lastmile_qr_scan", "android": "https://dc.lft.to/lastmile_qr_scan"}, "is_reserved": 0, "fusion_lat": 0.0, "lon": -77.04717283333333}, {"lat": 38.92118133333334, "type": "electric_scooter", "is_disabled": 0, "name": "e2c070f71eb89ec0a112206a5351f63e", "bike_id": "e2c070f71eb89ec0a112206a5351f63e", "fusion_lon": 0.0, "rental_uris": {"ios": "https://dc.lft.to/lastmile_qr_scan", "android": "https://dc.lft.to/lastmile_qr_scan"}, "is_reserved": 0, "fusion_lat": 0.0, "lon": -77.043912}, {"lat": 38.89246266666667, "type": "electric_scooter", "is_disabled": 0, "name": "4d4a3118f76f49d6b912523f3aef5693", "bike_id": "4d4a3118f76f49d6b912523f3aef5693", "fusion_lon": 0.0, "rental_uris": {"ios": "https://dc.lft.to/lastmile_qr_scan", "android": "https://dc.lft.to/lastmile_qr_scan"}, "is_reserved": 0, "fusion_lat": 0.0, "lon": -77.03198766666667}, {"lat": 38.926516, "type": "electric_bike", "is_disabled": 0, "name": "0f44a30d211dcdb1bdb15174b89e2639", "bike_id": "0f44a30d211dcdb1bdb15174b89e2639", "fusion_lon": 0.0, "rental_uris": {"ios": "https://dc.lft.to/lastmile_qr_scan", "android": "https://dc.lft.to/lastmile_qr_scan"}, "is_reserved": 0, "fusion_lat": 0.0, "lon": -77.0902165}, {"lat": 38.884586, "type": "electric_scooter", "is_disabled": 0, "name": "2b2431c358754099cbe09ec66ec93506", "bike_id": "2b2431c358754099cbe09ec66ec93506", "fusion_lon": 0.0, "rental_uris": {"ios": "https://dc.lft.to/lastmile_qr_scan", "android": "https://dc.lft.to/lastmile_qr_scan"}, "is_reserved": 0, "fusion_lat": 0.0, "lon": -76.9262275}, {"lat": 38.91121483333333, "type": "electric_scooter", "is_disabled": 0, "name": "d25e75f53cbf80fdf1ffed1e7df15c2c", "bike_id": "d25e75f53cbf80fdf1ffed1e7df15c2c", "fusion_lon": 0.0, "rental_uris": {"ios": "https://dc.lft.to/lastmile_qr_scan", "android": "https://dc.lft.to/lastmile_qr_scan"}, "is_reserved": 0, "fusion_lat": 0.0, "lon": -77.0218825}, {"lat": 38.921734666666666, "type": "electric_scooter", "is_disabled": 0, "name": "a2fbc782578f11a06bd2c205fd8721dd", "bike_id": "a2fbc782578f11a06bd2c205fd8721dd", "fusion_lon": 0.0, "rental_uris": {"ios": "https://dc.lft.to/lastmile_qr_scan", "android": "https://dc.lft.to/lastmile_qr_scan"}, "is_reserved": 0, "fusion_lat": 0.0, "lon": -77.03662616666666}, {"lat": 38.92140883333333, "type": "electric_scooter", "is_disabled": 0, "name": "ded66b5ad9a6a170cbf8ec4f5594e968", "bike_id": "ded66b5ad9a6a170cbf8ec4f5594e968", "fusion_lon": 0.0, "rental_uris": {"ios": "https://dc.lft.to/lastmile_qr_scan", "android": "https://dc.lft.to/lastmile_qr_scan"}, "is_reserved": 0, "fusion_lat": 0.0, "lon": -77.01219133333333}, {"lat": 38.849636, "type": "electric_bike", "is_disabled": 0, "name": "4276137a64ba1f6bbccffb28e4f28d04", "bike_id": "4276137a64ba1f6bbccffb28e4f28d04", "fusion_lon": 0.0, "rental_uris": {"ios": "https://dc.lft.to/lastmile_qr_scan", "android": "https://dc.lft.to/lastmile_qr_scan"}, "is_reserved": 0, "fusion_lat": 0.0, "lon": -77.08929}, {"lat": 38.9016965, "type": "electric_scooter", "is_disabled": 0, "name": "07fd5cd2dd872bd148424e0c213ff081", "bike_id": "07fd5cd2dd872bd148424e0c213ff081", "fusion_lon": 0.0, "rental_uris": {"ios": "https://dc.lft.to/lastmile_qr_scan", "android": "https://dc.lft.to/lastmile_qr_scan"}, "is_reserved": 0, "fusion_lat": 0.0, "lon": -76.94978366666666}, {"lat": 38.9018265, "type": "electric_scooter", "is_disabled": 0, "name": "0417fd4cc9475aac9f477cee584c8054", "bike_id": "0417fd4cc9475aac9f477cee584c8054", "fusion_lon": 0.0, "rental_uris": {"ios": "https://dc.lft.to/lastmile_qr_scan", "android": "https://dc.lft.to/lastmile_qr_scan"}, "is_reserved": 0, "fusion_lat": 0.0, "lon": -77.0124715}, {"lat": 38.922310333333336, "type": "electric_scooter", "is_disabled": 0, "name": "8b1c9e49fc96a9e239796f5fbf70f637", "bike_id": "8b1c9e49fc96a9e239796f5fbf70f637", "fusion_lon": 0.0, "rental_uris": {"ios": "https://dc.lft.to/lastmile_qr_scan", "android": "https://dc.lft.to/lastmile_qr_scan"}, "is_reserved": 0, "fusion_lat": 0.0, "lon": -77.02835833333333}, {"lat": 38.93589766666667, "type": "electric_scooter", "is_disabled": 0, "name": "a8f3cb3547e00ef211855d4615dd102c", "bike_id": "a8f3cb3547e00ef211855d4615dd102c", "fusion_lon": 0.0, "rental_uris": {"ios": "https://dc.lft.to/lastmile_qr_scan", "android": "https://dc.lft.to/lastmile_qr_scan"}, "is_reserved": 0, "fusion_lat": 0.0, "lon": -77.058427}, {"lat": 38.903751666666665, "type": "electric_scooter", "is_disabled": 0, "name": "d8293dc85849bcf7a0922437258ae4cd", "bike_id": "d8293dc85849bcf7a0922437258ae4cd", "fusion_lon": 0.0, "rental_uris": {"ios": "https://dc.lft.to/lastmile_qr_scan", "android": "https://dc.lft.to/lastmile_qr_scan"}, "is_reserved": 0, "fusion_lat": 0.0, "lon": -77.01874433333333}, {"lat": 38.9132515, "type": "electric_scooter", "is_disabled": 0, "name": "f1f5c48760d69a1ffd62ed762e4bd8cb", "bike_id": "f1f5c48760d69a1ffd62ed762e4bd8cb", "fusion_lon": 0.0, "rental_uris": {"ios": "https://dc.lft.to/lastmile_qr_scan", "android": "https://dc.lft.to/lastmile_qr_scan"}, "is_reserved": 0, "fusion_lat": 0.0, "lon": -77.0317275}, {"lat": 38.92763433333333, "type": "electric_scooter", "is_disabled": 0, "name": "e8025bed2ad5e4cba3c78871856c4d99", "bike_id": "e8025bed2ad5e4cba3c78871856c4d99", "fusion_lon": 0.0, "rental_uris": {"ios": "https://dc.lft.to/lastmile_qr_scan", "android": "https://dc.lft.to/lastmile_qr_scan"}, "is_reserved": 0, "fusion_lat": 0.0, "lon": -77.03206716666666}, {"lat": 38.917802, "type": "electric_scooter", "is_disabled": 0, "name": "9f483d40915cb53c65d5a73f8ae6a2b7", "bike_id": "9f483d40915cb53c65d5a73f8ae6a2b7", "fusion_lon": 0.0, "rental_uris": {"ios": "https://dc.lft.to/lastmile_qr_scan", "android": "https://dc.lft.to/lastmile_qr_scan"}, "is_reserved": 0, "fusion_lat": 0.0, "lon": -77.04251283333333}, {"lat": 38.926938666666665, "type": "electric_scooter", "is_disabled": 0, "name": "d6f9589daea39b7b072de5ea5b6d76f6", "bike_id": "d6f9589daea39b7b072de5ea5b6d76f6", "fusion_lon": 0.0, "rental_uris": {"ios": "https://dc.lft.to/lastmile_qr_scan", "android": "https://dc.lft.to/lastmile_qr_scan"}, "is_reserved": 0, "fusion_lat": 0.0, "lon": -77.00768716666667}, {"lat": 38.90995016666667, "type": "electric_scooter", "is_disabled": 0, "name": "0d339566d1d3b6a7f0a0285b29c4f562", "bike_id": "0d339566d1d3b6a7f0a0285b29c4f562", "fusion_lon": 0.0, "rental_uris": {"ios": "https://dc.lft.to/lastmile_qr_scan", "android": "https://dc.lft.to/lastmile_qr_scan"}, "is_reserved": 0, "fusion_lat": 0.0, "lon": -77.0320375}, {"lat": 38.910518333333336, "type": "electric_scooter", "is_disabled": 0, "name": "75ab580f375285194201bf7c7abcb2a3", "bike_id": "75ab580f375285194201bf7c7abcb2a3", "fusion_lon": 0.0, "rental_uris": {"ios": "https://dc.lft.to/lastmile_qr_scan", "android": "https://dc.lft.to/lastmile_qr_scan"}, "is_reserved": 0, "fusion_lat": 0.0, "lon": -77.022009}, {"lat": 38.921828, "type": "electric_scooter", "is_disabled": 0, "name": "9f9c426bf0125fb71973ffefe0c1b330", "bike_id": "9f9c426bf0125fb71973ffefe0c1b330", "fusion_lon": 0.0, "rental_uris": {"ios": "https://dc.lft.to/lastmile_qr_scan", "android": "https://dc.lft.to/lastmile_qr_scan"}, "is_reserved": 0, "fusion_lat": 0.0, "lon": -77.04014333333333}, {"lat": 38.91025666666667, "type": "electric_scooter", "is_disabled": 0, "name": "2557aac21d435bc6ba4aec17332fffa9", "bike_id": "2557aac21d435bc6ba4aec17332fffa9", "fusion_lon": 0.0, "rental_uris": {"ios": "https://dc.lft.to/lastmile_qr_scan", "android": "https://dc.lft.to/lastmile_qr_scan"}, "is_reserved": 0, "fusion_lat": 0.0, "lon": -77.02939}, {"lat": 38.92901533333333, "type": "electric_scooter", "is_disabled": 0, "name": "5e244e895716cb0d664d1f4eb2b70932", "bike_id": "5e244e895716cb0d664d1f4eb2b70932", "fusion_lon": 0.0, "rental_uris": {"ios": "https://dc.lft.to/lastmile_qr_scan", "android": "https://dc.lft.to/lastmile_qr_scan"}, "is_reserved": 0, "fusion_lat": 0.0, "lon": -77.0325755}, {"lat": 38.920694166666664, "type": "electric_scooter", "is_disabled": 0, "name": "4f5bee7784813420e491f6b95fc20a71", "bike_id": "4f5bee7784813420e491f6b95fc20a71", "fusion_lon": 0.0, "rental_uris": {"ios": "https://dc.lft.to/lastmile_qr_scan", "android": "https://dc.lft.to/lastmile_qr_scan"}, "is_reserved": 0, "fusion_lat": 0.0, "lon": -77.04195533333333}, {"lat": 38.92547166666667, "type": "electric_scooter", "is_disabled": 0, "name": "6ae1326cd6794c5d73b7bf70d35723da", "bike_id": "6ae1326cd6794c5d73b7bf70d35723da", "fusion_lon": 0.0, "rental_uris": {"ios": "https://dc.lft.to/lastmile_qr_scan", "android": "https://dc.lft.to/lastmile_qr_scan"}, "is_reserved": 0, "fusion_lat": 0.0, "lon": -77.03800516666666}, {"lat": 38.91800083333333, "type": "electric_scooter", "is_disabled": 0, "name": "8fb6d2fc4f358010376b0ac080bd9649", "bike_id": "8fb6d2fc4f358010376b0ac080bd9649", "fusion_lon": 0.0, "rental_uris": {"ios": "https://dc.lft.to/lastmile_qr_scan", "android": "https://dc.lft.to/lastmile_qr_scan"}, "is_reserved": 0, "fusion_lat": 0.0, "lon": -77.03430166666666}, {"lat": 38.91416783333333, "type": "electric_scooter", "is_disabled": 0, "name": "a672b535f6ce494054fe3d5809ac1eda", "bike_id": "a672b535f6ce494054fe3d5809ac1eda", "fusion_lon": 0.0, "rental_uris": {"ios": "https://dc.lft.to/lastmile_qr_scan", "android": "https://dc.lft.to/lastmile_qr_scan"}, "is_reserved": 0, "fusion_lat": 0.0, "lon": -77.021613}, {"lat": 38.896254666666664, "type": "electric_scooter", "is_disabled": 0, "name": "a31920a902c2afa57be3afd869fbf347", "bike_id": "a31920a902c2afa57be3afd869fbf347", "fusion_lon": 0.0, "rental_uris": {"ios": "https://dc.lft.to/lastmile_qr_scan", "android": "https://dc.lft.to/lastmile_qr_scan"}, "is_reserved": 0, "fusion_lat": 0.0, "lon": -77.02866083333333}, {"lat": 38.924527833333336, "type": "electric_scooter", "is_disabled": 0, "name": "c1c179839278f40a150e2870cf6209cb", "bike_id": "c1c179839278f40a150e2870cf6209cb", "fusion_lon": 0.0, "rental_uris": {"ios": "https://dc.lft.to/lastmile_qr_scan", "android": "https://dc.lft.to/lastmile_qr_scan"}, "is_reserved": 0, "fusion_lat": 0.0, "lon": -77.040192}, {"lat": 38.92637716666667, "type": "electric_scooter", "is_disabled": 0, "name": "3b342634a5d923832e80790ec943fffd", "bike_id": "3b342634a5d923832e80790ec943fffd", "fusion_lon": 0.0, "rental_uris": {"ios": "https://dc.lft.to/lastmile_qr_scan", "android": "https://dc.lft.to/lastmile_qr_scan"}, "is_reserved": 0, "fusion_lat": 0.0, "lon": -77.01334283333334}, {"lat": 38.907793, "type": "electric_scooter", "is_disabled": 0, "name": "35d5eea3c67eb4110a7c6384dd701c27", "bike_id": "35d5eea3c67eb4110a7c6384dd701c27", "fusion_lon": 0.0, "rental_uris": {"ios": "https://dc.lft.to/lastmile_qr_scan", "android": "https://dc.lft.to/lastmile_qr_scan"}, "is_reserved": 0, "fusion_lat": 0.0, "lon": -76.99704583333333}, {"lat": 38.914007166666664, "type": "electric_scooter", "is_disabled": 0, "name": "3658ed3b4913870c4d5d4c6699c68bb4", "bike_id": "3658ed3b4913870c4d5d4c6699c68bb4", "fusion_lon": 0.0, "rental_uris": {"ios": "https://dc.lft.to/lastmile_qr_scan", "android": "https://dc.lft.to/lastmile_qr_scan"}, "is_reserved": 0, "fusion_lat": 0.0, "lon": -77.01826033333333}, {"lat": 38.901945166666664, "type": "electric_scooter", "is_disabled": 0, "name": "3a1fe221b736142bb598f27d956b4516", "bike_id": "3a1fe221b736142bb598f27d956b4516", "fusion_lon": 0.0, "rental_uris": {"ios": "https://dc.lft.to/lastmile_qr_scan", "android": "https://dc.lft.to/lastmile_qr_scan"}, "is_reserved": 0, "fusion_lat": 0.0, "lon": -77.0524835}, {"lat": 38.9132925, "type": "electric_scooter", "is_disabled": 0, "name": "d4aa28ad4cfdd68eb0d5372258ffcdd7", "bike_id": "d4aa28ad4cfdd68eb0d5372258ffcdd7", "fusion_lon": 0.0, "rental_uris": {"ios": "https://dc.lft.to/lastmile_qr_scan", "android": "https://dc.lft.to/lastmile_qr_scan"}, "is_reserved": 0, "fusion_lat": 0.0, "lon": -77.0318215}, {"lat": 38.899306333333335, "type": "electric_scooter", "is_disabled": 0, "name": "51567c53d4b9dc1b4c1ff02c452d7e2a", "bike_id": "51567c53d4b9dc1b4c1ff02c452d7e2a", "fusion_lon": 0.0, "rental_uris": {"ios": "https://dc.lft.to/lastmile_qr_scan", "android": "https://dc.lft.to/lastmile_qr_scan"}, "is_reserved": 0, "fusion_lat": 0.0, "lon": -77.04495416666667}, {"lat": 38.9164255, "type": "electric_scooter", "is_disabled": 0, "name": "cd64a58e661413624bbf4b06b948b1d3", "bike_id": "cd64a58e661413624bbf4b06b948b1d3", "fusion_lon": 0.0, "rental_uris": {"ios": "https://dc.lft.to/lastmile_qr_scan", "android": "https://dc.lft.to/lastmile_qr_scan"}, "is_reserved": 0, "fusion_lat": 0.0, "lon": -77.045678}, {"lat": 38.927614, "type": "electric_scooter", "is_disabled": 0, "name": "6781afbcf96f3ee4e9e0c5d2069b831d", "bike_id": "6781afbcf96f3ee4e9e0c5d2069b831d", "fusion_lon": 0.0, "rental_uris": {"ios": "https://dc.lft.to/lastmile_qr_scan", "android": "https://dc.lft.to/lastmile_qr_scan"}, "is_reserved": 0, "fusion_lat": 0.0, "lon": -77.027846}, {"lat": 38.9506185, "type": "electric_bike", "is_disabled": 0, "name": "33bbb8ce57f354ca5ca22d5185b286a5", "bike_id": "33bbb8ce57f354ca5ca22d5185b286a5", "fusion_lon": 0.0, "rental_uris": {"ios": "https://dc.lft.to/lastmile_qr_scan", "android": "https://dc.lft.to/lastmile_qr_scan"}, "is_reserved": 0, "fusion_lat": 0.0, "lon": -77.0663705}, {"lat": 38.92360883333333, "type": "electric_scooter", "is_disabled": 0, "name": "05512a6de0356ff1abbb5520997b6ff0", "bike_id": "05512a6de0356ff1abbb5520997b6ff0", "fusion_lon": 0.0, "rental_uris": {"ios": "https://dc.lft.to/lastmile_qr_scan", "android": "https://dc.lft.to/lastmile_qr_scan"}, "is_reserved": 0, "fusion_lat": 0.0, "lon": -77.01916983333334}, {"lat": 38.90028216666666, "type": "electric_scooter", "is_disabled": 0, "name": "b3abb1933356d24795e41c52c23dccac", "bike_id": "b3abb1933356d24795e41c52c23dccac", "fusion_lon": 0.0, "rental_uris": {"ios": "https://dc.lft.to/lastmile_qr_scan", "android": "https://dc.lft.to/lastmile_qr_scan"}, "is_reserved": 0, "fusion_lat": 0.0, "lon": -77.01186333333334}, {"lat": 38.93535933333333, "type": "electric_scooter", "is_disabled": 0, "name": "939a8c786b4a20f70476b08440f17965", "bike_id": "939a8c786b4a20f70476b08440f17965", "fusion_lon": 0.0, "rental_uris": {"ios": "https://dc.lft.to/lastmile_qr_scan", "android": "https://dc.lft.to/lastmile_qr_scan"}, "is_reserved": 0, "fusion_lat": 0.0, "lon": -77.0235225}, {"lat": 38.936225, "type": "electric_scooter", "is_disabled": 0, "name": "24c65cca41e366ba4e97d955530a8a2e", "bike_id": "24c65cca41e366ba4e97d955530a8a2e", "fusion_lon": 0.0, "rental_uris": {"ios": "https://dc.lft.to/lastmile_qr_scan", "android": "https://dc.lft.to/lastmile_qr_scan"}, "is_reserved": 0, "fusion_lat": 0.0, "lon": -77.0642915}, {"lat": 38.903074, "type": "electric_scooter", "is_disabled": 0, "name": "0b168d57462119afe5c12829807c569e", "bike_id": "0b168d57462119afe5c12829807c569e", "fusion_lon": 0.0, "rental_uris": {"ios": "https://dc.lft.to/lastmile_qr_scan", "android": "https://dc.lft.to/lastmile_qr_scan"}, "is_reserved": 0, "fusion_lat": 0.0, "lon": -76.97507}, {"lat": 38.884337, "type": "electric_scooter", "is_disabled": 0, "name": "b4e83abc61d4d4aecf839a5a175f010a", "bike_id": "b4e83abc61d4d4aecf839a5a175f010a", "fusion_lon": 0.0, "rental_uris": {"ios": "https://dc.lft.to/lastmile_qr_scan", "android": "https://dc.lft.to/lastmile_qr_scan"}, "is_reserved": 0, "fusion_lat": 0.0, "lon": -76.9972705}, {"lat": 38.9250685, "type": "electric_scooter", "is_disabled": 0, "name": "ba48242aafcb1e9a13bc5a7bccdf7c33", "bike_id": "ba48242aafcb1e9a13bc5a7bccdf7c33", "fusion_lon": 0.0, "rental_uris": {"ios": "https://dc.lft.to/lastmile_qr_scan", "android": "https://dc.lft.to/lastmile_qr_scan"}, "is_reserved": 0, "fusion_lat": 0.0, "lon": -77.02574016666667}, {"lat": 38.915751, "type": "electric_scooter", "is_disabled": 0, "name": "0f022f759e1202ddc4fa7966479a174d", "bike_id": "0f022f759e1202ddc4fa7966479a174d", "fusion_lon": 0.0, "rental_uris": {"ios": "https://dc.lft.to/lastmile_qr_scan", "android": "https://dc.lft.to/lastmile_qr_scan"}, "is_reserved": 0, "fusion_lat": 0.0, "lon": -77.06787066666666}, {"lat": 38.92130066666667, "type": "electric_scooter", "is_disabled": 0, "name": "df8729a8fe4ef99adc43ff15ee365be3", "bike_id": "df8729a8fe4ef99adc43ff15ee365be3", "fusion_lon": 0.0, "rental_uris": {"ios": "https://dc.lft.to/lastmile_qr_scan", "android": "https://dc.lft.to/lastmile_qr_scan"}, "is_reserved": 0, "fusion_lat": 0.0, "lon": -77.01803366666667}, {"lat": 38.92449766666667, "type": "electric_scooter", "is_disabled": 0, "name": "68ee0631589c630a9e7958b71ae283de", "bike_id": "68ee0631589c630a9e7958b71ae283de", "fusion_lon": 0.0, "rental_uris": {"ios": "https://dc.lft.to/lastmile_qr_scan", "android": "https://dc.lft.to/lastmile_qr_scan"}, "is_reserved": 0, "fusion_lat": 0.0, "lon": -76.96826433333334}, {"lat": 38.91990116666667, "type": "electric_scooter", "is_disabled": 0, "name": "c6236a43c75a9737d5719269a9230f5d", "bike_id": "c6236a43c75a9737d5719269a9230f5d", "fusion_lon": 0.0, "rental_uris": {"ios": "https://dc.lft.to/lastmile_qr_scan", "android": "https://dc.lft.to/lastmile_qr_scan"}, "is_reserved": 0, "fusion_lat": 0.0, "lon": -77.02182533333334}, {"lat": 38.93978033333333, "type": "electric_scooter", "is_disabled": 0, "name": "be5f26dd5cb22efd3f99c5e9c0ae1756", "bike_id": "be5f26dd5cb22efd3f99c5e9c0ae1756", "fusion_lon": 0.0, "rental_uris": {"ios": "https://dc.lft.to/lastmile_qr_scan", "android": "https://dc.lft.to/lastmile_qr_scan"}, "is_reserved": 0, "fusion_lat": 0.0, "lon": -77.03020966666666}, {"lat": 38.9183265, "type": "electric_bike", "is_disabled": 0, "name": "96bf5bf0986e012495a516e1214e98b7", "bike_id": "96bf5bf0986e012495a516e1214e98b7", "fusion_lon": 0.0, "rental_uris": {"ios": "https://dc.lft.to/lastmile_qr_scan", "android": "https://dc.lft.to/lastmile_qr_scan"}, "is_reserved": 0, "fusion_lat": 0.0, "lon": -77.0610305}, {"lat": 38.872832, "type": "electric_scooter", "is_disabled": 0, "name": "1b4e6c6c2d1016dc2e2e84b3f81f8215", "bike_id": "1b4e6c6c2d1016dc2e2e84b3f81f8215", "fusion_lon": 0.0, "rental_uris": {"ios": "https://dc.lft.to/lastmile_qr_scan", "android": "https://dc.lft.to/lastmile_qr_scan"}, "is_reserved": 0, "fusion_lat": 0.0, "lon": -77.0158765}, {"lat": 38.865231666666666, "type": "electric_scooter", "is_disabled": 0, "name": "a5fb81914175d1efb270624d1efb8015", "bike_id": "a5fb81914175d1efb270624d1efb8015", "fusion_lon": 0.0, "rental_uris": {"ios": "https://dc.lft.to/lastmile_qr_scan", "android": "https://dc.lft.to/lastmile_qr_scan"}, "is_reserved": 0, "fusion_lat": 0.0, "lon": -76.96905516666666}, {"lat": 38.88440216666667, "type": "electric_scooter", "is_disabled": 0, "name": "0bf03e45361bd32694f96c82e7ab4e05", "bike_id": "0bf03e45361bd32694f96c82e7ab4e05", "fusion_lon": 0.0, "rental_uris": {"ios": "https://dc.lft.to/lastmile_qr_scan", "android": "https://dc.lft.to/lastmile_qr_scan"}, "is_reserved": 0, "fusion_lat": 0.0, "lon": -76.95769033333333}, {"lat": 38.92232383333333, "type": "electric_scooter", "is_disabled": 0, "name": "3d860f3350adcb623d014dcc56d2b9e2", "bike_id": "3d860f3350adcb623d014dcc56d2b9e2", "fusion_lon": 0.0, "rental_uris": {"ios": "https://dc.lft.to/lastmile_qr_scan", "android": "https://dc.lft.to/lastmile_qr_scan"}, "is_reserved": 0, "fusion_lat": 0.0, "lon": -77.0430805}, {"lat": 38.92962, "type": "electric_scooter", "is_disabled": 0, "name": "5ba93850fe8e93b8b6b7d39ca630c13d", "bike_id": "5ba93850fe8e93b8b6b7d39ca630c13d", "fusion_lon": 0.0, "rental_uris": {"ios": "https://dc.lft.to/lastmile_qr_scan", "android": "https://dc.lft.to/lastmile_qr_scan"}, "is_reserved": 0, "fusion_lat": 0.0, "lon": -77.0412755}, {"lat": 38.884976, "type": "electric_scooter", "is_disabled": 0, "name": "1033ddd2e6837d26bdce7fdaf53dc9b5", "bike_id": "1033ddd2e6837d26bdce7fdaf53dc9b5", "fusion_lon": 0.0, "rental_uris": {"ios": "https://dc.lft.to/lastmile_qr_scan", "android": "https://dc.lft.to/lastmile_qr_scan"}, "is_reserved": 0, "fusion_lat": 0.0, "lon": -77.014718}, {"lat": 38.930807333333334, "type": "electric_scooter", "is_disabled": 0, "name": "ac51e880f36171c19fa8489491232ebc", "bike_id": "ac51e880f36171c19fa8489491232ebc", "fusion_lon": 0.0, "rental_uris": {"ios": "https://dc.lft.to/lastmile_qr_scan", "android": "https://dc.lft.to/lastmile_qr_scan"}, "is_reserved": 0, "fusion_lat": 0.0, "lon": -77.02794283333333}, {"lat": 38.90381516666667, "type": "electric_scooter", "is_disabled": 0, "name": "ad588d03c526ea77e32022c916ff1bba", "bike_id": "ad588d03c526ea77e32022c916ff1bba", "fusion_lon": 0.0, "rental_uris": {"ios": "https://dc.lft.to/lastmile_qr_scan", "android": "https://dc.lft.to/lastmile_qr_scan"}, "is_reserved": 0, "fusion_lat": 0.0, "lon": -77.05335783333334}, {"lat": 38.908758, "type": "electric_scooter", "is_disabled": 0, "name": "dfcc2b912eed6472fef443b50f49ca0a", "bike_id": "dfcc2b912eed6472fef443b50f49ca0a", "fusion_lon": 0.0, "rental_uris": {"ios": "https://dc.lft.to/lastmile_qr_scan", "android": "https://dc.lft.to/lastmile_qr_scan"}, "is_reserved": 0, "fusion_lat": 0.0, "lon": -77.040628}, {"lat": 38.9183445, "type": "electric_scooter", "is_disabled": 0, "name": "d7eec2b997b623c63d0e48281ee04e71", "bike_id": "d7eec2b997b623c63d0e48281ee04e71", "fusion_lon": 0.0, "rental_uris": {"ios": "https://dc.lft.to/lastmile_qr_scan", "android": "https://dc.lft.to/lastmile_qr_scan"}, "is_reserved": 0, "fusion_lat": 0.0, "lon": -77.05325216666667}, {"lat": 38.909626333333335, "type": "electric_scooter", "is_disabled": 0, "name": "89a2f1e2c66bfc0843cbb6d8a23c9764", "bike_id": "89a2f1e2c66bfc0843cbb6d8a23c9764", "fusion_lon": 0.0, "rental_uris": {"ios": "https://dc.lft.to/lastmile_qr_scan", "android": "https://dc.lft.to/lastmile_qr_scan"}, "is_reserved": 0, "fusion_lat": 0.0, "lon": -77.01039383333334}, {"lat": 38.907765, "type": "electric_scooter", "is_disabled": 0, "name": "0ebd00bf02dd46da384b4f27992c22b1", "bike_id": "0ebd00bf02dd46da384b4f27992c22b1", "fusion_lon": 0.0, "rental_uris": {"ios": "https://dc.lft.to/lastmile_qr_scan", "android": "https://dc.lft.to/lastmile_qr_scan"}, "is_reserved": 0, "fusion_lat": 0.0, "lon": -77.0183145}, {"lat": 38.918121, "type": "electric_scooter", "is_disabled": 0, "name": "405d99e1a3c7858188f173eb60995dbf", "bike_id": "405d99e1a3c7858188f173eb60995dbf", "fusion_lon": 0.0, "rental_uris": {"ios": "https://dc.lft.to/lastmile_qr_scan", "android": "https://dc.lft.to/lastmile_qr_scan"}, "is_reserved": 0, "fusion_lat": 0.0, "lon": -77.024778}, {"lat": 38.89243366666667, "type": "electric_scooter", "is_disabled": 0, "name": "51a32aa036e7fe9618fcad10de0f14db", "bike_id": "51a32aa036e7fe9618fcad10de0f14db", "fusion_lon": 0.0, "rental_uris": {"ios": "https://dc.lft.to/lastmile_qr_scan", "android": "https://dc.lft.to/lastmile_qr_scan"}, "is_reserved": 0, "fusion_lat": 0.0, "lon": -77.03960383333333}, {"lat": 38.92466666666667, "type": "electric_scooter", "is_disabled": 0, "name": "7d32557a1e88066dc119118ee6efd21a", "bike_id": "7d32557a1e88066dc119118ee6efd21a", "fusion_lon": 0.0, "rental_uris": {"ios": "https://dc.lft.to/lastmile_qr_scan", "android": "https://dc.lft.to/lastmile_qr_scan"}, "is_reserved": 0, "fusion_lat": 0.0, "lon": -77.02715383333333}, {"lat": 38.90724633333333, "type": "electric_scooter", "is_disabled": 0, "name": "d83f29bf64ef6b6c4565681654c9def4", "bike_id": "d83f29bf64ef6b6c4565681654c9def4", "fusion_lon": 0.0, "rental_uris": {"ios": "https://dc.lft.to/lastmile_qr_scan", "android": "https://dc.lft.to/lastmile_qr_scan"}, "is_reserved": 0, "fusion_lat": 0.0, "lon": -76.99819516666666}, {"lat": 38.83832866666667, "type": "electric_bike", "is_disabled": 0, "name": "9b59695fa01ef8267b9db9178ba4e96b", "bike_id": "9b59695fa01ef8267b9db9178ba4e96b", "fusion_lon": 0.0, "rental_uris": {"ios": "https://dc.lft.to/lastmile_qr_scan", "android": "https://dc.lft.to/lastmile_qr_scan"}, "is_reserved": 0, "fusion_lat": 0.0, "lon": -76.99664633333333}, {"lat": 38.9025425, "type": "electric_scooter", "is_disabled": 0, "name": "e65d9c253a9709bc10f39b4ac097341c", "bike_id": "e65d9c253a9709bc10f39b4ac097341c", "fusion_lon": 0.0, "rental_uris": {"ios": "https://dc.lft.to/lastmile_qr_scan", "android": "https://dc.lft.to/lastmile_qr_scan"}, "is_reserved": 0, "fusion_lat": 0.0, "lon": -77.04447216666667}, {"lat": 38.908590333333336, "type": "electric_bike", "is_disabled": 0, "name": "315092f2d024a421c478d05b1a25a1a5", "bike_id": "315092f2d024a421c478d05b1a25a1a5", "fusion_lon": 0.0, "rental_uris": {"ios": "https://dc.lft.to/lastmile_qr_scan", "android": "https://dc.lft.to/lastmile_qr_scan"}, "is_reserved": 0, "fusion_lat": 0.0, "lon": -77.080788}, {"lat": 38.897562666666666, "type": "electric_scooter", "is_disabled": 0, "name": "64bb5b64ba696146e9cc0541202f31ac", "bike_id": "64bb5b64ba696146e9cc0541202f31ac", "fusion_lon": 0.0, "rental_uris": {"ios": "https://dc.lft.to/lastmile_qr_scan", "android": "https://dc.lft.to/lastmile_qr_scan"}, "is_reserved": 0, "fusion_lat": 0.0, "lon": -77.00952166666667}, {"lat": 38.918055833333334, "type": "electric_scooter", "is_disabled": 0, "name": "bf81cb0e01084ebef8504897acf99a77", "bike_id": "bf81cb0e01084ebef8504897acf99a77", "fusion_lon": 0.0, "rental_uris": {"ios": "https://dc.lft.to/lastmile_qr_scan", "android": "https://dc.lft.to/lastmile_qr_scan"}, "is_reserved": 0, "fusion_lat": 0.0, "lon": -77.02717933333334}, {"lat": 38.928621166666666, "type": "electric_scooter", "is_disabled": 0, "name": "5b8c85081babf65e69ad8c97995b2254", "bike_id": "5b8c85081babf65e69ad8c97995b2254", "fusion_lon": 0.0, "rental_uris": {"ios": "https://dc.lft.to/lastmile_qr_scan", "android": "https://dc.lft.to/lastmile_qr_scan"}, "is_reserved": 0, "fusion_lat": 0.0, "lon": -77.03714566666666}, {"lat": 38.93188, "type": "electric_scooter", "is_disabled": 0, "name": "8b873c5f7b17e545399c339825964139", "bike_id": "8b873c5f7b17e545399c339825964139", "fusion_lon": 0.0, "rental_uris": {"ios": "https://dc.lft.to/lastmile_qr_scan", "android": "https://dc.lft.to/lastmile_qr_scan"}, "is_reserved": 0, "fusion_lat": 0.0, "lon": -77.02837766666667}, {"lat": 38.9203115, "type": "electric_scooter", "is_disabled": 0, "name": "19fdc08f6006cffd684d981589c46e83", "bike_id": "19fdc08f6006cffd684d981589c46e83", "fusion_lon": 0.0, "rental_uris": {"ios": "https://dc.lft.to/lastmile_qr_scan", "android": "https://dc.lft.to/lastmile_qr_scan"}, "is_reserved": 0, "fusion_lat": 0.0, "lon": -77.01216616666666}, {"lat": 38.92367766666667, "type": "electric_scooter", "is_disabled": 0, "name": "f37fa7b1b9e270e6b05147d5729127ea", "bike_id": "f37fa7b1b9e270e6b05147d5729127ea", "fusion_lon": 0.0, "rental_uris": {"ios": "https://dc.lft.to/lastmile_qr_scan", "android": "https://dc.lft.to/lastmile_qr_scan"}, "is_reserved": 0, "fusion_lat": 0.0, "lon": -77.0269995}, {"lat": 38.89501166666667, "type": "electric_scooter", "is_disabled": 0, "name": "f5bf573404efdc743270c17aab87adc6", "bike_id": "f5bf573404efdc743270c17aab87adc6", "fusion_lon": 0.0, "rental_uris": {"ios": "https://dc.lft.to/lastmile_qr_scan", "android": "https://dc.lft.to/lastmile_qr_scan"}, "is_reserved": 0, "fusion_lat": 0.0, "lon": -77.022913}, {"lat": 38.9329365, "type": "electric_scooter", "is_disabled": 0, "name": "858e21072b7dd66664a4520c71f02aea", "bike_id": "858e21072b7dd66664a4520c71f02aea", "fusion_lon": 0.0, "rental_uris": {"ios": "https://dc.lft.to/lastmile_qr_scan", "android": "https://dc.lft.to/lastmile_qr_scan"}, "is_reserved": 0, "fusion_lat": 0.0, "lon": -77.02292166666666}, {"lat": 38.92479633333333, "type": "electric_scooter", "is_disabled": 0, "name": "97524f600ae4ec18475e817b67a039dd", "bike_id": "97524f600ae4ec18475e817b67a039dd", "fusion_lon": 0.0, "rental_uris": {"ios": "https://dc.lft.to/lastmile_qr_scan", "android": "https://dc.lft.to/lastmile_qr_scan"}, "is_reserved": 0, "fusion_lat": 0.0, "lon": -77.05099583333333}, {"lat": 38.908520833333334, "type": "electric_scooter", "is_disabled": 0, "name": "f1f6c312b9107e4ef7d6b4b288bd41a1", "bike_id": "f1f6c312b9107e4ef7d6b4b288bd41a1", "fusion_lon": 0.0, "rental_uris": {"ios": "https://dc.lft.to/lastmile_qr_scan", "android": "https://dc.lft.to/lastmile_qr_scan"}, "is_reserved": 0, "fusion_lat": 0.0, "lon": -77.01022033333334}, {"lat": 38.924818, "type": "electric_scooter", "is_disabled": 0, "name": "464892078dc84a33162b9fddfcea88fe", "bike_id": "464892078dc84a33162b9fddfcea88fe", "fusion_lon": 0.0, "rental_uris": {"ios": "https://dc.lft.to/lastmile_qr_scan", "android": "https://dc.lft.to/lastmile_qr_scan"}, "is_reserved": 0, "fusion_lat": 0.0, "lon": -77.0227445}, {"lat": 38.92790266666667, "type": "electric_scooter", "is_disabled": 0, "name": "957ad5ff06abac71630afb3ac615aa5b", "bike_id": "957ad5ff06abac71630afb3ac615aa5b", "fusion_lon": 0.0, "rental_uris": {"ios": "https://dc.lft.to/lastmile_qr_scan", "android": "https://dc.lft.to/lastmile_qr_scan"}, "is_reserved": 0, "fusion_lat": 0.0, "lon": -77.03718183333334}, {"lat": 38.994147, "type": "electric_bike", "is_disabled": 0, "name": "eac2a43a7fa938467e0f72f40eaf270d", "bike_id": "eac2a43a7fa938467e0f72f40eaf270d", "fusion_lon": 0.0, "rental_uris": {"ios": "https://dc.lft.to/lastmile_qr_scan", "android": "https://dc.lft.to/lastmile_qr_scan"}, "is_reserved": 0, "fusion_lat": 0.0, "lon": -77.01799516666667}, {"lat": 38.9371815, "type": "electric_scooter", "is_disabled": 0, "name": "76191cbb1cee4f0889c58bac2ae54013", "bike_id": "76191cbb1cee4f0889c58bac2ae54013", "fusion_lon": 0.0, "rental_uris": {"ios": "https://dc.lft.to/lastmile_qr_scan", "android": "https://dc.lft.to/lastmile_qr_scan"}, "is_reserved": 0, "fusion_lat": 0.0, "lon": -77.03291033333333}, {"lat": 38.89357916666667, "type": "electric_scooter", "is_disabled": 0, "name": "e74763cb448aa5a6b282080dd740b75f", "bike_id": "e74763cb448aa5a6b282080dd740b75f", "fusion_lon": 0.0, "rental_uris": {"ios": "https://dc.lft.to/lastmile_qr_scan", "android": "https://dc.lft.to/lastmile_qr_scan"}, "is_reserved": 0, "fusion_lat": 0.0, "lon": -77.00333733333333}, {"lat": 38.887125833333336, "type": "electric_scooter", "is_disabled": 0, "name": "dc44346c9e7979f45b2f01c9d82f3ed7", "bike_id": "dc44346c9e7979f45b2f01c9d82f3ed7", "fusion_lon": 0.0, "rental_uris": {"ios": "https://dc.lft.to/lastmile_qr_scan", "android": "https://dc.lft.to/lastmile_qr_scan"}, "is_reserved": 0, "fusion_lat": 0.0, "lon": -76.98339766666666}, {"lat": 38.944750666666664, "type": "electric_bike", "is_disabled": 0, "name": "de56aec0e0e55695041f1152bfbffd7f", "bike_id": "de56aec0e0e55695041f1152bfbffd7f", "fusion_lon": 0.0, "rental_uris": {"ios": "https://dc.lft.to/lastmile_qr_scan", "android": "https://dc.lft.to/lastmile_qr_scan"}, "is_reserved": 0, "fusion_lat": 0.0, "lon": -76.98693266666666}, {"lat": 38.9417975, "type": "electric_scooter", "is_disabled": 0, "name": "9f98dedbfca8c632f705a41838a51788", "bike_id": "9f98dedbfca8c632f705a41838a51788", "fusion_lon": 0.0, "rental_uris": {"ios": "https://dc.lft.to/lastmile_qr_scan", "android": "https://dc.lft.to/lastmile_qr_scan"}, "is_reserved": 0, "fusion_lat": 0.0, "lon": -77.0314995}, {"lat": 38.920674, "type": "electric_scooter", "is_disabled": 0, "name": "400b5a5c3e4123b52d75751b69efd5ae", "bike_id": "400b5a5c3e4123b52d75751b69efd5ae", "fusion_lon": 0.0, "rental_uris": {"ios": "https://dc.lft.to/lastmile_qr_scan", "android": "https://dc.lft.to/lastmile_qr_scan"}, "is_reserved": 0, "fusion_lat": 0.0, "lon": -77.02213466666667}, {"lat": 38.942394166666666, "type": "electric_scooter", "is_disabled": 0, "name": "d9137964602250a448877680f3fbbea6", "bike_id": "d9137964602250a448877680f3fbbea6", "fusion_lon": 0.0, "rental_uris": {"ios": "https://dc.lft.to/lastmile_qr_scan", "android": "https://dc.lft.to/lastmile_qr_scan"}, "is_reserved": 0, "fusion_lat": 0.0, "lon": -77.025774}, {"lat": 38.920333666666664, "type": "electric_scooter", "is_disabled": 0, "name": "b75f680439272c8c49e27473cb5a56be", "bike_id": "b75f680439272c8c49e27473cb5a56be", "fusion_lon": 0.0, "rental_uris": {"ios": "https://dc.lft.to/lastmile_qr_scan", "android": "https://dc.lft.to/lastmile_qr_scan"}, "is_reserved": 0, "fusion_lat": 0.0, "lon": -77.01219966666666}, {"lat": 38.8449955, "type": "electric_bike", "is_disabled": 0, "name": "64da75d80e185dd572eb9c23655402d7", "bike_id": "64da75d80e185dd572eb9c23655402d7", "fusion_lon": 0.0, "rental_uris": {"ios": "https://dc.lft.to/lastmile_qr_scan", "android": "https://dc.lft.to/lastmile_qr_scan"}, "is_reserved": 0, "fusion_lat": 0.0, "lon": -76.9936295}, {"lat": 38.89708866666667, "type": "electric_scooter", "is_disabled": 0, "name": "b98ef652e42c1ac640974bb90928028a", "bike_id": "b98ef652e42c1ac640974bb90928028a", "fusion_lon": 0.0, "rental_uris": {"ios": "https://dc.lft.to/lastmile_qr_scan", "android": "https://dc.lft.to/lastmile_qr_scan"}, "is_reserved": 0, "fusion_lat": 0.0, "lon": -77.0083685}, {"lat": 38.87522383333334, "type": "electric_scooter", "is_disabled": 0, "name": "69f0cd57e30501a80561d912b08e14e2", "bike_id": "69f0cd57e30501a80561d912b08e14e2", "fusion_lon": 0.0, "rental_uris": {"ios": "https://dc.lft.to/lastmile_qr_scan", "android": "https://dc.lft.to/lastmile_qr_scan"}, "is_reserved": 0, "fusion_lat": 0.0, "lon": -77.01231266666667}, {"lat": 38.925444, "type": "electric_scooter", "is_disabled": 0, "name": "5e8936ab84f1e314e9630843b74ed471", "bike_id": "5e8936ab84f1e314e9630843b74ed471", "fusion_lon": 0.0, "rental_uris": {"ios": "https://dc.lft.to/lastmile_qr_scan", "android": "https://dc.lft.to/lastmile_qr_scan"}, "is_reserved": 0, "fusion_lat": 0.0, "lon": -77.00065483333333}, {"lat": 38.9281895, "type": "electric_scooter", "is_disabled": 0, "name": "2d212b0e92391febc2611bc67b5acc4b", "bike_id": "2d212b0e92391febc2611bc67b5acc4b", "fusion_lon": 0.0, "rental_uris": {"ios": "https://dc.lft.to/lastmile_qr_scan", "android": "https://dc.lft.to/lastmile_qr_scan"}, "is_reserved": 0, "fusion_lat": 0.0, "lon": -77.02303283333333}, {"lat": 38.93717933333333, "type": "electric_scooter", "is_disabled": 0, "name": "54b473c686ce34d765060cff5fe76491", "bike_id": "54b473c686ce34d765060cff5fe76491", "fusion_lon": 0.0, "rental_uris": {"ios": "https://dc.lft.to/lastmile_qr_scan", "android": "https://dc.lft.to/lastmile_qr_scan"}, "is_reserved": 0, "fusion_lat": 0.0, "lon": -77.024236}, {"lat": 38.872954, "type": "electric_scooter", "is_disabled": 0, "name": "436d8d0a86e3efa6b66dee53c33c4585", "bike_id": "436d8d0a86e3efa6b66dee53c33c4585", "fusion_lon": 0.0, "rental_uris": {"ios": "https://dc.lft.to/lastmile_qr_scan", "android": "https://dc.lft.to/lastmile_qr_scan"}, "is_reserved": 0, "fusion_lat": 0.0, "lon": -77.00988183333334}, {"lat": 38.958899833333334, "type": "electric_scooter", "is_disabled": 0, "name": "a80c1455216a4718cc17167a509c4856", "bike_id": "a80c1455216a4718cc17167a509c4856", "fusion_lon": 0.0, "rental_uris": {"ios": "https://dc.lft.to/lastmile_qr_scan", "android": "https://dc.lft.to/lastmile_qr_scan"}, "is_reserved": 0, "fusion_lat": 0.0, "lon": -77.00014983333334}, {"lat": 38.924246333333336, "type": "electric_scooter", "is_disabled": 0, "name": "f28255a71bde2c0eab01131999d09c14", "bike_id": "f28255a71bde2c0eab01131999d09c14", "fusion_lon": 0.0, "rental_uris": {"ios": "https://dc.lft.to/lastmile_qr_scan", "android": "https://dc.lft.to/lastmile_qr_scan"}, "is_reserved": 0, "fusion_lat": 0.0, "lon": -77.05178616666667}, {"lat": 38.91231966666667, "type": "electric_scooter", "is_disabled": 0, "name": "da7698b9c9d4dc8e5aa74f724c2962da", "bike_id": "da7698b9c9d4dc8e5aa74f724c2962da", "fusion_lon": 0.0, "rental_uris": {"ios": "https://dc.lft.to/lastmile_qr_scan", "android": "https://dc.lft.to/lastmile_qr_scan"}, "is_reserved": 0, "fusion_lat": 0.0, "lon": -77.0659085}, {"lat": 38.915528333333334, "type": "electric_scooter", "is_disabled": 0, "name": "a622682c820eda07d389a68d05727a9a", "bike_id": "a622682c820eda07d389a68d05727a9a", "fusion_lon": 0.0, "rental_uris": {"ios": "https://dc.lft.to/lastmile_qr_scan", "android": "https://dc.lft.to/lastmile_qr_scan"}, "is_reserved": 0, "fusion_lat": 0.0, "lon": -77.048715}, {"lat": 38.933219, "type": "electric_scooter", "is_disabled": 0, "name": "98a320ecf55a328da3e726e9b78689cf", "bike_id": "98a320ecf55a328da3e726e9b78689cf", "fusion_lon": 0.0, "rental_uris": {"ios": "https://dc.lft.to/lastmile_qr_scan", "android": "https://dc.lft.to/lastmile_qr_scan"}, "is_reserved": 0, "fusion_lat": 0.0, "lon": -77.02926266666667}, {"lat": 38.89614783333333, "type": "electric_scooter", "is_disabled": 0, "name": "f2209cef55b2287bb465284abebe2aa4", "bike_id": "f2209cef55b2287bb465284abebe2aa4", "fusion_lon": 0.0, "rental_uris": {"ios": "https://dc.lft.to/lastmile_qr_scan", "android": "https://dc.lft.to/lastmile_qr_scan"}, "is_reserved": 0, "fusion_lat": 0.0, "lon": -77.04042916666667}, {"lat": 38.94508583333333, "type": "electric_bike", "is_disabled": 0, "name": "42367375edfaccd50928a000f594c977", "bike_id": "42367375edfaccd50928a000f594c977", "fusion_lon": 0.0, "rental_uris": {"ios": "https://dc.lft.to/lastmile_qr_scan", "android": "https://dc.lft.to/lastmile_qr_scan"}, "is_reserved": 0, "fusion_lat": 0.0, "lon": -77.00681}, {"lat": 38.945010833333335, "type": "electric_scooter", "is_disabled": 0, "name": "ab282d94fb81ea44a2cb6a76e30a9f6e", "bike_id": "ab282d94fb81ea44a2cb6a76e30a9f6e", "fusion_lon": 0.0, "rental_uris": {"ios": "https://dc.lft.to/lastmile_qr_scan", "android": "https://dc.lft.to/lastmile_qr_scan"}, "is_reserved": 0, "fusion_lat": 0.0, "lon": -77.03424116666666}, {"lat": 38.90650433333333, "type": "electric_scooter", "is_disabled": 0, "name": "b5335d63d559c0502dcb54c77088d756", "bike_id": "b5335d63d559c0502dcb54c77088d756", "fusion_lon": 0.0, "rental_uris": {"ios": "https://dc.lft.to/lastmile_qr_scan", "android": "https://dc.lft.to/lastmile_qr_scan"}, "is_reserved": 0, "fusion_lat": 0.0, "lon": -77.04292333333333}, {"lat": 38.91798466666667, "type": "electric_scooter", "is_disabled": 0, "name": "1ca1fd43605cd6591bca13c0c2fb5c72", "bike_id": "1ca1fd43605cd6591bca13c0c2fb5c72", "fusion_lon": 0.0, "rental_uris": {"ios": "https://dc.lft.to/lastmile_qr_scan", "android": "https://dc.lft.to/lastmile_qr_scan"}, "is_reserved": 0, "fusion_lat": 0.0, "lon": -77.040168}, {"lat": 38.909688333333335, "type": "electric_scooter", "is_disabled": 0, "name": "982133ab9a7b3563be55d20d18e35a82", "bike_id": "982133ab9a7b3563be55d20d18e35a82", "fusion_lon": 0.0, "rental_uris": {"ios": "https://dc.lft.to/lastmile_qr_scan", "android": "https://dc.lft.to/lastmile_qr_scan"}, "is_reserved": 0, "fusion_lat": 0.0, "lon": -76.98461533333334}, {"lat": 38.93974133333333, "type": "electric_bike", "is_disabled": 0, "name": "d5af1fd63a5e2045c554845bd4272ea5", "bike_id": "d5af1fd63a5e2045c554845bd4272ea5", "fusion_lon": 0.0, "rental_uris": {"ios": "https://dc.lft.to/lastmile_qr_scan", "android": "https://dc.lft.to/lastmile_qr_scan"}, "is_reserved": 0, "fusion_lat": 0.0, "lon": -76.98615333333333}, {"lat": 38.8656225, "type": "electric_bike", "is_disabled": 0, "name": "23dd9135d18a46e9402233040c330d61", "bike_id": "23dd9135d18a46e9402233040c330d61", "fusion_lon": 0.0, "rental_uris": {"ios": "https://dc.lft.to/lastmile_qr_scan", "android": "https://dc.lft.to/lastmile_qr_scan"}, "is_reserved": 0, "fusion_lat": 0.0, "lon": -76.974749}, {"lat": 38.82432166666667, "type": "electric_bike", "is_disabled": 0, "name": "58329bf6da75ea17bd9e2bc10eedfd04", "bike_id": "58329bf6da75ea17bd9e2bc10eedfd04", "fusion_lon": 0.0, "rental_uris": {"ios": "https://dc.lft.to/lastmile_qr_scan", "android": "https://dc.lft.to/lastmile_qr_scan"}, "is_reserved": 0, "fusion_lat": 0.0, "lon": -77.120407}, {"lat": 38.923302666666665, "type": "electric_scooter", "is_disabled": 0, "name": "6a59fff544c3ced15726f5e3683b28ec", "bike_id": "6a59fff544c3ced15726f5e3683b28ec", "fusion_lon": 0.0, "rental_uris": {"ios": "https://dc.lft.to/lastmile_qr_scan", "android": "https://dc.lft.to/lastmile_qr_scan"}, "is_reserved": 0, "fusion_lat": 0.0, "lon": -77.02962866666667}, {"lat": 38.922285, "type": "electric_scooter", "is_disabled": 0, "name": "4bcce530ea4eb29a61ced10ab94f2a30", "bike_id": "4bcce530ea4eb29a61ced10ab94f2a30", "fusion_lon": 0.0, "rental_uris": {"ios": "https://dc.lft.to/lastmile_qr_scan", "android": "https://dc.lft.to/lastmile_qr_scan"}, "is_reserved": 0, "fusion_lat": 0.0, "lon": -77.044625}, {"lat": 38.9208085, "type": "electric_scooter", "is_disabled": 0, "name": "5d3cf22c3baad673005ceb60c1aa7bc4", "bike_id": "5d3cf22c3baad673005ceb60c1aa7bc4", "fusion_lon": 0.0, "rental_uris": {"ios": "https://dc.lft.to/lastmile_qr_scan", "android": "https://dc.lft.to/lastmile_qr_scan"}, "is_reserved": 0, "fusion_lat": 0.0, "lon": -77.02536916666666}, {"lat": 38.8706835, "type": "electric_scooter", "is_disabled": 0, "name": "1c363486051b9fe9ea383dedd77a086f", "bike_id": "1c363486051b9fe9ea383dedd77a086f", "fusion_lon": 0.0, "rental_uris": {"ios": "https://dc.lft.to/lastmile_qr_scan", "android": "https://dc.lft.to/lastmile_qr_scan"}, "is_reserved": 0, "fusion_lat": 0.0, "lon": -76.98001666666667}, {"lat": 38.9141675, "type": "electric_scooter", "is_disabled": 0, "name": "a964cb36a8fb9c4ca2afa56c46b8cc32", "bike_id": "a964cb36a8fb9c4ca2afa56c46b8cc32", "fusion_lon": 0.0, "rental_uris": {"ios": "https://dc.lft.to/lastmile_qr_scan", "android": "https://dc.lft.to/lastmile_qr_scan"}, "is_reserved": 0, "fusion_lat": 0.0, "lon": -77.00936983333334}, {"lat": 38.867195, "type": "electric_scooter", "is_disabled": 0, "name": "d5152184e56286304ef696b031d9a37d", "bike_id": "d5152184e56286304ef696b031d9a37d", "fusion_lon": 0.0, "rental_uris": {"ios": "https://dc.lft.to/lastmile_qr_scan", "android": "https://dc.lft.to/lastmile_qr_scan"}, "is_reserved": 0, "fusion_lat": 0.0, "lon": -77.0101845}, {"lat": 38.9242405, "type": "electric_scooter", "is_disabled": 0, "name": "32d0c7e870617b1f765a382f55d3bd6d", "bike_id": "32d0c7e870617b1f765a382f55d3bd6d", "fusion_lon": 0.0, "rental_uris": {"ios": "https://dc.lft.to/lastmile_qr_scan", "android": "https://dc.lft.to/lastmile_qr_scan"}, "is_reserved": 0, "fusion_lat": 0.0, "lon": -77.02118966666667}, {"lat": 38.894686, "type": "electric_scooter", "is_disabled": 0, "name": "2c73d666b551c6bedc1f04b4c709edb3", "bike_id": "2c73d666b551c6bedc1f04b4c709edb3", "fusion_lon": 0.0, "rental_uris": {"ios": "https://dc.lft.to/lastmile_qr_scan", "android": "https://dc.lft.to/lastmile_qr_scan"}, "is_reserved": 0, "fusion_lat": 0.0, "lon": -77.02101916666666}, {"lat": 38.904367, "type": "electric_scooter", "is_disabled": 0, "name": "4b2f8fe6ee200d5270e0ff62c7b3c097", "bike_id": "4b2f8fe6ee200d5270e0ff62c7b3c097", "fusion_lon": 0.0, "rental_uris": {"ios": "https://dc.lft.to/lastmile_qr_scan", "android": "https://dc.lft.to/lastmile_qr_scan"}, "is_reserved": 0, "fusion_lat": 0.0, "lon": -77.05324383333334}, {"lat": 38.9159945, "type": "electric_scooter", "is_disabled": 0, "name": "ef37047f8559938ebd0d32cc96be98ea", "bike_id": "ef37047f8559938ebd0d32cc96be98ea", "fusion_lon": 0.0, "rental_uris": {"ios": "https://dc.lft.to/lastmile_qr_scan", "android": "https://dc.lft.to/lastmile_qr_scan"}, "is_reserved": 0, "fusion_lat": 0.0, "lon": -77.03668383333333}, {"lat": 38.928621666666665, "type": "electric_scooter", "is_disabled": 0, "name": "2e8590563b9c313afeb29114e41cefa0", "bike_id": "2e8590563b9c313afeb29114e41cefa0", "fusion_lon": 0.0, "rental_uris": {"ios": "https://dc.lft.to/lastmile_qr_scan", "android": "https://dc.lft.to/lastmile_qr_scan"}, "is_reserved": 0, "fusion_lat": 0.0, "lon": -77.03740283333333}, {"lat": 38.94985533333333, "type": "electric_scooter", "is_disabled": 0, "name": "2f705896ae0a3cd494acfd0525fc8728", "bike_id": "2f705896ae0a3cd494acfd0525fc8728", "fusion_lon": 0.0, "rental_uris": {"ios": "https://dc.lft.to/lastmile_qr_scan", "android": "https://dc.lft.to/lastmile_qr_scan"}, "is_reserved": 0, "fusion_lat": 0.0, "lon": -77.06674833333334}, {"lat": 38.892270833333335, "type": "electric_scooter", "is_disabled": 0, "name": "466a5daff8de2273eec724aa0c11fcca", "bike_id": "466a5daff8de2273eec724aa0c11fcca", "fusion_lon": 0.0, "rental_uris": {"ios": "https://dc.lft.to/lastmile_qr_scan", "android": "https://dc.lft.to/lastmile_qr_scan"}, "is_reserved": 0, "fusion_lat": 0.0, "lon": -77.03131983333333}, {"lat": 38.924400166666665, "type": "electric_scooter", "is_disabled": 0, "name": "c125e014d8090ecb8de41e7ac443b6e1", "bike_id": "c125e014d8090ecb8de41e7ac443b6e1", "fusion_lon": 0.0, "rental_uris": {"ios": "https://dc.lft.to/lastmile_qr_scan", "android": "https://dc.lft.to/lastmile_qr_scan"}, "is_reserved": 0, "fusion_lat": 0.0, "lon": -77.02016966666666}, {"lat": 38.90038033333333, "type": "electric_scooter", "is_disabled": 0, "name": "244348b198e701f6dfed5c66d69f3046", "bike_id": "244348b198e701f6dfed5c66d69f3046", "fusion_lon": 0.0, "rental_uris": {"ios": "https://dc.lft.to/lastmile_qr_scan", "android": "https://dc.lft.to/lastmile_qr_scan"}, "is_reserved": 0, "fusion_lat": 0.0, "lon": -76.988321}, {"lat": 38.940940833333336, "type": "electric_scooter", "is_disabled": 0, "name": "6475e522b3747ca2365e927ef0957cdb", "bike_id": "6475e522b3747ca2365e927ef0957cdb", "fusion_lon": 0.0, "rental_uris": {"ios": "https://dc.lft.to/lastmile_qr_scan", "android": "https://dc.lft.to/lastmile_qr_scan"}, "is_reserved": 0, "fusion_lat": 0.0, "lon": -77.02975983333333}, {"lat": 38.938668166666666, "type": "electric_scooter", "is_disabled": 0, "name": "4685ffdb6d2da902944c4d48e87d5ded", "bike_id": "4685ffdb6d2da902944c4d48e87d5ded", "fusion_lon": 0.0, "rental_uris": {"ios": "https://dc.lft.to/lastmile_qr_scan", "android": "https://dc.lft.to/lastmile_qr_scan"}, "is_reserved": 0, "fusion_lat": 0.0, "lon": -77.02468816666666}, {"lat": 38.881211666666665, "type": "electric_scooter", "is_disabled": 0, "name": "5cf412d1adcad8a1393759ff15b169dc", "bike_id": "5cf412d1adcad8a1393759ff15b169dc", "fusion_lon": 0.0, "rental_uris": {"ios": "https://dc.lft.to/lastmile_qr_scan", "android": "https://dc.lft.to/lastmile_qr_scan"}, "is_reserved": 0, "fusion_lat": 0.0, "lon": -77.00453183333333}, {"lat": 38.9055095, "type": "electric_scooter", "is_disabled": 0, "name": "1594d6885c70409003e0fbb1f9d9c039", "bike_id": "1594d6885c70409003e0fbb1f9d9c039", "fusion_lon": 0.0, "rental_uris": {"ios": "https://dc.lft.to/lastmile_qr_scan", "android": "https://dc.lft.to/lastmile_qr_scan"}, "is_reserved": 0, "fusion_lat": 0.0, "lon": -77.03979533333333}, {"lat": 38.909599666666665, "type": "electric_scooter", "is_disabled": 0, "name": "503249159ae5c3e1acd7fa5605bec511", "bike_id": "503249159ae5c3e1acd7fa5605bec511", "fusion_lon": 0.0, "rental_uris": {"ios": "https://dc.lft.to/lastmile_qr_scan", "android": "https://dc.lft.to/lastmile_qr_scan"}, "is_reserved": 0, "fusion_lat": 0.0, "lon": -77.01444183333334}, {"lat": 38.920945, "type": "electric_scooter", "is_disabled": 0, "name": "e6c43c3d4df2dfd08c688ee710a56860", "bike_id": "e6c43c3d4df2dfd08c688ee710a56860", "fusion_lon": 0.0, "rental_uris": {"ios": "https://dc.lft.to/lastmile_qr_scan", "android": "https://dc.lft.to/lastmile_qr_scan"}, "is_reserved": 0, "fusion_lat": 0.0, "lon": -77.03170733333333}, {"lat": 38.9180925, "type": "electric_scooter", "is_disabled": 0, "name": "637202596ed2946b293b28c718bc7d14", "bike_id": "637202596ed2946b293b28c718bc7d14", "fusion_lon": 0.0, "rental_uris": {"ios": "https://dc.lft.to/lastmile_qr_scan", "android": "https://dc.lft.to/lastmile_qr_scan"}, "is_reserved": 0, "fusion_lat": 0.0, "lon": -77.02718983333334}, {"lat": 38.936580666666664, "type": "electric_scooter", "is_disabled": 0, "name": "86e812400c4c99cdaf22dbc368682508", "bike_id": "86e812400c4c99cdaf22dbc368682508", "fusion_lon": 0.0, "rental_uris": {"ios": "https://dc.lft.to/lastmile_qr_scan", "android": "https://dc.lft.to/lastmile_qr_scan"}, "is_reserved": 0, "fusion_lat": 0.0, "lon": -77.06607783333334}, {"lat": 38.9124035, "type": "electric_scooter", "is_disabled": 0, "name": "06a8f74a270ca1939f28e952345e0ced", "bike_id": "06a8f74a270ca1939f28e952345e0ced", "fusion_lon": 0.0, "rental_uris": {"ios": "https://dc.lft.to/lastmile_qr_scan", "android": "https://dc.lft.to/lastmile_qr_scan"}, "is_reserved": 0, "fusion_lat": 0.0, "lon": -76.9867855}, {"lat": 38.911917, "type": "electric_scooter", "is_disabled": 0, "name": "9e5003f71d775aa40866f79cbbc98ba5", "bike_id": "9e5003f71d775aa40866f79cbbc98ba5", "fusion_lon": 0.0, "rental_uris": {"ios": "https://dc.lft.to/lastmile_qr_scan", "android": "https://dc.lft.to/lastmile_qr_scan"}, "is_reserved": 0, "fusion_lat": 0.0, "lon": -77.019859}, {"lat": 38.908776833333334, "type": "electric_scooter", "is_disabled": 0, "name": "d29afab5ae383d57f4fbef9fbe7fec46", "bike_id": "d29afab5ae383d57f4fbef9fbe7fec46", "fusion_lon": 0.0, "rental_uris": {"ios": "https://dc.lft.to/lastmile_qr_scan", "android": "https://dc.lft.to/lastmile_qr_scan"}, "is_reserved": 0, "fusion_lat": 0.0, "lon": -77.03753383333333}, {"lat": 38.89834166666667, "type": "electric_scooter", "is_disabled": 0, "name": "c6bcc448d724463f819f56aedcaf1f3c", "bike_id": "c6bcc448d724463f819f56aedcaf1f3c", "fusion_lon": 0.0, "rental_uris": {"ios": "https://dc.lft.to/lastmile_qr_scan", "android": "https://dc.lft.to/lastmile_qr_scan"}, "is_reserved": 0, "fusion_lat": 0.0, "lon": -76.94642466666667}, {"lat": 38.8863645, "type": "electric_scooter", "is_disabled": 0, "name": "b26870e48d5ac67709fe5ba0ad54a4f6", "bike_id": "b26870e48d5ac67709fe5ba0ad54a4f6", "fusion_lon": 0.0, "rental_uris": {"ios": "https://dc.lft.to/lastmile_qr_scan", "android": "https://dc.lft.to/lastmile_qr_scan"}, "is_reserved": 0, "fusion_lat": 0.0, "lon": -77.00210416666667}, {"lat": 38.886325, "type": "electric_scooter", "is_disabled": 0, "name": "76043e2d1a6c6b221d4072685164314d", "bike_id": "76043e2d1a6c6b221d4072685164314d", "fusion_lon": 0.0, "rental_uris": {"ios": "https://dc.lft.to/lastmile_qr_scan", "android": "https://dc.lft.to/lastmile_qr_scan"}, "is_reserved": 0, "fusion_lat": 0.0, "lon": -77.0152495}, {"lat": 38.91074, "type": "electric_scooter", "is_disabled": 0, "name": "ce6dba471b03ca882930a840e88dafba", "bike_id": "ce6dba471b03ca882930a840e88dafba", "fusion_lon": 0.0, "rental_uris": {"ios": "https://dc.lft.to/lastmile_qr_scan", "android": "https://dc.lft.to/lastmile_qr_scan"}, "is_reserved": 0, "fusion_lat": 0.0, "lon": -77.01221333333334}, {"lat": 38.8776135, "type": "electric_scooter", "is_disabled": 0, "name": "1dadeff452275644b989df00e7206366", "bike_id": "1dadeff452275644b989df00e7206366", "fusion_lon": 0.0, "rental_uris": {"ios": "https://dc.lft.to/lastmile_qr_scan", "android": "https://dc.lft.to/lastmile_qr_scan"}, "is_reserved": 0, "fusion_lat": 0.0, "lon": -77.00594966666667}, {"lat": 38.91403483333333, "type": "electric_scooter", "is_disabled": 0, "name": "4c20dbf5a78d6347999f654d3c557540", "bike_id": "4c20dbf5a78d6347999f654d3c557540", "fusion_lon": 0.0, "rental_uris": {"ios": "https://dc.lft.to/lastmile_qr_scan", "android": "https://dc.lft.to/lastmile_qr_scan"}, "is_reserved": 0, "fusion_lat": 0.0, "lon": -77.01817733333333}, {"lat": 38.90902416666667, "type": "electric_scooter", "is_disabled": 0, "name": "4af77d385d3764052ee59b39bb1196f8", "bike_id": "4af77d385d3764052ee59b39bb1196f8", "fusion_lon": 0.0, "rental_uris": {"ios": "https://dc.lft.to/lastmile_qr_scan", "android": "https://dc.lft.to/lastmile_qr_scan"}, "is_reserved": 0, "fusion_lat": 0.0, "lon": -77.02684416666666}, {"lat": 38.902376333333336, "type": "electric_scooter", "is_disabled": 0, "name": "764fd13d04ec08d5ff839e9f968f4214", "bike_id": "764fd13d04ec08d5ff839e9f968f4214", "fusion_lon": 0.0, "rental_uris": {"ios": "https://dc.lft.to/lastmile_qr_scan", "android": "https://dc.lft.to/lastmile_qr_scan"}, "is_reserved": 0, "fusion_lat": 0.0, "lon": -77.0590905}, {"lat": 38.92111583333333, "type": "electric_bike", "is_disabled": 0, "name": "04b8c3928d592a33640f5f9668cb6193", "bike_id": "04b8c3928d592a33640f5f9668cb6193", "fusion_lon": 0.0, "rental_uris": {"ios": "https://dc.lft.to/lastmile_qr_scan", "android": "https://dc.lft.to/lastmile_qr_scan"}, "is_reserved": 0, "fusion_lat": 0.0, "lon": -76.9888215}, {"lat": 38.9085595, "type": "electric_scooter", "is_disabled": 0, "name": "fd963ab2cf97629bcac89ce1acd7acc3", "bike_id": "fd963ab2cf97629bcac89ce1acd7acc3", "fusion_lon": 0.0, "rental_uris": {"ios": "https://dc.lft.to/lastmile_qr_scan", "android": "https://dc.lft.to/lastmile_qr_scan"}, "is_reserved": 0, "fusion_lat": 0.0, "lon": -77.0242305}, {"lat": 38.913067, "type": "electric_scooter", "is_disabled": 0, "name": "e88953e16ca202dff649d4d0a05bd2a9", "bike_id": "e88953e16ca202dff649d4d0a05bd2a9", "fusion_lon": 0.0, "rental_uris": {"ios": "https://dc.lft.to/lastmile_qr_scan", "android": "https://dc.lft.to/lastmile_qr_scan"}, "is_reserved": 0, "fusion_lat": 0.0, "lon": -77.04347466666667}, {"lat": 38.874546, "type": "electric_scooter", "is_disabled": 0, "name": "ccd0e249aa72ce13bbfc87bb83b5a214", "bike_id": "ccd0e249aa72ce13bbfc87bb83b5a214", "fusion_lon": 0.0, "rental_uris": {"ios": "https://dc.lft.to/lastmile_qr_scan", "android": "https://dc.lft.to/lastmile_qr_scan"}, "is_reserved": 0, "fusion_lat": 0.0, "lon": -77.000762}, {"lat": 38.916838166666665, "type": "electric_scooter", "is_disabled": 0, "name": "cd37bfd4f7c0038a485f8b3a6ab3f52f", "bike_id": "cd37bfd4f7c0038a485f8b3a6ab3f52f", "fusion_lon": 0.0, "rental_uris": {"ios": "https://dc.lft.to/lastmile_qr_scan", "android": "https://dc.lft.to/lastmile_qr_scan"}, "is_reserved": 0, "fusion_lat": 0.0, "lon": -77.02970416666666}, {"lat": 38.93256916666667, "type": "electric_scooter", "is_disabled": 0, "name": "efd57530c9013c2143cc2cfb5c70c216", "bike_id": "efd57530c9013c2143cc2cfb5c70c216", "fusion_lon": 0.0, "rental_uris": {"ios": "https://dc.lft.to/lastmile_qr_scan", "android": "https://dc.lft.to/lastmile_qr_scan"}, "is_reserved": 0, "fusion_lat": 0.0, "lon": -77.038618}, {"lat": 38.848124, "type": "electric_bike", "is_disabled": 0, "name": "ebb58ac75bfb8682acf04ce4370fbdbe", "bike_id": "ebb58ac75bfb8682acf04ce4370fbdbe", "fusion_lon": 0.0, "rental_uris": {"ios": "https://dc.lft.to/lastmile_qr_scan", "android": "https://dc.lft.to/lastmile_qr_scan"}, "is_reserved": 0, "fusion_lat": 0.0, "lon": -76.95250466666667}, {"lat": 38.92443, "type": "electric_scooter", "is_disabled": 0, "name": "8549c8ec49de1fa6b32af06e5a6f4b36", "bike_id": "8549c8ec49de1fa6b32af06e5a6f4b36", "fusion_lon": 0.0, "rental_uris": {"ios": "https://dc.lft.to/lastmile_qr_scan", "android": "https://dc.lft.to/lastmile_qr_scan"}, "is_reserved": 0, "fusion_lat": 0.0, "lon": -77.040325}, {"lat": 38.926867666666666, "type": "electric_scooter", "is_disabled": 0, "name": "a71b96d9043000aa9a8e1b8c66027563", "bike_id": "a71b96d9043000aa9a8e1b8c66027563", "fusion_lon": 0.0, "rental_uris": {"ios": "https://dc.lft.to/lastmile_qr_scan", "android": "https://dc.lft.to/lastmile_qr_scan"}, "is_reserved": 0, "fusion_lat": 0.0, "lon": -77.02964183333333}, {"lat": 38.905149333333334, "type": "electric_scooter", "is_disabled": 0, "name": "a51e0ccba418e98afa309d41ad7a300a", "bike_id": "a51e0ccba418e98afa309d41ad7a300a", "fusion_lon": 0.0, "rental_uris": {"ios": "https://dc.lft.to/lastmile_qr_scan", "android": "https://dc.lft.to/lastmile_qr_scan"}, "is_reserved": 0, "fusion_lat": 0.0, "lon": -77.02955083333333}, {"lat": 38.905611, "type": "electric_scooter", "is_disabled": 0, "name": "2cfe9b2e5298198f24d87a925e299914", "bike_id": "2cfe9b2e5298198f24d87a925e299914", "fusion_lon": 0.0, "rental_uris": {"ios": "https://dc.lft.to/lastmile_qr_scan", "android": "https://dc.lft.to/lastmile_qr_scan"}, "is_reserved": 0, "fusion_lat": 0.0, "lon": -77.03423283333333}, {"lat": 38.90001266666667, "type": "electric_scooter", "is_disabled": 0, "name": "b3379331dd4248bc3b6d1670865b5dbb", "bike_id": "b3379331dd4248bc3b6d1670865b5dbb", "fusion_lon": 0.0, "rental_uris": {"ios": "https://dc.lft.to/lastmile_qr_scan", "android": "https://dc.lft.to/lastmile_qr_scan"}, "is_reserved": 0, "fusion_lat": 0.0, "lon": -76.99144116666666}, {"lat": 38.9923475, "type": "electric_bike", "is_disabled": 0, "name": "9e4b5d7b429032e673d5b561fc208c64", "bike_id": "9e4b5d7b429032e673d5b561fc208c64", "fusion_lon": 0.0, "rental_uris": {"ios": "https://dc.lft.to/lastmile_qr_scan", "android": "https://dc.lft.to/lastmile_qr_scan"}, "is_reserved": 0, "fusion_lat": 0.0, "lon": -77.02379366666666}, {"lat": 38.92176883333333, "type": "electric_scooter", "is_disabled": 0, "name": "4e4054b86b869a100eb2ec993ea31dd5", "bike_id": "4e4054b86b869a100eb2ec993ea31dd5", "fusion_lon": 0.0, "rental_uris": {"ios": "https://dc.lft.to/lastmile_qr_scan", "android": "https://dc.lft.to/lastmile_qr_scan"}, "is_reserved": 0, "fusion_lat": 0.0, "lon": -77.04236166666666}, {"lat": 38.888363, "type": "electric_scooter", "is_disabled": 0, "name": "acd95a2cd7396e016aa7c81a595a04da", "bike_id": "acd95a2cd7396e016aa7c81a595a04da", "fusion_lon": 0.0, "rental_uris": {"ios": "https://dc.lft.to/lastmile_qr_scan", "android": "https://dc.lft.to/lastmile_qr_scan"}, "is_reserved": 0, "fusion_lat": 0.0, "lon": -76.97722483333334}, {"lat": 38.96026616666666, "type": "electric_scooter", "is_disabled": 0, "name": "08cca8175a5c3efed566dbd3d2b4ae82", "bike_id": "08cca8175a5c3efed566dbd3d2b4ae82", "fusion_lon": 0.0, "rental_uris": {"ios": "https://dc.lft.to/lastmile_qr_scan", "android": "https://dc.lft.to/lastmile_qr_scan"}, "is_reserved": 0, "fusion_lat": 0.0, "lon": -77.0301235}, {"lat": 38.830662833333335, "type": "electric_scooter", "is_disabled": 0, "name": "29124efb7d288ded66a84829d214b680", "bike_id": "29124efb7d288ded66a84829d214b680", "fusion_lon": 0.0, "rental_uris": {"ios": "https://dc.lft.to/lastmile_qr_scan", "android": "https://dc.lft.to/lastmile_qr_scan"}, "is_reserved": 0, "fusion_lat": 0.0, "lon": -77.00212533333334}, {"lat": 38.91354233333333, "type": "electric_scooter", "is_disabled": 0, "name": "21810f9270ec7074313dfdb72407216c", "bike_id": "21810f9270ec7074313dfdb72407216c", "fusion_lon": 0.0, "rental_uris": {"ios": "https://dc.lft.to/lastmile_qr_scan", "android": "https://dc.lft.to/lastmile_qr_scan"}, "is_reserved": 0, "fusion_lat": 0.0, "lon": -77.01988766666666}, {"lat": 38.92238966666667, "type": "electric_scooter", "is_disabled": 0, "name": "a5f46cf04fc11d5fc0948a95c9c7c3f8", "bike_id": "a5f46cf04fc11d5fc0948a95c9c7c3f8", "fusion_lon": 0.0, "rental_uris": {"ios": "https://dc.lft.to/lastmile_qr_scan", "android": "https://dc.lft.to/lastmile_qr_scan"}, "is_reserved": 0, "fusion_lat": 0.0, "lon": -77.028485}, {"lat": 38.8961345, "type": "electric_scooter", "is_disabled": 0, "name": "cf7dd8dd8090ab58594b236ad267bb86", "bike_id": "cf7dd8dd8090ab58594b236ad267bb86", "fusion_lon": 0.0, "rental_uris": {"ios": "https://dc.lft.to/lastmile_qr_scan", "android": "https://dc.lft.to/lastmile_qr_scan"}, "is_reserved": 0, "fusion_lat": 0.0, "lon": -77.01907216666666}, {"lat": 38.920884666666666, "type": "electric_scooter", "is_disabled": 0, "name": "0114304e37fdb2c059ba29142021d075", "bike_id": "0114304e37fdb2c059ba29142021d075", "fusion_lon": 0.0, "rental_uris": {"ios": "https://dc.lft.to/lastmile_qr_scan", "android": "https://dc.lft.to/lastmile_qr_scan"}, "is_reserved": 0, "fusion_lat": 0.0, "lon": -77.02525216666666}, {"lat": 38.896889, "type": "electric_scooter", "is_disabled": 0, "name": "525a1abc8af3baa3cd5f94545ca03d02", "bike_id": "525a1abc8af3baa3cd5f94545ca03d02", "fusion_lon": 0.0, "rental_uris": {"ios": "https://dc.lft.to/lastmile_qr_scan", "android": "https://dc.lft.to/lastmile_qr_scan"}, "is_reserved": 0, "fusion_lat": 0.0, "lon": -76.9279175}, {"lat": 38.928768, "type": "electric_scooter", "is_disabled": 0, "name": "3cceb9704efe507f4801b6d7fe27cc47", "bike_id": "3cceb9704efe507f4801b6d7fe27cc47", "fusion_lon": 0.0, "rental_uris": {"ios": "https://dc.lft.to/lastmile_qr_scan", "android": "https://dc.lft.to/lastmile_qr_scan"}, "is_reserved": 0, "fusion_lat": 0.0, "lon": -77.01362033333334}, {"lat": 38.903664166666665, "type": "electric_scooter", "is_disabled": 0, "name": "a73152ffb4660f3b07a916d15f85649f", "bike_id": "a73152ffb4660f3b07a916d15f85649f", "fusion_lon": 0.0, "rental_uris": {"ios": "https://dc.lft.to/lastmile_qr_scan", "android": "https://dc.lft.to/lastmile_qr_scan"}, "is_reserved": 0, "fusion_lat": 0.0, "lon": -77.03739116666667}, {"lat": 38.9621435, "type": "electric_scooter", "is_disabled": 0, "name": "2a330a828ca4c20c3574f15987352165", "bike_id": "2a330a828ca4c20c3574f15987352165", "fusion_lon": 0.0, "rental_uris": {"ios": "https://dc.lft.to/lastmile_qr_scan", "android": "https://dc.lft.to/lastmile_qr_scan"}, "is_reserved": 0, "fusion_lat": 0.0, "lon": -77.02783733333334}, {"lat": 38.8922075, "type": "electric_scooter", "is_disabled": 0, "name": "0dc25bd4b057b83d3f4620d67573d2f0", "bike_id": "0dc25bd4b057b83d3f4620d67573d2f0", "fusion_lon": 0.0, "rental_uris": {"ios": "https://dc.lft.to/lastmile_qr_scan", "android": "https://dc.lft.to/lastmile_qr_scan"}, "is_reserved": 0, "fusion_lat": 0.0, "lon": -77.02367116666667}, {"lat": 38.9268175, "type": "electric_scooter", "is_disabled": 0, "name": "7e2bc910104a5c1b679c78fd9d7753f5", "bike_id": "7e2bc910104a5c1b679c78fd9d7753f5", "fusion_lon": 0.0, "rental_uris": {"ios": "https://dc.lft.to/lastmile_qr_scan", "android": "https://dc.lft.to/lastmile_qr_scan"}, "is_reserved": 0, "fusion_lat": 0.0, "lon": -77.0149945}, {"lat": 38.92469766666667, "type": "electric_scooter", "is_disabled": 0, "name": "85db2b3ae1e14556651263f42c61ec22", "bike_id": "85db2b3ae1e14556651263f42c61ec22", "fusion_lon": 0.0, "rental_uris": {"ios": "https://dc.lft.to/lastmile_qr_scan", "android": "https://dc.lft.to/lastmile_qr_scan"}, "is_reserved": 0, "fusion_lat": 0.0, "lon": -77.02206383333333}, {"lat": 38.92239433333334, "type": "electric_scooter", "is_disabled": 0, "name": "44fc562a18f090096b73999122c7466b", "bike_id": "44fc562a18f090096b73999122c7466b", "fusion_lon": 0.0, "rental_uris": {"ios": "https://dc.lft.to/lastmile_qr_scan", "android": "https://dc.lft.to/lastmile_qr_scan"}, "is_reserved": 0, "fusion_lat": 0.0, "lon": -77.0366595}, {"lat": 38.89502983333333, "type": "electric_scooter", "is_disabled": 0, "name": "e2746d7cc7a8440af273bafddb32d176", "bike_id": "e2746d7cc7a8440af273bafddb32d176", "fusion_lon": 0.0, "rental_uris": {"ios": "https://dc.lft.to/lastmile_qr_scan", "android": "https://dc.lft.to/lastmile_qr_scan"}, "is_reserved": 0, "fusion_lat": 0.0, "lon": -76.93478316666666}, {"lat": 38.90403283333333, "type": "electric_scooter", "is_disabled": 0, "name": "01a01b1895673d4f57244ba2b0acc870", "bike_id": "01a01b1895673d4f57244ba2b0acc870", "fusion_lon": 0.0, "rental_uris": {"ios": "https://dc.lft.to/lastmile_qr_scan", "android": "https://dc.lft.to/lastmile_qr_scan"}, "is_reserved": 0, "fusion_lat": 0.0, "lon": -76.97341133333333}, {"lat": 38.90522166666667, "type": "electric_scooter", "is_disabled": 0, "name": "7f5975e7c057737c8e3326f85f93b593", "bike_id": "7f5975e7c057737c8e3326f85f93b593", "fusion_lon": 0.0, "rental_uris": {"ios": "https://dc.lft.to/lastmile_qr_scan", "android": "https://dc.lft.to/lastmile_qr_scan"}, "is_reserved": 0, "fusion_lat": 0.0, "lon": -77.029748}, {"lat": 38.88040083333333, "type": "electric_scooter", "is_disabled": 0, "name": "cadad8392b5409b929e786e405039232", "bike_id": "cadad8392b5409b929e786e405039232", "fusion_lon": 0.0, "rental_uris": {"ios": "https://dc.lft.to/lastmile_qr_scan", "android": "https://dc.lft.to/lastmile_qr_scan"}, "is_reserved": 0, "fusion_lat": 0.0, "lon": -76.92722933333333}, {"lat": 38.93455633333333, "type": "electric_scooter", "is_disabled": 0, "name": "3034d424225a3bea6f7c99b01255207a", "bike_id": "3034d424225a3bea6f7c99b01255207a", "fusion_lon": 0.0, "rental_uris": {"ios": "https://dc.lft.to/lastmile_qr_scan", "android": "https://dc.lft.to/lastmile_qr_scan"}, "is_reserved": 0, "fusion_lat": 0.0, "lon": -77.03497066666667}, {"lat": 38.8923785, "type": "electric_scooter", "is_disabled": 0, "name": "d8e65e9b850c9cb21845f4f924b8681a", "bike_id": "d8e65e9b850c9cb21845f4f924b8681a", "fusion_lon": 0.0, "rental_uris": {"ios": "https://dc.lft.to/lastmile_qr_scan", "android": "https://dc.lft.to/lastmile_qr_scan"}, "is_reserved": 0, "fusion_lat": 0.0, "lon": -77.03203}, {"lat": 38.92676683333333, "type": "electric_scooter", "is_disabled": 0, "name": "061400f87db7aacd4573ec9602db0c40", "bike_id": "061400f87db7aacd4573ec9602db0c40", "fusion_lon": 0.0, "rental_uris": {"ios": "https://dc.lft.to/lastmile_qr_scan", "android": "https://dc.lft.to/lastmile_qr_scan"}, "is_reserved": 0, "fusion_lat": 0.0, "lon": -77.02584616666667}, {"lat": 38.922382999999996, "type": "electric_scooter", "is_disabled": 0, "name": "4062cfefc2e52d15e0d03517be168604", "bike_id": "4062cfefc2e52d15e0d03517be168604", "fusion_lon": 0.0, "rental_uris": {"ios": "https://dc.lft.to/lastmile_qr_scan", "android": "https://dc.lft.to/lastmile_qr_scan"}, "is_reserved": 0, "fusion_lat": 0.0, "lon": -77.03664466666666}, {"lat": 38.9038205, "type": "electric_scooter", "is_disabled": 0, "name": "d8a5491ec35a9ed65977dafa111c135c", "bike_id": "d8a5491ec35a9ed65977dafa111c135c", "fusion_lon": 0.0, "rental_uris": {"ios": "https://dc.lft.to/lastmile_qr_scan", "android": "https://dc.lft.to/lastmile_qr_scan"}, "is_reserved": 0, "fusion_lat": 0.0, "lon": -77.045143}, {"lat": 38.85794583333333, "type": "electric_scooter", "is_disabled": 0, "name": "e593590fc063da9558f3e57756fedf3d", "bike_id": "e593590fc063da9558f3e57756fedf3d", "fusion_lon": 0.0, "rental_uris": {"ios": "https://dc.lft.to/lastmile_qr_scan", "android": "https://dc.lft.to/lastmile_qr_scan"}, "is_reserved": 0, "fusion_lat": 0.0, "lon": -76.98913016666667}, {"lat": 38.92827466666667, "type": "electric_scooter", "is_disabled": 0, "name": "841f05c443fb8004ef22f9267eb5e610", "bike_id": "841f05c443fb8004ef22f9267eb5e610", "fusion_lon": 0.0, "rental_uris": {"ios": "https://dc.lft.to/lastmile_qr_scan", "android": "https://dc.lft.to/lastmile_qr_scan"}, "is_reserved": 0, "fusion_lat": 0.0, "lon": -77.02297766666666}, {"lat": 38.901133, "type": "electric_scooter", "is_disabled": 0, "name": "779247cabc5805338f77d20b1cd26b7d", "bike_id": "779247cabc5805338f77d20b1cd26b7d", "fusion_lon": 0.0, "rental_uris": {"ios": "https://dc.lft.to/lastmile_qr_scan", "android": "https://dc.lft.to/lastmile_qr_scan"}, "is_reserved": 0, "fusion_lat": 0.0, "lon": -77.0318695}, {"lat": 38.8570655, "type": "electric_scooter", "is_disabled": 0, "name": "cbe7f0692a384938ccf738af0b441b40", "bike_id": "cbe7f0692a384938ccf738af0b441b40", "fusion_lon": 0.0, "rental_uris": {"ios": "https://dc.lft.to/lastmile_qr_scan", "android": "https://dc.lft.to/lastmile_qr_scan"}, "is_reserved": 0, "fusion_lat": 0.0, "lon": -76.9813245}, {"lat": 38.901431, "type": "electric_scooter", "is_disabled": 0, "name": "8b745356984e33977ec169e75a9a3dca", "bike_id": "8b745356984e33977ec169e75a9a3dca", "fusion_lon": 0.0, "rental_uris": {"ios": "https://dc.lft.to/lastmile_qr_scan", "android": "https://dc.lft.to/lastmile_qr_scan"}, "is_reserved": 0, "fusion_lat": 0.0, "lon": -77.0419245}, {"lat": 38.921416666666666, "type": "electric_scooter", "is_disabled": 0, "name": "58674b3b16c61e6c4ed01f94da29154c", "bike_id": "58674b3b16c61e6c4ed01f94da29154c", "fusion_lon": 0.0, "rental_uris": {"ios": "https://dc.lft.to/lastmile_qr_scan", "android": "https://dc.lft.to/lastmile_qr_scan"}, "is_reserved": 0, "fusion_lat": 0.0, "lon": -77.01808033333333}, {"lat": 38.900814833333335, "type": "electric_scooter", "is_disabled": 0, "name": "a196754f5ef7a440b36955816d11c513", "bike_id": "a196754f5ef7a440b36955816d11c513", "fusion_lon": 0.0, "rental_uris": {"ios": "https://dc.lft.to/lastmile_qr_scan", "android": "https://dc.lft.to/lastmile_qr_scan"}, "is_reserved": 0, "fusion_lat": 0.0, "lon": -77.013022}, {"lat": 38.859371333333335, "type": "electric_scooter", "is_disabled": 0, "name": "409c2b5b7219afa099a8eff341b2f7a2", "bike_id": "409c2b5b7219afa099a8eff341b2f7a2", "fusion_lon": 0.0, "rental_uris": {"ios": "https://dc.lft.to/lastmile_qr_scan", "android": "https://dc.lft.to/lastmile_qr_scan"}, "is_reserved": 0, "fusion_lat": 0.0, "lon": -76.9844835}, {"lat": 38.89897466666667, "type": "electric_scooter", "is_disabled": 0, "name": "c8797989c26b830d684d4bcb0031881c", "bike_id": "c8797989c26b830d684d4bcb0031881c", "fusion_lon": 0.0, "rental_uris": {"ios": "https://dc.lft.to/lastmile_qr_scan", "android": "https://dc.lft.to/lastmile_qr_scan"}, "is_reserved": 0, "fusion_lat": 0.0, "lon": -77.024517}, {"lat": 38.87690716666667, "type": "electric_scooter", "is_disabled": 0, "name": "d5a309645e00a6e855948292c01a6406", "bike_id": "d5a309645e00a6e855948292c01a6406", "fusion_lon": 0.0, "rental_uris": {"ios": "https://dc.lft.to/lastmile_qr_scan", "android": "https://dc.lft.to/lastmile_qr_scan"}, "is_reserved": 0, "fusion_lat": 0.0, "lon": -77.00064866666666}, {"lat": 38.94850566666667, "type": "electric_scooter", "is_disabled": 0, "name": "74c4944eea4897fe9eb9bd7aee032464", "bike_id": "74c4944eea4897fe9eb9bd7aee032464", "fusion_lon": 0.0, "rental_uris": {"ios": "https://dc.lft.to/lastmile_qr_scan", "android": "https://dc.lft.to/lastmile_qr_scan"}, "is_reserved": 0, "fusion_lat": 0.0, "lon": -77.06528466666667}, {"lat": 38.90523266666667, "type": "electric_scooter", "is_disabled": 0, "name": "ad6436bb2e6fe4b91f95bb12f413f1d3", "bike_id": "ad6436bb2e6fe4b91f95bb12f413f1d3", "fusion_lon": 0.0, "rental_uris": {"ios": "https://dc.lft.to/lastmile_qr_scan", "android": "https://dc.lft.to/lastmile_qr_scan"}, "is_reserved": 0, "fusion_lat": 0.0, "lon": -77.0295185}, {"lat": 38.901107333333336, "type": "electric_scooter", "is_disabled": 0, "name": "811424620e8aa98304fa4aa7c61ae912", "bike_id": "811424620e8aa98304fa4aa7c61ae912", "fusion_lon": 0.0, "rental_uris": {"ios": "https://dc.lft.to/lastmile_qr_scan", "android": "https://dc.lft.to/lastmile_qr_scan"}, "is_reserved": 0, "fusion_lat": 0.0, "lon": -77.04877583333334}, {"lat": 38.956862666666666, "type": "electric_scooter", "is_disabled": 0, "name": "3d260affa39b3869f0c2ce0f1b185956", "bike_id": "3d260affa39b3869f0c2ce0f1b185956", "fusion_lon": 0.0, "rental_uris": {"ios": "https://dc.lft.to/lastmile_qr_scan", "android": "https://dc.lft.to/lastmile_qr_scan"}, "is_reserved": 0, "fusion_lat": 0.0, "lon": -77.02240166666667}, {"lat": 38.88478633333333, "type": "electric_scooter", "is_disabled": 0, "name": "b53f4c5b91f853a86df0e6c3d88022f3", "bike_id": "b53f4c5b91f853a86df0e6c3d88022f3", "fusion_lon": 0.0, "rental_uris": {"ios": "https://dc.lft.to/lastmile_qr_scan", "android": "https://dc.lft.to/lastmile_qr_scan"}, "is_reserved": 0, "fusion_lat": 0.0, "lon": -77.01983}, {"lat": 38.8948565, "type": "electric_scooter", "is_disabled": 0, "name": "cdc4d7002092682b72b5a369eb75f746", "bike_id": "cdc4d7002092682b72b5a369eb75f746", "fusion_lon": 0.0, "rental_uris": {"ios": "https://dc.lft.to/lastmile_qr_scan", "android": "https://dc.lft.to/lastmile_qr_scan"}, "is_reserved": 0, "fusion_lat": 0.0, "lon": -76.99518466666666}, {"lat": 38.9023175, "type": "electric_scooter", "is_disabled": 0, "name": "3dfb0bf552f109b631266b936d088d58", "bike_id": "3dfb0bf552f109b631266b936d088d58", "fusion_lon": 0.0, "rental_uris": {"ios": "https://dc.lft.to/lastmile_qr_scan", "android": "https://dc.lft.to/lastmile_qr_scan"}, "is_reserved": 0, "fusion_lat": 0.0, "lon": -77.017531}, {"lat": 38.8843715, "type": "electric_scooter", "is_disabled": 0, "name": "c7525da0f0cfcaf8de0004b4f59ee81e", "bike_id": "c7525da0f0cfcaf8de0004b4f59ee81e", "fusion_lon": 0.0, "rental_uris": {"ios": "https://dc.lft.to/lastmile_qr_scan", "android": "https://dc.lft.to/lastmile_qr_scan"}, "is_reserved": 0, "fusion_lat": 0.0, "lon": -76.9576635}, {"lat": 38.91558333333333, "type": "electric_scooter", "is_disabled": 0, "name": "6e1486966d206f8ab744af88ef477939", "bike_id": "6e1486966d206f8ab744af88ef477939", "fusion_lon": 0.0, "rental_uris": {"ios": "https://dc.lft.to/lastmile_qr_scan", "android": "https://dc.lft.to/lastmile_qr_scan"}, "is_reserved": 0, "fusion_lat": 0.0, "lon": -77.02048683333334}, {"lat": 38.9121565, "type": "electric_scooter", "is_disabled": 0, "name": "6317c0889211fcb312982e4ac80619dc", "bike_id": "6317c0889211fcb312982e4ac80619dc", "fusion_lon": 0.0, "rental_uris": {"ios": "https://dc.lft.to/lastmile_qr_scan", "android": "https://dc.lft.to/lastmile_qr_scan"}, "is_reserved": 0, "fusion_lat": 0.0, "lon": -77.07596433333333}, {"lat": 38.87477033333333, "type": "electric_bike", "is_disabled": 0, "name": "f5223a5de02909e7a0953ef39a13345a", "bike_id": "f5223a5de02909e7a0953ef39a13345a", "fusion_lon": 0.0, "rental_uris": {"ios": "https://dc.lft.to/lastmile_qr_scan", "android": "https://dc.lft.to/lastmile_qr_scan"}, "is_reserved": 0, "fusion_lat": 0.0, "lon": -76.96529666666666}, {"lat": 38.8955615, "type": "electric_scooter", "is_disabled": 0, "name": "286b64e0da8ea4efbb68e33c7d562d25", "bike_id": "286b64e0da8ea4efbb68e33c7d562d25", "fusion_lon": 0.0, "rental_uris": {"ios": "https://dc.lft.to/lastmile_qr_scan", "android": "https://dc.lft.to/lastmile_qr_scan"}, "is_reserved": 0, "fusion_lat": 0.0, "lon": -76.948907}, {"lat": 38.91411433333333, "type": "electric_scooter", "is_disabled": 0, "name": "e39d217cc0776e878f60f712fec852d8", "bike_id": "e39d217cc0776e878f60f712fec852d8", "fusion_lon": 0.0, "rental_uris": {"ios": "https://dc.lft.to/lastmile_qr_scan", "android": "https://dc.lft.to/lastmile_qr_scan"}, "is_reserved": 0, "fusion_lat": 0.0, "lon": -77.04281083333333}, {"lat": 38.87566966666667, "type": "electric_scooter", "is_disabled": 0, "name": "6df7cf89cf906206fee158968f5a9848", "bike_id": "6df7cf89cf906206fee158968f5a9848", "fusion_lon": 0.0, "rental_uris": {"ios": "https://dc.lft.to/lastmile_qr_scan", "android": "https://dc.lft.to/lastmile_qr_scan"}, "is_reserved": 0, "fusion_lat": 0.0, "lon": -77.005683}, {"lat": 38.832964, "type": "electric_bike", "is_disabled": 0, "name": "94c2de72e54b72b02b5cc4c4f55aa6ff", "bike_id": "94c2de72e54b72b02b5cc4c4f55aa6ff", "fusion_lon": 0.0, "rental_uris": {"ios": "https://dc.lft.to/lastmile_qr_scan", "android": "https://dc.lft.to/lastmile_qr_scan"}, "is_reserved": 0, "fusion_lat": 0.0, "lon": -77.0841495},