{"data": {"bikes": [{"fusion_lat": 0.0, "bike_id": "247612bda7dc54b135ae2335792b2024", "fusion_lon": 0.0, "lon": -76.965062, "lat": 38.876463333333334, "is_reserved": 0, "is_disabled": 0, "rental_uris": {"android": "https://dc.lft.to/lastmile_qr_scan", "ios": "https://dc.lft.to/lastmile_qr_scan"}, "name": "247612bda7dc54b135ae2335792b2024", "type": "electric_scooter"}, {"fusion_lat": 0.0, "bike_id": "dd79d197f20059e7c71875ac5aee4ebf", "fusion_lon": 0.0, "lon": -76.9319015, "lat": 38.898803, "is_reserved": 0, "is_disabled": 0, "rental_uris": {"android": "https://dc.lft.to/lastmile_qr_scan", "ios": "https://dc.lft.to/lastmile_qr_scan"}, "name": "dd79d197f20059e7c71875ac5aee4ebf", "type": "electric_scooter"}, {"fusion_lat": 0.0, "bike_id": "f436c2d3dfe227544b51ee422706e80d", "fusion_lon": 0.0, "lon": -77.07294766666666, "lat": 38.93544933333333, "is_reserved": 0, "is_disabled": 0, "rental_uris": {"android": "https://dc.lft.to/lastmile_qr_scan", "ios": "https://dc.lft.to/lastmile_qr_scan"}, "name": "f436c2d3dfe227544b51ee422706e80d", "type": "electric_scooter"}, {"fusion_lat": 0.0, "bike_id": "11c300b7b747ec78a4fec7a7508da36c", "fusion_lon": 0.0, "lon": -77.04867483333334, "lat": 38.89279666666667, "is_reserved": 0, "is_disabled": 0, "rental_uris": {"android": "https://dc.lft.to/lastmile_qr_scan", "ios": "https://dc.lft.to/lastmile_qr_scan"}, "name": "11c300b7b747ec78a4fec7a7508da36c", "type": "electric_scooter"}, {"fusion_lat": 0.0, "bike_id": "e722e628b45451107ce12d86c50a895a", "fusion_lon": 0.0, "lon": -77.0258295, "lat": 38.9441045, "is_reserved": 0, "is_disabled": 0, "rental_uris": {"android": "https://dc.lft.to/lastmile_qr_scan", "ios": "https://dc.lft.to/lastmile_qr_scan"}, "name": "e722e628b45451107ce12d86c50a895a", "type": "electric_scooter"}, {"fusion_lat": 0.0, "bike_id": "4a1d6a72a6b0521a12d0bcaba09ba356", "fusion_lon": 0.0, "lon": -76.93732083333333, "lat": 38.890166, "is_reserved": 0, "is_disabled": 0, "rental_uris": {"android": "https://dc.lft.to/lastmile_qr_scan", "ios": "https://dc.lft.to/lastmile_qr_scan"}, "name": "4a1d6a72a6b0521a12d0bcaba09ba356", "type": "electric_scooter"}, {"fusion_lat": 0.0, "bike_id": "8eace36fe45d6000724a928acb41fca7", "fusion_lon": 0.0, "lon": -77.05641633333333, "lat": 38.926301, "is_reserved": 0, "is_disabled": 0, "rental_uris": {"android": "https://dc.lft.to/lastmile_qr_scan", "ios": "https://dc.lft.to/lastmile_qr_scan"}, "name": "8eace36fe45d6000724a928acb41fca7", "type": "electric_scooter"}, {"fusion_lat": 0.0, "bike_id": "ca287126d17facf75266b300160ba768", "fusion_lon": 0.0, "lon": -77.02981383333334, "lat": 38.9166805, "is_reserved": 0, "is_disabled": 0, "rental_uris": {"android": "https://dc.lft.to/lastmile_qr_scan", "ios": "https://dc.lft.to/lastmile_qr_scan"}, "name": "ca287126d17facf75266b300160ba768", "type": "electric_scooter"}, {"fusion_lat": 0.0, "bike_id": "d98859cfd48c8b4a97b44fb4e22ddba8", "fusion_lon": 0.0, "lon": -77.021999, "lat": 38.899883, "is_reserved": 0, "is_disabled": 0, "rental_uris": {"android": "https://dc.lft.to/lastmile_qr_scan", "ios": "https://dc.lft.to/lastmile_qr_scan"}, "name": "d98859cfd48c8b4a97b44fb4e22ddba8", "type": "electric_scooter"}, {"fusion_lat": 0.0, "bike_id": "2227d9bd7fce5e44e03816c9a34e7e3d", "fusion_lon": 0.0, "lon": -77.08012266666667, "lat": 38.9506475, "is_reserved": 0, "is_disabled": 0, "rental_uris": {"android": "https://dc.lft.to/lastmile_qr_scan", "ios": "https://dc.lft.to/lastmile_qr_scan"}, "name": "2227d9bd7fce5e44e03816c9a34e7e3d", "type": "electric_scooter"}, {"fusion_lat": 0.0, "bike_id": "f15024422fbabe7699e6e697b0357710", "fusion_lon": 0.0, "lon": -77.02443316666667, "lat": 38.921330166666664, "is_reserved": 0, "is_disabled": 0, "rental_uris": {"android": "https://dc.lft.to/lastmile_qr_scan", "ios": "https://dc.lft.to/lastmile_qr_scan"}, "name": "f15024422fbabe7699e6e697b0357710", "type": "electric_scooter"}, {"fusion_lat": 0.0, "bike_id": "89aa91fb2c45244382bacf5c806aa3cd", "fusion_lon": 0.0, "lon": -76.96524466666666, "lat": 38.876308, "is_reserved": 0, "is_disabled": 0, "rental_uris": {"android": "https://dc.lft.to/lastmile_qr_scan", "ios": "https://dc.lft.to/lastmile_qr_scan"}, "name": "89aa91fb2c45244382bacf5c806aa3cd", "type": "electric_scooter"}, {"fusion_lat": 0.0, "bike_id": "a5a7375d1ac0c1e5e1631c26264ea478", "fusion_lon": 0.0, "lon": -76.97303333333333, "lat": 38.916421166666666, "is_reserved": 0, "is_disabled": 0, "rental_uris": {"android": "https://dc.lft.to/lastmile_qr_scan", "ios": "https://dc.lft.to/lastmile_qr_scan"}, "name": "a5a7375d1ac0c1e5e1631c26264ea478", "type": "electric_bike"}, {"fusion_lat": 0.0, "bike_id": "b821a4d2349b2d9af990fbbdadfc3be7", "fusion_lon": 0.0, "lon": -77.0382165, "lat": 38.915556, "is_reserved": 0, "is_disabled": 0, "rental_uris": {"android": "https://dc.lft.to/lastmile_qr_scan", "ios": "https://dc.lft.to/lastmile_qr_scan"}, "name": "b821a4d2349b2d9af990fbbdadfc3be7", "type": "electric_scooter"}, {"fusion_lat": 0.0, "bike_id": "7b51207b88d40a650b0e5716e363ccd3", "fusion_lon": 0.0, "lon": -77.03629566666666, "lat": 38.94495116666667, "is_reserved": 0, "is_disabled": 0, "rental_uris": {"android": "https://dc.lft.to/lastmile_qr_scan", "ios": "https://dc.lft.to/lastmile_qr_scan"}, "name": "7b51207b88d40a650b0e5716e363ccd3", "type": "electric_scooter"}, {"fusion_lat": 0.0, "bike_id": "b3c73ab8f514b1b006c66e49a48557d9", "fusion_lon": 0.0, "lon": -77.05609466666667, "lat": 38.93162733333333, "is_reserved": 0, "is_disabled": 0, "rental_uris": {"android": "https://dc.lft.to/lastmile_qr_scan", "ios": "https://dc.lft.to/lastmile_qr_scan"}, "name": "b3c73ab8f514b1b006c66e49a48557d9", "type": "electric_scooter"}, {"fusion_lat": 0.0, "bike_id": "8c9999307b729e1e4e9e6d5b9209870a", "fusion_lon": 0.0, "lon": -77.04723066666666, "lat": 38.89724616666667, "is_reserved": 0, "is_disabled": 0, "rental_uris": {"android": "https://dc.lft.to/lastmile_qr_scan", "ios": "https://dc.lft.to/lastmile_qr_scan"}, "name": "8c9999307b729e1e4e9e6d5b9209870a", "type": "electric_scooter"}, {"fusion_lat": 0.0, "bike_id": "fa577a82bdf96309fa62cd879e1a8a49", "fusion_lon": 0.0, "lon": -77.025582, "lat": 38.925458166666665, "is_reserved": 0, "is_disabled": 0, "rental_uris": {"android": "https://dc.lft.to/lastmile_qr_scan", "ios": "https://dc.lft.to/lastmile_qr_scan"}, "name": "fa577a82bdf96309fa62cd879e1a8a49", "type": "electric_scooter"}, {"fusion_lat": 0.0, "bike_id": "632e797b77fb2e451fcf53f7af27067d", "fusion_lon": 0.0, "lon": -77.06104516666667, "lat": 38.9394905, "is_reserved": 0, "is_disabled": 0, "rental_uris": {"android": "https://dc.lft.to/lastmile_qr_scan", "ios": "https://dc.lft.to/lastmile_qr_scan"}, "name": "632e797b77fb2e451fcf53f7af27067d", "type": "electric_scooter"}, {"fusion_lat": 0.0, "bike_id": "65bdd936df63ff8a0462169ee4ea1e1f", "fusion_lon": 0.0, "lon": -77.03376283333333, "lat": 38.92157616666667, "is_reserved": 0, "is_disabled": 0, "rental_uris": {"android": "https://dc.lft.to/lastmile_qr_scan", "ios": "https://dc.lft.to/lastmile_qr_scan"}, "name": "65bdd936df63ff8a0462169ee4ea1e1f", "type": "electric_scooter"}, {"fusion_lat": 0.0, "bike_id": "a50494247c99bd86c9c66d26b54c08e0", "fusion_lon": 0.0, "lon": -76.98835583333333, "lat": 38.900713, "is_reserved": 0, "is_disabled": 0, "rental_uris": {"android": "https://dc.lft.to/lastmile_qr_scan", "ios": "https://dc.lft.to/lastmile_qr_scan"}, "name": "a50494247c99bd86c9c66d26b54c08e0", "type": "electric_scooter"}, {"fusion_lat": 0.0, "bike_id": "f4d0bf00eed40167d4bb4cdd1405edd2", "fusion_lon": 0.0, "lon": -77.06123566666666, "lat": 38.943489166666666, "is_reserved": 0, "is_disabled": 0, "rental_uris": {"android": "https://dc.lft.to/lastmile_qr_scan", "ios": "https://dc.lft.to/lastmile_qr_scan"}, "name": "f4d0bf00eed40167d4bb4cdd1405edd2", "type": "electric_scooter"}, {"fusion_lat": 0.0, "bike_id": "8bf5509d7af539465159aac2cc468e6e", "fusion_lon": 0.0, "lon": -77.02969566666667, "lat": 38.917252, "is_reserved": 0, "is_disabled": 0, "rental_uris": {"android": "https://dc.lft.to/lastmile_qr_scan", "ios": "https://dc.lft.to/lastmile_qr_scan"}, "name": "8bf5509d7af539465159aac2cc468e6e", "type": "electric_scooter"}, {"fusion_lat": 0.0, "bike_id": "82417403db4eab62a8160ed7c8dc6f2d", "fusion_lon": 0.0, "lon": -76.98369783333334, "lat": 38.8896135, "is_reserved": 0, "is_disabled": 0, "rental_uris": {"android": "https://dc.lft.to/lastmile_qr_scan", "ios": "https://dc.lft.to/lastmile_qr_scan"}, "name": "82417403db4eab62a8160ed7c8dc6f2d", "type": "electric_scooter"}, {"fusion_lat": 0.0, "bike_id": "244f12bb9b582bf6a80c3d8feb4f427a", "fusion_lon": 0.0, "lon": -77.03212683333334, "lat": 38.916209333333335, "is_reserved": 0, "is_disabled": 0, "rental_uris": {"android": "https://dc.lft.to/lastmile_qr_scan", "ios": "https://dc.lft.to/lastmile_qr_scan"}, "name": "244f12bb9b582bf6a80c3d8feb4f427a", "type": "electric_scooter"}, {"fusion_lat": 0.0, "bike_id": "7b0d332f2726986659e481f2175a89f8", "fusion_lon": 0.0, "lon": -77.03153916666666, "lat": 38.90358833333333, "is_reserved": 0, "is_disabled": 0, "rental_uris": {"android": "https://dc.lft.to/lastmile_qr_scan", "ios": "https://dc.lft.to/lastmile_qr_scan"}, "name": "7b0d332f2726986659e481f2175a89f8", "type": "electric_scooter"}, {"fusion_lat": 0.0, "bike_id": "caab656fce45bb138d741170e11905a6", "fusion_lon": 0.0, "lon": -76.9773975, "lat": 38.87146116666667, "is_reserved": 0, "is_disabled": 0, "rental_uris": {"android": "https://dc.lft.to/lastmile_qr_scan", "ios": "https://dc.lft.to/lastmile_qr_scan"}, "name": "caab656fce45bb138d741170e11905a6", "type": "electric_scooter"}, {"fusion_lat": 0.0, "bike_id": "9541294cb47579c73b94bb677cfea8ff", "fusion_lon": 0.0, "lon": -77.05180016666667, "lat": 38.924300833333334, "is_reserved": 0, "is_disabled": 0, "rental_uris": {"android": "https://dc.lft.to/lastmile_qr_scan", "ios": "https://dc.lft.to/lastmile_qr_scan"}, "name": "9541294cb47579c73b94bb677cfea8ff", "type": "electric_scooter"}, {"fusion_lat": 0.0, "bike_id": "2268b763f1cf466510d270453ed1ef60", "fusion_lon": 0.0, "lon": -76.99793833333334, "lat": 38.82910116666667, "is_reserved": 0, "is_disabled": 0, "rental_uris": {"android": "https://dc.lft.to/lastmile_qr_scan", "ios": "https://dc.lft.to/lastmile_qr_scan"}, "name": "2268b763f1cf466510d270453ed1ef60", "type": "electric_bike"}, {"fusion_lat": 0.0, "bike_id": "2bd4ad4d7b30b70811e3b1dc14e37657", "fusion_lon": 0.0, "lon": -77.03607966666667, "lat": 38.9368135, "is_reserved": 0, "is_disabled": 0, "rental_uris": {"android": "https://dc.lft.to/lastmile_qr_scan", "ios": "https://dc.lft.to/lastmile_qr_scan"}, "name": "2bd4ad4d7b30b70811e3b1dc14e37657", "type": "electric_scooter"}, {"fusion_lat": 0.0, "bike_id": "b0416041289bc218f1824ac4b6ee5412", "fusion_lon": 0.0, "lon": -77.029659, "lat": 38.922886, "is_reserved": 0, "is_disabled": 0, "rental_uris": {"android": "https://dc.lft.to/lastmile_qr_scan", "ios": "https://dc.lft.to/lastmile_qr_scan"}, "name": "b0416041289bc218f1824ac4b6ee5412", "type": "electric_scooter"}, {"fusion_lat": 0.0, "bike_id": "8f894d54242c55db87ea20e436064bab", "fusion_lon": 0.0, "lon": -77.020962, "lat": 38.93258, "is_reserved": 0, "is_disabled": 0, "rental_uris": {"android": "https://dc.lft.to/lastmile_qr_scan", "ios": "https://dc.lft.to/lastmile_qr_scan"}, "name": "8f894d54242c55db87ea20e436064bab", "type": "electric_scooter"}, {"fusion_lat": 0.0, "bike_id": "3558d9c90ed7acadd2cebb5fd5e327f3", "fusion_lon": 0.0, "lon": -77.0240305, "lat": 38.917316, "is_reserved": 0, "is_disabled": 0, "rental_uris": {"android": "https://dc.lft.to/lastmile_qr_scan", "ios": "https://dc.lft.to/lastmile_qr_scan"}, "name": "3558d9c90ed7acadd2cebb5fd5e327f3", "type": "electric_scooter"}, {"fusion_lat": 0.0, "bike_id": "80be626972477babb963e944ad048587", "fusion_lon": 0.0, "lon": -77.02220833333334, "lat": 38.935509333333336, "is_reserved": 0, "is_disabled": 0, "rental_uris": {"android": "https://dc.lft.to/lastmile_qr_scan", "ios": "https://dc.lft.to/lastmile_qr_scan"}, "name": "80be626972477babb963e944ad048587", "type": "electric_scooter"}, {"fusion_lat": 0.0, "bike_id": "c18f2fb9bef3fd291cf2db3d84d252f7", "fusion_lon": 0.0, "lon": -77.02311516666667, "lat": 38.894857, "is_reserved": 0, "is_disabled": 0, "rental_uris": {"android": "https://dc.lft.to/lastmile_qr_scan", "ios": "https://dc.lft.to/lastmile_qr_scan"}, "name": "c18f2fb9bef3fd291cf2db3d84d252f7", "type": "electric_scooter"}, {"fusion_lat": 0.0, "bike_id": "c4c44a1cffe36803ce501208afdb4dd6", "fusion_lon": 0.0, "lon": -77.0308215, "lat": 38.910604166666666, "is_reserved": 0, "is_disabled": 0, "rental_uris": {"android": "https://dc.lft.to/lastmile_qr_scan", "ios": "https://dc.lft.to/lastmile_qr_scan"}, "name": "c4c44a1cffe36803ce501208afdb4dd6", "type": "electric_scooter"}, {"fusion_lat": 0.0, "bike_id": "e2f40c05f2f0da39ebe4c6d9c42d63a4", "fusion_lon": 0.0, "lon": -77.11707033333333, "lat": 38.867456833333335, "is_reserved": 0, "is_disabled": 0, "rental_uris": {"android": "https://dc.lft.to/lastmile_qr_scan", "ios": "https://dc.lft.to/lastmile_qr_scan"}, "name": "e2f40c05f2f0da39ebe4c6d9c42d63a4", "type": "electric_bike"}, {"fusion_lat": 0.0, "bike_id": "bc2bc59b5234a851fabb02fb64c2b898", "fusion_lon": 0.0, "lon": -77.04488083333334, "lat": 38.90265433333333, "is_reserved": 0, "is_disabled": 0, "rental_uris": {"android": "https://dc.lft.to/lastmile_qr_scan", "ios": "https://dc.lft.to/lastmile_qr_scan"}, "name": "bc2bc59b5234a851fabb02fb64c2b898", "type": "electric_scooter"}, {"fusion_lat": 0.0, "bike_id": "99208ea3003ec7fb5e46a981ef87f547", "fusion_lon": 0.0, "lon": -77.0320735, "lat": 38.91133083333333, "is_reserved": 0, "is_disabled": 0, "rental_uris": {"android": "https://dc.lft.to/lastmile_qr_scan", "ios": "https://dc.lft.to/lastmile_qr_scan"}, "name": "99208ea3003ec7fb5e46a981ef87f547", "type": "electric_scooter"}, {"fusion_lat": 0.0, "bike_id": "e8c19de6a5d4cee0cff99d0b944b80ec", "fusion_lon": 0.0, "lon": -77.02869633333333, "lat": 38.921331333333335, "is_reserved": 0, "is_disabled": 0, "rental_uris": {"android": "https://dc.lft.to/lastmile_qr_scan", "ios": "https://dc.lft.to/lastmile_qr_scan"}, "name": "e8c19de6a5d4cee0cff99d0b944b80ec", "type": "electric_bike"}, {"fusion_lat": 0.0, "bike_id": "d01e65e32b9c297574022479975a15ad", "fusion_lon": 0.0, "lon": -77.07617, "lat": 38.965772666666666, "is_reserved": 0, "is_disabled": 0, "rental_uris": {"android": "https://dc.lft.to/lastmile_qr_scan", "ios": "https://dc.lft.to/lastmile_qr_scan"}, "name": "d01e65e32b9c297574022479975a15ad", "type": "electric_bike"}, {"fusion_lat": 0.0, "bike_id": "49424d7725200c9ea19cc2d788160828", "fusion_lon": 0.0, "lon": -77.04491166666666, "lat": 38.92245033333333, "is_reserved": 0, "is_disabled": 0, "rental_uris": {"android": "https://dc.lft.to/lastmile_qr_scan", "ios": "https://dc.lft.to/lastmile_qr_scan"}, "name": "49424d7725200c9ea19cc2d788160828", "type": "electric_scooter"}, {"fusion_lat": 0.0, "bike_id": "82f95fff42acdf316d67164b8b39ebf5", "fusion_lon": 0.0, "lon": -77.01401566666667, "lat": 38.88123683333333, "is_reserved": 0, "is_disabled": 0, "rental_uris": {"android": "https://dc.lft.to/lastmile_qr_scan", "ios": "https://dc.lft.to/lastmile_qr_scan"}, "name": "82f95fff42acdf316d67164b8b39ebf5", "type": "electric_scooter"}, {"fusion_lat": 0.0, "bike_id": "bf6e676305e0966a89074d2bf4bda7ee", "fusion_lon": 0.0, "lon": -77.032167, "lat": 38.925924, "is_reserved": 0, "is_disabled": 0, "rental_uris": {"android": "https://dc.lft.to/lastmile_qr_scan", "ios": "https://dc.lft.to/lastmile_qr_scan"}, "name": "bf6e676305e0966a89074d2bf4bda7ee", "type": "electric_scooter"}, {"fusion_lat": 0.0, "bike_id": "6472d09c79aa64d81feef4e212b68261", "fusion_lon": 0.0, "lon": -76.9574595, "lat": 38.884276166666666, "is_reserved": 0, "is_disabled": 0, "rental_uris": {"android": "https://dc.lft.to/lastmile_qr_scan", "ios": "https://dc.lft.to/lastmile_qr_scan"}, "name": "6472d09c79aa64d81feef4e212b68261", "type": "electric_scooter"}, {"fusion_lat": 0.0, "bike_id": "963353ed8af8c1e437040b7c4cf62b63", "fusion_lon": 0.0, "lon": -76.98499183333334, "lat": 38.866687, "is_reserved": 0, "is_disabled": 0, "rental_uris": {"android": "https://dc.lft.to/lastmile_qr_scan", "ios": "https://dc.lft.to/lastmile_qr_scan"}, "name": "963353ed8af8c1e437040b7c4cf62b63", "type": "electric_scooter"}, {"fusion_lat": 0.0, "bike_id": "a9848b12f51774176a8234fc28e4e712", "fusion_lon": 0.0, "lon": -77.02939366666666, "lat": 38.90501066666667, "is_reserved": 0, "is_disabled": 0, "rental_uris": {"android": "https://dc.lft.to/lastmile_qr_scan", "ios": "https://dc.lft.to/lastmile_qr_scan"}, "name": "a9848b12f51774176a8234fc28e4e712", "type": "electric_scooter"}, {"fusion_lat": 0.0, "bike_id": "1413b9e442d14cc3e8b8d2de14a4bc7a", "fusion_lon": 0.0, "lon": -77.0077955, "lat": 38.9149005, "is_reserved": 0, "is_disabled": 0, "rental_uris": {"android": "https://dc.lft.to/lastmile_qr_scan", "ios": "https://dc.lft.to/lastmile_qr_scan"}, "name": "1413b9e442d14cc3e8b8d2de14a4bc7a", "type": "electric_scooter"}, {"fusion_lat": 0.0, "bike_id": "c13ec1a7f84df0477e36b065c125c7be", "fusion_lon": 0.0, "lon": -77.03224, "lat": 38.8922425, "is_reserved": 0, "is_disabled": 0, "rental_uris": {"android": "https://dc.lft.to/lastmile_qr_scan", "ios": "https://dc.lft.to/lastmile_qr_scan"}, "name": "c13ec1a7f84df0477e36b065c125c7be", "type": "electric_scooter"}, {"fusion_lat": 0.0, "bike_id": "44f8c6655189b9d538fb0551f432575b", "fusion_lon": 0.0, "lon": -77.032786, "lat": 38.9563415, "is_reserved": 0, "is_disabled": 0, "rental_uris": {"android": "https://dc.lft.to/lastmile_qr_scan", "ios": "https://dc.lft.to/lastmile_qr_scan"}, "name": "44f8c6655189b9d538fb0551f432575b", "type": "electric_scooter"}, {"fusion_lat": 0.0, "bike_id": "97db2425f3c5cec0e7883ee6f17b33e4", "fusion_lon": 0.0, "lon": -76.97330966666667, "lat": 38.86515766666667, "is_reserved": 0, "is_disabled": 0, "rental_uris": {"android": "https://dc.lft.to/lastmile_qr_scan", "ios": "https://dc.lft.to/lastmile_qr_scan"}, "name": "97db2425f3c5cec0e7883ee6f17b33e4", "type": "electric_bike"}, {"fusion_lat": 0.0, "bike_id": "c1f311d25f68beb0f2d90fa6afbb2fa0", "fusion_lon": 0.0, "lon": -76.98559916666666, "lat": 38.909158833333336, "is_reserved": 0, "is_disabled": 0, "rental_uris": {"android": "https://dc.lft.to/lastmile_qr_scan", "ios": "https://dc.lft.to/lastmile_qr_scan"}, "name": "c1f311d25f68beb0f2d90fa6afbb2fa0", "type": "electric_scooter"}, {"fusion_lat": 0.0, "bike_id": "16932ef2bada69278d0c9cc89b75d842", "fusion_lon": 0.0, "lon": -76.99502933333333, "lat": 38.882849, "is_reserved": 0, "is_disabled": 0, "rental_uris": {"android": "https://dc.lft.to/lastmile_qr_scan", "ios": "https://dc.lft.to/lastmile_qr_scan"}, "name": "16932ef2bada69278d0c9cc89b75d842", "type": "electric_scooter"}, {"fusion_lat": 0.0, "bike_id": "2739222544b60a7228729a75ccf95c5c", "fusion_lon": 0.0, "lon": -77.03069983333333, "lat": 38.917015, "is_reserved": 0, "is_disabled": 0, "rental_uris": {"android": "https://dc.lft.to/lastmile_qr_scan", "ios": "https://dc.lft.to/lastmile_qr_scan"}, "name": "2739222544b60a7228729a75ccf95c5c", "type": "electric_scooter"}, {"fusion_lat": 0.0, "bike_id": "bc191c8b79b636aa9bb10c5362cf9675", "fusion_lon": 0.0, "lon": -77.0436695, "lat": 38.92101516666666, "is_reserved": 0, "is_disabled": 0, "rental_uris": {"android": "https://dc.lft.to/lastmile_qr_scan", "ios": "https://dc.lft.to/lastmile_qr_scan"}, "name": "bc191c8b79b636aa9bb10c5362cf9675", "type": "electric_scooter"}, {"fusion_lat": 0.0, "bike_id": "9690bf726ae0cee0725c38702018ac5e", "fusion_lon": 0.0, "lon": -77.05617833333334, "lat": 38.92981133333333, "is_reserved": 0, "is_disabled": 0, "rental_uris": {"android": "https://dc.lft.to/lastmile_qr_scan", "ios": "https://dc.lft.to/lastmile_qr_scan"}, "name": "9690bf726ae0cee0725c38702018ac5e", "type": "electric_bike"}, {"fusion_lat": 0.0, "bike_id": "135a9f740bc37fe07d5d4aba7f40c899", "fusion_lon": 0.0, "lon": -76.97767666666667, "lat": 38.95153583333333, "is_reserved": 0, "is_disabled": 0, "rental_uris": {"android": "https://dc.lft.to/lastmile_qr_scan", "ios": "https://dc.lft.to/lastmile_qr_scan"}, "name": "135a9f740bc37fe07d5d4aba7f40c899", "type": "electric_bike"}, {"fusion_lat": 0.0, "bike_id": "eabe209f75b889cc4afb306b44dc16dc", "fusion_lon": 0.0, "lon": -77.02593133333333, "lat": 38.9420035, "is_reserved": 0, "is_disabled": 0, "rental_uris": {"android": "https://dc.lft.to/lastmile_qr_scan", "ios": "https://dc.lft.to/lastmile_qr_scan"}, "name": "eabe209f75b889cc4afb306b44dc16dc", "type": "electric_scooter"}, {"fusion_lat": 0.0, "bike_id": "06c11d574cfa9072c55a133f9a056429", "fusion_lon": 0.0, "lon": -77.0332985, "lat": 38.90955266666667, "is_reserved": 0, "is_disabled": 0, "rental_uris": {"android": "https://dc.lft.to/lastmile_qr_scan", "ios": "https://dc.lft.to/lastmile_qr_scan"}, "name": "06c11d574cfa9072c55a133f9a056429", "type": "electric_scooter"}, {"fusion_lat": 0.0, "bike_id": "6d13fb8e127224e2ca7b351aa8df9cd6", "fusion_lon": 0.0, "lon": -77.007276, "lat": 38.88496883333333, "is_reserved": 0, "is_disabled": 0, "rental_uris": {"android": "https://dc.lft.to/lastmile_qr_scan", "ios": "https://dc.lft.to/lastmile_qr_scan"}, "name": "6d13fb8e127224e2ca7b351aa8df9cd6", "type": "electric_scooter"}, {"fusion_lat": 0.0, "bike_id": "49ede3cb8d83f852c82f869395d553da", "fusion_lon": 0.0, "lon": -77.03634083333333, "lat": 38.92746416666667, "is_reserved": 0, "is_disabled": 0, "rental_uris": {"android": "https://dc.lft.to/lastmile_qr_scan", "ios": "https://dc.lft.to/lastmile_qr_scan"}, "name": "49ede3cb8d83f852c82f869395d553da", "type": "electric_scooter"}, {"fusion_lat": 0.0, "bike_id": "1a1dfb0e24f5eb5cf061032e0e50a4e1", "fusion_lon": 0.0, "lon": -77.0294785, "lat": 38.9168395, "is_reserved": 0, "is_disabled": 0, "rental_uris": {"android": "https://dc.lft.to/lastmile_qr_scan", "ios": "https://dc.lft.to/lastmile_qr_scan"}, "name": "1a1dfb0e24f5eb5cf061032e0e50a4e1", "type": "electric_scooter"}, {"fusion_lat": 0.0, "bike_id": "6e96b441578e13723e75c17305839407", "fusion_lon": 0.0, "lon": -76.9995865, "lat": 38.921512166666666, "is_reserved": 0, "is_disabled": 0, "rental_uris": {"android": "https://dc.lft.to/lastmile_qr_scan", "ios": "https://dc.lft.to/lastmile_qr_scan"}, "name": "6e96b441578e13723e75c17305839407", "type": "electric_scooter"}, {"fusion_lat": 0.0, "bike_id": "a66ed8da9ef91f63eb66bd00c89bc6c6", "fusion_lon": 0.0, "lon": -77.02648616666667, "lat": 38.92773716666667, "is_reserved": 0, "is_disabled": 0, "rental_uris": {"android": "https://dc.lft.to/lastmile_qr_scan", "ios": "https://dc.lft.to/lastmile_qr_scan"}, "name": "a66ed8da9ef91f63eb66bd00c89bc6c6", "type": "electric_scooter"}, {"fusion_lat": 0.0, "bike_id": "cd80d2fcbcebaf93da5f3df20d5fd367", "fusion_lon": 0.0, "lon": -77.02810133333334, "lat": 38.91135766666667, "is_reserved": 0, "is_disabled": 0, "rental_uris": {"android": "https://dc.lft.to/lastmile_qr_scan", "ios": "https://dc.lft.to/lastmile_qr_scan"}, "name": "cd80d2fcbcebaf93da5f3df20d5fd367", "type": "electric_scooter"}, {"fusion_lat": 0.0, "bike_id": "0d851831eeffdd375a1407deb2354c0b", "fusion_lon": 0.0, "lon": -77.0019985, "lat": 38.902352666666665, "is_reserved": 0, "is_disabled": 0, "rental_uris": {"android": "https://dc.lft.to/lastmile_qr_scan", "ios": "https://dc.lft.to/lastmile_qr_scan"}, "name": "0d851831eeffdd375a1407deb2354c0b", "type": "electric_scooter"}, {"fusion_lat": 0.0, "bike_id": "7b28a5c6f9d7a39a57b8750c9e78ccb6", "fusion_lon": 0.0, "lon": -77.03005, "lat": 38.89595583333333, "is_reserved": 0, "is_disabled": 0, "rental_uris": {"android": "https://dc.lft.to/lastmile_qr_scan", "ios": "https://dc.lft.to/lastmile_qr_scan"}, "name": "7b28a5c6f9d7a39a57b8750c9e78ccb6", "type": "electric_scooter"}, {"fusion_lat": 0.0, "bike_id": "cc026b41ca5837dee660da192ba4312f", "fusion_lon": 0.0, "lon": -77.02383866666666, "lat": 38.892382833333336, "is_reserved": 0, "is_disabled": 0, "rental_uris": {"android": "https://dc.lft.to/lastmile_qr_scan", "ios": "https://dc.lft.to/lastmile_qr_scan"}, "name": "cc026b41ca5837dee660da192ba4312f", "type": "electric_scooter"}, {"fusion_lat": 0.0, "bike_id": "7044e9cd82d957f9bf34f7f25a20b302", "fusion_lon": 0.0, "lon": -77.0003035, "lat": 38.96799766666667, "is_reserved": 0, "is_disabled": 0, "rental_uris": {"android": "https://dc.lft.to/lastmile_qr_scan", "ios": "https://dc.lft.to/lastmile_qr_scan"}, "name": "7044e9cd82d957f9bf34f7f25a20b302", "type": "electric_bike"}, {"fusion_lat": 0.0, "bike_id": "404ff0f593cba2ef1b9b0a3050638a6c", "fusion_lon": 0.0, "lon": -77.05685716666666, "lat": 38.86481166666667, "is_reserved": 0, "is_disabled": 0, "rental_uris": {"android": "https://dc.lft.to/lastmile_qr_scan", "ios": "https://dc.lft.to/lastmile_qr_scan"}, "name": "404ff0f593cba2ef1b9b0a3050638a6c", "type": "electric_bike"}, {"fusion_lat": 0.0, "bike_id": "69bfea2758680106c95983cfdd3726b8", "fusion_lon": 0.0, "lon": -77.05045416666667, "lat": 38.9236285, "is_reserved": 0, "is_disabled": 0, "rental_uris": {"android": "https://dc.lft.to/lastmile_qr_scan", "ios": "https://dc.lft.to/lastmile_qr_scan"}, "name": "69bfea2758680106c95983cfdd3726b8", "type": "electric_scooter"}, {"fusion_lat": 0.0, "bike_id": "090f13b00cfe1aa02cf1e4be1639f74e", "fusion_lon": 0.0, "lon": -77.0320465, "lat": 38.91730033333333, "is_reserved": 0, "is_disabled": 0, "rental_uris": {"android": "https://dc.lft.to/lastmile_qr_scan", "ios": "https://dc.lft.to/lastmile_qr_scan"}, "name": "090f13b00cfe1aa02cf1e4be1639f74e", "type": "electric_scooter"}, {"fusion_lat": 0.0, "bike_id": "1c9533f966e2c816da0ec2a5d7be7f4e", "fusion_lon": 0.0, "lon": -77.03877066666666, "lat": 38.92964, "is_reserved": 0, "is_disabled": 0, "rental_uris": {"android": "https://dc.lft.to/lastmile_qr_scan", "ios": "https://dc.lft.to/lastmile_qr_scan"}, "name": "1c9533f966e2c816da0ec2a5d7be7f4e", "type": "electric_scooter"}, {"fusion_lat": 0.0, "bike_id": "6e05bd7f0d47736a79fe5e68b9c7c9c8", "fusion_lon": 0.0, "lon": -77.036611, "lat": 38.92134516666667, "is_reserved": 0, "is_disabled": 0, "rental_uris": {"android": "https://dc.lft.to/lastmile_qr_scan", "ios": "https://dc.lft.to/lastmile_qr_scan"}, "name": "6e05bd7f0d47736a79fe5e68b9c7c9c8", "type": "electric_scooter"}, {"fusion_lat": 0.0, "bike_id": "ead3c4edf07a1c4eab52e8b737efc2d4", "fusion_lon": 0.0, "lon": -77.03214166666666, "lat": 38.91693016666667, "is_reserved": 0, "is_disabled": 0, "rental_uris": {"android": "https://dc.lft.to/lastmile_qr_scan", "ios": "https://dc.lft.to/lastmile_qr_scan"}, "name": "ead3c4edf07a1c4eab52e8b737efc2d4", "type": "electric_scooter"}, {"fusion_lat": 0.0, "bike_id": "2e1d72e01c807979ba5929ed7b351b23", "fusion_lon": 0.0, "lon": -77.0557235, "lat": 38.91598066666667, "is_reserved": 0, "is_disabled": 0, "rental_uris": {"android": "https://dc.lft.to/lastmile_qr_scan", "ios": "https://dc.lft.to/lastmile_qr_scan"}, "name": "2e1d72e01c807979ba5929ed7b351b23", "type": "electric_scooter"}, {"fusion_lat": 0.0, "bike_id": "487a314521a37568bcaabf39bc866747", "fusion_lon": 0.0, "lon": -77.02817166666667, "lat": 38.904926833333334, "is_reserved": 0, "is_disabled": 0, "rental_uris": {"android": "https://dc.lft.to/lastmile_qr_scan", "ios": "https://dc.lft.to/lastmile_qr_scan"}, "name": "487a314521a37568bcaabf39bc866747", "type": "electric_scooter"}, {"fusion_lat": 0.0, "bike_id": "297c2e59db6889b4e415527a70b9ac25", "fusion_lon": 0.0, "lon": -76.9456855, "lat": 38.866198833333335, "is_reserved": 0, "is_disabled": 0, "rental_uris": {"android": "https://dc.lft.to/lastmile_qr_scan", "ios": "https://dc.lft.to/lastmile_qr_scan"}, "name": "297c2e59db6889b4e415527a70b9ac25", "type": "electric_bike"}, {"fusion_lat": 0.0, "bike_id": "ffbbaceec56482b764f0a73c206a851e", "fusion_lon": 0.0, "lon": -77.022355, "lat": 38.92426366666667, "is_reserved": 0, "is_disabled": 0, "rental_uris": {"android": "https://dc.lft.to/lastmile_qr_scan", "ios": "https://dc.lft.to/lastmile_qr_scan"}, "name": "ffbbaceec56482b764f0a73c206a851e", "type": "electric_scooter"}, {"fusion_lat": 0.0, "bike_id": "24779a3c6adb0acd07ce559499779922", "fusion_lon": 0.0, "lon": -77.03988583333333, "lat": 38.92598016666667, "is_reserved": 0, "is_disabled": 0, "rental_uris": {"android": "https://dc.lft.to/lastmile_qr_scan", "ios": "https://dc.lft.to/lastmile_qr_scan"}, "name": "24779a3c6adb0acd07ce559499779922", "type": "electric_scooter"}, {"fusion_lat": 0.0, "bike_id": "a7b9d4522f2ca287093d54b171f4af0e", "fusion_lon": 0.0, "lon": -77.04106166666666, "lat": 38.89855333333333, "is_reserved": 0, "is_disabled": 0, "rental_uris": {"android": "https://dc.lft.to/lastmile_qr_scan", "ios": "https://dc.lft.to/lastmile_qr_scan"}, "name": "a7b9d4522f2ca287093d54b171f4af0e", "type": "electric_scooter"}, {"fusion_lat": 0.0, "bike_id": "404627c3321a02b00876e1b3f76d6d33", "fusion_lon": 0.0, "lon": -77.02084516666666, "lat": 38.95747333333333, "is_reserved": 0, "is_disabled": 0, "rental_uris": {"android": "https://dc.lft.to/lastmile_qr_scan", "ios": "https://dc.lft.to/lastmile_qr_scan"}, "name": "404627c3321a02b00876e1b3f76d6d33", "type": "electric_scooter"}, {"fusion_lat": 0.0, "bike_id": "868d4acad299ea4b7da0ab7edc706e4c", "fusion_lon": 0.0, "lon": -77.00753733333333, "lat": 38.898225333333336, "is_reserved": 0, "is_disabled": 0, "rental_uris": {"android": "https://dc.lft.to/lastmile_qr_scan", "ios": "https://dc.lft.to/lastmile_qr_scan"}, "name": "868d4acad299ea4b7da0ab7edc706e4c", "type": "electric_scooter"}, {"fusion_lat": 0.0, "bike_id": "329834e0db9c5ff48c7b5f98d7d4c9ea", "fusion_lon": 0.0, "lon": -77.04318983333333, "lat": 38.90873166666667, "is_reserved": 0, "is_disabled": 0, "rental_uris": {"android": "https://dc.lft.to/lastmile_qr_scan", "ios": "https://dc.lft.to/lastmile_qr_scan"}, "name": "329834e0db9c5ff48c7b5f98d7d4c9ea", "type": "electric_scooter"}, {"fusion_lat": 0.0, "bike_id": "c532f486368b8a30a4d15943e052e9e8", "fusion_lon": 0.0, "lon": -76.97301416666667, "lat": 38.96321733333333, "is_reserved": 0, "is_disabled": 0, "rental_uris": {"android": "https://dc.lft.to/lastmile_qr_scan", "ios": "https://dc.lft.to/lastmile_qr_scan"}, "name": "c532f486368b8a30a4d15943e052e9e8", "type": "electric_bike"}, {"fusion_lat": 0.0, "bike_id": "3e9fbfc66cbeaab5e5b75bcbf73a3fad", "fusion_lon": 0.0, "lon": -77.02468233333333, "lat": 38.941971, "is_reserved": 0, "is_disabled": 0, "rental_uris": {"android": "https://dc.lft.to/lastmile_qr_scan", "ios": "https://dc.lft.to/lastmile_qr_scan"}, "name": "3e9fbfc66cbeaab5e5b75bcbf73a3fad", "type": "electric_scooter"}, {"fusion_lat": 0.0, "bike_id": "8347e096bccb8ded4592911d50ab398b", "fusion_lon": 0.0, "lon": -77.00447633333333, "lat": 38.917654166666665, "is_reserved": 0, "is_disabled": 0, "rental_uris": {"android": "https://dc.lft.to/lastmile_qr_scan", "ios": "https://dc.lft.to/lastmile_qr_scan"}, "name": "8347e096bccb8ded4592911d50ab398b", "type": "electric_scooter"}, {"fusion_lat": 0.0, "bike_id": "cdc63135f6b953cec1980071533af38e", "fusion_lon": 0.0, "lon": -77.02243016666667, "lat": 38.91644316666667, "is_reserved": 0, "is_disabled": 0, "rental_uris": {"android": "https://dc.lft.to/lastmile_qr_scan", "ios": "https://dc.lft.to/lastmile_qr_scan"}, "name": "cdc63135f6b953cec1980071533af38e", "type": "electric_scooter"}, {"fusion_lat": 0.0, "bike_id": "18a45f07bb85c5f18558780f6423c575", "fusion_lon": 0.0, "lon": -76.999446, "lat": 38.896432833333336, "is_reserved": 0, "is_disabled": 0, "rental_uris": {"android": "https://dc.lft.to/lastmile_qr_scan", "ios": "https://dc.lft.to/lastmile_qr_scan"}, "name": "18a45f07bb85c5f18558780f6423c575", "type": "electric_scooter"}, {"fusion_lat": 0.0, "bike_id": "ea14de1ddae9f324c0a8575a37f54228", "fusion_lon": 0.0, "lon": -76.988376, "lat": 38.9003265, "is_reserved": 0, "is_disabled": 0, "rental_uris": {"android": "https://dc.lft.to/lastmile_qr_scan", "ios": "https://dc.lft.to/lastmile_qr_scan"}, "name": "ea14de1ddae9f324c0a8575a37f54228", "type": "electric_scooter"}, {"fusion_lat": 0.0, "bike_id": "963c061a965abef4443c6d5a2cdb8a4e", "fusion_lon": 0.0, "lon": -77.038164, "lat": 38.930627333333334, "is_reserved": 0, "is_disabled": 0, "rental_uris": {"android": "https://dc.lft.to/lastmile_qr_scan", "ios": "https://dc.lft.to/lastmile_qr_scan"}, "name": "963c061a965abef4443c6d5a2cdb8a4e", "type": "electric_scooter"}, {"fusion_lat": 0.0, "bike_id": "6969de95a40204ed271b64d5da432288", "fusion_lon": 0.0, "lon": -77.0318105, "lat": 38.911752, "is_reserved": 0, "is_disabled": 0, "rental_uris": {"android": "https://dc.lft.to/lastmile_qr_scan", "ios": "https://dc.lft.to/lastmile_qr_scan"}, "name": "6969de95a40204ed271b64d5da432288", "type": "electric_scooter"}, {"fusion_lat": 0.0, "bike_id": "0affb64dc4edf7ef2f56097ae34e2e04", "fusion_lon": 0.0, "lon": -76.98457716666667, "lat": 38.9055475, "is_reserved": 0, "is_disabled": 0, "rental_uris": {"android": "https://dc.lft.to/lastmile_qr_scan", "ios": "https://dc.lft.to/lastmile_qr_scan"}, "name": "0affb64dc4edf7ef2f56097ae34e2e04", "type": "electric_scooter"}, {"fusion_lat": 0.0, "bike_id": "76478509e012a55533ebf5f5e8924e45", "fusion_lon": 0.0, "lon": -77.04618916666666, "lat": 38.9155265, "is_reserved": 0, "is_disabled": 0, "rental_uris": {"android": "https://dc.lft.to/lastmile_qr_scan", "ios": "https://dc.lft.to/lastmile_qr_scan"}, "name": "76478509e012a55533ebf5f5e8924e45", "type": "electric_scooter"}, {"fusion_lat": 0.0, "bike_id": "07f69bcecd688c75b05d5119c13cf031", "fusion_lon": 0.0, "lon": -77.02895166666667, "lat": 38.89977783333333, "is_reserved": 0, "is_disabled": 0, "rental_uris": {"android": "https://dc.lft.to/lastmile_qr_scan", "ios": "https://dc.lft.to/lastmile_qr_scan"}, "name": "07f69bcecd688c75b05d5119c13cf031", "type": "electric_scooter"}, {"fusion_lat": 0.0, "bike_id": "8c703768cf64338c4b0e2a6051c795b7", "fusion_lon": 0.0, "lon": -77.02916716666667, "lat": 38.916953166666666, "is_reserved": 0, "is_disabled": 0, "rental_uris": {"android": "https://dc.lft.to/lastmile_qr_scan", "ios": "https://dc.lft.to/lastmile_qr_scan"}, "name": "8c703768cf64338c4b0e2a6051c795b7", "type": "electric_scooter"}, {"fusion_lat": 0.0, "bike_id": "2cdb43908152636cbbc59255a14b7791", "fusion_lon": 0.0, "lon": -77.03519633333333, "lat": 38.9225585, "is_reserved": 0, "is_disabled": 0, "rental_uris": {"android": "https://dc.lft.to/lastmile_qr_scan", "ios": "https://dc.lft.to/lastmile_qr_scan"}, "name": "2cdb43908152636cbbc59255a14b7791", "type": "electric_scooter"}, {"fusion_lat": 0.0, "bike_id": "9a5028beb890d9180cc768d783eeea93", "fusion_lon": 0.0, "lon": -76.97973383333333, "lat": 38.928954833333336, "is_reserved": 0, "is_disabled": 0, "rental_uris": {"android": "https://dc.lft.to/lastmile_qr_scan", "ios": "https://dc.lft.to/lastmile_qr_scan"}, "name": "9a5028beb890d9180cc768d783eeea93", "type": "electric_bike"}, {"fusion_lat": 0.0, "bike_id": "1d931cbc21996e218c65981c763d1c35", "fusion_lon": 0.0, "lon": -77.02403516666666, "lat": 38.919595666666666, "is_reserved": 0, "is_disabled": 0, "rental_uris": {"android": "https://dc.lft.to/lastmile_qr_scan", "ios": "https://dc.lft.to/lastmile_qr_scan"}, "name": "1d931cbc21996e218c65981c763d1c35", "type": "electric_scooter"}, {"fusion_lat": 0.0, "bike_id": "dba0b7f67015ad0568b33fd21829f19b", "fusion_lon": 0.0, "lon": -77.03940133333333, "lat": 38.89971366666666, "is_reserved": 0, "is_disabled": 0, "rental_uris": {"android": "https://dc.lft.to/lastmile_qr_scan", "ios": "https://dc.lft.to/lastmile_qr_scan"}, "name": "dba0b7f67015ad0568b33fd21829f19b", "type": "electric_scooter"}, {"fusion_lat": 0.0, "bike_id": "d41d2cf477a917b16df53bd1ef0c6a6b", "fusion_lon": 0.0, "lon": -77.18123166666666, "lat": 38.93226516666667, "is_reserved": 0, "is_disabled": 0, "rental_uris": {"android": "https://dc.lft.to/lastmile_qr_scan", "ios": "https://dc.lft.to/lastmile_qr_scan"}, "name": "d41d2cf477a917b16df53bd1ef0c6a6b", "type": "electric_bike"}, {"fusion_lat": 0.0, "bike_id": "b2b061ecc6946a7950689ed95218c710", "fusion_lon": 0.0, "lon": -77.02147716666667, "lat": 38.894689666666665, "is_reserved": 0, "is_disabled": 0, "rental_uris": {"android": "https://dc.lft.to/lastmile_qr_scan", "ios": "https://dc.lft.to/lastmile_qr_scan"}, "name": "b2b061ecc6946a7950689ed95218c710", "type": "electric_scooter"}, {"fusion_lat": 0.0, "bike_id": "3caf1c3c753a550961c652c36dd45294", "fusion_lon": 0.0, "lon": -77.04679166666666, "lat": 38.902811166666666, "is_reserved": 0, "is_disabled": 0, "rental_uris": {"android": "https://dc.lft.to/lastmile_qr_scan", "ios": "https://dc.lft.to/lastmile_qr_scan"}, "name": "3caf1c3c753a550961c652c36dd45294", "type": "electric_scooter"}, {"fusion_lat": 0.0, "bike_id": "acb8c49bc6353e2f8a5146a2de659b1b", "fusion_lon": 0.0, "lon": -76.96815583333333, "lat": 38.84716233333333, "is_reserved": 0, "is_disabled": 0, "rental_uris": {"android": "https://dc.lft.to/lastmile_qr_scan", "ios": "https://dc.lft.to/lastmile_qr_scan"}, "name": "acb8c49bc6353e2f8a5146a2de659b1b", "type": "electric_scooter"}, {"fusion_lat": 0.0, "bike_id": "01b37b3c485cd9cdab5a52824ec53930", "fusion_lon": 0.0, "lon": -77.04775516666666, "lat": 38.904942, "is_reserved": 0, "is_disabled": 0, "rental_uris": {"android": "https://dc.lft.to/lastmile_qr_scan", "ios": "https://dc.lft.to/lastmile_qr_scan"}, "name": "01b37b3c485cd9cdab5a52824ec53930", "type": "electric_scooter"}, {"fusion_lat": 0.0, "bike_id": "3eafc3bbe9eca55f965d1b4467b31f06", "fusion_lon": 0.0, "lon": -77.02309733333334, "lat": 38.92789966666667, "is_reserved": 0, "is_disabled": 0, "rental_uris": {"android": "https://dc.lft.to/lastmile_qr_scan", "ios": "https://dc.lft.to/lastmile_qr_scan"}, "name": "3eafc3bbe9eca55f965d1b4467b31f06", "type": "electric_scooter"}, {"fusion_lat": 0.0, "bike_id": "879457df6df52c07ff257dd94fe93fe8", "fusion_lon": 0.0, "lon": -76.94633966666666, "lat": 38.898331, "is_reserved": 0, "is_disabled": 0, "rental_uris": {"android": "https://dc.lft.to/lastmile_qr_scan", "ios": "https://dc.lft.to/lastmile_qr_scan"}, "name": "879457df6df52c07ff257dd94fe93fe8", "type": "electric_scooter"}, {"fusion_lat": 0.0, "bike_id": "dce2b2dfc2b5ed618eb4bd41f682e4e8", "fusion_lon": 0.0, "lon": -77.0595115, "lat": 38.918418, "is_reserved": 0, "is_disabled": 0, "rental_uris": {"android": "https://dc.lft.to/lastmile_qr_scan", "ios": "https://dc.lft.to/lastmile_qr_scan"}, "name": "dce2b2dfc2b5ed618eb4bd41f682e4e8", "type": "electric_scooter"}, {"fusion_lat": 0.0, "bike_id": "50748509e3ce367d13be333e93515b64", "fusion_lon": 0.0, "lon": -76.9652345, "lat": 38.8748185, "is_reserved": 0, "is_disabled": 0, "rental_uris": {"android": "https://dc.lft.to/lastmile_qr_scan", "ios": "https://dc.lft.to/lastmile_qr_scan"}, "name": "50748509e3ce367d13be333e93515b64", "type": "electric_scooter"}, {"fusion_lat": 0.0, "bike_id": "58f6a6856d4f3cf38cb2d830509b252d", "fusion_lon": 0.0, "lon": -77.03686016666667, "lat": 38.91813666666667, "is_reserved": 0, "is_disabled": 0, "rental_uris": {"android": "https://dc.lft.to/lastmile_qr_scan", "ios": "https://dc.lft.to/lastmile_qr_scan"}, "name": "58f6a6856d4f3cf38cb2d830509b252d", "type": "electric_scooter"}, {"fusion_lat": 0.0, "bike_id": "888d9c1435aa71a52731930a541e2661", "fusion_lon": 0.0, "lon": -77.0256115, "lat": 38.93355416666667, "is_reserved": 0, "is_disabled": 0, "rental_uris": {"android": "https://dc.lft.to/lastmile_qr_scan", "ios": "https://dc.lft.to/lastmile_qr_scan"}, "name": "888d9c1435aa71a52731930a541e2661", "type": "electric_scooter"}, {"fusion_lat": 0.0, "bike_id": "f80ee01ee21b00de26543f9a725a70ec", "fusion_lon": 0.0, "lon": -77.02267866666666, "lat": 38.924851333333336, "is_reserved": 0, "is_disabled": 0, "rental_uris": {"android": "https://dc.lft.to/lastmile_qr_scan", "ios": "https://dc.lft.to/lastmile_qr_scan"}, "name": "f80ee01ee21b00de26543f9a725a70ec", "type": "electric_scooter"}, {"fusion_lat": 0.0, "bike_id": "80f3972fa0fc419f552bdb0c9037af73", "fusion_lon": 0.0, "lon": -77.03388866666667, "lat": 38.90262116666667, "is_reserved": 0, "is_disabled": 0, "rental_uris": {"android": "https://dc.lft.to/lastmile_qr_scan", "ios": "https://dc.lft.to/lastmile_qr_scan"}, "name": "80f3972fa0fc419f552bdb0c9037af73", "type": "electric_scooter"}, {"fusion_lat": 0.0, "bike_id": "f4e3326ab952e3fc01a2745d4a395269", "fusion_lon": 0.0, "lon": -77.05146833333333, "lat": 38.9237005, "is_reserved": 0, "is_disabled": 0, "rental_uris": {"android": "https://dc.lft.to/lastmile_qr_scan", "ios": "https://dc.lft.to/lastmile_qr_scan"}, "name": "f4e3326ab952e3fc01a2745d4a395269", "type": "electric_scooter"}, {"fusion_lat": 0.0, "bike_id": "9ba56ba6651e94dd738503de5ad7b882", "fusion_lon": 0.0, "lon": -76.99607933333333, "lat": 38.8869315, "is_reserved": 0, "is_disabled": 0, "rental_uris": {"android": "https://dc.lft.to/lastmile_qr_scan", "ios": "https://dc.lft.to/lastmile_qr_scan"}, "name": "9ba56ba6651e94dd738503de5ad7b882", "type": "electric_scooter"}, {"fusion_lat": 0.0, "bike_id": "62df0a70cd76d6240662d15d47538b11", "fusion_lon": 0.0, "lon": -77.04478216666666, "lat": 38.90501533333333, "is_reserved": 0, "is_disabled": 0, "rental_uris": {"android": "https://dc.lft.to/lastmile_qr_scan", "ios": "https://dc.lft.to/lastmile_qr_scan"}, "name": "62df0a70cd76d6240662d15d47538b11", "type": "electric_scooter"}, {"fusion_lat": 0.0, "bike_id": "2f6de590db481bfba3813a1855827f11", "fusion_lon": 0.0, "lon": -77.02826516666667, "lat": 38.88728033333334, "is_reserved": 0, "is_disabled": 0, "rental_uris": {"android": "https://dc.lft.to/lastmile_qr_scan", "ios": "https://dc.lft.to/lastmile_qr_scan"}, "name": "2f6de590db481bfba3813a1855827f11", "type": "electric_scooter"}, {"fusion_lat": 0.0, "bike_id": "496bfbd2905ec975cef01ab6d0e73d20", "fusion_lon": 0.0, "lon": -77.008149, "lat": 38.875077166666664, "is_reserved": 0, "is_disabled": 0, "rental_uris": {"android": "https://dc.lft.to/lastmile_qr_scan", "ios": "https://dc.lft.to/lastmile_qr_scan"}, "name": "496bfbd2905ec975cef01ab6d0e73d20", "type": "electric_bike"}, {"fusion_lat": 0.0, "bike_id": "c856db4b16da65b01567d8ce26aa0c8a", "fusion_lon": 0.0, "lon": -77.01208483333333, "lat": 38.87086733333334, "is_reserved": 0, "is_disabled": 0, "rental_uris": {"android": "https://dc.lft.to/lastmile_qr_scan", "ios": "https://dc.lft.to/lastmile_qr_scan"}, "name": "c856db4b16da65b01567d8ce26aa0c8a", "type": "electric_bike"}, {"fusion_lat": 0.0, "bike_id": "b65118810d437693843bba32885e3033", "fusion_lon": 0.0, "lon": -77.02584266666666, "lat": 38.896012666666664, "is_reserved": 0, "is_disabled": 0, "rental_uris": {"android": "https://dc.lft.to/lastmile_qr_scan", "ios": "https://dc.lft.to/lastmile_qr_scan"}, "name": "b65118810d437693843bba32885e3033", "type": "electric_scooter"}, {"fusion_lat": 0.0, "bike_id": "2faf342506150acd540277925a0d4108", "fusion_lon": 0.0, "lon": -77.04269933333333, "lat": 38.90021083333333, "is_reserved": 0, "is_disabled": 0, "rental_uris": {"android": "https://dc.lft.to/lastmile_qr_scan", "ios": "https://dc.lft.to/lastmile_qr_scan"}, "name": "2faf342506150acd540277925a0d4108", "type": "electric_scooter"}, {"fusion_lat": 0.0, "bike_id": "31ee6b4f86ec358a7f773a04483b4bf6", "fusion_lon": 0.0, "lon": -76.946352, "lat": 38.898335333333335, "is_reserved": 0, "is_disabled": 0, "rental_uris": {"android": "https://dc.lft.to/lastmile_qr_scan", "ios": "https://dc.lft.to/lastmile_qr_scan"}, "name": "31ee6b4f86ec358a7f773a04483b4bf6", "type": "electric_scooter"}, {"fusion_lat": 0.0, "bike_id": "46ac28a08d28057dc9aa02665f370c4e", "fusion_lon": 0.0, "lon": -77.031716, "lat": 38.92052733333333, "is_reserved": 0, "is_disabled": 0, "rental_uris": {"android": "https://dc.lft.to/lastmile_qr_scan", "ios": "https://dc.lft.to/lastmile_qr_scan"}, "name": "46ac28a08d28057dc9aa02665f370c4e", "type": "electric_scooter"}, {"fusion_lat": 0.0, "bike_id": "ee9e3653317fed394a45bd8eac3cc5b6", "fusion_lon": 0.0, "lon": -77.0045535, "lat": 38.87670116666666, "is_reserved": 0, "is_disabled": 0, "rental_uris": {"android": "https://dc.lft.to/lastmile_qr_scan", "ios": "https://dc.lft.to/lastmile_qr_scan"}, "name": "ee9e3653317fed394a45bd8eac3cc5b6", "type": "electric_scooter"}, {"fusion_lat": 0.0, "bike_id": "d7d4e5959a91e88d901b6883e4bbd9b7", "fusion_lon": 0.0, "lon": -77.02304066666666, "lat": 38.940926833333336, "is_reserved": 0, "is_disabled": 0, "rental_uris": {"android": "https://dc.lft.to/lastmile_qr_scan", "ios": "https://dc.lft.to/lastmile_qr_scan"}, "name": "d7d4e5959a91e88d901b6883e4bbd9b7", "type": "electric_scooter"}, {"fusion_lat": 0.0, "bike_id": "8adc402394bd0a42adeb5ecada31479e", "fusion_lon": 0.0, "lon": -77.028171, "lat": 38.88734616666667, "is_reserved": 0, "is_disabled": 0, "rental_uris": {"android": "https://dc.lft.to/lastmile_qr_scan", "ios": "https://dc.lft.to/lastmile_qr_scan"}, "name": "8adc402394bd0a42adeb5ecada31479e", "type": "electric_scooter"}, {"fusion_lat": 0.0, "bike_id": "01a7016728c3721bdee73a9a0f486d4f", "fusion_lon": 0.0, "lon": -77.00186166666667, "lat": 38.9416235, "is_reserved": 0, "is_disabled": 0, "rental_uris": {"android": "https://dc.lft.to/lastmile_qr_scan", "ios": "https://dc.lft.to/lastmile_qr_scan"}, "name": "01a7016728c3721bdee73a9a0f486d4f", "type": "electric_bike"}, {"fusion_lat": 0.0, "bike_id": "76ecd13882d994aba26d7d34e173f7b2", "fusion_lon": 0.0, "lon": -77.02282966666667, "lat": 38.924188, "is_reserved": 0, "is_disabled": 0, "rental_uris": {"android": "https://dc.lft.to/lastmile_qr_scan", "ios": "https://dc.lft.to/lastmile_qr_scan"}, "name": "76ecd13882d994aba26d7d34e173f7b2", "type": "electric_scooter"}, {"fusion_lat": 0.0, "bike_id": "097cf7ce757f4f48d2d343733a75edcb", "fusion_lon": 0.0, "lon": -77.03246816666666, "lat": 38.933805666666665, "is_reserved": 0, "is_disabled": 0, "rental_uris": {"android": "https://dc.lft.to/lastmile_qr_scan", "ios": "https://dc.lft.to/lastmile_qr_scan"}, "name": "097cf7ce757f4f48d2d343733a75edcb", "type": "electric_scooter"}, {"fusion_lat": 0.0, "bike_id": "e72255b263611913f46bb14885b8a6aa", "fusion_lon": 0.0, "lon": -76.997885, "lat": 38.8856075, "is_reserved": 0, "is_disabled": 0, "rental_uris": {"android": "https://dc.lft.to/lastmile_qr_scan", "ios": "https://dc.lft.to/lastmile_qr_scan"}, "name": "e72255b263611913f46bb14885b8a6aa", "type": "electric_scooter"}, {"fusion_lat": 0.0, "bike_id": "f6386bd444470335ab1849dedaba1033", "fusion_lon": 0.0, "lon": -77.03419316666667, "lat": 38.9224105, "is_reserved": 0, "is_disabled": 0, "rental_uris": {"android": "https://dc.lft.to/lastmile_qr_scan", "ios": "https://dc.lft.to/lastmile_qr_scan"}, "name": "f6386bd444470335ab1849dedaba1033", "type": "electric_scooter"}, {"fusion_lat": 0.0, "bike_id": "74411df0ddd6916d118663b55c18db7f", "fusion_lon": 0.0, "lon": -77.0633875, "lat": 38.906793666666665, "is_reserved": 0, "is_disabled": 0, "rental_uris": {"android": "https://dc.lft.to/lastmile_qr_scan", "ios": "https://dc.lft.to/lastmile_qr_scan"}, "name": "74411df0ddd6916d118663b55c18db7f", "type": "electric_scooter"}, {"fusion_lat": 0.0, "bike_id": "6fab92724d33a3289f7dde0fa82ef5a1", "fusion_lon": 0.0, "lon": -77.035038, "lat": 38.93748866666667, "is_reserved": 0, "is_disabled": 0, "rental_uris": {"android": "https://dc.lft.to/lastmile_qr_scan", "ios": "https://dc.lft.to/lastmile_qr_scan"}, "name": "6fab92724d33a3289f7dde0fa82ef5a1", "type": "electric_scooter"}, {"fusion_lat": 0.0, "bike_id": "cbee050c1dd0da89b89a9f160c0e317f", "fusion_lon": 0.0, "lon": -76.973893, "lat": 38.9055265, "is_reserved": 0, "is_disabled": 0, "rental_uris": {"android": "https://dc.lft.to/lastmile_qr_scan", "ios": "https://dc.lft.to/lastmile_qr_scan"}, "name": "cbee050c1dd0da89b89a9f160c0e317f", "type": "electric_scooter"}, {"fusion_lat": 0.0, "bike_id": "370a5cae6aa92c389c760cc80e3dc361", "fusion_lon": 0.0, "lon": -77.02808416666667, "lat": 38.89526633333333, "is_reserved": 0, "is_disabled": 0, "rental_uris": {"android": "https://dc.lft.to/lastmile_qr_scan", "ios": "https://dc.lft.to/lastmile_qr_scan"}, "name": "370a5cae6aa92c389c760cc80e3dc361", "type": "electric_scooter"}, {"fusion_lat": 0.0, "bike_id": "abd73510a1b11931a060df4da4e2ec1a", "fusion_lon": 0.0, "lon": -77.12075983333334, "lat": 38.854239166666666, "is_reserved": 0, "is_disabled": 0, "rental_uris": {"android": "https://dc.lft.to/lastmile_qr_scan", "ios": "https://dc.lft.to/lastmile_qr_scan"}, "name": "abd73510a1b11931a060df4da4e2ec1a", "type": "electric_bike"}, {"fusion_lat": 0.0, "bike_id": "15abc064b2d18d568f2dc6c643fcd68a", "fusion_lon": 0.0, "lon": -77.105343, "lat": 38.855118166666664, "is_reserved": 0, "is_disabled": 0, "rental_uris": {"android": "https://dc.lft.to/lastmile_qr_scan", "ios": "https://dc.lft.to/lastmile_qr_scan"}, "name": "15abc064b2d18d568f2dc6c643fcd68a", "type": "electric_bike"}, {"fusion_lat": 0.0, "bike_id": "e79bd640ac85d11afe1909893a63625e", "fusion_lon": 0.0, "lon": -77.0365425, "lat": 38.92123183333333, "is_reserved": 0, "is_disabled": 0, "rental_uris": {"android": "https://dc.lft.to/lastmile_qr_scan", "ios": "https://dc.lft.to/lastmile_qr_scan"}, "name": "e79bd640ac85d11afe1909893a63625e", "type": "electric_scooter"}, {"fusion_lat": 0.0, "bike_id": "2a032309c0e5aaada6de771eefca34e3", "fusion_lon": 0.0, "lon": -77.05002933333333, "lat": 38.90520133333333, "is_reserved": 0, "is_disabled": 0, "rental_uris": {"android": "https://dc.lft.to/lastmile_qr_scan", "ios": "https://dc.lft.to/lastmile_qr_scan"}, "name": "2a032309c0e5aaada6de771eefca34e3", "type": "electric_scooter"}, {"fusion_lat": 0.0, "bike_id": "a01f8ec87ba105d223950dfa18958256", "fusion_lon": 0.0, "lon": -77.02368733333333, "lat": 38.91783083333333, "is_reserved": 0, "is_disabled": 0, "rental_uris": {"android": "https://dc.lft.to/lastmile_qr_scan", "ios": "https://dc.lft.to/lastmile_qr_scan"}, "name": "a01f8ec87ba105d223950dfa18958256", "type": "electric_scooter"}, {"fusion_lat": 0.0, "bike_id": "2578b7ba32d8679f159e7fe375de0735", "fusion_lon": 0.0, "lon": -77.00494666666667, "lat": 38.895684833333334, "is_reserved": 0, "is_disabled": 0, "rental_uris": {"android": "https://dc.lft.to/lastmile_qr_scan", "ios": "https://dc.lft.to/lastmile_qr_scan"}, "name": "2578b7ba32d8679f159e7fe375de0735", "type": "electric_scooter"}, {"fusion_lat": 0.0, "bike_id": "2fcfdbe603628f759f663165425ee8a3", "fusion_lon": 0.0, "lon": -77.05571666666667, "lat": 38.930513166666664, "is_reserved": 0, "is_disabled": 0, "rental_uris": {"android": "https://dc.lft.to/lastmile_qr_scan", "ios": "https://dc.lft.to/lastmile_qr_scan"}, "name": "2fcfdbe603628f759f663165425ee8a3", "type": "electric_scooter"}, {"fusion_lat": 0.0, "bike_id": "b66a753c4d28dfe0e69ca1cedbaa4f2a", "fusion_lon": 0.0, "lon": -76.97203783333333, "lat": 38.892857, "is_reserved": 0, "is_disabled": 0, "rental_uris": {"android": "https://dc.lft.to/lastmile_qr_scan", "ios": "https://dc.lft.to/lastmile_qr_scan"}, "name": "b66a753c4d28dfe0e69ca1cedbaa4f2a", "type": "electric_bike"}, {"fusion_lat": 0.0, "bike_id": "5002a40961542f2e704ccefd6b853210", "fusion_lon": 0.0, "lon": -77.04487266666666, "lat": 38.91329066666667, "is_reserved": 0, "is_disabled": 0, "rental_uris": {"android": "https://dc.lft.to/lastmile_qr_scan", "ios": "https://dc.lft.to/lastmile_qr_scan"}, "name": "5002a40961542f2e704ccefd6b853210", "type": "electric_scooter"}, {"fusion_lat": 0.0, "bike_id": "7f8cfa8f1346f8f1c0e69345a507a820", "fusion_lon": 0.0, "lon": -77.02702333333333, "lat": 38.94991366666667, "is_reserved": 0, "is_disabled": 0, "rental_uris": {"android": "https://dc.lft.to/lastmile_qr_scan", "ios": "https://dc.lft.to/lastmile_qr_scan"}, "name": "7f8cfa8f1346f8f1c0e69345a507a820", "type": "electric_scooter"}, {"fusion_lat": 0.0, "bike_id": "6177585e5b18300f4ce16ee440df89ea", "fusion_lon": 0.0, "lon": -77.139281, "lat": 38.87294466666667, "is_reserved": 0, "is_disabled": 0, "rental_uris": {"android": "https://dc.lft.to/lastmile_qr_scan", "ios": "https://dc.lft.to/lastmile_qr_scan"}, "name": "6177585e5b18300f4ce16ee440df89ea", "type": "electric_bike"}, {"fusion_lat": 0.0, "bike_id": "a2f0bca423a697b2399f78d4df1e7e72", "fusion_lon": 0.0, "lon": -77.038106, "lat": 38.93110133333333, "is_reserved": 0, "is_disabled": 0, "rental_uris": {"android": "https://dc.lft.to/lastmile_qr_scan", "ios": "https://dc.lft.to/lastmile_qr_scan"}, "name": "a2f0bca423a697b2399f78d4df1e7e72", "type": "electric_scooter"}, {"fusion_lat": 0.0, "bike_id": "e14a3dfdb515c969d44b3ee500b1c2b2", "fusion_lon": 0.0, "lon": -77.12463433333333, "lat": 38.85372266666667, "is_reserved": 0, "is_disabled": 0, "rental_uris": {"android": "https://dc.lft.to/lastmile_qr_scan", "ios": "https://dc.lft.to/lastmile_qr_scan"}, "name": "e14a3dfdb515c969d44b3ee500b1c2b2", "type": "electric_bike"}, {"fusion_lat": 0.0, "bike_id": "185976e88eeb5d53a919292e545acafa", "fusion_lon": 0.0, "lon": -77.03215416666667, "lat": 38.897582666666665, "is_reserved": 0, "is_disabled": 0, "rental_uris": {"android": "https://dc.lft.to/lastmile_qr_scan", "ios": "https://dc.lft.to/lastmile_qr_scan"}, "name": "185976e88eeb5d53a919292e545acafa", "type": "electric_scooter"}, {"fusion_lat": 0.0, "bike_id": "300314919a7ea5b2819ba4883c254c9d", "fusion_lon": 0.0, "lon": -77.04707283333333, "lat": 38.90212566666667, "is_reserved": 0, "is_disabled": 0, "rental_uris": {"android": "https://dc.lft.to/lastmile_qr_scan", "ios": "https://dc.lft.to/lastmile_qr_scan"}, "name": "300314919a7ea5b2819ba4883c254c9d", "type": "electric_scooter"}, {"fusion_lat": 0.0, "bike_id": "a9e2fbed8d2b92e683b66ed064015b4c", "fusion_lon": 0.0, "lon": -77.00004766666666, "lat": 38.892993833333335, "is_reserved": 0, "is_disabled": 0, "rental_uris": {"android": "https://dc.lft.to/lastmile_qr_scan", "ios": "https://dc.lft.to/lastmile_qr_scan"}, "name": "a9e2fbed8d2b92e683b66ed064015b4c", "type": "electric_scooter"}, {"fusion_lat": 0.0, "bike_id": "51612f3ede61e70c03dfe6dd7104c2f9", "fusion_lon": 0.0, "lon": -76.99276083333334, "lat": 38.86032316666667, "is_reserved": 0, "is_disabled": 0, "rental_uris": {"android": "https://dc.lft.to/lastmile_qr_scan", "ios": "https://dc.lft.to/lastmile_qr_scan"}, "name": "51612f3ede61e70c03dfe6dd7104c2f9", "type": "electric_scooter"}, {"fusion_lat": 0.0, "bike_id": "1cbcca3689e4a6ceb7f1f20530215999", "fusion_lon": 0.0, "lon": -77.02710983333333, "lat": 38.89948283333333, "is_reserved": 0, "is_disabled": 0, "rental_uris": {"android": "https://dc.lft.to/lastmile_qr_scan", "ios": "https://dc.lft.to/lastmile_qr_scan"}, "name": "1cbcca3689e4a6ceb7f1f20530215999", "type": "electric_scooter"}, {"fusion_lat": 0.0, "bike_id": "7dd9f4982292cf28d757a111f99adf4e", "fusion_lon": 0.0, "lon": -77.03218283333334, "lat": 38.892262333333335, "is_reserved": 0, "is_disabled": 0, "rental_uris": {"android": "https://dc.lft.to/lastmile_qr_scan", "ios": "https://dc.lft.to/lastmile_qr_scan"}, "name": "7dd9f4982292cf28d757a111f99adf4e", "type": "electric_scooter"}, {"fusion_lat": 0.0, "bike_id": "89a4558f74e943b6e3c40a0d3696b6e5", "fusion_lon": 0.0, "lon": -77.06932366666666, "lat": 38.952102833333335, "is_reserved": 0, "is_disabled": 0, "rental_uris": {"android": "https://dc.lft.to/lastmile_qr_scan", "ios": "https://dc.lft.to/lastmile_qr_scan"}, "name": "89a4558f74e943b6e3c40a0d3696b6e5", "type": "electric_scooter"}, {"fusion_lat": 0.0, "bike_id": "0c8f7587e17e1738344acd4efa17bfb1", "fusion_lon": 0.0, "lon": -77.02104633333333, "lat": 38.921823, "is_reserved": 0, "is_disabled": 0, "rental_uris": {"android": "https://dc.lft.to/lastmile_qr_scan", "ios": "https://dc.lft.to/lastmile_qr_scan"}, "name": "0c8f7587e17e1738344acd4efa17bfb1", "type": "electric_scooter"}, {"fusion_lat": 0.0, "bike_id": "d73b4147c4aa3cfc052d07e782e622ac", "fusion_lon": 0.0, "lon": -76.93027916666666, "lat": 38.9001285, "is_reserved": 0, "is_disabled": 0, "rental_uris": {"android": "https://dc.lft.to/lastmile_qr_scan", "ios": "https://dc.lft.to/lastmile_qr_scan"}, "name": "d73b4147c4aa3cfc052d07e782e622ac", "type": "electric_scooter"}, {"fusion_lat": 0.0, "bike_id": "3a20cadda08270fae8e4d734b16a2fff", "fusion_lon": 0.0, "lon": -77.0281585, "lat": 38.93172583333333, "is_reserved": 0, "is_disabled": 0, "rental_uris": {"android": "https://dc.lft.to/lastmile_qr_scan", "ios": "https://dc.lft.to/lastmile_qr_scan"}, "name": "3a20cadda08270fae8e4d734b16a2fff", "type": "electric_scooter"}, {"fusion_lat": 0.0, "bike_id": "bc05f6f4bbc8313d567fa339b90341c2", "fusion_lon": 0.0, "lon": -77.03502566666667, "lat": 38.921562, "is_reserved": 0, "is_disabled": 0, "rental_uris": {"android": "https://dc.lft.to/lastmile_qr_scan", "ios": "https://dc.lft.to/lastmile_qr_scan"}, "name": "bc05f6f4bbc8313d567fa339b90341c2", "type": "electric_scooter"}, {"fusion_lat": 0.0, "bike_id": "bb684ae6d07c9b27c3970217c0003760", "fusion_lon": 0.0, "lon": -77.0241805, "lat": 38.9182265, "is_reserved": 0, "is_disabled": 0, "rental_uris": {"android": "https://dc.lft.to/lastmile_qr_scan", "ios": "https://dc.lft.to/lastmile_qr_scan"}, "name": "bb684ae6d07c9b27c3970217c0003760", "type": "electric_scooter"}, {"fusion_lat": 0.0, "bike_id": "f94034a19f7fd8fa0660b9cb290c5317", "fusion_lon": 0.0, "lon": -77.01258033333333, "lat": 38.9000375, "is_reserved": 0, "is_disabled": 0, "rental_uris": {"android": "https://dc.lft.to/lastmile_qr_scan", "ios": "https://dc.lft.to/lastmile_qr_scan"}, "name": "f94034a19f7fd8fa0660b9cb290c5317", "type": "electric_scooter"}, {"fusion_lat": 0.0, "bike_id": "e679c14d03ee35a16503e23313a6ae4a", "fusion_lon": 0.0, "lon": -77.04983983333334, "lat": 38.90104766666666, "is_reserved": 0, "is_disabled": 0, "rental_uris": {"android": "https://dc.lft.to/lastmile_qr_scan", "ios": "https://dc.lft.to/lastmile_qr_scan"}, "name": "e679c14d03ee35a16503e23313a6ae4a", "type": "electric_scooter"}, {"fusion_lat": 0.0, "bike_id": "b010a8bfef1470435bddf9fc265a060a", "fusion_lon": 0.0, "lon": -77.041052, "lat": 38.910266, "is_reserved": 0, "is_disabled": 0, "rental_uris": {"android": "https://dc.lft.to/lastmile_qr_scan", "ios": "https://dc.lft.to/lastmile_qr_scan"}, "name": "b010a8bfef1470435bddf9fc265a060a", "type": "electric_scooter"}, {"fusion_lat": 0.0, "bike_id": "fbf2d44c7a3eb9e95efcfa0e0f9f322e", "fusion_lon": 0.0, "lon": -77.03506533333334, "lat": 38.92141516666667, "is_reserved": 0, "is_disabled": 0, "rental_uris": {"android": "https://dc.lft.to/lastmile_qr_scan", "ios": "https://dc.lft.to/lastmile_qr_scan"}, "name": "fbf2d44c7a3eb9e95efcfa0e0f9f322e", "type": "electric_scooter"}, {"fusion_lat": 0.0, "bike_id": "4e2229bfa4d4a268be4cc0e0a45e419e", "fusion_lon": 0.0, "lon": -77.04319666666666, "lat": 38.921868333333336, "is_reserved": 0, "is_disabled": 0, "rental_uris": {"android": "https://dc.lft.to/lastmile_qr_scan", "ios": "https://dc.lft.to/lastmile_qr_scan"}, "name": "4e2229bfa4d4a268be4cc0e0a45e419e", "type": "electric_scooter"}, {"fusion_lat": 0.0, "bike_id": "9568f765414781504c49ef0a1ab2a169", "fusion_lon": 0.0, "lon": -77.01497266666667, "lat": 38.892253833333335, "is_reserved": 0, "is_disabled": 0, "rental_uris": {"android": "https://dc.lft.to/lastmile_qr_scan", "ios": "https://dc.lft.to/lastmile_qr_scan"}, "name": "9568f765414781504c49ef0a1ab2a169", "type": "electric_scooter"}, {"fusion_lat": 0.0, "bike_id": "a6a1915d044851334db6acff17a19671", "fusion_lon": 0.0, "lon": -77.02627183333334, "lat": 38.88113233333333, "is_reserved": 0, "is_disabled": 0, "rental_uris": {"android": "https://dc.lft.to/lastmile_qr_scan", "ios": "https://dc.lft.to/lastmile_qr_scan"}, "name": "a6a1915d044851334db6acff17a19671", "type": "electric_scooter"}, {"fusion_lat": 0.0, "bike_id": "8c77fa5256e3e82063d70972b73f3690", "fusion_lon": 0.0, "lon": -77.039643, "lat": 38.909621666666666, "is_reserved": 0, "is_disabled": 0, "rental_uris": {"android": "https://dc.lft.to/lastmile_qr_scan", "ios": "https://dc.lft.to/lastmile_qr_scan"}, "name": "8c77fa5256e3e82063d70972b73f3690", "type": "electric_scooter"}, {"fusion_lat": 0.0, "bike_id": "80ed8a94b3c6af395bdbe7ff964b5322", "fusion_lon": 0.0, "lon": -77.04322683333334, "lat": 38.908754333333334, "is_reserved": 0, "is_disabled": 0, "rental_uris": {"android": "https://dc.lft.to/lastmile_qr_scan", "ios": "https://dc.lft.to/lastmile_qr_scan"}, "name": "80ed8a94b3c6af395bdbe7ff964b5322", "type": "electric_scooter"}, {"fusion_lat": 0.0, "bike_id": "9dafd7b67b3bd6a6f4685f866133bdf0", "fusion_lon": 0.0, "lon": -77.001316, "lat": 38.8947305, "is_reserved": 0, "is_disabled": 0, "rental_uris": {"android": "https://dc.lft.to/lastmile_qr_scan", "ios": "https://dc.lft.to/lastmile_qr_scan"}, "name": "9dafd7b67b3bd6a6f4685f866133bdf0", "type": "electric_scooter"}, {"fusion_lat": 0.0, "bike_id": "21ae496807b5344f3c532375ee73c4f3", "fusion_lon": 0.0, "lon": -77.04174316666666, "lat": 38.9170385, "is_reserved": 0, "is_disabled": 0, "rental_uris": {"android": "https://dc.lft.to/lastmile_qr_scan", "ios": "https://dc.lft.to/lastmile_qr_scan"}, "name": "21ae496807b5344f3c532375ee73c4f3", "type": "electric_scooter"}, {"fusion_lat": 0.0, "bike_id": "f226cde4c1622f01124a9c2a2600c420", "fusion_lon": 0.0, "lon": -77.03638, "lat": 38.918581333333336, "is_reserved": 0, "is_disabled": 0, "rental_uris": {"android": "https://dc.lft.to/lastmile_qr_scan", "ios": "https://dc.lft.to/lastmile_qr_scan"}, "name": "f226cde4c1622f01124a9c2a2600c420", "type": "electric_scooter"}, {"fusion_lat": 0.0, "bike_id": "bc1cc58484da1c05a51d46447799e2f8", "fusion_lon": 0.0, "lon": -77.04900266666667, "lat": 38.916039166666664, "is_reserved": 0, "is_disabled": 0, "rental_uris": {"android": "https://dc.lft.to/lastmile_qr_scan", "ios": "https://dc.lft.to/lastmile_qr_scan"}, "name": "bc1cc58484da1c05a51d46447799e2f8", "type": "electric_scooter"}, {"fusion_lat": 0.0, "bike_id": "de7511b33008e82a5865cbd4118920d0", "fusion_lon": 0.0, "lon": -77.034651, "lat": 38.920609, "is_reserved": 0, "is_disabled": 0, "rental_uris": {"android": "https://dc.lft.to/lastmile_qr_scan", "ios": "https://dc.lft.to/lastmile_qr_scan"}, "name": "de7511b33008e82a5865cbd4118920d0", "type": "electric_scooter"}, {"fusion_lat": 0.0, "bike_id": "266bd5fc62eac47509d58d429d0f2f21", "fusion_lon": 0.0, "lon": -77.0317205, "lat": 38.921076166666666, "is_reserved": 0, "is_disabled": 0, "rental_uris": {"android": "https://dc.lft.to/lastmile_qr_scan", "ios": "https://dc.lft.to/lastmile_qr_scan"}, "name": "266bd5fc62eac47509d58d429d0f2f21", "type": "electric_scooter"}, {"fusion_lat": 0.0, "bike_id": "97a90992f1bca87f95ff4d5b6b1ea32c", "fusion_lon": 0.0, "lon": -76.9271815, "lat": 38.88056483333333, "is_reserved": 0, "is_disabled": 0, "rental_uris": {"android": "https://dc.lft.to/lastmile_qr_scan", "ios": "https://dc.lft.to/lastmile_qr_scan"}, "name": "97a90992f1bca87f95ff4d5b6b1ea32c", "type": "electric_scooter"}, {"fusion_lat": 0.0, "bike_id": "0172eb44ae4a8a943c2f6ad169f4dd13", "fusion_lon": 0.0, "lon": -76.93743183333333, "lat": 38.89011983333333, "is_reserved": 0, "is_disabled": 0, "rental_uris": {"android": "https://dc.lft.to/lastmile_qr_scan", "ios": "https://dc.lft.to/lastmile_qr_scan"}, "name": "0172eb44ae4a8a943c2f6ad169f4dd13", "type": "electric_scooter"}, {"fusion_lat": 0.0, "bike_id": "f9a2c39ca79bfda92672e80dec1868ab", "fusion_lon": 0.0, "lon": -77.04189083333333, "lat": 38.92060516666667, "is_reserved": 0, "is_disabled": 0, "rental_uris": {"android": "https://dc.lft.to/lastmile_qr_scan", "ios": "https://dc.lft.to/lastmile_qr_scan"}, "name": "f9a2c39ca79bfda92672e80dec1868ab", "type": "electric_scooter"}, {"fusion_lat": 0.0, "bike_id": "bb29a0fd6805c785a5b4f8c27761d9c0", "fusion_lon": 0.0, "lon": -77.0384585, "lat": 38.92166666666667, "is_reserved": 0, "is_disabled": 0, "rental_uris": {"android": "https://dc.lft.to/lastmile_qr_scan", "ios": "https://dc.lft.to/lastmile_qr_scan"}, "name": "bb29a0fd6805c785a5b4f8c27761d9c0", "type": "electric_scooter"}, {"fusion_lat": 0.0, "bike_id": "8ac870c867b89e628810b9af7f21c918", "fusion_lon": 0.0, "lon": -77.0254015, "lat": 38.940991333333336, "is_reserved": 0, "is_disabled": 0, "rental_uris": {"android": "https://dc.lft.to/lastmile_qr_scan", "ios": "https://dc.lft.to/lastmile_qr_scan"}, "name": "8ac870c867b89e628810b9af7f21c918", "type": "electric_scooter"}, {"fusion_lat": 0.0, "bike_id": "970e25ba9edc5d309652ed5c4aeddc47", "fusion_lon": 0.0, "lon": -77.03248166666667, "lat": 38.94839666666667, "is_reserved": 0, "is_disabled": 0, "rental_uris": {"android": "https://dc.lft.to/lastmile_qr_scan", "ios": "https://dc.lft.to/lastmile_qr_scan"}, "name": "970e25ba9edc5d309652ed5c4aeddc47", "type": "electric_scooter"}, {"fusion_lat": 0.0, "bike_id": "85be1847dc9ba7332f2092f3eed6b9ae", "fusion_lon": 0.0, "lon": -77.04254633333333, "lat": 38.90430333333333, "is_reserved": 0, "is_disabled": 0, "rental_uris": {"android": "https://dc.lft.to/lastmile_qr_scan", "ios": "https://dc.lft.to/lastmile_qr_scan"}, "name": "85be1847dc9ba7332f2092f3eed6b9ae", "type": "electric_scooter"}, {"fusion_lat": 0.0, "bike_id": "3b42caa6778d3a2e586bb9368f12a53d", "fusion_lon": 0.0, "lon": -76.99290366666666, "lat": 38.857664166666666, "is_reserved": 0, "is_disabled": 0, "rental_uris": {"android": "https://dc.lft.to/lastmile_qr_scan", "ios": "https://dc.lft.to/lastmile_qr_scan"}, "name": "3b42caa6778d3a2e586bb9368f12a53d", "type": "electric_scooter"}, {"fusion_lat": 0.0, "bike_id": "629443fb5497311dbdee662159fa4d7b", "fusion_lon": 0.0, "lon": -77.03198833333333, "lat": 38.91693216666667, "is_reserved": 0, "is_disabled": 0, "rental_uris": {"android": "https://dc.lft.to/lastmile_qr_scan", "ios": "https://dc.lft.to/lastmile_qr_scan"}, "name": "629443fb5497311dbdee662159fa4d7b", "type": "electric_scooter"}, {"fusion_lat": 0.0, "bike_id": "33c13361804cc948721c5a565781c96e", "fusion_lon": 0.0, "lon": -77.16621916666666, "lat": 38.88836766666667, "is_reserved": 0, "is_disabled": 0, "rental_uris": {"android": "https://dc.lft.to/lastmile_qr_scan", "ios": "https://dc.lft.to/lastmile_qr_scan"}, "name": "33c13361804cc948721c5a565781c96e", "type": "electric_bike"}, {"fusion_lat": 0.0, "bike_id": "808785075192bee51b4ed818f0a97fde", "fusion_lon": 0.0, "lon": -77.0321275, "lat": 38.907261, "is_reserved": 0, "is_disabled": 0, "rental_uris": {"android": "https://dc.lft.to/lastmile_qr_scan", "ios": "https://dc.lft.to/lastmile_qr_scan"}, "name": "808785075192bee51b4ed818f0a97fde", "type": "electric_scooter"}, {"fusion_lat": 0.0, "bike_id": "4ed2cd6fb1d81d2c85a0fd7012d53c19", "fusion_lon": 0.0, "lon": -77.04349333333333, "lat": 38.921723166666666, "is_reserved": 0, "is_disabled": 0, "rental_uris": {"android": "https://dc.lft.to/lastmile_qr_scan", "ios": "https://dc.lft.to/lastmile_qr_scan"}, "name": "4ed2cd6fb1d81d2c85a0fd7012d53c19", "type": "electric_scooter"}, {"fusion_lat": 0.0, "bike_id": "2ef4c32c4c2ee2d2d07ffbc358a97708", "fusion_lon": 0.0, "lon": -77.031894, "lat": 38.910394833333335, "is_reserved": 0, "is_disabled": 0, "rental_uris": {"android": "https://dc.lft.to/lastmile_qr_scan", "ios": "https://dc.lft.to/lastmile_qr_scan"}, "name": "2ef4c32c4c2ee2d2d07ffbc358a97708", "type": "electric_scooter"}, {"fusion_lat": 0.0, "bike_id": "8552cf5cc4dc2ceed2c056fa79565d62", "fusion_lon": 0.0, "lon": -77.043124, "lat": 38.922193, "is_reserved": 0, "is_disabled": 0, "rental_uris": {"android": "https://dc.lft.to/lastmile_qr_scan", "ios": "https://dc.lft.to/lastmile_qr_scan"}, "name": "8552cf5cc4dc2ceed2c056fa79565d62", "type": "electric_scooter"}, {"fusion_lat": 0.0, "bike_id": "03823195a691c40211927365547ff66d", "fusion_lon": 0.0, "lon": -76.9852125, "lat": 38.86685816666667, "is_reserved": 0, "is_disabled": 0, "rental_uris": {"android": "https://dc.lft.to/lastmile_qr_scan", "ios": "https://dc.lft.to/lastmile_qr_scan"}, "name": "03823195a691c40211927365547ff66d", "type": "electric_scooter"}, {"fusion_lat": 0.0, "bike_id": "4d4823f180beac659069543bef275806", "fusion_lon": 0.0, "lon": -77.03236533333333, "lat": 38.91486116666667, "is_reserved": 0, "is_disabled": 0, "rental_uris": {"android": "https://dc.lft.to/lastmile_qr_scan", "ios": "https://dc.lft.to/lastmile_qr_scan"}, "name": "4d4823f180beac659069543bef275806", "type": "electric_scooter"}, {"fusion_lat": 0.0, "bike_id": "5abce7a00b3f00728ee20f8dc7ee7ac9", "fusion_lon": 0.0, "lon": -77.02670666666667, "lat": 38.9218155, "is_reserved": 0, "is_disabled": 0, "rental_uris": {"android": "https://dc.lft.to/lastmile_qr_scan", "ios": "https://dc.lft.to/lastmile_qr_scan"}, "name": "5abce7a00b3f00728ee20f8dc7ee7ac9", "type": "electric_scooter"}, {"fusion_lat": 0.0, "bike_id": "d0fcd4a9ad50ef44c387d12e32d93844", "fusion_lon": 0.0, "lon": -77.00534416666666, "lat": 38.92972916666667, "is_reserved": 0, "is_disabled": 0, "rental_uris": {"android": "https://dc.lft.to/lastmile_qr_scan", "ios": "https://dc.lft.to/lastmile_qr_scan"}, "name": "d0fcd4a9ad50ef44c387d12e32d93844", "type": "electric_scooter"}, {"fusion_lat": 0.0, "bike_id": "e39d188c2c33521e44760fe479d6fbcd", "fusion_lon": 0.0, "lon": -77.03109266666667, "lat": 38.89222, "is_reserved": 0, "is_disabled": 0, "rental_uris": {"android": "https://dc.lft.to/lastmile_qr_scan", "ios": "https://dc.lft.to/lastmile_qr_scan"}, "name": "e39d188c2c33521e44760fe479d6fbcd", "type": "electric_scooter"}, {"fusion_lat": 0.0, "bike_id": "bf06dfcb5be51471c990da6db579a36c", "fusion_lon": 0.0, "lon": -77.0226905, "lat": 38.89833616666667, "is_reserved": 0, "is_disabled": 0, "rental_uris": {"android": "https://dc.lft.to/lastmile_qr_scan", "ios": "https://dc.lft.to/lastmile_qr_scan"}, "name": "bf06dfcb5be51471c990da6db579a36c", "type": "electric_scooter"}, {"fusion_lat": 0.0, "bike_id": "e85b47c7cc7426a9d64a7e0388b31c3a", "fusion_lon": 0.0, "lon": -76.93056083333333, "lat": 38.883850333333335, "is_reserved": 0, "is_disabled": 0, "rental_uris": {"android": "https://dc.lft.to/lastmile_qr_scan", "ios": "https://dc.lft.to/lastmile_qr_scan"}, "name": "e85b47c7cc7426a9d64a7e0388b31c3a", "type": "electric_scooter"}, {"fusion_lat": 0.0, "bike_id": "d73fd6bdc1b17ab446fe41dc96502558", "fusion_lon": 0.0, "lon": -77.02264683333334, "lat": 38.93763283333333, "is_reserved": 0, "is_disabled": 0, "rental_uris": {"android": "https://dc.lft.to/lastmile_qr_scan", "ios": "https://dc.lft.to/lastmile_qr_scan"}, "name": "d73fd6bdc1b17ab446fe41dc96502558", "type": "electric_scooter"}, {"fusion_lat": 0.0, "bike_id": "1c3af71f75a2d48f1d9e7167203007d4", "fusion_lon": 0.0, "lon": -77.026636, "lat": 38.9168835, "is_reserved": 0, "is_disabled": 0, "rental_uris": {"android": "https://dc.lft.to/lastmile_qr_scan", "ios": "https://dc.lft.to/lastmile_qr_scan"}, "name": "1c3af71f75a2d48f1d9e7167203007d4", "type": "electric_scooter"}, {"fusion_lat": 0.0, "bike_id": "ae68daf753f9a5deaa5d2a407da06944", "fusion_lon": 0.0, "lon": -77.04493466666666, "lat": 38.892326, "is_reserved": 0, "is_disabled": 0, "rental_uris": {"android": "https://dc.lft.to/lastmile_qr_scan", "ios": "https://dc.lft.to/lastmile_qr_scan"}, "name": "ae68daf753f9a5deaa5d2a407da06944", "type": "electric_scooter"}, {"fusion_lat": 0.0, "bike_id": "ba5419fefd67888e41f95babb6764750", "fusion_lon": 0.0, "lon": -77.04611016666667, "lat": 38.91548983333333, "is_reserved": 0, "is_disabled": 0, "rental_uris": {"android": "https://dc.lft.to/lastmile_qr_scan", "ios": "https://dc.lft.to/lastmile_qr_scan"}, "name": "ba5419fefd67888e41f95babb6764750", "type": "electric_scooter"}, {"fusion_lat": 0.0, "bike_id": "2e249e7f2a61af08832f121604620875", "fusion_lon": 0.0, "lon": -77.023915, "lat": 38.88138033333333, "is_reserved": 0, "is_disabled": 0, "rental_uris": {"android": "https://dc.lft.to/lastmile_qr_scan", "ios": "https://dc.lft.to/lastmile_qr_scan"}, "name": "2e249e7f2a61af08832f121604620875", "type": "electric_scooter"}, {"fusion_lat": 0.0, "bike_id": "e862314259d05c432182d8c782a43f16", "fusion_lon": 0.0, "lon": -77.014668, "lat": 38.926598, "is_reserved": 0, "is_disabled": 0, "rental_uris": {"android": "https://dc.lft.to/lastmile_qr_scan", "ios": "https://dc.lft.to/lastmile_qr_scan"}, "name": "e862314259d05c432182d8c782a43f16", "type": "electric_scooter"}, {"fusion_lat": 0.0, "bike_id": "92f05aded1b62ad81189ba20c140deab", "fusion_lon": 0.0, "lon": -77.07034483333334, "lat": 38.9225555, "is_reserved": 0, "is_disabled": 0, "rental_uris": {"android": "https://dc.lft.to/lastmile_qr_scan", "ios": "https://dc.lft.to/lastmile_qr_scan"}, "name": "92f05aded1b62ad81189ba20c140deab", "type": "electric_scooter"}, {"fusion_lat": 0.0, "bike_id": "86c5c76af419e3662c0f09696becfdca", "fusion_lon": 0.0, "lon": -77.04800066666667, "lat": 38.892222833333335, "is_reserved": 0, "is_disabled": 0, "rental_uris": {"android": "https://dc.lft.to/lastmile_qr_scan", "ios": "https://dc.lft.to/lastmile_qr_scan"}, "name": "86c5c76af419e3662c0f09696becfdca", "type": "electric_scooter"}, {"fusion_lat": 0.0, "bike_id": "2816095c6c7cdd0d0706c00be6268678", "fusion_lon": 0.0, "lon": -76.99793316666667, "lat": 38.95641216666667, "is_reserved": 0, "is_disabled": 0, "rental_uris": {"android": "https://dc.lft.to/lastmile_qr_scan", "ios": "https://dc.lft.to/lastmile_qr_scan"}, "name": "2816095c6c7cdd0d0706c00be6268678", "type": "electric_bike"}, {"fusion_lat": 0.0, "bike_id": "b95aa108aaf0d6ca234c13ed1260bf5a", "fusion_lon": 0.0, "lon": -77.05002216666666, "lat": 38.905116, "is_reserved": 0, "is_disabled": 0, "rental_uris": {"android": "https://dc.lft.to/lastmile_qr_scan", "ios": "https://dc.lft.to/lastmile_qr_scan"}, "name": "b95aa108aaf0d6ca234c13ed1260bf5a", "type": "electric_scooter"}, {"fusion_lat": 0.0, "bike_id": "7d20b5918e53db3b5aed8195e6c6bf21", "fusion_lon": 0.0, "lon": -77.04496316666666, "lat": 38.903902, "is_reserved": 0, "is_disabled": 0, "rental_uris": {"android": "https://dc.lft.to/lastmile_qr_scan", "ios": "https://dc.lft.to/lastmile_qr_scan"}, "name": "7d20b5918e53db3b5aed8195e6c6bf21", "type": "electric_scooter"}, {"fusion_lat": 0.0, "bike_id": "2544a12c6df5b2237fc779fa4c309fa6", "fusion_lon": 0.0, "lon": -77.07004583333334, "lat": 38.9060085, "is_reserved": 0, "is_disabled": 0, "rental_uris": {"android": "https://dc.lft.to/lastmile_qr_scan", "ios": "https://dc.lft.to/lastmile_qr_scan"}, "name": "2544a12c6df5b2237fc779fa4c309fa6", "type": "electric_scooter"}, {"fusion_lat": 0.0, "bike_id": "2f12a4eb8e05dff9a26cdf7a0cc8fecc", "fusion_lon": 0.0, "lon": -77.0414835, "lat": 38.91911833333333, "is_reserved": 0, "is_disabled": 0, "rental_uris": {"android": "https://dc.lft.to/lastmile_qr_scan", "ios": "https://dc.lft.to/lastmile_qr_scan"}, "name": "2f12a4eb8e05dff9a26cdf7a0cc8fecc", "type": "electric_scooter"}, {"fusion_lat": 0.0, "bike_id": "ea2fcf921040c0e8cd972fd3671a969d", "fusion_lon": 0.0, "lon": -77.048485, "lat": 38.899582833333334, "is_reserved": 0, "is_disabled": 0, "rental_uris": {"android": "https://dc.lft.to/lastmile_qr_scan", "ios": "https://dc.lft.to/lastmile_qr_scan"}, "name": "ea2fcf921040c0e8cd972fd3671a969d", "type": "electric_scooter"}, {"fusion_lat": 0.0, "bike_id": "45120e0840b5629f33aee1b1874364c2", "fusion_lon": 0.0, "lon": -77.03656283333333, "lat": 38.9177805, "is_reserved": 0, "is_disabled": 0, "rental_uris": {"android": "https://dc.lft.to/lastmile_qr_scan", "ios": "https://dc.lft.to/lastmile_qr_scan"}, "name": "45120e0840b5629f33aee1b1874364c2", "type": "electric_scooter"}, {"fusion_lat": 0.0, "bike_id": "4102b8a302572f825e565f8b7c73e4d0", "fusion_lon": 0.0, "lon": -77.03871416666667, "lat": 38.9127235, "is_reserved": 0, "is_disabled": 0, "rental_uris": {"android": "https://dc.lft.to/lastmile_qr_scan", "ios": "https://dc.lft.to/lastmile_qr_scan"}, "name": "4102b8a302572f825e565f8b7c73e4d0", "type": "electric_scooter"}, {"fusion_lat": 0.0, "bike_id": "c14236140bbf1e6a4569779ce62dbe95", "fusion_lon": 0.0, "lon": -76.973213, "lat": 38.90481416666667, "is_reserved": 0, "is_disabled": 0, "rental_uris": {"android": "https://dc.lft.to/lastmile_qr_scan", "ios": "https://dc.lft.to/lastmile_qr_scan"}, "name": "c14236140bbf1e6a4569779ce62dbe95", "type": "electric_bike"}, {"fusion_lat": 0.0, "bike_id": "aa11e41d1f736abf71f423b1a72edc5c", "fusion_lon": 0.0, "lon": -77.0256415, "lat": 38.88294066666667, "is_reserved": 0, "is_disabled": 0, "rental_uris": {"android": "https://dc.lft.to/lastmile_qr_scan", "ios": "https://dc.lft.to/lastmile_qr_scan"}, "name": "aa11e41d1f736abf71f423b1a72edc5c", "type": "electric_scooter"}, {"fusion_lat": 0.0, "bike_id": "19b08762323160bbd9e480201454d9e6", "fusion_lon": 0.0, "lon": -77.02796483333333, "lat": 38.942868, "is_reserved": 0, "is_disabled": 0, "rental_uris": {"android": "https://dc.lft.to/lastmile_qr_scan", "ios": "https://dc.lft.to/lastmile_qr_scan"}, "name": "19b08762323160bbd9e480201454d9e6", "type": "electric_scooter"}, {"fusion_lat": 0.0, "bike_id": "f6422081f5027aace3c568bab9bc56ca", "fusion_lon": 0.0, "lon": -77.03962416666667, "lat": 38.916361333333334, "is_reserved": 0, "is_disabled": 0, "rental_uris": {"android": "https://dc.lft.to/lastmile_qr_scan", "ios": "https://dc.lft.to/lastmile_qr_scan"}, "name": "f6422081f5027aace3c568bab9bc56ca", "type": "electric_scooter"}, {"fusion_lat": 0.0, "bike_id": "00ff09394e962ef11bf62f44efda43b5", "fusion_lon": 0.0, "lon": -76.9987635, "lat": 38.9526365, "is_reserved": 0, "is_disabled": 0, "rental_uris": {"android": "https://dc.lft.to/lastmile_qr_scan", "ios": "https://dc.lft.to/lastmile_qr_scan"}, "name": "00ff09394e962ef11bf62f44efda43b5", "type": "electric_scooter"}, {"fusion_lat": 0.0, "bike_id": "167a50097b5aea8c7f5d6d1a1c6c46bc", "fusion_lon": 0.0, "lon": -76.99031, "lat": 38.898031, "is_reserved": 0, "is_disabled": 0, "rental_uris": {"android": "https://dc.lft.to/lastmile_qr_scan", "ios": "https://dc.lft.to/lastmile_qr_scan"}, "name": "167a50097b5aea8c7f5d6d1a1c6c46bc", "type": "electric_scooter"}, {"fusion_lat": 0.0, "bike_id": "456be55c1647e74ecf134396a5c4e36f", "fusion_lon": 0.0, "lon": -77.05040016666666, "lat": 38.92515483333333, "is_reserved": 0, "is_disabled": 0, "rental_uris": {"android": "https://dc.lft.to/lastmile_qr_scan", "ios": "https://dc.lft.to/lastmile_qr_scan"}, "name": "456be55c1647e74ecf134396a5c4e36f", "type": "electric_scooter"}, {"fusion_lat": 0.0, "bike_id": "1c98ec2ea35db7dc50bb7ca7158eac8c", "fusion_lon": 0.0, "lon": -77.05175766666666, "lat": 38.923808666666666, "is_reserved": 0, "is_disabled": 0, "rental_uris": {"android": "https://dc.lft.to/lastmile_qr_scan", "ios": "https://dc.lft.to/lastmile_qr_scan"}, "name": "1c98ec2ea35db7dc50bb7ca7158eac8c", "type": "electric_scooter"}, {"fusion_lat": 0.0, "bike_id": "d5c3c38f59058f523b7080f9cd649684", "fusion_lon": 0.0, "lon": -77.0320865, "lat": 38.91673466666667, "is_reserved": 0, "is_disabled": 0, "rental_uris": {"android": "https://dc.lft.to/lastmile_qr_scan", "ios": "https://dc.lft.to/lastmile_qr_scan"}, "name": "d5c3c38f59058f523b7080f9cd649684", "type": "electric_scooter"}, {"fusion_lat": 0.0, "bike_id": "753bd6cf7ae78ef74c373b6f659a47fd", "fusion_lon": 0.0, "lon": -77.01618966666666, "lat": 38.9068705, "is_reserved": 0, "is_disabled": 0, "rental_uris": {"android": "https://dc.lft.to/lastmile_qr_scan", "ios": "https://dc.lft.to/lastmile_qr_scan"}, "name": "753bd6cf7ae78ef74c373b6f659a47fd", "type": "electric_scooter"}, {"fusion_lat": 0.0, "bike_id": "cc41beee39147e653a5404c6736ffe55", "fusion_lon": 0.0, "lon": -76.9840315, "lat": 38.906264666666665, "is_reserved": 0, "is_disabled": 0, "rental_uris": {"android": "https://dc.lft.to/lastmile_qr_scan", "ios": "https://dc.lft.to/lastmile_qr_scan"}, "name": "cc41beee39147e653a5404c6736ffe55", "type": "electric_scooter"}, {"fusion_lat": 0.0, "bike_id": "9257953458563587a15aaebc8befdef5", "fusion_lon": 0.0, "lon": -77.03061183333334, "lat": 38.8804765, "is_reserved": 0, "is_disabled": 0, "rental_uris": {"android": "https://dc.lft.to/lastmile_qr_scan", "ios": "https://dc.lft.to/lastmile_qr_scan"}, "name": "9257953458563587a15aaebc8befdef5", "type": "electric_scooter"}, {"fusion_lat": 0.0, "bike_id": "684e6112107fd8014e2e5d38dcf03f34", "fusion_lon": 0.0, "lon": -76.9833835, "lat": 38.9349665, "is_reserved": 0, "is_disabled": 0, "rental_uris": {"android": "https://dc.lft.to/lastmile_qr_scan", "ios": "https://dc.lft.to/lastmile_qr_scan"}, "name": "684e6112107fd8014e2e5d38dcf03f34", "type": "electric_bike"}, {"fusion_lat": 0.0, "bike_id": "88cb84a1fa68fc1a1963dc3bca30282a", "fusion_lon": 0.0, "lon": -77.02218583333334, "lat": 38.8922135, "is_reserved": 0, "is_disabled": 0, "rental_uris": {"android": "https://dc.lft.to/lastmile_qr_scan", "ios": "https://dc.lft.to/lastmile_qr_scan"}, "name": "88cb84a1fa68fc1a1963dc3bca30282a", "type": "electric_scooter"}, {"fusion_lat": 0.0, "bike_id": "b3bb04a53128516e4355b4be4dbe32ca", "fusion_lon": 0.0, "lon": -77.04236033333333, "lat": 38.91258633333333, "is_reserved": 0, "is_disabled": 0, "rental_uris": {"android": "https://dc.lft.to/lastmile_qr_scan", "ios": "https://dc.lft.to/lastmile_qr_scan"}, "name": "b3bb04a53128516e4355b4be4dbe32ca", "type": "electric_scooter"}, {"fusion_lat": 0.0, "bike_id": "9f675f929cacac1fda6c47ce447ea9f2", "fusion_lon": 0.0, "lon": -77.016002, "lat": 38.917602, "is_reserved": 0, "is_disabled": 0, "rental_uris": {"android": "https://dc.lft.to/lastmile_qr_scan", "ios": "https://dc.lft.to/lastmile_qr_scan"}, "name": "9f675f929cacac1fda6c47ce447ea9f2", "type": "electric_scooter"}, {"fusion_lat": 0.0, "bike_id": "d7ff23bc5a727b77f06aaf48c64315e0", "fusion_lon": 0.0, "lon": -77.0336185, "lat": 38.9097205, "is_reserved": 0, "is_disabled": 0, "rental_uris": {"android": "https://dc.lft.to/lastmile_qr_scan", "ios": "https://dc.lft.to/lastmile_qr_scan"}, "name": "d7ff23bc5a727b77f06aaf48c64315e0", "type": "electric_scooter"}, {"fusion_lat": 0.0, "bike_id": "50e404b0ea96ec95bcc8e32719f67f1d", "fusion_lon": 0.0, "lon": -77.02412566666666, "lat": 38.91683966666667, "is_reserved": 0, "is_disabled": 0, "rental_uris": {"android": "https://dc.lft.to/lastmile_qr_scan", "ios": "https://dc.lft.to/lastmile_qr_scan"}, "name": "50e404b0ea96ec95bcc8e32719f67f1d", "type": "electric_scooter"}, {"fusion_lat": 0.0, "bike_id": "edc2e8ba75c5fe4fe1b7ac92c5c66878", "fusion_lon": 0.0, "lon": -77.0585685, "lat": 38.936062666666665, "is_reserved": 0, "is_disabled": 0, "rental_uris": {"android": "https://dc.lft.to/lastmile_qr_scan", "ios": "https://dc.lft.to/lastmile_qr_scan"}, "name": "edc2e8ba75c5fe4fe1b7ac92c5c66878", "type": "electric_scooter"}, {"fusion_lat": 0.0, "bike_id": "cd6a0b1155b9f9cbb3ff2ed3d0cf2492", "fusion_lon": 0.0, "lon": -77.00500033333333, "lat": 38.91249766666667, "is_reserved": 0, "is_disabled": 0, "rental_uris": {"android": "https://dc.lft.to/lastmile_qr_scan", "ios": "https://dc.lft.to/lastmile_qr_scan"}, "name": "cd6a0b1155b9f9cbb3ff2ed3d0cf2492", "type": "electric_scooter"}, {"fusion_lat": 0.0, "bike_id": "7940433296ff9846f47dcbc8f4ebb6e6", "fusion_lon": 0.0, "lon": -77.0340355, "lat": 38.92319466666667, "is_reserved": 0, "is_disabled": 0, "rental_uris": {"android": "https://dc.lft.to/lastmile_qr_scan", "ios": "https://dc.lft.to/lastmile_qr_scan"}, "name": "7940433296ff9846f47dcbc8f4ebb6e6", "type": "electric_scooter"}, {"fusion_lat": 0.0, "bike_id": "999a3ed503e99dae2feb3c2375a45af2", "fusion_lon": 0.0, "lon": -77.02677966666667, "lat": 38.9247715, "is_reserved": 0, "is_disabled": 0, "rental_uris": {"android": "https://dc.lft.to/lastmile_qr_scan", "ios": "https://dc.lft.to/lastmile_qr_scan"}, "name": "999a3ed503e99dae2feb3c2375a45af2", "type": "electric_scooter"}, {"fusion_lat": 0.0, "bike_id": "72ca685db9a7c3b34b4ed8149feaae5d", "fusion_lon": 0.0, "lon": -77.022774, "lat": 38.925276, "is_reserved": 0, "is_disabled": 0, "rental_uris": {"android": "https://dc.lft.to/lastmile_qr_scan", "ios": "https://dc.lft.to/lastmile_qr_scan"}, "name": "72ca685db9a7c3b34b4ed8149feaae5d", "type": "electric_scooter"}, {"fusion_lat": 0.0, "bike_id": "f8b12c2d11adc61ef8f9a080ef3508e2", "fusion_lon": 0.0, "lon": -77.0363675, "lat": 38.913125666666666, "is_reserved": 0, "is_disabled": 0, "rental_uris": {"android": "https://dc.lft.to/lastmile_qr_scan", "ios": "https://dc.lft.to/lastmile_qr_scan"}, "name": "f8b12c2d11adc61ef8f9a080ef3508e2", "type": "electric_scooter"}, {"fusion_lat": 0.0, "bike_id": "e942358ad48ab06e5fcfaf95192270b7", "fusion_lon": 0.0, "lon": -77.02051183333333, "lat": 38.909734, "is_reserved": 0, "is_disabled": 0, "rental_uris": {"android": "https://dc.lft.to/lastmile_qr_scan", "ios": "https://dc.lft.to/lastmile_qr_scan"}, "name": "e942358ad48ab06e5fcfaf95192270b7", "type": "electric_scooter"}, {"fusion_lat": 0.0, "bike_id": "7e32a660d5d018ec3d1259b09a9c4e80", "fusion_lon": 0.0, "lon": -77.04481983333334, "lat": 38.90046516666666, "is_reserved": 0, "is_disabled": 0, "rental_uris": {"android": "https://dc.lft.to/lastmile_qr_scan", "ios": "https://dc.lft.to/lastmile_qr_scan"}, "name": "7e32a660d5d018ec3d1259b09a9c4e80", "type": "electric_scooter"}, {"fusion_lat": 0.0, "bike_id": "f091b4dea7be31fd2152d78c7bae2cc7", "fusion_lon": 0.0, "lon": -77.0494555, "lat": 38.90079866666667, "is_reserved": 0, "is_disabled": 0, "rental_uris": {"android": "https://dc.lft.to/lastmile_qr_scan", "ios": "https://dc.lft.to/lastmile_qr_scan"}, "name": "f091b4dea7be31fd2152d78c7bae2cc7", "type": "electric_scooter"}, {"fusion_lat": 0.0, "bike_id": "d63d68cff8fa832872c1fb9460e673d4", "fusion_lon": 0.0, "lon": -76.99125016666666, "lat": 38.90139333333333, "is_reserved": 0, "is_disabled": 0, "rental_uris": {"android": "https://dc.lft.to/lastmile_qr_scan", "ios": "https://dc.lft.to/lastmile_qr_scan"}, "name": "d63d68cff8fa832872c1fb9460e673d4", "type": "electric_scooter"}, {"fusion_lat": 0.0, "bike_id": "384f1c58219b29b22704f3fce36505ae", "fusion_lon": 0.0, "lon": -77.03261416666666, "lat": 38.932627, "is_reserved": 0, "is_disabled": 0, "rental_uris": {"android": "https://dc.lft.to/lastmile_qr_scan", "ios": "https://dc.lft.to/lastmile_qr_scan"}, "name": "384f1c58219b29b22704f3fce36505ae", "type": "electric_scooter"}, {"fusion_lat": 0.0, "bike_id": "5269b4161d4c1d95292929a44f70c305", "fusion_lon": 0.0, "lon": -77.02164, "lat": 38.893391333333334, "is_reserved": 0, "is_disabled": 0, "rental_uris": {"android": "https://dc.lft.to/lastmile_qr_scan", "ios": "https://dc.lft.to/lastmile_qr_scan"}, "name": "5269b4161d4c1d95292929a44f70c305", "type": "electric_scooter"}, {"fusion_lat": 0.0, "bike_id": "2067b8b2e9ced1ff66af97313820ca6a", "fusion_lon": 0.0, "lon": -77.03713833333333, "lat": 38.914817, "is_reserved": 0, "is_disabled": 0, "rental_uris": {"android": "https://dc.lft.to/lastmile_qr_scan", "ios": "https://dc.lft.to/lastmile_qr_scan"}, "name": "2067b8b2e9ced1ff66af97313820ca6a", "type": "electric_scooter"}, {"fusion_lat": 0.0, "bike_id": "61a487d8d15b7deb88d7d4173d45a956", "fusion_lon": 0.0, "lon": -77.02180366666667, "lat": 38.894741, "is_reserved": 0, "is_disabled": 0, "rental_uris": {"android": "https://dc.lft.to/lastmile_qr_scan", "ios": "https://dc.lft.to/lastmile_qr_scan"}, "name": "61a487d8d15b7deb88d7d4173d45a956", "type": "electric_scooter"}, {"fusion_lat": 0.0, "bike_id": "f7087414a2198d514d84f77238337291", "fusion_lon": 0.0, "lon": -76.98879816666667, "lat": 38.8667185, "is_reserved": 0, "is_disabled": 0, "rental_uris": {"android": "https://dc.lft.to/lastmile_qr_scan", "ios": "https://dc.lft.to/lastmile_qr_scan"}, "name": "f7087414a2198d514d84f77238337291", "type": "electric_scooter"}, {"fusion_lat": 0.0, "bike_id": "843df2bb1ebbdb1d26037f9616d7dd73", "fusion_lon": 0.0, "lon": -77.00508316666667, "lat": 38.875356333333336, "is_reserved": 0, "is_disabled": 0, "rental_uris": {"android": "https://dc.lft.to/lastmile_qr_scan", "ios": "https://dc.lft.to/lastmile_qr_scan"}, "name": "843df2bb1ebbdb1d26037f9616d7dd73", "type": "electric_scooter"}, {"fusion_lat": 0.0, "bike_id": "88b0e41734fcf8fc46cc4f91e18b3b7e", "fusion_lon": 0.0, "lon": -77.03976783333333, "lat": 38.92805966666667, "is_reserved": 0, "is_disabled": 0, "rental_uris": {"android": "https://dc.lft.to/lastmile_qr_scan", "ios": "https://dc.lft.to/lastmile_qr_scan"}, "name": "88b0e41734fcf8fc46cc4f91e18b3b7e", "type": "electric_scooter"}, {"fusion_lat": 0.0, "bike_id": "7c102c9448980e949f1666f87ebb9c93", "fusion_lon": 0.0, "lon": -77.0504145, "lat": 38.9051755, "is_reserved": 0, "is_disabled": 0, "rental_uris": {"android": "https://dc.lft.to/lastmile_qr_scan", "ios": "https://dc.lft.to/lastmile_qr_scan"}, "name": "7c102c9448980e949f1666f87ebb9c93", "type": "electric_scooter"}, {"fusion_lat": 0.0, "bike_id": "adfc81813f4e375e9902f110dbb4f45b", "fusion_lon": 0.0, "lon": -77.04472433333333, "lat": 38.892186, "is_reserved": 0, "is_disabled": 0, "rental_uris": {"android": "https://dc.lft.to/lastmile_qr_scan", "ios": "https://dc.lft.to/lastmile_qr_scan"}, "name": "adfc81813f4e375e9902f110dbb4f45b", "type": "electric_scooter"}, {"fusion_lat": 0.0, "bike_id": "56ad58f1f8f1c4eec46b78e38e4e139d", "fusion_lon": 0.0, "lon": -77.02369533333334, "lat": 38.8792925, "is_reserved": 0, "is_disabled": 0, "rental_uris": {"android": "https://dc.lft.to/lastmile_qr_scan", "ios": "https://dc.lft.to/lastmile_qr_scan"}, "name": "56ad58f1f8f1c4eec46b78e38e4e139d", "type": "electric_scooter"}, {"fusion_lat": 0.0, "bike_id": "593d9295e43ef0062270b369c3271738", "fusion_lon": 0.0, "lon": -77.04336516666666, "lat": 38.9139735, "is_reserved": 0, "is_disabled": 0, "rental_uris": {"android": "https://dc.lft.to/lastmile_qr_scan", "ios": "https://dc.lft.to/lastmile_qr_scan"}, "name": "593d9295e43ef0062270b369c3271738", "type": "electric_scooter"}, {"fusion_lat": 0.0, "bike_id": "f01b482519ac0208de75401e2db29383", "fusion_lon": 0.0, "lon": -77.045121, "lat": 38.899543333333334, "is_reserved": 0, "is_disabled": 0, "rental_uris": {"android": "https://dc.lft.to/lastmile_qr_scan", "ios": "https://dc.lft.to/lastmile_qr_scan"}, "name": "f01b482519ac0208de75401e2db29383", "type": "electric_scooter"}, {"fusion_lat": 0.0, "bike_id": "f8d98fcf56a905090da48fac9616f740", "fusion_lon": 0.0, "lon": -77.01872983333334, "lat": 38.9149875, "is_reserved": 0, "is_disabled": 0, "rental_uris": {"android": "https://dc.lft.to/lastmile_qr_scan", "ios": "https://dc.lft.to/lastmile_qr_scan"}, "name": "f8d98fcf56a905090da48fac9616f740", "type": "electric_scooter"}, {"fusion_lat": 0.0, "bike_id": "1e3d418eb78cb99d33452ae38c43dd6f", "fusion_lon": 0.0, "lon": -77.23325383333334, "lat": 38.872771, "is_reserved": 0, "is_disabled": 0, "rental_uris": {"android": "https://dc.lft.to/lastmile_qr_scan", "ios": "https://dc.lft.to/lastmile_qr_scan"}, "name": "1e3d418eb78cb99d33452ae38c43dd6f", "type": "electric_bike"}, {"fusion_lat": 0.0, "bike_id": "a3c473bf89c917c503a893b262faa45b", "fusion_lon": 0.0, "lon": -77.0327805, "lat": 38.912119833333335, "is_reserved": 0, "is_disabled": 0, "rental_uris": {"android": "https://dc.lft.to/lastmile_qr_scan", "ios": "https://dc.lft.to/lastmile_qr_scan"}, "name": "a3c473bf89c917c503a893b262faa45b", "type": "electric_scooter"}, {"fusion_lat": 0.0, "bike_id": "5d3067866726bfd069f1149a3bef466e", "fusion_lon": 0.0, "lon": -77.03196066666666, "lat": 38.899572, "is_reserved": 0, "is_disabled": 0, "rental_uris": {"android": "https://dc.lft.to/lastmile_qr_scan", "ios": "https://dc.lft.to/lastmile_qr_scan"}, "name": "5d3067866726bfd069f1149a3bef466e", "type": "electric_scooter"}, {"fusion_lat": 0.0, "bike_id": "5e272ce5cc290fefa67917444a888ab6", "fusion_lon": 0.0, "lon": -76.94098633333333, "lat": 38.8846135, "is_reserved": 0, "is_disabled": 0, "rental_uris": {"android": "https://dc.lft.to/lastmile_qr_scan", "ios": "https://dc.lft.to/lastmile_qr_scan"}, "name": "5e272ce5cc290fefa67917444a888ab6", "type": "electric_scooter"}, {"fusion_lat": 0.0, "bike_id": "69d710af6fdb772b0aa0a2b20c24d908", "fusion_lon": 0.0, "lon": -77.04643166666666, "lat": 38.9158135, "is_reserved": 0, "is_disabled": 0, "rental_uris": {"android": "https://dc.lft.to/lastmile_qr_scan", "ios": "https://dc.lft.to/lastmile_qr_scan"}, "name": "69d710af6fdb772b0aa0a2b20c24d908", "type": "electric_scooter"}, {"fusion_lat": 0.0, "bike_id": "5c8c4a614066beb07f06b48512ff9b8a", "fusion_lon": 0.0, "lon": -76.994961, "lat": 38.89925783333333, "is_reserved": 0, "is_disabled": 0, "rental_uris": {"android": "https://dc.lft.to/lastmile_qr_scan", "ios": "https://dc.lft.to/lastmile_qr_scan"}, "name": "5c8c4a614066beb07f06b48512ff9b8a", "type": "electric_scooter"}, {"fusion_lat": 0.0, "bike_id": "06a34e7ce03fbd533d5bbfb7f122254d", "fusion_lon": 0.0, "lon": -77.03862183333334, "lat": 38.93249516666667, "is_reserved": 0, "is_disabled": 0, "rental_uris": {"android": "https://dc.lft.to/lastmile_qr_scan", "ios": "https://dc.lft.to/lastmile_qr_scan"}, "name": "06a34e7ce03fbd533d5bbfb7f122254d", "type": "electric_scooter"}, {"fusion_lat": 0.0, "bike_id": "0cfaff53f28241131a6cd49a806352cb", "fusion_lon": 0.0, "lon": -77.05156016666666, "lat": 39.04309383333333, "is_reserved": 0, "is_disabled": 0, "rental_uris": {"android": "https://dc.lft.to/lastmile_qr_scan", "ios": "https://dc.lft.to/lastmile_qr_scan"}, "name": "0cfaff53f28241131a6cd49a806352cb", "type": "electric_bike"}, {"fusion_lat": 0.0, "bike_id": "aa7ab043ae776c0b5b0470e4d9e8995a", "fusion_lon": 0.0, "lon": -77.05694266666667, "lat": 38.937134, "is_reserved": 0, "is_disabled": 0, "rental_uris": {"android": "https://dc.lft.to/lastmile_qr_scan", "ios": "https://dc.lft.to/lastmile_qr_scan"}, "name": "aa7ab043ae776c0b5b0470e4d9e8995a", "type": "electric_scooter"}, {"fusion_lat": 0.0, "bike_id": "86406065296aaf1193c0d75dfed97269", "fusion_lon": 0.0, "lon": -76.937546, "lat": 38.89036433333333, "is_reserved": 0, "is_disabled": 0, "rental_uris": {"android": "https://dc.lft.to/lastmile_qr_scan", "ios": "https://dc.lft.to/lastmile_qr_scan"}, "name": "86406065296aaf1193c0d75dfed97269", "type": "electric_scooter"}, {"fusion_lat": 0.0, "bike_id": "6298a2a444d93c4409dea1f98d023f85", "fusion_lon": 0.0, "lon": -77.014946, "lat": 38.89219533333333, "is_reserved": 0, "is_disabled": 0, "rental_uris": {"android": "https://dc.lft.to/lastmile_qr_scan", "ios": "https://dc.lft.to/lastmile_qr_scan"}, "name": "6298a2a444d93c4409dea1f98d023f85", "type": "electric_scooter"}, {"fusion_lat": 0.0, "bike_id": "3adedde78a5474f8ebe82d52311ded2a", "fusion_lon": 0.0, "lon": -77.10486866666666, "lat": 38.85611383333333, "is_reserved": 0, "is_disabled": 0, "rental_uris": {"android": "https://dc.lft.to/lastmile_qr_scan", "ios": "https://dc.lft.to/lastmile_qr_scan"}, "name": "3adedde78a5474f8ebe82d52311ded2a", "type": "electric_bike"}, {"fusion_lat": 0.0, "bike_id": "648ab14d4f6385be8e5b73e22a8d1d68", "fusion_lon": 0.0, "lon": -76.98114183333334, "lat": 38.86328983333333, "is_reserved": 0, "is_disabled": 0, "rental_uris": {"android": "https://dc.lft.to/lastmile_qr_scan", "ios": "https://dc.lft.to/lastmile_qr_scan"}, "name": "648ab14d4f6385be8e5b73e22a8d1d68", "type": "electric_scooter"}, {"fusion_lat": 0.0, "bike_id": "1801930b5d334290ef85db1cefffff3b", "fusion_lon": 0.0, "lon": -77.01774866666666, "lat": 38.9186985, "is_reserved": 0, "is_disabled": 0, "rental_uris": {"android": "https://dc.lft.to/lastmile_qr_scan", "ios": "https://dc.lft.to/lastmile_qr_scan"}, "name": "1801930b5d334290ef85db1cefffff3b", "type": "electric_scooter"}, {"fusion_lat": 0.0, "bike_id": "57369b331319193a36cb05949c1033a7", "fusion_lon": 0.0, "lon": -77.03207183333333, "lat": 38.91179233333333, "is_reserved": 0, "is_disabled": 0, "rental_uris": {"android": "https://dc.lft.to/lastmile_qr_scan", "ios": "https://dc.lft.to/lastmile_qr_scan"}, "name": "57369b331319193a36cb05949c1033a7", "type": "electric_scooter"}, {"fusion_lat": 0.0, "bike_id": "e8557171e2673d33b4877da63cef2d6e", "fusion_lon": 0.0, "lon": -77.02968483333333, "lat": 38.90761216666667, "is_reserved": 0, "is_disabled": 0, "rental_uris": {"android": "https://dc.lft.to/lastmile_qr_scan", "ios": "https://dc.lft.to/lastmile_qr_scan"}, "name": "e8557171e2673d33b4877da63cef2d6e", "type": "electric_scooter"}, {"fusion_lat": 0.0, "bike_id": "f282753a01a5a2fcb10ab1eae736680c", "fusion_lon": 0.0, "lon": -77.04043483333334, "lat": 38.91860783333333, "is_reserved": 0, "is_disabled": 0, "rental_uris": {"android": "https://dc.lft.to/lastmile_qr_scan", "ios": "https://dc.lft.to/lastmile_qr_scan"}, "name": "f282753a01a5a2fcb10ab1eae736680c", "type": "electric_scooter"}, {"fusion_lat": 0.0, "bike_id": "a919bd22bc1d66a7a59ea9b3791eddd5", "fusion_lon": 0.0, "lon": -77.043545, "lat": 38.90144183333334, "is_reserved": 0, "is_disabled": 0, "rental_uris": {"android": "https://dc.lft.to/lastmile_qr_scan", "ios": "https://dc.lft.to/lastmile_qr_scan"}, "name": "a919bd22bc1d66a7a59ea9b3791eddd5", "type": "electric_scooter"}, {"fusion_lat": 0.0, "bike_id": "dcd4746d5be066c9b92fa891c02f8f65", "fusion_lon": 0.0, "lon": -77.06173283333334, "lat": 38.9050395, "is_reserved": 0, "is_disabled": 0, "rental_uris": {"android": "https://dc.lft.to/lastmile_qr_scan", "ios": "https://dc.lft.to/lastmile_qr_scan"}, "name": "dcd4746d5be066c9b92fa891c02f8f65", "type": "electric_scooter"}, {"fusion_lat": 0.0, "bike_id": "4fb8dc2a8d24bdea6329f4fcdf5f30cd", "fusion_lon": 0.0, "lon": -77.024259, "lat": 38.892243666666666, "is_reserved": 0, "is_disabled": 0, "rental_uris": {"android": "https://dc.lft.to/lastmile_qr_scan", "ios": "https://dc.lft.to/lastmile_qr_scan"}, "name": "4fb8dc2a8d24bdea6329f4fcdf5f30cd", "type": "electric_scooter"}, {"fusion_lat": 0.0, "bike_id": "c990b318f3f46737cf776132a4116fe2", "fusion_lon": 0.0, "lon": -76.9330325, "lat": 38.89192116666667, "is_reserved": 0, "is_disabled": 0, "rental_uris": {"android": "https://dc.lft.to/lastmile_qr_scan", "ios": "https://dc.lft.to/lastmile_qr_scan"}, "name": "c990b318f3f46737cf776132a4116fe2", "type": "electric_scooter"}, {"fusion_lat": 0.0, "bike_id": "d7b5091bb9040c9717298f7b8803708f", "fusion_lon": 0.0, "lon": -77.04121316666667, "lat": 38.916994833333334, "is_reserved": 0, "is_disabled": 0, "rental_uris": {"android": "https://dc.lft.to/lastmile_qr_scan", "ios": "https://dc.lft.to/lastmile_qr_scan"}, "name": "d7b5091bb9040c9717298f7b8803708f", "type": "electric_scooter"}, {"fusion_lat": 0.0, "bike_id": "acd6d2239b627115f07ce35bd89669c8", "fusion_lon": 0.0, "lon": -77.027792, "lat": 38.892217333333335, "is_reserved": 0, "is_disabled": 0, "rental_uris": {"android": "https://dc.lft.to/lastmile_qr_scan", "ios": "https://dc.lft.to/lastmile_qr_scan"}, "name": "acd6d2239b627115f07ce35bd89669c8", "type": "electric_scooter"}, {"fusion_lat": 0.0, "bike_id": "5029572070c1368e5a7868ba2ec2ae9d", "fusion_lon": 0.0, "lon": -77.00087633333334, "lat": 38.89478416666667, "is_reserved": 0, "is_disabled": 0, "rental_uris": {"android": "https://dc.lft.to/lastmile_qr_scan", "ios": "https://dc.lft.to/lastmile_qr_scan"}, "name": "5029572070c1368e5a7868ba2ec2ae9d", "type": "electric_scooter"}, {"fusion_lat": 0.0, "bike_id": "57d5439cedac57475a7af07541d56ed3", "fusion_lon": 0.0, "lon": -77.040442, "lat": 38.89008366666667, "is_reserved": 0, "is_disabled": 0, "rental_uris": {"android": "https://dc.lft.to/lastmile_qr_scan", "ios": "https://dc.lft.to/lastmile_qr_scan"}, "name": "57d5439cedac57475a7af07541d56ed3", "type": "electric_scooter"}, {"fusion_lat": 0.0, "bike_id": "8353fff2fda94197ef63a01ef94acf3d", "fusion_lon": 0.0, "lon": -77.03415716666666, "lat": 38.91924016666667, "is_reserved": 0, "is_disabled": 0, "rental_uris": {"android": "https://dc.lft.to/lastmile_qr_scan", "ios": "https://dc.lft.to/lastmile_qr_scan"}, "name": "8353fff2fda94197ef63a01ef94acf3d", "type": "electric_scooter"}, {"fusion_lat": 0.0, "bike_id": "08169390477c1b1460b46be2083e3c4c", "fusion_lon": 0.0, "lon": -77.04150116666666, "lat": 38.905184166666665, "is_reserved": 0, "is_disabled": 0, "rental_uris": {"android": "https://dc.lft.to/lastmile_qr_scan", "ios": "https://dc.lft.to/lastmile_qr_scan"}, "name": "08169390477c1b1460b46be2083e3c4c", "type": "electric_scooter"}, {"fusion_lat": 0.0, "bike_id": "8c3949f481736ee10f154a16c25a80c6", "fusion_lon": 0.0, "lon": -77.038035, "lat": 38.9232885, "is_reserved": 0, "is_disabled": 0, "rental_uris": {"android": "https://dc.lft.to/lastmile_qr_scan", "ios": "https://dc.lft.to/lastmile_qr_scan"}, "name": "8c3949f481736ee10f154a16c25a80c6", "type": "electric_scooter"}, {"fusion_lat": 0.0, "bike_id": "0c05f773aea487e4116cdc9a0edb5d78", "fusion_lon": 0.0, "lon": -77.03742616666666, "lat": 38.902543666666666, "is_reserved": 0, "is_disabled": 0, "rental_uris": {"android": "https://dc.lft.to/lastmile_qr_scan", "ios": "https://dc.lft.to/lastmile_qr_scan"}, "name": "0c05f773aea487e4116cdc9a0edb5d78", "type": "electric_scooter"},