{"data": {"bikes": [{"lat": 38.9096195, "fusion_lat": 0.0, "type": "electric_scooter", "bike_id": "0540e9a83f17196100c759eb7fb9488e", "rental_uris": {"ios": "https://dc.lft.to/lastmile_qr_scan", "android": "https://dc.lft.to/lastmile_qr_scan"}, "fusion_lon": 0.0, "lon": -77.03317066666666, "name": "0540e9a83f17196100c759eb7fb9488e", "is_reserved": 0, "is_disabled": 0}, {"lat": 38.955969, "fusion_lat": 0.0, "type": "electric_bike", "bike_id": "5be392f9555e8ae181d91253b5d3e63d", "rental_uris": {"ios": "https://dc.lft.to/lastmile_qr_scan", "android": "https://dc.lft.to/lastmile_qr_scan"}, "fusion_lon": 0.0, "lon": -77.01004116666667, "name": "5be392f9555e8ae181d91253b5d3e63d", "is_reserved": 0, "is_disabled": 0}, {"lat": 38.9103285, "fusion_lat": 0.0, "type": "electric_scooter", "bike_id": "17d30dcb14648c0fc636858c47bf6ebb", "rental_uris": {"ios": "https://dc.lft.to/lastmile_qr_scan", "android": "https://dc.lft.to/lastmile_qr_scan"}, "fusion_lon": 0.0, "lon": -77.00470333333334, "name": "17d30dcb14648c0fc636858c47bf6ebb", "is_reserved": 0, "is_disabled": 0}, {"lat": 38.92309, "fusion_lat": 0.0, "type": "electric_scooter", "bike_id": "ff38950b5edbd3b7bfde1e5a968ad6e6", "rental_uris": {"ios": "https://dc.lft.to/lastmile_qr_scan", "android": "https://dc.lft.to/lastmile_qr_scan"}, "fusion_lon": 0.0, "lon": -77.0304545, "name": "ff38950b5edbd3b7bfde1e5a968ad6e6", "is_reserved": 0, "is_disabled": 0}, {"lat": 38.903658166666666, "fusion_lat": 0.0, "type": "electric_scooter", "bike_id": "a9b04aebe9ffbe0904fa689a2a6d6616", "rental_uris": {"ios": "https://dc.lft.to/lastmile_qr_scan", "android": "https://dc.lft.to/lastmile_qr_scan"}, "fusion_lon": 0.0, "lon": -77.007521, "name": "a9b04aebe9ffbe0904fa689a2a6d6616", "is_reserved": 0, "is_disabled": 0}, {"lat": 38.919323, "fusion_lat": 0.0, "type": "electric_scooter", "bike_id": "349172fcc044708ff7826a9c7afc7a9b", "rental_uris": {"ios": "https://dc.lft.to/lastmile_qr_scan", "android": "https://dc.lft.to/lastmile_qr_scan"}, "fusion_lon": 0.0, "lon": -77.02591716666667, "name": "349172fcc044708ff7826a9c7afc7a9b", "is_reserved": 0, "is_disabled": 0}, {"lat": 38.89439933333333, "fusion_lat": 0.0, "type": "electric_scooter", "bike_id": "5925a3ebac5438c719a4fa7b404cea73", "rental_uris": {"ios": "https://dc.lft.to/lastmile_qr_scan", "android": "https://dc.lft.to/lastmile_qr_scan"}, "fusion_lon": 0.0, "lon": -76.97821466666667, "name": "5925a3ebac5438c719a4fa7b404cea73", "is_reserved": 0, "is_disabled": 0}, {"lat": 38.91188616666667, "fusion_lat": 0.0, "type": "electric_scooter", "bike_id": "410ec83dc42c901050afe9a92c975b45", "rental_uris": {"ios": "https://dc.lft.to/lastmile_qr_scan", "android": "https://dc.lft.to/lastmile_qr_scan"}, "fusion_lon": 0.0, "lon": -77.004658, "name": "410ec83dc42c901050afe9a92c975b45", "is_reserved": 0, "is_disabled": 0}, {"lat": 38.925466666666665, "fusion_lat": 0.0, "type": "electric_scooter", "bike_id": "21046d9ff01dc0cbed4c4b85fb79ed67", "rental_uris": {"ios": "https://dc.lft.to/lastmile_qr_scan", "android": "https://dc.lft.to/lastmile_qr_scan"}, "fusion_lon": 0.0, "lon": -77.02283683333333, "name": "21046d9ff01dc0cbed4c4b85fb79ed67", "is_reserved": 0, "is_disabled": 0}, {"lat": 38.912574, "fusion_lat": 0.0, "type": "electric_scooter", "bike_id": "7a93fdb9a4e3d8984ab7b0370dfb6af8", "rental_uris": {"ios": "https://dc.lft.to/lastmile_qr_scan", "android": "https://dc.lft.to/lastmile_qr_scan"}, "fusion_lon": 0.0, "lon": -77.04031616666667, "name": "7a93fdb9a4e3d8984ab7b0370dfb6af8", "is_reserved": 0, "is_disabled": 0}, {"lat": 38.918036, "fusion_lat": 0.0, "type": "electric_scooter", "bike_id": "1b97090daa67ffea168ce0bcad35e586", "rental_uris": {"ios": "https://dc.lft.to/lastmile_qr_scan", "android": "https://dc.lft.to/lastmile_qr_scan"}, "fusion_lon": 0.0, "lon": -77.034385, "name": "1b97090daa67ffea168ce0bcad35e586", "is_reserved": 0, "is_disabled": 0}, {"lat": 38.924561, "fusion_lat": 0.0, "type": "electric_scooter", "bike_id": "5c2b210815d2e754e370b51334b22a88", "rental_uris": {"ios": "https://dc.lft.to/lastmile_qr_scan", "android": "https://dc.lft.to/lastmile_qr_scan"}, "fusion_lon": 0.0, "lon": -77.04037466666666, "name": "5c2b210815d2e754e370b51334b22a88", "is_reserved": 0, "is_disabled": 0}, {"lat": 38.902414666666665, "fusion_lat": 0.0, "type": "electric_scooter", "bike_id": "c1ccdb48120a5f4e6c34beb9bad1ce1e", "rental_uris": {"ios": "https://dc.lft.to/lastmile_qr_scan", "android": "https://dc.lft.to/lastmile_qr_scan"}, "fusion_lon": 0.0, "lon": -76.97928116666667, "name": "c1ccdb48120a5f4e6c34beb9bad1ce1e", "is_reserved": 0, "is_disabled": 0}, {"lat": 38.908449, "fusion_lat": 0.0, "type": "electric_scooter", "bike_id": "0d7aa603667ed404ae209769222ada7f", "rental_uris": {"ios": "https://dc.lft.to/lastmile_qr_scan", "android": "https://dc.lft.to/lastmile_qr_scan"}, "fusion_lon": 0.0, "lon": -77.03844966666666, "name": "0d7aa603667ed404ae209769222ada7f", "is_reserved": 0, "is_disabled": 0}, {"lat": 38.90891716666667, "fusion_lat": 0.0, "type": "electric_scooter", "bike_id": "286ff965f085ff2cea90c9443ed5bf03", "rental_uris": {"ios": "https://dc.lft.to/lastmile_qr_scan", "android": "https://dc.lft.to/lastmile_qr_scan"}, "fusion_lon": 0.0, "lon": -77.04405783333333, "name": "286ff965f085ff2cea90c9443ed5bf03", "is_reserved": 0, "is_disabled": 0}, {"lat": 38.88820616666667, "fusion_lat": 0.0, "type": "electric_scooter", "bike_id": "3b49755e77538186262a03a64613a91e", "rental_uris": {"ios": "https://dc.lft.to/lastmile_qr_scan", "android": "https://dc.lft.to/lastmile_qr_scan"}, "fusion_lon": 0.0, "lon": -76.9771965, "name": "3b49755e77538186262a03a64613a91e", "is_reserved": 0, "is_disabled": 0}, {"lat": 38.9254825, "fusion_lat": 0.0, "type": "electric_scooter", "bike_id": "0a3f7dbb010e74eeb020271f542625bb", "rental_uris": {"ios": "https://dc.lft.to/lastmile_qr_scan", "android": "https://dc.lft.to/lastmile_qr_scan"}, "fusion_lon": 0.0, "lon": -77.03874666666667, "name": "0a3f7dbb010e74eeb020271f542625bb", "is_reserved": 0, "is_disabled": 0}, {"lat": 38.899687166666666, "fusion_lat": 0.0, "type": "electric_scooter", "bike_id": "c0f459efe2bef1c83010c431198242be", "rental_uris": {"ios": "https://dc.lft.to/lastmile_qr_scan", "android": "https://dc.lft.to/lastmile_qr_scan"}, "fusion_lon": 0.0, "lon": -77.02207166666666, "name": "c0f459efe2bef1c83010c431198242be", "is_reserved": 0, "is_disabled": 0}, {"lat": 38.914966166666666, "fusion_lat": 0.0, "type": "electric_bike", "bike_id": "d7192b6150f46b492a8ffdfc4e13c57a", "rental_uris": {"ios": "https://dc.lft.to/lastmile_qr_scan", "android": "https://dc.lft.to/lastmile_qr_scan"}, "fusion_lon": 0.0, "lon": -76.98585066666666, "name": "d7192b6150f46b492a8ffdfc4e13c57a", "is_reserved": 0, "is_disabled": 0}, {"lat": 38.94177633333334, "fusion_lat": 0.0, "type": "electric_scooter", "bike_id": "33ac80b573cb6d62e3d545b4ff27cba5", "rental_uris": {"ios": "https://dc.lft.to/lastmile_qr_scan", "android": "https://dc.lft.to/lastmile_qr_scan"}, "fusion_lon": 0.0, "lon": -77.02793183333333, "name": "33ac80b573cb6d62e3d545b4ff27cba5", "is_reserved": 0, "is_disabled": 0}, {"lat": 38.96750266666667, "fusion_lat": 0.0, "type": "electric_bike", "bike_id": "70607e089e3e75ad74179a17466ccc11", "rental_uris": {"ios": "https://dc.lft.to/lastmile_qr_scan", "android": "https://dc.lft.to/lastmile_qr_scan"}, "fusion_lon": 0.0, "lon": -77.02803683333333, "name": "70607e089e3e75ad74179a17466ccc11", "is_reserved": 0, "is_disabled": 0}, {"lat": 38.92418166666667, "fusion_lat": 0.0, "type": "electric_scooter", "bike_id": "6e37f6aed429648a07e65ace7aa297a2", "rental_uris": {"ios": "https://dc.lft.to/lastmile_qr_scan", "android": "https://dc.lft.to/lastmile_qr_scan"}, "fusion_lon": 0.0, "lon": -77.02011233333333, "name": "6e37f6aed429648a07e65ace7aa297a2", "is_reserved": 0, "is_disabled": 0}, {"lat": 38.92512033333333, "fusion_lat": 0.0, "type": "electric_scooter", "bike_id": "5fb7cdbc007a725f4dce379c37f1c77d", "rental_uris": {"ios": "https://dc.lft.to/lastmile_qr_scan", "android": "https://dc.lft.to/lastmile_qr_scan"}, "fusion_lon": 0.0, "lon": -77.02358033333333, "name": "5fb7cdbc007a725f4dce379c37f1c77d", "is_reserved": 0, "is_disabled": 0}, {"lat": 38.929307666666666, "fusion_lat": 0.0, "type": "electric_scooter", "bike_id": "e3fb3291f91917a358a8d6aa794b13c5", "rental_uris": {"ios": "https://dc.lft.to/lastmile_qr_scan", "android": "https://dc.lft.to/lastmile_qr_scan"}, "fusion_lon": 0.0, "lon": -77.03255366666667, "name": "e3fb3291f91917a358a8d6aa794b13c5", "is_reserved": 0, "is_disabled": 0}, {"lat": 38.88736183333333, "fusion_lat": 0.0, "type": "electric_scooter", "bike_id": "ecc177a0d7a24df619757c170fc3c094", "rental_uris": {"ios": "https://dc.lft.to/lastmile_qr_scan", "android": "https://dc.lft.to/lastmile_qr_scan"}, "fusion_lon": 0.0, "lon": -77.02829666666666, "name": "ecc177a0d7a24df619757c170fc3c094", "is_reserved": 0, "is_disabled": 0}, {"lat": 38.91026516666667, "fusion_lat": 0.0, "type": "electric_scooter", "bike_id": "1009b8b00f6d2e3d963dcd319e28d720", "rental_uris": {"ios": "https://dc.lft.to/lastmile_qr_scan", "android": "https://dc.lft.to/lastmile_qr_scan"}, "fusion_lon": 0.0, "lon": -77.0738945, "name": "1009b8b00f6d2e3d963dcd319e28d720", "is_reserved": 0, "is_disabled": 0}, {"lat": 38.910971833333335, "fusion_lat": 0.0, "type": "electric_scooter", "bike_id": "cc80d624a5d54e37b434dc7405c0b141", "rental_uris": {"ios": "https://dc.lft.to/lastmile_qr_scan", "android": "https://dc.lft.to/lastmile_qr_scan"}, "fusion_lon": 0.0, "lon": -77.03181916666666, "name": "cc80d624a5d54e37b434dc7405c0b141", "is_reserved": 0, "is_disabled": 0}, {"lat": 38.89726483333333, "fusion_lat": 0.0, "type": "electric_scooter", "bike_id": "2fe04375a41026eedfce512e8fe5981a", "rental_uris": {"ios": "https://dc.lft.to/lastmile_qr_scan", "android": "https://dc.lft.to/lastmile_qr_scan"}, "fusion_lon": 0.0, "lon": -77.044258, "name": "2fe04375a41026eedfce512e8fe5981a", "is_reserved": 0, "is_disabled": 0}, {"lat": 38.961444166666666, "fusion_lat": 0.0, "type": "electric_scooter", "bike_id": "215b4d9690ecd49a6dac7638d9723e61", "rental_uris": {"ios": "https://dc.lft.to/lastmile_qr_scan", "android": "https://dc.lft.to/lastmile_qr_scan"}, "fusion_lon": 0.0, "lon": -77.02789566666667, "name": "215b4d9690ecd49a6dac7638d9723e61", "is_reserved": 0, "is_disabled": 0}, {"lat": 38.933485166666664, "fusion_lat": 0.0, "type": "electric_scooter", "bike_id": "3183460c9f6be5e68325b7c5026f3842", "rental_uris": {"ios": "https://dc.lft.to/lastmile_qr_scan", "android": "https://dc.lft.to/lastmile_qr_scan"}, "fusion_lon": 0.0, "lon": -77.073536, "name": "3183460c9f6be5e68325b7c5026f3842", "is_reserved": 0, "is_disabled": 0}, {"lat": 38.919108, "fusion_lat": 0.0, "type": "electric_scooter", "bike_id": "49a50ba06096cacf14c28f2b6ecc3357", "rental_uris": {"ios": "https://dc.lft.to/lastmile_qr_scan", "android": "https://dc.lft.to/lastmile_qr_scan"}, "fusion_lon": 0.0, "lon": -77.03343416666667, "name": "49a50ba06096cacf14c28f2b6ecc3357", "is_reserved": 0, "is_disabled": 0}, {"lat": 38.90962733333333, "fusion_lat": 0.0, "type": "electric_scooter", "bike_id": "9b6378074a07ce05acdd4efea5b2f8b1", "rental_uris": {"ios": "https://dc.lft.to/lastmile_qr_scan", "android": "https://dc.lft.to/lastmile_qr_scan"}, "fusion_lon": 0.0, "lon": -77.02395333333334, "name": "9b6378074a07ce05acdd4efea5b2f8b1", "is_reserved": 0, "is_disabled": 0}, {"lat": 38.89730433333333, "fusion_lat": 0.0, "type": "electric_scooter", "bike_id": "2f7d3452768cbb84ff77e070e8146dd5", "rental_uris": {"ios": "https://dc.lft.to/lastmile_qr_scan", "android": "https://dc.lft.to/lastmile_qr_scan"}, "fusion_lon": 0.0, "lon": -77.04673966666667, "name": "2f7d3452768cbb84ff77e070e8146dd5", "is_reserved": 0, "is_disabled": 0}, {"lat": 38.900402666666665, "fusion_lat": 0.0, "type": "electric_scooter", "bike_id": "a2f023d5320065c9181320510bd63fb7", "rental_uris": {"ios": "https://dc.lft.to/lastmile_qr_scan", "android": "https://dc.lft.to/lastmile_qr_scan"}, "fusion_lon": 0.0, "lon": -77.01694916666666, "name": "a2f023d5320065c9181320510bd63fb7", "is_reserved": 0, "is_disabled": 0}, {"lat": 38.89880616666667, "fusion_lat": 0.0, "type": "electric_scooter", "bike_id": "4482710e6228557c8e3b2afb8f90339c", "rental_uris": {"ios": "https://dc.lft.to/lastmile_qr_scan", "android": "https://dc.lft.to/lastmile_qr_scan"}, "fusion_lon": 0.0, "lon": -77.05357583333333, "name": "4482710e6228557c8e3b2afb8f90339c", "is_reserved": 0, "is_disabled": 0}, {"lat": 38.94446533333333, "fusion_lat": 0.0, "type": "electric_scooter", "bike_id": "edfa9ade24c71f832555859d943872da", "rental_uris": {"ios": "https://dc.lft.to/lastmile_qr_scan", "android": "https://dc.lft.to/lastmile_qr_scan"}, "fusion_lon": 0.0, "lon": -77.06354416666667, "name": "edfa9ade24c71f832555859d943872da", "is_reserved": 0, "is_disabled": 0}, {"lat": 38.8926825, "fusion_lat": 0.0, "type": "electric_scooter", "bike_id": "30d3fba73beefcb4cc43d5f8c473ed9d", "rental_uris": {"ios": "https://dc.lft.to/lastmile_qr_scan", "android": "https://dc.lft.to/lastmile_qr_scan"}, "fusion_lon": 0.0, "lon": -77.00353566666666, "name": "30d3fba73beefcb4cc43d5f8c473ed9d", "is_reserved": 0, "is_disabled": 0}, {"lat": 38.8955135, "fusion_lat": 0.0, "type": "electric_scooter", "bike_id": "b90d7ce1c96991ebbe064d79aba46728", "rental_uris": {"ios": "https://dc.lft.to/lastmile_qr_scan", "android": "https://dc.lft.to/lastmile_qr_scan"}, "fusion_lon": 0.0, "lon": -76.98220266666667, "name": "b90d7ce1c96991ebbe064d79aba46728", "is_reserved": 0, "is_disabled": 0}, {"lat": 38.924558833333336, "fusion_lat": 0.0, "type": "electric_scooter", "bike_id": "d869b2af03ec2dc2eed7f3b606a6f428", "rental_uris": {"ios": "https://dc.lft.to/lastmile_qr_scan", "android": "https://dc.lft.to/lastmile_qr_scan"}, "fusion_lon": 0.0, "lon": -77.03997266666667, "name": "d869b2af03ec2dc2eed7f3b606a6f428", "is_reserved": 0, "is_disabled": 0}, {"lat": 38.91757283333333, "fusion_lat": 0.0, "type": "electric_scooter", "bike_id": "b6d1ea92e8de6f5dce8d9665e41177f7", "rental_uris": {"ios": "https://dc.lft.to/lastmile_qr_scan", "android": "https://dc.lft.to/lastmile_qr_scan"}, "fusion_lon": 0.0, "lon": -77.023136, "name": "b6d1ea92e8de6f5dce8d9665e41177f7", "is_reserved": 0, "is_disabled": 0}, {"lat": 38.92499016666667, "fusion_lat": 0.0, "type": "electric_scooter", "bike_id": "af1437f5124d2ee5224bc6a860c0c5ac", "rental_uris": {"ios": "https://dc.lft.to/lastmile_qr_scan", "android": "https://dc.lft.to/lastmile_qr_scan"}, "fusion_lon": 0.0, "lon": -77.02149466666667, "name": "af1437f5124d2ee5224bc6a860c0c5ac", "is_reserved": 0, "is_disabled": 0}, {"lat": 38.90027283333333, "fusion_lat": 0.0, "type": "electric_scooter", "bike_id": "e3ba0935b769a4583c71de03afc13264", "rental_uris": {"ios": "https://dc.lft.to/lastmile_qr_scan", "android": "https://dc.lft.to/lastmile_qr_scan"}, "fusion_lon": 0.0, "lon": -76.98964733333334, "name": "e3ba0935b769a4583c71de03afc13264", "is_reserved": 0, "is_disabled": 0}, {"lat": 38.929574, "fusion_lat": 0.0, "type": "electric_scooter", "bike_id": "3740d522f4f1c468043f421ecdd51267", "rental_uris": {"ios": "https://dc.lft.to/lastmile_qr_scan", "android": "https://dc.lft.to/lastmile_qr_scan"}, "fusion_lon": 0.0, "lon": -76.99157533333333, "name": "3740d522f4f1c468043f421ecdd51267", "is_reserved": 0, "is_disabled": 0}, {"lat": 38.91661933333334, "fusion_lat": 0.0, "type": "electric_scooter", "bike_id": "4b2cf45a0dd6d03e57ddfa7d14e02d93", "rental_uris": {"ios": "https://dc.lft.to/lastmile_qr_scan", "android": "https://dc.lft.to/lastmile_qr_scan"}, "fusion_lon": 0.0, "lon": -77.02474066666667, "name": "4b2cf45a0dd6d03e57ddfa7d14e02d93", "is_reserved": 0, "is_disabled": 0}, {"lat": 38.80978366666667, "fusion_lat": 0.0, "type": "electric_bike", "bike_id": "acb2545f9644c7d592af7a4c35b09b83", "rental_uris": {"ios": "https://dc.lft.to/lastmile_qr_scan", "android": "https://dc.lft.to/lastmile_qr_scan"}, "fusion_lon": 0.0, "lon": -77.07658283333333, "name": "acb2545f9644c7d592af7a4c35b09b83", "is_reserved": 0, "is_disabled": 0}, {"lat": 38.9199605, "fusion_lat": 0.0, "type": "electric_scooter", "bike_id": "13ae821d191b3363f38190787a18c943", "rental_uris": {"ios": "https://dc.lft.to/lastmile_qr_scan", "android": "https://dc.lft.to/lastmile_qr_scan"}, "fusion_lon": 0.0, "lon": -77.03225316666666, "name": "13ae821d191b3363f38190787a18c943", "is_reserved": 0, "is_disabled": 0}, {"lat": 38.8412795, "fusion_lat": 0.0, "type": "electric_bike", "bike_id": "e738dbf4adb0dbe4564df3c873dda5fe", "rental_uris": {"ios": "https://dc.lft.to/lastmile_qr_scan", "android": "https://dc.lft.to/lastmile_qr_scan"}, "fusion_lon": 0.0, "lon": -77.06308533333333, "name": "e738dbf4adb0dbe4564df3c873dda5fe", "is_reserved": 0, "is_disabled": 0}, {"lat": 38.8638145, "fusion_lat": 0.0, "type": "electric_scooter", "bike_id": "6679002b7c6bf986806c3250ffd141da", "rental_uris": {"ios": "https://dc.lft.to/lastmile_qr_scan", "android": "https://dc.lft.to/lastmile_qr_scan"}, "fusion_lon": 0.0, "lon": -76.99128516666667, "name": "6679002b7c6bf986806c3250ffd141da", "is_reserved": 0, "is_disabled": 0}, {"lat": 38.939631166666665, "fusion_lat": 0.0, "type": "electric_scooter", "bike_id": "d2b83d48df97a1a6a32a8cf745cd2557", "rental_uris": {"ios": "https://dc.lft.to/lastmile_qr_scan", "android": "https://dc.lft.to/lastmile_qr_scan"}, "fusion_lon": 0.0, "lon": -77.03286533333333, "name": "d2b83d48df97a1a6a32a8cf745cd2557", "is_reserved": 0, "is_disabled": 0}, {"lat": 38.91405116666667, "fusion_lat": 0.0, "type": "electric_scooter", "bike_id": "ba9fe864ea0c0bed99fba99d5b23a366", "rental_uris": {"ios": "https://dc.lft.to/lastmile_qr_scan", "android": "https://dc.lft.to/lastmile_qr_scan"}, "fusion_lon": 0.0, "lon": -77.03218416666667, "name": "ba9fe864ea0c0bed99fba99d5b23a366", "is_reserved": 0, "is_disabled": 0}, {"lat": 38.92470466666666, "fusion_lat": 0.0, "type": "electric_scooter", "bike_id": "1165e851972a386ea445f6cf91011756", "rental_uris": {"ios": "https://dc.lft.to/lastmile_qr_scan", "android": "https://dc.lft.to/lastmile_qr_scan"}, "fusion_lon": 0.0, "lon": -77.03910566666667, "name": "1165e851972a386ea445f6cf91011756", "is_reserved": 0, "is_disabled": 0}, {"lat": 38.87734916666667, "fusion_lat": 0.0, "type": "electric_scooter", "bike_id": "4636cdf9bd4f4e67a4f7c45373c92bc2", "rental_uris": {"ios": "https://dc.lft.to/lastmile_qr_scan", "android": "https://dc.lft.to/lastmile_qr_scan"}, "fusion_lon": 0.0, "lon": -76.99486633333333, "name": "4636cdf9bd4f4e67a4f7c45373c92bc2", "is_reserved": 0, "is_disabled": 0}, {"lat": 38.989981, "fusion_lat": 0.0, "type": "electric_bike", "bike_id": "3fdc429a2eb5e92ec6b52f6e46cfe5d0", "rental_uris": {"ios": "https://dc.lft.to/lastmile_qr_scan", "android": "https://dc.lft.to/lastmile_qr_scan"}, "fusion_lon": 0.0, "lon": -77.00440233333333, "name": "3fdc429a2eb5e92ec6b52f6e46cfe5d0", "is_reserved": 0, "is_disabled": 0}, {"lat": 38.90359566666667, "fusion_lat": 0.0, "type": "electric_scooter", "bike_id": "6cc4e9063bbfd47104ec9867fd60c224", "rental_uris": {"ios": "https://dc.lft.to/lastmile_qr_scan", "android": "https://dc.lft.to/lastmile_qr_scan"}, "fusion_lon": 0.0, "lon": -77.02189183333333, "name": "6cc4e9063bbfd47104ec9867fd60c224", "is_reserved": 0, "is_disabled": 0}, {"lat": 38.91854933333333, "fusion_lat": 0.0, "type": "electric_scooter", "bike_id": "e6dd5856cd92dd1a5489daf32d891dce", "rental_uris": {"ios": "https://dc.lft.to/lastmile_qr_scan", "android": "https://dc.lft.to/lastmile_qr_scan"}, "fusion_lon": 0.0, "lon": -77.013557, "name": "e6dd5856cd92dd1a5489daf32d891dce", "is_reserved": 0, "is_disabled": 0}, {"lat": 38.94197366666667, "fusion_lat": 0.0, "type": "electric_scooter", "bike_id": "07222fa320fbb0bb52f59600b13c24b3", "rental_uris": {"ios": "https://dc.lft.to/lastmile_qr_scan", "android": "https://dc.lft.to/lastmile_qr_scan"}, "fusion_lon": 0.0, "lon": -77.02478916666666, "name": "07222fa320fbb0bb52f59600b13c24b3", "is_reserved": 0, "is_disabled": 0}, {"lat": 38.90766466666667, "fusion_lat": 0.0, "type": "electric_scooter", "bike_id": "309e2c79542634dbd676efb6ac7212cf", "rental_uris": {"ios": "https://dc.lft.to/lastmile_qr_scan", "android": "https://dc.lft.to/lastmile_qr_scan"}, "fusion_lon": 0.0, "lon": -77.03842183333333, "name": "309e2c79542634dbd676efb6ac7212cf", "is_reserved": 0, "is_disabled": 0}, {"lat": 38.917952, "fusion_lat": 0.0, "type": "electric_scooter", "bike_id": "6d6b1e50ac2d961e2047b13c91529cc0", "rental_uris": {"ios": "https://dc.lft.to/lastmile_qr_scan", "android": "https://dc.lft.to/lastmile_qr_scan"}, "fusion_lon": 0.0, "lon": -77.03446, "name": "6d6b1e50ac2d961e2047b13c91529cc0", "is_reserved": 0, "is_disabled": 0}, {"lat": 38.923412666666664, "fusion_lat": 0.0, "type": "electric_scooter", "bike_id": "a443a350ad586bca4445b5debb46dd29", "rental_uris": {"ios": "https://dc.lft.to/lastmile_qr_scan", "android": "https://dc.lft.to/lastmile_qr_scan"}, "fusion_lon": 0.0, "lon": -77.03539416666666, "name": "a443a350ad586bca4445b5debb46dd29", "is_reserved": 0, "is_disabled": 0}, {"lat": 38.907317, "fusion_lat": 0.0, "type": "electric_scooter", "bike_id": "54d13c76aa94fa5789d28c401e729183", "rental_uris": {"ios": "https://dc.lft.to/lastmile_qr_scan", "android": "https://dc.lft.to/lastmile_qr_scan"}, "fusion_lon": 0.0, "lon": -77.044871, "name": "54d13c76aa94fa5789d28c401e729183", "is_reserved": 0, "is_disabled": 0}, {"lat": 38.91997116666667, "fusion_lat": 0.0, "type": "electric_scooter", "bike_id": "e8f9ebd3f0734e7d99abc5d6889ed42f", "rental_uris": {"ios": "https://dc.lft.to/lastmile_qr_scan", "android": "https://dc.lft.to/lastmile_qr_scan"}, "fusion_lon": 0.0, "lon": -77.04759483333333, "name": "e8f9ebd3f0734e7d99abc5d6889ed42f", "is_reserved": 0, "is_disabled": 0}, {"lat": 38.9170725, "fusion_lat": 0.0, "type": "electric_scooter", "bike_id": "c3ce1783b8883f4b0b934de11ab6320e", "rental_uris": {"ios": "https://dc.lft.to/lastmile_qr_scan", "android": "https://dc.lft.to/lastmile_qr_scan"}, "fusion_lon": 0.0, "lon": -77.02440966666667, "name": "c3ce1783b8883f4b0b934de11ab6320e", "is_reserved": 0, "is_disabled": 0}, {"lat": 38.885022, "fusion_lat": 0.0, "type": "electric_scooter", "bike_id": "080e9008f1e63d4381a79856674c401a", "rental_uris": {"ios": "https://dc.lft.to/lastmile_qr_scan", "android": "https://dc.lft.to/lastmile_qr_scan"}, "fusion_lon": 0.0, "lon": -76.9527005, "name": "080e9008f1e63d4381a79856674c401a", "is_reserved": 0, "is_disabled": 0}, {"lat": 38.92078266666667, "fusion_lat": 0.0, "type": "electric_scooter", "bike_id": "3a493130c60e7a78aaf2aa08bff98161", "rental_uris": {"ios": "https://dc.lft.to/lastmile_qr_scan", "android": "https://dc.lft.to/lastmile_qr_scan"}, "fusion_lon": 0.0, "lon": -77.025136, "name": "3a493130c60e7a78aaf2aa08bff98161", "is_reserved": 0, "is_disabled": 0}, {"lat": 38.8811975, "fusion_lat": 0.0, "type": "electric_scooter", "bike_id": "e89dd3fa2d4489a27394ad673b9fa7ff", "rental_uris": {"ios": "https://dc.lft.to/lastmile_qr_scan", "android": "https://dc.lft.to/lastmile_qr_scan"}, "fusion_lon": 0.0, "lon": -77.00134616666666, "name": "e89dd3fa2d4489a27394ad673b9fa7ff", "is_reserved": 0, "is_disabled": 0}, {"lat": 38.92463133333333, "fusion_lat": 0.0, "type": "electric_scooter", "bike_id": "685a714f7a7c55a7a67306b9eea36634", "rental_uris": {"ios": "https://dc.lft.to/lastmile_qr_scan", "android": "https://dc.lft.to/lastmile_qr_scan"}, "fusion_lon": 0.0, "lon": -77.0403445, "name": "685a714f7a7c55a7a67306b9eea36634", "is_reserved": 0, "is_disabled": 0}, {"lat": 38.929278333333336, "fusion_lat": 0.0, "type": "electric_scooter", "bike_id": "bad896a8598a6487e9e8643114cb61d6", "rental_uris": {"ios": "https://dc.lft.to/lastmile_qr_scan", "android": "https://dc.lft.to/lastmile_qr_scan"}, "fusion_lon": 0.0, "lon": -77.0326215, "name": "bad896a8598a6487e9e8643114cb61d6", "is_reserved": 0, "is_disabled": 0}, {"lat": 38.896021166666664, "fusion_lat": 0.0, "type": "electric_scooter", "bike_id": "32ee68303a28c4c60c6934d9a2d03127", "rental_uris": {"ios": "https://dc.lft.to/lastmile_qr_scan", "android": "https://dc.lft.to/lastmile_qr_scan"}, "fusion_lon": 0.0, "lon": -77.0446845, "name": "32ee68303a28c4c60c6934d9a2d03127", "is_reserved": 0, "is_disabled": 0}, {"lat": 38.91699116666667, "fusion_lat": 0.0, "type": "electric_scooter", "bike_id": "abf42f3746524c1385efe4c645117e46", "rental_uris": {"ios": "https://dc.lft.to/lastmile_qr_scan", "android": "https://dc.lft.to/lastmile_qr_scan"}, "fusion_lon": 0.0, "lon": -77.03155616666666, "name": "abf42f3746524c1385efe4c645117e46", "is_reserved": 0, "is_disabled": 0}, {"lat": 38.92016483333333, "fusion_lat": 0.0, "type": "electric_scooter", "bike_id": "4da152b7cc4d2d7dc38ec8c60d9e14e0", "rental_uris": {"ios": "https://dc.lft.to/lastmile_qr_scan", "android": "https://dc.lft.to/lastmile_qr_scan"}, "fusion_lon": 0.0, "lon": -77.02408566666666, "name": "4da152b7cc4d2d7dc38ec8c60d9e14e0", "is_reserved": 0, "is_disabled": 0}, {"lat": 38.902031666666666, "fusion_lat": 0.0, "type": "electric_scooter", "bike_id": "417ff59371d70ffd9c182f8001eb6ef2", "rental_uris": {"ios": "https://dc.lft.to/lastmile_qr_scan", "android": "https://dc.lft.to/lastmile_qr_scan"}, "fusion_lon": 0.0, "lon": -77.0218125, "name": "417ff59371d70ffd9c182f8001eb6ef2", "is_reserved": 0, "is_disabled": 0}, {"lat": 38.92522733333333, "fusion_lat": 0.0, "type": "electric_scooter", "bike_id": "d98afa02258cfe9de7842a589275beda", "rental_uris": {"ios": "https://dc.lft.to/lastmile_qr_scan", "android": "https://dc.lft.to/lastmile_qr_scan"}, "fusion_lon": 0.0, "lon": -76.99638416666667, "name": "d98afa02258cfe9de7842a589275beda", "is_reserved": 0, "is_disabled": 0}, {"lat": 38.87892933333333, "fusion_lat": 0.0, "type": "electric_scooter", "bike_id": "0eec5ffa025113d33aa06bb831066fa4", "rental_uris": {"ios": "https://dc.lft.to/lastmile_qr_scan", "android": "https://dc.lft.to/lastmile_qr_scan"}, "fusion_lon": 0.0, "lon": -76.99511966666667, "name": "0eec5ffa025113d33aa06bb831066fa4", "is_reserved": 0, "is_disabled": 0}, {"lat": 38.9176775, "fusion_lat": 0.0, "type": "electric_scooter", "bike_id": "87cbe4c1145e44b491d479fef6d8b624", "rental_uris": {"ios": "https://dc.lft.to/lastmile_qr_scan", "android": "https://dc.lft.to/lastmile_qr_scan"}, "fusion_lon": 0.0, "lon": -77.04061966666667, "name": "87cbe4c1145e44b491d479fef6d8b624", "is_reserved": 0, "is_disabled": 0}, {"lat": 38.933070666666666, "fusion_lat": 0.0, "type": "electric_scooter", "bike_id": "55dbafaee15afb848e6745a81fb82bcf", "rental_uris": {"ios": "https://dc.lft.to/lastmile_qr_scan", "android": "https://dc.lft.to/lastmile_qr_scan"}, "fusion_lon": 0.0, "lon": -77.03269266666666, "name": "55dbafaee15afb848e6745a81fb82bcf", "is_reserved": 0, "is_disabled": 0}, {"lat": 38.93468683333333, "fusion_lat": 0.0, "type": "electric_scooter", "bike_id": "744e9c59861efc6c0168b8855cf9fea2", "rental_uris": {"ios": "https://dc.lft.to/lastmile_qr_scan", "android": "https://dc.lft.to/lastmile_qr_scan"}, "fusion_lon": 0.0, "lon": -77.04145866666667, "name": "744e9c59861efc6c0168b8855cf9fea2", "is_reserved": 0, "is_disabled": 0}, {"lat": 38.899324666666665, "fusion_lat": 0.0, "type": "electric_scooter", "bike_id": "f8fbe5b3f075fccd58c5c95069f2dc17", "rental_uris": {"ios": "https://dc.lft.to/lastmile_qr_scan", "android": "https://dc.lft.to/lastmile_qr_scan"}, "fusion_lon": 0.0, "lon": -77.04024683333333, "name": "f8fbe5b3f075fccd58c5c95069f2dc17", "is_reserved": 0, "is_disabled": 0}, {"lat": 38.90500466666667, "fusion_lat": 0.0, "type": "electric_bike", "bike_id": "8094e85ff4050406241780ada6fb53d3", "rental_uris": {"ios": "https://dc.lft.to/lastmile_qr_scan", "android": "https://dc.lft.to/lastmile_qr_scan"}, "fusion_lon": 0.0, "lon": -76.97445716666667, "name": "8094e85ff4050406241780ada6fb53d3", "is_reserved": 0, "is_disabled": 0}, {"lat": 38.92739516666666, "fusion_lat": 0.0, "type": "electric_scooter", "bike_id": "5affe9437bbe777e5213bdae16d86b58", "rental_uris": {"ios": "https://dc.lft.to/lastmile_qr_scan", "android": "https://dc.lft.to/lastmile_qr_scan"}, "fusion_lon": 0.0, "lon": -76.99562633333333, "name": "5affe9437bbe777e5213bdae16d86b58", "is_reserved": 0, "is_disabled": 0}, {"lat": 38.9234065, "fusion_lat": 0.0, "type": "electric_scooter", "bike_id": "17efaa0326c3d967da5f00d9fad5202e", "rental_uris": {"ios": "https://dc.lft.to/lastmile_qr_scan", "android": "https://dc.lft.to/lastmile_qr_scan"}, "fusion_lon": 0.0, "lon": -77.04744866666667, "name": "17efaa0326c3d967da5f00d9fad5202e", "is_reserved": 0, "is_disabled": 0}, {"lat": 38.943068833333335, "fusion_lat": 0.0, "type": "electric_scooter", "bike_id": "ae5f8b9e25e009451036aaf20c5af80a", "rental_uris": {"ios": "https://dc.lft.to/lastmile_qr_scan", "android": "https://dc.lft.to/lastmile_qr_scan"}, "fusion_lon": 0.0, "lon": -77.05951666666667, "name": "ae5f8b9e25e009451036aaf20c5af80a", "is_reserved": 0, "is_disabled": 0}, {"lat": 38.9183295, "fusion_lat": 0.0, "type": "electric_scooter", "bike_id": "7b299061d9dc090cf48df492d615d9e6", "rental_uris": {"ios": "https://dc.lft.to/lastmile_qr_scan", "android": "https://dc.lft.to/lastmile_qr_scan"}, "fusion_lon": 0.0, "lon": -77.05883966666667, "name": "7b299061d9dc090cf48df492d615d9e6", "is_reserved": 0, "is_disabled": 0}, {"lat": 38.956254333333334, "fusion_lat": 0.0, "type": "electric_scooter", "bike_id": "a2cf547366daf9dc421d39d3e2333ec6", "rental_uris": {"ios": "https://dc.lft.to/lastmile_qr_scan", "android": "https://dc.lft.to/lastmile_qr_scan"}, "fusion_lon": 0.0, "lon": -77.02837866666667, "name": "a2cf547366daf9dc421d39d3e2333ec6", "is_reserved": 0, "is_disabled": 0}, {"lat": 38.9099425, "fusion_lat": 0.0, "type": "electric_scooter", "bike_id": "fadb02d1c793a2b56b2a5b9966a6a390", "rental_uris": {"ios": "https://dc.lft.to/lastmile_qr_scan", "android": "https://dc.lft.to/lastmile_qr_scan"}, "fusion_lon": 0.0, "lon": -76.98621533333333, "name": "fadb02d1c793a2b56b2a5b9966a6a390", "is_reserved": 0, "is_disabled": 0}, {"lat": 38.904659, "fusion_lat": 0.0, "type": "electric_scooter", "bike_id": "d51656ea3478d5e7ede7fc1e6e7ddc30", "rental_uris": {"ios": "https://dc.lft.to/lastmile_qr_scan", "android": "https://dc.lft.to/lastmile_qr_scan"}, "fusion_lon": 0.0, "lon": -77.0294315, "name": "d51656ea3478d5e7ede7fc1e6e7ddc30", "is_reserved": 0, "is_disabled": 0}, {"lat": 38.924114333333335, "fusion_lat": 0.0, "type": "electric_bike", "bike_id": "560863b971303abb5352d3ebd6b6d992", "rental_uris": {"ios": "https://dc.lft.to/lastmile_qr_scan", "android": "https://dc.lft.to/lastmile_qr_scan"}, "fusion_lon": 0.0, "lon": -77.03541366666667, "name": "560863b971303abb5352d3ebd6b6d992", "is_reserved": 0, "is_disabled": 0}, {"lat": 38.90862166666667, "fusion_lat": 0.0, "type": "electric_scooter", "bike_id": "661fc5a29b9e0681390c56e65b3c11a5", "rental_uris": {"ios": "https://dc.lft.to/lastmile_qr_scan", "android": "https://dc.lft.to/lastmile_qr_scan"}, "fusion_lon": 0.0, "lon": -77.018726, "name": "661fc5a29b9e0681390c56e65b3c11a5", "is_reserved": 0, "is_disabled": 0}, {"lat": 38.88358983333333, "fusion_lat": 0.0, "type": "electric_scooter", "bike_id": "8e0183f7a9e0d4ff1ce73d6d4c302e0d", "rental_uris": {"ios": "https://dc.lft.to/lastmile_qr_scan", "android": "https://dc.lft.to/lastmile_qr_scan"}, "fusion_lon": 0.0, "lon": -76.99512916666667, "name": "8e0183f7a9e0d4ff1ce73d6d4c302e0d", "is_reserved": 0, "is_disabled": 0}, {"lat": 38.784520666666666, "fusion_lat": 0.0, "type": "electric_bike", "bike_id": "7926102a942fa035a077aa5e4bf56a70", "rental_uris": {"ios": "https://dc.lft.to/lastmile_qr_scan", "android": "https://dc.lft.to/lastmile_qr_scan"}, "fusion_lon": 0.0, "lon": -77.01636966666666, "name": "7926102a942fa035a077aa5e4bf56a70", "is_reserved": 0, "is_disabled": 0}, {"lat": 38.91927616666667, "fusion_lat": 0.0, "type": "electric_scooter", "bike_id": "7805358273003b1adfd780e7eae6d4c3", "rental_uris": {"ios": "https://dc.lft.to/lastmile_qr_scan", "android": "https://dc.lft.to/lastmile_qr_scan"}, "fusion_lon": 0.0, "lon": -77.04482766666666, "name": "7805358273003b1adfd780e7eae6d4c3", "is_reserved": 0, "is_disabled": 0}, {"lat": 38.92291616666667, "fusion_lat": 0.0, "type": "electric_scooter", "bike_id": "e4dbc419a2c76a90843841affdbbf428", "rental_uris": {"ios": "https://dc.lft.to/lastmile_qr_scan", "android": "https://dc.lft.to/lastmile_qr_scan"}, "fusion_lon": 0.0, "lon": -77.05444016666667, "name": "e4dbc419a2c76a90843841affdbbf428", "is_reserved": 0, "is_disabled": 0}, {"lat": 38.94019333333333, "fusion_lat": 0.0, "type": "electric_bike", "bike_id": "7d445e93904a4c5c298b4166ca369dbe", "rental_uris": {"ios": "https://dc.lft.to/lastmile_qr_scan", "android": "https://dc.lft.to/lastmile_qr_scan"}, "fusion_lon": 0.0, "lon": -76.97609633333333, "name": "7d445e93904a4c5c298b4166ca369dbe", "is_reserved": 0, "is_disabled": 0}, {"lat": 38.918003666666664, "fusion_lat": 0.0, "type": "electric_scooter", "bike_id": "e8c7944c865bcabca52b0b133cbb64ff", "rental_uris": {"ios": "https://dc.lft.to/lastmile_qr_scan", "android": "https://dc.lft.to/lastmile_qr_scan"}, "fusion_lon": 0.0, "lon": -77.04017566666667, "name": "e8c7944c865bcabca52b0b133cbb64ff", "is_reserved": 0, "is_disabled": 0}, {"lat": 38.9147935, "fusion_lat": 0.0, "type": "electric_scooter", "bike_id": "5a0dc5cccb12fcbf95d5c787defd4557", "rental_uris": {"ios": "https://dc.lft.to/lastmile_qr_scan", "android": "https://dc.lft.to/lastmile_qr_scan"}, "fusion_lon": 0.0, "lon": -77.04264233333333, "name": "5a0dc5cccb12fcbf95d5c787defd4557", "is_reserved": 0, "is_disabled": 0}, {"lat": 38.89182666666667, "fusion_lat": 0.0, "type": "electric_scooter", "bike_id": "95ac26361db6f41691a5a40a463e71ea", "rental_uris": {"ios": "https://dc.lft.to/lastmile_qr_scan", "android": "https://dc.lft.to/lastmile_qr_scan"}, "fusion_lon": 0.0, "lon": -77.0034685, "name": "95ac26361db6f41691a5a40a463e71ea", "is_reserved": 0, "is_disabled": 0}, {"lat": 38.92191916666667, "fusion_lat": 0.0, "type": "electric_scooter", "bike_id": "3991fa17e59f594da1b8370964562a04", "rental_uris": {"ios": "https://dc.lft.to/lastmile_qr_scan", "android": "https://dc.lft.to/lastmile_qr_scan"}, "fusion_lon": 0.0, "lon": -77.01963533333333, "name": "3991fa17e59f594da1b8370964562a04", "is_reserved": 0, "is_disabled": 0}, {"lat": 38.8315775, "fusion_lat": 0.0, "type": "electric_bike", "bike_id": "929a3d92dc2689be1737b948fb99db40", "rental_uris": {"ios": "https://dc.lft.to/lastmile_qr_scan", "android": "https://dc.lft.to/lastmile_qr_scan"}, "fusion_lon": 0.0, "lon": -76.99574133333333, "name": "929a3d92dc2689be1737b948fb99db40", "is_reserved": 0, "is_disabled": 0}, {"lat": 38.90080866666667, "fusion_lat": 0.0, "type": "electric_scooter", "bike_id": "f3e2b5495635465a94a43f35d75c9f46", "rental_uris": {"ios": "https://dc.lft.to/lastmile_qr_scan", "android": "https://dc.lft.to/lastmile_qr_scan"}, "fusion_lon": 0.0, "lon": -77.0184005, "name": "f3e2b5495635465a94a43f35d75c9f46", "is_reserved": 0, "is_disabled": 0}, {"lat": 38.90039733333333, "fusion_lat": 0.0, "type": "electric_scooter", "bike_id": "174db1dc5fdcd5af16e65897bbb5860d", "rental_uris": {"ios": "https://dc.lft.to/lastmile_qr_scan", "android": "https://dc.lft.to/lastmile_qr_scan"}, "fusion_lon": 0.0, "lon": -77.00205633333333, "name": "174db1dc5fdcd5af16e65897bbb5860d", "is_reserved": 0, "is_disabled": 0}, {"lat": 38.92228566666667, "fusion_lat": 0.0, "type": "electric_scooter", "bike_id": "c23c7ed9c47b46e486b1d2a0bee1f6fd", "rental_uris": {"ios": "https://dc.lft.to/lastmile_qr_scan", "android": "https://dc.lft.to/lastmile_qr_scan"}, "fusion_lon": 0.0, "lon": -77.04412283333333, "name": "c23c7ed9c47b46e486b1d2a0bee1f6fd", "is_reserved": 0, "is_disabled": 0}, {"lat": 38.92022516666667, "fusion_lat": 0.0, "type": "electric_scooter", "bike_id": "652cb01d3cdf85f26395a44895675d4f", "rental_uris": {"ios": "https://dc.lft.to/lastmile_qr_scan", "android": "https://dc.lft.to/lastmile_qr_scan"}, "fusion_lon": 0.0, "lon": -77.07165333333333, "name": "652cb01d3cdf85f26395a44895675d4f", "is_reserved": 0, "is_disabled": 0}, {"lat": 38.89227366666667, "fusion_lat": 0.0, "type": "electric_scooter", "bike_id": "64c637bb3356273f0a67e2b83ba71877", "rental_uris": {"ios": "https://dc.lft.to/lastmile_qr_scan", "android": "https://dc.lft.to/lastmile_qr_scan"}, "fusion_lon": 0.0, "lon": -77.02802683333333, "name": "64c637bb3356273f0a67e2b83ba71877", "is_reserved": 0, "is_disabled": 0}, {"lat": 38.89871333333333, "fusion_lat": 0.0, "type": "electric_scooter", "bike_id": "63ff55a228ded029fd78815a7ed07bd7", "rental_uris": {"ios": "https://dc.lft.to/lastmile_qr_scan", "android": "https://dc.lft.to/lastmile_qr_scan"}, "fusion_lon": 0.0, "lon": -77.00840833333334, "name": "63ff55a228ded029fd78815a7ed07bd7", "is_reserved": 0, "is_disabled": 0}, {"lat": 38.885627, "fusion_lat": 0.0, "type": "electric_scooter", "bike_id": "659337ff0a1aca98e424882b3cc8703d", "rental_uris": {"ios": "https://dc.lft.to/lastmile_qr_scan", "android": "https://dc.lft.to/lastmile_qr_scan"}, "fusion_lon": 0.0, "lon": -76.99796766666667, "name": "659337ff0a1aca98e424882b3cc8703d", "is_reserved": 0, "is_disabled": 0}, {"lat": 38.8923595, "fusion_lat": 0.0, "type": "electric_scooter", "bike_id": "19db3b6077fd94de7192b3fc18cdab6c", "rental_uris": {"ios": "https://dc.lft.to/lastmile_qr_scan", "android": "https://dc.lft.to/lastmile_qr_scan"}, "fusion_lon": 0.0, "lon": -77.04162066666666, "name": "19db3b6077fd94de7192b3fc18cdab6c", "is_reserved": 0, "is_disabled": 0}, {"lat": 38.904669166666665, "fusion_lat": 0.0, "type": "electric_scooter", "bike_id": "39aa9b2ceafd23160ab2caaa300b40b9", "rental_uris": {"ios": "https://dc.lft.to/lastmile_qr_scan", "android": "https://dc.lft.to/lastmile_qr_scan"}, "fusion_lon": 0.0, "lon": -77.0294885, "name": "39aa9b2ceafd23160ab2caaa300b40b9", "is_reserved": 0, "is_disabled": 0}, {"lat": 38.929961166666665, "fusion_lat": 0.0, "type": "electric_scooter", "bike_id": "bbc58ad255b76d84f257733089b70447", "rental_uris": {"ios": "https://dc.lft.to/lastmile_qr_scan", "android": "https://dc.lft.to/lastmile_qr_scan"}, "fusion_lon": 0.0, "lon": -77.023476, "name": "bbc58ad255b76d84f257733089b70447", "is_reserved": 0, "is_disabled": 0}, {"lat": 38.928521833333335, "fusion_lat": 0.0, "type": "electric_scooter", "bike_id": "50a624a45351817380cb478c0a5e323f", "rental_uris": {"ios": "https://dc.lft.to/lastmile_qr_scan", "android": "https://dc.lft.to/lastmile_qr_scan"}, "fusion_lon": 0.0, "lon": -77.05590283333333, "name": "50a624a45351817380cb478c0a5e323f", "is_reserved": 0, "is_disabled": 0}, {"lat": 38.874094666666664, "fusion_lat": 0.0, "type": "electric_scooter", "bike_id": "24e14e9d3f5ec20c172af10c7efddec8", "rental_uris": {"ios": "https://dc.lft.to/lastmile_qr_scan", "android": "https://dc.lft.to/lastmile_qr_scan"}, "fusion_lon": 0.0, "lon": -77.00204183333334, "name": "24e14e9d3f5ec20c172af10c7efddec8", "is_reserved": 0, "is_disabled": 0}, {"lat": 38.9160055, "fusion_lat": 0.0, "type": "electric_scooter", "bike_id": "5c3701d36c7c2a63a202f2c192c921c8", "rental_uris": {"ios": "https://dc.lft.to/lastmile_qr_scan", "android": "https://dc.lft.to/lastmile_qr_scan"}, "fusion_lon": 0.0, "lon": -77.04911433333334, "name": "5c3701d36c7c2a63a202f2c192c921c8", "is_reserved": 0, "is_disabled": 0}, {"lat": 38.923459, "fusion_lat": 0.0, "type": "electric_scooter", "bike_id": "72e9b6a567566ae603468d91f38cbc88", "rental_uris": {"ios": "https://dc.lft.to/lastmile_qr_scan", "android": "https://dc.lft.to/lastmile_qr_scan"}, "fusion_lon": 0.0, "lon": -77.0517335, "name": "72e9b6a567566ae603468d91f38cbc88", "is_reserved": 0, "is_disabled": 0}, {"lat": 38.8922545, "fusion_lat": 0.0, "type": "electric_scooter", "bike_id": "a43f85590605f414f53660d9d4f27cf1", "rental_uris": {"ios": "https://dc.lft.to/lastmile_qr_scan", "android": "https://dc.lft.to/lastmile_qr_scan"}, "fusion_lon": 0.0, "lon": -77.02780516666667, "name": "a43f85590605f414f53660d9d4f27cf1", "is_reserved": 0, "is_disabled": 0}, {"lat": 38.92908383333334, "fusion_lat": 0.0, "type": "electric_scooter", "bike_id": "b26a2be8ea770f0be3ab232f839708e4", "rental_uris": {"ios": "https://dc.lft.to/lastmile_qr_scan", "android": "https://dc.lft.to/lastmile_qr_scan"}, "fusion_lon": 0.0, "lon": -77.0327765, "name": "b26a2be8ea770f0be3ab232f839708e4", "is_reserved": 0, "is_disabled": 0}, {"lat": 38.891040833333335, "fusion_lat": 0.0, "type": "electric_bike", "bike_id": "5c20d3cfdd5242ef8b304aed403d8ef7", "rental_uris": {"ios": "https://dc.lft.to/lastmile_qr_scan", "android": "https://dc.lft.to/lastmile_qr_scan"}, "fusion_lon": 0.0, "lon": -76.9347995, "name": "5c20d3cfdd5242ef8b304aed403d8ef7", "is_reserved": 0, "is_disabled": 0}, {"lat": 38.92241883333333, "fusion_lat": 0.0, "type": "electric_scooter", "bike_id": "eceee10d09eb638d532f1c7362f505c6", "rental_uris": {"ios": "https://dc.lft.to/lastmile_qr_scan", "android": "https://dc.lft.to/lastmile_qr_scan"}, "fusion_lon": 0.0, "lon": -77.07312216666666, "name": "eceee10d09eb638d532f1c7362f505c6", "is_reserved": 0, "is_disabled": 0}, {"lat": 38.92581583333333, "fusion_lat": 0.0, "type": "electric_scooter", "bike_id": "836f310bbfd6d6f6ac181d8fdcd26483", "rental_uris": {"ios": "https://dc.lft.to/lastmile_qr_scan", "android": "https://dc.lft.to/lastmile_qr_scan"}, "fusion_lon": 0.0, "lon": -77.035377, "name": "836f310bbfd6d6f6ac181d8fdcd26483", "is_reserved": 0, "is_disabled": 0}, {"lat": 38.8873015, "fusion_lat": 0.0, "type": "electric_scooter", "bike_id": "401294e4dc7a6967d7b3ca812c76393b", "rental_uris": {"ios": "https://dc.lft.to/lastmile_qr_scan", "android": "https://dc.lft.to/lastmile_qr_scan"}, "fusion_lon": 0.0, "lon": -77.02383883333333, "name": "401294e4dc7a6967d7b3ca812c76393b", "is_reserved": 0, "is_disabled": 0}, {"lat": 38.8919575, "fusion_lat": 0.0, "type": "electric_scooter", "bike_id": "0391a04b0070b1875fa0d43f317ce450", "rental_uris": {"ios": "https://dc.lft.to/lastmile_qr_scan", "android": "https://dc.lft.to/lastmile_qr_scan"}, "fusion_lon": 0.0, "lon": -77.02380466666666, "name": "0391a04b0070b1875fa0d43f317ce450", "is_reserved": 0, "is_disabled": 0}, {"lat": 38.90713, "fusion_lat": 0.0, "type": "electric_scooter", "bike_id": "a7384bfb0c579db208514de36d921753", "rental_uris": {"ios": "https://dc.lft.to/lastmile_qr_scan", "android": "https://dc.lft.to/lastmile_qr_scan"}, "fusion_lon": 0.0, "lon": -77.02975333333333, "name": "a7384bfb0c579db208514de36d921753", "is_reserved": 0, "is_disabled": 0}, {"lat": 38.89625133333333, "fusion_lat": 0.0, "type": "electric_scooter", "bike_id": "a2b1b593b0ebf3cbf912561ed7116555", "rental_uris": {"ios": "https://dc.lft.to/lastmile_qr_scan", "android": "https://dc.lft.to/lastmile_qr_scan"}, "fusion_lon": 0.0, "lon": -77.00935016666666, "name": "a2b1b593b0ebf3cbf912561ed7116555", "is_reserved": 0, "is_disabled": 0}, {"lat": 38.95673816666667, "fusion_lat": 0.0, "type": "electric_scooter", "bike_id": "4a16b9adee4b33ae4a3118d02dfd5df7", "rental_uris": {"ios": "https://dc.lft.to/lastmile_qr_scan", "android": "https://dc.lft.to/lastmile_qr_scan"}, "fusion_lon": 0.0, "lon": -77.01363733333334, "name": "4a16b9adee4b33ae4a3118d02dfd5df7", "is_reserved": 0, "is_disabled": 0}, {"lat": 38.916785, "fusion_lat": 0.0, "type": "electric_scooter", "bike_id": "b40b2028af6608875abb38a64707a69a", "rental_uris": {"ios": "https://dc.lft.to/lastmile_qr_scan", "android": "https://dc.lft.to/lastmile_qr_scan"}, "fusion_lon": 0.0, "lon": -77.02809383333333, "name": "b40b2028af6608875abb38a64707a69a", "is_reserved": 0, "is_disabled": 0}, {"lat": 38.95650666666667, "fusion_lat": 0.0, "type": "electric_scooter", "bike_id": "ba926342d16135314cc19ee92221e8f1", "rental_uris": {"ios": "https://dc.lft.to/lastmile_qr_scan", "android": "https://dc.lft.to/lastmile_qr_scan"}, "fusion_lon": 0.0, "lon": -77.01968783333334, "name": "ba926342d16135314cc19ee92221e8f1", "is_reserved": 0, "is_disabled": 0}, {"lat": 38.9205415, "fusion_lat": 0.0, "type": "electric_scooter", "bike_id": "d0986bf88aabeafba0cd2f0187d7af28", "rental_uris": {"ios": "https://dc.lft.to/lastmile_qr_scan", "android": "https://dc.lft.to/lastmile_qr_scan"}, "fusion_lon": 0.0, "lon": -77.04101766666666, "name": "d0986bf88aabeafba0cd2f0187d7af28", "is_reserved": 0, "is_disabled": 0}, {"lat": 38.91797066666667, "fusion_lat": 0.0, "type": "electric_scooter", "bike_id": "2a844df9a694f71630765e9191657aaf", "rental_uris": {"ios": "https://dc.lft.to/lastmile_qr_scan", "android": "https://dc.lft.to/lastmile_qr_scan"}, "fusion_lon": 0.0, "lon": -77.02707566666666, "name": "2a844df9a694f71630765e9191657aaf", "is_reserved": 0, "is_disabled": 0}, {"lat": 38.9276975, "fusion_lat": 0.0, "type": "electric_scooter", "bike_id": "24f2ebd706075177b83fd43e1bfe79cf", "rental_uris": {"ios": "https://dc.lft.to/lastmile_qr_scan", "android": "https://dc.lft.to/lastmile_qr_scan"}, "fusion_lon": 0.0, "lon": -77.026163, "name": "24f2ebd706075177b83fd43e1bfe79cf", "is_reserved": 0, "is_disabled": 0}, {"lat": 38.905555, "fusion_lat": 0.0, "type": "electric_scooter", "bike_id": "27ffa2550b8e14cbb28c8744aeeb32b8", "rental_uris": {"ios": "https://dc.lft.to/lastmile_qr_scan", "android": "https://dc.lft.to/lastmile_qr_scan"}, "fusion_lon": 0.0, "lon": -77.0468915, "name": "27ffa2550b8e14cbb28c8744aeeb32b8", "is_reserved": 0, "is_disabled": 0}, {"lat": 38.942013833333334, "fusion_lat": 0.0, "type": "electric_scooter", "bike_id": "422b2467ab8af572a833da24d842b0fe", "rental_uris": {"ios": "https://dc.lft.to/lastmile_qr_scan", "android": "https://dc.lft.to/lastmile_qr_scan"}, "fusion_lon": 0.0, "lon": -77.025913, "name": "422b2467ab8af572a833da24d842b0fe", "is_reserved": 0, "is_disabled": 0}, {"lat": 38.931157666666664, "fusion_lat": 0.0, "type": "electric_scooter", "bike_id": "f07a9b42a2bcfe7d94a55f05971640fb", "rental_uris": {"ios": "https://dc.lft.to/lastmile_qr_scan", "android": "https://dc.lft.to/lastmile_qr_scan"}, "fusion_lon": 0.0, "lon": -77.0303585, "name": "f07a9b42a2bcfe7d94a55f05971640fb", "is_reserved": 0, "is_disabled": 0}, {"lat": 38.891880666666665, "fusion_lat": 0.0, "type": "electric_scooter", "bike_id": "8eb5ec9355f27c1ccacf6d20c7290d24", "rental_uris": {"ios": "https://dc.lft.to/lastmile_qr_scan", "android": "https://dc.lft.to/lastmile_qr_scan"}, "fusion_lon": 0.0, "lon": -77.03183066666666, "name": "8eb5ec9355f27c1ccacf6d20c7290d24", "is_reserved": 0, "is_disabled": 0}, {"lat": 38.900200166666664, "fusion_lat": 0.0, "type": "electric_scooter", "bike_id": "1c98c1c32f83d925ac66e9f7ed2f945d", "rental_uris": {"ios": "https://dc.lft.to/lastmile_qr_scan", "android": "https://dc.lft.to/lastmile_qr_scan"}, "fusion_lon": 0.0, "lon": -76.9885065, "name": "1c98c1c32f83d925ac66e9f7ed2f945d", "is_reserved": 0, "is_disabled": 0}, {"lat": 38.90925566666667, "fusion_lat": 0.0, "type": "electric_scooter", "bike_id": "3285960fb6b2b219b78aac8ee94fabb9", "rental_uris": {"ios": "https://dc.lft.to/lastmile_qr_scan", "android": "https://dc.lft.to/lastmile_qr_scan"}, "fusion_lon": 0.0, "lon": -77.04701816666666, "name": "3285960fb6b2b219b78aac8ee94fabb9", "is_reserved": 0, "is_disabled": 0}, {"lat": 38.883671666666665, "fusion_lat": 0.0, "type": "electric_scooter", "bike_id": "d91234a605881b13fa0f03b2636d3ac3", "rental_uris": {"ios": "https://dc.lft.to/lastmile_qr_scan", "android": "https://dc.lft.to/lastmile_qr_scan"}, "fusion_lon": 0.0, "lon": -76.99511066666666, "name": "d91234a605881b13fa0f03b2636d3ac3", "is_reserved": 0, "is_disabled": 0}, {"lat": 38.9145265, "fusion_lat": 0.0, "type": "electric_bike", "bike_id": "31977babf002317cad477d2690b8ba03", "rental_uris": {"ios": "https://dc.lft.to/lastmile_qr_scan", "android": "https://dc.lft.to/lastmile_qr_scan"}, "fusion_lon": 0.0, "lon": -76.97253366666666, "name": "31977babf002317cad477d2690b8ba03", "is_reserved": 0, "is_disabled": 0}, {"lat": 38.9056035, "fusion_lat": 0.0, "type": "electric_scooter", "bike_id": "1124455750c6b97bba2a71d404d70e80", "rental_uris": {"ios": "https://dc.lft.to/lastmile_qr_scan", "android": "https://dc.lft.to/lastmile_qr_scan"}, "fusion_lon": 0.0, "lon": -77.03454266666667, "name": "1124455750c6b97bba2a71d404d70e80", "is_reserved": 0, "is_disabled": 0}, {"lat": 38.88366533333333, "fusion_lat": 0.0, "type": "electric_scooter", "bike_id": "1aed56da30f4b1280127abb1cde81188", "rental_uris": {"ios": "https://dc.lft.to/lastmile_qr_scan", "android": "https://dc.lft.to/lastmile_qr_scan"}, "fusion_lon": 0.0, "lon": -76.99509083333334, "name": "1aed56da30f4b1280127abb1cde81188", "is_reserved": 0, "is_disabled": 0}, {"lat": 38.9076215, "fusion_lat": 0.0, "type": "electric_scooter", "bike_id": "273043e6b41f8839601f32901daf43ac", "rental_uris": {"ios": "https://dc.lft.to/lastmile_qr_scan", "android": "https://dc.lft.to/lastmile_qr_scan"}, "fusion_lon": 0.0, "lon": -77.03841933333334, "name": "273043e6b41f8839601f32901daf43ac", "is_reserved": 0, "is_disabled": 0}, {"lat": 38.966075000000004, "fusion_lat": 0.0, "type": "electric_scooter", "bike_id": "12fbec244b447f67a64259837bcbcf95", "rental_uris": {"ios": "https://dc.lft.to/lastmile_qr_scan", "android": "https://dc.lft.to/lastmile_qr_scan"}, "fusion_lon": 0.0, "lon": -77.02009166666667, "name": "12fbec244b447f67a64259837bcbcf95", "is_reserved": 0, "is_disabled": 0}, {"lat": 38.93062333333334, "fusion_lat": 0.0, "type": "electric_scooter", "bike_id": "a7172fda2f9184368a8c8077b2916bc7", "rental_uris": {"ios": "https://dc.lft.to/lastmile_qr_scan", "android": "https://dc.lft.to/lastmile_qr_scan"}, "fusion_lon": 0.0, "lon": -77.03941883333333, "name": "a7172fda2f9184368a8c8077b2916bc7", "is_reserved": 0, "is_disabled": 0}, {"lat": 38.921375166666664, "fusion_lat": 0.0, "type": "electric_scooter", "bike_id": "35ac80436a7ddcb09b3b05dc9dd8cd1b", "rental_uris": {"ios": "https://dc.lft.to/lastmile_qr_scan", "android": "https://dc.lft.to/lastmile_qr_scan"}, "fusion_lon": 0.0, "lon": -77.0434625, "name": "35ac80436a7ddcb09b3b05dc9dd8cd1b", "is_reserved": 0, "is_disabled": 0}, {"lat": 38.9345475, "fusion_lat": 0.0, "type": "electric_scooter", "bike_id": "0b8391795cf30f301865f78d66fa7542", "rental_uris": {"ios": "https://dc.lft.to/lastmile_qr_scan", "android": "https://dc.lft.to/lastmile_qr_scan"}, "fusion_lon": 0.0, "lon": -77.027839, "name": "0b8391795cf30f301865f78d66fa7542", "is_reserved": 0, "is_disabled": 0}, {"lat": 38.88746866666666, "fusion_lat": 0.0, "type": "electric_scooter", "bike_id": "4147ba2311650839c514b25bc38581f4", "rental_uris": {"ios": "https://dc.lft.to/lastmile_qr_scan", "android": "https://dc.lft.to/lastmile_qr_scan"}, "fusion_lon": 0.0, "lon": -77.02572966666666, "name": "4147ba2311650839c514b25bc38581f4", "is_reserved": 0, "is_disabled": 0}, {"lat": 38.908278333333335, "fusion_lat": 0.0, "type": "electric_scooter", "bike_id": "fb8cdf1d4cae08e9405b313b4d595ffb", "rental_uris": {"ios": "https://dc.lft.to/lastmile_qr_scan", "android": "https://dc.lft.to/lastmile_qr_scan"}, "fusion_lon": 0.0, "lon": -77.03453633333334, "name": "fb8cdf1d4cae08e9405b313b4d595ffb", "is_reserved": 0, "is_disabled": 0}, {"lat": 38.8993015, "fusion_lat": 0.0, "type": "electric_scooter", "bike_id": "3b73c9d2f46a508e3dfce5f3af612bdd", "rental_uris": {"ios": "https://dc.lft.to/lastmile_qr_scan", "android": "https://dc.lft.to/lastmile_qr_scan"}, "fusion_lon": 0.0, "lon": -77.01269116666667, "name": "3b73c9d2f46a508e3dfce5f3af612bdd", "is_reserved": 0, "is_disabled": 0}, {"lat": 38.836294, "fusion_lat": 0.0, "type": "electric_bike", "bike_id": "29550db3ffd8ecb2bbeb7f62c747268b", "rental_uris": {"ios": "https://dc.lft.to/lastmile_qr_scan", "android": "https://dc.lft.to/lastmile_qr_scan"}, "fusion_lon": 0.0, "lon": -77.06949433333334, "name": "29550db3ffd8ecb2bbeb7f62c747268b", "is_reserved": 0, "is_disabled": 0}, {"lat": 38.921192833333336, "fusion_lat": 0.0, "type": "electric_bike", "bike_id": "5740237b1456112f9b31522b8ab5222e", "rental_uris": {"ios": "https://dc.lft.to/lastmile_qr_scan", "android": "https://dc.lft.to/lastmile_qr_scan"}, "fusion_lon": 0.0, "lon": -77.23684033333333, "name": "5740237b1456112f9b31522b8ab5222e", "is_reserved": 0, "is_disabled": 0}, {"lat": 38.95621783333333, "fusion_lat": 0.0, "type": "electric_scooter", "bike_id": "16c321cd66e7a1369de33986518a5d10", "rental_uris": {"ios": "https://dc.lft.to/lastmile_qr_scan", "android": "https://dc.lft.to/lastmile_qr_scan"}, "fusion_lon": 0.0, "lon": -77.02427416666667, "name": "16c321cd66e7a1369de33986518a5d10", "is_reserved": 0, "is_disabled": 0}, {"lat": 38.90353783333333, "fusion_lat": 0.0, "type": "electric_scooter", "bike_id": "60df85e52962ae8449675db83371c466", "rental_uris": {"ios": "https://dc.lft.to/lastmile_qr_scan", "android": "https://dc.lft.to/lastmile_qr_scan"}, "fusion_lon": 0.0, "lon": -77.01723016666666, "name": "60df85e52962ae8449675db83371c466", "is_reserved": 0, "is_disabled": 0}, {"lat": 38.9091025, "fusion_lat": 0.0, "type": "electric_scooter", "bike_id": "800cd741b2a1c864fefd68899532954c", "rental_uris": {"ios": "https://dc.lft.to/lastmile_qr_scan", "android": "https://dc.lft.to/lastmile_qr_scan"}, "fusion_lon": 0.0, "lon": -77.072606, "name": "800cd741b2a1c864fefd68899532954c", "is_reserved": 0, "is_disabled": 0}, {"lat": 38.9191775, "fusion_lat": 0.0, "type": "electric_scooter", "bike_id": "ee0228fffb949981c47a3341fa18b692", "rental_uris": {"ios": "https://dc.lft.to/lastmile_qr_scan", "android": "https://dc.lft.to/lastmile_qr_scan"}, "fusion_lon": 0.0, "lon": -77.0251455, "name": "ee0228fffb949981c47a3341fa18b692", "is_reserved": 0, "is_disabled": 0}, {"lat": 38.863279, "fusion_lat": 0.0, "type": "electric_bike", "bike_id": "c4f0cf87454f85e90875c2fd567f0961", "rental_uris": {"ios": "https://dc.lft.to/lastmile_qr_scan", "android": "https://dc.lft.to/lastmile_qr_scan"}, "fusion_lon": 0.0, "lon": -76.9872655, "name": "c4f0cf87454f85e90875c2fd567f0961", "is_reserved": 0, "is_disabled": 0}, {"lat": 38.922560833333335, "fusion_lat": 0.0, "type": "electric_scooter", "bike_id": "3a7528e04b4b03b1e476c0a1700262ff", "rental_uris": {"ios": "https://dc.lft.to/lastmile_qr_scan", "android": "https://dc.lft.to/lastmile_qr_scan"}, "fusion_lon": 0.0, "lon": -77.03889783333334, "name": "3a7528e04b4b03b1e476c0a1700262ff", "is_reserved": 0, "is_disabled": 0}, {"lat": 38.902624, "fusion_lat": 0.0, "type": "electric_scooter", "bike_id": "c5427896827ba95bef99fa3f789d3bd0", "rental_uris": {"ios": "https://dc.lft.to/lastmile_qr_scan", "android": "https://dc.lft.to/lastmile_qr_scan"}, "fusion_lon": 0.0, "lon": -77.05320033333334, "name": "c5427896827ba95bef99fa3f789d3bd0", "is_reserved": 0, "is_disabled": 0}, {"lat": 38.892239833333335, "fusion_lat": 0.0, "type": "electric_scooter", "bike_id": "e08c99ad325dd46639de7610ce735a75", "rental_uris": {"ios": "https://dc.lft.to/lastmile_qr_scan", "android": "https://dc.lft.to/lastmile_qr_scan"}, "fusion_lon": 0.0, "lon": -77.0489605, "name": "e08c99ad325dd46639de7610ce735a75", "is_reserved": 0, "is_disabled": 0}, {"lat": 38.9056455, "fusion_lat": 0.0, "type": "electric_scooter", "bike_id": "36bbad8c5d1c8802da40d46226a92c54", "rental_uris": {"ios": "https://dc.lft.to/lastmile_qr_scan", "android": "https://dc.lft.to/lastmile_qr_scan"}, "fusion_lon": 0.0, "lon": -77.03453083333333, "name": "36bbad8c5d1c8802da40d46226a92c54", "is_reserved": 0, "is_disabled": 0}, {"lat": 38.9383795, "fusion_lat": 0.0, "type": "electric_scooter", "bike_id": "8b4c711383413ff4b52f8e9d1503dbc3", "rental_uris": {"ios": "https://dc.lft.to/lastmile_qr_scan", "android": "https://dc.lft.to/lastmile_qr_scan"}, "fusion_lon": 0.0, "lon": -77.033774, "name": "8b4c711383413ff4b52f8e9d1503dbc3", "is_reserved": 0, "is_disabled": 0}, {"lat": 38.901413166666664, "fusion_lat": 0.0, "type": "electric_scooter", "bike_id": "2f484ffe6e4275ba40912ce2a4dfcdf9", "rental_uris": {"ios": "https://dc.lft.to/lastmile_qr_scan", "android": "https://dc.lft.to/lastmile_qr_scan"}, "fusion_lon": 0.0, "lon": -77.02578233333334, "name": "2f484ffe6e4275ba40912ce2a4dfcdf9", "is_reserved": 0, "is_disabled": 0}, {"lat": 38.905644, "fusion_lat": 0.0, "type": "electric_scooter", "bike_id": "8de58a0f22706a922a4f829370a99424", "rental_uris": {"ios": "https://dc.lft.to/lastmile_qr_scan", "android": "https://dc.lft.to/lastmile_qr_scan"}, "fusion_lon": 0.0, "lon": -77.00597516666667, "name": "8de58a0f22706a922a4f829370a99424", "is_reserved": 0, "is_disabled": 0}, {"lat": 38.94397333333333, "fusion_lat": 0.0, "type": "electric_scooter", "bike_id": "8de336359dc058e92aef14cb3990311d", "rental_uris": {"ios": "https://dc.lft.to/lastmile_qr_scan", "android": "https://dc.lft.to/lastmile_qr_scan"}, "fusion_lon": 0.0, "lon": -77.03589733333334, "name": "8de336359dc058e92aef14cb3990311d", "is_reserved": 0, "is_disabled": 0}, {"lat": 38.876719666666666, "fusion_lat": 0.0, "type": "electric_scooter", "bike_id": "aa0e90a6d71864f7e581df00b6d6b7d0", "rental_uris": {"ios": "https://dc.lft.to/lastmile_qr_scan", "android": "https://dc.lft.to/lastmile_qr_scan"}, "fusion_lon": 0.0, "lon": -77.0030115, "name": "aa0e90a6d71864f7e581df00b6d6b7d0", "is_reserved": 0, "is_disabled": 0}, {"lat": 38.9662035, "fusion_lat": 0.0, "type": "electric_bike", "bike_id": "4be070ed689628fa5500674ad5e8c67b", "rental_uris": {"ios": "https://dc.lft.to/lastmile_qr_scan", "android": "https://dc.lft.to/lastmile_qr_scan"}, "fusion_lon": 0.0, "lon": -77.03425566666667, "name": "4be070ed689628fa5500674ad5e8c67b", "is_reserved": 0, "is_disabled": 0}, {"lat": 38.915643833333334, "fusion_lat": 0.0, "type": "electric_scooter", "bike_id": "74acc08698bc597f71d3106a0b175b15", "rental_uris": {"ios": "https://dc.lft.to/lastmile_qr_scan", "android": "https://dc.lft.to/lastmile_qr_scan"}, "fusion_lon": 0.0, "lon": -77.03853216666667, "name": "74acc08698bc597f71d3106a0b175b15", "is_reserved": 0, "is_disabled": 0}, {"lat": 38.8848925, "fusion_lat": 0.0, "type": "electric_scooter", "bike_id": "a4dc5f6ec7416270f97ed9f5ca8f5fa4", "rental_uris": {"ios": "https://dc.lft.to/lastmile_qr_scan", "android": "https://dc.lft.to/lastmile_qr_scan"}, "fusion_lon": 0.0, "lon": -77.0070895, "name": "a4dc5f6ec7416270f97ed9f5ca8f5fa4", "is_reserved": 0, "is_disabled": 0}, {"lat": 38.85615583333333, "fusion_lat": 0.0, "type": "electric_bike", "bike_id": "130117063922a4fe4fc3bdebd6684edb", "rental_uris": {"ios": "https://dc.lft.to/lastmile_qr_scan", "android": "https://dc.lft.to/lastmile_qr_scan"}, "fusion_lon": 0.0, "lon": -76.961528, "name": "130117063922a4fe4fc3bdebd6684edb", "is_reserved": 0, "is_disabled": 0}, {"lat": 38.90925566666667, "fusion_lat": 0.0, "type": "electric_scooter", "bike_id": "54b22ff59a039bfbe2085a5a99ccd0b9", "rental_uris": {"ios": "https://dc.lft.to/lastmile_qr_scan", "android": "https://dc.lft.to/lastmile_qr_scan"}, "fusion_lon": 0.0, "lon": -76.9999115, "name": "54b22ff59a039bfbe2085a5a99ccd0b9", "is_reserved": 0, "is_disabled": 0}, {"lat": 38.90037233333334, "fusion_lat": 0.0, "type": "electric_scooter", "bike_id": "bacf4a7d2ae033d05a8d5a94a61a9934", "rental_uris": {"ios": "https://dc.lft.to/lastmile_qr_scan", "android": "https://dc.lft.to/lastmile_qr_scan"}, "fusion_lon": 0.0, "lon": -77.00201733333333, "name": "bacf4a7d2ae033d05a8d5a94a61a9934", "is_reserved": 0, "is_disabled": 0}, {"lat": 38.907188, "fusion_lat": 0.0, "type": "electric_scooter", "bike_id": "7b827cec36d192f419aa6f99979a198b", "rental_uris": {"ios": "https://dc.lft.to/lastmile_qr_scan", "android": "https://dc.lft.to/lastmile_qr_scan"}, "fusion_lon": 0.0, "lon": -77.02543033333333, "name": "7b827cec36d192f419aa6f99979a198b", "is_reserved": 0, "is_disabled": 0}, {"lat": 38.93609216666667, "fusion_lat": 0.0, "type": "electric_scooter", "bike_id": "a88388d5caac0aaf4b7519284cde45a6", "rental_uris": {"ios": "https://dc.lft.to/lastmile_qr_scan", "android": "https://dc.lft.to/lastmile_qr_scan"}, "fusion_lon": 0.0, "lon": -77.03181816666667, "name": "a88388d5caac0aaf4b7519284cde45a6", "is_reserved": 0, "is_disabled": 0}, {"lat": 38.89979783333333, "fusion_lat": 0.0, "type": "electric_scooter", "bike_id": "550f9b2b724a9310c8472a94323b8837", "rental_uris": {"ios": "https://dc.lft.to/lastmile_qr_scan", "android": "https://dc.lft.to/lastmile_qr_scan"}, "fusion_lon": 0.0, "lon": -77.0508315, "name": "550f9b2b724a9310c8472a94323b8837", "is_reserved": 0, "is_disabled": 0}, {"lat": 38.877861833333334, "fusion_lat": 0.0, "type": "electric_scooter", "bike_id": "6d1cf5176d5fa9e00dd1938efb2510a8", "rental_uris": {"ios": "https://dc.lft.to/lastmile_qr_scan", "android": "https://dc.lft.to/lastmile_qr_scan"}, "fusion_lon": 0.0, "lon": -76.99409516666667, "name": "6d1cf5176d5fa9e00dd1938efb2510a8", "is_reserved": 0, "is_disabled": 0}, {"lat": 38.8984565, "fusion_lat": 0.0, "type": "electric_scooter", "bike_id": "24754d3aa980197f750b27603bf22b06", "rental_uris": {"ios": "https://dc.lft.to/lastmile_qr_scan", "android": "https://dc.lft.to/lastmile_qr_scan"}, "fusion_lon": 0.0, "lon": -77.03952716666667, "name": "24754d3aa980197f750b27603bf22b06", "is_reserved": 0, "is_disabled": 0}, {"lat": 38.844256333333334, "fusion_lat": 0.0, "type": "electric_scooter", "bike_id": "00a27519c78faa441f9025cc5c5ecba9", "rental_uris": {"ios": "https://dc.lft.to/lastmile_qr_scan", "android": "https://dc.lft.to/lastmile_qr_scan"}, "fusion_lon": 0.0, "lon": -76.99781433333334, "name": "00a27519c78faa441f9025cc5c5ecba9", "is_reserved": 0, "is_disabled": 0}, {"lat": 38.902356166666664, "fusion_lat": 0.0, "type": "electric_scooter", "bike_id": "d78dc38d174a5090b9a3bd6cb1678b6f", "rental_uris": {"ios": "https://dc.lft.to/lastmile_qr_scan", "android": "https://dc.lft.to/lastmile_qr_scan"}, "fusion_lon": 0.0, "lon": -77.0150855, "name": "d78dc38d174a5090b9a3bd6cb1678b6f", "is_reserved": 0, "is_disabled": 0}, {"lat": 38.88489233333333, "fusion_lat": 0.0, "type": "electric_scooter", "bike_id": "e34030dae69c70d00b4cdcaee90fee89", "rental_uris": {"ios": "https://dc.lft.to/lastmile_qr_scan", "android": "https://dc.lft.to/lastmile_qr_scan"}, "fusion_lon": 0.0, "lon": -77.03476183333333, "name": "e34030dae69c70d00b4cdcaee90fee89", "is_reserved": 0, "is_disabled": 0}, {"lat": 38.906435, "fusion_lat": 0.0, "type": "electric_scooter", "bike_id": "89dcf5f9e3ea8e9551bde5a5b2814a53", "rental_uris": {"ios": "https://dc.lft.to/lastmile_qr_scan", "android": "https://dc.lft.to/lastmile_qr_scan"}, "fusion_lon": 0.0, "lon": -77.014294, "name": "89dcf5f9e3ea8e9551bde5a5b2814a53", "is_reserved": 0, "is_disabled": 0}, {"lat": 38.90409983333333, "fusion_lat": 0.0, "type": "electric_scooter", "bike_id": "cb6b9ee8073303bfd1ee5d8b984c09fa", "rental_uris": {"ios": "https://dc.lft.to/lastmile_qr_scan", "android": "https://dc.lft.to/lastmile_qr_scan"}, "fusion_lon": 0.0, "lon": -76.97335083333333, "name": "cb6b9ee8073303bfd1ee5d8b984c09fa", "is_reserved": 0, "is_disabled": 0}, {"lat": 38.91893666666667, "fusion_lat": 0.0, "type": "electric_scooter", "bike_id": "ee973eed3d2c5addb165d718e9cc931e", "rental_uris": {"ios": "https://dc.lft.to/lastmile_qr_scan", "android": "https://dc.lft.to/lastmile_qr_scan"}, "fusion_lon": 0.0, "lon": -77.04717066666667, "name": "ee973eed3d2c5addb165d718e9cc931e", "is_reserved": 0, "is_disabled": 0}, {"lat": 38.82042666666667, "fusion_lat": 0.0, "type": "electric_bike", "bike_id": "553e333b140da69a67c3f7dd797d67d7", "rental_uris": {"ios": "https://dc.lft.to/lastmile_qr_scan", "android": "https://dc.lft.to/lastmile_qr_scan"}, "fusion_lon": 0.0, "lon": -77.05365166666667, "name": "553e333b140da69a67c3f7dd797d67d7", "is_reserved": 0, "is_disabled": 0}, {"lat": 38.912616166666666, "fusion_lat": 0.0, "type": "electric_scooter", "bike_id": "5b405beb90643e558fe479dd56de811c", "rental_uris": {"ios": "https://dc.lft.to/lastmile_qr_scan", "android": "https://dc.lft.to/lastmile_qr_scan"}, "fusion_lon": 0.0, "lon": -77.03272183333333, "name": "5b405beb90643e558fe479dd56de811c", "is_reserved": 0, "is_disabled": 0}, {"lat": 38.93892483333333, "fusion_lat": 0.0, "type": "electric_scooter", "bike_id": "509238e01c5a9d725a3f112699c3da60", "rental_uris": {"ios": "https://dc.lft.to/lastmile_qr_scan", "android": "https://dc.lft.to/lastmile_qr_scan"}, "fusion_lon": 0.0, "lon": -77.01764966666667, "name": "509238e01c5a9d725a3f112699c3da60", "is_reserved": 0, "is_disabled": 0}, {"lat": 39.070623166666664, "fusion_lat": 0.0, "type": "electric_bike", "bike_id": "14bd97e86b04c24ca16d442d124a10e2", "rental_uris": {"ios": "https://dc.lft.to/lastmile_qr_scan", "android": "https://dc.lft.to/lastmile_qr_scan"}, "fusion_lon": 0.0, "lon": -77.11537933333334, "name": "14bd97e86b04c24ca16d442d124a10e2", "is_reserved": 0, "is_disabled": 0}, {"lat": 38.8922215, "fusion_lat": 0.0, "type": "electric_scooter", "bike_id": "1a60d5c5a7f6bf8b851875d57d17835e", "rental_uris": {"ios": "https://dc.lft.to/lastmile_qr_scan", "android": "https://dc.lft.to/lastmile_qr_scan"}, "fusion_lon": 0.0, "lon": -77.0433725, "name": "1a60d5c5a7f6bf8b851875d57d17835e", "is_reserved": 0, "is_disabled": 0}, {"lat": 38.862336666666664, "fusion_lat": 0.0, "type": "electric_scooter", "bike_id": "10f6e954707e48d380a51f6a5f79eb35", "rental_uris": {"ios": "https://dc.lft.to/lastmile_qr_scan", "android": "https://dc.lft.to/lastmile_qr_scan"}, "fusion_lon": 0.0, "lon": -76.99554733333333, "name": "10f6e954707e48d380a51f6a5f79eb35", "is_reserved": 0, "is_disabled": 0}, {"lat": 38.912330833333336, "fusion_lat": 0.0, "type": "electric_scooter", "bike_id": "e1c929bcf969b0a990f94e87e6462dfd", "rental_uris": {"ios": "https://dc.lft.to/lastmile_qr_scan", "android": "https://dc.lft.to/lastmile_qr_scan"}, "fusion_lon": 0.0, "lon": -77.04880316666667, "name": "e1c929bcf969b0a990f94e87e6462dfd", "is_reserved": 0, "is_disabled": 0}, {"lat": 38.898898833333334, "fusion_lat": 0.0, "type": "electric_scooter", "bike_id": "cd7a5ba2f30e3cc22fe4515e59ff992d", "rental_uris": {"ios": "https://dc.lft.to/lastmile_qr_scan", "android": "https://dc.lft.to/lastmile_qr_scan"}, "fusion_lon": 0.0, "lon": -77.04874116666667, "name": "cd7a5ba2f30e3cc22fe4515e59ff992d", "is_reserved": 0, "is_disabled": 0}, {"lat": 38.9571025, "fusion_lat": 0.0, "type": "electric_scooter", "bike_id": "0de25827b0fbdbad2e61250d5723bd0e", "rental_uris": {"ios": "https://dc.lft.to/lastmile_qr_scan", "android": "https://dc.lft.to/lastmile_qr_scan"}, "fusion_lon": 0.0, "lon": -77.02406216666667, "name": "0de25827b0fbdbad2e61250d5723bd0e", "is_reserved": 0, "is_disabled": 0}, {"lat": 38.93524516666667, "fusion_lat": 0.0, "type": "electric_scooter", "bike_id": "48a906a926459e1efbec19ea4e45292c", "rental_uris": {"ios": "https://dc.lft.to/lastmile_qr_scan", "android": "https://dc.lft.to/lastmile_qr_scan"}, "fusion_lon": 0.0, "lon": -77.032572, "name": "48a906a926459e1efbec19ea4e45292c", "is_reserved": 0, "is_disabled": 0}, {"lat": 38.90779333333333, "fusion_lat": 0.0, "type": "electric_scooter", "bike_id": "4cdb905ed732312a1a4296616d1a3a75", "rental_uris": {"ios": "https://dc.lft.to/lastmile_qr_scan", "android": "https://dc.lft.to/lastmile_qr_scan"}, "fusion_lon": 0.0, "lon": -77.03831866666667, "name": "4cdb905ed732312a1a4296616d1a3a75", "is_reserved": 0, "is_disabled": 0}, {"lat": 38.909980833333336, "fusion_lat": 0.0, "type": "electric_scooter", "bike_id": "8f880197f0ffd37d702f0369a7a9fe0d", "rental_uris": {"ios": "https://dc.lft.to/lastmile_qr_scan", "android": "https://dc.lft.to/lastmile_qr_scan"}, "fusion_lon": 0.0, "lon": -77.031848, "name": "8f880197f0ffd37d702f0369a7a9fe0d", "is_reserved": 0, "is_disabled": 0}, {"lat": 38.96445716666667, "fusion_lat": 0.0, "type": "electric_bike", "bike_id": "da7b7fb29595ed757194a2d487818a9a", "rental_uris": {"ios": "https://dc.lft.to/lastmile_qr_scan", "android": "https://dc.lft.to/lastmile_qr_scan"}, "fusion_lon": 0.0, "lon": -77.02243683333333, "name": "da7b7fb29595ed757194a2d487818a9a", "is_reserved": 0, "is_disabled": 0}, {"lat": 38.9241845, "fusion_lat": 0.0, "type": "electric_scooter", "bike_id": "db2160ba91314e1b1a371cee8da8a5ae", "rental_uris": {"ios": "https://dc.lft.to/lastmile_qr_scan", "android": "https://dc.lft.to/lastmile_qr_scan"}, "fusion_lon": 0.0, "lon": -77.0652155, "name": "db2160ba91314e1b1a371cee8da8a5ae", "is_reserved": 0, "is_disabled": 0}, {"lat": 38.87834616666667, "fusion_lat": 0.0, "type": "electric_scooter", "bike_id": "35a9195254413f327bf320e05889a9d7", "rental_uris": {"ios": "https://dc.lft.to/lastmile_qr_scan", "android": "https://dc.lft.to/lastmile_qr_scan"}, "fusion_lon": 0.0, "lon": -77.00739016666667, "name": "35a9195254413f327bf320e05889a9d7", "is_reserved": 0, "is_disabled": 0}, {"lat": 38.9020615, "fusion_lat": 0.0, "type": "electric_scooter", "bike_id": "e90d7ac167fc4a508599d5e69eb7f161", "rental_uris": {"ios": "https://dc.lft.to/lastmile_qr_scan", "android": "https://dc.lft.to/lastmile_qr_scan"}, "fusion_lon": 0.0, "lon": -77.0217545, "name": "e90d7ac167fc4a508599d5e69eb7f161", "is_reserved": 0, "is_disabled": 0}, {"lat": 38.91451266666667, "fusion_lat": 0.0, "type": "electric_scooter", "bike_id": "8e6fd1aab940da32c7325df6f3a25765", "rental_uris": {"ios": "https://dc.lft.to/lastmile_qr_scan", "android": "https://dc.lft.to/lastmile_qr_scan"}, "fusion_lon": 0.0, "lon": -77.02184583333333, "name": "8e6fd1aab940da32c7325df6f3a25765", "is_reserved": 0, "is_disabled": 0}, {"lat": 38.914143833333334, "fusion_lat": 0.0, "type": "electric_scooter", "bike_id": "11c6e33bbd92b4381a01abbe6d5ab9a4", "rental_uris": {"ios": "https://dc.lft.to/lastmile_qr_scan", "android": "https://dc.lft.to/lastmile_qr_scan"}, "fusion_lon": 0.0, "lon": -77.031727, "name": "11c6e33bbd92b4381a01abbe6d5ab9a4", "is_reserved": 0, "is_disabled": 0}, {"lat": 38.91522666666667, "fusion_lat": 0.0, "type": "electric_scooter", "bike_id": "0d08241c3f2d4e7799ef4696aa0eff76", "rental_uris": {"ios": "https://dc.lft.to/lastmile_qr_scan", "android": "https://dc.lft.to/lastmile_qr_scan"}, "fusion_lon": 0.0, "lon": -77.0122375, "name": "0d08241c3f2d4e7799ef4696aa0eff76", "is_reserved": 0, "is_disabled": 0}, {"lat": 38.942834166666664, "fusion_lat": 0.0, "type": "electric_scooter", "bike_id": "ba81296747f7e48ac44f5336b3d1dc65", "rental_uris": {"ios": "https://dc.lft.to/lastmile_qr_scan", "android": "https://dc.lft.to/lastmile_qr_scan"}, "fusion_lon": 0.0, "lon": -77.0770695, "name": "ba81296747f7e48ac44f5336b3d1dc65", "is_reserved": 0, "is_disabled": 0}, {"lat": 38.900097833333334, "fusion_lat": 0.0, "type": "electric_scooter", "bike_id": "c482c87c6d85a84ced19da00caf8b8ea", "rental_uris": {"ios": "https://dc.lft.to/lastmile_qr_scan", "android": "https://dc.lft.to/lastmile_qr_scan"}, "fusion_lon": 0.0, "lon": -77.01260283333333, "name": "c482c87c6d85a84ced19da00caf8b8ea", "is_reserved": 0, "is_disabled": 0}, {"lat": 38.892214833333334, "fusion_lat": 0.0, "type": "electric_scooter", "bike_id": "b4f6ded09f44dd8f4359eb553818a2c2", "rental_uris": {"ios": "https://dc.lft.to/lastmile_qr_scan", "android": "https://dc.lft.to/lastmile_qr_scan"}, "fusion_lon": 0.0, "lon": -77.04198733333334, "name": "b4f6ded09f44dd8f4359eb553818a2c2", "is_reserved": 0, "is_disabled": 0}, {"lat": 38.918258333333334, "fusion_lat": 0.0, "type": "electric_scooter", "bike_id": "448bbbd243a534f90582a261a55aa669", "rental_uris": {"ios": "https://dc.lft.to/lastmile_qr_scan", "android": "https://dc.lft.to/lastmile_qr_scan"}, "fusion_lon": 0.0, "lon": -77.04526, "name": "448bbbd243a534f90582a261a55aa669", "is_reserved": 0, "is_disabled": 0}, {"lat": 38.8919595, "fusion_lat": 0.0, "type": "electric_scooter", "bike_id": "f2efcf5be4c6dcef02861ce233c0e190", "rental_uris": {"ios": "https://dc.lft.to/lastmile_qr_scan", "android": "https://dc.lft.to/lastmile_qr_scan"}, "fusion_lon": 0.0, "lon": -76.99385183333334, "name": "f2efcf5be4c6dcef02861ce233c0e190", "is_reserved": 0, "is_disabled": 0}, {"lat": 39.002910166666666, "fusion_lat": 0.0, "type": "electric_bike", "bike_id": "3e01bbf2a213c09e7d8185dfc87a2627", "rental_uris": {"ios": "https://dc.lft.to/lastmile_qr_scan", "android": "https://dc.lft.to/lastmile_qr_scan"}, "fusion_lon": 0.0, "lon": -76.90283733333334, "name": "3e01bbf2a213c09e7d8185dfc87a2627", "is_reserved": 0, "is_disabled": 0}, {"lat": 38.95086833333333, "fusion_lat": 0.0, "type": "electric_bike", "bike_id": "dc45364ce2fba37b6806f0e5748cfbfd", "rental_uris": {"ios": "https://dc.lft.to/lastmile_qr_scan", "android": "https://dc.lft.to/lastmile_qr_scan"}, "fusion_lon": 0.0, "lon": -77.012313, "name": "dc45364ce2fba37b6806f0e5748cfbfd", "is_reserved": 0, "is_disabled": 0}, {"lat": 38.8133125, "fusion_lat": 0.0, "type": "electric_bike", "bike_id": "0913eba0bf9f787320b3de22551e4954", "rental_uris": {"ios": "https://dc.lft.to/lastmile_qr_scan", "android": "https://dc.lft.to/lastmile_qr_scan"}, "fusion_lon": 0.0, "lon": -77.05088766666667, "name": "0913eba0bf9f787320b3de22551e4954", "is_reserved": 0, "is_disabled": 0}, {"lat": 38.91329866666667, "fusion_lat": 0.0, "type": "electric_scooter", "bike_id": "b66ed5bf1be5160460ade18ed49ff50e", "rental_uris": {"ios": "https://dc.lft.to/lastmile_qr_scan", "android": "https://dc.lft.to/lastmile_qr_scan"}, "fusion_lon": 0.0, "lon": -77.048619, "name": "b66ed5bf1be5160460ade18ed49ff50e", "is_reserved": 0, "is_disabled": 0}, {"lat": 38.899982333333334, "fusion_lat": 0.0, "type": "electric_scooter", "bike_id": "d2031af8d07acd22a11efc21f1ac3617", "rental_uris": {"ios": "https://dc.lft.to/lastmile_qr_scan", "android": "https://dc.lft.to/lastmile_qr_scan"}, "fusion_lon": 0.0, "lon": -77.0191025, "name": "d2031af8d07acd22a11efc21f1ac3617", "is_reserved": 0, "is_disabled": 0}, {"lat": 38.89730316666667, "fusion_lat": 0.0, "type": "electric_scooter", "bike_id": "4fedd14713f664859ec2bb7e55a900ba", "rental_uris": {"ios": "https://dc.lft.to/lastmile_qr_scan", "android": "https://dc.lft.to/lastmile_qr_scan"}, "fusion_lon": 0.0, "lon": -77.046778, "name": "4fedd14713f664859ec2bb7e55a900ba", "is_reserved": 0, "is_disabled": 0}, {"lat": 38.9056395, "fusion_lat": 0.0, "type": "electric_scooter", "bike_id": "ba93918c5fa9f629261ef2b26d9e61c7", "rental_uris": {"ios": "https://dc.lft.to/lastmile_qr_scan", "android": "https://dc.lft.to/lastmile_qr_scan"}, "fusion_lon": 0.0, "lon": -77.02512666666667, "name": "ba93918c5fa9f629261ef2b26d9e61c7", "is_reserved": 0, "is_disabled": 0}, {"lat": 38.91803133333333, "fusion_lat": 0.0, "type": "electric_scooter", "bike_id": "26fa550c204687e29d3a10bf1ce9b2a6", "rental_uris": {"ios": "https://dc.lft.to/lastmile_qr_scan", "android": "https://dc.lft.to/lastmile_qr_scan"}, "fusion_lon": 0.0, "lon": -77.04017916666666, "name": "26fa550c204687e29d3a10bf1ce9b2a6", "is_reserved": 0, "is_disabled": 0}, {"lat": 38.876137166666666, "fusion_lat": 0.0, "type": "electric_scooter", "bike_id": "558075dbffc96934294079800cf3bab0", "rental_uris": {"ios": "https://dc.lft.to/lastmile_qr_scan", "android": "https://dc.lft.to/lastmile_qr_scan"}, "fusion_lon": 0.0, "lon": -77.00111033333333, "name": "558075dbffc96934294079800cf3bab0", "is_reserved": 0, "is_disabled": 0}, {"lat": 38.926236333333335, "fusion_lat": 0.0, "type": "electric_scooter", "bike_id": "5f2890d14e11a58ef933dd93eb9158fa", "rental_uris": {"ios": "https://dc.lft.to/lastmile_qr_scan", "android": "https://dc.lft.to/lastmile_qr_scan"}, "fusion_lon": 0.0, "lon": -77.04191416666667, "name": "5f2890d14e11a58ef933dd93eb9158fa", "is_reserved": 0, "is_disabled": 0}, {"lat": 38.87139716666667, "fusion_lat": 0.0, "type": "electric_scooter", "bike_id": "8e0ba3756467062dcb01bf4259202d6a", "rental_uris": {"ios": "https://dc.lft.to/lastmile_qr_scan", "android": "https://dc.lft.to/lastmile_qr_scan"}, "fusion_lon": 0.0, "lon": -77.0068305, "name": "8e0ba3756467062dcb01bf4259202d6a", "is_reserved": 0, "is_disabled": 0}, {"lat": 38.92086333333334, "fusion_lat": 0.0, "type": "electric_scooter", "bike_id": "11fa919913136022175f4db2ce75bde6", "rental_uris": {"ios": "https://dc.lft.to/lastmile_qr_scan", "android": "https://dc.lft.to/lastmile_qr_scan"}, "fusion_lon": 0.0, "lon": -77.02442566666667, "name": "11fa919913136022175f4db2ce75bde6", "is_reserved": 0, "is_disabled": 0}, {"lat": 38.81245833333333, "fusion_lat": 0.0, "type": "electric_bike", "bike_id": "22d4960f1b76143cc427cc7f23bdbc0d", "rental_uris": {"ios": "https://dc.lft.to/lastmile_qr_scan", "android": "https://dc.lft.to/lastmile_qr_scan"}, "fusion_lon": 0.0, "lon": -77.11777033333334, "name": "22d4960f1b76143cc427cc7f23bdbc0d", "is_reserved": 0, "is_disabled": 0}, {"lat": 38.915418833333334, "fusion_lat": 0.0, "type": "electric_scooter", "bike_id": "bec6c7b5d17599a36204e04284ff9e7c", "rental_uris": {"ios": "https://dc.lft.to/lastmile_qr_scan", "android": "https://dc.lft.to/lastmile_qr_scan"}, "fusion_lon": 0.0, "lon": -76.98356383333333, "name": "bec6c7b5d17599a36204e04284ff9e7c", "is_reserved": 0, "is_disabled": 0}, {"lat": 38.92431366666667, "fusion_lat": 0.0, "type": "electric_scooter", "bike_id": "2812131e124651ace8f0a18bf1f9ae62", "rental_uris": {"ios": "https://dc.lft.to/lastmile_qr_scan", "android": "https://dc.lft.to/lastmile_qr_scan"}, "fusion_lon": 0.0, "lon": -77.042513, "name": "2812131e124651ace8f0a18bf1f9ae62", "is_reserved": 0, "is_disabled": 0}, {"lat": 38.920174833333334, "fusion_lat": 0.0, "type": "electric_scooter", "bike_id": "9febf366c751ef0518ee5b2752e1c49a", "rental_uris": {"ios": "https://dc.lft.to/lastmile_qr_scan", "android": "https://dc.lft.to/lastmile_qr_scan"}, "fusion_lon": 0.0, "lon": -77.04399833333333, "name": "9febf366c751ef0518ee5b2752e1c49a", "is_reserved": 0, "is_disabled": 0}, {"lat": 38.91814316666667, "fusion_lat": 0.0, "type": "electric_scooter", "bike_id": "2e1bd9004191e3e8bba5de989d55cf06", "rental_uris": {"ios": "https://dc.lft.to/lastmile_qr_scan", "android": "https://dc.lft.to/lastmile_qr_scan"}, "fusion_lon": 0.0, "lon": -77.041723, "name": "2e1bd9004191e3e8bba5de989d55cf06", "is_reserved": 0, "is_disabled": 0}, {"lat": 38.9110745, "fusion_lat": 0.0, "type": "electric_scooter", "bike_id": "a68ccdda7b6b72112aeb55386eab5abd", "rental_uris": {"ios": "https://dc.lft.to/lastmile_qr_scan", "android": "https://dc.lft.to/lastmile_qr_scan"}, "fusion_lon": 0.0, "lon": -77.03834566666667, "name": "a68ccdda7b6b72112aeb55386eab5abd", "is_reserved": 0, "is_disabled": 0}, {"lat": 38.863673, "fusion_lat": 0.0, "type": "electric_bike", "bike_id": "8b92a4ea86461bb8fd7bc5fb37fdfb0a", "rental_uris": {"ios": "https://dc.lft.to/lastmile_qr_scan", "android": "https://dc.lft.to/lastmile_qr_scan"}, "fusion_lon": 0.0, "lon": -76.97009316666667, "name": "8b92a4ea86461bb8fd7bc5fb37fdfb0a", "is_reserved": 0, "is_disabled": 0}, {"lat": 38.9076315, "fusion_lat": 0.0, "type": "electric_scooter", "bike_id": "b7e0027e02e5de1b775803746ab095f6", "rental_uris": {"ios": "https://dc.lft.to/lastmile_qr_scan", "android": "https://dc.lft.to/lastmile_qr_scan"}, "fusion_lon": 0.0, "lon": -77.037445, "name": "b7e0027e02e5de1b775803746ab095f6", "is_reserved": 0, "is_disabled": 0}, {"lat": 38.80763116666667, "fusion_lat": 0.0, "type": "electric_bike", "bike_id": "ba3e0c5c35b6cbdedeea85b84988138d", "rental_uris": {"ios": "https://dc.lft.to/lastmile_qr_scan", "android": "https://dc.lft.to/lastmile_qr_scan"}, "fusion_lon": 0.0, "lon": -77.09469233333333, "name": "ba3e0c5c35b6cbdedeea85b84988138d", "is_reserved": 0, "is_disabled": 0}, {"lat": 38.91675133333333, "fusion_lat": 0.0, "type": "electric_scooter", "bike_id": "2f5c9d64b42cef53c5b6ba7b89c0f474", "rental_uris": {"ios": "https://dc.lft.to/lastmile_qr_scan", "android": "https://dc.lft.to/lastmile_qr_scan"}, "fusion_lon": 0.0, "lon": -77.015834, "name": "2f5c9d64b42cef53c5b6ba7b89c0f474", "is_reserved": 0, "is_disabled": 0}, {"lat": 38.92080283333333, "fusion_lat": 0.0, "type": "electric_scooter", "bike_id": "5e483b16d14deee04f48f10e970f792c", "rental_uris": {"ios": "https://dc.lft.to/lastmile_qr_scan", "android": "https://dc.lft.to/lastmile_qr_scan"}, "fusion_lon": 0.0, "lon": -77.02510533333333, "name": "5e483b16d14deee04f48f10e970f792c", "is_reserved": 0, "is_disabled": 0}, {"lat": 38.90572083333333, "fusion_lat": 0.0, "type": "electric_scooter", "bike_id": "915ad17c135f5fe9e66565d94494256b", "rental_uris": {"ios": "https://dc.lft.to/lastmile_qr_scan", "android": "https://dc.lft.to/lastmile_qr_scan"}, "fusion_lon": 0.0, "lon": -77.04909516666666, "name": "915ad17c135f5fe9e66565d94494256b", "is_reserved": 0, "is_disabled": 0}, {"lat": 38.893386166666666, "fusion_lat": 0.0, "type": "electric_scooter", "bike_id": "a474cda22096f49c76ae575ee2636a28", "rental_uris": {"ios": "https://dc.lft.to/lastmile_qr_scan", "android": "https://dc.lft.to/lastmile_qr_scan"}, "fusion_lon": 0.0, "lon": -76.99384183333333, "name": "a474cda22096f49c76ae575ee2636a28", "is_reserved": 0, "is_disabled": 0}, {"lat": 38.887654166666664, "fusion_lat": 0.0, "type": "electric_scooter", "bike_id": "79cab262f275bd70627117ef26d30200", "rental_uris": {"ios": "https://dc.lft.to/lastmile_qr_scan", "android": "https://dc.lft.to/lastmile_qr_scan"}, "fusion_lon": 0.0, "lon": -77.02235266666666, "name": "79cab262f275bd70627117ef26d30200", "is_reserved": 0, "is_disabled": 0}, {"lat": 38.907769333333334, "fusion_lat": 0.0, "type": "electric_scooter", "bike_id": "7788c7958d431813726a927c7fb9ff02", "rental_uris": {"ios": "https://dc.lft.to/lastmile_qr_scan", "android": "https://dc.lft.to/lastmile_qr_scan"}, "fusion_lon": 0.0, "lon": -77.03831, "name": "7788c7958d431813726a927c7fb9ff02", "is_reserved": 0, "is_disabled": 0}, {"lat": 38.905707666666665, "fusion_lat": 0.0, "type": "electric_scooter", "bike_id": "9a78869266329461810f18a87cc72454", "rental_uris": {"ios": "https://dc.lft.to/lastmile_qr_scan", "android": "https://dc.lft.to/lastmile_qr_scan"}, "fusion_lon": 0.0, "lon": -77.00595366666667, "name": "9a78869266329461810f18a87cc72454", "is_reserved": 0, "is_disabled": 0}, {"lat": 38.877128166666665, "fusion_lat": 0.0, "type": "electric_scooter", "bike_id": "6fbda9316e538d8e5f250f60f312659a", "rental_uris": {"ios": "https://dc.lft.to/lastmile_qr_scan", "android": "https://dc.lft.to/lastmile_qr_scan"}, "fusion_lon": 0.0, "lon": -77.00651966666666, "name": "6fbda9316e538d8e5f250f60f312659a", "is_reserved": 0, "is_disabled": 0}, {"lat": 38.92284766666667, "fusion_lat": 0.0, "type": "electric_scooter", "bike_id": "a88ed427220305407202e7d3c99b57c8", "rental_uris": {"ios": "https://dc.lft.to/lastmile_qr_scan", "android": "https://dc.lft.to/lastmile_qr_scan"}, "fusion_lon": 0.0, "lon": -77.029669, "name": "a88ed427220305407202e7d3c99b57c8", "is_reserved": 0, "is_disabled": 0}, {"lat": 38.91797866666667, "fusion_lat": 0.0, "type": "electric_scooter", "bike_id": "2167cb9bd328c4a38381abcf033b3bf3", "rental_uris": {"ios": "https://dc.lft.to/lastmile_qr_scan", "android": "https://dc.lft.to/lastmile_qr_scan"}, "fusion_lon": 0.0, "lon": -77.04019, "name": "2167cb9bd328c4a38381abcf033b3bf3", "is_reserved": 0, "is_disabled": 0}, {"lat": 38.88111166666667, "fusion_lat": 0.0, "type": "electric_scooter", "bike_id": "4ec8a91eb17e68e725f06c69a840769d", "rental_uris": {"ios": "https://dc.lft.to/lastmile_qr_scan", "android": "https://dc.lft.to/lastmile_qr_scan"}, "fusion_lon": 0.0, "lon": -77.02656516666667, "name": "4ec8a91eb17e68e725f06c69a840769d", "is_reserved": 0, "is_disabled": 0}, {"lat": 38.914958166666665, "fusion_lat": 0.0, "type": "electric_scooter", "bike_id": "3b09b4cd7727e625eb4e4f114359e999", "rental_uris": {"ios": "https://dc.lft.to/lastmile_qr_scan", "android": "https://dc.lft.to/lastmile_qr_scan"}, "fusion_lon": 0.0, "lon": -76.98380116666667, "name": "3b09b4cd7727e625eb4e4f114359e999", "is_reserved": 0, "is_disabled": 0}, {"lat": 38.93032, "fusion_lat": 0.0, "type": "electric_scooter", "bike_id": "c42cc429010d00fe7f12fa698841c52a", "rental_uris": {"ios": "https://dc.lft.to/lastmile_qr_scan", "android": "https://dc.lft.to/lastmile_qr_scan"}, "fusion_lon": 0.0, "lon": -77.055609, "name": "c42cc429010d00fe7f12fa698841c52a", "is_reserved": 0, "is_disabled": 0}, {"lat": 38.88108783333333, "fusion_lat": 0.0, "type": "electric_bike", "bike_id": "c528e6f373b930b4df5cdc9b001756f3", "rental_uris": {"ios": "https://dc.lft.to/lastmile_qr_scan", "android": "https://dc.lft.to/lastmile_qr_scan"}, "fusion_lon": 0.0, "lon": -77.01665633333333, "name": "c528e6f373b930b4df5cdc9b001756f3", "is_reserved": 0, "is_disabled": 0}, {"lat": 38.96127633333333, "fusion_lat": 0.0, "type": "electric_bike", "bike_id": "d5eb6f56835cd413b8fdcf39b22cc86a", "rental_uris": {"ios": "https://dc.lft.to/lastmile_qr_scan", "android": "https://dc.lft.to/lastmile_qr_scan"}, "fusion_lon": 0.0, "lon": -77.0333415, "name": "d5eb6f56835cd413b8fdcf39b22cc86a", "is_reserved": 0, "is_disabled": 0}, {"lat": 38.90640066666667, "fusion_lat": 0.0, "type": "electric_scooter", "bike_id": "399c052e27902862553a2244e9eab272", "rental_uris": {"ios": "https://dc.lft.to/lastmile_qr_scan", "android": "https://dc.lft.to/lastmile_qr_scan"}, "fusion_lon": 0.0, "lon": -77.03461366666667, "name": "399c052e27902862553a2244e9eab272", "is_reserved": 0, "is_disabled": 0}, {"lat": 38.916943, "fusion_lat": 0.0, "type": "electric_scooter", "bike_id": "6b76bcf97c93d7ccb7012ddd09d543e0", "rental_uris": {"ios": "https://dc.lft.to/lastmile_qr_scan", "android": "https://dc.lft.to/lastmile_qr_scan"}, "fusion_lon": 0.0, "lon": -77.0123275, "name": "6b76bcf97c93d7ccb7012ddd09d543e0", "is_reserved": 0, "is_disabled": 0}, {"lat": 38.9057025, "fusion_lat": 0.0, "type": "electric_scooter", "bike_id": "1f1ece8a7573286ea30034f5a8ae138a", "rental_uris": {"ios": "https://dc.lft.to/lastmile_qr_scan", "android": "https://dc.lft.to/lastmile_qr_scan"}, "fusion_lon": 0.0, "lon": -77.01853583333333, "name": "1f1ece8a7573286ea30034f5a8ae138a", "is_reserved": 0, "is_disabled": 0}, {"lat": 38.8929875, "fusion_lat": 0.0, "type": "electric_scooter", "bike_id": "fc935b0d028bb3d7bd901f739d68ee30", "rental_uris": {"ios": "https://dc.lft.to/lastmile_qr_scan", "android": "https://dc.lft.to/lastmile_qr_scan"}, "fusion_lon": 0.0, "lon": -77.078654, "name": "fc935b0d028bb3d7bd901f739d68ee30", "is_reserved": 0, "is_disabled": 0}, {"lat": 38.907658833333336, "fusion_lat": 0.0, "type": "electric_scooter", "bike_id": "af9e156d06cae226f3c85534fdb3e5d0", "rental_uris": {"ios": "https://dc.lft.to/lastmile_qr_scan", "android": "https://dc.lft.to/lastmile_qr_scan"}, "fusion_lon": 0.0, "lon": -77.03857516666666, "name": "af9e156d06cae226f3c85534fdb3e5d0", "is_reserved": 0, "is_disabled": 0}, {"lat": 38.893859666666664, "fusion_lat": 0.0, "type": "electric_scooter", "bike_id": "70aec276f206bf76de4ab58dd77b0567", "rental_uris": {"ios": "https://dc.lft.to/lastmile_qr_scan", "android": "https://dc.lft.to/lastmile_qr_scan"}, "fusion_lon": 0.0, "lon": -76.92308083333333, "name": "70aec276f206bf76de4ab58dd77b0567", "is_reserved": 0, "is_disabled": 0}, {"lat": 39.052532666666664, "fusion_lat": 0.0, "type": "electric_bike", "bike_id": "867c9ca9ad7693399da370e269fef36d", "rental_uris": {"ios": "https://dc.lft.to/lastmile_qr_scan", "android": "https://dc.lft.to/lastmile_qr_scan"}, "fusion_lon": 0.0, "lon": -77.08068, "name": "867c9ca9ad7693399da370e269fef36d", "is_reserved": 0, "is_disabled": 0}, {"lat": 38.934254333333335, "fusion_lat": 0.0, "type": "electric_scooter", "bike_id": "0389839fd2a1d8d100589975bcfc576e", "rental_uris": {"ios": "https://dc.lft.to/lastmile_qr_scan", "android": "https://dc.lft.to/lastmile_qr_scan"}, "fusion_lon": 0.0, "lon": -77.040056, "name": "0389839fd2a1d8d100589975bcfc576e", "is_reserved": 0, "is_disabled": 0}, {"lat": 38.8689425, "fusion_lat": 0.0, "type": "electric_bike", "bike_id": "d5a260c15eace74b31641be3d230370e", "rental_uris": {"ios": "https://dc.lft.to/lastmile_qr_scan", "android": "https://dc.lft.to/lastmile_qr_scan"}, "fusion_lon": 0.0, "lon": -76.98522833333334, "name": "d5a260c15eace74b31641be3d230370e", "is_reserved": 0, "is_disabled": 0}, {"lat": 38.949727333333335, "fusion_lat": 0.0, "type": "electric_scooter", "bike_id": "58a850521978d1bf4d2f780d2fee11e4", "rental_uris": {"ios": "https://dc.lft.to/lastmile_qr_scan", "android": "https://dc.lft.to/lastmile_qr_scan"}, "fusion_lon": 0.0, "lon": -77.09967283333333, "name": "58a850521978d1bf4d2f780d2fee11e4", "is_reserved": 0, "is_disabled": 0}, {"lat": 38.8923605, "fusion_lat": 0.0, "type": "electric_scooter", "bike_id": "543388ea828ea5951e61ad5006837012", "rental_uris": {"ios": "https://dc.lft.to/lastmile_qr_scan", "android": "https://dc.lft.to/lastmile_qr_scan"}, "fusion_lon": 0.0, "lon": -77.04485116666666, "name": "543388ea828ea5951e61ad5006837012", "is_reserved": 0, "is_disabled": 0}, {"lat": 38.912731666666666, "fusion_lat": 0.0, "type": "electric_scooter", "bike_id": "2f7b5cc3135bcad9e58793287917420d", "rental_uris": {"ios": "https://dc.lft.to/lastmile_qr_scan", "android": "https://dc.lft.to/lastmile_qr_scan"}, "fusion_lon": 0.0, "lon": -77.038511, "name": "2f7b5cc3135bcad9e58793287917420d", "is_reserved": 0, "is_disabled": 0}, {"lat": 38.92358316666667, "fusion_lat": 0.0, "type": "electric_scooter", "bike_id": "368e6cb4207e2d9cf7913bdba3411cdd", "rental_uris": {"ios": "https://dc.lft.to/lastmile_qr_scan", "android": "https://dc.lft.to/lastmile_qr_scan"}, "fusion_lon": 0.0, "lon": -77.05058816666667, "name": "368e6cb4207e2d9cf7913bdba3411cdd", "is_reserved": 0, "is_disabled": 0}, {"lat": 38.899735666666665, "fusion_lat": 0.0, "type": "electric_scooter", "bike_id": "9436c555d227213e089dcb5c091b7e4e", "rental_uris": {"ios": "https://dc.lft.to/lastmile_qr_scan", "android": "https://dc.lft.to/lastmile_qr_scan"}, "fusion_lon": 0.0, "lon": -76.985502, "name": "9436c555d227213e089dcb5c091b7e4e", "is_reserved": 0, "is_disabled": 0}, {"lat": 38.9943265, "fusion_lat": 0.0, "type": "electric_bike", "bike_id": "e944fa68a81a48bb34019509c324614c", "rental_uris": {"ios": "https://dc.lft.to/lastmile_qr_scan", "android": "https://dc.lft.to/lastmile_qr_scan"}, "fusion_lon": 0.0, "lon": -77.02661266666667, "name": "e944fa68a81a48bb34019509c324614c", "is_reserved": 0, "is_disabled": 0}, {"lat": 38.9043545, "fusion_lat": 0.0, "type": "electric_scooter", "bike_id": "3352931c1c8e600d509d228064b027b5", "rental_uris": {"ios": "https://dc.lft.to/lastmile_qr_scan", "android": "https://dc.lft.to/lastmile_qr_scan"}, "fusion_lon": 0.0, "lon": -77.025933, "name": "3352931c1c8e600d509d228064b027b5", "is_reserved": 0, "is_disabled": 0}, {"lat": 38.90394466666667, "fusion_lat": 0.0, "type": "electric_scooter", "bike_id": "a66099318c20bb348b054c5971f5aaed", "rental_uris": {"ios": "https://dc.lft.to/lastmile_qr_scan", "android": "https://dc.lft.to/lastmile_qr_scan"}, "fusion_lon": 0.0, "lon": -77.06301166666667, "name": "a66099318c20bb348b054c5971f5aaed", "is_reserved": 0, "is_disabled": 0}, {"lat": 38.935593833333336, "fusion_lat": 0.0, "type": "electric_scooter", "bike_id": "474c520d0cfcdc0c07c15e140c9888df", "rental_uris": {"ios": "https://dc.lft.to/lastmile_qr_scan", "android": "https://dc.lft.to/lastmile_qr_scan"}, "fusion_lon": 0.0, "lon": -77.07465183333333, "name": "474c520d0cfcdc0c07c15e140c9888df", "is_reserved": 0, "is_disabled": 0}, {"lat": 38.9086285, "fusion_lat": 0.0, "type": "electric_scooter", "bike_id": "3a1fa768e47c8608d6b79fc1ec87986a", "rental_uris": {"ios": "https://dc.lft.to/lastmile_qr_scan", "android": "https://dc.lft.to/lastmile_qr_scan"}, "fusion_lon": 0.0, "lon": -77.0322465, "name": "3a1fa768e47c8608d6b79fc1ec87986a", "is_reserved": 0, "is_disabled": 0}, {"lat": 38.8900315, "fusion_lat": 0.0, "type": "electric_scooter", "bike_id": "3e230983647ba4d722f5fa8b8e506e05", "rental_uris": {"ios": "https://dc.lft.to/lastmile_qr_scan", "android": "https://dc.lft.to/lastmile_qr_scan"}, "fusion_lon": 0.0, "lon": -76.977388, "name": "3e230983647ba4d722f5fa8b8e506e05", "is_reserved": 0, "is_disabled": 0}, {"lat": 38.8995625, "fusion_lat": 0.0, "type": "electric_scooter", "bike_id": "6e6ea8c2b1a110caa7bf109c12e21e4b", "rental_uris": {"ios": "https://dc.lft.to/lastmile_qr_scan", "android": "https://dc.lft.to/lastmile_qr_scan"}, "fusion_lon": 0.0, "lon": -77.04643583333333, "name": "6e6ea8c2b1a110caa7bf109c12e21e4b", "is_reserved": 0, "is_disabled": 0}, {"lat": 38.905479666666665, "fusion_lat": 0.0, "type": "electric_scooter", "bike_id": "25071ce597f437d12097d91b24dfc0db", "rental_uris": {"ios": "https://dc.lft.to/lastmile_qr_scan", "android": "https://dc.lft.to/lastmile_qr_scan"}, "fusion_lon": 0.0, "lon": -77.05003466666666, "name": "25071ce597f437d12097d91b24dfc0db", "is_reserved": 0, "is_disabled": 0}, {"lat": 38.901179, "fusion_lat": 0.0, "type": "electric_scooter", "bike_id": "83c568b027ff8d06589489cacf35b16c", "rental_uris": {"ios": "https://dc.lft.to/lastmile_qr_scan", "android": "https://dc.lft.to/lastmile_qr_scan"}, "fusion_lon": 0.0, "lon": -77.04984883333333, "name": "83c568b027ff8d06589489cacf35b16c", "is_reserved": 0, "is_disabled": 0}, {"lat": 38.922353, "fusion_lat": 0.0, "type": "electric_scooter", "bike_id": "dbdae2fc35d93b220f45e8fb9e235114", "rental_uris": {"ios": "https://dc.lft.to/lastmile_qr_scan", "android": "https://dc.lft.to/lastmile_qr_scan"}, "fusion_lon": 0.0, "lon": -77.018309, "name": "dbdae2fc35d93b220f45e8fb9e235114", "is_reserved": 0, "is_disabled": 0}, {"lat": 38.901981666666664, "fusion_lat": 0.0, "type": "electric_scooter", "bike_id": "e0de45bc3d9ac685180da8354b7af3a9", "rental_uris": {"ios": "https://dc.lft.to/lastmile_qr_scan", "android": "https://dc.lft.to/lastmile_qr_scan"}, "fusion_lon": 0.0, "lon": -76.98210216666666, "name": "e0de45bc3d9ac685180da8354b7af3a9", "is_reserved": 0, "is_disabled": 0}, {"lat": 38.90137683333333, "fusion_lat": 0.0, "type": "electric_scooter", "bike_id": "aee91a1dabe31ddd5042e1656db26466", "rental_uris": {"ios": "https://dc.lft.to/lastmile_qr_scan", "android": "https://dc.lft.to/lastmile_qr_scan"}, "fusion_lon": 0.0, "lon": -77.01673583333333, "name": "aee91a1dabe31ddd5042e1656db26466", "is_reserved": 0, "is_disabled": 0}, {"lat": 38.892339, "fusion_lat": 0.0, "type": "electric_scooter", "bike_id": "7165dcb444b26af96fb47496efb7e072", "rental_uris": {"ios": "https://dc.lft.to/lastmile_qr_scan", "android": "https://dc.lft.to/lastmile_qr_scan"}, "fusion_lon": 0.0, "lon": -77.04666583333334, "name": "7165dcb444b26af96fb47496efb7e072", "is_reserved": 0, "is_disabled": 0}, {"lat": 38.92207116666667, "fusion_lat": 0.0, "type": "electric_scooter", "bike_id": "3fa74aefc8240ec7e1e8a8c7f9b14c71", "rental_uris": {"ios": "https://dc.lft.to/lastmile_qr_scan", "android": "https://dc.lft.to/lastmile_qr_scan"}, "fusion_lon": 0.0, "lon": -77.03662583333333, "name": "3fa74aefc8240ec7e1e8a8c7f9b14c71", "is_reserved": 0, "is_disabled": 0}, {"lat": 38.9213805, "fusion_lat": 0.0, "type": "electric_scooter", "bike_id": "615e6c8458a43f03f49aa6c75269ea44", "rental_uris": {"ios": "https://dc.lft.to/lastmile_qr_scan", "android": "https://dc.lft.to/lastmile_qr_scan"}, "fusion_lon": 0.0, "lon": -77.04122516666666, "name": "615e6c8458a43f03f49aa6c75269ea44", "is_reserved": 0, "is_disabled": 0}, {"lat": 38.95219433333333, "fusion_lat": 0.0, "type": "electric_scooter", "bike_id": "e417db0518d215fef2fc56e7f578ebb3", "rental_uris": {"ios": "https://dc.lft.to/lastmile_qr_scan", "android": "https://dc.lft.to/lastmile_qr_scan"}, "fusion_lon": 0.0, "lon": -77.01762416666666, "name": "e417db0518d215fef2fc56e7f578ebb3", "is_reserved": 0, "is_disabled": 0}, {"lat": 38.947382, "fusion_lat": 0.0, "type": "electric_scooter", "bike_id": "02660ca2512699a07d92e14a341277c1", "rental_uris": {"ios": "https://dc.lft.to/lastmile_qr_scan", "android": "https://dc.lft.to/lastmile_qr_scan"}, "fusion_lon": 0.0, "lon": -77.01617233333333, "name": "02660ca2512699a07d92e14a341277c1", "is_reserved": 0, "is_disabled": 0}, {"lat": 38.90712933333333, "fusion_lat": 0.0, "type": "electric_scooter", "bike_id": "c0ed35904049a6bf9365b775a5d70833", "rental_uris": {"ios": "https://dc.lft.to/lastmile_qr_scan", "android": "https://dc.lft.to/lastmile_qr_scan"}, "fusion_lon": 0.0, "lon": -77.04664416666667, "name": "c0ed35904049a6bf9365b775a5d70833", "is_reserved": 0, "is_disabled": 0}, {"lat": 38.931905666666665, "fusion_lat": 0.0, "type": "electric_scooter", "bike_id": "f67a74148d26dbbb398ecd969d7ce64e", "rental_uris": {"ios": "https://dc.lft.to/lastmile_qr_scan", "android": "https://dc.lft.to/lastmile_qr_scan"}, "fusion_lon": 0.0, "lon": -77.0298055, "name": "f67a74148d26dbbb398ecd969d7ce64e", "is_reserved": 0, "is_disabled": 0}, {"lat": 38.918166166666666, "fusion_lat": 0.0, "type": "electric_scooter", "bike_id": "541aac24e379fcdbcf1120d939138605", "rental_uris": {"ios": "https://dc.lft.to/lastmile_qr_scan", "android": "https://dc.lft.to/lastmile_qr_scan"}, "fusion_lon": 0.0, "lon": -77.04172683333333, "name": "541aac24e379fcdbcf1120d939138605", "is_reserved": 0, "is_disabled": 0}, {"lat": 38.895228333333336, "fusion_lat": 0.0, "type": "electric_scooter", "bike_id": "01df38651593dc0434d1d4df31529826", "rental_uris": {"ios": "https://dc.lft.to/lastmile_qr_scan", "android": "https://dc.lft.to/lastmile_qr_scan"}, "fusion_lon": 0.0, "lon": -77.021745, "name": "01df38651593dc0434d1d4df31529826", "is_reserved": 0, "is_disabled": 0}, {"lat": 38.90512183333333, "fusion_lat": 0.0, "type": "electric_scooter", "bike_id": "c6491fba1d566540c772dad5914c8821", "rental_uris": {"ios": "https://dc.lft.to/lastmile_qr_scan", "android": "https://dc.lft.to/lastmile_qr_scan"}, "fusion_lon": 0.0, "lon": -77.02997816666667, "name": "c6491fba1d566540c772dad5914c8821", "is_reserved": 0, "is_disabled": 0}, {"lat": 38.930918166666665, "fusion_lat": 0.0, "type": "electric_scooter", "bike_id": "b629be146af4f53d19ebbd2502ee3736", "rental_uris": {"ios": "https://dc.lft.to/lastmile_qr_scan", "android": "https://dc.lft.to/lastmile_qr_scan"}, "fusion_lon": 0.0, "lon": -77.02360566666667, "name": "b629be146af4f53d19ebbd2502ee3736", "is_reserved": 0, "is_disabled": 0}, {"lat": 38.90958033333333, "fusion_lat": 0.0, "type": "electric_scooter", "bike_id": "53b96f82a7639c1149af28c12af7d9b6", "rental_uris": {"ios": "https://dc.lft.to/lastmile_qr_scan", "android": "https://dc.lft.to/lastmile_qr_scan"}, "fusion_lon": 0.0, "lon": -77.039961, "name": "53b96f82a7639c1149af28c12af7d9b6", "is_reserved": 0, "is_disabled": 0}, {"lat": 38.907289, "fusion_lat": 0.0, "type": "electric_scooter", "bike_id": "a41d22df67f736ccdf4aae990f708558", "rental_uris": {"ios": "https://dc.lft.to/lastmile_qr_scan", "android": "https://dc.lft.to/lastmile_qr_scan"}, "fusion_lon": 0.0, "lon": -77.025211, "name": "a41d22df67f736ccdf4aae990f708558", "is_reserved": 0, "is_disabled": 0}, {"lat": 38.832435, "fusion_lat": 0.0, "type": "electric_bike", "bike_id": "104fa1aab41ef5b2f222e4ff645089a5", "rental_uris": {"ios": "https://dc.lft.to/lastmile_qr_scan", "android": "https://dc.lft.to/lastmile_qr_scan"}, "fusion_lon": 0.0, "lon": -77.00723933333333, "name": "104fa1aab41ef5b2f222e4ff645089a5", "is_reserved": 0, "is_disabled": 0}, {"lat": 38.914954, "fusion_lat": 0.0, "type": "electric_scooter", "bike_id": "29665a8fd2efed0b40e96920154ede44", "rental_uris": {"ios": "https://dc.lft.to/lastmile_qr_scan", "android": "https://dc.lft.to/lastmile_qr_scan"}, "fusion_lon": 0.0, "lon": -77.0384325, "name": "29665a8fd2efed0b40e96920154ede44", "is_reserved": 0, "is_disabled": 0}, {"lat": 38.916393666666664, "fusion_lat": 0.0, "type": "electric_scooter", "bike_id": "24b75d4c208b1e735f873c5a8715f138", "rental_uris": {"ios": "https://dc.lft.to/lastmile_qr_scan", "android": "https://dc.lft.to/lastmile_qr_scan"}, "fusion_lon": 0.0, "lon": -77.04823716666667, "name": "24b75d4c208b1e735f873c5a8715f138", "is_reserved": 0, "is_disabled": 0}, {"lat": 38.935248666666666, "fusion_lat": 0.0, "type": "electric_scooter", "bike_id": "e7469587b96a0c9c64cdc452fd20b7d9", "rental_uris": {"ios": "https://dc.lft.to/lastmile_qr_scan", "android": "https://dc.lft.to/lastmile_qr_scan"}, "fusion_lon": 0.0, "lon": -77.03256116666667, "name": "e7469587b96a0c9c64cdc452fd20b7d9", "is_reserved": 0, "is_disabled": 0}, {"lat": 38.897713333333336, "fusion_lat": 0.0, "type": "electric_scooter", "bike_id": "8d01c7093e7e0832a4b2adbc8acc6b27", "rental_uris": {"ios": "https://dc.lft.to/lastmile_qr_scan", "android": "https://dc.lft.to/lastmile_qr_scan"}, "fusion_lon": 0.0, "lon": -77.03353716666666, "name": "8d01c7093e7e0832a4b2adbc8acc6b27", "is_reserved": 0, "is_disabled": 0}, {"lat": 38.917703833333334, "fusion_lat": 0.0, "type": "electric_scooter", "bike_id": "ab016ecdd91e48787fc6e18caf4f069a", "rental_uris": {"ios": "https://dc.lft.to/lastmile_qr_scan", "android": "https://dc.lft.to/lastmile_qr_scan"}, "fusion_lon": 0.0, "lon": -77.03204916666667, "name": "ab016ecdd91e48787fc6e18caf4f069a", "is_reserved": 0, "is_disabled": 0},