{"data": {"bikes": [{"fusion_lon": 0.0, "name": "cb8146fdcb7ced00b32d133f3a72381c", "rental_uris": {"android": "https://dc.lft.to/lastmile_qr_scan", "ios": "https://dc.lft.to/lastmile_qr_scan"}, "lat": 38.927926, "bike_id": "cb8146fdcb7ced00b32d133f3a72381c", "is_disabled": 0, "lon": -77.03155566666666, "is_reserved": 0, "fusion_lat": 0.0, "type": "electric_scooter"}, {"fusion_lon": 0.0, "name": "a2f2a63cd1f30dd59f25255610963bb9", "rental_uris": {"android": "https://dc.lft.to/lastmile_qr_scan", "ios": "https://dc.lft.to/lastmile_qr_scan"}, "lat": 38.9005385, "bike_id": "a2f2a63cd1f30dd59f25255610963bb9", "is_disabled": 0, "lon": -76.98491883333334, "is_reserved": 0, "fusion_lat": 0.0, "type": "electric_scooter"}, {"fusion_lon": 0.0, "name": "41caa6cb7af6f4795c3a4e410683f97b", "rental_uris": {"android": "https://dc.lft.to/lastmile_qr_scan", "ios": "https://dc.lft.to/lastmile_qr_scan"}, "lat": 38.908958166666665, "bike_id": "41caa6cb7af6f4795c3a4e410683f97b", "is_disabled": 0, "lon": -76.98397783333333, "is_reserved": 0, "fusion_lat": 0.0, "type": "electric_scooter"}, {"fusion_lon": 0.0, "name": "f54a1099f78bdd4502168eb27ca82fc9", "rental_uris": {"android": "https://dc.lft.to/lastmile_qr_scan", "ios": "https://dc.lft.to/lastmile_qr_scan"}, "lat": 38.912464, "bike_id": "f54a1099f78bdd4502168eb27ca82fc9", "is_disabled": 0, "lon": -77.03205883333334, "is_reserved": 0, "fusion_lat": 0.0, "type": "electric_scooter"}, {"fusion_lon": 0.0, "name": "b60eef2505bf3a53963d151c7c79b28f", "rental_uris": {"android": "https://dc.lft.to/lastmile_qr_scan", "ios": "https://dc.lft.to/lastmile_qr_scan"}, "lat": 38.918100833333334, "bike_id": "b60eef2505bf3a53963d151c7c79b28f", "is_disabled": 0, "lon": -77.03098733333333, "is_reserved": 0, "fusion_lat": 0.0, "type": "electric_scooter"}, {"fusion_lon": 0.0, "name": "aeeb12c85e2aba0ccff8af58d3e228b9", "rental_uris": {"android": "https://dc.lft.to/lastmile_qr_scan", "ios": "https://dc.lft.to/lastmile_qr_scan"}, "lat": 38.92385816666667, "bike_id": "aeeb12c85e2aba0ccff8af58d3e228b9", "is_disabled": 0, "lon": -77.04311033333333, "is_reserved": 0, "fusion_lat": 0.0, "type": "electric_scooter"}, {"fusion_lon": 0.0, "name": "cd97e0c9492b09e48b337b4a777ef046", "rental_uris": {"android": "https://dc.lft.to/lastmile_qr_scan", "ios": "https://dc.lft.to/lastmile_qr_scan"}, "lat": 38.897408666666664, "bike_id": "cd97e0c9492b09e48b337b4a777ef046", "is_disabled": 0, "lon": -77.01385766666667, "is_reserved": 0, "fusion_lat": 0.0, "type": "electric_scooter"}, {"fusion_lon": 0.0, "name": "0789862ecde12f01fbcb6b2df49e70cc", "rental_uris": {"android": "https://dc.lft.to/lastmile_qr_scan", "ios": "https://dc.lft.to/lastmile_qr_scan"}, "lat": 38.897617333333336, "bike_id": "0789862ecde12f01fbcb6b2df49e70cc", "is_disabled": 0, "lon": -77.02688433333333, "is_reserved": 0, "fusion_lat": 0.0, "type": "electric_scooter"}, {"fusion_lon": 0.0, "name": "ea071566a826f64173e1d6f5cbcfa562", "rental_uris": {"android": "https://dc.lft.to/lastmile_qr_scan", "ios": "https://dc.lft.to/lastmile_qr_scan"}, "lat": 38.8862685, "bike_id": "ea071566a826f64173e1d6f5cbcfa562", "is_disabled": 0, "lon": -77.0316995, "is_reserved": 0, "fusion_lat": 0.0, "type": "electric_scooter"}, {"fusion_lon": 0.0, "name": "72cc8bb324ad71904161607eef3f8838", "rental_uris": {"android": "https://dc.lft.to/lastmile_qr_scan", "ios": "https://dc.lft.to/lastmile_qr_scan"}, "lat": 38.922191, "bike_id": "72cc8bb324ad71904161607eef3f8838", "is_disabled": 0, "lon": -77.02418233333333, "is_reserved": 0, "fusion_lat": 0.0, "type": "electric_scooter"}, {"fusion_lon": 0.0, "name": "668e54fcccc681ed8dfe270d3d28da5f", "rental_uris": {"android": "https://dc.lft.to/lastmile_qr_scan", "ios": "https://dc.lft.to/lastmile_qr_scan"}, "lat": 38.901958666666665, "bike_id": "668e54fcccc681ed8dfe270d3d28da5f", "is_disabled": 0, "lon": -77.00121466666667, "is_reserved": 0, "fusion_lat": 0.0, "type": "electric_scooter"}, {"fusion_lon": 0.0, "name": "f872d5fb5ba379b80905d431ad464ab8", "rental_uris": {"android": "https://dc.lft.to/lastmile_qr_scan", "ios": "https://dc.lft.to/lastmile_qr_scan"}, "lat": 38.95008883333333, "bike_id": "f872d5fb5ba379b80905d431ad464ab8", "is_disabled": 0, "lon": -77.066917, "is_reserved": 0, "fusion_lat": 0.0, "type": "electric_scooter"}, {"fusion_lon": 0.0, "name": "7e5f62615cf1a31d06ebbabc427ed771", "rental_uris": {"android": "https://dc.lft.to/lastmile_qr_scan", "ios": "https://dc.lft.to/lastmile_qr_scan"}, "lat": 38.784086, "bike_id": "7e5f62615cf1a31d06ebbabc427ed771", "is_disabled": 0, "lon": -77.12069783333334, "is_reserved": 0, "fusion_lat": 0.0, "type": "electric_bike"}, {"fusion_lon": 0.0, "name": "544350cfe9594eb93a02ab19dd507178", "rental_uris": {"android": "https://dc.lft.to/lastmile_qr_scan", "ios": "https://dc.lft.to/lastmile_qr_scan"}, "lat": 38.924723666666665, "bike_id": "544350cfe9594eb93a02ab19dd507178", "is_disabled": 0, "lon": -77.03106716666667, "is_reserved": 0, "fusion_lat": 0.0, "type": "electric_scooter"}, {"fusion_lon": 0.0, "name": "0709819a09b9e972c0f57c233fe459a8", "rental_uris": {"android": "https://dc.lft.to/lastmile_qr_scan", "ios": "https://dc.lft.to/lastmile_qr_scan"}, "lat": 38.893252833333335, "bike_id": "0709819a09b9e972c0f57c233fe459a8", "is_disabled": 0, "lon": -77.046761, "is_reserved": 0, "fusion_lat": 0.0, "type": "electric_scooter"}, {"fusion_lon": 0.0, "name": "c6722c1e6d9bbdb770c634959534ec29", "rental_uris": {"android": "https://dc.lft.to/lastmile_qr_scan", "ios": "https://dc.lft.to/lastmile_qr_scan"}, "lat": 38.88333866666667, "bike_id": "c6722c1e6d9bbdb770c634959534ec29", "is_disabled": 0, "lon": -77.00962366666667, "is_reserved": 0, "fusion_lat": 0.0, "type": "electric_scooter"}, {"fusion_lon": 0.0, "name": "4f4a3d0e4d9a4dac6a6593bdec5c89b6", "rental_uris": {"android": "https://dc.lft.to/lastmile_qr_scan", "ios": "https://dc.lft.to/lastmile_qr_scan"}, "lat": 38.915798, "bike_id": "4f4a3d0e4d9a4dac6a6593bdec5c89b6", "is_disabled": 0, "lon": -77.04640583333334, "is_reserved": 0, "fusion_lat": 0.0, "type": "electric_scooter"}, {"fusion_lon": 0.0, "name": "657c22626c4746432ef938f9929940cb", "rental_uris": {"android": "https://dc.lft.to/lastmile_qr_scan", "ios": "https://dc.lft.to/lastmile_qr_scan"}, "lat": 38.931938, "bike_id": "657c22626c4746432ef938f9929940cb", "is_disabled": 0, "lon": -77.02824066666666, "is_reserved": 0, "fusion_lat": 0.0, "type": "electric_scooter"}, {"fusion_lon": 0.0, "name": "c6154280382a797d9929a7518ea910ba", "rental_uris": {"android": "https://dc.lft.to/lastmile_qr_scan", "ios": "https://dc.lft.to/lastmile_qr_scan"}, "lat": 38.89225916666667, "bike_id": "c6154280382a797d9929a7518ea910ba", "is_disabled": 0, "lon": -77.02158433333334, "is_reserved": 0, "fusion_lat": 0.0, "type": "electric_scooter"}, {"fusion_lon": 0.0, "name": "6702a8f49c86b2a1e9e394cf95136366", "rental_uris": {"android": "https://dc.lft.to/lastmile_qr_scan", "ios": "https://dc.lft.to/lastmile_qr_scan"}, "lat": 38.902453333333334, "bike_id": "6702a8f49c86b2a1e9e394cf95136366", "is_disabled": 0, "lon": -77.0464805, "is_reserved": 0, "fusion_lat": 0.0, "type": "electric_scooter"}, {"fusion_lon": 0.0, "name": "caea7c90bd17dfbc256cbffd8a0ce1bd", "rental_uris": {"android": "https://dc.lft.to/lastmile_qr_scan", "ios": "https://dc.lft.to/lastmile_qr_scan"}, "lat": 38.91812983333333, "bike_id": "caea7c90bd17dfbc256cbffd8a0ce1bd", "is_disabled": 0, "lon": -77.03663833333333, "is_reserved": 0, "fusion_lat": 0.0, "type": "electric_scooter"}, {"fusion_lon": 0.0, "name": "3aa6ae91ef14d222b8498789972d9aba", "rental_uris": {"android": "https://dc.lft.to/lastmile_qr_scan", "ios": "https://dc.lft.to/lastmile_qr_scan"}, "lat": 38.92213266666667, "bike_id": "3aa6ae91ef14d222b8498789972d9aba", "is_disabled": 0, "lon": -77.0266025, "is_reserved": 0, "fusion_lat": 0.0, "type": "electric_scooter"}, {"fusion_lon": 0.0, "name": "b559e9a36dcf39eaed067466b5114281", "rental_uris": {"android": "https://dc.lft.to/lastmile_qr_scan", "ios": "https://dc.lft.to/lastmile_qr_scan"}, "lat": 38.923991666666666, "bike_id": "b559e9a36dcf39eaed067466b5114281", "is_disabled": 0, "lon": -76.9937455, "is_reserved": 0, "fusion_lat": 0.0, "type": "electric_scooter"}, {"fusion_lon": 0.0, "name": "84825c8d58530aaed254d025d9131374", "rental_uris": {"android": "https://dc.lft.to/lastmile_qr_scan", "ios": "https://dc.lft.to/lastmile_qr_scan"}, "lat": 38.914211, "bike_id": "84825c8d58530aaed254d025d9131374", "is_disabled": 0, "lon": -77.01805933333333, "is_reserved": 0, "fusion_lat": 0.0, "type": "electric_scooter"}, {"fusion_lon": 0.0, "name": "e37f4439dbd0f4dcdcc4702957f2c96a", "rental_uris": {"android": "https://dc.lft.to/lastmile_qr_scan", "ios": "https://dc.lft.to/lastmile_qr_scan"}, "lat": 38.92114933333333, "bike_id": "e37f4439dbd0f4dcdcc4702957f2c96a", "is_disabled": 0, "lon": -77.0438895, "is_reserved": 0, "fusion_lat": 0.0, "type": "electric_scooter"}, {"fusion_lon": 0.0, "name": "dcbff00d8a281f0fe302392c8981219a", "rental_uris": {"android": "https://dc.lft.to/lastmile_qr_scan", "ios": "https://dc.lft.to/lastmile_qr_scan"}, "lat": 38.916788333333336, "bike_id": "dcbff00d8a281f0fe302392c8981219a", "is_disabled": 0, "lon": -77.02815283333334, "is_reserved": 0, "fusion_lat": 0.0, "type": "electric_scooter"}, {"fusion_lon": 0.0, "name": "82ff581145da684b1fa85747a200f8ea", "rental_uris": {"android": "https://dc.lft.to/lastmile_qr_scan", "ios": "https://dc.lft.to/lastmile_qr_scan"}, "lat": 38.88121683333333, "bike_id": "82ff581145da684b1fa85747a200f8ea", "is_disabled": 0, "lon": -77.01676583333334, "is_reserved": 0, "fusion_lat": 0.0, "type": "electric_bike"}, {"fusion_lon": 0.0, "name": "c7d0d69ffc0bb4a9e329c1d56bb8b16e", "rental_uris": {"android": "https://dc.lft.to/lastmile_qr_scan", "ios": "https://dc.lft.to/lastmile_qr_scan"}, "lat": 38.901663666666664, "bike_id": "c7d0d69ffc0bb4a9e329c1d56bb8b16e", "is_disabled": 0, "lon": -76.949819, "is_reserved": 0, "fusion_lat": 0.0, "type": "electric_scooter"}, {"fusion_lon": 0.0, "name": "77fefa23ce41ecbe42c9745ea137ea02", "rental_uris": {"android": "https://dc.lft.to/lastmile_qr_scan", "ios": "https://dc.lft.to/lastmile_qr_scan"}, "lat": 38.92016733333333, "bike_id": "77fefa23ce41ecbe42c9745ea137ea02", "is_disabled": 0, "lon": -77.02186633333334, "is_reserved": 0, "fusion_lat": 0.0, "type": "electric_scooter"}, {"fusion_lon": 0.0, "name": "dc64789171fa86fe36fa69c8def4be75", "rental_uris": {"android": "https://dc.lft.to/lastmile_qr_scan", "ios": "https://dc.lft.to/lastmile_qr_scan"}, "lat": 38.9283055, "bike_id": "dc64789171fa86fe36fa69c8def4be75", "is_disabled": 0, "lon": -77.02332383333334, "is_reserved": 0, "fusion_lat": 0.0, "type": "electric_scooter"}, {"fusion_lon": 0.0, "name": "6b1e0c8d4a71bc85c0011e178a346446", "rental_uris": {"android": "https://dc.lft.to/lastmile_qr_scan", "ios": "https://dc.lft.to/lastmile_qr_scan"}, "lat": 38.884680833333334, "bike_id": "6b1e0c8d4a71bc85c0011e178a346446", "is_disabled": 0, "lon": -76.926091, "is_reserved": 0, "fusion_lat": 0.0, "type": "electric_scooter"}, {"fusion_lon": 0.0, "name": "fc87993d793a052a01b99ca2dcba1bb0", "rental_uris": {"android": "https://dc.lft.to/lastmile_qr_scan", "ios": "https://dc.lft.to/lastmile_qr_scan"}, "lat": 38.8622625, "bike_id": "fc87993d793a052a01b99ca2dcba1bb0", "is_disabled": 0, "lon": -76.97921266666667, "is_reserved": 0, "fusion_lat": 0.0, "type": "electric_scooter"}, {"fusion_lon": 0.0, "name": "bd70238ba9e6ed9f929cd87fa4cdaf1b", "rental_uris": {"android": "https://dc.lft.to/lastmile_qr_scan", "ios": "https://dc.lft.to/lastmile_qr_scan"}, "lat": 38.914017666666666, "bike_id": "bd70238ba9e6ed9f929cd87fa4cdaf1b", "is_disabled": 0, "lon": -77.02207566666667, "is_reserved": 0, "fusion_lat": 0.0, "type": "electric_scooter"}, {"fusion_lon": 0.0, "name": "20fe4c9dc078229042eae358ed036e2a", "rental_uris": {"android": "https://dc.lft.to/lastmile_qr_scan", "ios": "https://dc.lft.to/lastmile_qr_scan"}, "lat": 38.91193166666667, "bike_id": "20fe4c9dc078229042eae358ed036e2a", "is_disabled": 0, "lon": -77.03196833333334, "is_reserved": 0, "fusion_lat": 0.0, "type": "electric_scooter"}, {"fusion_lon": 0.0, "name": "db26dccf103ac24e925e0f070717a5b5", "rental_uris": {"android": "https://dc.lft.to/lastmile_qr_scan", "ios": "https://dc.lft.to/lastmile_qr_scan"}, "lat": 38.96033083333333, "bike_id": "db26dccf103ac24e925e0f070717a5b5", "is_disabled": 0, "lon": -77.02431666666666, "is_reserved": 0, "fusion_lat": 0.0, "type": "electric_scooter"}, {"fusion_lon": 0.0, "name": "be76c43214803dae400178cc2defe30c", "rental_uris": {"android": "https://dc.lft.to/lastmile_qr_scan", "ios": "https://dc.lft.to/lastmile_qr_scan"}, "lat": 38.926098, "bike_id": "be76c43214803dae400178cc2defe30c", "is_disabled": 0, "lon": -77.057078, "is_reserved": 0, "fusion_lat": 0.0, "type": "electric_scooter"}, {"fusion_lon": 0.0, "name": "013880efa448ad481bf871e044808c1b", "rental_uris": {"android": "https://dc.lft.to/lastmile_qr_scan", "ios": "https://dc.lft.to/lastmile_qr_scan"}, "lat": 38.914672, "bike_id": "013880efa448ad481bf871e044808c1b", "is_disabled": 0, "lon": -77.038606, "is_reserved": 0, "fusion_lat": 0.0, "type": "electric_scooter"}, {"fusion_lon": 0.0, "name": "775bf631ef8427f6ddab31375c4ef920", "rental_uris": {"android": "https://dc.lft.to/lastmile_qr_scan", "ios": "https://dc.lft.to/lastmile_qr_scan"}, "lat": 38.876804666666665, "bike_id": "775bf631ef8427f6ddab31375c4ef920", "is_disabled": 0, "lon": -77.007157, "is_reserved": 0, "fusion_lat": 0.0, "type": "electric_scooter"}, {"fusion_lon": 0.0, "name": "c7c6ea99ae7a55295b7daee0e2ae82ee", "rental_uris": {"android": "https://dc.lft.to/lastmile_qr_scan", "ios": "https://dc.lft.to/lastmile_qr_scan"}, "lat": 38.8852365, "bike_id": "c7c6ea99ae7a55295b7daee0e2ae82ee", "is_disabled": 0, "lon": -76.977124, "is_reserved": 0, "fusion_lat": 0.0, "type": "electric_scooter"}, {"fusion_lon": 0.0, "name": "03116b811f7c3ff2c7e9208d4f227dcf", "rental_uris": {"android": "https://dc.lft.to/lastmile_qr_scan", "ios": "https://dc.lft.to/lastmile_qr_scan"}, "lat": 38.91554383333333, "bike_id": "03116b811f7c3ff2c7e9208d4f227dcf", "is_disabled": 0, "lon": -77.03028883333333, "is_reserved": 0, "fusion_lat": 0.0, "type": "electric_scooter"}, {"fusion_lon": 0.0, "name": "ad2d5f8464f46d1b6b452c076bb72355", "rental_uris": {"android": "https://dc.lft.to/lastmile_qr_scan", "ios": "https://dc.lft.to/lastmile_qr_scan"}, "lat": 38.936996, "bike_id": "ad2d5f8464f46d1b6b452c076bb72355", "is_disabled": 0, "lon": -77.0560175, "is_reserved": 0, "fusion_lat": 0.0, "type": "electric_scooter"}, {"fusion_lon": 0.0, "name": "2f98b37e995e09e7888e18455fce23ef", "rental_uris": {"android": "https://dc.lft.to/lastmile_qr_scan", "ios": "https://dc.lft.to/lastmile_qr_scan"}, "lat": 38.92023283333333, "bike_id": "2f98b37e995e09e7888e18455fce23ef", "is_disabled": 0, "lon": -77.01913516666667, "is_reserved": 0, "fusion_lat": 0.0, "type": "electric_scooter"}, {"fusion_lon": 0.0, "name": "9b4edf5ce71e3fcf07bb17aa8b17ac8f", "rental_uris": {"android": "https://dc.lft.to/lastmile_qr_scan", "ios": "https://dc.lft.to/lastmile_qr_scan"}, "lat": 38.81741483333333, "bike_id": "9b4edf5ce71e3fcf07bb17aa8b17ac8f", "is_disabled": 0, "lon": -77.06688516666667, "is_reserved": 0, "fusion_lat": 0.0, "type": "electric_bike"}, {"fusion_lon": 0.0, "name": "7e7a5e9300015c79c3e896acfb2581b7", "rental_uris": {"android": "https://dc.lft.to/lastmile_qr_scan", "ios": "https://dc.lft.to/lastmile_qr_scan"}, "lat": 38.950653333333335, "bike_id": "7e7a5e9300015c79c3e896acfb2581b7", "is_disabled": 0, "lon": -77.00733616666666, "is_reserved": 0, "fusion_lat": 0.0, "type": "electric_bike"}, {"fusion_lon": 0.0, "name": "1c85a89272884d70a8873fabec78ce14", "rental_uris": {"android": "https://dc.lft.to/lastmile_qr_scan", "ios": "https://dc.lft.to/lastmile_qr_scan"}, "lat": 38.9296985, "bike_id": "1c85a89272884d70a8873fabec78ce14", "is_disabled": 0, "lon": -77.03645283333333, "is_reserved": 0, "fusion_lat": 0.0, "type": "electric_scooter"}, {"fusion_lon": 0.0, "name": "fd7016920cf16b90f9266976ab5891a8", "rental_uris": {"android": "https://dc.lft.to/lastmile_qr_scan", "ios": "https://dc.lft.to/lastmile_qr_scan"}, "lat": 38.92470816666667, "bike_id": "fd7016920cf16b90f9266976ab5891a8", "is_disabled": 0, "lon": -77.02120016666667, "is_reserved": 0, "fusion_lat": 0.0, "type": "electric_scooter"}, {"fusion_lon": 0.0, "name": "1551450b5d07a31c08227dd8f32f35bf", "rental_uris": {"android": "https://dc.lft.to/lastmile_qr_scan", "ios": "https://dc.lft.to/lastmile_qr_scan"}, "lat": 38.92476416666667, "bike_id": "1551450b5d07a31c08227dd8f32f35bf", "is_disabled": 0, "lon": -77.022252, "is_reserved": 0, "fusion_lat": 0.0, "type": "electric_scooter"}, {"fusion_lon": 0.0, "name": "b48446363d0bad248e7458dd4dc5f7c4", "rental_uris": {"android": "https://dc.lft.to/lastmile_qr_scan", "ios": "https://dc.lft.to/lastmile_qr_scan"}, "lat": 38.904123, "bike_id": "b48446363d0bad248e7458dd4dc5f7c4", "is_disabled": 0, "lon": -77.04055733333334, "is_reserved": 0, "fusion_lat": 0.0, "type": "electric_scooter"}, {"fusion_lon": 0.0, "name": "c412541d871257a3fc7e1f988f7823bb", "rental_uris": {"android": "https://dc.lft.to/lastmile_qr_scan", "ios": "https://dc.lft.to/lastmile_qr_scan"}, "lat": 38.88773966666667, "bike_id": "c412541d871257a3fc7e1f988f7823bb", "is_disabled": 0, "lon": -76.932621, "is_reserved": 0, "fusion_lat": 0.0, "type": "electric_scooter"}, {"fusion_lon": 0.0, "name": "2da16a29980044c61ea85a3b0457ae74", "rental_uris": {"android": "https://dc.lft.to/lastmile_qr_scan", "ios": "https://dc.lft.to/lastmile_qr_scan"}, "lat": 38.91116066666667, "bike_id": "2da16a29980044c61ea85a3b0457ae74", "is_disabled": 0, "lon": -77.03831283333334, "is_reserved": 0, "fusion_lat": 0.0, "type": "electric_scooter"}, {"fusion_lon": 0.0, "name": "f6359bb1e08976322f9d216b786a99cd", "rental_uris": {"android": "https://dc.lft.to/lastmile_qr_scan", "ios": "https://dc.lft.to/lastmile_qr_scan"}, "lat": 38.913598666666665, "bike_id": "f6359bb1e08976322f9d216b786a99cd", "is_disabled": 0, "lon": -77.01995816666667, "is_reserved": 0, "fusion_lat": 0.0, "type": "electric_scooter"}, {"fusion_lon": 0.0, "name": "b2a0acf5db800f1fa55b8332caa0808e", "rental_uris": {"android": "https://dc.lft.to/lastmile_qr_scan", "ios": "https://dc.lft.to/lastmile_qr_scan"}, "lat": 38.922344333333335, "bike_id": "b2a0acf5db800f1fa55b8332caa0808e", "is_disabled": 0, "lon": -77.04647783333333, "is_reserved": 0, "fusion_lat": 0.0, "type": "electric_scooter"}, {"fusion_lon": 0.0, "name": "ec7475ea7610f0928a58f9c6ff34c534", "rental_uris": {"android": "https://dc.lft.to/lastmile_qr_scan", "ios": "https://dc.lft.to/lastmile_qr_scan"}, "lat": 39.010965666666664, "bike_id": "ec7475ea7610f0928a58f9c6ff34c534", "is_disabled": 0, "lon": -77.04958033333334, "is_reserved": 0, "fusion_lat": 0.0, "type": "electric_bike"}, {"fusion_lon": 0.0, "name": "78b3d13a439f5df95595ba50bf96b523", "rental_uris": {"android": "https://dc.lft.to/lastmile_qr_scan", "ios": "https://dc.lft.to/lastmile_qr_scan"}, "lat": 38.81331483333334, "bike_id": "78b3d13a439f5df95595ba50bf96b523", "is_disabled": 0, "lon": -77.0508985, "is_reserved": 0, "fusion_lat": 0.0, "type": "electric_bike"}, {"fusion_lon": 0.0, "name": "1f3be2d65913b75f3828006dafcc2bc4", "rental_uris": {"android": "https://dc.lft.to/lastmile_qr_scan", "ios": "https://dc.lft.to/lastmile_qr_scan"}, "lat": 38.92037066666666, "bike_id": "1f3be2d65913b75f3828006dafcc2bc4", "is_disabled": 0, "lon": -76.97958966666667, "is_reserved": 0, "fusion_lat": 0.0, "type": "electric_bike"}, {"fusion_lon": 0.0, "name": "576c427185699d99867ca33cf4bbb785", "rental_uris": {"android": "https://dc.lft.to/lastmile_qr_scan", "ios": "https://dc.lft.to/lastmile_qr_scan"}, "lat": 38.91476816666667, "bike_id": "576c427185699d99867ca33cf4bbb785", "is_disabled": 0, "lon": -77.03253916666667, "is_reserved": 0, "fusion_lat": 0.0, "type": "electric_scooter"}, {"fusion_lon": 0.0, "name": "d2c4aa7f23bea7b2ab5bb05f45192a2c", "rental_uris": {"android": "https://dc.lft.to/lastmile_qr_scan", "ios": "https://dc.lft.to/lastmile_qr_scan"}, "lat": 38.9260135, "bike_id": "d2c4aa7f23bea7b2ab5bb05f45192a2c", "is_disabled": 0, "lon": -77.02153933333334, "is_reserved": 0, "fusion_lat": 0.0, "type": "electric_scooter"}, {"fusion_lon": 0.0, "name": "a434f3f0766fa6ed8c477869f9baa17a", "rental_uris": {"android": "https://dc.lft.to/lastmile_qr_scan", "ios": "https://dc.lft.to/lastmile_qr_scan"}, "lat": 38.88505216666667, "bike_id": "a434f3f0766fa6ed8c477869f9baa17a", "is_disabled": 0, "lon": -77.002235, "is_reserved": 0, "fusion_lat": 0.0, "type": "electric_scooter"}, {"fusion_lon": 0.0, "name": "23174a1e36a510deceebc3566eb4280f", "rental_uris": {"android": "https://dc.lft.to/lastmile_qr_scan", "ios": "https://dc.lft.to/lastmile_qr_scan"}, "lat": 38.897730333333335, "bike_id": "23174a1e36a510deceebc3566eb4280f", "is_disabled": 0, "lon": -76.9769845, "is_reserved": 0, "fusion_lat": 0.0, "type": "electric_scooter"}, {"fusion_lon": 0.0, "name": "209d23724587ee9b428c8e92361b8414", "rental_uris": {"android": "https://dc.lft.to/lastmile_qr_scan", "ios": "https://dc.lft.to/lastmile_qr_scan"}, "lat": 38.907350666666666, "bike_id": "209d23724587ee9b428c8e92361b8414", "is_disabled": 0, "lon": -77.02984533333333, "is_reserved": 0, "fusion_lat": 0.0, "type": "electric_scooter"}, {"fusion_lon": 0.0, "name": "ee2e7872dab7b0e56fb58c01d7f320b0", "rental_uris": {"android": "https://dc.lft.to/lastmile_qr_scan", "ios": "https://dc.lft.to/lastmile_qr_scan"}, "lat": 38.901182666666664, "bike_id": "ee2e7872dab7b0e56fb58c01d7f320b0", "is_disabled": 0, "lon": -77.05000316666667, "is_reserved": 0, "fusion_lat": 0.0, "type": "electric_bike"}, {"fusion_lon": 0.0, "name": "d402d477cbf39f986bb2f90a0fabed7b", "rental_uris": {"android": "https://dc.lft.to/lastmile_qr_scan", "ios": "https://dc.lft.to/lastmile_qr_scan"}, "lat": 38.9041085, "bike_id": "d402d477cbf39f986bb2f90a0fabed7b", "is_disabled": 0, "lon": -77.02852283333333, "is_reserved": 0, "fusion_lat": 0.0, "type": "electric_scooter"}, {"fusion_lon": 0.0, "name": "3d86cfc73aebab4ce0e32477a5495219", "rental_uris": {"android": "https://dc.lft.to/lastmile_qr_scan", "ios": "https://dc.lft.to/lastmile_qr_scan"}, "lat": 38.913380333333336, "bike_id": "3d86cfc73aebab4ce0e32477a5495219", "is_disabled": 0, "lon": -77.03201366666667, "is_reserved": 0, "fusion_lat": 0.0, "type": "electric_scooter"}, {"fusion_lon": 0.0, "name": "32770d7a1dd7721c4c6b995fbb35f2d2", "rental_uris": {"android": "https://dc.lft.to/lastmile_qr_scan", "ios": "https://dc.lft.to/lastmile_qr_scan"}, "lat": 38.894759, "bike_id": "32770d7a1dd7721c4c6b995fbb35f2d2", "is_disabled": 0, "lon": -76.97770916666667, "is_reserved": 0, "fusion_lat": 0.0, "type": "electric_bike"}, {"fusion_lon": 0.0, "name": "ff5fe80f08efc5103980be52d019955d", "rental_uris": {"android": "https://dc.lft.to/lastmile_qr_scan", "ios": "https://dc.lft.to/lastmile_qr_scan"}, "lat": 38.907395333333334, "bike_id": "ff5fe80f08efc5103980be52d019955d", "is_disabled": 0, "lon": -77.01309783333333, "is_reserved": 0, "fusion_lat": 0.0, "type": "electric_scooter"}, {"fusion_lon": 0.0, "name": "a19c0d8c9549c9059d74c6761e2192ed", "rental_uris": {"android": "https://dc.lft.to/lastmile_qr_scan", "ios": "https://dc.lft.to/lastmile_qr_scan"}, "lat": 38.935783, "bike_id": "a19c0d8c9549c9059d74c6761e2192ed", "is_disabled": 0, "lon": -77.02125283333334, "is_reserved": 0, "fusion_lat": 0.0, "type": "electric_bike"}, {"fusion_lon": 0.0, "name": "33b73f2755df09cbdd6d7a72d015dbec", "rental_uris": {"android": "https://dc.lft.to/lastmile_qr_scan", "ios": "https://dc.lft.to/lastmile_qr_scan"}, "lat": 38.921593333333334, "bike_id": "33b73f2755df09cbdd6d7a72d015dbec", "is_disabled": 0, "lon": -77.03392266666667, "is_reserved": 0, "fusion_lat": 0.0, "type": "electric_scooter"}, {"fusion_lon": 0.0, "name": "3f5c88d73986797988e93976c285479d", "rental_uris": {"android": "https://dc.lft.to/lastmile_qr_scan", "ios": "https://dc.lft.to/lastmile_qr_scan"}, "lat": 38.89230233333333, "bike_id": "3f5c88d73986797988e93976c285479d", "is_disabled": 0, "lon": -77.0238585, "is_reserved": 0, "fusion_lat": 0.0, "type": "electric_scooter"}, {"fusion_lon": 0.0, "name": "b18cf2b05c83125c987a9af63f0e97ca", "rental_uris": {"android": "https://dc.lft.to/lastmile_qr_scan", "ios": "https://dc.lft.to/lastmile_qr_scan"}, "lat": 38.9259975, "bike_id": "b18cf2b05c83125c987a9af63f0e97ca", "is_disabled": 0, "lon": -77.02159933333333, "is_reserved": 0, "fusion_lat": 0.0, "type": "electric_scooter"}, {"fusion_lon": 0.0, "name": "747852161da28cb9c63378ed35873639", "rental_uris": {"android": "https://dc.lft.to/lastmile_qr_scan", "ios": "https://dc.lft.to/lastmile_qr_scan"}, "lat": 38.92071, "bike_id": "747852161da28cb9c63378ed35873639", "is_disabled": 0, "lon": -77.02402966666666, "is_reserved": 0, "fusion_lat": 0.0, "type": "electric_scooter"}, {"fusion_lon": 0.0, "name": "e9efab0df563caa8567e2ba8616e9efa", "rental_uris": {"android": "https://dc.lft.to/lastmile_qr_scan", "ios": "https://dc.lft.to/lastmile_qr_scan"}, "lat": 38.920584, "bike_id": "e9efab0df563caa8567e2ba8616e9efa", "is_disabled": 0, "lon": -77.02433116666667, "is_reserved": 0, "fusion_lat": 0.0, "type": "electric_scooter"}, {"fusion_lon": 0.0, "name": "bdea1f84530035b9e62aa4f88f58bc5c", "rental_uris": {"android": "https://dc.lft.to/lastmile_qr_scan", "ios": "https://dc.lft.to/lastmile_qr_scan"}, "lat": 38.94368583333333, "bike_id": "bdea1f84530035b9e62aa4f88f58bc5c", "is_disabled": 0, "lon": -77.0609925, "is_reserved": 0, "fusion_lat": 0.0, "type": "electric_scooter"}, {"fusion_lon": 0.0, "name": "11bf43135551e8d44b94c3c017c0b602", "rental_uris": {"android": "https://dc.lft.to/lastmile_qr_scan", "ios": "https://dc.lft.to/lastmile_qr_scan"}, "lat": 38.92268383333333, "bike_id": "11bf43135551e8d44b94c3c017c0b602", "is_disabled": 0, "lon": -77.03396216666667, "is_reserved": 0, "fusion_lat": 0.0, "type": "electric_scooter"}, {"fusion_lon": 0.0, "name": "bb8db6dfcd42158bb5c24fd2d28055e3", "rental_uris": {"android": "https://dc.lft.to/lastmile_qr_scan", "ios": "https://dc.lft.to/lastmile_qr_scan"}, "lat": 38.9551475, "bike_id": "bb8db6dfcd42158bb5c24fd2d28055e3", "is_disabled": 0, "lon": -77.01040116666667, "is_reserved": 0, "fusion_lat": 0.0, "type": "electric_scooter"}, {"fusion_lon": 0.0, "name": "2b40de1d512ae21fa58ec5b58bd7e377", "rental_uris": {"android": "https://dc.lft.to/lastmile_qr_scan", "ios": "https://dc.lft.to/lastmile_qr_scan"}, "lat": 38.920605, "bike_id": "2b40de1d512ae21fa58ec5b58bd7e377", "is_disabled": 0, "lon": -76.991046, "is_reserved": 0, "fusion_lat": 0.0, "type": "electric_bike"}, {"fusion_lon": 0.0, "name": "ed656a52b0d2ba2ac03d2acb52d4029c", "rental_uris": {"android": "https://dc.lft.to/lastmile_qr_scan", "ios": "https://dc.lft.to/lastmile_qr_scan"}, "lat": 38.918675, "bike_id": "ed656a52b0d2ba2ac03d2acb52d4029c", "is_disabled": 0, "lon": -77.04486116666666, "is_reserved": 0, "fusion_lat": 0.0, "type": "electric_scooter"}, {"fusion_lon": 0.0, "name": "bfda664ff43d864bc2c40a47e3754762", "rental_uris": {"android": "https://dc.lft.to/lastmile_qr_scan", "ios": "https://dc.lft.to/lastmile_qr_scan"}, "lat": 38.876852166666666, "bike_id": "bfda664ff43d864bc2c40a47e3754762", "is_disabled": 0, "lon": -77.000713, "is_reserved": 0, "fusion_lat": 0.0, "type": "electric_scooter"}, {"fusion_lon": 0.0, "name": "9e97d08d94e7745dd35a90f7891fe726", "rental_uris": {"android": "https://dc.lft.to/lastmile_qr_scan", "ios": "https://dc.lft.to/lastmile_qr_scan"}, "lat": 38.920944666666664, "bike_id": "9e97d08d94e7745dd35a90f7891fe726", "is_disabled": 0, "lon": -77.02317833333333, "is_reserved": 0, "fusion_lat": 0.0, "type": "electric_scooter"}, {"fusion_lon": 0.0, "name": "50d191565080edfea6a023f9002d1dc6", "rental_uris": {"android": "https://dc.lft.to/lastmile_qr_scan", "ios": "https://dc.lft.to/lastmile_qr_scan"}, "lat": 38.92171366666667, "bike_id": "50d191565080edfea6a023f9002d1dc6", "is_disabled": 0, "lon": -77.02670183333333, "is_reserved": 0, "fusion_lat": 0.0, "type": "electric_scooter"}, {"fusion_lon": 0.0, "name": "ce8d865694f509eb695188450ffda2d5", "rental_uris": {"android": "https://dc.lft.to/lastmile_qr_scan", "ios": "https://dc.lft.to/lastmile_qr_scan"}, "lat": 38.95759433333333, "bike_id": "ce8d865694f509eb695188450ffda2d5", "is_disabled": 0, "lon": -77.00915983333333, "is_reserved": 0, "fusion_lat": 0.0, "type": "electric_scooter"}, {"fusion_lon": 0.0, "name": "9e4a23e2c5b2f66e07101ee57bec5141", "rental_uris": {"android": "https://dc.lft.to/lastmile_qr_scan", "ios": "https://dc.lft.to/lastmile_qr_scan"}, "lat": 38.912365, "bike_id": "9e4a23e2c5b2f66e07101ee57bec5141", "is_disabled": 0, "lon": -77.031842, "is_reserved": 0, "fusion_lat": 0.0, "type": "electric_scooter"}, {"fusion_lon": 0.0, "name": "787cdbacf836be8ef5831f6ae34c97b6", "rental_uris": {"android": "https://dc.lft.to/lastmile_qr_scan", "ios": "https://dc.lft.to/lastmile_qr_scan"}, "lat": 38.919177166666664, "bike_id": "787cdbacf836be8ef5831f6ae34c97b6", "is_disabled": 0, "lon": -77.03344416666667, "is_reserved": 0, "fusion_lat": 0.0, "type": "electric_scooter"}, {"fusion_lon": 0.0, "name": "dd4c25a4b3bd0b2a0f357ce8ca6179b6", "rental_uris": {"android": "https://dc.lft.to/lastmile_qr_scan", "ios": "https://dc.lft.to/lastmile_qr_scan"}, "lat": 38.90352133333333, "bike_id": "dd4c25a4b3bd0b2a0f357ce8ca6179b6", "is_disabled": 0, "lon": -76.982799, "is_reserved": 0, "fusion_lat": 0.0, "type": "electric_scooter"}, {"fusion_lon": 0.0, "name": "8d78b88f3cd06ace01d633286eb6f10f", "rental_uris": {"android": "https://dc.lft.to/lastmile_qr_scan", "ios": "https://dc.lft.to/lastmile_qr_scan"}, "lat": 38.9004575, "bike_id": "8d78b88f3cd06ace01d633286eb6f10f", "is_disabled": 0, "lon": -77.03367433333334, "is_reserved": 0, "fusion_lat": 0.0, "type": "electric_scooter"}, {"fusion_lon": 0.0, "name": "d82417af1ab91186e89845c4da5436e1", "rental_uris": {"android": "https://dc.lft.to/lastmile_qr_scan", "ios": "https://dc.lft.to/lastmile_qr_scan"}, "lat": 38.923407833333336, "bike_id": "d82417af1ab91186e89845c4da5436e1", "is_disabled": 0, "lon": -77.05478, "is_reserved": 0, "fusion_lat": 0.0, "type": "electric_scooter"}, {"fusion_lon": 0.0, "name": "23e5658535457575767df77ebf3389f4", "rental_uris": {"android": "https://dc.lft.to/lastmile_qr_scan", "ios": "https://dc.lft.to/lastmile_qr_scan"}, "lat": 38.935518, "bike_id": "23e5658535457575767df77ebf3389f4", "is_disabled": 0, "lon": -77.03430916666667, "is_reserved": 0, "fusion_lat": 0.0, "type": "electric_scooter"}, {"fusion_lon": 0.0, "name": "8f1abbe9dde90e53a6eba9133016f85e", "rental_uris": {"android": "https://dc.lft.to/lastmile_qr_scan", "ios": "https://dc.lft.to/lastmile_qr_scan"}, "lat": 38.92513266666667, "bike_id": "8f1abbe9dde90e53a6eba9133016f85e", "is_disabled": 0, "lon": -77.00872266666667, "is_reserved": 0, "fusion_lat": 0.0, "type": "electric_scooter"}, {"fusion_lon": 0.0, "name": "77dc8a80d7752d4853109b1ee29700f7", "rental_uris": {"android": "https://dc.lft.to/lastmile_qr_scan", "ios": "https://dc.lft.to/lastmile_qr_scan"}, "lat": 38.922593, "bike_id": "77dc8a80d7752d4853109b1ee29700f7", "is_disabled": 0, "lon": -77.030806, "is_reserved": 0, "fusion_lat": 0.0, "type": "electric_scooter"}, {"fusion_lon": 0.0, "name": "057c6ffdeb511d6c1674dba9cef6f55b", "rental_uris": {"android": "https://dc.lft.to/lastmile_qr_scan", "ios": "https://dc.lft.to/lastmile_qr_scan"}, "lat": 38.9296615, "bike_id": "057c6ffdeb511d6c1674dba9cef6f55b", "is_disabled": 0, "lon": -77.0197665, "is_reserved": 0, "fusion_lat": 0.0, "type": "electric_scooter"}, {"fusion_lon": 0.0, "name": "cf5c39dd94e6e98b5ed46d959fdb8b25", "rental_uris": {"android": "https://dc.lft.to/lastmile_qr_scan", "ios": "https://dc.lft.to/lastmile_qr_scan"}, "lat": 38.90382733333333, "bike_id": "cf5c39dd94e6e98b5ed46d959fdb8b25", "is_disabled": 0, "lon": -77.068456, "is_reserved": 0, "fusion_lat": 0.0, "type": "electric_scooter"}, {"fusion_lon": 0.0, "name": "9f4139549ebf1b396e81dc59c719796d", "rental_uris": {"android": "https://dc.lft.to/lastmile_qr_scan", "ios": "https://dc.lft.to/lastmile_qr_scan"}, "lat": 38.9179045, "bike_id": "9f4139549ebf1b396e81dc59c719796d", "is_disabled": 0, "lon": -77.04024433333333, "is_reserved": 0, "fusion_lat": 0.0, "type": "electric_scooter"}, {"fusion_lon": 0.0, "name": "5846b6a9d5be2f8eb07d6815a71b2314", "rental_uris": {"android": "https://dc.lft.to/lastmile_qr_scan", "ios": "https://dc.lft.to/lastmile_qr_scan"}, "lat": 38.9198165, "bike_id": "5846b6a9d5be2f8eb07d6815a71b2314", "is_disabled": 0, "lon": -77.07092983333334, "is_reserved": 0, "fusion_lat": 0.0, "type": "electric_scooter"}, {"fusion_lon": 0.0, "name": "9586aaeb5d31ef4dda47140c7d102457", "rental_uris": {"android": "https://dc.lft.to/lastmile_qr_scan", "ios": "https://dc.lft.to/lastmile_qr_scan"}, "lat": 38.92077166666667, "bike_id": "9586aaeb5d31ef4dda47140c7d102457", "is_disabled": 0, "lon": -77.02385883333334, "is_reserved": 0, "fusion_lat": 0.0, "type": "electric_scooter"}, {"fusion_lon": 0.0, "name": "03b781de3585ed578da03cca8b92c048", "rental_uris": {"android": "https://dc.lft.to/lastmile_qr_scan", "ios": "https://dc.lft.to/lastmile_qr_scan"}, "lat": 38.89565433333333, "bike_id": "03b781de3585ed578da03cca8b92c048", "is_disabled": 0, "lon": -77.011138, "is_reserved": 0, "fusion_lat": 0.0, "type": "electric_scooter"}, {"fusion_lon": 0.0, "name": "bae0dcda75aa69f9c29b6dfbcae43d62", "rental_uris": {"android": "https://dc.lft.to/lastmile_qr_scan", "ios": "https://dc.lft.to/lastmile_qr_scan"}, "lat": 38.964743, "bike_id": "bae0dcda75aa69f9c29b6dfbcae43d62", "is_disabled": 0, "lon": -77.03165366666667, "is_reserved": 0, "fusion_lat": 0.0, "type": "electric_bike"}, {"fusion_lon": 0.0, "name": "cda936b38e4333947cd35e82eb73c453", "rental_uris": {"android": "https://dc.lft.to/lastmile_qr_scan", "ios": "https://dc.lft.to/lastmile_qr_scan"}, "lat": 38.912667666666664, "bike_id": "cda936b38e4333947cd35e82eb73c453", "is_disabled": 0, "lon": -77.011532, "is_reserved": 0, "fusion_lat": 0.0, "type": "electric_scooter"}, {"fusion_lon": 0.0, "name": "83fc5793bc6d0c40b2bb90d2524931c4", "rental_uris": {"android": "https://dc.lft.to/lastmile_qr_scan", "ios": "https://dc.lft.to/lastmile_qr_scan"}, "lat": 38.911226666666664, "bike_id": "83fc5793bc6d0c40b2bb90d2524931c4", "is_disabled": 0, "lon": -77.021978, "is_reserved": 0, "fusion_lat": 0.0, "type": "electric_scooter"}, {"fusion_lon": 0.0, "name": "f622e9b63a85211f4036282e9f3e289d", "rental_uris": {"android": "https://dc.lft.to/lastmile_qr_scan", "ios": "https://dc.lft.to/lastmile_qr_scan"}, "lat": 38.8934235, "bike_id": "f622e9b63a85211f4036282e9f3e289d", "is_disabled": 0, "lon": -76.95247183333333, "is_reserved": 0, "fusion_lat": 0.0, "type": "electric_scooter"}, {"fusion_lon": 0.0, "name": "96131cf55a21ea07fd58fc780526d263", "rental_uris": {"android": "https://dc.lft.to/lastmile_qr_scan", "ios": "https://dc.lft.to/lastmile_qr_scan"}, "lat": 38.9291525, "bike_id": "96131cf55a21ea07fd58fc780526d263", "is_disabled": 0, "lon": -76.99816783333333, "is_reserved": 0, "fusion_lat": 0.0, "type": "electric_scooter"}, {"fusion_lon": 0.0, "name": "a80ac6a26ef2e002013e9eb7ac292db4", "rental_uris": {"android": "https://dc.lft.to/lastmile_qr_scan", "ios": "https://dc.lft.to/lastmile_qr_scan"}, "lat": 38.935103, "bike_id": "a80ac6a26ef2e002013e9eb7ac292db4", "is_disabled": 0, "lon": -77.02013166666667, "is_reserved": 0, "fusion_lat": 0.0, "type": "electric_scooter"}, {"fusion_lon": 0.0, "name": "0caedb9421e6722b27271a9e30a6a718", "rental_uris": {"android": "https://dc.lft.to/lastmile_qr_scan", "ios": "https://dc.lft.to/lastmile_qr_scan"}, "lat": 38.90045933333333, "bike_id": "0caedb9421e6722b27271a9e30a6a718", "is_disabled": 0, "lon": -76.98559616666667, "is_reserved": 0, "fusion_lat": 0.0, "type": "electric_scooter"}, {"fusion_lon": 0.0, "name": "c5877fc4148a960b2db61275e611c31e", "rental_uris": {"android": "https://dc.lft.to/lastmile_qr_scan", "ios": "https://dc.lft.to/lastmile_qr_scan"}, "lat": 38.922425833333335, "bike_id": "c5877fc4148a960b2db61275e611c31e", "is_disabled": 0, "lon": -77.043642, "is_reserved": 0, "fusion_lat": 0.0, "type": "electric_scooter"}, {"fusion_lon": 0.0, "name": "871c4011165efbd544e121586cb5d144", "rental_uris": {"android": "https://dc.lft.to/lastmile_qr_scan", "ios": "https://dc.lft.to/lastmile_qr_scan"}, "lat": 38.90054833333333, "bike_id": "871c4011165efbd544e121586cb5d144", "is_disabled": 0, "lon": -77.0490835, "is_reserved": 0, "fusion_lat": 0.0, "type": "electric_scooter"}, {"fusion_lon": 0.0, "name": "934efd38806cf5ec6a9523721aa3f8a4", "rental_uris": {"android": "https://dc.lft.to/lastmile_qr_scan", "ios": "https://dc.lft.to/lastmile_qr_scan"}, "lat": 38.914164666666665, "bike_id": "934efd38806cf5ec6a9523721aa3f8a4", "is_disabled": 0, "lon": -77.01800383333334, "is_reserved": 0, "fusion_lat": 0.0, "type": "electric_scooter"}, {"fusion_lon": 0.0, "name": "6d803d5a39e0601a9e0333f7147d5e58", "rental_uris": {"android": "https://dc.lft.to/lastmile_qr_scan", "ios": "https://dc.lft.to/lastmile_qr_scan"}, "lat": 38.896782333333334, "bike_id": "6d803d5a39e0601a9e0333f7147d5e58", "is_disabled": 0, "lon": -77.04342916666667, "is_reserved": 0, "fusion_lat": 0.0, "type": "electric_scooter"}, {"fusion_lon": 0.0, "name": "3e475df1b5aff7b8647a389a48426a9d", "rental_uris": {"android": "https://dc.lft.to/lastmile_qr_scan", "ios": "https://dc.lft.to/lastmile_qr_scan"}, "lat": 38.9260085, "bike_id": "3e475df1b5aff7b8647a389a48426a9d", "is_disabled": 0, "lon": -77.0214945, "is_reserved": 0, "fusion_lat": 0.0, "type": "electric_scooter"}, {"fusion_lon": 0.0, "name": "dda42581c134cec23f8b92bee0d35061", "rental_uris": {"android": "https://dc.lft.to/lastmile_qr_scan", "ios": "https://dc.lft.to/lastmile_qr_scan"}, "lat": 38.93559783333333, "bike_id": "dda42581c134cec23f8b92bee0d35061", "is_disabled": 0, "lon": -77.03479683333333, "is_reserved": 0, "fusion_lat": 0.0, "type": "electric_scooter"}, {"fusion_lon": 0.0, "name": "2ad18259e8b1b0ed528ceeec26d94c64", "rental_uris": {"android": "https://dc.lft.to/lastmile_qr_scan", "ios": "https://dc.lft.to/lastmile_qr_scan"}, "lat": 38.9305715, "bike_id": "2ad18259e8b1b0ed528ceeec26d94c64", "is_disabled": 0, "lon": -77.0232685, "is_reserved": 0, "fusion_lat": 0.0, "type": "electric_scooter"}, {"fusion_lon": 0.0, "name": "bbc35f12f6b919690c6ccf7265f08206", "rental_uris": {"android": "https://dc.lft.to/lastmile_qr_scan", "ios": "https://dc.lft.to/lastmile_qr_scan"}, "lat": 38.854388666666665, "bike_id": "bbc35f12f6b919690c6ccf7265f08206", "is_disabled": 0, "lon": -76.97163016666667, "is_reserved": 0, "fusion_lat": 0.0, "type": "electric_scooter"}, {"fusion_lon": 0.0, "name": "dcb2ca8c7cb2f5e8a5b118d601153393", "rental_uris": {"android": "https://dc.lft.to/lastmile_qr_scan", "ios": "https://dc.lft.to/lastmile_qr_scan"}, "lat": 38.87174183333333, "bike_id": "dcb2ca8c7cb2f5e8a5b118d601153393", "is_disabled": 0, "lon": -77.0062455, "is_reserved": 0, "fusion_lat": 0.0, "type": "electric_scooter"}, {"fusion_lon": 0.0, "name": "575a72d63271d3f2147b7ea00ed86849", "rental_uris": {"android": "https://dc.lft.to/lastmile_qr_scan", "ios": "https://dc.lft.to/lastmile_qr_scan"}, "lat": 38.919961666666666, "bike_id": "575a72d63271d3f2147b7ea00ed86849", "is_disabled": 0, "lon": -76.98396, "is_reserved": 0, "fusion_lat": 0.0, "type": "electric_scooter"}, {"fusion_lon": 0.0, "name": "cfbeca9665adaac3ee869b255cb7ae83", "rental_uris": {"android": "https://dc.lft.to/lastmile_qr_scan", "ios": "https://dc.lft.to/lastmile_qr_scan"}, "lat": 38.89663483333333, "bike_id": "cfbeca9665adaac3ee869b255cb7ae83", "is_disabled": 0, "lon": -77.0447865, "is_reserved": 0, "fusion_lat": 0.0, "type": "electric_scooter"}, {"fusion_lon": 0.0, "name": "56e02829801bd4169e1ab710344940cd", "rental_uris": {"android": "https://dc.lft.to/lastmile_qr_scan", "ios": "https://dc.lft.to/lastmile_qr_scan"}, "lat": 38.9090245, "bike_id": "56e02829801bd4169e1ab710344940cd", "is_disabled": 0, "lon": -76.9962055, "is_reserved": 0, "fusion_lat": 0.0, "type": "electric_scooter"}, {"fusion_lon": 0.0, "name": "ba1f07178b469a43f540849ca3181654", "rental_uris": {"android": "https://dc.lft.to/lastmile_qr_scan", "ios": "https://dc.lft.to/lastmile_qr_scan"}, "lat": 38.9125755, "bike_id": "ba1f07178b469a43f540849ca3181654", "is_disabled": 0, "lon": -77.03865016666667, "is_reserved": 0, "fusion_lat": 0.0, "type": "electric_scooter"}, {"fusion_lon": 0.0, "name": "03c791d7f40b80ee6e3b9c999fd430e1", "rental_uris": {"android": "https://dc.lft.to/lastmile_qr_scan", "ios": "https://dc.lft.to/lastmile_qr_scan"}, "lat": 38.90467066666667, "bike_id": "03c791d7f40b80ee6e3b9c999fd430e1", "is_disabled": 0, "lon": -77.02956316666666, "is_reserved": 0, "fusion_lat": 0.0, "type": "electric_scooter"}, {"fusion_lon": 0.0, "name": "fbfe5535020890b2f5d741f1979673ce", "rental_uris": {"android": "https://dc.lft.to/lastmile_qr_scan", "ios": "https://dc.lft.to/lastmile_qr_scan"}, "lat": 38.90670766666667, "bike_id": "fbfe5535020890b2f5d741f1979673ce", "is_disabled": 0, "lon": -77.07125516666666, "is_reserved": 0, "fusion_lat": 0.0, "type": "electric_scooter"}, {"fusion_lon": 0.0, "name": "ccaeff1573343127d0e9ff0710ee0019", "rental_uris": {"android": "https://dc.lft.to/lastmile_qr_scan", "ios": "https://dc.lft.to/lastmile_qr_scan"}, "lat": 38.933347166666664, "bike_id": "ccaeff1573343127d0e9ff0710ee0019", "is_disabled": 0, "lon": -77.02856583333333, "is_reserved": 0, "fusion_lat": 0.0, "type": "electric_scooter"}, {"fusion_lon": 0.0, "name": "7bbd728be16fa15c01e8f50e5ea09bf7", "rental_uris": {"android": "https://dc.lft.to/lastmile_qr_scan", "ios": "https://dc.lft.to/lastmile_qr_scan"}, "lat": 38.87180766666667, "bike_id": "7bbd728be16fa15c01e8f50e5ea09bf7", "is_disabled": 0, "lon": -77.01220616666667, "is_reserved": 0, "fusion_lat": 0.0, "type": "electric_scooter"}, {"fusion_lon": 0.0, "name": "733a54697569cbd72eb5bef5c10d06fe", "rental_uris": {"android": "https://dc.lft.to/lastmile_qr_scan", "ios": "https://dc.lft.to/lastmile_qr_scan"}, "lat": 38.901660666666665, "bike_id": "733a54697569cbd72eb5bef5c10d06fe", "is_disabled": 0, "lon": -76.976918, "is_reserved": 0, "fusion_lat": 0.0, "type": "electric_bike"}, {"fusion_lon": 0.0, "name": "ff2c353917aa9a8b16899d7160889202", "rental_uris": {"android": "https://dc.lft.to/lastmile_qr_scan", "ios": "https://dc.lft.to/lastmile_qr_scan"}, "lat": 38.901176166666666, "bike_id": "ff2c353917aa9a8b16899d7160889202", "is_disabled": 0, "lon": -77.049951, "is_reserved": 0, "fusion_lat": 0.0, "type": "electric_scooter"}, {"fusion_lon": 0.0, "name": "2c27bf6fd69dcbcc91aae9e161c9d96e", "rental_uris": {"android": "https://dc.lft.to/lastmile_qr_scan", "ios": "https://dc.lft.to/lastmile_qr_scan"}, "lat": 38.894973, "bike_id": "2c27bf6fd69dcbcc91aae9e161c9d96e", "is_disabled": 0, "lon": -77.00210583333333, "is_reserved": 0, "fusion_lat": 0.0, "type": "electric_scooter"}, {"fusion_lon": 0.0, "name": "9697cf46d3ad7f9a8c60a16b3e675530", "rental_uris": {"android": "https://dc.lft.to/lastmile_qr_scan", "ios": "https://dc.lft.to/lastmile_qr_scan"}, "lat": 38.9001325, "bike_id": "9697cf46d3ad7f9a8c60a16b3e675530", "is_disabled": 0, "lon": -76.930249, "is_reserved": 0, "fusion_lat": 0.0, "type": "electric_scooter"}, {"fusion_lon": 0.0, "name": "8893f9e9d9a7653863592941d2a1c385", "rental_uris": {"android": "https://dc.lft.to/lastmile_qr_scan", "ios": "https://dc.lft.to/lastmile_qr_scan"}, "lat": 38.900267, "bike_id": "8893f9e9d9a7653863592941d2a1c385", "is_disabled": 0, "lon": -77.00183683333333, "is_reserved": 0, "fusion_lat": 0.0, "type": "electric_scooter"}, {"fusion_lon": 0.0, "name": "e9adb5233acf5d1db209c00d6c2648fc", "rental_uris": {"android": "https://dc.lft.to/lastmile_qr_scan", "ios": "https://dc.lft.to/lastmile_qr_scan"}, "lat": 38.8930635, "bike_id": "e9adb5233acf5d1db209c00d6c2648fc", "is_disabled": 0, "lon": -76.9298655, "is_reserved": 0, "fusion_lat": 0.0, "type": "electric_scooter"}, {"fusion_lon": 0.0, "name": "fce950c9632ab297acc3caf4d06abef5", "rental_uris": {"android": "https://dc.lft.to/lastmile_qr_scan", "ios": "https://dc.lft.to/lastmile_qr_scan"}, "lat": 38.888207333333334, "bike_id": "fce950c9632ab297acc3caf4d06abef5", "is_disabled": 0, "lon": -76.9770735, "is_reserved": 0, "fusion_lat": 0.0, "type": "electric_scooter"}, {"fusion_lon": 0.0, "name": "827151f8e1038489abbc1cd9501c53a3", "rental_uris": {"android": "https://dc.lft.to/lastmile_qr_scan", "ios": "https://dc.lft.to/lastmile_qr_scan"}, "lat": 38.928827, "bike_id": "827151f8e1038489abbc1cd9501c53a3", "is_disabled": 0, "lon": -77.0260435, "is_reserved": 0, "fusion_lat": 0.0, "type": "electric_scooter"}, {"fusion_lon": 0.0, "name": "2b294d6382b2cd951ec50ee61480f59a", "rental_uris": {"android": "https://dc.lft.to/lastmile_qr_scan", "ios": "https://dc.lft.to/lastmile_qr_scan"}, "lat": 38.91627283333333, "bike_id": "2b294d6382b2cd951ec50ee61480f59a", "is_disabled": 0, "lon": -77.00190016666667, "is_reserved": 0, "fusion_lat": 0.0, "type": "electric_scooter"}, {"fusion_lon": 0.0, "name": "68aa0bb5766bb5ea342fcd5f4ee71a09", "rental_uris": {"android": "https://dc.lft.to/lastmile_qr_scan", "ios": "https://dc.lft.to/lastmile_qr_scan"}, "lat": 38.9264165, "bike_id": "68aa0bb5766bb5ea342fcd5f4ee71a09", "is_disabled": 0, "lon": -77.040565, "is_reserved": 0, "fusion_lat": 0.0, "type": "electric_scooter"}, {"fusion_lon": 0.0, "name": "0bd4e8b612bbd1fd734f6e1417c15580", "rental_uris": {"android": "https://dc.lft.to/lastmile_qr_scan", "ios": "https://dc.lft.to/lastmile_qr_scan"}, "lat": 38.922386333333336, "bike_id": "0bd4e8b612bbd1fd734f6e1417c15580", "is_disabled": 0, "lon": -77.04366416666667, "is_reserved": 0, "fusion_lat": 0.0, "type": "electric_scooter"}, {"fusion_lon": 0.0, "name": "5628bcfb35a2810c75ecbb835ee0dc46", "rental_uris": {"android": "https://dc.lft.to/lastmile_qr_scan", "ios": "https://dc.lft.to/lastmile_qr_scan"}, "lat": 38.876047166666666, "bike_id": "5628bcfb35a2810c75ecbb835ee0dc46", "is_disabled": 0, "lon": -77.00585883333333, "is_reserved": 0, "fusion_lat": 0.0, "type": "electric_scooter"}, {"fusion_lon": 0.0, "name": "3d711c49a2e9c1e098905b48a5a27ed2", "rental_uris": {"android": "https://dc.lft.to/lastmile_qr_scan", "ios": "https://dc.lft.to/lastmile_qr_scan"}, "lat": 38.898880166666665, "bike_id": "3d711c49a2e9c1e098905b48a5a27ed2", "is_disabled": 0, "lon": -76.98842416666666, "is_reserved": 0, "fusion_lat": 0.0, "type": "electric_scooter"}, {"fusion_lon": 0.0, "name": "3ae6e5930d2f0489eb7391d9069754af", "rental_uris": {"android": "https://dc.lft.to/lastmile_qr_scan", "ios": "https://dc.lft.to/lastmile_qr_scan"}, "lat": 38.926717, "bike_id": "3ae6e5930d2f0489eb7391d9069754af", "is_disabled": 0, "lon": -77.03028466666666, "is_reserved": 0, "fusion_lat": 0.0, "type": "electric_scooter"}, {"fusion_lon": 0.0, "name": "f0cd3e5b19578e960b3ee68677470737", "rental_uris": {"android": "https://dc.lft.to/lastmile_qr_scan", "ios": "https://dc.lft.to/lastmile_qr_scan"}, "lat": 38.878864666666665, "bike_id": "f0cd3e5b19578e960b3ee68677470737", "is_disabled": 0, "lon": -77.02198516666667, "is_reserved": 0, "fusion_lat": 0.0, "type": "electric_scooter"}, {"fusion_lon": 0.0, "name": "d83b28c685c6e764a34d7c673aa61331", "rental_uris": {"android": "https://dc.lft.to/lastmile_qr_scan", "ios": "https://dc.lft.to/lastmile_qr_scan"}, "lat": 38.91703533333333, "bike_id": "d83b28c685c6e764a34d7c673aa61331", "is_disabled": 0, "lon": -77.03121083333333, "is_reserved": 0, "fusion_lat": 0.0, "type": "electric_scooter"}, {"fusion_lon": 0.0, "name": "f2c70712d90e9f3438ecb8c040240750", "rental_uris": {"android": "https://dc.lft.to/lastmile_qr_scan", "ios": "https://dc.lft.to/lastmile_qr_scan"}, "lat": 38.92606883333333, "bike_id": "f2c70712d90e9f3438ecb8c040240750", "is_disabled": 0, "lon": -77.02161616666666, "is_reserved": 0, "fusion_lat": 0.0, "type": "electric_scooter"}, {"fusion_lon": 0.0, "name": "f9c099bea9a56b78c966d794ebe5ca4c", "rental_uris": {"android": "https://dc.lft.to/lastmile_qr_scan", "ios": "https://dc.lft.to/lastmile_qr_scan"}, "lat": 38.90510033333333, "bike_id": "f9c099bea9a56b78c966d794ebe5ca4c", "is_disabled": 0, "lon": -77.002106, "is_reserved": 0, "fusion_lat": 0.0, "type": "electric_scooter"}, {"fusion_lon": 0.0, "name": "2ebc51d5e70f1c2743026c3d97b87253", "rental_uris": {"android": "https://dc.lft.to/lastmile_qr_scan", "ios": "https://dc.lft.to/lastmile_qr_scan"}, "lat": 38.89227983333333, "bike_id": "2ebc51d5e70f1c2743026c3d97b87253", "is_disabled": 0, "lon": -77.01724316666666, "is_reserved": 0, "fusion_lat": 0.0, "type": "electric_scooter"}, {"fusion_lon": 0.0, "name": "56f6951d464344eaebd4d5fb012a1199", "rental_uris": {"android": "https://dc.lft.to/lastmile_qr_scan", "ios": "https://dc.lft.to/lastmile_qr_scan"}, "lat": 38.926005333333336, "bike_id": "56f6951d464344eaebd4d5fb012a1199", "is_disabled": 0, "lon": -77.0215465, "is_reserved": 0, "fusion_lat": 0.0, "type": "electric_scooter"}, {"fusion_lon": 0.0, "name": "f680f7d28e216c2e8c83ef9dc2fef457", "rental_uris": {"android": "https://dc.lft.to/lastmile_qr_scan", "ios": "https://dc.lft.to/lastmile_qr_scan"}, "lat": 38.90885083333333, "bike_id": "f680f7d28e216c2e8c83ef9dc2fef457", "is_disabled": 0, "lon": -76.9912345, "is_reserved": 0, "fusion_lat": 0.0, "type": "electric_scooter"}, {"fusion_lon": 0.0, "name": "4f9c86eebd280567968f5ae5de34a472", "rental_uris": {"android": "https://dc.lft.to/lastmile_qr_scan", "ios": "https://dc.lft.to/lastmile_qr_scan"}, "lat": 38.931199666666664, "bike_id": "4f9c86eebd280567968f5ae5de34a472", "is_disabled": 0, "lon": -77.020701, "is_reserved": 0, "fusion_lat": 0.0, "type": "electric_scooter"}, {"fusion_lon": 0.0, "name": "be1f94103ad9cc334855313b68e816c8", "rental_uris": {"android": "https://dc.lft.to/lastmile_qr_scan", "ios": "https://dc.lft.to/lastmile_qr_scan"}, "lat": 38.793337333333334, "bike_id": "be1f94103ad9cc334855313b68e816c8", "is_disabled": 0, "lon": -77.00054083333333, "is_reserved": 0, "fusion_lat": 0.0, "type": "electric_bike"}, {"fusion_lon": 0.0, "name": "4836ce266ec7bcf202e93f8c1d174315", "rental_uris": {"android": "https://dc.lft.to/lastmile_qr_scan", "ios": "https://dc.lft.to/lastmile_qr_scan"}, "lat": 38.90638, "bike_id": "4836ce266ec7bcf202e93f8c1d174315", "is_disabled": 0, "lon": -77.05911366666666, "is_reserved": 0, "fusion_lat": 0.0, "type": "electric_scooter"}, {"fusion_lon": 0.0, "name": "a2e5285818d5a5e35d2f4ad035eaaa59", "rental_uris": {"android": "https://dc.lft.to/lastmile_qr_scan", "ios": "https://dc.lft.to/lastmile_qr_scan"}, "lat": 38.918677, "bike_id": "a2e5285818d5a5e35d2f4ad035eaaa59", "is_disabled": 0, "lon": -77.04843116666666, "is_reserved": 0, "fusion_lat": 0.0, "type": "electric_scooter"}, {"fusion_lon": 0.0, "name": "d3dbba53ab2833e709b3e909fda2c137", "rental_uris": {"android": "https://dc.lft.to/lastmile_qr_scan", "ios": "https://dc.lft.to/lastmile_qr_scan"}, "lat": 38.8886825, "bike_id": "d3dbba53ab2833e709b3e909fda2c137", "is_disabled": 0, "lon": -77.04001066666666, "is_reserved": 0, "fusion_lat": 0.0, "type": "electric_scooter"}, {"fusion_lon": 0.0, "name": "a518a2f60c409cbf60e1b96cec2fe5bd", "rental_uris": {"android": "https://dc.lft.to/lastmile_qr_scan", "ios": "https://dc.lft.to/lastmile_qr_scan"}, "lat": 38.904173166666666, "bike_id": "a518a2f60c409cbf60e1b96cec2fe5bd", "is_disabled": 0, "lon": -77.053325, "is_reserved": 0, "fusion_lat": 0.0, "type": "electric_scooter"}, {"fusion_lon": 0.0, "name": "a6e47a106bd0e20a352005f06ea98117", "rental_uris": {"android": "https://dc.lft.to/lastmile_qr_scan", "ios": "https://dc.lft.to/lastmile_qr_scan"}, "lat": 38.91177066666667, "bike_id": "a6e47a106bd0e20a352005f06ea98117", "is_disabled": 0, "lon": -77.03848216666667, "is_reserved": 0, "fusion_lat": 0.0, "type": "electric_scooter"}, {"fusion_lon": 0.0, "name": "09c61d4e9b401a1bf06caadcf7a96ad9", "rental_uris": {"android": "https://dc.lft.to/lastmile_qr_scan", "ios": "https://dc.lft.to/lastmile_qr_scan"}, "lat": 38.92364216666667, "bike_id": "09c61d4e9b401a1bf06caadcf7a96ad9", "is_disabled": 0, "lon": -77.05030183333334, "is_reserved": 0, "fusion_lat": 0.0, "type": "electric_scooter"}, {"fusion_lon": 0.0, "name": "ad53268b04b1e953c96f8acf7ab74a4e", "rental_uris": {"android": "https://dc.lft.to/lastmile_qr_scan", "ios": "https://dc.lft.to/lastmile_qr_scan"}, "lat": 38.90337683333333, "bike_id": "ad53268b04b1e953c96f8acf7ab74a4e", "is_disabled": 0, "lon": -76.93372366666667, "is_reserved": 0, "fusion_lat": 0.0, "type": "electric_bike"}, {"fusion_lon": 0.0, "name": "c982d02508776cf47e710a5618c76db4", "rental_uris": {"android": "https://dc.lft.to/lastmile_qr_scan", "ios": "https://dc.lft.to/lastmile_qr_scan"}, "lat": 38.915352666666664, "bike_id": "c982d02508776cf47e710a5618c76db4", "is_disabled": 0, "lon": -77.04473533333334, "is_reserved": 0, "fusion_lat": 0.0, "type": "electric_scooter"}, {"fusion_lon": 0.0, "name": "cbffac7ea46ed8c56e803e0072b34e82", "rental_uris": {"android": "https://dc.lft.to/lastmile_qr_scan", "ios": "https://dc.lft.to/lastmile_qr_scan"}, "lat": 38.9085915, "bike_id": "cbffac7ea46ed8c56e803e0072b34e82", "is_disabled": 0, "lon": -77.0226795, "is_reserved": 0, "fusion_lat": 0.0, "type": "electric_scooter"}, {"fusion_lon": 0.0, "name": "ab3a81d861b8c9a4e6442d085763d35e", "rental_uris": {"android": "https://dc.lft.to/lastmile_qr_scan", "ios": "https://dc.lft.to/lastmile_qr_scan"}, "lat": 38.91709633333333, "bike_id": "ab3a81d861b8c9a4e6442d085763d35e", "is_disabled": 0, "lon": -77.03866966666666, "is_reserved": 0, "fusion_lat": 0.0, "type": "electric_scooter"}, {"fusion_lon": 0.0, "name": "f7c829498ba7f3013c09b8d4c0733f62", "rental_uris": {"android": "https://dc.lft.to/lastmile_qr_scan", "ios": "https://dc.lft.to/lastmile_qr_scan"}, "lat": 38.9148055, "bike_id": "f7c829498ba7f3013c09b8d4c0733f62", "is_disabled": 0, "lon": -77.01890516666667, "is_reserved": 0, "fusion_lat": 0.0, "type": "electric_scooter"}, {"fusion_lon": 0.0, "name": "950301236dba3cde0e0e329c49169c50", "rental_uris": {"android": "https://dc.lft.to/lastmile_qr_scan", "ios": "https://dc.lft.to/lastmile_qr_scan"}, "lat": 38.934039166666665, "bike_id": "950301236dba3cde0e0e329c49169c50", "is_disabled": 0, "lon": -77.038199, "is_reserved": 0, "fusion_lat": 0.0, "type": "electric_scooter"}, {"fusion_lon": 0.0, "name": "551a991e78ddcf17331624be1c345470", "rental_uris": {"android": "https://dc.lft.to/lastmile_qr_scan", "ios": "https://dc.lft.to/lastmile_qr_scan"}, "lat": 38.90229583333333, "bike_id": "551a991e78ddcf17331624be1c345470", "is_disabled": 0, "lon": -77.0324905, "is_reserved": 0, "fusion_lat": 0.0, "type": "electric_scooter"}, {"fusion_lon": 0.0, "name": "3449a6e3b5e8181edf30878de6f09ae3", "rental_uris": {"android": "https://dc.lft.to/lastmile_qr_scan", "ios": "https://dc.lft.to/lastmile_qr_scan"}, "lat": 38.9602905, "bike_id": "3449a6e3b5e8181edf30878de6f09ae3", "is_disabled": 0, "lon": -77.03324616666667, "is_reserved": 0, "fusion_lat": 0.0, "type": "electric_scooter"}, {"fusion_lon": 0.0, "name": "a9ea61073c046b5f05f3b0291e6b67b0", "rental_uris": {"android": "https://dc.lft.to/lastmile_qr_scan", "ios": "https://dc.lft.to/lastmile_qr_scan"}, "lat": 38.876658166666665, "bike_id": "a9ea61073c046b5f05f3b0291e6b67b0", "is_disabled": 0, "lon": -77.01170533333334, "is_reserved": 0, "fusion_lat": 0.0, "type": "electric_scooter"}, {"fusion_lon": 0.0, "name": "cccf44f9be73dffe552b8090eaf85a67", "rental_uris": {"android": "https://dc.lft.to/lastmile_qr_scan", "ios": "https://dc.lft.to/lastmile_qr_scan"}, "lat": 38.91060066666667, "bike_id": "cccf44f9be73dffe552b8090eaf85a67", "is_disabled": 0, "lon": -77.00917883333334, "is_reserved": 0, "fusion_lat": 0.0, "type": "electric_scooter"}, {"fusion_lon": 0.0, "name": "533e824d08e0450a19b7d300a294387e", "rental_uris": {"android": "https://dc.lft.to/lastmile_qr_scan", "ios": "https://dc.lft.to/lastmile_qr_scan"}, "lat": 38.930074, "bike_id": "533e824d08e0450a19b7d300a294387e", "is_disabled": 0, "lon": -77.06191516666667, "is_reserved": 0, "fusion_lat": 0.0, "type": "electric_scooter"}, {"fusion_lon": 0.0, "name": "a2cb9c41f47920ea628e88f0f19b002a", "rental_uris": {"android": "https://dc.lft.to/lastmile_qr_scan", "ios": "https://dc.lft.to/lastmile_qr_scan"}, "lat": 38.88141483333333, "bike_id": "a2cb9c41f47920ea628e88f0f19b002a", "is_disabled": 0, "lon": -77.01297116666667, "is_reserved": 0, "fusion_lat": 0.0, "type": "electric_scooter"}, {"fusion_lon": 0.0, "name": "0638c88f3a7d67a21e2a3ead907b3eb0", "rental_uris": {"android": "https://dc.lft.to/lastmile_qr_scan", "ios": "https://dc.lft.to/lastmile_qr_scan"}, "lat": 38.89745033333333, "bike_id": "0638c88f3a7d67a21e2a3ead907b3eb0", "is_disabled": 0, "lon": -76.97690483333334, "is_reserved": 0, "fusion_lat": 0.0, "type": "electric_scooter"}, {"fusion_lon": 0.0, "name": "9f0311113611e3a3de31bd9269fbaf5a", "rental_uris": {"android": "https://dc.lft.to/lastmile_qr_scan", "ios": "https://dc.lft.to/lastmile_qr_scan"}, "lat": 38.901520166666664, "bike_id": "9f0311113611e3a3de31bd9269fbaf5a", "is_disabled": 0, "lon": -76.97428183333334, "is_reserved": 0, "fusion_lat": 0.0, "type": "electric_scooter"}, {"fusion_lon": 0.0, "name": "010c4f28a703e418521179bbaddd091a", "rental_uris": {"android": "https://dc.lft.to/lastmile_qr_scan", "ios": "https://dc.lft.to/lastmile_qr_scan"}, "lat": 38.958911666666665, "bike_id": "010c4f28a703e418521179bbaddd091a", "is_disabled": 0, "lon": -76.970504, "is_reserved": 0, "fusion_lat": 0.0, "type": "electric_bike"}, {"fusion_lon": 0.0, "name": "2069122a403b42f52b4b474de572007e", "rental_uris": {"android": "https://dc.lft.to/lastmile_qr_scan", "ios": "https://dc.lft.to/lastmile_qr_scan"}, "lat": 38.88402416666667, "bike_id": "2069122a403b42f52b4b474de572007e", "is_disabled": 0, "lon": -76.9962075, "is_reserved": 0, "fusion_lat": 0.0, "type": "electric_scooter"}, {"fusion_lon": 0.0, "name": "5d3eee263886728263d23aca8fc9372c", "rental_uris": {"android": "https://dc.lft.to/lastmile_qr_scan", "ios": "https://dc.lft.to/lastmile_qr_scan"}, "lat": 38.897178833333335, "bike_id": "5d3eee263886728263d23aca8fc9372c", "is_disabled": 0, "lon": -77.03191933333333, "is_reserved": 0, "fusion_lat": 0.0, "type": "electric_scooter"}, {"fusion_lon": 0.0, "name": "0e5cb212f3638ffe81a70608dcc05a05", "rental_uris": {"android": "https://dc.lft.to/lastmile_qr_scan", "ios": "https://dc.lft.to/lastmile_qr_scan"}, "lat": 38.92874783333333, "bike_id": "0e5cb212f3638ffe81a70608dcc05a05", "is_disabled": 0, "lon": -77.03365933333333, "is_reserved": 0, "fusion_lat": 0.0, "type": "electric_scooter"}, {"fusion_lon": 0.0, "name": "13b598a2c18a34257cf7ae2d236a0cd5", "rental_uris": {"android": "https://dc.lft.to/lastmile_qr_scan", "ios": "https://dc.lft.to/lastmile_qr_scan"}, "lat": 38.900770666666666, "bike_id": "13b598a2c18a34257cf7ae2d236a0cd5", "is_disabled": 0, "lon": -76.988394, "is_reserved": 0, "fusion_lat": 0.0, "type": "electric_scooter"}, {"fusion_lon": 0.0, "name": "16409c4bf6e0498fe6fea75eeac724ba", "rental_uris": {"android": "https://dc.lft.to/lastmile_qr_scan", "ios": "https://dc.lft.to/lastmile_qr_scan"}, "lat": 38.8940705, "bike_id": "16409c4bf6e0498fe6fea75eeac724ba", "is_disabled": 0, "lon": -76.97890233333334, "is_reserved": 0, "fusion_lat": 0.0, "type": "electric_bike"}, {"fusion_lon": 0.0, "name": "267b7dd395cb5d1e99f1a4ce420641c3", "rental_uris": {"android": "https://dc.lft.to/lastmile_qr_scan", "ios": "https://dc.lft.to/lastmile_qr_scan"}, "lat": 38.8762795, "bike_id": "267b7dd395cb5d1e99f1a4ce420641c3", "is_disabled": 0, "lon": -77.01606383333333, "is_reserved": 0, "fusion_lat": 0.0, "type": "electric_scooter"}, {"fusion_lon": 0.0, "name": "f1a804fc70d01aa466defd11a46d6381", "rental_uris": {"android": "https://dc.lft.to/lastmile_qr_scan", "ios": "https://dc.lft.to/lastmile_qr_scan"}, "lat": 38.909044333333334, "bike_id": "f1a804fc70d01aa466defd11a46d6381", "is_disabled": 0, "lon": -77.07268083333334, "is_reserved": 0, "fusion_lat": 0.0, "type": "electric_scooter"}, {"fusion_lon": 0.0, "name": "a5e06e17279f2c0ed35f58076deede74", "rental_uris": {"android": "https://dc.lft.to/lastmile_qr_scan", "ios": "https://dc.lft.to/lastmile_qr_scan"}, "lat": 38.93100183333333, "bike_id": "a5e06e17279f2c0ed35f58076deede74", "is_disabled": 0, "lon": -77.02477133333333, "is_reserved": 0, "fusion_lat": 0.0, "type": "electric_scooter"}, {"fusion_lon": 0.0, "name": "40044bea652a388d69d1973823625ccd", "rental_uris": {"android": "https://dc.lft.to/lastmile_qr_scan", "ios": "https://dc.lft.to/lastmile_qr_scan"}, "lat": 38.901266666666665, "bike_id": "40044bea652a388d69d1973823625ccd", "is_disabled": 0, "lon": -77.0455945, "is_reserved": 0, "fusion_lat": 0.0, "type": "electric_scooter"}, {"fusion_lon": 0.0, "name": "13478b530726c58a1970a6c08686e695", "rental_uris": {"android": "https://dc.lft.to/lastmile_qr_scan", "ios": "https://dc.lft.to/lastmile_qr_scan"}, "lat": 38.90994383333334, "bike_id": "13478b530726c58a1970a6c08686e695", "is_disabled": 0, "lon": -77.031883, "is_reserved": 0, "fusion_lat": 0.0, "type": "electric_scooter"}, {"fusion_lon": 0.0, "name": "da2523a3d41091844d3f05fc40c48223", "rental_uris": {"android": "https://dc.lft.to/lastmile_qr_scan", "ios": "https://dc.lft.to/lastmile_qr_scan"}, "lat": 38.90551633333333, "bike_id": "da2523a3d41091844d3f05fc40c48223", "is_disabled": 0, "lon": -77.0260245, "is_reserved": 0, "fusion_lat": 0.0, "type": "electric_scooter"}, {"fusion_lon": 0.0, "name": "b150c85255c22e669a7a6d1a77e6acef", "rental_uris": {"android": "https://dc.lft.to/lastmile_qr_scan", "ios": "https://dc.lft.to/lastmile_qr_scan"}, "lat": 38.892385166666664, "bike_id": "b150c85255c22e669a7a6d1a77e6acef", "is_disabled": 0, "lon": -77.033728, "is_reserved": 0, "fusion_lat": 0.0, "type": "electric_scooter"}, {"fusion_lon": 0.0, "name": "1c0761a7f2999356e647b89e086c3bae", "rental_uris": {"android": "https://dc.lft.to/lastmile_qr_scan", "ios": "https://dc.lft.to/lastmile_qr_scan"}, "lat": 38.91502033333333, "bike_id": "1c0761a7f2999356e647b89e086c3bae", "is_disabled": 0, "lon": -77.03207966666666, "is_reserved": 0, "fusion_lat": 0.0, "type": "electric_scooter"}, {"fusion_lon": 0.0, "name": "661ce77887a5ec5649970c2cbeb4f646", "rental_uris": {"android": "https://dc.lft.to/lastmile_qr_scan", "ios": "https://dc.lft.to/lastmile_qr_scan"}, "lat": 38.91114016666667, "bike_id": "661ce77887a5ec5649970c2cbeb4f646", "is_disabled": 0, "lon": -77.03834133333334, "is_reserved": 0, "fusion_lat": 0.0, "type": "electric_scooter"}, {"fusion_lon": 0.0, "name": "d46db12c2addc9a33726506ec2ed2ee8", "rental_uris": {"android": "https://dc.lft.to/lastmile_qr_scan", "ios": "https://dc.lft.to/lastmile_qr_scan"}, "lat": 38.914024833333336, "bike_id": "d46db12c2addc9a33726506ec2ed2ee8", "is_disabled": 0, "lon": -77.022077, "is_reserved": 0, "fusion_lat": 0.0, "type": "electric_scooter"}, {"fusion_lon": 0.0, "name": "7cb1f501983359458588a960ff818217", "rental_uris": {"android": "https://dc.lft.to/lastmile_qr_scan", "ios": "https://dc.lft.to/lastmile_qr_scan"}, "lat": 38.896863833333335, "bike_id": "7cb1f501983359458588a960ff818217", "is_disabled": 0, "lon": -77.04326266666666, "is_reserved": 0, "fusion_lat": 0.0, "type": "electric_scooter"}, {"fusion_lon": 0.0, "name": "678b7e5b8aac73890b4780330cb9fec3", "rental_uris": {"android": "https://dc.lft.to/lastmile_qr_scan", "ios": "https://dc.lft.to/lastmile_qr_scan"}, "lat": 38.905031, "bike_id": "678b7e5b8aac73890b4780330cb9fec3", "is_disabled": 0, "lon": -77.02944466666666, "is_reserved": 0, "fusion_lat": 0.0, "type": "electric_scooter"}, {"fusion_lon": 0.0, "name": "ae862525c4db0565ca25f7ea46fd6892", "rental_uris": {"android": "https://dc.lft.to/lastmile_qr_scan", "ios": "https://dc.lft.to/lastmile_qr_scan"}, "lat": 38.88274083333334, "bike_id": "ae862525c4db0565ca25f7ea46fd6892", "is_disabled": 0, "lon": -76.93234683333333, "is_reserved": 0, "fusion_lat": 0.0, "type": "electric_bike"}, {"fusion_lon": 0.0, "name": "8c58f70f5e25a4eab3b6dc48230ac471", "rental_uris": {"android": "https://dc.lft.to/lastmile_qr_scan", "ios": "https://dc.lft.to/lastmile_qr_scan"}, "lat": 38.9156485, "bike_id": "8c58f70f5e25a4eab3b6dc48230ac471", "is_disabled": 0, "lon": -77.01971283333333, "is_reserved": 0, "fusion_lat": 0.0, "type": "electric_scooter"}, {"fusion_lon": 0.0, "name": "4e235f513735e35467cba7f2146efa6a", "rental_uris": {"android": "https://dc.lft.to/lastmile_qr_scan", "ios": "https://dc.lft.to/lastmile_qr_scan"}, "lat": 38.920930166666665, "bike_id": "4e235f513735e35467cba7f2146efa6a", "is_disabled": 0, "lon": -77.00440933333333, "is_reserved": 0, "fusion_lat": 0.0, "type": "electric_scooter"}, {"fusion_lon": 0.0, "name": "cd9c7a510cd5dd5079a70fe49a2115b5", "rental_uris": {"android": "https://dc.lft.to/lastmile_qr_scan", "ios": "https://dc.lft.to/lastmile_qr_scan"}, "lat": 38.90958216666667, "bike_id": "cd9c7a510cd5dd5079a70fe49a2115b5", "is_disabled": 0, "lon": -77.07310233333334, "is_reserved": 0, "fusion_lat": 0.0, "type": "electric_scooter"}, {"fusion_lon": 0.0, "name": "aa44ff73176e266606f0b8c6875e30ca", "rental_uris": {"android": "https://dc.lft.to/lastmile_qr_scan", "ios": "https://dc.lft.to/lastmile_qr_scan"}, "lat": 38.8947735, "bike_id": "aa44ff73176e266606f0b8c6875e30ca", "is_disabled": 0, "lon": -77.02029133333333, "is_reserved": 0, "fusion_lat": 0.0, "type": "electric_scooter"}, {"fusion_lon": 0.0, "name": "2f8c699c5e1964c2274e58f698143b12", "rental_uris": {"android": "https://dc.lft.to/lastmile_qr_scan", "ios": "https://dc.lft.to/lastmile_qr_scan"}, "lat": 38.916971833333335, "bike_id": "2f8c699c5e1964c2274e58f698143b12", "is_disabled": 0, "lon": -77.034673, "is_reserved": 0, "fusion_lat": 0.0, "type": "electric_scooter"}, {"fusion_lon": 0.0, "name": "ae0d5782b99226cdd68160fa9f8c1f22", "rental_uris": {"android": "https://dc.lft.to/lastmile_qr_scan", "ios": "https://dc.lft.to/lastmile_qr_scan"}, "lat": 38.922519666666666, "bike_id": "ae0d5782b99226cdd68160fa9f8c1f22", "is_disabled": 0, "lon": -77.036596, "is_reserved": 0, "fusion_lat": 0.0, "type": "electric_scooter"}, {"fusion_lon": 0.0, "name": "0bc471dd6183a2103ea3be34ef0c0a45", "rental_uris": {"android": "https://dc.lft.to/lastmile_qr_scan", "ios": "https://dc.lft.to/lastmile_qr_scan"}, "lat": 38.9305905, "bike_id": "0bc471dd6183a2103ea3be34ef0c0a45", "is_disabled": 0, "lon": -77.02786733333333, "is_reserved": 0, "fusion_lat": 0.0, "type": "electric_scooter"}, {"fusion_lon": 0.0, "name": "e502482f6726886971b1d1762b7f42d7", "rental_uris": {"android": "https://dc.lft.to/lastmile_qr_scan", "ios": "https://dc.lft.to/lastmile_qr_scan"}, "lat": 38.909451833333335, "bike_id": "e502482f6726886971b1d1762b7f42d7", "is_disabled": 0, "lon": -77.04418483333333, "is_reserved": 0, "fusion_lat": 0.0, "type": "electric_scooter"}, {"fusion_lon": 0.0, "name": "3384d3a4b695754d29b07a36e9d1118a", "rental_uris": {"android": "https://dc.lft.to/lastmile_qr_scan", "ios": "https://dc.lft.to/lastmile_qr_scan"}, "lat": 38.907217333333335, "bike_id": "3384d3a4b695754d29b07a36e9d1118a", "is_disabled": 0, "lon": -77.04081366666666, "is_reserved": 0, "fusion_lat": 0.0, "type": "electric_scooter"}, {"fusion_lon": 0.0, "name": "42f2783e900b105819cd514212dd8351", "rental_uris": {"android": "https://dc.lft.to/lastmile_qr_scan", "ios": "https://dc.lft.to/lastmile_qr_scan"}, "lat": 38.911772666666664, "bike_id": "42f2783e900b105819cd514212dd8351", "is_disabled": 0, "lon": -77.0320875, "is_reserved": 0, "fusion_lat": 0.0, "type": "electric_scooter"}, {"fusion_lon": 0.0, "name": "19b67f36726be8b39b87280622caa157", "rental_uris": {"android": "https://dc.lft.to/lastmile_qr_scan", "ios": "https://dc.lft.to/lastmile_qr_scan"}, "lat": 38.929182833333336, "bike_id": "19b67f36726be8b39b87280622caa157", "is_disabled": 0, "lon": -77.032225, "is_reserved": 0, "fusion_lat": 0.0, "type": "electric_scooter"}, {"fusion_lon": 0.0, "name": "1a2cb2168316afe61b8311a1769a979b", "rental_uris": {"android": "https://dc.lft.to/lastmile_qr_scan", "ios": "https://dc.lft.to/lastmile_qr_scan"}, "lat": 38.909712166666665, "bike_id": "1a2cb2168316afe61b8311a1769a979b", "is_disabled": 0, "lon": -77.03214166666666, "is_reserved": 0, "fusion_lat": 0.0, "type": "electric_scooter"}, {"fusion_lon": 0.0, "name": "0071d62b6ae5c3a251f6dcf694860ca9", "rental_uris": {"android": "https://dc.lft.to/lastmile_qr_scan", "ios": "https://dc.lft.to/lastmile_qr_scan"}, "lat": 38.89557533333333, "bike_id": "0071d62b6ae5c3a251f6dcf694860ca9", "is_disabled": 0, "lon": -77.011006, "is_reserved": 0, "fusion_lat": 0.0, "type": "electric_scooter"}, {"fusion_lon": 0.0, "name": "6ecf6d9d777b5badeb8706722d4e236a", "rental_uris": {"android": "https://dc.lft.to/lastmile_qr_scan", "ios": "https://dc.lft.to/lastmile_qr_scan"}, "lat": 38.916426, "bike_id": "6ecf6d9d777b5badeb8706722d4e236a", "is_disabled": 0, "lon": -77.0319935, "is_reserved": 0, "fusion_lat": 0.0, "type": "electric_scooter"}, {"fusion_lon": 0.0, "name": "0ae2a35ad4347f06e2b5fb853dba203a", "rental_uris": {"android": "https://dc.lft.to/lastmile_qr_scan", "ios": "https://dc.lft.to/lastmile_qr_scan"}, "lat": 38.854355, "bike_id": "0ae2a35ad4347f06e2b5fb853dba203a", "is_disabled": 0, "lon": -77.08319066666667, "is_reserved": 0, "fusion_lat": 0.0, "type": "electric_bike"}, {"fusion_lon": 0.0, "name": "692f639f4a00d9050f342ce415c41932", "rental_uris": {"android": "https://dc.lft.to/lastmile_qr_scan", "ios": "https://dc.lft.to/lastmile_qr_scan"}, "lat": 38.946810166666666, "bike_id": "692f639f4a00d9050f342ce415c41932", "is_disabled": 0, "lon": -77.03288683333334, "is_reserved": 0, "fusion_lat": 0.0, "type": "electric_scooter"}, {"fusion_lon": 0.0, "name": "5d3761ee28d4f1c7d469b9f0067c99dd", "rental_uris": {"android": "https://dc.lft.to/lastmile_qr_scan", "ios": "https://dc.lft.to/lastmile_qr_scan"}, "lat": 38.99889966666667, "bike_id": "5d3761ee28d4f1c7d469b9f0067c99dd", "is_disabled": 0, "lon": -76.908592, "is_reserved": 0, "fusion_lat": 0.0, "type": "electric_bike"}, {"fusion_lon": 0.0, "name": "a8d760cfb3a548db4e55c5c71f6dddfa", "rental_uris": {"android": "https://dc.lft.to/lastmile_qr_scan", "ios": "https://dc.lft.to/lastmile_qr_scan"}, "lat": 38.87039766666667, "bike_id": "a8d760cfb3a548db4e55c5c71f6dddfa", "is_disabled": 0, "lon": -77.22908833333334, "is_reserved": 0, "fusion_lat": 0.0, "type": "electric_bike"}, {"fusion_lon": 0.0, "name": "664cafc4ff1dd0520f0358e34e54430d", "rental_uris": {"android": "https://dc.lft.to/lastmile_qr_scan", "ios": "https://dc.lft.to/lastmile_qr_scan"}, "lat": 38.92196466666667, "bike_id": "664cafc4ff1dd0520f0358e34e54430d", "is_disabled": 0, "lon": -77.029776, "is_reserved": 0, "fusion_lat": 0.0, "type": "electric_scooter"}, {"fusion_lon": 0.0, "name": "7ce8de21549900799b0ce6c41e7d2224", "rental_uris": {"android": "https://dc.lft.to/lastmile_qr_scan", "ios": "https://dc.lft.to/lastmile_qr_scan"}, "lat": 38.93532033333334, "bike_id": "7ce8de21549900799b0ce6c41e7d2224", "is_disabled": 0, "lon": -77.02315216666666, "is_reserved": 0, "fusion_lat": 0.0, "type": "electric_scooter"}, {"fusion_lon": 0.0, "name": "e19d94724fcb332d381e06a5016d5950", "rental_uris": {"android": "https://dc.lft.to/lastmile_qr_scan", "ios": "https://dc.lft.to/lastmile_qr_scan"}, "lat": 38.92473916666667, "bike_id": "e19d94724fcb332d381e06a5016d5950", "is_disabled": 0, "lon": -77.02267833333333, "is_reserved": 0, "fusion_lat": 0.0, "type": "electric_scooter"}, {"fusion_lon": 0.0, "name": "5c15b87d2cbc3c6e0608f09d8fa806a0", "rental_uris": {"android": "https://dc.lft.to/lastmile_qr_scan", "ios": "https://dc.lft.to/lastmile_qr_scan"}, "lat": 38.90335016666667, "bike_id": "5c15b87d2cbc3c6e0608f09d8fa806a0", "is_disabled": 0, "lon": -76.97593583333334, "is_reserved": 0, "fusion_lat": 0.0, "type": "electric_scooter"}, {"fusion_lon": 0.0, "name": "59e3f31289fc1c90998816983b2916a3", "rental_uris": {"android": "https://dc.lft.to/lastmile_qr_scan", "ios": "https://dc.lft.to/lastmile_qr_scan"}, "lat": 38.89711483333333, "bike_id": "59e3f31289fc1c90998816983b2916a3", "is_disabled": 0, "lon": -76.99121783333334, "is_reserved": 0, "fusion_lat": 0.0, "type": "electric_scooter"}, {"fusion_lon": 0.0, "name": "32fc8d86766f7400700c5d1be0fbdf9d", "rental_uris": {"android": "https://dc.lft.to/lastmile_qr_scan", "ios": "https://dc.lft.to/lastmile_qr_scan"}, "lat": 38.92785683333334, "bike_id": "32fc8d86766f7400700c5d1be0fbdf9d", "is_disabled": 0, "lon": -76.99615633333333, "is_reserved": 0, "fusion_lat": 0.0, "type": "electric_scooter"}, {"fusion_lon": 0.0, "name": "9be607fa936a799cc004b160a98d333e", "rental_uris": {"android": "https://dc.lft.to/lastmile_qr_scan", "ios": "https://dc.lft.to/lastmile_qr_scan"}, "lat": 38.903968166666665, "bike_id": "9be607fa936a799cc004b160a98d333e", "is_disabled": 0, "lon": -77.0043065, "is_reserved": 0, "fusion_lat": 0.0, "type": "electric_scooter"}, {"fusion_lon": 0.0, "name": "e6247da802bcec0f797fdbefbbee0e5b", "rental_uris": {"android": "https://dc.lft.to/lastmile_qr_scan", "ios": "https://dc.lft.to/lastmile_qr_scan"}, "lat": 38.924984333333335, "bike_id": "e6247da802bcec0f797fdbefbbee0e5b", "is_disabled": 0, "lon": -77.025646, "is_reserved": 0, "fusion_lat": 0.0, "type": "electric_scooter"}, {"fusion_lon": 0.0, "name": "8d1b2277def6391875e591af4f91dcac", "rental_uris": {"android": "https://dc.lft.to/lastmile_qr_scan", "ios": "https://dc.lft.to/lastmile_qr_scan"}, "lat": 38.89975883333334, "bike_id": "8d1b2277def6391875e591af4f91dcac", "is_disabled": 0, "lon": -77.04191266666666, "is_reserved": 0, "fusion_lat": 0.0, "type": "electric_scooter"}, {"fusion_lon": 0.0, "name": "b6eda8cf2775c99af8ee2cb1814b435d", "rental_uris": {"android": "https://dc.lft.to/lastmile_qr_scan", "ios": "https://dc.lft.to/lastmile_qr_scan"}, "lat": 38.90215666666667, "bike_id": "b6eda8cf2775c99af8ee2cb1814b435d", "is_disabled": 0, "lon": -77.023689, "is_reserved": 0, "fusion_lat": 0.0, "type": "electric_scooter"}, {"fusion_lon": 0.0, "name": "560c82d8848d050c9b7392bb86106c1c", "rental_uris": {"android": "https://dc.lft.to/lastmile_qr_scan", "ios": "https://dc.lft.to/lastmile_qr_scan"}, "lat": 38.881341, "bike_id": "560c82d8848d050c9b7392bb86106c1c", "is_disabled": 0, "lon": -77.02232033333334, "is_reserved": 0, "fusion_lat": 0.0, "type": "electric_scooter"}, {"fusion_lon": 0.0, "name": "876746f02392ff9b1299f806f9df7d6d", "rental_uris": {"android": "https://dc.lft.to/lastmile_qr_scan", "ios": "https://dc.lft.to/lastmile_qr_scan"}, "lat": 38.91254416666666, "bike_id": "876746f02392ff9b1299f806f9df7d6d", "is_disabled": 0, "lon": -77.038657, "is_reserved": 0, "fusion_lat": 0.0, "type": "electric_scooter"}, {"fusion_lon": 0.0, "name": "271d52a02dafcb749f2cd37e791fd4f2", "rental_uris": {"android": "https://dc.lft.to/lastmile_qr_scan", "ios": "https://dc.lft.to/lastmile_qr_scan"}, "lat": 38.89212783333333, "bike_id": "271d52a02dafcb749f2cd37e791fd4f2", "is_disabled": 0, "lon": -76.995699, "is_reserved": 0, "fusion_lat": 0.0, "type": "electric_scooter"}, {"fusion_lon": 0.0, "name": "3cc9de868ca44b93d0c6cf838b2d2e25", "rental_uris": {"android": "https://dc.lft.to/lastmile_qr_scan", "ios": "https://dc.lft.to/lastmile_qr_scan"}, "lat": 38.93757816666667, "bike_id": "3cc9de868ca44b93d0c6cf838b2d2e25", "is_disabled": 0, "lon": -77.02457516666666, "is_reserved": 0, "fusion_lat": 0.0, "type": "electric_scooter"}, {"fusion_lon": 0.0, "name": "145f24239db5413659daf17a00934754", "rental_uris": {"android": "https://dc.lft.to/lastmile_qr_scan", "ios": "https://dc.lft.to/lastmile_qr_scan"}, "lat": 38.846427, "bike_id": "145f24239db5413659daf17a00934754", "is_disabled": 0, "lon": -76.97077783333333, "is_reserved": 0, "fusion_lat": 0.0, "type": "electric_bike"}, {"fusion_lon": 0.0, "name": "f12b294c44fd41c5dcfa18e4c9707172", "rental_uris": {"android": "https://dc.lft.to/lastmile_qr_scan", "ios": "https://dc.lft.to/lastmile_qr_scan"}, "lat": 38.930633666666665, "bike_id": "f12b294c44fd41c5dcfa18e4c9707172", "is_disabled": 0, "lon": -77.02785916666667, "is_reserved": 0, "fusion_lat": 0.0, "type": "electric_scooter"}, {"fusion_lon": 0.0, "name": "9ea790c2e37f2d2b5183c5f3dc646274", "rental_uris": {"android": "https://dc.lft.to/lastmile_qr_scan", "ios": "https://dc.lft.to/lastmile_qr_scan"}, "lat": 38.908556, "bike_id": "9ea790c2e37f2d2b5183c5f3dc646274", "is_disabled": 0, "lon": -77.03458, "is_reserved": 0, "fusion_lat": 0.0, "type": "electric_scooter"}, {"fusion_lon": 0.0, "name": "f7c02cb44eaa98279a6fd35aa43892c8", "rental_uris": {"android": "https://dc.lft.to/lastmile_qr_scan", "ios": "https://dc.lft.to/lastmile_qr_scan"}, "lat": 38.922557833333336, "bike_id": "f7c02cb44eaa98279a6fd35aa43892c8", "is_disabled": 0, "lon": -77.0308435, "is_reserved": 0, "fusion_lat": 0.0, "type": "electric_scooter"}, {"fusion_lon": 0.0, "name": "304dbb6ef6e519cafa78777fe1b336e0", "rental_uris": {"android": "https://dc.lft.to/lastmile_qr_scan", "ios": "https://dc.lft.to/lastmile_qr_scan"}, "lat": 38.879254, "bike_id": "304dbb6ef6e519cafa78777fe1b336e0", "is_disabled": 0, "lon": -77.00986233333333, "is_reserved": 0, "fusion_lat": 0.0, "type": "electric_scooter"}, {"fusion_lon": 0.0, "name": "f7af7441906e4da9ceef67d50fcc774d", "rental_uris": {"android": "https://dc.lft.to/lastmile_qr_scan", "ios": "https://dc.lft.to/lastmile_qr_scan"}, "lat": 38.913665333333334, "bike_id": "f7af7441906e4da9ceef67d50fcc774d", "is_disabled": 0, "lon": -77.091936, "is_reserved": 0, "fusion_lat": 0.0, "type": "electric_scooter"}, {"fusion_lon": 0.0, "name": "9084f87485b5b123552b9349886958d3", "rental_uris": {"android": "https://dc.lft.to/lastmile_qr_scan", "ios": "https://dc.lft.to/lastmile_qr_scan"}, "lat": 38.896043, "bike_id": "9084f87485b5b123552b9349886958d3", "is_disabled": 0, "lon": -77.02377483333333, "is_reserved": 0, "fusion_lat": 0.0, "type": "electric_scooter"}, {"fusion_lon": 0.0, "name": "0faa8786635aa35ab963924d57906d7d", "rental_uris": {"android": "https://dc.lft.to/lastmile_qr_scan", "ios": "https://dc.lft.to/lastmile_qr_scan"}, "lat": 38.91005533333333, "bike_id": "0faa8786635aa35ab963924d57906d7d", "is_disabled": 0, "lon": -77.04008283333333, "is_reserved": 0, "fusion_lat": 0.0, "type": "electric_scooter"}, {"fusion_lon": 0.0, "name": "6503f4fa9fb0977148826228f57606e4", "rental_uris": {"android": "https://dc.lft.to/lastmile_qr_scan", "ios": "https://dc.lft.to/lastmile_qr_scan"}, "lat": 38.90581183333333, "bike_id": "6503f4fa9fb0977148826228f57606e4", "is_disabled": 0, "lon": -77.06899116666666, "is_reserved": 0, "fusion_lat": 0.0, "type": "electric_scooter"}, {"fusion_lon": 0.0, "name": "f4520a83b9706372849b14c7fee005d2", "rental_uris": {"android": "https://dc.lft.to/lastmile_qr_scan", "ios": "https://dc.lft.to/lastmile_qr_scan"}, "lat": 38.800541833333334, "bike_id": "f4520a83b9706372849b14c7fee005d2", "is_disabled": 0, "lon": -77.12838666666667, "is_reserved": 0, "fusion_lat": 0.0, "type": "electric_bike"}, {"fusion_lon": 0.0, "name": "510bea21c967ea03d68efddde4b29ce2", "rental_uris": {"android": "https://dc.lft.to/lastmile_qr_scan", "ios": "https://dc.lft.to/lastmile_qr_scan"}, "lat": 38.91261566666667, "bike_id": "510bea21c967ea03d68efddde4b29ce2", "is_disabled": 0, "lon": -77.04550816666666, "is_reserved": 0, "fusion_lat": 0.0, "type": "electric_scooter"}, {"fusion_lon": 0.0, "name": "19d6b3498a7cd27c8db27470cf46b6e0", "rental_uris": {"android": "https://dc.lft.to/lastmile_qr_scan", "ios": "https://dc.lft.to/lastmile_qr_scan"}, "lat": 38.90030516666667, "bike_id": "19d6b3498a7cd27c8db27470cf46b6e0", "is_disabled": 0, "lon": -77.0020425, "is_reserved": 0, "fusion_lat": 0.0, "type": "electric_scooter"}, {"fusion_lon": 0.0, "name": "9739bee06c8f319da76b86595936b166", "rental_uris": {"android": "https://dc.lft.to/lastmile_qr_scan", "ios": "https://dc.lft.to/lastmile_qr_scan"}, "lat": 38.906301, "bike_id": "9739bee06c8f319da76b86595936b166", "is_disabled": 0, "lon": -77.051256, "is_reserved": 0, "fusion_lat": 0.0, "type": "electric_scooter"}, {"fusion_lon": 0.0, "name": "a87f3c67a7926c0080b29334c0a2aace", "rental_uris": {"android": "https://dc.lft.to/lastmile_qr_scan", "ios": "https://dc.lft.to/lastmile_qr_scan"}, "lat": 38.8943215, "bike_id": "a87f3c67a7926c0080b29334c0a2aace", "is_disabled": 0, "lon": -76.99778583333334, "is_reserved": 0, "fusion_lat": 0.0, "type": "electric_scooter"}, {"fusion_lon": 0.0, "name": "d45dad3d55da2cec8dbb17b2b0a2c260", "rental_uris": {"android": "https://dc.lft.to/lastmile_qr_scan", "ios": "https://dc.lft.to/lastmile_qr_scan"}, "lat": 38.892207166666665, "bike_id": "d45dad3d55da2cec8dbb17b2b0a2c260", "is_disabled": 0, "lon": -77.04362366666666, "is_reserved": 0, "fusion_lat": 0.0, "type": "electric_scooter"}, {"fusion_lon": 0.0, "name": "15f479dc7faaeb899cd372720a4e09fb", "rental_uris": {"android": "https://dc.lft.to/lastmile_qr_scan", "ios": "https://dc.lft.to/lastmile_qr_scan"}, "lat": 38.931120166666666, "bike_id": "15f479dc7faaeb899cd372720a4e09fb", "is_disabled": 0, "lon": -77.0351385, "is_reserved": 0, "fusion_lat": 0.0, "type": "electric_scooter"}, {"fusion_lon": 0.0, "name": "4fdda4962104fc9ffe8456bfb9c3582c", "rental_uris": {"android": "https://dc.lft.to/lastmile_qr_scan", "ios": "https://dc.lft.to/lastmile_qr_scan"}, "lat": 38.92600183333333, "bike_id": "4fdda4962104fc9ffe8456bfb9c3582c", "is_disabled": 0, "lon": -77.0215365, "is_reserved": 0, "fusion_lat": 0.0, "type": "electric_scooter"}, {"fusion_lon": 0.0, "name": "80af4bc3c402e3de44860950ecf966e6", "rental_uris": {"android": "https://dc.lft.to/lastmile_qr_scan", "ios": "https://dc.lft.to/lastmile_qr_scan"}, "lat": 38.95034066666667, "bike_id": "80af4bc3c402e3de44860950ecf966e6", "is_disabled": 0, "lon": -76.97097966666666, "is_reserved": 0, "fusion_lat": 0.0, "type": "electric_bike"}, {"fusion_lon": 0.0, "name": "a4d9348cda9f81e5dbf71cead6fd94fc", "rental_uris": {"android": "https://dc.lft.to/lastmile_qr_scan", "ios": "https://dc.lft.to/lastmile_qr_scan"}, "lat": 38.93291766666667, "bike_id": "a4d9348cda9f81e5dbf71cead6fd94fc", "is_disabled": 0, "lon": -77.03993066666666, "is_reserved": 0, "fusion_lat": 0.0, "type": "electric_scooter"}, {"fusion_lon": 0.0, "name": "244c7937031a5d14815feecf10ec2bae", "rental_uris": {"android": "https://dc.lft.to/lastmile_qr_scan", "ios": "https://dc.lft.to/lastmile_qr_scan"}, "lat": 38.90700283333334, "bike_id": "244c7937031a5d14815feecf10ec2bae", "is_disabled": 0, "lon": -77.0359845, "is_reserved": 0, "fusion_lat": 0.0, "type": "electric_scooter"}, {"fusion_lon": 0.0, "name": "f45553633bba94c806cfd5fe96dea331", "rental_uris": {"android": "https://dc.lft.to/lastmile_qr_scan", "ios": "https://dc.lft.to/lastmile_qr_scan"}, "lat": 38.917136, "bike_id": "f45553633bba94c806cfd5fe96dea331", "is_disabled": 0, "lon": -77.03869616666667, "is_reserved": 0, "fusion_lat": 0.0, "type": "electric_scooter"}, {"fusion_lon": 0.0, "name": "27ba1117181368ad462e354d93ff3a2f", "rental_uris": {"android": "https://dc.lft.to/lastmile_qr_scan", "ios": "https://dc.lft.to/lastmile_qr_scan"}, "lat": 38.927248666666664, "bike_id": "27ba1117181368ad462e354d93ff3a2f", "is_disabled": 0, "lon": -77.03552483333333, "is_reserved": 0, "fusion_lat": 0.0, "type": "electric_scooter"}, {"fusion_lon": 0.0, "name": "5c3278dc7cda01cd7548729f5fa5cd57", "rental_uris": {"android": "https://dc.lft.to/lastmile_qr_scan", "ios": "https://dc.lft.to/lastmile_qr_scan"}, "lat": 38.8971455, "bike_id": "5c3278dc7cda01cd7548729f5fa5cd57", "is_disabled": 0, "lon": -77.02168283333333, "is_reserved": 0, "fusion_lat": 0.0, "type": "electric_scooter"}, {"fusion_lon": 0.0, "name": "56f3e604b542b6574d5648e22361d431", "rental_uris": {"android": "https://dc.lft.to/lastmile_qr_scan", "ios": "https://dc.lft.to/lastmile_qr_scan"}, "lat": 38.91807216666667, "bike_id": "56f3e604b542b6574d5648e22361d431", "is_disabled": 0, "lon": -77.02492566666666, "is_reserved": 0, "fusion_lat": 0.0, "type": "electric_scooter"}, {"fusion_lon": 0.0, "name": "cfd61cd6935f69762b110f532a784d0b", "rental_uris": {"android": "https://dc.lft.to/lastmile_qr_scan", "ios": "https://dc.lft.to/lastmile_qr_scan"}, "lat": 38.91408916666666, "bike_id": "cfd61cd6935f69762b110f532a784d0b", "is_disabled": 0, "lon": -77.00802483333334, "is_reserved": 0, "fusion_lat": 0.0, "type": "electric_scooter"}, {"fusion_lon": 0.0, "name": "136d7867f44b1c16048d50aaf7d74e30", "rental_uris": {"android": "https://dc.lft.to/lastmile_qr_scan", "ios": "https://dc.lft.to/lastmile_qr_scan"}, "lat": 38.919221666666665, "bike_id": "136d7867f44b1c16048d50aaf7d74e30", "is_disabled": 0, "lon": -77.00975883333334, "is_reserved": 0, "fusion_lat": 0.0, "type": "electric_scooter"}, {"fusion_lon": 0.0, "name": "05c86b4be2a7ac2c3d14c91f124a85f0", "rental_uris": {"android": "https://dc.lft.to/lastmile_qr_scan", "ios": "https://dc.lft.to/lastmile_qr_scan"}, "lat": 38.905551, "bike_id": "05c86b4be2a7ac2c3d14c91f124a85f0", "is_disabled": 0, "lon": -77.03488216666666, "is_reserved": 0, "fusion_lat": 0.0, "type": "electric_scooter"}, {"fusion_lon": 0.0, "name": "fe6d9a1194284f39234e83b8399d4282", "rental_uris": {"android": "https://dc.lft.to/lastmile_qr_scan", "ios": "https://dc.lft.to/lastmile_qr_scan"}, "lat": 38.961199, "bike_id": "fe6d9a1194284f39234e83b8399d4282", "is_disabled": 0, "lon": -77.027942, "is_reserved": 0, "fusion_lat": 0.0, "type": "electric_scooter"}, {"fusion_lon": 0.0, "name": "0223feca6f0de602a8ef449931162284", "rental_uris": {"android": "https://dc.lft.to/lastmile_qr_scan", "ios": "https://dc.lft.to/lastmile_qr_scan"}, "lat": 38.88641766666667, "bike_id": "0223feca6f0de602a8ef449931162284", "is_disabled": 0, "lon": -77.01528583333334, "is_reserved": 0, "fusion_lat": 0.0, "type": "electric_scooter"}, {"fusion_lon": 0.0, "name": "8f89d9a6698185b8a5ec5da1a9bf1cc7", "rental_uris": {"android": "https://dc.lft.to/lastmile_qr_scan", "ios": "https://dc.lft.to/lastmile_qr_scan"}, "lat": 38.885139333333335, "bike_id": "8f89d9a6698185b8a5ec5da1a9bf1cc7", "is_disabled": 0, "lon": -77.01119966666667, "is_reserved": 0, "fusion_lat": 0.0, "type": "electric_scooter"}, {"fusion_lon": 0.0, "name": "433bc158f975835eaf2fa1703f9a04c7", "rental_uris": {"android": "https://dc.lft.to/lastmile_qr_scan", "ios": "https://dc.lft.to/lastmile_qr_scan"}, "lat": 38.89852916666667, "bike_id": "433bc158f975835eaf2fa1703f9a04c7", "is_disabled": 0, "lon": -76.990364, "is_reserved": 0, "fusion_lat": 0.0, "type": "electric_scooter"}, {"fusion_lon": 0.0, "name": "096b5c2f88d9ab3fb9e137c07ead055e", "rental_uris": {"android": "https://dc.lft.to/lastmile_qr_scan", "ios": "https://dc.lft.to/lastmile_qr_scan"}, "lat": 38.90355733333333, "bike_id": "096b5c2f88d9ab3fb9e137c07ead055e", "is_disabled": 0, "lon": -77.02621666666667, "is_reserved": 0, "fusion_lat": 0.0, "type": "electric_scooter"}, {"fusion_lon": 0.0, "name": "13a42f25c24ae56a2ae3aa8697fac4eb", "rental_uris": {"android": "https://dc.lft.to/lastmile_qr_scan", "ios": "https://dc.lft.to/lastmile_qr_scan"}, "lat": 38.906134333333334, "bike_id": "13a42f25c24ae56a2ae3aa8697fac4eb", "is_disabled": 0, "lon": -76.95010083333334, "is_reserved": 0, "fusion_lat": 0.0, "type": "electric_scooter"}, {"fusion_lon": 0.0, "name": "b15713b7296228bbbacbfca72e63339e", "rental_uris": {"android": "https://dc.lft.to/lastmile_qr_scan", "ios": "https://dc.lft.to/lastmile_qr_scan"}, "lat": 38.90140383333333, "bike_id": "b15713b7296228bbbacbfca72e63339e", "is_disabled": 0, "lon": -76.98968183333334, "is_reserved": 0, "fusion_lat": 0.0, "type": "electric_scooter"}, {"fusion_lon": 0.0, "name": "612d0d6997193f6b82028ec5a51f889c", "rental_uris": {"android": "https://dc.lft.to/lastmile_qr_scan", "ios": "https://dc.lft.to/lastmile_qr_scan"}, "lat": 38.908305166666665, "bike_id": "612d0d6997193f6b82028ec5a51f889c", "is_disabled": 0, "lon": -77.04344983333333, "is_reserved": 0, "fusion_lat": 0.0, "type": "electric_scooter"}, {"fusion_lon": 0.0, "name": "28671ceea99a1b98d67c651c56b91cb2", "rental_uris": {"android": "https://dc.lft.to/lastmile_qr_scan", "ios": "https://dc.lft.to/lastmile_qr_scan"}, "lat": 38.91628016666667, "bike_id": "28671ceea99a1b98d67c651c56b91cb2", "is_disabled": 0, "lon": -77.03495833333334, "is_reserved": 0, "fusion_lat": 0.0, "type": "electric_scooter"}, {"fusion_lon": 0.0, "name": "71af3fa790e9743d9e8c7bfd720cec25", "rental_uris": {"android": "https://dc.lft.to/lastmile_qr_scan", "ios": "https://dc.lft.to/lastmile_qr_scan"}, "lat": 38.88994133333333, "bike_id": "71af3fa790e9743d9e8c7bfd720cec25", "is_disabled": 0, "lon": -76.92110166666667, "is_reserved": 0, "fusion_lat": 0.0, "type": "electric_scooter"}, {"fusion_lon": 0.0, "name": "257967539bd4f61677272b25d3b9aed9", "rental_uris": {"android": "https://dc.lft.to/lastmile_qr_scan", "ios": "https://dc.lft.to/lastmile_qr_scan"}, "lat": 38.87851966666667, "bike_id": "257967539bd4f61677272b25d3b9aed9", "is_disabled": 0, "lon": -77.01974116666666, "is_reserved": 0, "fusion_lat": 0.0, "type": "electric_scooter"}, {"fusion_lon": 0.0, "name": "d243570588952264478b3951dfab559b", "rental_uris": {"android": "https://dc.lft.to/lastmile_qr_scan", "ios": "https://dc.lft.to/lastmile_qr_scan"}, "lat": 38.9281185, "bike_id": "d243570588952264478b3951dfab559b", "is_disabled": 0, "lon": -77.0194855, "is_reserved": 0, "fusion_lat": 0.0, "type": "electric_scooter"}, {"fusion_lon": 0.0, "name": "0bfd1b0c5fe59b7f09439d7bbbbd263e", "rental_uris": {"android": "https://dc.lft.to/lastmile_qr_scan", "ios": "https://dc.lft.to/lastmile_qr_scan"}, "lat": 38.8988805, "bike_id": "0bfd1b0c5fe59b7f09439d7bbbbd263e", "is_disabled": 0, "lon": -76.93174983333333, "is_reserved": 0, "fusion_lat": 0.0, "type": "electric_scooter"}, {"fusion_lon": 0.0, "name": "5e8f9b5e3d5876c3dffee92c2423e58a", "rental_uris": {"android": "https://dc.lft.to/lastmile_qr_scan", "ios": "https://dc.lft.to/lastmile_qr_scan"}, "lat": 38.927508, "bike_id": "5e8f9b5e3d5876c3dffee92c2423e58a", "is_disabled": 0, "lon": -77.02963033333333, "is_reserved": 0, "fusion_lat": 0.0, "type": "electric_scooter"}, {"fusion_lon": 0.0, "name": "164a3f0e11db9e004555b7d2bd197fe6", "rental_uris": {"android": "https://dc.lft.to/lastmile_qr_scan", "ios": "https://dc.lft.to/lastmile_qr_scan"}, "lat": 38.909932, "bike_id": "164a3f0e11db9e004555b7d2bd197fe6", "is_disabled": 0, "lon": -77.03187233333334, "is_reserved": 0, "fusion_lat": 0.0, "type": "electric_scooter"}, {"fusion_lon": 0.0, "name": "0c0a3a81d39cdbe4c32eb6a0c7c46a5f", "rental_uris": {"android": "https://dc.lft.to/lastmile_qr_scan", "ios": "https://dc.lft.to/lastmile_qr_scan"}, "lat": 38.91914166666667, "bike_id": "0c0a3a81d39cdbe4c32eb6a0c7c46a5f", "is_disabled": 0, "lon": -77.04472466666667, "is_reserved": 0, "fusion_lat": 0.0, "type": "electric_scooter"}, {"fusion_lon": 0.0, "name": "0aea1b1014808d9ffcb6446c8be391f0", "rental_uris": {"android": "https://dc.lft.to/lastmile_qr_scan", "ios": "https://dc.lft.to/lastmile_qr_scan"}, "lat": 38.90571716666667, "bike_id": "0aea1b1014808d9ffcb6446c8be391f0", "is_disabled": 0, "lon": -77.030801, "is_reserved": 0, "fusion_lat": 0.0, "type": "electric_scooter"}, {"fusion_lon": 0.0, "name": "9ce587622474d4de80fadffe8a25c70e", "rental_uris": {"android": "https://dc.lft.to/lastmile_qr_scan", "ios": "https://dc.lft.to/lastmile_qr_scan"}, "lat": 38.926338666666666, "bike_id": "9ce587622474d4de80fadffe8a25c70e", "is_disabled": 0, "lon": -77.03708983333334, "is_reserved": 0, "fusion_lat": 0.0, "type": "electric_scooter"}, {"fusion_lon": 0.0, "name": "d8d0553795ec9fcf4144f20bed852c33", "rental_uris": {"android": "https://dc.lft.to/lastmile_qr_scan", "ios": "https://dc.lft.to/lastmile_qr_scan"}, "lat": 38.88732383333333, "bike_id": "d8d0553795ec9fcf4144f20bed852c33", "is_disabled": 0, "lon": -77.01345533333334, "is_reserved": 0, "fusion_lat": 0.0, "type": "electric_scooter"}, {"fusion_lon": 0.0, "name": "38755816c3cafb561314a8b6e348c1d9", "rental_uris": {"android": "https://dc.lft.to/lastmile_qr_scan", "ios": "https://dc.lft.to/lastmile_qr_scan"}, "lat": 38.90048783333334, "bike_id": "38755816c3cafb561314a8b6e348c1d9", "is_disabled": 0, "lon": -77.049037, "is_reserved": 0, "fusion_lat": 0.0, "type": "electric_scooter"}, {"fusion_lon": 0.0, "name": "0aa74ff7f0537e727b1fa35ebb9fcb16", "rental_uris": {"android": "https://dc.lft.to/lastmile_qr_scan", "ios": "https://dc.lft.to/lastmile_qr_scan"}, "lat": 38.894606333333336, "bike_id": "0aa74ff7f0537e727b1fa35ebb9fcb16", "is_disabled": 0, "lon": -77.19133883333333, "is_reserved": 0, "fusion_lat": 0.0, "type": "electric_bike"}, {"fusion_lon": 0.0, "name": "ebaab38bcf66dfd456fa333d9cebb8cf", "rental_uris": {"android": "https://dc.lft.to/lastmile_qr_scan", "ios": "https://dc.lft.to/lastmile_qr_scan"}, "lat": 38.89285, "bike_id": "ebaab38bcf66dfd456fa333d9cebb8cf", "is_disabled": 0, "lon": -77.0504635, "is_reserved": 0, "fusion_lat": 0.0, "type": "electric_bike"}, {"fusion_lon": 0.0, "name": "8d51e13517d141dc270d67c52eb97870", "rental_uris": {"android": "https://dc.lft.to/lastmile_qr_scan", "ios": "https://dc.lft.to/lastmile_qr_scan"}, "lat": 38.909940166666665, "bike_id": "8d51e13517d141dc270d67c52eb97870", "is_disabled": 0, "lon": -77.009068, "is_reserved": 0, "fusion_lat": 0.0, "type": "electric_scooter"}, {"fusion_lon": 0.0, "name": "927ffd3af69f88c233f538f8cddac57f", "rental_uris": {"android": "https://dc.lft.to/lastmile_qr_scan", "ios": "https://dc.lft.to/lastmile_qr_scan"}, "lat": 38.908831, "bike_id": "927ffd3af69f88c233f538f8cddac57f", "is_disabled": 0, "lon": -77.04051533333333, "is_reserved": 0, "fusion_lat": 0.0, "type": "electric_scooter"}, {"fusion_lon": 0.0, "name": "63def2db0fd10341363473fa5a2f2205", "rental_uris": {"android": "https://dc.lft.to/lastmile_qr_scan", "ios": "https://dc.lft.to/lastmile_qr_scan"}, "lat": 38.94368583333333, "bike_id": "63def2db0fd10341363473fa5a2f2205", "is_disabled": 0, "lon": -77.0604285, "is_reserved": 0, "fusion_lat": 0.0, "type": "electric_scooter"}, {"fusion_lon": 0.0, "name": "6fff8538d989027a8488d557e99c8d2a", "rental_uris": {"android": "https://dc.lft.to/lastmile_qr_scan", "ios": "https://dc.lft.to/lastmile_qr_scan"}, "lat": 38.90836066666667, "bike_id": "6fff8538d989027a8488d557e99c8d2a", "is_disabled": 0, "lon": -77.04355816666667, "is_reserved": 0, "fusion_lat": 0.0, "type": "electric_scooter"}, {"fusion_lon": 0.0, "name": "f0e16f339cccd597d21e1bdd812a19c9", "rental_uris": {"android": "https://dc.lft.to/lastmile_qr_scan", "ios": "https://dc.lft.to/lastmile_qr_scan"}, "lat": 38.90035666666667, "bike_id": "f0e16f339cccd597d21e1bdd812a19c9", "is_disabled": 0, "lon": -76.99629133333333, "is_reserved": 0, "fusion_lat": 0.0, "type": "electric_scooter"}, {"fusion_lon": 0.0, "name": "fb65bd119edcbe0502866d4453a03752", "rental_uris": {"android": "https://dc.lft.to/lastmile_qr_scan", "ios": "https://dc.lft.to/lastmile_qr_scan"}, "lat": 38.920935166666666, "bike_id": "fb65bd119edcbe0502866d4453a03752", "is_disabled": 0, "lon": -77.02323166666666, "is_reserved": 0, "fusion_lat": 0.0, "type": "electric_scooter"}, {"fusion_lon": 0.0, "name": "67205020aaf5d056577256c88eb8398e", "rental_uris": {"android": "https://dc.lft.to/lastmile_qr_scan", "ios": "https://dc.lft.to/lastmile_qr_scan"}, "lat": 38.9223065, "bike_id": "67205020aaf5d056577256c88eb8398e", "is_disabled": 0, "lon": -77.04308516666667, "is_reserved": 0, "fusion_lat": 0.0, "type": "electric_scooter"}, {"fusion_lon": 0.0, "name": "2a2b415faa5e182e638e45a8d1c444c7", "rental_uris": {"android": "https://dc.lft.to/lastmile_qr_scan", "ios": "https://dc.lft.to/lastmile_qr_scan"}, "lat": 38.9155345, "bike_id": "2a2b415faa5e182e638e45a8d1c444c7", "is_disabled": 0, "lon": -77.0325465, "is_reserved": 0, "fusion_lat": 0.0, "type": "electric_scooter"}, {"fusion_lon": 0.0, "name": "3614844fb443b51c405b8b41f5d01c5b", "rental_uris": {"android": "https://dc.lft.to/lastmile_qr_scan", "ios": "https://dc.lft.to/lastmile_qr_scan"}, "lat": 38.90778433333333, "bike_id": "3614844fb443b51c405b8b41f5d01c5b", "is_disabled": 0, "lon": -77.01833283333333, "is_reserved": 0, "fusion_lat": 0.0, "type": "electric_scooter"}, {"fusion_lon": 0.0, "name": "c7ce47afadf2438a0b8f856281ae620c", "rental_uris": {"android": "https://dc.lft.to/lastmile_qr_scan", "ios": "https://dc.lft.to/lastmile_qr_scan"}, "lat": 38.93101, "bike_id": "c7ce47afadf2438a0b8f856281ae620c", "is_disabled": 0, "lon": -77.02667433333333, "is_reserved": 0, "fusion_lat": 0.0, "type": "electric_scooter"}, {"fusion_lon": 0.0, "name": "8bc6b57c0f80557433c5db226b06214e", "rental_uris": {"android": "https://dc.lft.to/lastmile_qr_scan", "ios": "https://dc.lft.to/lastmile_qr_scan"}, "lat": 38.93263683333333, "bike_id": "8bc6b57c0f80557433c5db226b06214e", "is_disabled": 0, "lon": -77.02068333333334, "is_reserved": 0, "fusion_lat": 0.0, "type": "electric_bike"}, {"fusion_lon": 0.0, "name": "67917ac94868c53647bde09dbfe4d28d", "rental_uris": {"android": "https://dc.lft.to/lastmile_qr_scan", "ios": "https://dc.lft.to/lastmile_qr_scan"}, "lat": 38.91697516666667, "bike_id": "67917ac94868c53647bde09dbfe4d28d", "is_disabled": 0, "lon": -77.03137583333333, "is_reserved": 0, "fusion_lat": 0.0, "type": "electric_scooter"}, {"fusion_lon": 0.0, "name": "62cfdba41987ac0f3150c0640038b8d8", "rental_uris": {"android": "https://dc.lft.to/lastmile_qr_scan", "ios": "https://dc.lft.to/lastmile_qr_scan"}, "lat": 38.9084145, "bike_id": "62cfdba41987ac0f3150c0640038b8d8", "is_disabled": 0, "lon": -77.00230816666667, "is_reserved": 0, "fusion_lat": 0.0, "type": "electric_scooter"}, {"fusion_lon": 0.0, "name": "7726119f350c4d5e883d9c5368568e96", "rental_uris": {"android": "https://dc.lft.to/lastmile_qr_scan", "ios": "https://dc.lft.to/lastmile_qr_scan"}, "lat": 38.84506566666667, "bike_id": "7726119f350c4d5e883d9c5368568e96", "is_disabled": 0, "lon": -76.9935285, "is_reserved": 0, "fusion_lat": 0.0, "type": "electric_bike"}, {"fusion_lon": 0.0, "name": "3fd948cd4d10741ee91d83053ae8f762", "rental_uris": {"android": "https://dc.lft.to/lastmile_qr_scan", "ios": "https://dc.lft.to/lastmile_qr_scan"}, "lat": 38.914222, "bike_id": "3fd948cd4d10741ee91d83053ae8f762", "is_disabled": 0, "lon": -77.0180745, "is_reserved": 0, "fusion_lat": 0.0, "type": "electric_scooter"}, {"fusion_lon": 0.0, "name": "d3ffab968f0bfe96aa53a2036b8e6bba", "rental_uris": {"android": "https://dc.lft.to/lastmile_qr_scan", "ios": "https://dc.lft.to/lastmile_qr_scan"}, "lat": 38.90969666666667, "bike_id": "d3ffab968f0bfe96aa53a2036b8e6bba", "is_disabled": 0, "lon": -77.03428166666667, "is_reserved": 0, "fusion_lat": 0.0, "type": "electric_scooter"}, {"fusion_lon": 0.0, "name": "65559902cdbf8e32b487d3c1ea7e33a6", "rental_uris": {"android": "https://dc.lft.to/lastmile_qr_scan", "ios": "https://dc.lft.to/lastmile_qr_scan"}, "lat": 38.899063166666664, "bike_id": "65559902cdbf8e32b487d3c1ea7e33a6", "is_disabled": 0, "lon": -76.98826116666666, "is_reserved": 0, "fusion_lat": 0.0, "type": "electric_scooter"}, {"fusion_lon": 0.0, "name": "e7d065dc72c099b62a1c6dfd759bdf36", "rental_uris": {"android": "https://dc.lft.to/lastmile_qr_scan", "ios": "https://dc.lft.to/lastmile_qr_scan"}, "lat": 38.923620666666665, "bike_id": "e7d065dc72c099b62a1c6dfd759bdf36", "is_disabled": 0, "lon": -77.07640266666667, "is_reserved": 0, "fusion_lat": 0.0, "type": "electric_scooter"}, {"fusion_lon": 0.0, "name": "cd96fe249f40cb92907fbaa0ba40ea9c", "rental_uris": {"android": "https://dc.lft.to/lastmile_qr_scan", "ios": "https://dc.lft.to/lastmile_qr_scan"}, "lat": 38.919649166666666, "bike_id": "cd96fe249f40cb92907fbaa0ba40ea9c", "is_disabled": 0, "lon": -77.02761216666667, "is_reserved": 0, "fusion_lat": 0.0, "type": "electric_scooter"}, {"fusion_lon": 0.0, "name": "38c81fb43bc84ad61f27e0ceac526ccc", "rental_uris": {"android": "https://dc.lft.to/lastmile_qr_scan", "ios": "https://dc.lft.to/lastmile_qr_scan"}, "lat": 38.9169055, "bike_id": "38c81fb43bc84ad61f27e0ceac526ccc", "is_disabled": 0, "lon": -77.03635533333333, "is_reserved": 0, "fusion_lat": 0.0, "type": "electric_scooter"}, {"fusion_lon": 0.0, "name": "b8638bd87b87a98217f1b48c8f75aa14", "rental_uris": {"android": "https://dc.lft.to/lastmile_qr_scan", "ios": "https://dc.lft.to/lastmile_qr_scan"}, "lat": 38.92635116666666, "bike_id": "b8638bd87b87a98217f1b48c8f75aa14", "is_disabled": 0, "lon": -77.03507383333333, "is_reserved": 0, "fusion_lat": 0.0, "type": "electric_scooter"},