{"data": {"bikes": [{"lat": 38.892355333333334, "fusion_lon": 0.0, "lon": -77.0238435, "is_disabled": 0, "type": "electric_scooter", "name": "24e59f02baeab5d38b1f11d1a4fe9b82", "fusion_lat": 0.0, "rental_uris": {"android": "https://dc.lft.to/lastmile_qr_scan", "ios": "https://dc.lft.to/lastmile_qr_scan"}, "bike_id": "24e59f02baeab5d38b1f11d1a4fe9b82", "is_reserved": 0}, {"lat": 38.86650483333333, "fusion_lon": 0.0, "lon": -76.98511933333333, "is_disabled": 0, "type": "electric_scooter", "name": "6e15e7728cce77d852059e5543f7d17a", "fusion_lat": 0.0, "rental_uris": {"android": "https://dc.lft.to/lastmile_qr_scan", "ios": "https://dc.lft.to/lastmile_qr_scan"}, "bike_id": "6e15e7728cce77d852059e5543f7d17a", "is_reserved": 0}, {"lat": 38.92227033333333, "fusion_lon": 0.0, "lon": -77.04239366666667, "is_disabled": 0, "type": "electric_scooter", "name": "79f3cc7c4d4b413d9b9a3b5a205811fb", "fusion_lat": 0.0, "rental_uris": {"android": "https://dc.lft.to/lastmile_qr_scan", "ios": "https://dc.lft.to/lastmile_qr_scan"}, "bike_id": "79f3cc7c4d4b413d9b9a3b5a205811fb", "is_reserved": 0}, {"lat": 38.845616666666665, "fusion_lon": 0.0, "lon": -77.06696566666666, "is_disabled": 0, "type": "electric_bike", "name": "b0c4464f6e6c44d7213edb6abec2fc59", "fusion_lat": 0.0, "rental_uris": {"android": "https://dc.lft.to/lastmile_qr_scan", "ios": "https://dc.lft.to/lastmile_qr_scan"}, "bike_id": "b0c4464f6e6c44d7213edb6abec2fc59", "is_reserved": 0}, {"lat": 38.866569166666665, "fusion_lon": 0.0, "lon": -76.98882766666667, "is_disabled": 0, "type": "electric_scooter", "name": "44336a91d926ddc7176245931a16be9e", "fusion_lat": 0.0, "rental_uris": {"android": "https://dc.lft.to/lastmile_qr_scan", "ios": "https://dc.lft.to/lastmile_qr_scan"}, "bike_id": "44336a91d926ddc7176245931a16be9e", "is_reserved": 0}, {"lat": 38.930222, "fusion_lon": 0.0, "lon": -77.055273, "is_disabled": 0, "type": "electric_scooter", "name": "5c5dcdb5070eee3c53e860bc99a80382", "fusion_lat": 0.0, "rental_uris": {"android": "https://dc.lft.to/lastmile_qr_scan", "ios": "https://dc.lft.to/lastmile_qr_scan"}, "bike_id": "5c5dcdb5070eee3c53e860bc99a80382", "is_reserved": 0}, {"lat": 38.99340883333333, "fusion_lon": 0.0, "lon": -77.11578816666666, "is_disabled": 0, "type": "electric_bike", "name": "f50989cea68d875c3f68311acfc17cd4", "fusion_lat": 0.0, "rental_uris": {"android": "https://dc.lft.to/lastmile_qr_scan", "ios": "https://dc.lft.to/lastmile_qr_scan"}, "bike_id": "f50989cea68d875c3f68311acfc17cd4", "is_reserved": 0}, {"lat": 38.92728916666667, "fusion_lon": 0.0, "lon": -77.036894, "is_disabled": 0, "type": "electric_scooter", "name": "d39ccad6617e91a0b3477a3d4c12fc55", "fusion_lat": 0.0, "rental_uris": {"android": "https://dc.lft.to/lastmile_qr_scan", "ios": "https://dc.lft.to/lastmile_qr_scan"}, "bike_id": "d39ccad6617e91a0b3477a3d4c12fc55", "is_reserved": 0}, {"lat": 38.90254866666667, "fusion_lon": 0.0, "lon": -77.04609783333333, "is_disabled": 0, "type": "electric_scooter", "name": "c94edf090405374c04361f7330fabb13", "fusion_lat": 0.0, "rental_uris": {"android": "https://dc.lft.to/lastmile_qr_scan", "ios": "https://dc.lft.to/lastmile_qr_scan"}, "bike_id": "c94edf090405374c04361f7330fabb13", "is_reserved": 0}, {"lat": 38.899902833333336, "fusion_lon": 0.0, "lon": -77.03181316666667, "is_disabled": 0, "type": "electric_scooter", "name": "747a6bf54217429cb8fa62e3f97b79d0", "fusion_lat": 0.0, "rental_uris": {"android": "https://dc.lft.to/lastmile_qr_scan", "ios": "https://dc.lft.to/lastmile_qr_scan"}, "bike_id": "747a6bf54217429cb8fa62e3f97b79d0", "is_reserved": 0}, {"lat": 38.82785533333333, "fusion_lon": 0.0, "lon": -77.00919816666666, "is_disabled": 0, "type": "electric_bike", "name": "aece1c89064e3bb8219e13f8b7061ea8", "fusion_lat": 0.0, "rental_uris": {"android": "https://dc.lft.to/lastmile_qr_scan", "ios": "https://dc.lft.to/lastmile_qr_scan"}, "bike_id": "aece1c89064e3bb8219e13f8b7061ea8", "is_reserved": 0}, {"lat": 38.90263016666667, "fusion_lon": 0.0, "lon": -77.0462635, "is_disabled": 0, "type": "electric_scooter", "name": "5cfc4a39c143e26d0f75ee1b179f228a", "fusion_lat": 0.0, "rental_uris": {"android": "https://dc.lft.to/lastmile_qr_scan", "ios": "https://dc.lft.to/lastmile_qr_scan"}, "bike_id": "5cfc4a39c143e26d0f75ee1b179f228a", "is_reserved": 0}, {"lat": 38.92368733333333, "fusion_lon": 0.0, "lon": -77.05049066666666, "is_disabled": 0, "type": "electric_scooter", "name": "fd46ee2e77b6f402ab00b237def2023e", "fusion_lat": 0.0, "rental_uris": {"android": "https://dc.lft.to/lastmile_qr_scan", "ios": "https://dc.lft.to/lastmile_qr_scan"}, "bike_id": "fd46ee2e77b6f402ab00b237def2023e", "is_reserved": 0}, {"lat": 38.9036755, "fusion_lon": 0.0, "lon": -77.00988266666667, "is_disabled": 0, "type": "electric_scooter", "name": "22b5cc98f44edf794793916d38331835", "fusion_lat": 0.0, "rental_uris": {"android": "https://dc.lft.to/lastmile_qr_scan", "ios": "https://dc.lft.to/lastmile_qr_scan"}, "bike_id": "22b5cc98f44edf794793916d38331835", "is_reserved": 0}, {"lat": 38.9050555, "fusion_lon": 0.0, "lon": -76.98487016666667, "is_disabled": 0, "type": "electric_scooter", "name": "5be8c40a411e400532c968ff94b8879a", "fusion_lat": 0.0, "rental_uris": {"android": "https://dc.lft.to/lastmile_qr_scan", "ios": "https://dc.lft.to/lastmile_qr_scan"}, "bike_id": "5be8c40a411e400532c968ff94b8879a", "is_reserved": 0}, {"lat": 38.894898, "fusion_lon": 0.0, "lon": -77.02732466666667, "is_disabled": 0, "type": "electric_scooter", "name": "15145b6e73dd712c5d2a6c0cd742e601", "fusion_lat": 0.0, "rental_uris": {"android": "https://dc.lft.to/lastmile_qr_scan", "ios": "https://dc.lft.to/lastmile_qr_scan"}, "bike_id": "15145b6e73dd712c5d2a6c0cd742e601", "is_reserved": 0}, {"lat": 38.90123666666667, "fusion_lon": 0.0, "lon": -77.03992566666666, "is_disabled": 0, "type": "electric_scooter", "name": "1ee0f46cf7fdb818c26bc75199e7538e", "fusion_lat": 0.0, "rental_uris": {"android": "https://dc.lft.to/lastmile_qr_scan", "ios": "https://dc.lft.to/lastmile_qr_scan"}, "bike_id": "1ee0f46cf7fdb818c26bc75199e7538e", "is_reserved": 0}, {"lat": 38.917066166666665, "fusion_lon": 0.0, "lon": -77.0324385, "is_disabled": 0, "type": "electric_scooter", "name": "18ef73431ae784df2caa26b5450b4ac3", "fusion_lat": 0.0, "rental_uris": {"android": "https://dc.lft.to/lastmile_qr_scan", "ios": "https://dc.lft.to/lastmile_qr_scan"}, "bike_id": "18ef73431ae784df2caa26b5450b4ac3", "is_reserved": 0}, {"lat": 38.916755333333334, "fusion_lon": 0.0, "lon": -77.02803816666666, "is_disabled": 0, "type": "electric_scooter", "name": "56b8f1903963c221a86015d208e9bb7f", "fusion_lat": 0.0, "rental_uris": {"android": "https://dc.lft.to/lastmile_qr_scan", "ios": "https://dc.lft.to/lastmile_qr_scan"}, "bike_id": "56b8f1903963c221a86015d208e9bb7f", "is_reserved": 0}, {"lat": 38.916788333333336, "fusion_lon": 0.0, "lon": -77.02806433333333, "is_disabled": 0, "type": "electric_scooter", "name": "2a794636f7568c54089fea25f6f44b62", "fusion_lat": 0.0, "rental_uris": {"android": "https://dc.lft.to/lastmile_qr_scan", "ios": "https://dc.lft.to/lastmile_qr_scan"}, "bike_id": "2a794636f7568c54089fea25f6f44b62", "is_reserved": 0}, {"lat": 38.8850415, "fusion_lon": 0.0, "lon": -77.01587416666666, "is_disabled": 0, "type": "electric_scooter", "name": "08bfe321b36842edb79e589e34a8a9b0", "fusion_lat": 0.0, "rental_uris": {"android": "https://dc.lft.to/lastmile_qr_scan", "ios": "https://dc.lft.to/lastmile_qr_scan"}, "bike_id": "08bfe321b36842edb79e589e34a8a9b0", "is_reserved": 0}, {"lat": 38.9107005, "fusion_lon": 0.0, "lon": -77.04489316666667, "is_disabled": 0, "type": "electric_scooter", "name": "9addc3834cd67ea8ea6ee2a207463dc2", "fusion_lat": 0.0, "rental_uris": {"android": "https://dc.lft.to/lastmile_qr_scan", "ios": "https://dc.lft.to/lastmile_qr_scan"}, "bike_id": "9addc3834cd67ea8ea6ee2a207463dc2", "is_reserved": 0}, {"lat": 38.9184655, "fusion_lon": 0.0, "lon": -76.96553666666667, "is_disabled": 0, "type": "electric_scooter", "name": "d5167785f3141c5090d88579be9fc269", "fusion_lat": 0.0, "rental_uris": {"android": "https://dc.lft.to/lastmile_qr_scan", "ios": "https://dc.lft.to/lastmile_qr_scan"}, "bike_id": "d5167785f3141c5090d88579be9fc269", "is_reserved": 0}, {"lat": 38.925396166666665, "fusion_lon": 0.0, "lon": -77.00126733333333, "is_disabled": 0, "type": "electric_bike", "name": "82cd2aae84567f9f6790f60c21799305", "fusion_lat": 0.0, "rental_uris": {"android": "https://dc.lft.to/lastmile_qr_scan", "ios": "https://dc.lft.to/lastmile_qr_scan"}, "bike_id": "82cd2aae84567f9f6790f60c21799305", "is_reserved": 0}, {"lat": 38.904498833333335, "fusion_lon": 0.0, "lon": -77.03777283333334, "is_disabled": 0, "type": "electric_scooter", "name": "0327206a67b9a4939b2f96de649a4e7d", "fusion_lat": 0.0, "rental_uris": {"android": "https://dc.lft.to/lastmile_qr_scan", "ios": "https://dc.lft.to/lastmile_qr_scan"}, "bike_id": "0327206a67b9a4939b2f96de649a4e7d", "is_reserved": 0}, {"lat": 38.86654633333333, "fusion_lon": 0.0, "lon": -76.98884766666667, "is_disabled": 0, "type": "electric_scooter", "name": "e4ec98553d75c8f9a1539baa562e0672", "fusion_lat": 0.0, "rental_uris": {"android": "https://dc.lft.to/lastmile_qr_scan", "ios": "https://dc.lft.to/lastmile_qr_scan"}, "bike_id": "e4ec98553d75c8f9a1539baa562e0672", "is_reserved": 0}, {"lat": 38.92051216666667, "fusion_lon": 0.0, "lon": -76.96363666666667, "is_disabled": 0, "type": "electric_scooter", "name": "49a19bdb8f48b458f30be5ac2fcdc639", "fusion_lat": 0.0, "rental_uris": {"android": "https://dc.lft.to/lastmile_qr_scan", "ios": "https://dc.lft.to/lastmile_qr_scan"}, "bike_id": "49a19bdb8f48b458f30be5ac2fcdc639", "is_reserved": 0}, {"lat": 38.8450395, "fusion_lon": 0.0, "lon": -76.99356683333333, "is_disabled": 0, "type": "electric_bike", "name": "4493d35a88a37d1e533e9e7b8040d277", "fusion_lat": 0.0, "rental_uris": {"android": "https://dc.lft.to/lastmile_qr_scan", "ios": "https://dc.lft.to/lastmile_qr_scan"}, "bike_id": "4493d35a88a37d1e533e9e7b8040d277", "is_reserved": 0}, {"lat": 38.919386833333334, "fusion_lon": 0.0, "lon": -77.02519683333334, "is_disabled": 0, "type": "electric_scooter", "name": "efa70d09edf70b6842d0275662fe2580", "fusion_lat": 0.0, "rental_uris": {"android": "https://dc.lft.to/lastmile_qr_scan", "ios": "https://dc.lft.to/lastmile_qr_scan"}, "bike_id": "efa70d09edf70b6842d0275662fe2580", "is_reserved": 0}, {"lat": 38.93274616666667, "fusion_lon": 0.0, "lon": -77.02837516666666, "is_disabled": 0, "type": "electric_scooter", "name": "2e11d605d04059ffd36d754ea5ec32ac", "fusion_lat": 0.0, "rental_uris": {"android": "https://dc.lft.to/lastmile_qr_scan", "ios": "https://dc.lft.to/lastmile_qr_scan"}, "bike_id": "2e11d605d04059ffd36d754ea5ec32ac", "is_reserved": 0}, {"lat": 38.87156383333333, "fusion_lon": 0.0, "lon": -77.007101, "is_disabled": 0, "type": "electric_scooter", "name": "33adde894c50c467b1700fd940eb7a9a", "fusion_lat": 0.0, "rental_uris": {"android": "https://dc.lft.to/lastmile_qr_scan", "ios": "https://dc.lft.to/lastmile_qr_scan"}, "bike_id": "33adde894c50c467b1700fd940eb7a9a", "is_reserved": 0}, {"lat": 38.866637, "fusion_lon": 0.0, "lon": -76.985093, "is_disabled": 0, "type": "electric_scooter", "name": "21fcf50924356455198f2bfc2e2d3d4f", "fusion_lat": 0.0, "rental_uris": {"android": "https://dc.lft.to/lastmile_qr_scan", "ios": "https://dc.lft.to/lastmile_qr_scan"}, "bike_id": "21fcf50924356455198f2bfc2e2d3d4f", "is_reserved": 0}, {"lat": 38.90043083333333, "fusion_lon": 0.0, "lon": -76.98049333333333, "is_disabled": 0, "type": "electric_scooter", "name": "00041c0e9c48800e3caf5a916edb8de2", "fusion_lat": 0.0, "rental_uris": {"android": "https://dc.lft.to/lastmile_qr_scan", "ios": "https://dc.lft.to/lastmile_qr_scan"}, "bike_id": "00041c0e9c48800e3caf5a916edb8de2", "is_reserved": 0}, {"lat": 38.941754333333336, "fusion_lon": 0.0, "lon": -77.02563683333334, "is_disabled": 0, "type": "electric_scooter", "name": "faa6e3af3b7da945f79530be7157d0dc", "fusion_lat": 0.0, "rental_uris": {"android": "https://dc.lft.to/lastmile_qr_scan", "ios": "https://dc.lft.to/lastmile_qr_scan"}, "bike_id": "faa6e3af3b7da945f79530be7157d0dc", "is_reserved": 0}, {"lat": 38.8651375, "fusion_lon": 0.0, "lon": -76.9731995, "is_disabled": 0, "type": "electric_bike", "name": "ecd0a11bbd14581ebd6625743b251e7c", "fusion_lat": 0.0, "rental_uris": {"android": "https://dc.lft.to/lastmile_qr_scan", "ios": "https://dc.lft.to/lastmile_qr_scan"}, "bike_id": "ecd0a11bbd14581ebd6625743b251e7c", "is_reserved": 0}, {"lat": 38.91655633333333, "fusion_lon": 0.0, "lon": -77.0220095, "is_disabled": 0, "type": "electric_scooter", "name": "42daad568851dde4cd816ab871c286a4", "fusion_lat": 0.0, "rental_uris": {"android": "https://dc.lft.to/lastmile_qr_scan", "ios": "https://dc.lft.to/lastmile_qr_scan"}, "bike_id": "42daad568851dde4cd816ab871c286a4", "is_reserved": 0}, {"lat": 38.894132166666665, "fusion_lon": 0.0, "lon": -77.0242235, "is_disabled": 0, "type": "electric_scooter", "name": "6a7c8d9b224df8162614e138d9f312d7", "fusion_lat": 0.0, "rental_uris": {"android": "https://dc.lft.to/lastmile_qr_scan", "ios": "https://dc.lft.to/lastmile_qr_scan"}, "bike_id": "6a7c8d9b224df8162614e138d9f312d7", "is_reserved": 0}, {"lat": 38.92813683333333, "fusion_lon": 0.0, "lon": -77.05450283333333, "is_disabled": 0, "type": "electric_scooter", "name": "4f6911a731a03ff91c6066eafb99769f", "fusion_lat": 0.0, "rental_uris": {"android": "https://dc.lft.to/lastmile_qr_scan", "ios": "https://dc.lft.to/lastmile_qr_scan"}, "bike_id": "4f6911a731a03ff91c6066eafb99769f", "is_reserved": 0}, {"lat": 38.94986433333333, "fusion_lon": 0.0, "lon": -77.02711216666667, "is_disabled": 0, "type": "electric_scooter", "name": "b22de3b2834dd6aad5a578b575d70d39", "fusion_lat": 0.0, "rental_uris": {"android": "https://dc.lft.to/lastmile_qr_scan", "ios": "https://dc.lft.to/lastmile_qr_scan"}, "bike_id": "b22de3b2834dd6aad5a578b575d70d39", "is_reserved": 0}, {"lat": 38.975175, "fusion_lon": 0.0, "lon": -77.01732516666667, "is_disabled": 0, "type": "electric_scooter", "name": "43dafa56b81673aba63f4f8e5666f49e", "fusion_lat": 0.0, "rental_uris": {"android": "https://dc.lft.to/lastmile_qr_scan", "ios": "https://dc.lft.to/lastmile_qr_scan"}, "bike_id": "43dafa56b81673aba63f4f8e5666f49e", "is_reserved": 0}, {"lat": 38.911901666666665, "fusion_lon": 0.0, "lon": -77.0302065, "is_disabled": 0, "type": "electric_scooter", "name": "2b9397d8fd821a63beb8e9c3bf86e3e8", "fusion_lat": 0.0, "rental_uris": {"android": "https://dc.lft.to/lastmile_qr_scan", "ios": "https://dc.lft.to/lastmile_qr_scan"}, "bike_id": "2b9397d8fd821a63beb8e9c3bf86e3e8", "is_reserved": 0}, {"lat": 38.9592625, "fusion_lon": 0.0, "lon": -76.9254155, "is_disabled": 0, "type": "electric_bike", "name": "58e161d278cdfe6a6e03187158b82703", "fusion_lat": 0.0, "rental_uris": {"android": "https://dc.lft.to/lastmile_qr_scan", "ios": "https://dc.lft.to/lastmile_qr_scan"}, "bike_id": "58e161d278cdfe6a6e03187158b82703", "is_reserved": 0}, {"lat": 38.87630883333333, "fusion_lon": 0.0, "lon": -77.0093795, "is_disabled": 0, "type": "electric_scooter", "name": "d614e47d81f1dc56b76006363d1195e9", "fusion_lat": 0.0, "rental_uris": {"android": "https://dc.lft.to/lastmile_qr_scan", "ios": "https://dc.lft.to/lastmile_qr_scan"}, "bike_id": "d614e47d81f1dc56b76006363d1195e9", "is_reserved": 0}, {"lat": 38.8689675, "fusion_lon": 0.0, "lon": -76.982361, "is_disabled": 0, "type": "electric_scooter", "name": "d4f2ed3949b0d87dd733fe7c36fc018c", "fusion_lat": 0.0, "rental_uris": {"android": "https://dc.lft.to/lastmile_qr_scan", "ios": "https://dc.lft.to/lastmile_qr_scan"}, "bike_id": "d4f2ed3949b0d87dd733fe7c36fc018c", "is_reserved": 0}, {"lat": 38.9047415, "fusion_lon": 0.0, "lon": -77.02821116666667, "is_disabled": 0, "type": "electric_scooter", "name": "67bdf62704c72e3d0a6ec43ae487f9f4", "fusion_lat": 0.0, "rental_uris": {"android": "https://dc.lft.to/lastmile_qr_scan", "ios": "https://dc.lft.to/lastmile_qr_scan"}, "bike_id": "67bdf62704c72e3d0a6ec43ae487f9f4", "is_reserved": 0}, {"lat": 38.928513333333335, "fusion_lon": 0.0, "lon": -77.01412133333334, "is_disabled": 0, "type": "electric_scooter", "name": "86d3b2721d4251b135d104d932925b52", "fusion_lat": 0.0, "rental_uris": {"android": "https://dc.lft.to/lastmile_qr_scan", "ios": "https://dc.lft.to/lastmile_qr_scan"}, "bike_id": "86d3b2721d4251b135d104d932925b52", "is_reserved": 0}, {"lat": 38.892190666666664, "fusion_lon": 0.0, "lon": -77.04373666666666, "is_disabled": 0, "type": "electric_scooter", "name": "5992cb16d155d8131b0526f092ce35bb", "fusion_lat": 0.0, "rental_uris": {"android": "https://dc.lft.to/lastmile_qr_scan", "ios": "https://dc.lft.to/lastmile_qr_scan"}, "bike_id": "5992cb16d155d8131b0526f092ce35bb", "is_reserved": 0}, {"lat": 38.89367466666667, "fusion_lon": 0.0, "lon": -76.94993733333334, "is_disabled": 0, "type": "electric_scooter", "name": "a410d60f8dc0500afa6927597717fc14", "fusion_lat": 0.0, "rental_uris": {"android": "https://dc.lft.to/lastmile_qr_scan", "ios": "https://dc.lft.to/lastmile_qr_scan"}, "bike_id": "a410d60f8dc0500afa6927597717fc14", "is_reserved": 0}, {"lat": 38.867022666666664, "fusion_lon": 0.0, "lon": -76.9871265, "is_disabled": 0, "type": "electric_scooter", "name": "2383efd6f7eaeee17677fd16144e5bdf", "fusion_lat": 0.0, "rental_uris": {"android": "https://dc.lft.to/lastmile_qr_scan", "ios": "https://dc.lft.to/lastmile_qr_scan"}, "bike_id": "2383efd6f7eaeee17677fd16144e5bdf", "is_reserved": 0}, {"lat": 38.90023266666667, "fusion_lon": 0.0, "lon": -77.03950983333333, "is_disabled": 0, "type": "electric_scooter", "name": "0e6a51a76efc30991858d08f42d958fd", "fusion_lat": 0.0, "rental_uris": {"android": "https://dc.lft.to/lastmile_qr_scan", "ios": "https://dc.lft.to/lastmile_qr_scan"}, "bike_id": "0e6a51a76efc30991858d08f42d958fd", "is_reserved": 0}, {"lat": 38.9023915, "fusion_lon": 0.0, "lon": -77.02648366666666, "is_disabled": 0, "type": "electric_scooter", "name": "c0ca69f928db5bd97514aa5f2683a2cd", "fusion_lat": 0.0, "rental_uris": {"android": "https://dc.lft.to/lastmile_qr_scan", "ios": "https://dc.lft.to/lastmile_qr_scan"}, "bike_id": "c0ca69f928db5bd97514aa5f2683a2cd", "is_reserved": 0}, {"lat": 38.930842, "fusion_lon": 0.0, "lon": -77.00412283333333, "is_disabled": 0, "type": "electric_scooter", "name": "4ec4f077be42e1bf1e315905166eb425", "fusion_lat": 0.0, "rental_uris": {"android": "https://dc.lft.to/lastmile_qr_scan", "ios": "https://dc.lft.to/lastmile_qr_scan"}, "bike_id": "4ec4f077be42e1bf1e315905166eb425", "is_reserved": 0}, {"lat": 38.898380833333334, "fusion_lon": 0.0, "lon": -77.0435305, "is_disabled": 0, "type": "electric_scooter", "name": "314ad88f654fecc97950d6d4da9bae73", "fusion_lat": 0.0, "rental_uris": {"android": "https://dc.lft.to/lastmile_qr_scan", "ios": "https://dc.lft.to/lastmile_qr_scan"}, "bike_id": "314ad88f654fecc97950d6d4da9bae73", "is_reserved": 0}, {"lat": 38.892227166666665, "fusion_lon": 0.0, "lon": -77.04373883333334, "is_disabled": 0, "type": "electric_scooter", "name": "160f8dbc25dc046d27ab72e63e0b96ce", "fusion_lat": 0.0, "rental_uris": {"android": "https://dc.lft.to/lastmile_qr_scan", "ios": "https://dc.lft.to/lastmile_qr_scan"}, "bike_id": "160f8dbc25dc046d27ab72e63e0b96ce", "is_reserved": 0}, {"lat": 38.91453766666667, "fusion_lon": 0.0, "lon": -77.00895483333333, "is_disabled": 0, "type": "electric_scooter", "name": "f449c66a41c1b39011ba8d6c89382b6f", "fusion_lat": 0.0, "rental_uris": {"android": "https://dc.lft.to/lastmile_qr_scan", "ios": "https://dc.lft.to/lastmile_qr_scan"}, "bike_id": "f449c66a41c1b39011ba8d6c89382b6f", "is_reserved": 0}, {"lat": 38.91643933333334, "fusion_lon": 0.0, "lon": -77.04814016666667, "is_disabled": 0, "type": "electric_scooter", "name": "1605f6285dd78704ad08072af713a68a", "fusion_lat": 0.0, "rental_uris": {"android": "https://dc.lft.to/lastmile_qr_scan", "ios": "https://dc.lft.to/lastmile_qr_scan"}, "bike_id": "1605f6285dd78704ad08072af713a68a", "is_reserved": 0}, {"lat": 38.899396, "fusion_lon": 0.0, "lon": -77.0421975, "is_disabled": 0, "type": "electric_scooter", "name": "9f3346027b097751a7f342b7acea989e", "fusion_lat": 0.0, "rental_uris": {"android": "https://dc.lft.to/lastmile_qr_scan", "ios": "https://dc.lft.to/lastmile_qr_scan"}, "bike_id": "9f3346027b097751a7f342b7acea989e", "is_reserved": 0}, {"lat": 38.893493, "fusion_lon": 0.0, "lon": -77.04192933333333, "is_disabled": 0, "type": "electric_scooter", "name": "62402fe8fa5005a54f4814e14285278f", "fusion_lat": 0.0, "rental_uris": {"android": "https://dc.lft.to/lastmile_qr_scan", "ios": "https://dc.lft.to/lastmile_qr_scan"}, "bike_id": "62402fe8fa5005a54f4814e14285278f", "is_reserved": 0}, {"lat": 38.887371333333334, "fusion_lon": 0.0, "lon": -77.02581433333333, "is_disabled": 0, "type": "electric_scooter", "name": "88dc4788c1697272d53725856b65c702", "fusion_lat": 0.0, "rental_uris": {"android": "https://dc.lft.to/lastmile_qr_scan", "ios": "https://dc.lft.to/lastmile_qr_scan"}, "bike_id": "88dc4788c1697272d53725856b65c702", "is_reserved": 0}, {"lat": 38.90319933333333, "fusion_lon": 0.0, "lon": -77.01878666666667, "is_disabled": 0, "type": "electric_scooter", "name": "4f9eefb87c4c9d282bce1cb9583b5ca2", "fusion_lat": 0.0, "rental_uris": {"android": "https://dc.lft.to/lastmile_qr_scan", "ios": "https://dc.lft.to/lastmile_qr_scan"}, "bike_id": "4f9eefb87c4c9d282bce1cb9583b5ca2", "is_reserved": 0}, {"lat": 38.914019333333336, "fusion_lon": 0.0, "lon": -77.03288733333333, "is_disabled": 0, "type": "electric_scooter", "name": "4fa28d3f716ee75eb4c4d3b940435902", "fusion_lat": 0.0, "rental_uris": {"android": "https://dc.lft.to/lastmile_qr_scan", "ios": "https://dc.lft.to/lastmile_qr_scan"}, "bike_id": "4fa28d3f716ee75eb4c4d3b940435902", "is_reserved": 0}, {"lat": 38.927412, "fusion_lon": 0.0, "lon": -77.02262666666667, "is_disabled": 0, "type": "electric_scooter", "name": "65319382acce0b847901586f5eb3116a", "fusion_lat": 0.0, "rental_uris": {"android": "https://dc.lft.to/lastmile_qr_scan", "ios": "https://dc.lft.to/lastmile_qr_scan"}, "bike_id": "65319382acce0b847901586f5eb3116a", "is_reserved": 0}, {"lat": 38.8120235, "fusion_lon": 0.0, "lon": -77.10842316666667, "is_disabled": 0, "type": "electric_bike", "name": "fe0243a51cb37f146efa01c37f050242", "fusion_lat": 0.0, "rental_uris": {"android": "https://dc.lft.to/lastmile_qr_scan", "ios": "https://dc.lft.to/lastmile_qr_scan"}, "bike_id": "fe0243a51cb37f146efa01c37f050242", "is_reserved": 0}, {"lat": 38.9013375, "fusion_lon": 0.0, "lon": -77.04035566666667, "is_disabled": 0, "type": "electric_scooter", "name": "083858f952b9545cef4d4dde9a3147f7", "fusion_lat": 0.0, "rental_uris": {"android": "https://dc.lft.to/lastmile_qr_scan", "ios": "https://dc.lft.to/lastmile_qr_scan"}, "bike_id": "083858f952b9545cef4d4dde9a3147f7", "is_reserved": 0}, {"lat": 38.863907833333336, "fusion_lon": 0.0, "lon": -77.012169, "is_disabled": 0, "type": "electric_scooter", "name": "f6b93fe694ba603d1dcf2f86bf8ff3ec", "fusion_lat": 0.0, "rental_uris": {"android": "https://dc.lft.to/lastmile_qr_scan", "ios": "https://dc.lft.to/lastmile_qr_scan"}, "bike_id": "f6b93fe694ba603d1dcf2f86bf8ff3ec", "is_reserved": 0}, {"lat": 38.89302933333333, "fusion_lon": 0.0, "lon": -76.92919183333333, "is_disabled": 0, "type": "electric_scooter", "name": "246b0a69d10f3504ac26cf0936d578e6", "fusion_lat": 0.0, "rental_uris": {"android": "https://dc.lft.to/lastmile_qr_scan", "ios": "https://dc.lft.to/lastmile_qr_scan"}, "bike_id": "246b0a69d10f3504ac26cf0936d578e6", "is_reserved": 0}, {"lat": 38.926677, "fusion_lon": 0.0, "lon": -77.02282766666667, "is_disabled": 0, "type": "electric_scooter", "name": "af2130d8e33d5f4542acd464b43abb07", "fusion_lat": 0.0, "rental_uris": {"android": "https://dc.lft.to/lastmile_qr_scan", "ios": "https://dc.lft.to/lastmile_qr_scan"}, "bike_id": "af2130d8e33d5f4542acd464b43abb07", "is_reserved": 0}, {"lat": 38.86506116666666, "fusion_lon": 0.0, "lon": -76.99003283333333, "is_disabled": 0, "type": "electric_scooter", "name": "e6c58daac0bc8168d44db52d65e456ad", "fusion_lat": 0.0, "rental_uris": {"android": "https://dc.lft.to/lastmile_qr_scan", "ios": "https://dc.lft.to/lastmile_qr_scan"}, "bike_id": "e6c58daac0bc8168d44db52d65e456ad", "is_reserved": 0}, {"lat": 38.89814716666667, "fusion_lon": 0.0, "lon": -77.03316133333334, "is_disabled": 0, "type": "electric_scooter", "name": "1b7e09a9a512edbc7a66e2e842d81adb", "fusion_lat": 0.0, "rental_uris": {"android": "https://dc.lft.to/lastmile_qr_scan", "ios": "https://dc.lft.to/lastmile_qr_scan"}, "bike_id": "1b7e09a9a512edbc7a66e2e842d81adb", "is_reserved": 0}, {"lat": 38.97132883333333, "fusion_lon": 0.0, "lon": -77.03164, "is_disabled": 0, "type": "electric_bike", "name": "91d21012f45163a27c776c5c26c85f91", "fusion_lat": 0.0, "rental_uris": {"android": "https://dc.lft.to/lastmile_qr_scan", "ios": "https://dc.lft.to/lastmile_qr_scan"}, "bike_id": "91d21012f45163a27c776c5c26c85f91", "is_reserved": 0}, {"lat": 38.90384183333333, "fusion_lon": 0.0, "lon": -77.03823316666667, "is_disabled": 0, "type": "electric_scooter", "name": "77b69d6fb98d535cd7088492f731425d", "fusion_lat": 0.0, "rental_uris": {"android": "https://dc.lft.to/lastmile_qr_scan", "ios": "https://dc.lft.to/lastmile_qr_scan"}, "bike_id": "77b69d6fb98d535cd7088492f731425d", "is_reserved": 0}, {"lat": 38.889895333333335, "fusion_lon": 0.0, "lon": -76.98331533333334, "is_disabled": 0, "type": "electric_scooter", "name": "d907a38dc819b3482181be37161e515d", "fusion_lat": 0.0, "rental_uris": {"android": "https://dc.lft.to/lastmile_qr_scan", "ios": "https://dc.lft.to/lastmile_qr_scan"}, "bike_id": "d907a38dc819b3482181be37161e515d", "is_reserved": 0}, {"lat": 38.9158375, "fusion_lon": 0.0, "lon": -77.0320925, "is_disabled": 0, "type": "electric_scooter", "name": "a63c561c8bbc766fab762217d660578f", "fusion_lat": 0.0, "rental_uris": {"android": "https://dc.lft.to/lastmile_qr_scan", "ios": "https://dc.lft.to/lastmile_qr_scan"}, "bike_id": "a63c561c8bbc766fab762217d660578f", "is_reserved": 0}, {"lat": 38.8922305, "fusion_lon": 0.0, "lon": -77.04504216666666, "is_disabled": 0, "type": "electric_scooter", "name": "e331c3f14584aaa1a2b8bc1371a01d55", "fusion_lat": 0.0, "rental_uris": {"android": "https://dc.lft.to/lastmile_qr_scan", "ios": "https://dc.lft.to/lastmile_qr_scan"}, "bike_id": "e331c3f14584aaa1a2b8bc1371a01d55", "is_reserved": 0}, {"lat": 38.929869333333336, "fusion_lon": 0.0, "lon": -77.034727, "is_disabled": 0, "type": "electric_scooter", "name": "a05ecc595f174f2837f5ee99ef21a832", "fusion_lat": 0.0, "rental_uris": {"android": "https://dc.lft.to/lastmile_qr_scan", "ios": "https://dc.lft.to/lastmile_qr_scan"}, "bike_id": "a05ecc595f174f2837f5ee99ef21a832", "is_reserved": 0}, {"lat": 38.91802533333333, "fusion_lon": 0.0, "lon": -77.02497, "is_disabled": 0, "type": "electric_scooter", "name": "40fb849e191860cabf036322d590841f", "fusion_lat": 0.0, "rental_uris": {"android": "https://dc.lft.to/lastmile_qr_scan", "ios": "https://dc.lft.to/lastmile_qr_scan"}, "bike_id": "40fb849e191860cabf036322d590841f", "is_reserved": 0}, {"lat": 38.887055333333336, "fusion_lon": 0.0, "lon": -77.0219155, "is_disabled": 0, "type": "electric_scooter", "name": "e40834a99bcc301cf3f7a8810b76ca9d", "fusion_lat": 0.0, "rental_uris": {"android": "https://dc.lft.to/lastmile_qr_scan", "ios": "https://dc.lft.to/lastmile_qr_scan"}, "bike_id": "e40834a99bcc301cf3f7a8810b76ca9d", "is_reserved": 0}, {"lat": 38.91710916666667, "fusion_lon": 0.0, "lon": -77.02604083333334, "is_disabled": 0, "type": "electric_scooter", "name": "ba3dda54fb14159c206e5010a4fbbab2", "fusion_lat": 0.0, "rental_uris": {"android": "https://dc.lft.to/lastmile_qr_scan", "ios": "https://dc.lft.to/lastmile_qr_scan"}, "bike_id": "ba3dda54fb14159c206e5010a4fbbab2", "is_reserved": 0}, {"lat": 38.952321, "fusion_lon": 0.0, "lon": -77.01427066666666, "is_disabled": 0, "type": "electric_scooter", "name": "8fbe215497def69e69a46bc16a3230c7", "fusion_lat": 0.0, "rental_uris": {"android": "https://dc.lft.to/lastmile_qr_scan", "ios": "https://dc.lft.to/lastmile_qr_scan"}, "bike_id": "8fbe215497def69e69a46bc16a3230c7", "is_reserved": 0}, {"lat": 38.930317, "fusion_lon": 0.0, "lon": -77.0130215, "is_disabled": 0, "type": "electric_scooter", "name": "9fc7ab900036ce38d527944a2e80c588", "fusion_lat": 0.0, "rental_uris": {"android": "https://dc.lft.to/lastmile_qr_scan", "ios": "https://dc.lft.to/lastmile_qr_scan"}, "bike_id": "9fc7ab900036ce38d527944a2e80c588", "is_reserved": 0}, {"lat": 38.898017, "fusion_lon": 0.0, "lon": -77.006079, "is_disabled": 0, "type": "electric_bike", "name": "aaaf95319f48d8f295f139a1cc9b4991", "fusion_lat": 0.0, "rental_uris": {"android": "https://dc.lft.to/lastmile_qr_scan", "ios": "https://dc.lft.to/lastmile_qr_scan"}, "bike_id": "aaaf95319f48d8f295f139a1cc9b4991", "is_reserved": 0}, {"lat": 38.887122833333336, "fusion_lon": 0.0, "lon": -77.021976, "is_disabled": 0, "type": "electric_scooter", "name": "23dede0bf732625acc38ac2632c58f27", "fusion_lat": 0.0, "rental_uris": {"android": "https://dc.lft.to/lastmile_qr_scan", "ios": "https://dc.lft.to/lastmile_qr_scan"}, "bike_id": "23dede0bf732625acc38ac2632c58f27", "is_reserved": 0}, {"lat": 38.92028216666667, "fusion_lon": 0.0, "lon": -77.01808116666666, "is_disabled": 0, "type": "electric_scooter", "name": "ad6bf4ff8c09d06b3052057817135437", "fusion_lat": 0.0, "rental_uris": {"android": "https://dc.lft.to/lastmile_qr_scan", "ios": "https://dc.lft.to/lastmile_qr_scan"}, "bike_id": "ad6bf4ff8c09d06b3052057817135437", "is_reserved": 0}, {"lat": 38.928121833333336, "fusion_lon": 0.0, "lon": -77.05530216666666, "is_disabled": 0, "type": "electric_scooter", "name": "95cf513a19088008450845276c2e7ac8", "fusion_lat": 0.0, "rental_uris": {"android": "https://dc.lft.to/lastmile_qr_scan", "ios": "https://dc.lft.to/lastmile_qr_scan"}, "bike_id": "95cf513a19088008450845276c2e7ac8", "is_reserved": 0}, {"lat": 38.89246133333333, "fusion_lon": 0.0, "lon": -77.017272, "is_disabled": 0, "type": "electric_scooter", "name": "a172a7fa04f2bb52dbfdc24989ceeaa4", "fusion_lat": 0.0, "rental_uris": {"android": "https://dc.lft.to/lastmile_qr_scan", "ios": "https://dc.lft.to/lastmile_qr_scan"}, "bike_id": "a172a7fa04f2bb52dbfdc24989ceeaa4", "is_reserved": 0}, {"lat": 38.892352, "fusion_lon": 0.0, "lon": -77.03185166666667, "is_disabled": 0, "type": "electric_scooter", "name": "548b3b06789b9efc0781eb588b6d33f8", "fusion_lat": 0.0, "rental_uris": {"android": "https://dc.lft.to/lastmile_qr_scan", "ios": "https://dc.lft.to/lastmile_qr_scan"}, "bike_id": "548b3b06789b9efc0781eb588b6d33f8", "is_reserved": 0}, {"lat": 38.819089166666664, "fusion_lon": 0.0, "lon": -76.99912716666667, "is_disabled": 0, "type": "electric_bike", "name": "d8077216ccf375978dcbb7a69a661035", "fusion_lat": 0.0, "rental_uris": {"android": "https://dc.lft.to/lastmile_qr_scan", "ios": "https://dc.lft.to/lastmile_qr_scan"}, "bike_id": "d8077216ccf375978dcbb7a69a661035", "is_reserved": 0}, {"lat": 38.87008983333333, "fusion_lon": 0.0, "lon": -76.98084433333334, "is_disabled": 0, "type": "electric_scooter", "name": "5e22be74448490eb1097680ce283c4b0", "fusion_lat": 0.0, "rental_uris": {"android": "https://dc.lft.to/lastmile_qr_scan", "ios": "https://dc.lft.to/lastmile_qr_scan"}, "bike_id": "5e22be74448490eb1097680ce283c4b0", "is_reserved": 0}, {"lat": 38.89717016666667, "fusion_lon": 0.0, "lon": -77.0435465, "is_disabled": 0, "type": "electric_scooter", "name": "5662fe5dc4ea054da8a18c74a5d465d1", "fusion_lat": 0.0, "rental_uris": {"android": "https://dc.lft.to/lastmile_qr_scan", "ios": "https://dc.lft.to/lastmile_qr_scan"}, "bike_id": "5662fe5dc4ea054da8a18c74a5d465d1", "is_reserved": 0}, {"lat": 38.89242333333333, "fusion_lon": 0.0, "lon": -77.032094, "is_disabled": 0, "type": "electric_scooter", "name": "17d20b2a8646b7e8d52a890e5df791ca", "fusion_lat": 0.0, "rental_uris": {"android": "https://dc.lft.to/lastmile_qr_scan", "ios": "https://dc.lft.to/lastmile_qr_scan"}, "bike_id": "17d20b2a8646b7e8d52a890e5df791ca", "is_reserved": 0}, {"lat": 38.907695333333336, "fusion_lon": 0.0, "lon": -77.03739916666666, "is_disabled": 0, "type": "electric_scooter", "name": "03741bc637d8856d1228f27d16c4845f", "fusion_lat": 0.0, "rental_uris": {"android": "https://dc.lft.to/lastmile_qr_scan", "ios": "https://dc.lft.to/lastmile_qr_scan"}, "bike_id": "03741bc637d8856d1228f27d16c4845f", "is_reserved": 0}, {"lat": 38.984566666666666, "fusion_lon": 0.0, "lon": -77.02687533333334, "is_disabled": 0, "type": "electric_scooter", "name": "5ae200c345741858e7e2a03a9c8196c0", "fusion_lat": 0.0, "rental_uris": {"android": "https://dc.lft.to/lastmile_qr_scan", "ios": "https://dc.lft.to/lastmile_qr_scan"}, "bike_id": "5ae200c345741858e7e2a03a9c8196c0", "is_reserved": 0}, {"lat": 38.91414016666667, "fusion_lon": 0.0, "lon": -77.03148516666667, "is_disabled": 0, "type": "electric_scooter", "name": "c3582a3d5ffe6d54bfff00ed03c571f3", "fusion_lat": 0.0, "rental_uris": {"android": "https://dc.lft.to/lastmile_qr_scan", "ios": "https://dc.lft.to/lastmile_qr_scan"}, "bike_id": "c3582a3d5ffe6d54bfff00ed03c571f3", "is_reserved": 0}, {"lat": 38.919857666666665, "fusion_lon": 0.0, "lon": -77.04148266666667, "is_disabled": 0, "type": "electric_scooter", "name": "7e2e3e90040cf0a52cd46e047583fa7b", "fusion_lat": 0.0, "rental_uris": {"android": "https://dc.lft.to/lastmile_qr_scan", "ios": "https://dc.lft.to/lastmile_qr_scan"}, "bike_id": "7e2e3e90040cf0a52cd46e047583fa7b", "is_reserved": 0}, {"lat": 38.915623, "fusion_lon": 0.0, "lon": -77.00523166666666, "is_disabled": 0, "type": "electric_scooter", "name": "e4ca10f35f38b21b103bf0e9b473f6af", "fusion_lat": 0.0, "rental_uris": {"android": "https://dc.lft.to/lastmile_qr_scan", "ios": "https://dc.lft.to/lastmile_qr_scan"}, "bike_id": "e4ca10f35f38b21b103bf0e9b473f6af", "is_reserved": 0}, {"lat": 38.88329183333333, "fusion_lon": 0.0, "lon": -77.00711433333333, "is_disabled": 0, "type": "electric_scooter", "name": "1eceb49da2c0f58944096fca5d5c6fac", "fusion_lat": 0.0, "rental_uris": {"android": "https://dc.lft.to/lastmile_qr_scan", "ios": "https://dc.lft.to/lastmile_qr_scan"}, "bike_id": "1eceb49da2c0f58944096fca5d5c6fac", "is_reserved": 0}, {"lat": 38.91814816666667, "fusion_lon": 0.0, "lon": -77.0314785, "is_disabled": 0, "type": "electric_scooter", "name": "7987a563bd00d22c6965d5e7c5deb5fa", "fusion_lat": 0.0, "rental_uris": {"android": "https://dc.lft.to/lastmile_qr_scan", "ios": "https://dc.lft.to/lastmile_qr_scan"}, "bike_id": "7987a563bd00d22c6965d5e7c5deb5fa", "is_reserved": 0}, {"lat": 38.892353, "fusion_lon": 0.0, "lon": -77.01318966666666, "is_disabled": 0, "type": "electric_scooter", "name": "ec0be08198bc92c99e6b85e7d838b9b6", "fusion_lat": 0.0, "rental_uris": {"android": "https://dc.lft.to/lastmile_qr_scan", "ios": "https://dc.lft.to/lastmile_qr_scan"}, "bike_id": "ec0be08198bc92c99e6b85e7d838b9b6", "is_reserved": 0}, {"lat": 38.90843783333333, "fusion_lon": 0.0, "lon": -77.026999, "is_disabled": 0, "type": "electric_scooter", "name": "f959186539346171d2b91f973384f22a", "fusion_lat": 0.0, "rental_uris": {"android": "https://dc.lft.to/lastmile_qr_scan", "ios": "https://dc.lft.to/lastmile_qr_scan"}, "bike_id": "f959186539346171d2b91f973384f22a", "is_reserved": 0}, {"lat": 38.917039, "fusion_lon": 0.0, "lon": -77.02376766666667, "is_disabled": 0, "type": "electric_scooter", "name": "409c0b019124f7e5ea25afb5ee89eaba", "fusion_lat": 0.0, "rental_uris": {"android": "https://dc.lft.to/lastmile_qr_scan", "ios": "https://dc.lft.to/lastmile_qr_scan"}, "bike_id": "409c0b019124f7e5ea25afb5ee89eaba", "is_reserved": 0}, {"lat": 38.92994183333333, "fusion_lon": 0.0, "lon": -77.04427666666666, "is_disabled": 0, "type": "electric_scooter", "name": "71fdaf372e2c0822849726ac8ed1cac5", "fusion_lat": 0.0, "rental_uris": {"android": "https://dc.lft.to/lastmile_qr_scan", "ios": "https://dc.lft.to/lastmile_qr_scan"}, "bike_id": "71fdaf372e2c0822849726ac8ed1cac5", "is_reserved": 0}, {"lat": 38.9445045, "fusion_lon": 0.0, "lon": -77.06391966666666, "is_disabled": 0, "type": "electric_scooter", "name": "a19ca322367c8d5de85a374666570975", "fusion_lat": 0.0, "rental_uris": {"android": "https://dc.lft.to/lastmile_qr_scan", "ios": "https://dc.lft.to/lastmile_qr_scan"}, "bike_id": "a19ca322367c8d5de85a374666570975", "is_reserved": 0}, {"lat": 38.89711583333333, "fusion_lon": 0.0, "lon": -77.027539, "is_disabled": 0, "type": "electric_scooter", "name": "7724a86f8dc54793b3d980cfe9d376f6", "fusion_lat": 0.0, "rental_uris": {"android": "https://dc.lft.to/lastmile_qr_scan", "ios": "https://dc.lft.to/lastmile_qr_scan"}, "bike_id": "7724a86f8dc54793b3d980cfe9d376f6", "is_reserved": 0}, {"lat": 38.86407716666667, "fusion_lon": 0.0, "lon": -76.97444616666667, "is_disabled": 0, "type": "electric_scooter", "name": "b8e3528348f32403ebfb01622647348d", "fusion_lat": 0.0, "rental_uris": {"android": "https://dc.lft.to/lastmile_qr_scan", "ios": "https://dc.lft.to/lastmile_qr_scan"}, "bike_id": "b8e3528348f32403ebfb01622647348d", "is_reserved": 0}, {"lat": 38.90760383333333, "fusion_lon": 0.0, "lon": -77.04238616666666, "is_disabled": 0, "type": "electric_scooter", "name": "0900a19158b0238babc1e6128392bc08", "fusion_lat": 0.0, "rental_uris": {"android": "https://dc.lft.to/lastmile_qr_scan", "ios": "https://dc.lft.to/lastmile_qr_scan"}, "bike_id": "0900a19158b0238babc1e6128392bc08", "is_reserved": 0}, {"lat": 38.92230283333333, "fusion_lon": 0.0, "lon": -77.02335366666667, "is_disabled": 0, "type": "electric_scooter", "name": "71cca8837ece89487c90c1f22f7e98f6", "fusion_lat": 0.0, "rental_uris": {"android": "https://dc.lft.to/lastmile_qr_scan", "ios": "https://dc.lft.to/lastmile_qr_scan"}, "bike_id": "71cca8837ece89487c90c1f22f7e98f6", "is_reserved": 0}, {"lat": 38.91846066666667, "fusion_lon": 0.0, "lon": -76.96560533333333, "is_disabled": 0, "type": "electric_scooter", "name": "93772827c21f03f33501c6e56333e49b", "fusion_lat": 0.0, "rental_uris": {"android": "https://dc.lft.to/lastmile_qr_scan", "ios": "https://dc.lft.to/lastmile_qr_scan"}, "bike_id": "93772827c21f03f33501c6e56333e49b", "is_reserved": 0}, {"lat": 38.947823, "fusion_lon": 0.0, "lon": -76.972089, "is_disabled": 0, "type": "electric_bike", "name": "55dd6e47a977d56ae6b555458bb79ce1", "fusion_lat": 0.0, "rental_uris": {"android": "https://dc.lft.to/lastmile_qr_scan", "ios": "https://dc.lft.to/lastmile_qr_scan"}, "bike_id": "55dd6e47a977d56ae6b555458bb79ce1", "is_reserved": 0}, {"lat": 38.903632333333334, "fusion_lon": 0.0, "lon": -77.04512783333334, "is_disabled": 0, "type": "electric_scooter", "name": "471764c8020ae30e22dfeea034fb0039", "fusion_lat": 0.0, "rental_uris": {"android": "https://dc.lft.to/lastmile_qr_scan", "ios": "https://dc.lft.to/lastmile_qr_scan"}, "bike_id": "471764c8020ae30e22dfeea034fb0039", "is_reserved": 0}, {"lat": 38.887055333333336, "fusion_lon": 0.0, "lon": -77.01367266666666, "is_disabled": 0, "type": "electric_scooter", "name": "a222104a54d8a5fd359664af1876bde8", "fusion_lat": 0.0, "rental_uris": {"android": "https://dc.lft.to/lastmile_qr_scan", "ios": "https://dc.lft.to/lastmile_qr_scan"}, "bike_id": "a222104a54d8a5fd359664af1876bde8", "is_reserved": 0}, {"lat": 38.87841066666667, "fusion_lon": 0.0, "lon": -77.02279733333333, "is_disabled": 0, "type": "electric_scooter", "name": "b2809e8931d5169fdce9e7d143daa8bc", "fusion_lat": 0.0, "rental_uris": {"android": "https://dc.lft.to/lastmile_qr_scan", "ios": "https://dc.lft.to/lastmile_qr_scan"}, "bike_id": "b2809e8931d5169fdce9e7d143daa8bc", "is_reserved": 0}, {"lat": 39.02433466666667, "fusion_lon": 0.0, "lon": -77.1310345, "is_disabled": 0, "type": "electric_bike", "name": "f96fe21381d6f6879a401f1068032541", "fusion_lat": 0.0, "rental_uris": {"android": "https://dc.lft.to/lastmile_qr_scan", "ios": "https://dc.lft.to/lastmile_qr_scan"}, "bike_id": "f96fe21381d6f6879a401f1068032541", "is_reserved": 0}, {"lat": 38.9008485, "fusion_lon": 0.0, "lon": -76.99361766666667, "is_disabled": 0, "type": "electric_scooter", "name": "190fe18b367fb5962b5e259bee9c19e0", "fusion_lat": 0.0, "rental_uris": {"android": "https://dc.lft.to/lastmile_qr_scan", "ios": "https://dc.lft.to/lastmile_qr_scan"}, "bike_id": "190fe18b367fb5962b5e259bee9c19e0", "is_reserved": 0}, {"lat": 38.941850333333335, "fusion_lon": 0.0, "lon": -77.025343, "is_disabled": 0, "type": "electric_scooter", "name": "5c40804dfabe9e0f5aac852d411c8a8c", "fusion_lat": 0.0, "rental_uris": {"android": "https://dc.lft.to/lastmile_qr_scan", "ios": "https://dc.lft.to/lastmile_qr_scan"}, "bike_id": "5c40804dfabe9e0f5aac852d411c8a8c", "is_reserved": 0}, {"lat": 38.926137833333335, "fusion_lon": 0.0, "lon": -77.02163983333334, "is_disabled": 0, "type": "electric_scooter", "name": "e620b1791606dfba8746656468661f4a", "fusion_lat": 0.0, "rental_uris": {"android": "https://dc.lft.to/lastmile_qr_scan", "ios": "https://dc.lft.to/lastmile_qr_scan"}, "bike_id": "e620b1791606dfba8746656468661f4a", "is_reserved": 0}, {"lat": 38.91725183333333, "fusion_lon": 0.0, "lon": -77.02975816666667, "is_disabled": 0, "type": "electric_scooter", "name": "e97b0d2c959d468b4b8051c20c9606d6", "fusion_lat": 0.0, "rental_uris": {"android": "https://dc.lft.to/lastmile_qr_scan", "ios": "https://dc.lft.to/lastmile_qr_scan"}, "bike_id": "e97b0d2c959d468b4b8051c20c9606d6", "is_reserved": 0}, {"lat": 38.92373466666667, "fusion_lon": 0.0, "lon": -77.01923733333334, "is_disabled": 0, "type": "electric_scooter", "name": "1f3f6e8cd2c38937001e3584d82e2ff3", "fusion_lat": 0.0, "rental_uris": {"android": "https://dc.lft.to/lastmile_qr_scan", "ios": "https://dc.lft.to/lastmile_qr_scan"}, "bike_id": "1f3f6e8cd2c38937001e3584d82e2ff3", "is_reserved": 0}, {"lat": 38.905694833333335, "fusion_lon": 0.0, "lon": -77.05910866666666, "is_disabled": 0, "type": "electric_scooter", "name": "2cb083186a7edf8bfcecedb4b490039e", "fusion_lat": 0.0, "rental_uris": {"android": "https://dc.lft.to/lastmile_qr_scan", "ios": "https://dc.lft.to/lastmile_qr_scan"}, "bike_id": "2cb083186a7edf8bfcecedb4b490039e", "is_reserved": 0}, {"lat": 38.901220333333335, "fusion_lon": 0.0, "lon": -77.039882, "is_disabled": 0, "type": "electric_scooter", "name": "d5f2f83f414760e65a9ef987517d90ed", "fusion_lat": 0.0, "rental_uris": {"android": "https://dc.lft.to/lastmile_qr_scan", "ios": "https://dc.lft.to/lastmile_qr_scan"}, "bike_id": "d5f2f83f414760e65a9ef987517d90ed", "is_reserved": 0}, {"lat": 38.8949395, "fusion_lon": 0.0, "lon": -77.0094965, "is_disabled": 0, "type": "electric_scooter", "name": "6216ffb55a6fd19d1c5b17a0c200eb61", "fusion_lat": 0.0, "rental_uris": {"android": "https://dc.lft.to/lastmile_qr_scan", "ios": "https://dc.lft.to/lastmile_qr_scan"}, "bike_id": "6216ffb55a6fd19d1c5b17a0c200eb61", "is_reserved": 0}, {"lat": 38.8876975, "fusion_lon": 0.0, "lon": -76.95572766666666, "is_disabled": 0, "type": "electric_scooter", "name": "d550feaaf2ffe17288dd9bd8c7fb2de9", "fusion_lat": 0.0, "rental_uris": {"android": "https://dc.lft.to/lastmile_qr_scan", "ios": "https://dc.lft.to/lastmile_qr_scan"}, "bike_id": "d550feaaf2ffe17288dd9bd8c7fb2de9", "is_reserved": 0}, {"lat": 38.92515066666667, "fusion_lon": 0.0, "lon": -77.02360316666666, "is_disabled": 0, "type": "electric_scooter", "name": "16fadb02c50925eb254a0d0d9ea2fb2a", "fusion_lat": 0.0, "rental_uris": {"android": "https://dc.lft.to/lastmile_qr_scan", "ios": "https://dc.lft.to/lastmile_qr_scan"}, "bike_id": "16fadb02c50925eb254a0d0d9ea2fb2a", "is_reserved": 0}, {"lat": 38.9056215, "fusion_lon": 0.0, "lon": -77.04278883333333, "is_disabled": 0, "type": "electric_scooter", "name": "34bc8f678e0da5f51cab325e0babb460", "fusion_lat": 0.0, "rental_uris": {"android": "https://dc.lft.to/lastmile_qr_scan", "ios": "https://dc.lft.to/lastmile_qr_scan"}, "bike_id": "34bc8f678e0da5f51cab325e0babb460", "is_reserved": 0}, {"lat": 38.911181, "fusion_lon": 0.0, "lon": -77.069262, "is_disabled": 0, "type": "electric_scooter", "name": "38350d7a97af80b6c84f4c07909476b6", "fusion_lat": 0.0, "rental_uris": {"android": "https://dc.lft.to/lastmile_qr_scan", "ios": "https://dc.lft.to/lastmile_qr_scan"}, "bike_id": "38350d7a97af80b6c84f4c07909476b6", "is_reserved": 0}, {"lat": 38.89215083333333, "fusion_lon": 0.0, "lon": -76.99259583333334, "is_disabled": 0, "type": "electric_scooter", "name": "a0b9bcf51de0c6e30306ad3b02374f20", "fusion_lat": 0.0, "rental_uris": {"android": "https://dc.lft.to/lastmile_qr_scan", "ios": "https://dc.lft.to/lastmile_qr_scan"}, "bike_id": "a0b9bcf51de0c6e30306ad3b02374f20", "is_reserved": 0}, {"lat": 38.9143695, "fusion_lon": 0.0, "lon": -77.0046025, "is_disabled": 0, "type": "electric_scooter", "name": "a468faba58b308b03485317f70e677be", "fusion_lat": 0.0, "rental_uris": {"android": "https://dc.lft.to/lastmile_qr_scan", "ios": "https://dc.lft.to/lastmile_qr_scan"}, "bike_id": "a468faba58b308b03485317f70e677be", "is_reserved": 0}, {"lat": 38.90272483333333, "fusion_lon": 0.0, "lon": -77.04509966666667, "is_disabled": 0, "type": "electric_scooter", "name": "61278dffa597ce01187f502659c548e4", "fusion_lat": 0.0, "rental_uris": {"android": "https://dc.lft.to/lastmile_qr_scan", "ios": "https://dc.lft.to/lastmile_qr_scan"}, "bike_id": "61278dffa597ce01187f502659c548e4", "is_reserved": 0}, {"lat": 38.9184175, "fusion_lon": 0.0, "lon": -77.040225, "is_disabled": 0, "type": "electric_scooter", "name": "d5c2fde465a9db418b3f9ad78c78c39c", "fusion_lat": 0.0, "rental_uris": {"android": "https://dc.lft.to/lastmile_qr_scan", "ios": "https://dc.lft.to/lastmile_qr_scan"}, "bike_id": "d5c2fde465a9db418b3f9ad78c78c39c", "is_reserved": 0}, {"lat": 38.8836365, "fusion_lon": 0.0, "lon": -76.94154983333334, "is_disabled": 0, "type": "electric_scooter", "name": "ddb05ca5350d4bd87e8c938cec44368e", "fusion_lat": 0.0, "rental_uris": {"android": "https://dc.lft.to/lastmile_qr_scan", "ios": "https://dc.lft.to/lastmile_qr_scan"}, "bike_id": "ddb05ca5350d4bd87e8c938cec44368e", "is_reserved": 0}, {"lat": 38.893835, "fusion_lon": 0.0, "lon": -77.02250383333333, "is_disabled": 0, "type": "electric_scooter", "name": "b3b3c7b9a25ef41d2db8c97dbe214080", "fusion_lat": 0.0, "rental_uris": {"android": "https://dc.lft.to/lastmile_qr_scan", "ios": "https://dc.lft.to/lastmile_qr_scan"}, "bike_id": "b3b3c7b9a25ef41d2db8c97dbe214080", "is_reserved": 0}, {"lat": 38.922200833333335, "fusion_lon": 0.0, "lon": -77.0433375, "is_disabled": 0, "type": "electric_scooter", "name": "2592d1bc745ce1ffe62a8cc77a963bee", "fusion_lat": 0.0, "rental_uris": {"android": "https://dc.lft.to/lastmile_qr_scan", "ios": "https://dc.lft.to/lastmile_qr_scan"}, "bike_id": "2592d1bc745ce1ffe62a8cc77a963bee", "is_reserved": 0}, {"lat": 38.906643333333335, "fusion_lon": 0.0, "lon": -77.041707, "is_disabled": 0, "type": "electric_scooter", "name": "93aa615ff71b39b813496a52e14af0d7", "fusion_lat": 0.0, "rental_uris": {"android": "https://dc.lft.to/lastmile_qr_scan", "ios": "https://dc.lft.to/lastmile_qr_scan"}, "bike_id": "93aa615ff71b39b813496a52e14af0d7", "is_reserved": 0}, {"lat": 38.872871333333336, "fusion_lon": 0.0, "lon": -76.97731983333334, "is_disabled": 0, "type": "electric_scooter", "name": "69b5142d21ef98256657fb797919f89d", "fusion_lat": 0.0, "rental_uris": {"android": "https://dc.lft.to/lastmile_qr_scan", "ios": "https://dc.lft.to/lastmile_qr_scan"}, "bike_id": "69b5142d21ef98256657fb797919f89d", "is_reserved": 0}, {"lat": 38.892219, "fusion_lon": 0.0, "lon": -77.04504633333333, "is_disabled": 0, "type": "electric_scooter", "name": "eb5df7b58df3ded53ce7db55f3f932a4", "fusion_lat": 0.0, "rental_uris": {"android": "https://dc.lft.to/lastmile_qr_scan", "ios": "https://dc.lft.to/lastmile_qr_scan"}, "bike_id": "eb5df7b58df3ded53ce7db55f3f932a4", "is_reserved": 0}, {"lat": 38.9198805, "fusion_lon": 0.0, "lon": -77.023996, "is_disabled": 0, "type": "electric_scooter", "name": "f638b971e95c5689e1c2f9e34c02eb5c", "fusion_lat": 0.0, "rental_uris": {"android": "https://dc.lft.to/lastmile_qr_scan", "ios": "https://dc.lft.to/lastmile_qr_scan"}, "bike_id": "f638b971e95c5689e1c2f9e34c02eb5c", "is_reserved": 0}, {"lat": 38.88770383333333, "fusion_lon": 0.0, "lon": -77.01773633333333, "is_disabled": 0, "type": "electric_scooter", "name": "e7982e233ef47ad0f2a1e3833f8be202", "fusion_lat": 0.0, "rental_uris": {"android": "https://dc.lft.to/lastmile_qr_scan", "ios": "https://dc.lft.to/lastmile_qr_scan"}, "bike_id": "e7982e233ef47ad0f2a1e3833f8be202", "is_reserved": 0}, {"lat": 38.90853283333333, "fusion_lon": 0.0, "lon": -77.04859333333333, "is_disabled": 0, "type": "electric_scooter", "name": "e20e669bfbd0f3d448289344741b62ee", "fusion_lat": 0.0, "rental_uris": {"android": "https://dc.lft.to/lastmile_qr_scan", "ios": "https://dc.lft.to/lastmile_qr_scan"}, "bike_id": "e20e669bfbd0f3d448289344741b62ee", "is_reserved": 0}, {"lat": 38.89221333333333, "fusion_lon": 0.0, "lon": -77.0334105, "is_disabled": 0, "type": "electric_scooter", "name": "6d9036b5b88b9e20fcce5afcdf7182ae", "fusion_lat": 0.0, "rental_uris": {"android": "https://dc.lft.to/lastmile_qr_scan", "ios": "https://dc.lft.to/lastmile_qr_scan"}, "bike_id": "6d9036b5b88b9e20fcce5afcdf7182ae", "is_reserved": 0}, {"lat": 38.92252116666667, "fusion_lon": 0.0, "lon": -77.070348, "is_disabled": 0, "type": "electric_scooter", "name": "5f520a8bef36214a55a2fa528bd4cad1", "fusion_lat": 0.0, "rental_uris": {"android": "https://dc.lft.to/lastmile_qr_scan", "ios": "https://dc.lft.to/lastmile_qr_scan"}, "bike_id": "5f520a8bef36214a55a2fa528bd4cad1", "is_reserved": 0}, {"lat": 38.90612733333333, "fusion_lon": 0.0, "lon": -77.04176066666666, "is_disabled": 0, "type": "electric_scooter", "name": "bd9a9fa160c7ee751036e91b0b197ba5", "fusion_lat": 0.0, "rental_uris": {"android": "https://dc.lft.to/lastmile_qr_scan", "ios": "https://dc.lft.to/lastmile_qr_scan"}, "bike_id": "bd9a9fa160c7ee751036e91b0b197ba5", "is_reserved": 0}, {"lat": 38.922725666666665, "fusion_lon": 0.0, "lon": -77.03223616666666, "is_disabled": 0, "type": "electric_scooter", "name": "b63ef72677f3851a6e57c7f0288549b0", "fusion_lat": 0.0, "rental_uris": {"android": "https://dc.lft.to/lastmile_qr_scan", "ios": "https://dc.lft.to/lastmile_qr_scan"}, "bike_id": "b63ef72677f3851a6e57c7f0288549b0", "is_reserved": 0}, {"lat": 38.92005266666666, "fusion_lon": 0.0, "lon": -77.04171833333334, "is_disabled": 0, "type": "electric_scooter", "name": "d895b683ddf350f9917df08c22937d82", "fusion_lat": 0.0, "rental_uris": {"android": "https://dc.lft.to/lastmile_qr_scan", "ios": "https://dc.lft.to/lastmile_qr_scan"}, "bike_id": "d895b683ddf350f9917df08c22937d82", "is_reserved": 0}, {"lat": 38.91952883333333, "fusion_lon": 0.0, "lon": -76.98079783333333, "is_disabled": 0, "type": "electric_scooter", "name": "a4b84506db2b464b59223866ff9d6b2d", "fusion_lat": 0.0, "rental_uris": {"android": "https://dc.lft.to/lastmile_qr_scan", "ios": "https://dc.lft.to/lastmile_qr_scan"}, "bike_id": "a4b84506db2b464b59223866ff9d6b2d", "is_reserved": 0}, {"lat": 38.90858566666667, "fusion_lon": 0.0, "lon": -77.04287516666666, "is_disabled": 0, "type": "electric_scooter", "name": "d6c5255e6d391fb0303e00de8989c0af", "fusion_lat": 0.0, "rental_uris": {"android": "https://dc.lft.to/lastmile_qr_scan", "ios": "https://dc.lft.to/lastmile_qr_scan"}, "bike_id": "d6c5255e6d391fb0303e00de8989c0af", "is_reserved": 0}, {"lat": 38.88608933333333, "fusion_lon": 0.0, "lon": -76.99511283333334, "is_disabled": 0, "type": "electric_scooter", "name": "1714899d65651676a1d51dc4f0757cfc", "fusion_lat": 0.0, "rental_uris": {"android": "https://dc.lft.to/lastmile_qr_scan", "ios": "https://dc.lft.to/lastmile_qr_scan"}, "bike_id": "1714899d65651676a1d51dc4f0757cfc", "is_reserved": 0}, {"lat": 38.9224, "fusion_lon": 0.0, "lon": -77.04338816666667, "is_disabled": 0, "type": "electric_scooter", "name": "853900cff6db54be83ff8cb99a8d4853", "fusion_lat": 0.0, "rental_uris": {"android": "https://dc.lft.to/lastmile_qr_scan", "ios": "https://dc.lft.to/lastmile_qr_scan"}, "bike_id": "853900cff6db54be83ff8cb99a8d4853", "is_reserved": 0}, {"lat": 38.90820266666667, "fusion_lon": 0.0, "lon": -77.03961966666667, "is_disabled": 0, "type": "electric_scooter", "name": "1b3c1c83fe46e7d6642cb1837cff51c2", "fusion_lat": 0.0, "rental_uris": {"android": "https://dc.lft.to/lastmile_qr_scan", "ios": "https://dc.lft.to/lastmile_qr_scan"}, "bike_id": "1b3c1c83fe46e7d6642cb1837cff51c2", "is_reserved": 0}, {"lat": 38.90333416666667, "fusion_lon": 0.0, "lon": -76.97535516666667, "is_disabled": 0, "type": "electric_bike", "name": "c3bafe5e75b810a5a89a083ae41a791d", "fusion_lat": 0.0, "rental_uris": {"android": "https://dc.lft.to/lastmile_qr_scan", "ios": "https://dc.lft.to/lastmile_qr_scan"}, "bike_id": "c3bafe5e75b810a5a89a083ae41a791d", "is_reserved": 0}, {"lat": 38.89648, "fusion_lon": 0.0, "lon": -76.93019916666667, "is_disabled": 0, "type": "electric_bike", "name": "0cdd8e91488cd818924f64becb7a1bce", "fusion_lat": 0.0, "rental_uris": {"android": "https://dc.lft.to/lastmile_qr_scan", "ios": "https://dc.lft.to/lastmile_qr_scan"}, "bike_id": "0cdd8e91488cd818924f64becb7a1bce", "is_reserved": 0}, {"lat": 38.924425166666666, "fusion_lon": 0.0, "lon": -77.03994633333333, "is_disabled": 0, "type": "electric_scooter", "name": "592cb26185bdd54252347a2075bc8e21", "fusion_lat": 0.0, "rental_uris": {"android": "https://dc.lft.to/lastmile_qr_scan", "ios": "https://dc.lft.to/lastmile_qr_scan"}, "bike_id": "592cb26185bdd54252347a2075bc8e21", "is_reserved": 0}, {"lat": 38.93518383333333, "fusion_lon": 0.0, "lon": -77.07293266666667, "is_disabled": 0, "type": "electric_scooter", "name": "bfafc22e22f9841b61b0444720fe3158", "fusion_lat": 0.0, "rental_uris": {"android": "https://dc.lft.to/lastmile_qr_scan", "ios": "https://dc.lft.to/lastmile_qr_scan"}, "bike_id": "bfafc22e22f9841b61b0444720fe3158", "is_reserved": 0}, {"lat": 38.96745666666666, "fusion_lon": 0.0, "lon": -76.96052616666667, "is_disabled": 0, "type": "electric_bike", "name": "3893ba4c7e054a116129cb03c7d4175c", "fusion_lat": 0.0, "rental_uris": {"android": "https://dc.lft.to/lastmile_qr_scan", "ios": "https://dc.lft.to/lastmile_qr_scan"}, "bike_id": "3893ba4c7e054a116129cb03c7d4175c", "is_reserved": 0}, {"lat": 38.9062785, "fusion_lon": 0.0, "lon": -77.04163066666666, "is_disabled": 0, "type": "electric_scooter", "name": "f4d5773bf226cdb7bb89ea0d5fe3dd81", "fusion_lat": 0.0, "rental_uris": {"android": "https://dc.lft.to/lastmile_qr_scan", "ios": "https://dc.lft.to/lastmile_qr_scan"}, "bike_id": "f4d5773bf226cdb7bb89ea0d5fe3dd81", "is_reserved": 0}, {"lat": 38.91655733333333, "fusion_lon": 0.0, "lon": -77.021991, "is_disabled": 0, "type": "electric_scooter", "name": "971fce248e6e59f2c83d942601774f56", "fusion_lat": 0.0, "rental_uris": {"android": "https://dc.lft.to/lastmile_qr_scan", "ios": "https://dc.lft.to/lastmile_qr_scan"}, "bike_id": "971fce248e6e59f2c83d942601774f56", "is_reserved": 0}, {"lat": 38.961427, "fusion_lon": 0.0, "lon": -77.0229175, "is_disabled": 0, "type": "electric_bike", "name": "59caf3e779dc88c7ceb57b6081b90a7e", "fusion_lat": 0.0, "rental_uris": {"android": "https://dc.lft.to/lastmile_qr_scan", "ios": "https://dc.lft.to/lastmile_qr_scan"}, "bike_id": "59caf3e779dc88c7ceb57b6081b90a7e", "is_reserved": 0}, {"lat": 38.90027216666667, "fusion_lon": 0.0, "lon": -77.00092133333334, "is_disabled": 0, "type": "electric_scooter", "name": "2283766526b7b3413eeeebf4cbac56a3", "fusion_lat": 0.0, "rental_uris": {"android": "https://dc.lft.to/lastmile_qr_scan", "ios": "https://dc.lft.to/lastmile_qr_scan"}, "bike_id": "2283766526b7b3413eeeebf4cbac56a3", "is_reserved": 0}, {"lat": 38.872822666666664, "fusion_lon": 0.0, "lon": -77.23316816666667, "is_disabled": 0, "type": "electric_bike", "name": "b54602010b19add865e0bc74dd3304ff", "fusion_lat": 0.0, "rental_uris": {"android": "https://dc.lft.to/lastmile_qr_scan", "ios": "https://dc.lft.to/lastmile_qr_scan"}, "bike_id": "b54602010b19add865e0bc74dd3304ff", "is_reserved": 0}, {"lat": 38.86537783333333, "fusion_lon": 0.0, "lon": -76.98708133333334, "is_disabled": 0, "type": "electric_scooter", "name": "5dce53e817dd2a3e70c0cd654dbffd5c", "fusion_lat": 0.0, "rental_uris": {"android": "https://dc.lft.to/lastmile_qr_scan", "ios": "https://dc.lft.to/lastmile_qr_scan"}, "bike_id": "5dce53e817dd2a3e70c0cd654dbffd5c", "is_reserved": 0}, {"lat": 38.91017816666667, "fusion_lon": 0.0, "lon": -77.22798833333333, "is_disabled": 0, "type": "electric_bike", "name": "27c5d561365cc16a60e37473f54277b2", "fusion_lat": 0.0, "rental_uris": {"android": "https://dc.lft.to/lastmile_qr_scan", "ios": "https://dc.lft.to/lastmile_qr_scan"}, "bike_id": "27c5d561365cc16a60e37473f54277b2", "is_reserved": 0}, {"lat": 38.91852816666667, "fusion_lon": 0.0, "lon": -77.0166935, "is_disabled": 0, "type": "electric_scooter", "name": "1f8383fd6e9ad34ad785ab8b485d812f", "fusion_lat": 0.0, "rental_uris": {"android": "https://dc.lft.to/lastmile_qr_scan", "ios": "https://dc.lft.to/lastmile_qr_scan"}, "bike_id": "1f8383fd6e9ad34ad785ab8b485d812f", "is_reserved": 0}, {"lat": 38.902468666666664, "fusion_lon": 0.0, "lon": -77.01692, "is_disabled": 0, "type": "electric_scooter", "name": "112c179733995f1cfe7c3ebc604a5f8f", "fusion_lat": 0.0, "rental_uris": {"android": "https://dc.lft.to/lastmile_qr_scan", "ios": "https://dc.lft.to/lastmile_qr_scan"}, "bike_id": "112c179733995f1cfe7c3ebc604a5f8f", "is_reserved": 0}, {"lat": 38.9036955, "fusion_lon": 0.0, "lon": -77.04510016666667, "is_disabled": 0, "type": "electric_scooter", "name": "e1c67bef306985ac568354dfa5a70cd5", "fusion_lat": 0.0, "rental_uris": {"android": "https://dc.lft.to/lastmile_qr_scan", "ios": "https://dc.lft.to/lastmile_qr_scan"}, "bike_id": "e1c67bef306985ac568354dfa5a70cd5", "is_reserved": 0}, {"lat": 38.94205783333334, "fusion_lon": 0.0, "lon": -77.02524216666667, "is_disabled": 0, "type": "electric_scooter", "name": "007eddeae9406e970cb523a21808e7a7", "fusion_lat": 0.0, "rental_uris": {"android": "https://dc.lft.to/lastmile_qr_scan", "ios": "https://dc.lft.to/lastmile_qr_scan"}, "bike_id": "007eddeae9406e970cb523a21808e7a7", "is_reserved": 0}, {"lat": 38.920452, "fusion_lon": 0.0, "lon": -77.024265, "is_disabled": 0, "type": "electric_scooter", "name": "2bb254fca5ac4f17fe96eea596d430af", "fusion_lat": 0.0, "rental_uris": {"android": "https://dc.lft.to/lastmile_qr_scan", "ios": "https://dc.lft.to/lastmile_qr_scan"}, "bike_id": "2bb254fca5ac4f17fe96eea596d430af", "is_reserved": 0}, {"lat": 38.88012483333333, "fusion_lon": 0.0, "lon": -77.02483116666667, "is_disabled": 0, "type": "electric_scooter", "name": "8e373fefc9eb96314a8caf18d519a5e2", "fusion_lat": 0.0, "rental_uris": {"android": "https://dc.lft.to/lastmile_qr_scan", "ios": "https://dc.lft.to/lastmile_qr_scan"}, "bike_id": "8e373fefc9eb96314a8caf18d519a5e2", "is_reserved": 0}, {"lat": 38.866966166666664, "fusion_lon": 0.0, "lon": -76.98592916666666, "is_disabled": 0, "type": "electric_scooter", "name": "1ce8e7eb13037ba73df612ce1cbbe39a", "fusion_lat": 0.0, "rental_uris": {"android": "https://dc.lft.to/lastmile_qr_scan", "ios": "https://dc.lft.to/lastmile_qr_scan"}, "bike_id": "1ce8e7eb13037ba73df612ce1cbbe39a", "is_reserved": 0}, {"lat": 38.942325333333336, "fusion_lon": 0.0, "lon": -76.966235, "is_disabled": 0, "type": "electric_bike", "name": "fd2602905c6b6f50fd0b8398c2aa8db1", "fusion_lat": 0.0, "rental_uris": {"android": "https://dc.lft.to/lastmile_qr_scan", "ios": "https://dc.lft.to/lastmile_qr_scan"}, "bike_id": "fd2602905c6b6f50fd0b8398c2aa8db1", "is_reserved": 0}, {"lat": 38.924496833333336, "fusion_lon": 0.0, "lon": -77.04105483333333, "is_disabled": 0, "type": "electric_scooter", "name": "6f34cd70a9a6df6095566ca073a1a264", "fusion_lat": 0.0, "rental_uris": {"android": "https://dc.lft.to/lastmile_qr_scan", "ios": "https://dc.lft.to/lastmile_qr_scan"}, "bike_id": "6f34cd70a9a6df6095566ca073a1a264", "is_reserved": 0}, {"lat": 38.9043875, "fusion_lon": 0.0, "lon": -77.053251, "is_disabled": 0, "type": "electric_scooter", "name": "b6294c96aa0468a4fe486bc616626418", "fusion_lat": 0.0, "rental_uris": {"android": "https://dc.lft.to/lastmile_qr_scan", "ios": "https://dc.lft.to/lastmile_qr_scan"}, "bike_id": "b6294c96aa0468a4fe486bc616626418", "is_reserved": 0}, {"lat": 38.90687966666667, "fusion_lon": 0.0, "lon": -77.001815, "is_disabled": 0, "type": "electric_scooter", "name": "ee195ed9c666f5c3e54e50dee618ac18", "fusion_lat": 0.0, "rental_uris": {"android": "https://dc.lft.to/lastmile_qr_scan", "ios": "https://dc.lft.to/lastmile_qr_scan"}, "bike_id": "ee195ed9c666f5c3e54e50dee618ac18", "is_reserved": 0}, {"lat": 39.054961, "fusion_lon": 0.0, "lon": -77.11789566666667, "is_disabled": 0, "type": "electric_bike", "name": "1b4394df0ea27d42f8892e175ef38838", "fusion_lat": 0.0, "rental_uris": {"android": "https://dc.lft.to/lastmile_qr_scan", "ios": "https://dc.lft.to/lastmile_qr_scan"}, "bike_id": "1b4394df0ea27d42f8892e175ef38838", "is_reserved": 0}, {"lat": 38.906623833333335, "fusion_lon": 0.0, "lon": -77.01025116666666, "is_disabled": 0, "type": "electric_scooter", "name": "80e0a4f5698e41ec9e330f962ae7282a", "fusion_lat": 0.0, "rental_uris": {"android": "https://dc.lft.to/lastmile_qr_scan", "ios": "https://dc.lft.to/lastmile_qr_scan"}, "bike_id": "80e0a4f5698e41ec9e330f962ae7282a", "is_reserved": 0}, {"lat": 38.87968133333333, "fusion_lon": 0.0, "lon": -76.98740516666666, "is_disabled": 0, "type": "electric_scooter", "name": "e6f68fd2bb51a6383a125de7db9d4e58", "fusion_lat": 0.0, "rental_uris": {"android": "https://dc.lft.to/lastmile_qr_scan", "ios": "https://dc.lft.to/lastmile_qr_scan"}, "bike_id": "e6f68fd2bb51a6383a125de7db9d4e58", "is_reserved": 0}, {"lat": 38.88335083333333, "fusion_lon": 0.0, "lon": -77.06566266666667, "is_disabled": 0, "type": "electric_bike", "name": "0d7c70cb25167fff48c80bdc14d3df34", "fusion_lat": 0.0, "rental_uris": {"android": "https://dc.lft.to/lastmile_qr_scan", "ios": "https://dc.lft.to/lastmile_qr_scan"}, "bike_id": "0d7c70cb25167fff48c80bdc14d3df34", "is_reserved": 0}, {"lat": 38.92664633333333, "fusion_lon": 0.0, "lon": -77.00873216666666, "is_disabled": 0, "type": "electric_scooter", "name": "f95f65cefd10f9124c164994af44e363", "fusion_lat": 0.0, "rental_uris": {"android": "https://dc.lft.to/lastmile_qr_scan", "ios": "https://dc.lft.to/lastmile_qr_scan"}, "bike_id": "f95f65cefd10f9124c164994af44e363", "is_reserved": 0}, {"lat": 39.034373, "fusion_lon": 0.0, "lon": -77.04095533333333, "is_disabled": 0, "type": "electric_bike", "name": "957911595d9e2452b2b664ead3c1b157", "fusion_lat": 0.0, "rental_uris": {"android": "https://dc.lft.to/lastmile_qr_scan", "ios": "https://dc.lft.to/lastmile_qr_scan"}, "bike_id": "957911595d9e2452b2b664ead3c1b157", "is_reserved": 0}, {"lat": 38.905609, "fusion_lon": 0.0, "lon": -77.04701666666666, "is_disabled": 0, "type": "electric_scooter", "name": "d3fe8a9287a8016e63f32ed509520800", "fusion_lat": 0.0, "rental_uris": {"android": "https://dc.lft.to/lastmile_qr_scan", "ios": "https://dc.lft.to/lastmile_qr_scan"}, "bike_id": "d3fe8a9287a8016e63f32ed509520800", "is_reserved": 0}, {"lat": 38.94507616666667, "fusion_lon": 0.0, "lon": -77.07454016666667, "is_disabled": 0, "type": "electric_scooter", "name": "c8ea751a30ad53d834511b788ea087e2", "fusion_lat": 0.0, "rental_uris": {"android": "https://dc.lft.to/lastmile_qr_scan", "ios": "https://dc.lft.to/lastmile_qr_scan"}, "bike_id": "c8ea751a30ad53d834511b788ea087e2", "is_reserved": 0}, {"lat": 38.8431565, "fusion_lon": 0.0, "lon": -76.99929133333333, "is_disabled": 0, "type": "electric_scooter", "name": "7460ef195b67f19120b3a4129a6034fc", "fusion_lat": 0.0, "rental_uris": {"android": "https://dc.lft.to/lastmile_qr_scan", "ios": "https://dc.lft.to/lastmile_qr_scan"}, "bike_id": "7460ef195b67f19120b3a4129a6034fc", "is_reserved": 0}, {"lat": 38.90496533333334, "fusion_lon": 0.0, "lon": -77.038478, "is_disabled": 0, "type": "electric_scooter", "name": "8a63bc38a9d25bebed0eef5597cf0f3a", "fusion_lat": 0.0, "rental_uris": {"android": "https://dc.lft.to/lastmile_qr_scan", "ios": "https://dc.lft.to/lastmile_qr_scan"}, "bike_id": "8a63bc38a9d25bebed0eef5597cf0f3a", "is_reserved": 0}, {"lat": 38.892486, "fusion_lon": 0.0, "lon": -77.01725, "is_disabled": 0, "type": "electric_scooter", "name": "2d89fac050fc7a76abb434a197be2285", "fusion_lat": 0.0, "rental_uris": {"android": "https://dc.lft.to/lastmile_qr_scan", "ios": "https://dc.lft.to/lastmile_qr_scan"}, "bike_id": "2d89fac050fc7a76abb434a197be2285", "is_reserved": 0}, {"lat": 38.89502916666667, "fusion_lon": 0.0, "lon": -76.93476733333333, "is_disabled": 0, "type": "electric_scooter", "name": "406e43529964834abb43b42122738316", "fusion_lat": 0.0, "rental_uris": {"android": "https://dc.lft.to/lastmile_qr_scan", "ios": "https://dc.lft.to/lastmile_qr_scan"}, "bike_id": "406e43529964834abb43b42122738316", "is_reserved": 0}, {"lat": 38.9084845, "fusion_lon": 0.0, "lon": -77.06349233333333, "is_disabled": 0, "type": "electric_scooter", "name": "850445987ac883758ff919efa86a32a2", "fusion_lat": 0.0, "rental_uris": {"android": "https://dc.lft.to/lastmile_qr_scan", "ios": "https://dc.lft.to/lastmile_qr_scan"}, "bike_id": "850445987ac883758ff919efa86a32a2", "is_reserved": 0}, {"lat": 39.056343, "fusion_lon": 0.0, "lon": -77.1252865, "is_disabled": 0, "type": "electric_bike", "name": "81aca4d599f53980c17d685a7e77a476", "fusion_lat": 0.0, "rental_uris": {"android": "https://dc.lft.to/lastmile_qr_scan", "ios": "https://dc.lft.to/lastmile_qr_scan"}, "bike_id": "81aca4d599f53980c17d685a7e77a476", "is_reserved": 0}, {"lat": 38.91926016666667, "fusion_lon": 0.0, "lon": -77.03181983333333, "is_disabled": 0, "type": "electric_scooter", "name": "6f9019e53bdbc33f898eddba7152f193", "fusion_lat": 0.0, "rental_uris": {"android": "https://dc.lft.to/lastmile_qr_scan", "ios": "https://dc.lft.to/lastmile_qr_scan"}, "bike_id": "6f9019e53bdbc33f898eddba7152f193", "is_reserved": 0}, {"lat": 38.887683333333335, "fusion_lon": 0.0, "lon": -76.98679383333334, "is_disabled": 0, "type": "electric_scooter", "name": "53c9939f92cac94cd64ba6aaf96f4f55", "fusion_lat": 0.0, "rental_uris": {"android": "https://dc.lft.to/lastmile_qr_scan", "ios": "https://dc.lft.to/lastmile_qr_scan"}, "bike_id": "53c9939f92cac94cd64ba6aaf96f4f55", "is_reserved": 0}, {"lat": 38.91888483333334, "fusion_lon": 0.0, "lon": -77.02974583333334, "is_disabled": 0, "type": "electric_scooter", "name": "3f402e863760247feeb6d30ddb66b108", "fusion_lat": 0.0, "rental_uris": {"android": "https://dc.lft.to/lastmile_qr_scan", "ios": "https://dc.lft.to/lastmile_qr_scan"}, "bike_id": "3f402e863760247feeb6d30ddb66b108", "is_reserved": 0}, {"lat": 38.92756833333333, "fusion_lon": 0.0, "lon": -77.032748, "is_disabled": 0, "type": "electric_scooter", "name": "6ecaaab2e70f90887579feecc0bdd909", "fusion_lat": 0.0, "rental_uris": {"android": "https://dc.lft.to/lastmile_qr_scan", "ios": "https://dc.lft.to/lastmile_qr_scan"}, "bike_id": "6ecaaab2e70f90887579feecc0bdd909", "is_reserved": 0}, {"lat": 38.90255166666667, "fusion_lon": 0.0, "lon": -77.0282695, "is_disabled": 0, "type": "electric_scooter", "name": "5f512d6a30fb0d48903548727e685528", "fusion_lat": 0.0, "rental_uris": {"android": "https://dc.lft.to/lastmile_qr_scan", "ios": "https://dc.lft.to/lastmile_qr_scan"}, "bike_id": "5f512d6a30fb0d48903548727e685528", "is_reserved": 0}, {"lat": 38.88406716666667, "fusion_lon": 0.0, "lon": -77.01773666666666, "is_disabled": 0, "type": "electric_scooter", "name": "0fd41cee2a0e0df66a91d01639a0b7a9", "fusion_lat": 0.0, "rental_uris": {"android": "https://dc.lft.to/lastmile_qr_scan", "ios": "https://dc.lft.to/lastmile_qr_scan"}, "bike_id": "0fd41cee2a0e0df66a91d01639a0b7a9", "is_reserved": 0}, {"lat": 38.887396, "fusion_lon": 0.0, "lon": -77.01535733333333, "is_disabled": 0, "type": "electric_scooter", "name": "23b041f8ddc6aea42676941426736b7f", "fusion_lat": 0.0, "rental_uris": {"android": "https://dc.lft.to/lastmile_qr_scan", "ios": "https://dc.lft.to/lastmile_qr_scan"}, "bike_id": "23b041f8ddc6aea42676941426736b7f", "is_reserved": 0}, {"lat": 38.899905333333336, "fusion_lon": 0.0, "lon": -77.0069745, "is_disabled": 0, "type": "electric_scooter", "name": "d1b261f6d7c4010d2c1071a65cae62e0", "fusion_lat": 0.0, "rental_uris": {"android": "https://dc.lft.to/lastmile_qr_scan", "ios": "https://dc.lft.to/lastmile_qr_scan"}, "bike_id": "d1b261f6d7c4010d2c1071a65cae62e0", "is_reserved": 0}, {"lat": 38.904984, "fusion_lon": 0.0, "lon": -77.04655633333333, "is_disabled": 0, "type": "electric_scooter", "name": "50d0fa143409df86d37a13759da8b167", "fusion_lat": 0.0, "rental_uris": {"android": "https://dc.lft.to/lastmile_qr_scan", "ios": "https://dc.lft.to/lastmile_qr_scan"}, "bike_id": "50d0fa143409df86d37a13759da8b167", "is_reserved": 0}, {"lat": 38.905091166666665, "fusion_lon": 0.0, "lon": -77.0484625, "is_disabled": 0, "type": "electric_scooter", "name": "a9492d377b0c389d452e8b3cd8687c51", "fusion_lat": 0.0, "rental_uris": {"android": "https://dc.lft.to/lastmile_qr_scan", "ios": "https://dc.lft.to/lastmile_qr_scan"}, "bike_id": "a9492d377b0c389d452e8b3cd8687c51", "is_reserved": 0}, {"lat": 38.91693133333333, "fusion_lon": 0.0, "lon": -77.02596316666667, "is_disabled": 0, "type": "electric_scooter", "name": "32756d311f5a3670eacd719645f650c8", "fusion_lat": 0.0, "rental_uris": {"android": "https://dc.lft.to/lastmile_qr_scan", "ios": "https://dc.lft.to/lastmile_qr_scan"}, "bike_id": "32756d311f5a3670eacd719645f650c8", "is_reserved": 0}, {"lat": 38.933314, "fusion_lon": 0.0, "lon": -77.04211783333334, "is_disabled": 0, "type": "electric_bike", "name": "edb06772ed3a2fb3c477e491df04c061", "fusion_lat": 0.0, "rental_uris": {"android": "https://dc.lft.to/lastmile_qr_scan", "ios": "https://dc.lft.to/lastmile_qr_scan"}, "bike_id": "edb06772ed3a2fb3c477e491df04c061", "is_reserved": 0}, {"lat": 38.92258866666667, "fusion_lon": 0.0, "lon": -77.0352015, "is_disabled": 0, "type": "electric_scooter", "name": "c83435760e09fc2ae35389c1696942b2", "fusion_lat": 0.0, "rental_uris": {"android": "https://dc.lft.to/lastmile_qr_scan", "ios": "https://dc.lft.to/lastmile_qr_scan"}, "bike_id": "c83435760e09fc2ae35389c1696942b2", "is_reserved": 0}, {"lat": 38.92252166666667, "fusion_lon": 0.0, "lon": -77.030647, "is_disabled": 0, "type": "electric_scooter", "name": "c9ed12e5df460ccba959922ca79f0edf", "fusion_lat": 0.0, "rental_uris": {"android": "https://dc.lft.to/lastmile_qr_scan", "ios": "https://dc.lft.to/lastmile_qr_scan"}, "bike_id": "c9ed12e5df460ccba959922ca79f0edf", "is_reserved": 0}, {"lat": 38.96959316666667, "fusion_lon": 0.0, "lon": -76.95750816666667, "is_disabled": 0, "type": "electric_bike", "name": "bad4fc369057b350fb27767b37320cab", "fusion_lat": 0.0, "rental_uris": {"android": "https://dc.lft.to/lastmile_qr_scan", "ios": "https://dc.lft.to/lastmile_qr_scan"}, "bike_id": "bad4fc369057b350fb27767b37320cab", "is_reserved": 0}, {"lat": 38.86010683333333, "fusion_lon": 0.0, "lon": -76.98511283333333, "is_disabled": 0, "type": "electric_scooter", "name": "fb874e2d18e2615118955f11580ccd01", "fusion_lat": 0.0, "rental_uris": {"android": "https://dc.lft.to/lastmile_qr_scan", "ios": "https://dc.lft.to/lastmile_qr_scan"}, "bike_id": "fb874e2d18e2615118955f11580ccd01", "is_reserved": 0}, {"lat": 38.938649833333336, "fusion_lon": 0.0, "lon": -77.02648766666667, "is_disabled": 0, "type": "electric_scooter", "name": "951f1a8adc8376c25546b8fc72a20781", "fusion_lat": 0.0, "rental_uris": {"android": "https://dc.lft.to/lastmile_qr_scan", "ios": "https://dc.lft.to/lastmile_qr_scan"}, "bike_id": "951f1a8adc8376c25546b8fc72a20781", "is_reserved": 0}, {"lat": 38.906803, "fusion_lon": 0.0, "lon": -77.02702133333334, "is_disabled": 0, "type": "electric_scooter", "name": "adfd5eed0dddfb578da864d8f3fb8913", "fusion_lat": 0.0, "rental_uris": {"android": "https://dc.lft.to/lastmile_qr_scan", "ios": "https://dc.lft.to/lastmile_qr_scan"}, "bike_id": "adfd5eed0dddfb578da864d8f3fb8913", "is_reserved": 0}, {"lat": 38.91112, "fusion_lon": 0.0, "lon": -77.0357625, "is_disabled": 0, "type": "electric_scooter", "name": "de11980d77606ce6e67ae132491a7e55", "fusion_lat": 0.0, "rental_uris": {"android": "https://dc.lft.to/lastmile_qr_scan", "ios": "https://dc.lft.to/lastmile_qr_scan"}, "bike_id": "de11980d77606ce6e67ae132491a7e55", "is_reserved": 0}, {"lat": 38.910729833333335, "fusion_lon": 0.0, "lon": -77.04086283333334, "is_disabled": 0, "type": "electric_scooter", "name": "0ef983ee1ab999fc842c0fb4fdf0db05", "fusion_lat": 0.0, "rental_uris": {"android": "https://dc.lft.to/lastmile_qr_scan", "ios": "https://dc.lft.to/lastmile_qr_scan"}, "bike_id": "0ef983ee1ab999fc842c0fb4fdf0db05", "is_reserved": 0}, {"lat": 38.9173, "fusion_lon": 0.0, "lon": -77.0230615, "is_disabled": 0, "type": "electric_scooter", "name": "703ba07bed5b8acfb47ceac785a4bb52", "fusion_lat": 0.0, "rental_uris": {"android": "https://dc.lft.to/lastmile_qr_scan", "ios": "https://dc.lft.to/lastmile_qr_scan"}, "bike_id": "703ba07bed5b8acfb47ceac785a4bb52", "is_reserved": 0}, {"lat": 38.92442366666667, "fusion_lon": 0.0, "lon": -77.0577105, "is_disabled": 0, "type": "electric_scooter", "name": "b90baa484eeb5c277582220545e4e1d1", "fusion_lat": 0.0, "rental_uris": {"android": "https://dc.lft.to/lastmile_qr_scan", "ios": "https://dc.lft.to/lastmile_qr_scan"}, "bike_id": "b90baa484eeb5c277582220545e4e1d1", "is_reserved": 0}, {"lat": 38.9126895, "fusion_lon": 0.0, "lon": -77.04415633333333, "is_disabled": 0, "type": "electric_scooter", "name": "06d2171770a0ca305b98bfc800ea9c31", "fusion_lat": 0.0, "rental_uris": {"android": "https://dc.lft.to/lastmile_qr_scan", "ios": "https://dc.lft.to/lastmile_qr_scan"}, "bike_id": "06d2171770a0ca305b98bfc800ea9c31", "is_reserved": 0}, {"lat": 38.914413333333336, "fusion_lon": 0.0, "lon": -77.06714683333334, "is_disabled": 0, "type": "electric_scooter", "name": "c55620cdfddd7f28e784a5b8abfadc65", "fusion_lat": 0.0, "rental_uris": {"android": "https://dc.lft.to/lastmile_qr_scan", "ios": "https://dc.lft.to/lastmile_qr_scan"}, "bike_id": "c55620cdfddd7f28e784a5b8abfadc65", "is_reserved": 0}, {"lat": 38.894289666666666, "fusion_lon": 0.0, "lon": -77.0401915, "is_disabled": 0, "type": "electric_scooter", "name": "18c4e0a47c62d8502096b4c6152a29f1", "fusion_lat": 0.0, "rental_uris": {"android": "https://dc.lft.to/lastmile_qr_scan", "ios": "https://dc.lft.to/lastmile_qr_scan"}, "bike_id": "18c4e0a47c62d8502096b4c6152a29f1", "is_reserved": 0}, {"lat": 38.897324833333336, "fusion_lon": 0.0, "lon": -77.054776, "is_disabled": 0, "type": "electric_scooter", "name": "1f33ce47602417a209719761061b2c0d", "fusion_lat": 0.0, "rental_uris": {"android": "https://dc.lft.to/lastmile_qr_scan", "ios": "https://dc.lft.to/lastmile_qr_scan"}, "bike_id": "1f33ce47602417a209719761061b2c0d", "is_reserved": 0}, {"lat": 38.90257533333333, "fusion_lon": 0.0, "lon": -77.04599533333334, "is_disabled": 0, "type": "electric_scooter", "name": "82c186cd4e90fb770b9c97dedef27e24", "fusion_lat": 0.0, "rental_uris": {"android": "https://dc.lft.to/lastmile_qr_scan", "ios": "https://dc.lft.to/lastmile_qr_scan"}, "bike_id": "82c186cd4e90fb770b9c97dedef27e24", "is_reserved": 0}, {"lat": 38.912713, "fusion_lon": 0.0, "lon": -77.0474005, "is_disabled": 0, "type": "electric_scooter", "name": "a19bdd6663213d392f07a292d87ef9ad", "fusion_lat": 0.0, "rental_uris": {"android": "https://dc.lft.to/lastmile_qr_scan", "ios": "https://dc.lft.to/lastmile_qr_scan"}, "bike_id": "a19bdd6663213d392f07a292d87ef9ad", "is_reserved": 0}, {"lat": 38.91576583333333, "fusion_lon": 0.0, "lon": -77.03181733333334, "is_disabled": 0, "type": "electric_scooter", "name": "0239a135df4f3e3e75728d9de8f71b7a", "fusion_lat": 0.0, "rental_uris": {"android": "https://dc.lft.to/lastmile_qr_scan", "ios": "https://dc.lft.to/lastmile_qr_scan"}, "bike_id": "0239a135df4f3e3e75728d9de8f71b7a", "is_reserved": 0}, {"lat": 39.05789516666667, "fusion_lon": 0.0, "lon": -77.1502125, "is_disabled": 0, "type": "electric_bike", "name": "056f5e24a3a96b42bc2c627e93139880", "fusion_lat": 0.0, "rental_uris": {"android": "https://dc.lft.to/lastmile_qr_scan", "ios": "https://dc.lft.to/lastmile_qr_scan"}, "bike_id": "056f5e24a3a96b42bc2c627e93139880", "is_reserved": 0}, {"lat": 38.90855716666667, "fusion_lon": 0.0, "lon": -77.042952, "is_disabled": 0, "type": "electric_scooter", "name": "335435bd31ca3f0654625450da8402e2", "fusion_lat": 0.0, "rental_uris": {"android": "https://dc.lft.to/lastmile_qr_scan", "ios": "https://dc.lft.to/lastmile_qr_scan"}, "bike_id": "335435bd31ca3f0654625450da8402e2", "is_reserved": 0}, {"lat": 38.905846, "fusion_lon": 0.0, "lon": -77.04166416666666, "is_disabled": 0, "type": "electric_scooter", "name": "1d85e8e461a67d64ee04960a68b32d76", "fusion_lat": 0.0, "rental_uris": {"android": "https://dc.lft.to/lastmile_qr_scan", "ios": "https://dc.lft.to/lastmile_qr_scan"}, "bike_id": "1d85e8e461a67d64ee04960a68b32d76", "is_reserved": 0}, {"lat": 38.886150666666666, "fusion_lon": 0.0, "lon": -77.0006365, "is_disabled": 0, "type": "electric_scooter", "name": "3a4c0da7af885be862de8f9b5588d517", "fusion_lat": 0.0, "rental_uris": {"android": "https://dc.lft.to/lastmile_qr_scan", "ios": "https://dc.lft.to/lastmile_qr_scan"}, "bike_id": "3a4c0da7af885be862de8f9b5588d517", "is_reserved": 0}, {"lat": 38.8794305, "fusion_lon": 0.0, "lon": -76.916159, "is_disabled": 0, "type": "electric_bike", "name": "3b54f8585f0e2a29175abeab59c7517b", "fusion_lat": 0.0, "rental_uris": {"android": "https://dc.lft.to/lastmile_qr_scan", "ios": "https://dc.lft.to/lastmile_qr_scan"}, "bike_id": "3b54f8585f0e2a29175abeab59c7517b", "is_reserved": 0}, {"lat": 38.90405333333333, "fusion_lon": 0.0, "lon": -77.02944916666667, "is_disabled": 0, "type": "electric_scooter", "name": "3c3f458d0618b09249b52878a359a995", "fusion_lat": 0.0, "rental_uris": {"android": "https://dc.lft.to/lastmile_qr_scan", "ios": "https://dc.lft.to/lastmile_qr_scan"}, "bike_id": "3c3f458d0618b09249b52878a359a995", "is_reserved": 0}, {"lat": 38.883014, "fusion_lon": 0.0, "lon": -77.0175185, "is_disabled": 0, "type": "electric_scooter", "name": "59667bb7d7010330940d621f3d0bff31", "fusion_lat": 0.0, "rental_uris": {"android": "https://dc.lft.to/lastmile_qr_scan", "ios": "https://dc.lft.to/lastmile_qr_scan"}, "bike_id": "59667bb7d7010330940d621f3d0bff31", "is_reserved": 0}, {"lat": 38.9188205, "fusion_lon": 0.0, "lon": -77.04815966666666, "is_disabled": 0, "type": "electric_scooter", "name": "f53b3ffd837b51e83c432f8afd35639d", "fusion_lat": 0.0, "rental_uris": {"android": "https://dc.lft.to/lastmile_qr_scan", "ios": "https://dc.lft.to/lastmile_qr_scan"}, "bike_id": "f53b3ffd837b51e83c432f8afd35639d", "is_reserved": 0}, {"lat": 38.86989066666667, "fusion_lon": 0.0, "lon": -76.95978883333333, "is_disabled": 0, "type": "electric_scooter", "name": "a9c9696ffb3c1b6417092de57a7d4516", "fusion_lat": 0.0, "rental_uris": {"android": "https://dc.lft.to/lastmile_qr_scan", "ios": "https://dc.lft.to/lastmile_qr_scan"}, "bike_id": "a9c9696ffb3c1b6417092de57a7d4516", "is_reserved": 0}, {"lat": 38.8931025, "fusion_lon": 0.0, "lon": -77.021693, "is_disabled": 0, "type": "electric_scooter", "name": "446f77a15f44cef3a8979e9e1c3b29c2", "fusion_lat": 0.0, "rental_uris": {"android": "https://dc.lft.to/lastmile_qr_scan", "ios": "https://dc.lft.to/lastmile_qr_scan"}, "bike_id": "446f77a15f44cef3a8979e9e1c3b29c2", "is_reserved": 0}, {"lat": 38.892266, "fusion_lon": 0.0, "lon": -77.033376, "is_disabled": 0, "type": "electric_scooter", "name": "68de2c2c33b6257ce75616e55700fa57", "fusion_lat": 0.0, "rental_uris": {"android": "https://dc.lft.to/lastmile_qr_scan", "ios": "https://dc.lft.to/lastmile_qr_scan"}, "bike_id": "68de2c2c33b6257ce75616e55700fa57", "is_reserved": 0}, {"lat": 38.90268733333333, "fusion_lon": 0.0, "lon": -77.03835883333333, "is_disabled": 0, "type": "electric_scooter", "name": "7206fe0c26b1f45117b0dfea9ed78c0c", "fusion_lat": 0.0, "rental_uris": {"android": "https://dc.lft.to/lastmile_qr_scan", "ios": "https://dc.lft.to/lastmile_qr_scan"}, "bike_id": "7206fe0c26b1f45117b0dfea9ed78c0c", "is_reserved": 0}, {"lat": 38.90082916666667, "fusion_lon": 0.0, "lon": -77.04836816666666, "is_disabled": 0, "type": "electric_scooter", "name": "d0ca25ab63ec56b2df93882814b2bc43", "fusion_lat": 0.0, "rental_uris": {"android": "https://dc.lft.to/lastmile_qr_scan", "ios": "https://dc.lft.to/lastmile_qr_scan"}, "bike_id": "d0ca25ab63ec56b2df93882814b2bc43", "is_reserved": 0}, {"lat": 38.92322983333333, "fusion_lon": 0.0, "lon": -76.99881333333333, "is_disabled": 0, "type": "electric_scooter", "name": "de8f2e84e8e10cdca2b859cffd176a62", "fusion_lat": 0.0, "rental_uris": {"android": "https://dc.lft.to/lastmile_qr_scan", "ios": "https://dc.lft.to/lastmile_qr_scan"}, "bike_id": "de8f2e84e8e10cdca2b859cffd176a62", "is_reserved": 0}, {"lat": 38.9611655, "fusion_lon": 0.0, "lon": -77.00946233333333, "is_disabled": 0, "type": "electric_scooter", "name": "ad9c892b6d53ad8e8f561249563ccf3b", "fusion_lat": 0.0, "rental_uris": {"android": "https://dc.lft.to/lastmile_qr_scan", "ios": "https://dc.lft.to/lastmile_qr_scan"}, "bike_id": "ad9c892b6d53ad8e8f561249563ccf3b", "is_reserved": 0}, {"lat": 38.905586166666666, "fusion_lon": 0.0, "lon": -77.0325105, "is_disabled": 0, "type": "electric_scooter", "name": "ac010ff6e86cba0a3dc6d5627fc0bdd8", "fusion_lat": 0.0, "rental_uris": {"android": "https://dc.lft.to/lastmile_qr_scan", "ios": "https://dc.lft.to/lastmile_qr_scan"}, "bike_id": "ac010ff6e86cba0a3dc6d5627fc0bdd8", "is_reserved": 0}, {"lat": 38.914183666666666, "fusion_lon": 0.0, "lon": -77.026013, "is_disabled": 0, "type": "electric_scooter", "name": "a71d6b2ec0246544fbfe7dca2f77c91a", "fusion_lat": 0.0, "rental_uris": {"android": "https://dc.lft.to/lastmile_qr_scan", "ios": "https://dc.lft.to/lastmile_qr_scan"}, "bike_id": "a71d6b2ec0246544fbfe7dca2f77c91a", "is_reserved": 0}, {"lat": 38.914161666666665, "fusion_lon": 0.0, "lon": -77.045004, "is_disabled": 0, "type": "electric_scooter", "name": "8d7971f2819c9d9183fe4e08ced0d069", "fusion_lat": 0.0, "rental_uris": {"android": "https://dc.lft.to/lastmile_qr_scan", "ios": "https://dc.lft.to/lastmile_qr_scan"}, "bike_id": "8d7971f2819c9d9183fe4e08ced0d069", "is_reserved": 0}, {"lat": 38.927630666666666, "fusion_lon": 0.0, "lon": -77.03277416666667, "is_disabled": 0, "type": "electric_scooter", "name": "efd5f41f39e73be271cc22653c2ae9d0", "fusion_lat": 0.0, "rental_uris": {"android": "https://dc.lft.to/lastmile_qr_scan", "ios": "https://dc.lft.to/lastmile_qr_scan"}, "bike_id": "efd5f41f39e73be271cc22653c2ae9d0", "is_reserved": 0}, {"lat": 38.9248765, "fusion_lon": 0.0, "lon": -77.05761016666666, "is_disabled": 0, "type": "electric_scooter", "name": "86709cb86d92cf8f918e2a486a3cf991", "fusion_lat": 0.0, "rental_uris": {"android": "https://dc.lft.to/lastmile_qr_scan", "ios": "https://dc.lft.to/lastmile_qr_scan"}, "bike_id": "86709cb86d92cf8f918e2a486a3cf991", "is_reserved": 0}, {"lat": 38.892224666666664, "fusion_lon": 0.0, "lon": -77.043767, "is_disabled": 0, "type": "electric_scooter", "name": "1daee07acb93d88864ed3429ff82e21a", "fusion_lat": 0.0, "rental_uris": {"android": "https://dc.lft.to/lastmile_qr_scan", "ios": "https://dc.lft.to/lastmile_qr_scan"}, "bike_id": "1daee07acb93d88864ed3429ff82e21a", "is_reserved": 0}, {"lat": 38.86647983333334, "fusion_lon": 0.0, "lon": -76.98498166666667, "is_disabled": 0, "type": "electric_scooter", "name": "fe558014f891f8ed633f238210f781a3", "fusion_lat": 0.0, "rental_uris": {"android": "https://dc.lft.to/lastmile_qr_scan", "ios": "https://dc.lft.to/lastmile_qr_scan"}, "bike_id": "fe558014f891f8ed633f238210f781a3", "is_reserved": 0}, {"lat": 38.89635216666667, "fusion_lon": 0.0, "lon": -77.033416, "is_disabled": 0, "type": "electric_scooter", "name": "b8fcda0d6bc9a9f20bf96df5eea4f76b", "fusion_lat": 0.0, "rental_uris": {"android": "https://dc.lft.to/lastmile_qr_scan", "ios": "https://dc.lft.to/lastmile_qr_scan"}, "bike_id": "b8fcda0d6bc9a9f20bf96df5eea4f76b", "is_reserved": 0}, {"lat": 38.92107516666667, "fusion_lon": 0.0, "lon": -77.03326566666667, "is_disabled": 0, "type": "electric_scooter", "name": "bb891fcd70de4d09ca5ba45957be385d", "fusion_lat": 0.0, "rental_uris": {"android": "https://dc.lft.to/lastmile_qr_scan", "ios": "https://dc.lft.to/lastmile_qr_scan"}, "bike_id": "bb891fcd70de4d09ca5ba45957be385d", "is_reserved": 0}, {"lat": 38.86370516666667, "fusion_lon": 0.0, "lon": -76.9905835, "is_disabled": 0, "type": "electric_scooter", "name": "ebe1e3fbfcb3e979ff27f6c4a9d83e65", "fusion_lat": 0.0, "rental_uris": {"android": "https://dc.lft.to/lastmile_qr_scan", "ios": "https://dc.lft.to/lastmile_qr_scan"}, "bike_id": "ebe1e3fbfcb3e979ff27f6c4a9d83e65", "is_reserved": 0}, {"lat": 38.93402416666667, "fusion_lon": 0.0, "lon": -77.022064, "is_disabled": 0, "type": "electric_scooter", "name": "aaeb7969651e7b12da0df63197bc6a48", "fusion_lat": 0.0, "rental_uris": {"android": "https://dc.lft.to/lastmile_qr_scan", "ios": "https://dc.lft.to/lastmile_qr_scan"}, "bike_id": "aaeb7969651e7b12da0df63197bc6a48", "is_reserved": 0}, {"lat": 38.913048333333336, "fusion_lon": 0.0, "lon": -77.01621316666666, "is_disabled": 0, "type": "electric_scooter", "name": "f6b58bd4cbd88f7a616850ae2f5697ca", "fusion_lat": 0.0, "rental_uris": {"android": "https://dc.lft.to/lastmile_qr_scan", "ios": "https://dc.lft.to/lastmile_qr_scan"}, "bike_id": "f6b58bd4cbd88f7a616850ae2f5697ca", "is_reserved": 0}, {"lat": 38.9299875, "fusion_lon": 0.0, "lon": -77.013026, "is_disabled": 0, "type": "electric_scooter", "name": "a8e2c39030d92deffb80179c887a2492", "fusion_lat": 0.0, "rental_uris": {"android": "https://dc.lft.to/lastmile_qr_scan", "ios": "https://dc.lft.to/lastmile_qr_scan"}, "bike_id": "a8e2c39030d92deffb80179c887a2492", "is_reserved": 0}, {"lat": 38.87461866666666, "fusion_lon": 0.0, "lon": -77.00542216666666, "is_disabled": 0, "type": "electric_scooter", "name": "0830adbd91f225365db1929035b5a24e", "fusion_lat": 0.0, "rental_uris": {"android": "https://dc.lft.to/lastmile_qr_scan", "ios": "https://dc.lft.to/lastmile_qr_scan"}, "bike_id": "0830adbd91f225365db1929035b5a24e", "is_reserved": 0}, {"lat": 38.91715083333333, "fusion_lon": 0.0, "lon": -77.03662033333333, "is_disabled": 0, "type": "electric_scooter", "name": "7bb713d8be3b83cd51bdc3dbce373d70", "fusion_lat": 0.0, "rental_uris": {"android": "https://dc.lft.to/lastmile_qr_scan", "ios": "https://dc.lft.to/lastmile_qr_scan"}, "bike_id": "7bb713d8be3b83cd51bdc3dbce373d70", "is_reserved": 0}, {"lat": 38.917008333333335, "fusion_lon": 0.0, "lon": -77.031865, "is_disabled": 0, "type": "electric_scooter", "name": "46f736ceb6a5a843cd9f6844b9a1ec4d", "fusion_lat": 0.0, "rental_uris": {"android": "https://dc.lft.to/lastmile_qr_scan", "ios": "https://dc.lft.to/lastmile_qr_scan"}, "bike_id": "46f736ceb6a5a843cd9f6844b9a1ec4d", "is_reserved": 0}, {"lat": 38.87078733333333, "fusion_lon": 0.0, "lon": -76.98908516666667, "is_disabled": 0, "type": "electric_scooter", "name": "a127ed1923bf4a1ead790ad8c3700d0c", "fusion_lat": 0.0, "rental_uris": {"android": "https://dc.lft.to/lastmile_qr_scan", "ios": "https://dc.lft.to/lastmile_qr_scan"}, "bike_id": "a127ed1923bf4a1ead790ad8c3700d0c", "is_reserved": 0}, {"lat": 38.914901, "fusion_lon": 0.0, "lon": -77.02581833333333, "is_disabled": 0, "type": "electric_scooter", "name": "76fa4374046cac8a5068b2f2f87ebc7a", "fusion_lat": 0.0, "rental_uris": {"android": "https://dc.lft.to/lastmile_qr_scan", "ios": "https://dc.lft.to/lastmile_qr_scan"}, "bike_id": "76fa4374046cac8a5068b2f2f87ebc7a", "is_reserved": 0}, {"lat": 38.928581, "fusion_lon": 0.0, "lon": -77.03284866666667, "is_disabled": 0, "type": "electric_scooter", "name": "cd16ead116e22d0932539cc322119afd", "fusion_lat": 0.0, "rental_uris": {"android": "https://dc.lft.to/lastmile_qr_scan", "ios": "https://dc.lft.to/lastmile_qr_scan"}, "bike_id": "cd16ead116e22d0932539cc322119afd", "is_reserved": 0}, {"lat": 38.898714, "fusion_lon": 0.0, "lon": -77.01411966666667, "is_disabled": 0, "type": "electric_scooter", "name": "4df1ca29b214aa4a3dcbb26186e88220", "fusion_lat": 0.0, "rental_uris": {"android": "https://dc.lft.to/lastmile_qr_scan", "ios": "https://dc.lft.to/lastmile_qr_scan"}, "bike_id": "4df1ca29b214aa4a3dcbb26186e88220", "is_reserved": 0}, {"lat": 38.902724, "fusion_lon": 0.0, "lon": -77.03939733333333, "is_disabled": 0, "type": "electric_scooter", "name": "f23ce5c593677a3dae42a9adeb13b8aa", "fusion_lat": 0.0, "rental_uris": {"android": "https://dc.lft.to/lastmile_qr_scan", "ios": "https://dc.lft.to/lastmile_qr_scan"}, "bike_id": "f23ce5c593677a3dae42a9adeb13b8aa", "is_reserved": 0}, {"lat": 38.97366816666667, "fusion_lon": 0.0, "lon": -77.01861916666667, "is_disabled": 0, "type": "electric_scooter", "name": "fe0cf30f71954a2d6c73d8577179f997", "fusion_lat": 0.0, "rental_uris": {"android": "https://dc.lft.to/lastmile_qr_scan", "ios": "https://dc.lft.to/lastmile_qr_scan"}, "bike_id": "fe0cf30f71954a2d6c73d8577179f997", "is_reserved": 0}, {"lat": 38.89223283333333, "fusion_lon": 0.0, "lon": -77.02338666666667, "is_disabled": 0, "type": "electric_scooter", "name": "3dd9ab5aa553f34bf86dcb58cf7e1527", "fusion_lat": 0.0, "rental_uris": {"android": "https://dc.lft.to/lastmile_qr_scan", "ios": "https://dc.lft.to/lastmile_qr_scan"}, "bike_id": "3dd9ab5aa553f34bf86dcb58cf7e1527", "is_reserved": 0}, {"lat": 38.89747083333334, "fusion_lon": 0.0, "lon": -77.02098933333333, "is_disabled": 0, "type": "electric_bike", "name": "29cffd9b568011f023b6b3d35badb58f", "fusion_lat": 0.0, "rental_uris": {"android": "https://dc.lft.to/lastmile_qr_scan", "ios": "https://dc.lft.to/lastmile_qr_scan"}, "bike_id": "29cffd9b568011f023b6b3d35badb58f", "is_reserved": 0}, {"lat": 38.907922, "fusion_lon": 0.0, "lon": -76.9998115, "is_disabled": 0, "type": "electric_scooter", "name": "6f32ba4643defb4f63f1f5161a2d4504", "fusion_lat": 0.0, "rental_uris": {"android": "https://dc.lft.to/lastmile_qr_scan", "ios": "https://dc.lft.to/lastmile_qr_scan"}, "bike_id": "6f32ba4643defb4f63f1f5161a2d4504", "is_reserved": 0}, {"lat": 38.907239833333335, "fusion_lon": 0.0, "lon": -77.0435745, "is_disabled": 0, "type": "electric_scooter", "name": "290c4bd153aa850691330bc831d0fc17", "fusion_lat": 0.0, "rental_uris": {"android": "https://dc.lft.to/lastmile_qr_scan", "ios": "https://dc.lft.to/lastmile_qr_scan"}, "bike_id": "290c4bd153aa850691330bc831d0fc17", "is_reserved": 0}, {"lat": 38.92050833333333, "fusion_lon": 0.0, "lon": -77.02447916666667, "is_disabled": 0, "type": "electric_scooter", "name": "dbe9e137d1034e6a6f7805c38b3b5288", "fusion_lat": 0.0, "rental_uris": {"android": "https://dc.lft.to/lastmile_qr_scan", "ios": "https://dc.lft.to/lastmile_qr_scan"}, "bike_id": "dbe9e137d1034e6a6f7805c38b3b5288", "is_reserved": 0}, {"lat": 38.93586366666667, "fusion_lon": 0.0, "lon": -77.05853983333333, "is_disabled": 0, "type": "electric_scooter", "name": "205790373ecfaef4043b57cd15dde4c1", "fusion_lat": 0.0, "rental_uris": {"android": "https://dc.lft.to/lastmile_qr_scan", "ios": "https://dc.lft.to/lastmile_qr_scan"}, "bike_id": "205790373ecfaef4043b57cd15dde4c1", "is_reserved": 0}, {"lat": 38.880365833333336, "fusion_lon": 0.0, "lon": -77.00518566666666, "is_disabled": 0, "type": "electric_scooter", "name": "6b987b7040565702643cbc5e2685c323", "fusion_lat": 0.0, "rental_uris": {"android": "https://dc.lft.to/lastmile_qr_scan", "ios": "https://dc.lft.to/lastmile_qr_scan"}, "bike_id": "6b987b7040565702643cbc5e2685c323", "is_reserved": 0}, {"lat": 38.86012216666666, "fusion_lon": 0.0, "lon": -76.98520916666666, "is_disabled": 0, "type": "electric_scooter", "name": "c433c504cc8d3efdc679775f60acef30", "fusion_lat": 0.0, "rental_uris": {"android": "https://dc.lft.to/lastmile_qr_scan", "ios": "https://dc.lft.to/lastmile_qr_scan"}, "bike_id": "c433c504cc8d3efdc679775f60acef30", "is_reserved": 0}, {"lat": 38.95278116666667, "fusion_lon": 0.0, "lon": -77.06973233333333, "is_disabled": 0, "type": "electric_scooter", "name": "e87294bc65f6bb9d875105fdcb5cc360", "fusion_lat": 0.0, "rental_uris": {"android": "https://dc.lft.to/lastmile_qr_scan", "ios": "https://dc.lft.to/lastmile_qr_scan"}, "bike_id": "e87294bc65f6bb9d875105fdcb5cc360", "is_reserved": 0}, {"lat": 38.90613833333333, "fusion_lon": 0.0, "lon": -76.98687, "is_disabled": 0, "type": "electric_scooter", "name": "8a3e9317a7aeffb9ac5eda97e61c295b", "fusion_lat": 0.0, "rental_uris": {"android": "https://dc.lft.to/lastmile_qr_scan", "ios": "https://dc.lft.to/lastmile_qr_scan"}, "bike_id": "8a3e9317a7aeffb9ac5eda97e61c295b", "is_reserved": 0}, {"lat": 38.81838416666667, "fusion_lon": 0.0, "lon": -77.10573633333334, "is_disabled": 0, "type": "electric_bike", "name": "cc6a436938451d2446162b7e806aaa99", "fusion_lat": 0.0, "rental_uris": {"android": "https://dc.lft.to/lastmile_qr_scan", "ios": "https://dc.lft.to/lastmile_qr_scan"}, "bike_id": "cc6a436938451d2446162b7e806aaa99", "is_reserved": 0}, {"lat": 38.88091266666667, "fusion_lon": 0.0, "lon": -76.99843, "is_disabled": 0, "type": "electric_scooter", "name": "52d8e596e29e41b4bb36f21ff0e8bbcb", "fusion_lat": 0.0, "rental_uris": {"android": "https://dc.lft.to/lastmile_qr_scan", "ios": "https://dc.lft.to/lastmile_qr_scan"}, "bike_id": "52d8e596e29e41b4bb36f21ff0e8bbcb", "is_reserved": 0}, {"lat": 38.920565833333335, "fusion_lon": 0.0, "lon": -77.0230365, "is_disabled": 0, "type": "electric_scooter", "name": "ca7d045743216e00221ca50197d3e594", "fusion_lat": 0.0, "rental_uris": {"android": "https://dc.lft.to/lastmile_qr_scan", "ios": "https://dc.lft.to/lastmile_qr_scan"}, "bike_id": "ca7d045743216e00221ca50197d3e594", "is_reserved": 0}, {"lat": 38.87462633333333, "fusion_lon": 0.0, "lon": -77.01892266666667, "is_disabled": 0, "type": "electric_scooter", "name": "1391292d4fa44925ceb3b09179df59ba", "fusion_lat": 0.0, "rental_uris": {"android": "https://dc.lft.to/lastmile_qr_scan", "ios": "https://dc.lft.to/lastmile_qr_scan"}, "bike_id": "1391292d4fa44925ceb3b09179df59ba", "is_reserved": 0}, {"lat": 38.92485416666667, "fusion_lon": 0.0, "lon": -77.041569, "is_disabled": 0, "type": "electric_scooter", "name": "adff078cf69d35895a497bef29c1435f", "fusion_lat": 0.0, "rental_uris": {"android": "https://dc.lft.to/lastmile_qr_scan", "ios": "https://dc.lft.to/lastmile_qr_scan"}, "bike_id": "adff078cf69d35895a497bef29c1435f", "is_reserved": 0}, {"lat": 38.90037683333333, "fusion_lon": 0.0, "lon": -76.97227316666667, "is_disabled": 0, "type": "electric_bike", "name": "66f02c1829841ee3f0682674eb382b12", "fusion_lat": 0.0, "rental_uris": {"android": "https://dc.lft.to/lastmile_qr_scan", "ios": "https://dc.lft.to/lastmile_qr_scan"}, "bike_id": "66f02c1829841ee3f0682674eb382b12", "is_reserved": 0}, {"lat": 38.8924315, "fusion_lon": 0.0, "lon": -77.0335015, "is_disabled": 0, "type": "electric_scooter", "name": "65432fd4b336e4d81c0530aed84498a7", "fusion_lat": 0.0, "rental_uris": {"android": "https://dc.lft.to/lastmile_qr_scan", "ios": "https://dc.lft.to/lastmile_qr_scan"}, "bike_id": "65432fd4b336e4d81c0530aed84498a7", "is_reserved": 0}, {"lat": 38.87293533333333, "fusion_lon": 0.0, "lon": -77.00983433333333, "is_disabled": 0, "type": "electric_scooter", "name": "941e907a20a7f9075671b38dd5036d02", "fusion_lat": 0.0, "rental_uris": {"android": "https://dc.lft.to/lastmile_qr_scan", "ios": "https://dc.lft.to/lastmile_qr_scan"}, "bike_id": "941e907a20a7f9075671b38dd5036d02", "is_reserved": 0}, {"lat": 38.9199975, "fusion_lon": 0.0, "lon": -77.02187883333333, "is_disabled": 0, "type": "electric_scooter", "name": "da82812f12bbea57c16700d0e3c81880", "fusion_lat": 0.0, "rental_uris": {"android": "https://dc.lft.to/lastmile_qr_scan", "ios": "https://dc.lft.to/lastmile_qr_scan"}, "bike_id": "da82812f12bbea57c16700d0e3c81880", "is_reserved": 0}, {"lat": 38.940889166666665, "fusion_lon": 0.0, "lon": -77.02755583333334, "is_disabled": 0, "type": "electric_scooter", "name": "22a932f989d12b2aee0be4990ae0acc0", "fusion_lat": 0.0, "rental_uris": {"android": "https://dc.lft.to/lastmile_qr_scan", "ios": "https://dc.lft.to/lastmile_qr_scan"}, "bike_id": "22a932f989d12b2aee0be4990ae0acc0", "is_reserved": 0}, {"lat": 38.87628466666666, "fusion_lon": 0.0, "lon": -77.01259083333333, "is_disabled": 0, "type": "electric_scooter", "name": "982c37e240d9fe97897403571740d8d6", "fusion_lat": 0.0, "rental_uris": {"android": "https://dc.lft.to/lastmile_qr_scan", "ios": "https://dc.lft.to/lastmile_qr_scan"}, "bike_id": "982c37e240d9fe97897403571740d8d6", "is_reserved": 0}, {"lat": 38.914162166666664, "fusion_lon": 0.0, "lon": -77.0491545, "is_disabled": 0, "type": "electric_scooter", "name": "d5fcbedbb8e4caf769d242a8a8d39aa9", "fusion_lat": 0.0, "rental_uris": {"android": "https://dc.lft.to/lastmile_qr_scan", "ios": "https://dc.lft.to/lastmile_qr_scan"}, "bike_id": "d5fcbedbb8e4caf769d242a8a8d39aa9", "is_reserved": 0}, {"lat": 38.911071, "fusion_lon": 0.0, "lon": -77.04484183333334, "is_disabled": 0, "type": "electric_scooter", "name": "d23b9b69510799e7ced375eb72038634", "fusion_lat": 0.0, "rental_uris": {"android": "https://dc.lft.to/lastmile_qr_scan", "ios": "https://dc.lft.to/lastmile_qr_scan"}, "bike_id": "d23b9b69510799e7ced375eb72038634", "is_reserved": 0}, {"lat": 38.939523666666666, "fusion_lon": 0.0, "lon": -77.0250255, "is_disabled": 0, "type": "electric_scooter", "name": "5aaa99cdd6f24a74a105e1bad12d2c8a", "fusion_lat": 0.0, "rental_uris": {"android": "https://dc.lft.to/lastmile_qr_scan", "ios": "https://dc.lft.to/lastmile_qr_scan"}, "bike_id": "5aaa99cdd6f24a74a105e1bad12d2c8a", "is_reserved": 0}, {"lat": 38.903630166666666, "fusion_lon": 0.0, "lon": -77.03181233333333, "is_disabled": 0, "type": "electric_scooter", "name": "50a959d61bdfcc0cebf890ad5ebc8711", "fusion_lat": 0.0, "rental_uris": {"android": "https://dc.lft.to/lastmile_qr_scan", "ios": "https://dc.lft.to/lastmile_qr_scan"}, "bike_id": "50a959d61bdfcc0cebf890ad5ebc8711", "is_reserved": 0}, {"lat": 38.87703066666667, "fusion_lon": 0.0, "lon": -77.01784966666666, "is_disabled": 0, "type": "electric_scooter", "name": "f119ed1440e14ce22aaec88e49f32feb", "fusion_lat": 0.0, "rental_uris": {"android": "https://dc.lft.to/lastmile_qr_scan", "ios": "https://dc.lft.to/lastmile_qr_scan"}, "bike_id": "f119ed1440e14ce22aaec88e49f32feb", "is_reserved": 0}, {"lat": 38.907291666666666, "fusion_lon": 0.0, "lon": -77.02323016666666, "is_disabled": 0, "type": "electric_scooter", "name": "9962293c2789ffde3a7f4c5248c54382", "fusion_lat": 0.0, "rental_uris": {"android": "https://dc.lft.to/lastmile_qr_scan", "ios": "https://dc.lft.to/lastmile_qr_scan"}, "bike_id": "9962293c2789ffde3a7f4c5248c54382", "is_reserved": 0}, {"lat": 38.900369, "fusion_lon": 0.0, "lon": -77.03959583333334, "is_disabled": 0, "type": "electric_scooter", "name": "a687929f8d6aa2054611daf4e0d6186a", "fusion_lat": 0.0, "rental_uris": {"android": "https://dc.lft.to/lastmile_qr_scan", "ios": "https://dc.lft.to/lastmile_qr_scan"}, "bike_id": "a687929f8d6aa2054611daf4e0d6186a", "is_reserved": 0}, {"lat": 38.900021833333334, "fusion_lon": 0.0, "lon": -77.00125566666667, "is_disabled": 0, "type": "electric_scooter", "name": "95c2f5aebd8d1b732c9d3f6f27d68805", "fusion_lat": 0.0, "rental_uris": {"android": "https://dc.lft.to/lastmile_qr_scan", "ios": "https://dc.lft.to/lastmile_qr_scan"}, "bike_id": "95c2f5aebd8d1b732c9d3f6f27d68805", "is_reserved": 0}, {"lat": 38.9120245, "fusion_lon": 0.0, "lon": -77.034592, "is_disabled": 0, "type": "electric_scooter", "name": "97ea5700bcc59bcc0104736bd3f2e674", "fusion_lat": 0.0, "rental_uris": {"android": "https://dc.lft.to/lastmile_qr_scan", "ios": "https://dc.lft.to/lastmile_qr_scan"}, "bike_id": "97ea5700bcc59bcc0104736bd3f2e674", "is_reserved": 0}, {"lat": 38.996014, "fusion_lon": 0.0, "lon": -77.03187633333333, "is_disabled": 0, "type": "electric_scooter", "name": "1966cedd2b899584df622cfceba9c0ed", "fusion_lat": 0.0, "rental_uris": {"android": "https://dc.lft.to/lastmile_qr_scan", "ios": "https://dc.lft.to/lastmile_qr_scan"}, "bike_id": "1966cedd2b899584df622cfceba9c0ed", "is_reserved": 0}, {"lat": 38.883243666666665, "fusion_lon": 0.0, "lon": -77.0174975, "is_disabled": 0, "type": "electric_scooter", "name": "2282c9abb800b67ab92eb8e4ee0b8a9c", "fusion_lat": 0.0, "rental_uris": {"android": "https://dc.lft.to/lastmile_qr_scan", "ios": "https://dc.lft.to/lastmile_qr_scan"}, "bike_id": "2282c9abb800b67ab92eb8e4ee0b8a9c", "is_reserved": 0},