{"data": {"bikes": [{"type": "electric_scooter", "rental_uris": {"ios": "https://dc.lft.to/lastmile_qr_scan", "android": "https://dc.lft.to/lastmile_qr_scan"}, "lon": -77.041623, "fusion_lon": 0.0, "is_disabled": 0, "lat": 38.92795483333333, "bike_id": "47329346f7e40c8db5c6d15349bc945e", "name": "47329346f7e40c8db5c6d15349bc945e", "is_reserved": 0, "fusion_lat": 0.0}, {"type": "electric_scooter", "rental_uris": {"ios": "https://dc.lft.to/lastmile_qr_scan", "android": "https://dc.lft.to/lastmile_qr_scan"}, "lon": -77.04422766666667, "fusion_lon": 0.0, "is_disabled": 0, "lat": 38.91011783333333, "bike_id": "669a6d1221f29fd025291d5aadce5372", "name": "669a6d1221f29fd025291d5aadce5372", "is_reserved": 0, "fusion_lat": 0.0}, {"type": "electric_scooter", "rental_uris": {"ios": "https://dc.lft.to/lastmile_qr_scan", "android": "https://dc.lft.to/lastmile_qr_scan"}, "lon": -77.03160616666666, "fusion_lon": 0.0, "is_disabled": 0, "lat": 38.923692333333335, "bike_id": "a28bfd8bb871a3a3bf254863b888218b", "name": "a28bfd8bb871a3a3bf254863b888218b", "is_reserved": 0, "fusion_lat": 0.0}, {"type": "electric_scooter", "rental_uris": {"ios": "https://dc.lft.to/lastmile_qr_scan", "android": "https://dc.lft.to/lastmile_qr_scan"}, "lon": -77.02832866666667, "fusion_lon": 0.0, "is_disabled": 0, "lat": 38.93189666666667, "bike_id": "4964da713f04358e6a251fa9cae1571d", "name": "4964da713f04358e6a251fa9cae1571d", "is_reserved": 0, "fusion_lat": 0.0}, {"type": "electric_bike", "rental_uris": {"ios": "https://dc.lft.to/lastmile_qr_scan", "android": "https://dc.lft.to/lastmile_qr_scan"}, "lon": -77.09962883333333, "fusion_lon": 0.0, "is_disabled": 0, "lat": 38.93353916666667, "bike_id": "d2b128231918c9c4dde28ef9a0e9f222", "name": "d2b128231918c9c4dde28ef9a0e9f222", "is_reserved": 0, "fusion_lat": 0.0}, {"type": "electric_scooter", "rental_uris": {"ios": "https://dc.lft.to/lastmile_qr_scan", "android": "https://dc.lft.to/lastmile_qr_scan"}, "lon": -77.04138333333333, "fusion_lon": 0.0, "is_disabled": 0, "lat": 38.912105833333335, "bike_id": "77aa7bd9e868cd203c3b3ecadbe6ac48", "name": "77aa7bd9e868cd203c3b3ecadbe6ac48", "is_reserved": 0, "fusion_lat": 0.0}, {"type": "electric_scooter", "rental_uris": {"ios": "https://dc.lft.to/lastmile_qr_scan", "android": "https://dc.lft.to/lastmile_qr_scan"}, "lon": -77.03806783333333, "fusion_lon": 0.0, "is_disabled": 0, "lat": 38.92056916666667, "bike_id": "57a4930c0787c17c69a2ebdf9b13b552", "name": "57a4930c0787c17c69a2ebdf9b13b552", "is_reserved": 0, "fusion_lat": 0.0}, {"type": "electric_scooter", "rental_uris": {"ios": "https://dc.lft.to/lastmile_qr_scan", "android": "https://dc.lft.to/lastmile_qr_scan"}, "lon": -77.03807016666667, "fusion_lon": 0.0, "is_disabled": 0, "lat": 38.912758333333336, "bike_id": "375701a43b97c2250aaccaf16b431493", "name": "375701a43b97c2250aaccaf16b431493", "is_reserved": 0, "fusion_lat": 0.0}, {"type": "electric_scooter", "rental_uris": {"ios": "https://dc.lft.to/lastmile_qr_scan", "android": "https://dc.lft.to/lastmile_qr_scan"}, "lon": -77.03156166666666, "fusion_lon": 0.0, "is_disabled": 0, "lat": 38.91561, "bike_id": "fab28e9dc73be73046348ae079192dc7", "name": "fab28e9dc73be73046348ae079192dc7", "is_reserved": 0, "fusion_lat": 0.0}, {"type": "electric_bike", "rental_uris": {"ios": "https://dc.lft.to/lastmile_qr_scan", "android": "https://dc.lft.to/lastmile_qr_scan"}, "lon": -77.02392716666667, "fusion_lon": 0.0, "is_disabled": 0, "lat": 38.96277416666667, "bike_id": "b7992ca48d99b2a6fbb69e3ed1390c70", "name": "b7992ca48d99b2a6fbb69e3ed1390c70", "is_reserved": 0, "fusion_lat": 0.0}, {"type": "electric_scooter", "rental_uris": {"ios": "https://dc.lft.to/lastmile_qr_scan", "android": "https://dc.lft.to/lastmile_qr_scan"}, "lon": -77.03204216666667, "fusion_lon": 0.0, "is_disabled": 0, "lat": 38.91571116666667, "bike_id": "88fac5de8054a99aee1b946215a2c691", "name": "88fac5de8054a99aee1b946215a2c691", "is_reserved": 0, "fusion_lat": 0.0}, {"type": "electric_bike", "rental_uris": {"ios": "https://dc.lft.to/lastmile_qr_scan", "android": "https://dc.lft.to/lastmile_qr_scan"}, "lon": -77.008004, "fusion_lon": 0.0, "is_disabled": 0, "lat": 38.94921183333334, "bike_id": "bb1f629f1ec3bb400298d3387c6d14bd", "name": "bb1f629f1ec3bb400298d3387c6d14bd", "is_reserved": 0, "fusion_lat": 0.0}, {"type": "electric_scooter", "rental_uris": {"ios": "https://dc.lft.to/lastmile_qr_scan", "android": "https://dc.lft.to/lastmile_qr_scan"}, "lon": -77.032973, "fusion_lon": 0.0, "is_disabled": 0, "lat": 38.956392666666666, "bike_id": "686da2dd7e4e2bd0fd42461325ff04eb", "name": "686da2dd7e4e2bd0fd42461325ff04eb", "is_reserved": 0, "fusion_lat": 0.0}, {"type": "electric_scooter", "rental_uris": {"ios": "https://dc.lft.to/lastmile_qr_scan", "android": "https://dc.lft.to/lastmile_qr_scan"}, "lon": -77.05129616666666, "fusion_lon": 0.0, "is_disabled": 0, "lat": 38.9059055, "bike_id": "a3a32cb64677b51100a307d18a6b4090", "name": "a3a32cb64677b51100a307d18a6b4090", "is_reserved": 0, "fusion_lat": 0.0}, {"type": "electric_bike", "rental_uris": {"ios": "https://dc.lft.to/lastmile_qr_scan", "android": "https://dc.lft.to/lastmile_qr_scan"}, "lon": -77.11492016666666, "fusion_lon": 0.0, "is_disabled": 0, "lat": 39.06923233333333, "bike_id": "d4adc43f7d7633cf6e853d28e0c365a7", "name": "d4adc43f7d7633cf6e853d28e0c365a7", "is_reserved": 0, "fusion_lat": 0.0}, {"type": "electric_scooter", "rental_uris": {"ios": "https://dc.lft.to/lastmile_qr_scan", "android": "https://dc.lft.to/lastmile_qr_scan"}, "lon": -77.02404716666666, "fusion_lon": 0.0, "is_disabled": 0, "lat": 38.928973, "bike_id": "652dd713fa3e81879ef5aa73c48c6b76", "name": "652dd713fa3e81879ef5aa73c48c6b76", "is_reserved": 0, "fusion_lat": 0.0}, {"type": "electric_bike", "rental_uris": {"ios": "https://dc.lft.to/lastmile_qr_scan", "android": "https://dc.lft.to/lastmile_qr_scan"}, "lon": -76.98297633333334, "fusion_lon": 0.0, "is_disabled": 0, "lat": 38.962788333333336, "bike_id": "8d7f3f1eed8d365faa26a7b71a68cd31", "name": "8d7f3f1eed8d365faa26a7b71a68cd31", "is_reserved": 0, "fusion_lat": 0.0}, {"type": "electric_scooter", "rental_uris": {"ios": "https://dc.lft.to/lastmile_qr_scan", "android": "https://dc.lft.to/lastmile_qr_scan"}, "lon": -77.0330525, "fusion_lon": 0.0, "is_disabled": 0, "lat": 38.93192966666667, "bike_id": "83440f5eeb2419c7125f84c799ab29ad", "name": "83440f5eeb2419c7125f84c799ab29ad", "is_reserved": 0, "fusion_lat": 0.0}, {"type": "electric_scooter", "rental_uris": {"ios": "https://dc.lft.to/lastmile_qr_scan", "android": "https://dc.lft.to/lastmile_qr_scan"}, "lon": -76.96683866666666, "fusion_lon": 0.0, "is_disabled": 0, "lat": 38.86959183333333, "bike_id": "6a06decabf40b2a044159b1f04d7ec8c", "name": "6a06decabf40b2a044159b1f04d7ec8c", "is_reserved": 0, "fusion_lat": 0.0}, {"type": "electric_scooter", "rental_uris": {"ios": "https://dc.lft.to/lastmile_qr_scan", "android": "https://dc.lft.to/lastmile_qr_scan"}, "lon": -77.02690466666667, "fusion_lon": 0.0, "is_disabled": 0, "lat": 38.906839833333336, "bike_id": "7a6033789fb6af1559970ef9f3b680fc", "name": "7a6033789fb6af1559970ef9f3b680fc", "is_reserved": 0, "fusion_lat": 0.0}, {"type": "electric_scooter", "rental_uris": {"ios": "https://dc.lft.to/lastmile_qr_scan", "android": "https://dc.lft.to/lastmile_qr_scan"}, "lon": -77.022216, "fusion_lon": 0.0, "is_disabled": 0, "lat": 38.935533666666664, "bike_id": "84601637a4d7997ad641e3aa57cea4d1", "name": "84601637a4d7997ad641e3aa57cea4d1", "is_reserved": 0, "fusion_lat": 0.0}, {"type": "electric_bike", "rental_uris": {"ios": "https://dc.lft.to/lastmile_qr_scan", "android": "https://dc.lft.to/lastmile_qr_scan"}, "lon": -76.989938, "fusion_lon": 0.0, "is_disabled": 0, "lat": 38.863899833333335, "bike_id": "b4e21d60bbb4be7b299ce577ca8cb63e", "name": "b4e21d60bbb4be7b299ce577ca8cb63e", "is_reserved": 0, "fusion_lat": 0.0}, {"type": "electric_scooter", "rental_uris": {"ios": "https://dc.lft.to/lastmile_qr_scan", "android": "https://dc.lft.to/lastmile_qr_scan"}, "lon": -77.02824133333333, "fusion_lon": 0.0, "is_disabled": 0, "lat": 38.88732783333333, "bike_id": "bb514b1a3595074951bc6cfa04e6dc6e", "name": "bb514b1a3595074951bc6cfa04e6dc6e", "is_reserved": 0, "fusion_lat": 0.0}, {"type": "electric_scooter", "rental_uris": {"ios": "https://dc.lft.to/lastmile_qr_scan", "android": "https://dc.lft.to/lastmile_qr_scan"}, "lon": -77.03673233333333, "fusion_lon": 0.0, "is_disabled": 0, "lat": 38.91706883333333, "bike_id": "cb4f8929c3b1728e8c9a92dc2dd6460c", "name": "cb4f8929c3b1728e8c9a92dc2dd6460c", "is_reserved": 0, "fusion_lat": 0.0}, {"type": "electric_scooter", "rental_uris": {"ios": "https://dc.lft.to/lastmile_qr_scan", "android": "https://dc.lft.to/lastmile_qr_scan"}, "lon": -76.93304683333334, "fusion_lon": 0.0, "is_disabled": 0, "lat": 38.88132783333333, "bike_id": "cbb6a42caeaba2936f7719d66bc95e76", "name": "cbb6a42caeaba2936f7719d66bc95e76", "is_reserved": 0, "fusion_lat": 0.0}, {"type": "electric_scooter", "rental_uris": {"ios": "https://dc.lft.to/lastmile_qr_scan", "android": "https://dc.lft.to/lastmile_qr_scan"}, "lon": -77.03190766666667, "fusion_lon": 0.0, "is_disabled": 0, "lat": 38.9133275, "bike_id": "f2d80b2cb8f25aa0d107a8622eb4ba90", "name": "f2d80b2cb8f25aa0d107a8622eb4ba90", "is_reserved": 0, "fusion_lat": 0.0}, {"type": "electric_bike", "rental_uris": {"ios": "https://dc.lft.to/lastmile_qr_scan", "android": "https://dc.lft.to/lastmile_qr_scan"}, "lon": -77.036453, "fusion_lon": 0.0, "is_disabled": 0, "lat": 38.928072666666665, "bike_id": "ab864a7d81117ac198bd322b5df12bb3", "name": "ab864a7d81117ac198bd322b5df12bb3", "is_reserved": 0, "fusion_lat": 0.0}, {"type": "electric_scooter", "rental_uris": {"ios": "https://dc.lft.to/lastmile_qr_scan", "android": "https://dc.lft.to/lastmile_qr_scan"}, "lon": -77.03262183333334, "fusion_lon": 0.0, "is_disabled": 0, "lat": 38.9397215, "bike_id": "86e91e3f17625909e618aa27ce8c2000", "name": "86e91e3f17625909e618aa27ce8c2000", "is_reserved": 0, "fusion_lat": 0.0}, {"type": "electric_scooter", "rental_uris": {"ios": "https://dc.lft.to/lastmile_qr_scan", "android": "https://dc.lft.to/lastmile_qr_scan"}, "lon": -77.01869266666667, "fusion_lon": 0.0, "is_disabled": 0, "lat": 38.931535333333336, "bike_id": "651c4ed0b9e9e6f38bd8b135bcff6ce6", "name": "651c4ed0b9e9e6f38bd8b135bcff6ce6", "is_reserved": 0, "fusion_lat": 0.0}, {"type": "electric_scooter", "rental_uris": {"ios": "https://dc.lft.to/lastmile_qr_scan", "android": "https://dc.lft.to/lastmile_qr_scan"}, "lon": -76.99696066666667, "fusion_lon": 0.0, "is_disabled": 0, "lat": 38.90837466666667, "bike_id": "03b7013f44a9e5858d6c7af698e7488f", "name": "03b7013f44a9e5858d6c7af698e7488f", "is_reserved": 0, "fusion_lat": 0.0}, {"type": "electric_scooter", "rental_uris": {"ios": "https://dc.lft.to/lastmile_qr_scan", "android": "https://dc.lft.to/lastmile_qr_scan"}, "lon": -77.0194615, "fusion_lon": 0.0, "is_disabled": 0, "lat": 38.9290995, "bike_id": "c8a1156bc0011d354b125115b2eef00a", "name": "c8a1156bc0011d354b125115b2eef00a", "is_reserved": 0, "fusion_lat": 0.0}, {"type": "electric_scooter", "rental_uris": {"ios": "https://dc.lft.to/lastmile_qr_scan", "android": "https://dc.lft.to/lastmile_qr_scan"}, "lon": -77.003115, "fusion_lon": 0.0, "is_disabled": 0, "lat": 38.82596733333333, "bike_id": "fc8b297855b533974e8d7d4fe8fe0ed0", "name": "fc8b297855b533974e8d7d4fe8fe0ed0", "is_reserved": 0, "fusion_lat": 0.0}, {"type": "electric_scooter", "rental_uris": {"ios": "https://dc.lft.to/lastmile_qr_scan", "android": "https://dc.lft.to/lastmile_qr_scan"}, "lon": -77.028301, "fusion_lon": 0.0, "is_disabled": 0, "lat": 38.902650333333334, "bike_id": "d43cf43a8d1b6ded1ff65fcf2f15b2e5", "name": "d43cf43a8d1b6ded1ff65fcf2f15b2e5", "is_reserved": 0, "fusion_lat": 0.0}, {"type": "electric_bike", "rental_uris": {"ios": "https://dc.lft.to/lastmile_qr_scan", "android": "https://dc.lft.to/lastmile_qr_scan"}, "lon": -76.99344383333333, "fusion_lon": 0.0, "is_disabled": 0, "lat": 38.972259, "bike_id": "5fc99c6ad447357271668054ef04e7d8", "name": "5fc99c6ad447357271668054ef04e7d8", "is_reserved": 0, "fusion_lat": 0.0}, {"type": "electric_scooter", "rental_uris": {"ios": "https://dc.lft.to/lastmile_qr_scan", "android": "https://dc.lft.to/lastmile_qr_scan"}, "lon": -77.04367366666666, "fusion_lon": 0.0, "is_disabled": 0, "lat": 38.892204166666666, "bike_id": "fbf33ace0bd079622dd7edf70512805a", "name": "fbf33ace0bd079622dd7edf70512805a", "is_reserved": 0, "fusion_lat": 0.0}, {"type": "electric_scooter", "rental_uris": {"ios": "https://dc.lft.to/lastmile_qr_scan", "android": "https://dc.lft.to/lastmile_qr_scan"}, "lon": -76.995076, "fusion_lon": 0.0, "is_disabled": 0, "lat": 38.883628, "bike_id": "a6ee67b181447df50191bfa9031784de", "name": "a6ee67b181447df50191bfa9031784de", "is_reserved": 0, "fusion_lat": 0.0}, {"type": "electric_scooter", "rental_uris": {"ios": "https://dc.lft.to/lastmile_qr_scan", "android": "https://dc.lft.to/lastmile_qr_scan"}, "lon": -77.02628916666667, "fusion_lon": 0.0, "is_disabled": 0, "lat": 38.89222633333333, "bike_id": "1236a8098b10ca1215731a2f749955bc", "name": "1236a8098b10ca1215731a2f749955bc", "is_reserved": 0, "fusion_lat": 0.0}, {"type": "electric_bike", "rental_uris": {"ios": "https://dc.lft.to/lastmile_qr_scan", "android": "https://dc.lft.to/lastmile_qr_scan"}, "lon": -77.09482266666667, "fusion_lon": 0.0, "is_disabled": 0, "lat": 38.807559499999996, "bike_id": "f5bd13664dd1b5378fd9baee74a259db", "name": "f5bd13664dd1b5378fd9baee74a259db", "is_reserved": 0, "fusion_lat": 0.0}, {"type": "electric_bike", "rental_uris": {"ios": "https://dc.lft.to/lastmile_qr_scan", "android": "https://dc.lft.to/lastmile_qr_scan"}, "lon": -76.932365, "fusion_lon": 0.0, "is_disabled": 0, "lat": 38.865937, "bike_id": "045f18265c9956c61f538968aa66bdf0", "name": "045f18265c9956c61f538968aa66bdf0", "is_reserved": 0, "fusion_lat": 0.0}, {"type": "electric_scooter", "rental_uris": {"ios": "https://dc.lft.to/lastmile_qr_scan", "android": "https://dc.lft.to/lastmile_qr_scan"}, "lon": -77.03957383333334, "fusion_lon": 0.0, "is_disabled": 0, "lat": 38.91705733333333, "bike_id": "edc6a1ca672715f8d33ad82d2ac9a39b", "name": "edc6a1ca672715f8d33ad82d2ac9a39b", "is_reserved": 0, "fusion_lat": 0.0}, {"type": "electric_scooter", "rental_uris": {"ios": "https://dc.lft.to/lastmile_qr_scan", "android": "https://dc.lft.to/lastmile_qr_scan"}, "lon": -77.014779, "fusion_lon": 0.0, "is_disabled": 0, "lat": 38.8764055, "bike_id": "7b268c291460a37878780d56b80c07f9", "name": "7b268c291460a37878780d56b80c07f9", "is_reserved": 0, "fusion_lat": 0.0}, {"type": "electric_scooter", "rental_uris": {"ios": "https://dc.lft.to/lastmile_qr_scan", "android": "https://dc.lft.to/lastmile_qr_scan"}, "lon": -76.99035266666667, "fusion_lon": 0.0, "is_disabled": 0, "lat": 38.86520133333333, "bike_id": "88338adf3c95caee4c237f213e7260d0", "name": "88338adf3c95caee4c237f213e7260d0", "is_reserved": 0, "fusion_lat": 0.0}, {"type": "electric_scooter", "rental_uris": {"ios": "https://dc.lft.to/lastmile_qr_scan", "android": "https://dc.lft.to/lastmile_qr_scan"}, "lon": -77.04022716666667, "fusion_lon": 0.0, "is_disabled": 0, "lat": 38.9244745, "bike_id": "d1ae513751085a81b13596822059d718", "name": "d1ae513751085a81b13596822059d718", "is_reserved": 0, "fusion_lat": 0.0}, {"type": "electric_scooter", "rental_uris": {"ios": "https://dc.lft.to/lastmile_qr_scan", "android": "https://dc.lft.to/lastmile_qr_scan"}, "lon": -77.043333, "fusion_lon": 0.0, "is_disabled": 0, "lat": 38.904428333333335, "bike_id": "ed091d29a92f07fa6e80d6b455910f19", "name": "ed091d29a92f07fa6e80d6b455910f19", "is_reserved": 0, "fusion_lat": 0.0}, {"type": "electric_scooter", "rental_uris": {"ios": "https://dc.lft.to/lastmile_qr_scan", "android": "https://dc.lft.to/lastmile_qr_scan"}, "lon": -77.04619616666666, "fusion_lon": 0.0, "is_disabled": 0, "lat": 38.9155315, "bike_id": "d32150d40b9b8f4dda2c39d9dedcaf99", "name": "d32150d40b9b8f4dda2c39d9dedcaf99", "is_reserved": 0, "fusion_lat": 0.0}, {"type": "electric_scooter", "rental_uris": {"ios": "https://dc.lft.to/lastmile_qr_scan", "android": "https://dc.lft.to/lastmile_qr_scan"}, "lon": -77.0367335, "fusion_lon": 0.0, "is_disabled": 0, "lat": 38.917085166666666, "bike_id": "915d2654d8196386a35dfefbee5297a2", "name": "915d2654d8196386a35dfefbee5297a2", "is_reserved": 0, "fusion_lat": 0.0}, {"type": "electric_scooter", "rental_uris": {"ios": "https://dc.lft.to/lastmile_qr_scan", "android": "https://dc.lft.to/lastmile_qr_scan"}, "lon": -77.0400745, "fusion_lon": 0.0, "is_disabled": 0, "lat": 38.91000233333333, "bike_id": "e7319992c873264adfedd4baadeb8d17", "name": "e7319992c873264adfedd4baadeb8d17", "is_reserved": 0, "fusion_lat": 0.0}, {"type": "electric_scooter", "rental_uris": {"ios": "https://dc.lft.to/lastmile_qr_scan", "android": "https://dc.lft.to/lastmile_qr_scan"}, "lon": -77.04386616666666, "fusion_lon": 0.0, "is_disabled": 0, "lat": 38.93325316666667, "bike_id": "c252f059db8940728da95b30589d5f2f", "name": "c252f059db8940728da95b30589d5f2f", "is_reserved": 0, "fusion_lat": 0.0}, {"type": "electric_bike", "rental_uris": {"ios": "https://dc.lft.to/lastmile_qr_scan", "android": "https://dc.lft.to/lastmile_qr_scan"}, "lon": -77.1296095, "fusion_lon": 0.0, "is_disabled": 0, "lat": 38.852206833333334, "bike_id": "46e3d7bfb911226ebec201795e604d7b", "name": "46e3d7bfb911226ebec201795e604d7b", "is_reserved": 0, "fusion_lat": 0.0}, {"type": "electric_scooter", "rental_uris": {"ios": "https://dc.lft.to/lastmile_qr_scan", "android": "https://dc.lft.to/lastmile_qr_scan"}, "lon": -77.03188566666667, "fusion_lon": 0.0, "is_disabled": 0, "lat": 38.90982616666667, "bike_id": "68019d0b1d2701e534e88a45d424406d", "name": "68019d0b1d2701e534e88a45d424406d", "is_reserved": 0, "fusion_lat": 0.0}, {"type": "electric_bike", "rental_uris": {"ios": "https://dc.lft.to/lastmile_qr_scan", "android": "https://dc.lft.to/lastmile_qr_scan"}, "lon": -76.9810645, "fusion_lon": 0.0, "is_disabled": 0, "lat": 38.95357, "bike_id": "2d6459edebca26ff7834dde205f8c701", "name": "2d6459edebca26ff7834dde205f8c701", "is_reserved": 0, "fusion_lat": 0.0}, {"type": "electric_scooter", "rental_uris": {"ios": "https://dc.lft.to/lastmile_qr_scan", "android": "https://dc.lft.to/lastmile_qr_scan"}, "lon": -77.02413066666666, "fusion_lon": 0.0, "is_disabled": 0, "lat": 38.89825916666667, "bike_id": "22df9557ae25dd83e1b4434cbd204c58", "name": "22df9557ae25dd83e1b4434cbd204c58", "is_reserved": 0, "fusion_lat": 0.0}, {"type": "electric_scooter", "rental_uris": {"ios": "https://dc.lft.to/lastmile_qr_scan", "android": "https://dc.lft.to/lastmile_qr_scan"}, "lon": -77.01763816666667, "fusion_lon": 0.0, "is_disabled": 0, "lat": 38.87677466666667, "bike_id": "dbdaa5285a5f22fd06369542b851eb57", "name": "dbdaa5285a5f22fd06369542b851eb57", "is_reserved": 0, "fusion_lat": 0.0}, {"type": "electric_scooter", "rental_uris": {"ios": "https://dc.lft.to/lastmile_qr_scan", "android": "https://dc.lft.to/lastmile_qr_scan"}, "lon": -77.03870733333333, "fusion_lon": 0.0, "is_disabled": 0, "lat": 38.912594, "bike_id": "74a62cec8d0a7c632ffe90c7d71c59b5", "name": "74a62cec8d0a7c632ffe90c7d71c59b5", "is_reserved": 0, "fusion_lat": 0.0}, {"type": "electric_scooter", "rental_uris": {"ios": "https://dc.lft.to/lastmile_qr_scan", "android": "https://dc.lft.to/lastmile_qr_scan"}, "lon": -77.03624416666666, "fusion_lon": 0.0, "is_disabled": 0, "lat": 38.93682, "bike_id": "80fee691c6301b449450e795a93ae12d", "name": "80fee691c6301b449450e795a93ae12d", "is_reserved": 0, "fusion_lat": 0.0}, {"type": "electric_scooter", "rental_uris": {"ios": "https://dc.lft.to/lastmile_qr_scan", "android": "https://dc.lft.to/lastmile_qr_scan"}, "lon": -77.03870283333333, "fusion_lon": 0.0, "is_disabled": 0, "lat": 38.93459983333333, "bike_id": "0c490d0e2fe3c7d658e60b221e0ab602", "name": "0c490d0e2fe3c7d658e60b221e0ab602", "is_reserved": 0, "fusion_lat": 0.0}, {"type": "electric_scooter", "rental_uris": {"ios": "https://dc.lft.to/lastmile_qr_scan", "android": "https://dc.lft.to/lastmile_qr_scan"}, "lon": -77.01676166666667, "fusion_lon": 0.0, "is_disabled": 0, "lat": 38.8811725, "bike_id": "643ae2dcafc23a14516b83351c5b299c", "name": "643ae2dcafc23a14516b83351c5b299c", "is_reserved": 0, "fusion_lat": 0.0}, {"type": "electric_scooter", "rental_uris": {"ios": "https://dc.lft.to/lastmile_qr_scan", "android": "https://dc.lft.to/lastmile_qr_scan"}, "lon": -77.03439083333333, "fusion_lon": 0.0, "is_disabled": 0, "lat": 38.90979766666667, "bike_id": "1abd6d6e101b8bebc13e73e69461afeb", "name": "1abd6d6e101b8bebc13e73e69461afeb", "is_reserved": 0, "fusion_lat": 0.0}, {"type": "electric_bike", "rental_uris": {"ios": "https://dc.lft.to/lastmile_qr_scan", "android": "https://dc.lft.to/lastmile_qr_scan"}, "lon": -76.98950516666666, "fusion_lon": 0.0, "is_disabled": 0, "lat": 38.8670785, "bike_id": "b0876806ff58ba7fa1b1be9d37c0ee98", "name": "b0876806ff58ba7fa1b1be9d37c0ee98", "is_reserved": 0, "fusion_lat": 0.0}, {"type": "electric_scooter", "rental_uris": {"ios": "https://dc.lft.to/lastmile_qr_scan", "android": "https://dc.lft.to/lastmile_qr_scan"}, "lon": -77.042564, "fusion_lon": 0.0, "is_disabled": 0, "lat": 38.916924333333334, "bike_id": "92b63880699e78568a22576fff1277d7", "name": "92b63880699e78568a22576fff1277d7", "is_reserved": 0, "fusion_lat": 0.0}, {"type": "electric_scooter", "rental_uris": {"ios": "https://dc.lft.to/lastmile_qr_scan", "android": "https://dc.lft.to/lastmile_qr_scan"}, "lon": -77.026034, "fusion_lon": 0.0, "is_disabled": 0, "lat": 38.90598216666667, "bike_id": "33219010761acf7d0f2711a8a5f8e7ad", "name": "33219010761acf7d0f2711a8a5f8e7ad", "is_reserved": 0, "fusion_lat": 0.0}, {"type": "electric_scooter", "rental_uris": {"ios": "https://dc.lft.to/lastmile_qr_scan", "android": "https://dc.lft.to/lastmile_qr_scan"}, "lon": -77.00610383333333, "fusion_lon": 0.0, "is_disabled": 0, "lat": 38.906233, "bike_id": "0924f3cba1c6910135e8ee044fea3194", "name": "0924f3cba1c6910135e8ee044fea3194", "is_reserved": 0, "fusion_lat": 0.0}, {"type": "electric_scooter", "rental_uris": {"ios": "https://dc.lft.to/lastmile_qr_scan", "android": "https://dc.lft.to/lastmile_qr_scan"}, "lon": -77.04686866666667, "fusion_lon": 0.0, "is_disabled": 0, "lat": 38.892225333333336, "bike_id": "e9837e1e154fd62003ce63c85f34e836", "name": "e9837e1e154fd62003ce63c85f34e836", "is_reserved": 0, "fusion_lat": 0.0}, {"type": "electric_scooter", "rental_uris": {"ios": "https://dc.lft.to/lastmile_qr_scan", "android": "https://dc.lft.to/lastmile_qr_scan"}, "lon": -77.02657133333334, "fusion_lon": 0.0, "is_disabled": 0, "lat": 38.89220133333333, "bike_id": "f87bed72ff6018d7ee7953093e579aa8", "name": "f87bed72ff6018d7ee7953093e579aa8", "is_reserved": 0, "fusion_lat": 0.0}, {"type": "electric_bike", "rental_uris": {"ios": "https://dc.lft.to/lastmile_qr_scan", "android": "https://dc.lft.to/lastmile_qr_scan"}, "lon": -77.02126483333333, "fusion_lon": 0.0, "is_disabled": 0, "lat": 38.935757, "bike_id": "19363202a005e5fe5e115eeafdefee15", "name": "19363202a005e5fe5e115eeafdefee15", "is_reserved": 0, "fusion_lat": 0.0}, {"type": "electric_scooter", "rental_uris": {"ios": "https://dc.lft.to/lastmile_qr_scan", "android": "https://dc.lft.to/lastmile_qr_scan"}, "lon": -77.01750183333333, "fusion_lon": 0.0, "is_disabled": 0, "lat": 38.90264966666667, "bike_id": "e223b065b769a27823d3f87ecf1cc78e", "name": "e223b065b769a27823d3f87ecf1cc78e", "is_reserved": 0, "fusion_lat": 0.0}, {"type": "electric_bike", "rental_uris": {"ios": "https://dc.lft.to/lastmile_qr_scan", "android": "https://dc.lft.to/lastmile_qr_scan"}, "lon": -77.100911, "fusion_lon": 0.0, "is_disabled": 0, "lat": 38.959551, "bike_id": "18c544a341af942b83f957ccd7c8356d", "name": "18c544a341af942b83f957ccd7c8356d", "is_reserved": 0, "fusion_lat": 0.0}, {"type": "electric_scooter", "rental_uris": {"ios": "https://dc.lft.to/lastmile_qr_scan", "android": "https://dc.lft.to/lastmile_qr_scan"}, "lon": -77.05950266666666, "fusion_lon": 0.0, "is_disabled": 0, "lat": 38.902463166666664, "bike_id": "645a0d1aebe4b8cc92047470911a5337", "name": "645a0d1aebe4b8cc92047470911a5337", "is_reserved": 0, "fusion_lat": 0.0}, {"type": "electric_scooter", "rental_uris": {"ios": "https://dc.lft.to/lastmile_qr_scan", "android": "https://dc.lft.to/lastmile_qr_scan"}, "lon": -77.03266533333333, "fusion_lon": 0.0, "is_disabled": 0, "lat": 38.91328816666667, "bike_id": "e5aca330663d6b537136a7fa1cce1a42", "name": "e5aca330663d6b537136a7fa1cce1a42", "is_reserved": 0, "fusion_lat": 0.0}, {"type": "electric_scooter", "rental_uris": {"ios": "https://dc.lft.to/lastmile_qr_scan", "android": "https://dc.lft.to/lastmile_qr_scan"}, "lon": -77.03763433333333, "fusion_lon": 0.0, "is_disabled": 0, "lat": 38.91124683333334, "bike_id": "48b70b4afd24ba8084f397e5b5bdba8a", "name": "48b70b4afd24ba8084f397e5b5bdba8a", "is_reserved": 0, "fusion_lat": 0.0}, {"type": "electric_scooter", "rental_uris": {"ios": "https://dc.lft.to/lastmile_qr_scan", "android": "https://dc.lft.to/lastmile_qr_scan"}, "lon": -77.0136735, "fusion_lon": 0.0, "is_disabled": 0, "lat": 38.89234116666667, "bike_id": "3eaa6f5e14a8041b6859f6612e23f820", "name": "3eaa6f5e14a8041b6859f6612e23f820", "is_reserved": 0, "fusion_lat": 0.0}, {"type": "electric_scooter", "rental_uris": {"ios": "https://dc.lft.to/lastmile_qr_scan", "android": "https://dc.lft.to/lastmile_qr_scan"}, "lon": -77.015421, "fusion_lon": 0.0, "is_disabled": 0, "lat": 38.89165766666667, "bike_id": "c98f8550f1a18454f7491ac36aad8d71", "name": "c98f8550f1a18454f7491ac36aad8d71", "is_reserved": 0, "fusion_lat": 0.0}, {"type": "electric_scooter", "rental_uris": {"ios": "https://dc.lft.to/lastmile_qr_scan", "android": "https://dc.lft.to/lastmile_qr_scan"}, "lon": -77.02190066666667, "fusion_lon": 0.0, "is_disabled": 0, "lat": 38.9149975, "bike_id": "ef48ff1be7e8e85d33ac94b41bed30a6", "name": "ef48ff1be7e8e85d33ac94b41bed30a6", "is_reserved": 0, "fusion_lat": 0.0}, {"type": "electric_scooter", "rental_uris": {"ios": "https://dc.lft.to/lastmile_qr_scan", "android": "https://dc.lft.to/lastmile_qr_scan"}, "lon": -76.9898745, "fusion_lon": 0.0, "is_disabled": 0, "lat": 38.864975666666666, "bike_id": "a8e94aaaeca8dbb7209cbee318fabbe2", "name": "a8e94aaaeca8dbb7209cbee318fabbe2", "is_reserved": 0, "fusion_lat": 0.0}, {"type": "electric_scooter", "rental_uris": {"ios": "https://dc.lft.to/lastmile_qr_scan", "android": "https://dc.lft.to/lastmile_qr_scan"}, "lon": -77.03699616666667, "fusion_lon": 0.0, "is_disabled": 0, "lat": 38.92829483333333, "bike_id": "4337ec5cc4a048bc0698762a3de5220e", "name": "4337ec5cc4a048bc0698762a3de5220e", "is_reserved": 0, "fusion_lat": 0.0}, {"type": "electric_scooter", "rental_uris": {"ios": "https://dc.lft.to/lastmile_qr_scan", "android": "https://dc.lft.to/lastmile_qr_scan"}, "lon": -77.0376585, "fusion_lon": 0.0, "is_disabled": 0, "lat": 38.91691566666667, "bike_id": "68c81ea49291d19fe98396b72137646a", "name": "68c81ea49291d19fe98396b72137646a", "is_reserved": 0, "fusion_lat": 0.0}, {"type": "electric_scooter", "rental_uris": {"ios": "https://dc.lft.to/lastmile_qr_scan", "android": "https://dc.lft.to/lastmile_qr_scan"}, "lon": -77.05028216666666, "fusion_lon": 0.0, "is_disabled": 0, "lat": 38.923611333333334, "bike_id": "d819bda9b643fe5d50acd427c2c704a9", "name": "d819bda9b643fe5d50acd427c2c704a9", "is_reserved": 0, "fusion_lat": 0.0}, {"type": "electric_scooter", "rental_uris": {"ios": "https://dc.lft.to/lastmile_qr_scan", "android": "https://dc.lft.to/lastmile_qr_scan"}, "lon": -77.02537183333334, "fusion_lon": 0.0, "is_disabled": 0, "lat": 38.9236995, "bike_id": "8a8af15664f4e38569c8f9a1dbd6c6ca", "name": "8a8af15664f4e38569c8f9a1dbd6c6ca", "is_reserved": 0, "fusion_lat": 0.0}, {"type": "electric_scooter", "rental_uris": {"ios": "https://dc.lft.to/lastmile_qr_scan", "android": "https://dc.lft.to/lastmile_qr_scan"}, "lon": -77.02196616666667, "fusion_lon": 0.0, "is_disabled": 0, "lat": 38.932958666666664, "bike_id": "23ba80ed0db850b388c084bc33498f08", "name": "23ba80ed0db850b388c084bc33498f08", "is_reserved": 0, "fusion_lat": 0.0}, {"type": "electric_scooter", "rental_uris": {"ios": "https://dc.lft.to/lastmile_qr_scan", "android": "https://dc.lft.to/lastmile_qr_scan"}, "lon": -77.03078616666667, "fusion_lon": 0.0, "is_disabled": 0, "lat": 38.89965466666666, "bike_id": "7688e458936c7de240760e53dcb52b8b", "name": "7688e458936c7de240760e53dcb52b8b", "is_reserved": 0, "fusion_lat": 0.0}, {"type": "electric_scooter", "rental_uris": {"ios": "https://dc.lft.to/lastmile_qr_scan", "android": "https://dc.lft.to/lastmile_qr_scan"}, "lon": -77.0280835, "fusion_lon": 0.0, "is_disabled": 0, "lat": 38.902667666666666, "bike_id": "9b08b163619ac6ea455caaee619ef39d", "name": "9b08b163619ac6ea455caaee619ef39d", "is_reserved": 0, "fusion_lat": 0.0}, {"type": "electric_scooter", "rental_uris": {"ios": "https://dc.lft.to/lastmile_qr_scan", "android": "https://dc.lft.to/lastmile_qr_scan"}, "lon": -77.03790666666667, "fusion_lon": 0.0, "is_disabled": 0, "lat": 38.90957233333334, "bike_id": "81b57d18853ca620bbe1ff233a93af5a", "name": "81b57d18853ca620bbe1ff233a93af5a", "is_reserved": 0, "fusion_lat": 0.0}, {"type": "electric_scooter", "rental_uris": {"ios": "https://dc.lft.to/lastmile_qr_scan", "android": "https://dc.lft.to/lastmile_qr_scan"}, "lon": -77.03453016666667, "fusion_lon": 0.0, "is_disabled": 0, "lat": 38.90665683333334, "bike_id": "a0a067ddbdf1e7c1a782cf3c76f3ab76", "name": "a0a067ddbdf1e7c1a782cf3c76f3ab76", "is_reserved": 0, "fusion_lat": 0.0}, {"type": "electric_scooter", "rental_uris": {"ios": "https://dc.lft.to/lastmile_qr_scan", "android": "https://dc.lft.to/lastmile_qr_scan"}, "lon": -77.04149416666667, "fusion_lon": 0.0, "is_disabled": 0, "lat": 38.89353083333334, "bike_id": "1af5bd35930f6862b02e53674cc8dc38", "name": "1af5bd35930f6862b02e53674cc8dc38", "is_reserved": 0, "fusion_lat": 0.0}, {"type": "electric_bike", "rental_uris": {"ios": "https://dc.lft.to/lastmile_qr_scan", "android": "https://dc.lft.to/lastmile_qr_scan"}, "lon": -76.89543133333333, "fusion_lon": 0.0, "is_disabled": 0, "lat": 38.945554333333334, "bike_id": "ad7976dfdeca828d45ab4384120db9cb", "name": "ad7976dfdeca828d45ab4384120db9cb", "is_reserved": 0, "fusion_lat": 0.0}, {"type": "electric_scooter", "rental_uris": {"ios": "https://dc.lft.to/lastmile_qr_scan", "android": "https://dc.lft.to/lastmile_qr_scan"}, "lon": -77.04468883333334, "fusion_lon": 0.0, "is_disabled": 0, "lat": 38.896171333333335, "bike_id": "0ac35842e9fdc43e26db0be9d5113441", "name": "0ac35842e9fdc43e26db0be9d5113441", "is_reserved": 0, "fusion_lat": 0.0}, {"type": "electric_scooter", "rental_uris": {"ios": "https://dc.lft.to/lastmile_qr_scan", "android": "https://dc.lft.to/lastmile_qr_scan"}, "lon": -77.0259245, "fusion_lon": 0.0, "is_disabled": 0, "lat": 38.907333666666666, "bike_id": "90b7e34fcd90be44932cc74560a377b0", "name": "90b7e34fcd90be44932cc74560a377b0", "is_reserved": 0, "fusion_lat": 0.0}, {"type": "electric_bike", "rental_uris": {"ios": "https://dc.lft.to/lastmile_qr_scan", "android": "https://dc.lft.to/lastmile_qr_scan"}, "lon": -76.97979133333334, "fusion_lon": 0.0, "is_disabled": 0, "lat": 38.95372283333333, "bike_id": "c69f34bc0a10b64bee72534529bfa65e", "name": "c69f34bc0a10b64bee72534529bfa65e", "is_reserved": 0, "fusion_lat": 0.0}, {"type": "electric_scooter", "rental_uris": {"ios": "https://dc.lft.to/lastmile_qr_scan", "android": "https://dc.lft.to/lastmile_qr_scan"}, "lon": -77.03204883333333, "fusion_lon": 0.0, "is_disabled": 0, "lat": 38.915745, "bike_id": "6e0e1bad1832f91ed591af8c6e7bd239", "name": "6e0e1bad1832f91ed591af8c6e7bd239", "is_reserved": 0, "fusion_lat": 0.0}, {"type": "electric_scooter", "rental_uris": {"ios": "https://dc.lft.to/lastmile_qr_scan", "android": "https://dc.lft.to/lastmile_qr_scan"}, "lon": -77.0465375, "fusion_lon": 0.0, "is_disabled": 0, "lat": 38.905539166666664, "bike_id": "dafc0004c8a1ccce2f41d7a1614b69b8", "name": "dafc0004c8a1ccce2f41d7a1614b69b8", "is_reserved": 0, "fusion_lat": 0.0}, {"type": "electric_scooter", "rental_uris": {"ios": "https://dc.lft.to/lastmile_qr_scan", "android": "https://dc.lft.to/lastmile_qr_scan"}, "lon": -77.02969983333334, "fusion_lon": 0.0, "is_disabled": 0, "lat": 38.9324885, "bike_id": "bc48f67a95c3d5005b6c1195df91ace2", "name": "bc48f67a95c3d5005b6c1195df91ace2", "is_reserved": 0, "fusion_lat": 0.0}, {"type": "electric_scooter", "rental_uris": {"ios": "https://dc.lft.to/lastmile_qr_scan", "android": "https://dc.lft.to/lastmile_qr_scan"}, "lon": -77.022166, "fusion_lon": 0.0, "is_disabled": 0, "lat": 38.88743083333333, "bike_id": "cad6633b77e63a95f8b06d00a230b59b", "name": "cad6633b77e63a95f8b06d00a230b59b", "is_reserved": 0, "fusion_lat": 0.0}, {"type": "electric_scooter", "rental_uris": {"ios": "https://dc.lft.to/lastmile_qr_scan", "android": "https://dc.lft.to/lastmile_qr_scan"}, "lon": -77.04465683333333, "fusion_lon": 0.0, "is_disabled": 0, "lat": 38.9111525, "bike_id": "4355f49e83f116cddf214b873d3d1f7e", "name": "4355f49e83f116cddf214b873d3d1f7e", "is_reserved": 0, "fusion_lat": 0.0}, {"type": "electric_scooter", "rental_uris": {"ios": "https://dc.lft.to/lastmile_qr_scan", "android": "https://dc.lft.to/lastmile_qr_scan"}, "lon": -77.03462716666667, "fusion_lon": 0.0, "is_disabled": 0, "lat": 38.9181795, "bike_id": "b14e5a378c9087710966f5bbae1fbde6", "name": "b14e5a378c9087710966f5bbae1fbde6", "is_reserved": 0, "fusion_lat": 0.0}, {"type": "electric_scooter", "rental_uris": {"ios": "https://dc.lft.to/lastmile_qr_scan", "android": "https://dc.lft.to/lastmile_qr_scan"}, "lon": -76.9763335, "fusion_lon": 0.0, "is_disabled": 0, "lat": 38.85196716666667, "bike_id": "1dd0f3d0b918b0d247a6fcf6d0505956", "name": "1dd0f3d0b918b0d247a6fcf6d0505956", "is_reserved": 0, "fusion_lat": 0.0}, {"type": "electric_scooter", "rental_uris": {"ios": "https://dc.lft.to/lastmile_qr_scan", "android": "https://dc.lft.to/lastmile_qr_scan"}, "lon": -77.01745433333333, "fusion_lon": 0.0, "is_disabled": 0, "lat": 38.902685166666664, "bike_id": "0fa90d1203ddf9d414a0b55719efec7f", "name": "0fa90d1203ddf9d414a0b55719efec7f", "is_reserved": 0, "fusion_lat": 0.0}, {"type": "electric_scooter", "rental_uris": {"ios": "https://dc.lft.to/lastmile_qr_scan", "android": "https://dc.lft.to/lastmile_qr_scan"}, "lon": -77.03069816666667, "fusion_lon": 0.0, "is_disabled": 0, "lat": 38.885876833333334, "bike_id": "589fd678bb770475bb71d038f88ea25d", "name": "589fd678bb770475bb71d038f88ea25d", "is_reserved": 0, "fusion_lat": 0.0}, {"type": "electric_scooter", "rental_uris": {"ios": "https://dc.lft.to/lastmile_qr_scan", "android": "https://dc.lft.to/lastmile_qr_scan"}, "lon": -77.04360483333333, "fusion_lon": 0.0, "is_disabled": 0, "lat": 38.920620166666666, "bike_id": "421587c5c00855f93f0aef12d5350158", "name": "421587c5c00855f93f0aef12d5350158", "is_reserved": 0, "fusion_lat": 0.0}, {"type": "electric_scooter", "rental_uris": {"ios": "https://dc.lft.to/lastmile_qr_scan", "android": "https://dc.lft.to/lastmile_qr_scan"}, "lon": -76.98980833333333, "fusion_lon": 0.0, "is_disabled": 0, "lat": 38.865056833333334, "bike_id": "6b2db2bac3c44b3b475a67c02dd93f19", "name": "6b2db2bac3c44b3b475a67c02dd93f19", "is_reserved": 0, "fusion_lat": 0.0}, {"type": "electric_scooter", "rental_uris": {"ios": "https://dc.lft.to/lastmile_qr_scan", "android": "https://dc.lft.to/lastmile_qr_scan"}, "lon": -77.03825116666667, "fusion_lon": 0.0, "is_disabled": 0, "lat": 38.90507916666667, "bike_id": "b2b463643c2464af5bf733b99f309315", "name": "b2b463643c2464af5bf733b99f309315", "is_reserved": 0, "fusion_lat": 0.0}, {"type": "electric_bike", "rental_uris": {"ios": "https://dc.lft.to/lastmile_qr_scan", "android": "https://dc.lft.to/lastmile_qr_scan"}, "lon": -77.04979483333334, "fusion_lon": 0.0, "is_disabled": 0, "lat": 39.06292883333333, "bike_id": "cf8fd4cf5940495572d69edcff21f30b", "name": "cf8fd4cf5940495572d69edcff21f30b", "is_reserved": 0, "fusion_lat": 0.0}, {"type": "electric_scooter", "rental_uris": {"ios": "https://dc.lft.to/lastmile_qr_scan", "android": "https://dc.lft.to/lastmile_qr_scan"}, "lon": -77.03732816666667, "fusion_lon": 0.0, "is_disabled": 0, "lat": 38.928553, "bike_id": "86d93c002dadb8dcb4c7fddb61f83625", "name": "86d93c002dadb8dcb4c7fddb61f83625", "is_reserved": 0, "fusion_lat": 0.0}, {"type": "electric_scooter", "rental_uris": {"ios": "https://dc.lft.to/lastmile_qr_scan", "android": "https://dc.lft.to/lastmile_qr_scan"}, "lon": -77.03151433333333, "fusion_lon": 0.0, "is_disabled": 0, "lat": 38.91566483333333, "bike_id": "a8d612f12e78bfc75894c4959cd693ff", "name": "a8d612f12e78bfc75894c4959cd693ff", "is_reserved": 0, "fusion_lat": 0.0}, {"type": "electric_scooter", "rental_uris": {"ios": "https://dc.lft.to/lastmile_qr_scan", "android": "https://dc.lft.to/lastmile_qr_scan"}, "lon": -77.03166066666667, "fusion_lon": 0.0, "is_disabled": 0, "lat": 38.89628483333333, "bike_id": "91c5b122641d909171069f5ecf807a5d", "name": "91c5b122641d909171069f5ecf807a5d", "is_reserved": 0, "fusion_lat": 0.0}, {"type": "electric_scooter", "rental_uris": {"ios": "https://dc.lft.to/lastmile_qr_scan", "android": "https://dc.lft.to/lastmile_qr_scan"}, "lon": -77.00616, "fusion_lon": 0.0, "is_disabled": 0, "lat": 38.906243, "bike_id": "15a6dfb65b663ba2118c23b0123c2b43", "name": "15a6dfb65b663ba2118c23b0123c2b43", "is_reserved": 0, "fusion_lat": 0.0}, {"type": "electric_scooter", "rental_uris": {"ios": "https://dc.lft.to/lastmile_qr_scan", "android": "https://dc.lft.to/lastmile_qr_scan"}, "lon": -77.03277666666666, "fusion_lon": 0.0, "is_disabled": 0, "lat": 38.92930283333333, "bike_id": "69f0e76de491c9323edcc8aff83fcfe3", "name": "69f0e76de491c9323edcc8aff83fcfe3", "is_reserved": 0, "fusion_lat": 0.0}, {"type": "electric_scooter", "rental_uris": {"ios": "https://dc.lft.to/lastmile_qr_scan", "android": "https://dc.lft.to/lastmile_qr_scan"}, "lon": -77.013697, "fusion_lon": 0.0, "is_disabled": 0, "lat": 38.8922905, "bike_id": "c4abf1472b55a0534adaa96bf6c0f7f5", "name": "c4abf1472b55a0534adaa96bf6c0f7f5", "is_reserved": 0, "fusion_lat": 0.0}, {"type": "electric_scooter", "rental_uris": {"ios": "https://dc.lft.to/lastmile_qr_scan", "android": "https://dc.lft.to/lastmile_qr_scan"}, "lon": -77.01172133333333, "fusion_lon": 0.0, "is_disabled": 0, "lat": 38.903227666666666, "bike_id": "7ba8e6334e7e65259d72666e336b9fbc", "name": "7ba8e6334e7e65259d72666e336b9fbc", "is_reserved": 0, "fusion_lat": 0.0}, {"type": "electric_scooter", "rental_uris": {"ios": "https://dc.lft.to/lastmile_qr_scan", "android": "https://dc.lft.to/lastmile_qr_scan"}, "lon": -77.00599, "fusion_lon": 0.0, "is_disabled": 0, "lat": 38.905659666666665, "bike_id": "8573855a4f134ac7d4f6049198534165", "name": "8573855a4f134ac7d4f6049198534165", "is_reserved": 0, "fusion_lat": 0.0}, {"type": "electric_scooter", "rental_uris": {"ios": "https://dc.lft.to/lastmile_qr_scan", "android": "https://dc.lft.to/lastmile_qr_scan"}, "lon": -77.01796916666666, "fusion_lon": 0.0, "is_disabled": 0, "lat": 38.92049733333333, "bike_id": "044fef9f29da9bff9f630765b1d5b661", "name": "044fef9f29da9bff9f630765b1d5b661", "is_reserved": 0, "fusion_lat": 0.0}, {"type": "electric_scooter", "rental_uris": {"ios": "https://dc.lft.to/lastmile_qr_scan", "android": "https://dc.lft.to/lastmile_qr_scan"}, "lon": -77.03267283333334, "fusion_lon": 0.0, "is_disabled": 0, "lat": 38.92857266666667, "bike_id": "1ab0ad1e675d665291c9bb149aad8ce9", "name": "1ab0ad1e675d665291c9bb149aad8ce9", "is_reserved": 0, "fusion_lat": 0.0}, {"type": "electric_scooter", "rental_uris": {"ios": "https://dc.lft.to/lastmile_qr_scan", "android": "https://dc.lft.to/lastmile_qr_scan"}, "lon": -77.04210833333333, "fusion_lon": 0.0, "is_disabled": 0, "lat": 38.9112165, "bike_id": "94e87509f47c1314e07a625c7e228f9c", "name": "94e87509f47c1314e07a625c7e228f9c", "is_reserved": 0, "fusion_lat": 0.0}, {"type": "electric_bike", "rental_uris": {"ios": "https://dc.lft.to/lastmile_qr_scan", "android": "https://dc.lft.to/lastmile_qr_scan"}, "lon": -77.099618, "fusion_lon": 0.0, "is_disabled": 0, "lat": 38.85790316666667, "bike_id": "403c6f2f0b6a954e6f57f003e909306d", "name": "403c6f2f0b6a954e6f57f003e909306d", "is_reserved": 0, "fusion_lat": 0.0}, {"type": "electric_scooter", "rental_uris": {"ios": "https://dc.lft.to/lastmile_qr_scan", "android": "https://dc.lft.to/lastmile_qr_scan"}, "lon": -77.0329385, "fusion_lon": 0.0, "is_disabled": 0, "lat": 38.95647983333333, "bike_id": "b2195a9a8f0fbd240a3cfae2c86e3452", "name": "b2195a9a8f0fbd240a3cfae2c86e3452", "is_reserved": 0, "fusion_lat": 0.0}, {"type": "electric_scooter", "rental_uris": {"ios": "https://dc.lft.to/lastmile_qr_scan", "android": "https://dc.lft.to/lastmile_qr_scan"}, "lon": -77.070548, "fusion_lon": 0.0, "is_disabled": 0, "lat": 38.91912666666666, "bike_id": "a93a1558d95016e623218459b1eda2f7", "name": "a93a1558d95016e623218459b1eda2f7", "is_reserved": 0, "fusion_lat": 0.0}, {"type": "electric_scooter", "rental_uris": {"ios": "https://dc.lft.to/lastmile_qr_scan", "android": "https://dc.lft.to/lastmile_qr_scan"}, "lon": -77.0347175, "fusion_lon": 0.0, "is_disabled": 0, "lat": 38.922553666666666, "bike_id": "757f4a0ddfb0ccf1ec48c80860032e91", "name": "757f4a0ddfb0ccf1ec48c80860032e91", "is_reserved": 0, "fusion_lat": 0.0}, {"type": "electric_scooter", "rental_uris": {"ios": "https://dc.lft.to/lastmile_qr_scan", "android": "https://dc.lft.to/lastmile_qr_scan"}, "lon": -77.050242, "fusion_lon": 0.0, "is_disabled": 0, "lat": 38.9235405, "bike_id": "bb9581052d2b90001aca08445b4e24ef", "name": "bb9581052d2b90001aca08445b4e24ef", "is_reserved": 0, "fusion_lat": 0.0}, {"type": "electric_scooter", "rental_uris": {"ios": "https://dc.lft.to/lastmile_qr_scan", "android": "https://dc.lft.to/lastmile_qr_scan"}, "lon": -77.04189116666667, "fusion_lon": 0.0, "is_disabled": 0, "lat": 38.903174666666665, "bike_id": "f06eef100345017432a9d82083fb0180", "name": "f06eef100345017432a9d82083fb0180", "is_reserved": 0, "fusion_lat": 0.0}, {"type": "electric_scooter", "rental_uris": {"ios": "https://dc.lft.to/lastmile_qr_scan", "android": "https://dc.lft.to/lastmile_qr_scan"}, "lon": -77.02035433333333, "fusion_lon": 0.0, "is_disabled": 0, "lat": 38.89893033333333, "bike_id": "7e06e891c952b736ee05aa44d53f259b", "name": "7e06e891c952b736ee05aa44d53f259b", "is_reserved": 0, "fusion_lat": 0.0}, {"type": "electric_scooter", "rental_uris": {"ios": "https://dc.lft.to/lastmile_qr_scan", "android": "https://dc.lft.to/lastmile_qr_scan"}, "lon": -77.03871666666667, "fusion_lon": 0.0, "is_disabled": 0, "lat": 38.91250133333333, "bike_id": "5bae5059340ec53ec5ade78fe8ec699c", "name": "5bae5059340ec53ec5ade78fe8ec699c", "is_reserved": 0, "fusion_lat": 0.0}, {"type": "electric_scooter", "rental_uris": {"ios": "https://dc.lft.to/lastmile_qr_scan", "android": "https://dc.lft.to/lastmile_qr_scan"}, "lon": -77.04420983333333, "fusion_lon": 0.0, "is_disabled": 0, "lat": 38.9023805, "bike_id": "6081440ffec3ad2ce0dd4088efaf791a", "name": "6081440ffec3ad2ce0dd4088efaf791a", "is_reserved": 0, "fusion_lat": 0.0}, {"type": "electric_scooter", "rental_uris": {"ios": "https://dc.lft.to/lastmile_qr_scan", "android": "https://dc.lft.to/lastmile_qr_scan"}, "lon": -77.022808, "fusion_lon": 0.0, "is_disabled": 0, "lat": 38.91691816666667, "bike_id": "17dfd7da7171f90df7b523a33595abc7", "name": "17dfd7da7171f90df7b523a33595abc7", "is_reserved": 0, "fusion_lat": 0.0}, {"type": "electric_scooter", "rental_uris": {"ios": "https://dc.lft.to/lastmile_qr_scan", "android": "https://dc.lft.to/lastmile_qr_scan"}, "lon": -77.0452055, "fusion_lon": 0.0, "is_disabled": 0, "lat": 38.9331715, "bike_id": "4ac72f52b5506c721098429bb61738d4", "name": "4ac72f52b5506c721098429bb61738d4", "is_reserved": 0, "fusion_lat": 0.0}, {"type": "electric_scooter", "rental_uris": {"ios": "https://dc.lft.to/lastmile_qr_scan", "android": "https://dc.lft.to/lastmile_qr_scan"}, "lon": -77.04017716666667, "fusion_lon": 0.0, "is_disabled": 0, "lat": 38.922158, "bike_id": "db5b00f7b2a8d8aaab8193bfdbe7a4e0", "name": "db5b00f7b2a8d8aaab8193bfdbe7a4e0", "is_reserved": 0, "fusion_lat": 0.0}, {"type": "electric_scooter", "rental_uris": {"ios": "https://dc.lft.to/lastmile_qr_scan", "android": "https://dc.lft.to/lastmile_qr_scan"}, "lon": -77.0220525, "fusion_lon": 0.0, "is_disabled": 0, "lat": 38.910844166666664, "bike_id": "e82b7f1f95de1b14610299e652d34425", "name": "e82b7f1f95de1b14610299e652d34425", "is_reserved": 0, "fusion_lat": 0.0}, {"type": "electric_scooter", "rental_uris": {"ios": "https://dc.lft.to/lastmile_qr_scan", "android": "https://dc.lft.to/lastmile_qr_scan"}, "lon": -77.03168933333333, "fusion_lon": 0.0, "is_disabled": 0, "lat": 38.89219716666667, "bike_id": "89aa980027fa959dc324c459df16764f", "name": "89aa980027fa959dc324c459df16764f", "is_reserved": 0, "fusion_lat": 0.0}, {"type": "electric_scooter", "rental_uris": {"ios": "https://dc.lft.to/lastmile_qr_scan", "android": "https://dc.lft.to/lastmile_qr_scan"}, "lon": -77.03637266666667, "fusion_lon": 0.0, "is_disabled": 0, "lat": 38.9100285, "bike_id": "2aa86cc55911c0e2135df96d532998cb", "name": "2aa86cc55911c0e2135df96d532998cb", "is_reserved": 0, "fusion_lat": 0.0}, {"type": "electric_scooter", "rental_uris": {"ios": "https://dc.lft.to/lastmile_qr_scan", "android": "https://dc.lft.to/lastmile_qr_scan"}, "lon": -77.04659583333333, "fusion_lon": 0.0, "is_disabled": 0, "lat": 38.89240433333333, "bike_id": "8de9c717f214f67b85fb7f0d9cef4f22", "name": "8de9c717f214f67b85fb7f0d9cef4f22", "is_reserved": 0, "fusion_lat": 0.0}, {"type": "electric_scooter", "rental_uris": {"ios": "https://dc.lft.to/lastmile_qr_scan", "android": "https://dc.lft.to/lastmile_qr_scan"}, "lon": -77.034427, "fusion_lon": 0.0, "is_disabled": 0, "lat": 38.907371833333336, "bike_id": "8a57bbffe186f86a57220960592e1786", "name": "8a57bbffe186f86a57220960592e1786", "is_reserved": 0, "fusion_lat": 0.0}, {"type": "electric_bike", "rental_uris": {"ios": "https://dc.lft.to/lastmile_qr_scan", "android": "https://dc.lft.to/lastmile_qr_scan"}, "lon": -76.98104783333334, "fusion_lon": 0.0, "is_disabled": 0, "lat": 38.8772805, "bike_id": "2b792ac7c09ec61d3aca9e866db22e03", "name": "2b792ac7c09ec61d3aca9e866db22e03", "is_reserved": 0, "fusion_lat": 0.0}, {"type": "electric_scooter", "rental_uris": {"ios": "https://dc.lft.to/lastmile_qr_scan", "android": "https://dc.lft.to/lastmile_qr_scan"}, "lon": -77.02333033333333, "fusion_lon": 0.0, "is_disabled": 0, "lat": 38.93596316666667, "bike_id": "43e974dd004e37205336216ede2a013c", "name": "43e974dd004e37205336216ede2a013c", "is_reserved": 0, "fusion_lat": 0.0}, {"type": "electric_scooter", "rental_uris": {"ios": "https://dc.lft.to/lastmile_qr_scan", "android": "https://dc.lft.to/lastmile_qr_scan"}, "lon": -77.04164383333334, "fusion_lon": 0.0, "is_disabled": 0, "lat": 38.915159, "bike_id": "6c4c75cb5b9c9ad20b51c3b0c56796c7", "name": "6c4c75cb5b9c9ad20b51c3b0c56796c7", "is_reserved": 0, "fusion_lat": 0.0}, {"type": "electric_scooter", "rental_uris": {"ios": "https://dc.lft.to/lastmile_qr_scan", "android": "https://dc.lft.to/lastmile_qr_scan"}, "lon": -77.02594166666667, "fusion_lon": 0.0, "is_disabled": 0, "lat": 38.942010833333335, "bike_id": "4534f207bc575205de16dd9a525f54f2", "name": "4534f207bc575205de16dd9a525f54f2", "is_reserved": 0, "fusion_lat": 0.0}, {"type": "electric_scooter", "rental_uris": {"ios": "https://dc.lft.to/lastmile_qr_scan", "android": "https://dc.lft.to/lastmile_qr_scan"}, "lon": -77.0059885, "fusion_lon": 0.0, "is_disabled": 0, "lat": 38.905725833333335, "bike_id": "f95abfff169ffb7b685bc60c70780869", "name": "f95abfff169ffb7b685bc60c70780869", "is_reserved": 0, "fusion_lat": 0.0}, {"type": "electric_scooter", "rental_uris": {"ios": "https://dc.lft.to/lastmile_qr_scan", "android": "https://dc.lft.to/lastmile_qr_scan"}, "lon": -77.0317765, "fusion_lon": 0.0, "is_disabled": 0, "lat": 38.914178, "bike_id": "f4c9e6d87b5be1865b253025b74bf280", "name": "f4c9e6d87b5be1865b253025b74bf280", "is_reserved": 0, "fusion_lat": 0.0}, {"type": "electric_scooter", "rental_uris": {"ios": "https://dc.lft.to/lastmile_qr_scan", "android": "https://dc.lft.to/lastmile_qr_scan"}, "lon": -77.04721433333333, "fusion_lon": 0.0, "is_disabled": 0, "lat": 38.92226316666667, "bike_id": "3ea7c56854cdf422e20acfaa369b2714", "name": "3ea7c56854cdf422e20acfaa369b2714", "is_reserved": 0, "fusion_lat": 0.0}, {"type": "electric_scooter", "rental_uris": {"ios": "https://dc.lft.to/lastmile_qr_scan", "android": "https://dc.lft.to/lastmile_qr_scan"}, "lon": -76.991626, "fusion_lon": 0.0, "is_disabled": 0, "lat": 38.85948066666667, "bike_id": "785897b4200d23132e6980d46db91a2b", "name": "785897b4200d23132e6980d46db91a2b", "is_reserved": 0, "fusion_lat": 0.0}, {"type": "electric_scooter", "rental_uris": {"ios": "https://dc.lft.to/lastmile_qr_scan", "android": "https://dc.lft.to/lastmile_qr_scan"}, "lon": -77.03665183333334, "fusion_lon": 0.0, "is_disabled": 0, "lat": 38.9172265, "bike_id": "82fab534adac56db3d163bdeab6e058a", "name": "82fab534adac56db3d163bdeab6e058a", "is_reserved": 0, "fusion_lat": 0.0}, {"type": "electric_scooter", "rental_uris": {"ios": "https://dc.lft.to/lastmile_qr_scan", "android": "https://dc.lft.to/lastmile_qr_scan"}, "lon": -77.00180416666667, "fusion_lon": 0.0, "is_disabled": 0, "lat": 38.90135266666667, "bike_id": "d037d44453b129f168be9ffc5f683b9e", "name": "d037d44453b129f168be9ffc5f683b9e", "is_reserved": 0, "fusion_lat": 0.0}, {"type": "electric_scooter", "rental_uris": {"ios": "https://dc.lft.to/lastmile_qr_scan", "android": "https://dc.lft.to/lastmile_qr_scan"}, "lon": -77.04337, "fusion_lon": 0.0, "is_disabled": 0, "lat": 38.892259333333335, "bike_id": "af34890a060c1c153d76223e51803be8", "name": "af34890a060c1c153d76223e51803be8", "is_reserved": 0, "fusion_lat": 0.0}, {"type": "electric_scooter", "rental_uris": {"ios": "https://dc.lft.to/lastmile_qr_scan", "android": "https://dc.lft.to/lastmile_qr_scan"}, "lon": -77.00444116666667, "fusion_lon": 0.0, "is_disabled": 0, "lat": 38.897218, "bike_id": "14a99df8f8d842dd40c16b1158c1e526", "name": "14a99df8f8d842dd40c16b1158c1e526", "is_reserved": 0, "fusion_lat": 0.0}, {"type": "electric_scooter", "rental_uris": {"ios": "https://dc.lft.to/lastmile_qr_scan", "android": "https://dc.lft.to/lastmile_qr_scan"}, "lon": -76.990164, "fusion_lon": 0.0, "is_disabled": 0, "lat": 38.83378183333333, "bike_id": "093be5ac7c5904af2ac50abef07b6a38", "name": "093be5ac7c5904af2ac50abef07b6a38", "is_reserved": 0, "fusion_lat": 0.0}, {"type": "electric_scooter", "rental_uris": {"ios": "https://dc.lft.to/lastmile_qr_scan", "android": "https://dc.lft.to/lastmile_qr_scan"}, "lon": -77.02222983333333, "fusion_lon": 0.0, "is_disabled": 0, "lat": 38.892197, "bike_id": "676d1fecdfa4ad9448ccaa694d5c7882", "name": "676d1fecdfa4ad9448ccaa694d5c7882", "is_reserved": 0, "fusion_lat": 0.0}, {"type": "electric_scooter", "rental_uris": {"ios": "https://dc.lft.to/lastmile_qr_scan", "android": "https://dc.lft.to/lastmile_qr_scan"}, "lon": -77.0728085, "fusion_lon": 0.0, "is_disabled": 0, "lat": 38.934832666666665, "bike_id": "0d2f05880b3a5aaea0de26b721e8d9f5", "name": "0d2f05880b3a5aaea0de26b721e8d9f5", "is_reserved": 0, "fusion_lat": 0.0}, {"type": "electric_scooter", "rental_uris": {"ios": "https://dc.lft.to/lastmile_qr_scan", "android": "https://dc.lft.to/lastmile_qr_scan"}, "lon": -77.02142133333334, "fusion_lon": 0.0, "is_disabled": 0, "lat": 38.925920166666664, "bike_id": "047dbd1a8d2ee3de5adb1dbf33d8d0e7", "name": "047dbd1a8d2ee3de5adb1dbf33d8d0e7", "is_reserved": 0, "fusion_lat": 0.0}, {"type": "electric_scooter", "rental_uris": {"ios": "https://dc.lft.to/lastmile_qr_scan", "android": "https://dc.lft.to/lastmile_qr_scan"}, "lon": -76.99787366666666, "fusion_lon": 0.0, "is_disabled": 0, "lat": 38.90041633333333, "bike_id": "2a9c4d0a67398b141d94f64e979ff24e", "name": "2a9c4d0a67398b141d94f64e979ff24e", "is_reserved": 0, "fusion_lat": 0.0}, {"type": "electric_scooter", "rental_uris": {"ios": "https://dc.lft.to/lastmile_qr_scan", "android": "https://dc.lft.to/lastmile_qr_scan"}, "lon": -77.03293266666667, "fusion_lon": 0.0, "is_disabled": 0, "lat": 38.947141, "bike_id": "631ed380bc52ae259d743ed54e712304", "name": "631ed380bc52ae259d743ed54e712304", "is_reserved": 0, "fusion_lat": 0.0}, {"type": "electric_scooter", "rental_uris": {"ios": "https://dc.lft.to/lastmile_qr_scan", "android": "https://dc.lft.to/lastmile_qr_scan"}, "lon": -77.02465366666667, "fusion_lon": 0.0, "is_disabled": 0, "lat": 38.933012166666664, "bike_id": "f9e5a2e91fbe548a7f64465d77f34c62", "name": "f9e5a2e91fbe548a7f64465d77f34c62", "is_reserved": 0, "fusion_lat": 0.0}, {"type": "electric_bike", "rental_uris": {"ios": "https://dc.lft.to/lastmile_qr_scan", "android": "https://dc.lft.to/lastmile_qr_scan"}, "lon": -77.044957, "fusion_lon": 0.0, "is_disabled": 0, "lat": 38.84285716666667, "bike_id": "6166c8032eab970bc60fbb77776d3a9a", "name": "6166c8032eab970bc60fbb77776d3a9a", "is_reserved": 0, "fusion_lat": 0.0}, {"type": "electric_scooter", "rental_uris": {"ios": "https://dc.lft.to/lastmile_qr_scan", "android": "https://dc.lft.to/lastmile_qr_scan"}, "lon": -77.04335866666666, "fusion_lon": 0.0, "is_disabled": 0, "lat": 38.9083025, "bike_id": "e2f15a1b5882f8e4dad48ee1f5154ccc", "name": "e2f15a1b5882f8e4dad48ee1f5154ccc", "is_reserved": 0, "fusion_lat": 0.0}, {"type": "electric_scooter", "rental_uris": {"ios": "https://dc.lft.to/lastmile_qr_scan", "android": "https://dc.lft.to/lastmile_qr_scan"}, "lon": -77.03857716666667, "fusion_lon": 0.0, "is_disabled": 0, "lat": 38.9154415, "bike_id": "75f9d4848ccfba43341426b56bf24793", "name": "75f9d4848ccfba43341426b56bf24793", "is_reserved": 0, "fusion_lat": 0.0}, {"type": "electric_scooter", "rental_uris": {"ios": "https://dc.lft.to/lastmile_qr_scan", "android": "https://dc.lft.to/lastmile_qr_scan"}, "lon": -77.04449116666666, "fusion_lon": 0.0, "is_disabled": 0, "lat": 38.9126265, "bike_id": "8161e39a1cc4a02c36002467c8986f1c", "name": "8161e39a1cc4a02c36002467c8986f1c", "is_reserved": 0, "fusion_lat": 0.0}, {"type": "electric_bike", "rental_uris": {"ios": "https://dc.lft.to/lastmile_qr_scan", "android": "https://dc.lft.to/lastmile_qr_scan"}, "lon": -77.028215, "fusion_lon": 0.0, "is_disabled": 0, "lat": 38.9650555, "bike_id": "d5144d18451c65615e2e660e6ab15e2c", "name": "d5144d18451c65615e2e660e6ab15e2c", "is_reserved": 0, "fusion_lat": 0.0}, {"type": "electric_scooter", "rental_uris": {"ios": "https://dc.lft.to/lastmile_qr_scan", "android": "https://dc.lft.to/lastmile_qr_scan"}, "lon": -77.006055, "fusion_lon": 0.0, "is_disabled": 0, "lat": 38.90555716666667, "bike_id": "9fa816beb80becf58f43c6774385c102", "name": "9fa816beb80becf58f43c6774385c102", "is_reserved": 0, "fusion_lat": 0.0}, {"type": "electric_scooter", "rental_uris": {"ios": "https://dc.lft.to/lastmile_qr_scan", "android": "https://dc.lft.to/lastmile_qr_scan"}, "lon": -77.04008316666666, "fusion_lon": 0.0, "is_disabled": 0, "lat": 38.910055, "bike_id": "6799560ce126cfcab950c16ba3e94fab", "name": "6799560ce126cfcab950c16ba3e94fab", "is_reserved": 0, "fusion_lat": 0.0}, {"type": "electric_scooter", "rental_uris": {"ios": "https://dc.lft.to/lastmile_qr_scan", "android": "https://dc.lft.to/lastmile_qr_scan"}, "lon": -77.04123033333333, "fusion_lon": 0.0, "is_disabled": 0, "lat": 38.933998333333335, "bike_id": "5eda070b65ac239f0e7b232f7d1e93d3", "name": "5eda070b65ac239f0e7b232f7d1e93d3", "is_reserved": 0, "fusion_lat": 0.0}, {"type": "electric_scooter", "rental_uris": {"ios": "https://dc.lft.to/lastmile_qr_scan", "android": "https://dc.lft.to/lastmile_qr_scan"}, "lon": -77.0396165, "fusion_lon": 0.0, "is_disabled": 0, "lat": 38.899044, "bike_id": "958b51cc64a313b6c67f42fa8804efa5", "name": "958b51cc64a313b6c67f42fa8804efa5", "is_reserved": 0, "fusion_lat": 0.0}, {"type": "electric_scooter", "rental_uris": {"ios": "https://dc.lft.to/lastmile_qr_scan", "android": "https://dc.lft.to/lastmile_qr_scan"}, "lon": -77.04230216666667, "fusion_lon": 0.0, "is_disabled": 0, "lat": 38.9077775, "bike_id": "5a8339015041cb23916dda394a559c4d", "name": "5a8339015041cb23916dda394a559c4d", "is_reserved": 0, "fusion_lat": 0.0}, {"type": "electric_scooter", "rental_uris": {"ios": "https://dc.lft.to/lastmile_qr_scan", "android": "https://dc.lft.to/lastmile_qr_scan"}, "lon": -77.03078216666667, "fusion_lon": 0.0, "is_disabled": 0, "lat": 38.911077666666664, "bike_id": "20369c006d4058cede52348e3cd5ba44", "name": "20369c006d4058cede52348e3cd5ba44", "is_reserved": 0, "fusion_lat": 0.0}, {"type": "electric_scooter", "rental_uris": {"ios": "https://dc.lft.to/lastmile_qr_scan", "android": "https://dc.lft.to/lastmile_qr_scan"}, "lon": -76.946337, "fusion_lon": 0.0, "is_disabled": 0, "lat": 38.8984335, "bike_id": "d2baafdacda8135a7736204a57a7177b", "name": "d2baafdacda8135a7736204a57a7177b", "is_reserved": 0, "fusion_lat": 0.0}, {"type": "electric_bike", "rental_uris": {"ios": "https://dc.lft.to/lastmile_qr_scan", "android": "https://dc.lft.to/lastmile_qr_scan"}, "lon": -77.03823133333333, "fusion_lon": 0.0, "is_disabled": 0, "lat": 38.9140245, "bike_id": "9bf06deff31dc6476978126b3a322cef", "name": "9bf06deff31dc6476978126b3a322cef", "is_reserved": 0, "fusion_lat": 0.0}, {"type": "electric_scooter", "rental_uris": {"ios": "https://dc.lft.to/lastmile_qr_scan", "android": "https://dc.lft.to/lastmile_qr_scan"}, "lon": -77.03870566666667, "fusion_lon": 0.0, "is_disabled": 0, "lat": 38.91551716666667, "bike_id": "f7d8362d4e3938ea4d47dd02dba86995", "name": "f7d8362d4e3938ea4d47dd02dba86995", "is_reserved": 0, "fusion_lat": 0.0}, {"type": "electric_scooter", "rental_uris": {"ios": "https://dc.lft.to/lastmile_qr_scan", "android": "https://dc.lft.to/lastmile_qr_scan"}, "lon": -77.03663283333333, "fusion_lon": 0.0, "is_disabled": 0, "lat": 38.9172305, "bike_id": "74bcb6854b92cea7351e7dbbe734fe52", "name": "74bcb6854b92cea7351e7dbbe734fe52", "is_reserved": 0, "fusion_lat": 0.0}, {"type": "electric_scooter", "rental_uris": {"ios": "https://dc.lft.to/lastmile_qr_scan", "android": "https://dc.lft.to/lastmile_qr_scan"}, "lon": -77.03849833333334, "fusion_lon": 0.0, "is_disabled": 0, "lat": 38.93243483333333, "bike_id": "f1fdf68a9751b5593aed0da7b27b4758", "name": "f1fdf68a9751b5593aed0da7b27b4758", "is_reserved": 0, "fusion_lat": 0.0}, {"type": "electric_scooter", "rental_uris": {"ios": "https://dc.lft.to/lastmile_qr_scan", "android": "https://dc.lft.to/lastmile_qr_scan"}, "lon": -77.03285233333334, "fusion_lon": 0.0, "is_disabled": 0, "lat": 38.89937066666667, "bike_id": "581f11a4d16c1647e14c30f26f984e6b", "name": "581f11a4d16c1647e14c30f26f984e6b", "is_reserved": 0, "fusion_lat": 0.0}, {"type": "electric_scooter", "rental_uris": {"ios": "https://dc.lft.to/lastmile_qr_scan", "android": "https://dc.lft.to/lastmile_qr_scan"}, "lon": -77.02603533333334, "fusion_lon": 0.0, "is_disabled": 0, "lat": 38.914123833333335, "bike_id": "4a3ab757845809acc27be77e688770d8", "name": "4a3ab757845809acc27be77e688770d8", "is_reserved": 0, "fusion_lat": 0.0}, {"type": "electric_bike", "rental_uris": {"ios": "https://dc.lft.to/lastmile_qr_scan", "android": "https://dc.lft.to/lastmile_qr_scan"}, "lon": -77.18741866666667, "fusion_lon": 0.0, "is_disabled": 0, "lat": 38.893533166666664, "bike_id": "5b1356ee4b0bb8c23a01818ab9a40c93", "name": "5b1356ee4b0bb8c23a01818ab9a40c93", "is_reserved": 0, "fusion_lat": 0.0}, {"type": "electric_scooter", "rental_uris": {"ios": "https://dc.lft.to/lastmile_qr_scan", "android": "https://dc.lft.to/lastmile_qr_scan"}, "lon": -77.04028883333334, "fusion_lon": 0.0, "is_disabled": 0, "lat": 38.918037166666664, "bike_id": "2f9c264442b0722269dc33956cc359ba", "name": "2f9c264442b0722269dc33956cc359ba", "is_reserved": 0, "fusion_lat": 0.0}, {"type": "electric_scooter", "rental_uris": {"ios": "https://dc.lft.to/lastmile_qr_scan", "android": "https://dc.lft.to/lastmile_qr_scan"}, "lon": -77.01295083333333, "fusion_lon": 0.0, "is_disabled": 0, "lat": 38.88128966666667, "bike_id": "b3ad65f662092ffdf01bb3984e11c4b8", "name": "b3ad65f662092ffdf01bb3984e11c4b8", "is_reserved": 0, "fusion_lat": 0.0}, {"type": "electric_bike", "rental_uris": {"ios": "https://dc.lft.to/lastmile_qr_scan", "android": "https://dc.lft.to/lastmile_qr_scan"}, "lon": -77.04417233333334, "fusion_lon": 0.0, "is_disabled": 0, "lat": 39.015669333333335, "bike_id": "59dedd73ee83ae4a4a36865d277e809b", "name": "59dedd73ee83ae4a4a36865d277e809b", "is_reserved": 0, "fusion_lat": 0.0}, {"type": "electric_scooter", "rental_uris": {"ios": "https://dc.lft.to/lastmile_qr_scan", "android": "https://dc.lft.to/lastmile_qr_scan"}, "lon": -77.02675916666666, "fusion_lon": 0.0, "is_disabled": 0, "lat": 38.89929866666667, "bike_id": "7f28a16baae8720e471ffe1474c4ac95", "name": "7f28a16baae8720e471ffe1474c4ac95", "is_reserved": 0, "fusion_lat": 0.0}, {"type": "electric_scooter", "rental_uris": {"ios": "https://dc.lft.to/lastmile_qr_scan", "android": "https://dc.lft.to/lastmile_qr_scan"}, "lon": -77.0259215, "fusion_lon": 0.0, "is_disabled": 0, "lat": 38.905272, "bike_id": "3785ceb5bfe321cb797f77dad92d0b99", "name": "3785ceb5bfe321cb797f77dad92d0b99", "is_reserved": 0, "fusion_lat": 0.0}, {"type": "electric_scooter", "rental_uris": {"ios": "https://dc.lft.to/lastmile_qr_scan", "android": "https://dc.lft.to/lastmile_qr_scan"}, "lon": -77.026982, "fusion_lon": 0.0, "is_disabled": 0, "lat": 38.91697583333333, "bike_id": "9bdcd6a4947e8c4e99ff5ea4e99ee052", "name": "9bdcd6a4947e8c4e99ff5ea4e99ee052", "is_reserved": 0, "fusion_lat": 0.0}, {"type": "electric_scooter", "rental_uris": {"ios": "https://dc.lft.to/lastmile_qr_scan", "android": "https://dc.lft.to/lastmile_qr_scan"}, "lon": -77.0436485, "fusion_lon": 0.0, "is_disabled": 0, "lat": 38.8921935, "bike_id": "9206458e0854a1301d0d065dcfe010f9", "name": "9206458e0854a1301d0d065dcfe010f9", "is_reserved": 0, "fusion_lat": 0.0}, {"type": "electric_scooter", "rental_uris": {"ios": "https://dc.lft.to/lastmile_qr_scan", "android": "https://dc.lft.to/lastmile_qr_scan"}, "lon": -77.04009283333333, "fusion_lon": 0.0, "is_disabled": 0, "lat": 38.922042833333336, "bike_id": "4c5c923aa3359cc036dedc6bd368aaad", "name": "4c5c923aa3359cc036dedc6bd368aaad", "is_reserved": 0, "fusion_lat": 0.0}, {"type": "electric_scooter", "rental_uris": {"ios": "https://dc.lft.to/lastmile_qr_scan", "android": "https://dc.lft.to/lastmile_qr_scan"}, "lon": -77.0234535, "fusion_lon": 0.0, "is_disabled": 0, "lat": 38.91769683333333, "bike_id": "90f804d15704680c70419619d0ac11b5", "name": "90f804d15704680c70419619d0ac11b5", "is_reserved": 0, "fusion_lat": 0.0}, {"type": "electric_scooter", "rental_uris": {"ios": "https://dc.lft.to/lastmile_qr_scan", "android": "https://dc.lft.to/lastmile_qr_scan"}, "lon": -77.0447895, "fusion_lon": 0.0, "is_disabled": 0, "lat": 38.91537066666667, "bike_id": "339eaa0c28ec1432c2e7ef268de84646", "name": "339eaa0c28ec1432c2e7ef268de84646", "is_reserved": 0, "fusion_lat": 0.0}, {"type": "electric_scooter", "rental_uris": {"ios": "https://dc.lft.to/lastmile_qr_scan", "android": "https://dc.lft.to/lastmile_qr_scan"}, "lon": -77.02790166666666, "fusion_lon": 0.0, "is_disabled": 0, "lat": 38.961279166666664, "bike_id": "e4262e3e90d1ad6c013e779f432ffb0e", "name": "e4262e3e90d1ad6c013e779f432ffb0e", "is_reserved": 0, "fusion_lat": 0.0}, {"type": "electric_scooter", "rental_uris": {"ios": "https://dc.lft.to/lastmile_qr_scan", "android": "https://dc.lft.to/lastmile_qr_scan"}, "lon": -77.0368455, "fusion_lon": 0.0, "is_disabled": 0, "lat": 38.919136333333334, "bike_id": "35a83000deec680b97e5aa87d6a7ecd3", "name": "35a83000deec680b97e5aa87d6a7ecd3", "is_reserved": 0, "fusion_lat": 0.0}, {"type": "electric_scooter", "rental_uris": {"ios": "https://dc.lft.to/lastmile_qr_scan", "android": "https://dc.lft.to/lastmile_qr_scan"}, "lon": -77.0330325, "fusion_lon": 0.0, "is_disabled": 0, "lat": 38.89890916666667, "bike_id": "af6396ae53fc6a6f8eeedae68d98a004", "name": "af6396ae53fc6a6f8eeedae68d98a004", "is_reserved": 0, "fusion_lat": 0.0}, {"type": "electric_scooter", "rental_uris": {"ios": "https://dc.lft.to/lastmile_qr_scan", "android": "https://dc.lft.to/lastmile_qr_scan"}, "lon": -77.04865466666666, "fusion_lon": 0.0, "is_disabled": 0, "lat": 38.90957616666667, "bike_id": "44f078b111d9cb540f3de6e48518932e", "name": "44f078b111d9cb540f3de6e48518932e", "is_reserved": 0, "fusion_lat": 0.0}, {"type": "electric_scooter", "rental_uris": {"ios": "https://dc.lft.to/lastmile_qr_scan", "android": "https://dc.lft.to/lastmile_qr_scan"}, "lon": -77.01771016666666, "fusion_lon": 0.0, "is_disabled": 0, "lat": 38.885890333333336, "bike_id": "9b10eae3fc86d6afea12724b24e95e1c", "name": "9b10eae3fc86d6afea12724b24e95e1c", "is_reserved": 0, "fusion_lat": 0.0}, {"type": "electric_scooter", "rental_uris": {"ios": "https://dc.lft.to/lastmile_qr_scan", "android": "https://dc.lft.to/lastmile_qr_scan"}, "lon": -77.01742016666667, "fusion_lon": 0.0, "is_disabled": 0, "lat": 38.92035033333333, "bike_id": "4d6fa176dc690a2e95eaccadf21ad3d0", "name": "4d6fa176dc690a2e95eaccadf21ad3d0", "is_reserved": 0, "fusion_lat": 0.0}, {"type": "electric_scooter", "rental_uris": {"ios": "https://dc.lft.to/lastmile_qr_scan", "android": "https://dc.lft.to/lastmile_qr_scan"}, "lon": -77.03188116666666, "fusion_lon": 0.0, "is_disabled": 0, "lat": 38.91330083333333, "bike_id": "cf0eee35844e4ef5f92af103401f2568", "name": "cf0eee35844e4ef5f92af103401f2568", "is_reserved": 0, "fusion_lat": 0.0}, {"type": "electric_scooter", "rental_uris": {"ios": "https://dc.lft.to/lastmile_qr_scan", "android": "https://dc.lft.to/lastmile_qr_scan"}, "lon": -77.03212433333333, "fusion_lon": 0.0, "is_disabled": 0, "lat": 38.895747666666665, "bike_id": "a4bec652e7433d90373324f94432b72f", "name": "a4bec652e7433d90373324f94432b72f", "is_reserved": 0, "fusion_lat": 0.0}, {"type": "electric_scooter", "rental_uris": {"ios": "https://dc.lft.to/lastmile_qr_scan", "android": "https://dc.lft.to/lastmile_qr_scan"}, "lon": -77.01066683333333, "fusion_lon": 0.0, "is_disabled": 0, "lat": 38.896032166666664, "bike_id": "950ea333ba556252950aadf9c5e74e34", "name": "950ea333ba556252950aadf9c5e74e34", "is_reserved": 0, "fusion_lat": 0.0}, {"type": "electric_scooter", "rental_uris": {"ios": "https://dc.lft.to/lastmile_qr_scan", "android": "https://dc.lft.to/lastmile_qr_scan"}, "lon": -77.04197666666667, "fusion_lon": 0.0, "is_disabled": 0, "lat": 38.89222733333333, "bike_id": "2f0fde1db9e201831f6f4a006b533774", "name": "2f0fde1db9e201831f6f4a006b533774", "is_reserved": 0, "fusion_lat": 0.0}, {"type": "electric_scooter", "rental_uris": {"ios": "https://dc.lft.to/lastmile_qr_scan", "android": "https://dc.lft.to/lastmile_qr_scan"}, "lon": -76.93525233333334, "fusion_lon": 0.0, "is_disabled": 0, "lat": 38.878968, "bike_id": "71da497a5a6e866cacf4fb93bc9b92ae", "name": "71da497a5a6e866cacf4fb93bc9b92ae", "is_reserved": 0, "fusion_lat": 0.0}, {"type": "electric_scooter", "rental_uris": {"ios": "https://dc.lft.to/lastmile_qr_scan", "android": "https://dc.lft.to/lastmile_qr_scan"}, "lon": -77.06890016666667, "fusion_lon": 0.0, "is_disabled": 0, "lat": 38.904171166666664, "bike_id": "9649ec5203cc4efc76d335b3f8063ff1", "name": "9649ec5203cc4efc76d335b3f8063ff1", "is_reserved": 0, "fusion_lat": 0.0}, {"type": "electric_scooter", "rental_uris": {"ios": "https://dc.lft.to/lastmile_qr_scan", "android": "https://dc.lft.to/lastmile_qr_scan"}, "lon": -77.03649633333333, "fusion_lon": 0.0, "is_disabled": 0, "lat": 38.920820166666665, "bike_id": "9e067b761d14a72edcc82516dcd6540c", "name": "9e067b761d14a72edcc82516dcd6540c", "is_reserved": 0, "fusion_lat": 0.0}, {"type": "electric_scooter", "rental_uris": {"ios": "https://dc.lft.to/lastmile_qr_scan", "android": "https://dc.lft.to/lastmile_qr_scan"}, "lon": -77.05335133333334, "fusion_lon": 0.0, "is_disabled": 0, "lat": 38.923357, "bike_id": "273be640281a70488347c2f7e3561467", "name": "273be640281a70488347c2f7e3561467", "is_reserved": 0, "fusion_lat": 0.0}, {"type": "electric_scooter", "rental_uris": {"ios": "https://dc.lft.to/lastmile_qr_scan", "android": "https://dc.lft.to/lastmile_qr_scan"}, "lon": -76.99393266666667, "fusion_lon": 0.0, "is_disabled": 0, "lat": 38.9101165, "bike_id": "4dc2eeeb63ed4ba9590372826e1390db", "name": "4dc2eeeb63ed4ba9590372826e1390db", "is_reserved": 0, "fusion_lat": 0.0}, {"type": "electric_scooter", "rental_uris": {"ios": "https://dc.lft.to/lastmile_qr_scan", "android": "https://dc.lft.to/lastmile_qr_scan"}, "lon": -77.02689783333334, "fusion_lon": 0.0, "is_disabled": 0, "lat": 38.92581033333333, "bike_id": "e362a3e8fa21f8aad5937a9d83259e83", "name": "e362a3e8fa21f8aad5937a9d83259e83", "is_reserved": 0, "fusion_lat": 0.0}, {"type": "electric_scooter", "rental_uris": {"ios": "https://dc.lft.to/lastmile_qr_scan", "android": "https://dc.lft.to/lastmile_qr_scan"}, "lon": -77.044601, "fusion_lon": 0.0, "is_disabled": 0, "lat": 38.92414333333333, "bike_id": "9c135d1a1e06a27f90af1edc775e3579", "name": "9c135d1a1e06a27f90af1edc775e3579", "is_reserved": 0, "fusion_lat": 0.0}, {"type": "electric_scooter", "rental_uris": {"ios": "https://dc.lft.to/lastmile_qr_scan", "android": "https://dc.lft.to/lastmile_qr_scan"}, "lon": -77.02166916666667, "fusion_lon": 0.0, "is_disabled": 0, "lat": 38.930719, "bike_id": "4b0cc68ef994f4e94459512115452dc0", "name": "4b0cc68ef994f4e94459512115452dc0", "is_reserved": 0, "fusion_lat": 0.0}, {"type": "electric_scooter", "rental_uris": {"ios": "https://dc.lft.to/lastmile_qr_scan", "android": "https://dc.lft.to/lastmile_qr_scan"}, "lon": -77.07525366666667, "fusion_lon": 0.0, "is_disabled": 0, "lat": 38.939400666666664, "bike_id": "9506a5937ffb1be4ca9c74607db8e97f", "name": "9506a5937ffb1be4ca9c74607db8e97f", "is_reserved": 0, "fusion_lat": 0.0}, {"type": "electric_scooter", "rental_uris": {"ios": "https://dc.lft.to/lastmile_qr_scan", "android": "https://dc.lft.to/lastmile_qr_scan"}, "lon": -77.00912766666667, "fusion_lon": 0.0, "is_disabled": 0, "lat": 38.89548, "bike_id": "2905d8652d3ac3961c5049b30d20fd13", "name": "2905d8652d3ac3961c5049b30d20fd13", "is_reserved": 0, "fusion_lat": 0.0}, {"type": "electric_scooter", "rental_uris": {"ios": "https://dc.lft.to/lastmile_qr_scan", "android": "https://dc.lft.to/lastmile_qr_scan"}, "lon": -76.91909266666667, "fusion_lon": 0.0, "is_disabled": 0, "lat": 38.8857565, "bike_id": "38caf0d17455bf700200e75997926892", "name": "38caf0d17455bf700200e75997926892", "is_reserved": 0, "fusion_lat": 0.0}, {"type": "electric_scooter", "rental_uris": {"ios": "https://dc.lft.to/lastmile_qr_scan", "android": "https://dc.lft.to/lastmile_qr_scan"}, "lon": -77.04702366666666, "fusion_lon": 0.0, "is_disabled": 0, "lat": 38.90975816666667, "bike_id": "6bb843d757edf0ba7931d39894064ac1", "name": "6bb843d757edf0ba7931d39894064ac1", "is_reserved": 0, "fusion_lat": 0.0}, {"type": "electric_scooter", "rental_uris": {"ios": "https://dc.lft.to/lastmile_qr_scan", "android": "https://dc.lft.to/lastmile_qr_scan"}, "lon": -77.04461666666667, "fusion_lon": 0.0, "is_disabled": 0, "lat": 38.91106933333333, "bike_id": "651a8873c2ac3a8b44656913dfc9b91d", "name": "651a8873c2ac3a8b44656913dfc9b91d", "is_reserved": 0, "fusion_lat": 0.0}, {"type": "electric_scooter", "rental_uris": {"ios": "https://dc.lft.to/lastmile_qr_scan", "android": "https://dc.lft.to/lastmile_qr_scan"}, "lon": -77.04017166666667, "fusion_lon": 0.0, "is_disabled": 0, "lat": 38.91840066666666, "bike_id": "437bab1eaf41e0acb8d0b9773f5292ce", "name": "437bab1eaf41e0acb8d0b9773f5292ce", "is_reserved": 0, "fusion_lat": 0.0}, {"type": "electric_scooter", "rental_uris": {"ios": "https://dc.lft.to/lastmile_qr_scan", "android": "https://dc.lft.to/lastmile_qr_scan"}, "lon": -77.02667733333334, "fusion_lon": 0.0, "is_disabled": 0, "lat": 38.916893333333334, "bike_id": "3a5e8d05face7156ed782231ac92ea6f", "name": "3a5e8d05face7156ed782231ac92ea6f", "is_reserved": 0, "fusion_lat": 0.0}, {"type": "electric_scooter", "rental_uris": {"ios": "https://dc.lft.to/lastmile_qr_scan", "android": "https://dc.lft.to/lastmile_qr_scan"}, "lon": -77.03341633333334, "fusion_lon": 0.0, "is_disabled": 0, "lat": 38.892232166666666, "bike_id": "bbcf8ffa2c5adff0e1cc73007274c406", "name": "bbcf8ffa2c5adff0e1cc73007274c406", "is_reserved": 0, "fusion_lat": 0.0}, {"type": "electric_scooter", "rental_uris": {"ios": "https://dc.lft.to/lastmile_qr_scan", "android": "https://dc.lft.to/lastmile_qr_scan"}, "lon": -77.0411235, "fusion_lon": 0.0, "is_disabled": 0, "lat": 38.9169265, "bike_id": "97a72dc55d32da6a03815d92af5550bc", "name": "97a72dc55d32da6a03815d92af5550bc", "is_reserved": 0, "fusion_lat": 0.0}, {"type": "electric_scooter", "rental_uris": {"ios": "https://dc.lft.to/lastmile_qr_scan", "android": "https://dc.lft.to/lastmile_qr_scan"}, "lon": -77.0384275, "fusion_lon": 0.0, "is_disabled": 0, "lat": 38.917596833333334, "bike_id": "0631a1483dabbcf8f76d042d59070904", "name": "0631a1483dabbcf8f76d042d59070904", "is_reserved": 0, "fusion_lat": 0.0}, {"type": "electric_scooter", "rental_uris": {"ios": "https://dc.lft.to/lastmile_qr_scan", "android": "https://dc.lft.to/lastmile_qr_scan"}, "lon": -77.015349, "fusion_lon": 0.0, "is_disabled": 0, "lat": 38.88738416666666, "bike_id": "7f8c6f4c0653654dd5e876d60ade39da", "name": "7f8c6f4c0653654dd5e876d60ade39da", "is_reserved": 0, "fusion_lat": 0.0}, {"type": "electric_scooter", "rental_uris": {"ios": "https://dc.lft.to/lastmile_qr_scan", "android": "https://dc.lft.to/lastmile_qr_scan"}, "lon": -76.985375, "fusion_lon": 0.0, "is_disabled": 0, "lat": 38.866871333333336, "bike_id": "364acdc1249e31257402a20e37e546fe", "name": "364acdc1249e31257402a20e37e546fe", "is_reserved": 0, "fusion_lat": 0.0}, {"type": "electric_scooter", "rental_uris": {"ios": "https://dc.lft.to/lastmile_qr_scan", "android": "https://dc.lft.to/lastmile_qr_scan"}, "lon": -77.04558716666666, "fusion_lon": 0.0, "is_disabled": 0, "lat": 38.919388833333336, "bike_id": "11217d9cd3c4f00b40b83d190858aa3f", "name": "11217d9cd3c4f00b40b83d190858aa3f", "is_reserved": 0, "fusion_lat": 0.0}, {"type": "electric_scooter", "rental_uris": {"ios": "https://dc.lft.to/lastmile_qr_scan", "android": "https://dc.lft.to/lastmile_qr_scan"}, "lon": -77.03440583333334, "fusion_lon": 0.0, "is_disabled": 0, "lat": 38.90983833333333, "bike_id": "30605da4d298ad6e72546e300da29d51", "name": "30605da4d298ad6e72546e300da29d51", "is_reserved": 0, "fusion_lat": 0.0}, {"type": "electric_scooter", "rental_uris": {"ios": "https://dc.lft.to/lastmile_qr_scan", "android": "https://dc.lft.to/lastmile_qr_scan"}, "lon": -77.043848, "fusion_lon": 0.0, "is_disabled": 0, "lat": 38.902797166666666, "bike_id": "4c1b986feb84de4b06b39a353c3460c5", "name": "4c1b986feb84de4b06b39a353c3460c5", "is_reserved": 0, "fusion_lat": 0.0}, {"type": "electric_scooter", "rental_uris": {"ios": "https://dc.lft.to/lastmile_qr_scan", "android": "https://dc.lft.to/lastmile_qr_scan"}, "lon": -77.035423, "fusion_lon": 0.0, "is_disabled": 0, "lat": 38.9253335, "bike_id": "e892a1a30d0af383ba9d2c07669f34ab", "name": "e892a1a30d0af383ba9d2c07669f34ab", "is_reserved": 0, "fusion_lat": 0.0}, {"type": "electric_scooter", "rental_uris": {"ios": "https://dc.lft.to/lastmile_qr_scan", "android": "https://dc.lft.to/lastmile_qr_scan"}, "lon": -77.02602566666667, "fusion_lon": 0.0, "is_disabled": 0, "lat": 38.90158666666667, "bike_id": "70e1315cca9aae65cff958e061a234fc", "name": "70e1315cca9aae65cff958e061a234fc", "is_reserved": 0, "fusion_lat": 0.0}, {"type": "electric_scooter", "rental_uris": {"ios": "https://dc.lft.to/lastmile_qr_scan", "android": "https://dc.lft.to/lastmile_qr_scan"}, "lon": -77.02200566666667, "fusion_lon": 0.0, "is_disabled": 0, "lat": 38.91541516666667, "bike_id": "6669d7c9e88f21a6e3b6c86a8e9a81c8", "name": "6669d7c9e88f21a6e3b6c86a8e9a81c8", "is_reserved": 0, "fusion_lat": 0.0}, {"type": "electric_scooter", "rental_uris": {"ios": "https://dc.lft.to/lastmile_qr_scan", "android": "https://dc.lft.to/lastmile_qr_scan"}, "lon": -77.022275, "fusion_lon": 0.0, "is_disabled": 0, "lat": 38.89218566666667, "bike_id": "2084ffcc0042ebd79b8cc6af752bb2db", "name": "2084ffcc0042ebd79b8cc6af752bb2db", "is_reserved": 0, "fusion_lat": 0.0}, {"type": "electric_scooter", "rental_uris": {"ios": "https://dc.lft.to/lastmile_qr_scan", "android": "https://dc.lft.to/lastmile_qr_scan"}, "lon": -77.0378895, "fusion_lon": 0.0, "is_disabled": 0, "lat": 38.91124633333333, "bike_id": "e140534ea5d1aa4b00ed89e0dfa3ad63", "name": "e140534ea5d1aa4b00ed89e0dfa3ad63", "is_reserved": 0, "fusion_lat": 0.0}, {"type": "electric_scooter", "rental_uris": {"ios": "https://dc.lft.to/lastmile_qr_scan", "android": "https://dc.lft.to/lastmile_qr_scan"}, "lon": -76.98395066666667, "fusion_lon": 0.0, "is_disabled": 0, "lat": 38.880902, "bike_id": "a6471b241507287c69163649ee560776", "name": "a6471b241507287c69163649ee560776", "is_reserved": 0, "fusion_lat": 0.0}, {"type": "electric_bike", "rental_uris": {"ios": "https://dc.lft.to/lastmile_qr_scan", "android": "https://dc.lft.to/lastmile_qr_scan"}, "lon": -77.1253405, "fusion_lon": 0.0, "is_disabled": 0, "lat": 39.056353, "bike_id": "7310e87bc5d2e7542f4b1ec54d590898", "name": "7310e87bc5d2e7542f4b1ec54d590898", "is_reserved": 0, "fusion_lat": 0.0}, {"type": "electric_scooter", "rental_uris": {"ios": "https://dc.lft.to/lastmile_qr_scan", "android": "https://dc.lft.to/lastmile_qr_scan"}, "lon": -77.0117565, "fusion_lon": 0.0, "is_disabled": 0, "lat": 38.91566733333333, "bike_id": "8ba42ddbea52fbcc860458391b848a8c", "name": "8ba42ddbea52fbcc860458391b848a8c", "is_reserved": 0, "fusion_lat": 0.0}, {"type": "electric_scooter", "rental_uris": {"ios": "https://dc.lft.to/lastmile_qr_scan", "android": "https://dc.lft.to/lastmile_qr_scan"}, "lon": -76.946531, "fusion_lon": 0.0, "is_disabled": 0, "lat": 38.898247166666664, "bike_id": "7df7a922af6875139e6a2ff9a88c0e7e", "name": "7df7a922af6875139e6a2ff9a88c0e7e", "is_reserved": 0, "fusion_lat": 0.0}, {"type": "electric_scooter", "rental_uris": {"ios": "https://dc.lft.to/lastmile_qr_scan", "android": "https://dc.lft.to/lastmile_qr_scan"}, "lon": -77.0316405, "fusion_lon": 0.0, "is_disabled": 0, "lat": 38.91869916666667, "bike_id": "84fd60ecdd3da66f30233e8b53d1f468", "name": "84fd60ecdd3da66f30233e8b53d1f468", "is_reserved": 0, "fusion_lat": 0.0}, {"type": "electric_scooter", "rental_uris": {"ios": "https://dc.lft.to/lastmile_qr_scan", "android": "https://dc.lft.to/lastmile_qr_scan"}, "lon": -77.03647716666667, "fusion_lon": 0.0, "is_disabled": 0, "lat": 38.917577333333334, "bike_id": "8e4384c8a220a2432bc880c973a9bb7b", "name": "8e4384c8a220a2432bc880c973a9bb7b", "is_reserved": 0, "fusion_lat": 0.0}, {"type": "electric_scooter", "rental_uris": {"ios": "https://dc.lft.to/lastmile_qr_scan", "android": "https://dc.lft.to/lastmile_qr_scan"}, "lon": -77.03678016666667, "fusion_lon": 0.0, "is_disabled": 0, "lat": 38.90294466666667, "bike_id": "6a26c2778d20e079ca03c47f595ee50d", "name": "6a26c2778d20e079ca03c47f595ee50d", "is_reserved": 0, "fusion_lat": 0.0}, {"type": "electric_scooter", "rental_uris": {"ios": "https://dc.lft.to/lastmile_qr_scan", "android": "https://dc.lft.to/lastmile_qr_scan"}, "lon": -77.03190016666667, "fusion_lon": 0.0, "is_disabled": 0, "lat": 38.9132695, "bike_id": "fe92d8ac3f28c969e570135cb61e8ea5", "name": "fe92d8ac3f28c969e570135cb61e8ea5", "is_reserved": 0, "fusion_lat": 0.0}, {"type": "electric_scooter", "rental_uris": {"ios": "https://dc.lft.to/lastmile_qr_scan", "android": "https://dc.lft.to/lastmile_qr_scan"}, "lon": -77.02798383333334, "fusion_lon": 0.0, "is_disabled": 0, "lat": 38.91713933333333, "bike_id": "0c681ecafa8c9d44d3a7558ce8ba12c2", "name": "0c681ecafa8c9d44d3a7558ce8ba12c2", "is_reserved": 0, "fusion_lat": 0.0}, {"type": "electric_scooter", "rental_uris": {"ios": "https://dc.lft.to/lastmile_qr_scan", "android": "https://dc.lft.to/lastmile_qr_scan"}, "lon": -77.07332333333333, "fusion_lon": 0.0, "is_disabled": 0, "lat": 38.92493183333333, "bike_id": "bbe6d56cc658855bcebb202736b04951", "name": "bbe6d56cc658855bcebb202736b04951", "is_reserved": 0, "fusion_lat": 0.0}, {"type": "electric_scooter", "rental_uris": {"ios": "https://dc.lft.to/lastmile_qr_scan", "android": "https://dc.lft.to/lastmile_qr_scan"}, "lon": -77.03660166666667, "fusion_lon": 0.0, "is_disabled": 0, "lat": 38.9171995, "bike_id": "4434d74dea72a96eb06e94d8888cd4dc", "name": "4434d74dea72a96eb06e94d8888cd4dc", "is_reserved": 0, "fusion_lat": 0.0}, {"type": "electric_scooter", "rental_uris": {"ios": "https://dc.lft.to/lastmile_qr_scan", "android": "https://dc.lft.to/lastmile_qr_scan"}, "lon": -77.04053033333334, "fusion_lon": 0.0, "is_disabled": 0, "lat": 38.89904083333333, "bike_id": "afc5c366845bd3d9ef427948f0dd9b6d", "name": "afc5c366845bd3d9ef427948f0dd9b6d", "is_reserved": 0, "fusion_lat": 0.0}, {"type": "electric_scooter", "rental_uris": {"ios": "https://dc.lft.to/lastmile_qr_scan", "android": "https://dc.lft.to/lastmile_qr_scan"}, "lon": -77.03936766666666, "fusion_lon": 0.0, "is_disabled": 0, "lat": 38.9155315, "bike_id": "9f0be1e6fcd3595c8a927ec8ca944dd6", "name": "9f0be1e6fcd3595c8a927ec8ca944dd6", "is_reserved": 0, "fusion_lat": 0.0}, {"type": "electric_scooter", "rental_uris": {"ios": "https://dc.lft.to/lastmile_qr_scan", "android": "https://dc.lft.to/lastmile_qr_scan"}, "lon": -77.00341383333334, "fusion_lon": 0.0, "is_disabled": 0, "lat": 38.88741366666667, "bike_id": "f7c0cd5120df0bd26be7734cb336b60e", "name": "f7c0cd5120df0bd26be7734cb336b60e", "is_reserved": 0, "fusion_lat": 0.0}, {"type": "electric_scooter", "rental_uris": {"ios": "https://dc.lft.to/lastmile_qr_scan", "android": "https://dc.lft.to/lastmile_qr_scan"}, "lon": -77.02722133333333, "fusion_lon": 0.0, "is_disabled": 0, "lat": 38.951844333333334, "bike_id": "86657596dc3b496f1972272077c2673c", "name": "86657596dc3b496f1972272077c2673c", "is_reserved": 0, "fusion_lat": 0.0}, {"type": "electric_bike", "rental_uris": {"ios": "https://dc.lft.to/lastmile_qr_scan", "android": "https://dc.lft.to/lastmile_qr_scan"}, "lon": -77.13148316666667, "fusion_lon": 0.0, "is_disabled": 0, "lat": 38.861668, "bike_id": "51332180f6b1592f30ea75b612e2dd7c", "name": "51332180f6b1592f30ea75b612e2dd7c", "is_reserved": 0, "fusion_lat": 0.0}, {"type": "electric_scooter", "rental_uris": {"ios": "https://dc.lft.to/lastmile_qr_scan", "android": "https://dc.lft.to/lastmile_qr_scan"}, "lon": -77.02626533333333, "fusion_lon": 0.0, "is_disabled": 0, "lat": 38.887396833333334, "bike_id": "7279a59a443a8ddcf785228ba148f3b0", "name": "7279a59a443a8ddcf785228ba148f3b0", "is_reserved": 0, "fusion_lat": 0.0}, {"type": "electric_scooter", "rental_uris": {"ios": "https://dc.lft.to/lastmile_qr_scan", "android": "https://dc.lft.to/lastmile_qr_scan"}, "lon": -77.024933, "fusion_lon": 0.0, "is_disabled": 0, "lat": 38.94184333333333, "bike_id": "06475d0a28def8e694977b7e123af317", "name": "06475d0a28def8e694977b7e123af317", "is_reserved": 0, "fusion_lat": 0.0}, {"type": "electric_scooter", "rental_uris": {"ios": "https://dc.lft.to/lastmile_qr_scan", "android": "https://dc.lft.to/lastmile_qr_scan"}, "lon": -77.02693566666666, "fusion_lon": 0.0, "is_disabled": 0, "lat": 38.906789, "bike_id": "02f294f3844028dfb62df38f205c7a9c", "name": "02f294f3844028dfb62df38f205c7a9c", "is_reserved": 0, "fusion_lat": 0.0}, {"type": "electric_scooter", "rental_uris": {"ios": "https://dc.lft.to/lastmile_qr_scan", "android": "https://dc.lft.to/lastmile_qr_scan"}, "lon": -76.98706666666666, "fusion_lon": 0.0, "is_disabled": 0, "lat": 38.86539883333333, "bike_id": "63d9e584923eaff5cf297d0b5e14cf91", "name": "63d9e584923eaff5cf297d0b5e14cf91", "is_reserved": 0, "fusion_lat": 0.0}, {"type": "electric_scooter", "rental_uris": {"ios": "https://dc.lft.to/lastmile_qr_scan", "android": "https://dc.lft.to/lastmile_qr_scan"}, "lon": -77.02965983333333, "fusion_lon": 0.0, "is_disabled": 0, "lat": 38.934677, "bike_id": "9e4cf8dc514b958948cd126a84aaa5a4", "name": "9e4cf8dc514b958948cd126a84aaa5a4", "is_reserved": 0, "fusion_lat": 0.0}, {"type": "electric_scooter", "rental_uris": {"ios": "https://dc.lft.to/lastmile_qr_scan", "android": "https://dc.lft.to/lastmile_qr_scan"}, "lon": -77.03508766666667, "fusion_lon": 0.0, "is_disabled": 0, "lat": 38.92150133333333, "bike_id": "68ae726a8c3f4fbedb8f20d409b2ebae", "name": "68ae726a8c3f4fbedb8f20d409b2ebae", "is_reserved": 0, "fusion_lat": 0.0}, {"type": "electric_scooter", "rental_uris": {"ios": "https://dc.lft.to/lastmile_qr_scan", "android": "https://dc.lft.to/lastmile_qr_scan"}, "lon": -77.01137883333334, "fusion_lon": 0.0, "is_disabled": 0, "lat": 38.88528266666667, "bike_id": "c74bff1a11b485de618d5477b30d6774", "name": "c74bff1a11b485de618d5477b30d6774", "is_reserved": 0, "fusion_lat": 0.0}, {"type": "electric_bike", "rental_uris": {"ios": "https://dc.lft.to/lastmile_qr_scan", "android": "https://dc.lft.to/lastmile_qr_scan"}, "lon": -76.97186, "fusion_lon": 0.0, "is_disabled": 0, "lat": 38.91787633333333, "bike_id": "46713fca7bcbfc00145b95718e4e662f", "name": "46713fca7bcbfc00145b95718e4e662f", "is_reserved": 0, "fusion_lat": 0.0}, {"type": "electric_scooter", "rental_uris": {"ios": "https://dc.lft.to/lastmile_qr_scan", "android": "https://dc.lft.to/lastmile_qr_scan"}, "lon": -77.04159066666666, "fusion_lon": 0.0, "is_disabled": 0, "lat": 38.91620133333333, "bike_id": "2103d97c446e7603a2d1871b0953ffc1", "name": "2103d97c446e7603a2d1871b0953ffc1", "is_reserved": 0, "fusion_lat": 0.0}, {"type": "electric_scooter", "rental_uris": {"ios": "https://dc.lft.to/lastmile_qr_scan", "android": "https://dc.lft.to/lastmile_qr_scan"}, "lon": -77.01767366666667, "fusion_lon": 0.0, "is_disabled": 0, "lat": 38.9055605, "bike_id": "7b6160b69c02389e9ba76de73556b3d9", "name": "7b6160b69c02389e9ba76de73556b3d9", "is_reserved": 0, "fusion_lat": 0.0}, {"type": "electric_scooter", "rental_uris": {"ios": "https://dc.lft.to/lastmile_qr_scan", "android": "https://dc.lft.to/lastmile_qr_scan"}, "lon": -77.02414366666666, "fusion_lon": 0.0, "is_disabled": 0, "lat": 38.891979166666665, "bike_id": "b0f71fa94716b2c0113556e23a74bf2e", "name": "b0f71fa94716b2c0113556e23a74bf2e", "is_reserved": 0, "fusion_lat": 0.0}, {"type": "electric_scooter", "rental_uris": {"ios": "https://dc.lft.to/lastmile_qr_scan", "android": "https://dc.lft.to/lastmile_qr_scan"}, "lon": -77.03178116666666, "fusion_lon": 0.0, "is_disabled": 0, "lat": 38.914176499999996, "bike_id": "869c735624da4a9f549541c192286dc0", "name": "869c735624da4a9f549541c192286dc0", "is_reserved": 0, "fusion_lat": 0.0}, {"type": "electric_scooter", "rental_uris": {"ios": "https://dc.lft.to/lastmile_qr_scan", "android": "https://dc.lft.to/lastmile_qr_scan"}, "lon": -77.05500433333333, "fusion_lon": 0.0, "is_disabled": 0, "lat": 38.936583666666664, "bike_id": "902bea5ec6daf8c37bb50442bee32eba", "name": "902bea5ec6daf8c37bb50442bee32eba", "is_reserved": 0, "fusion_lat": 0.0}, {"type": "electric_scooter", "rental_uris": {"ios": "https://dc.lft.to/lastmile_qr_scan", "android": "https://dc.lft.to/lastmile_qr_scan"}, "lon": -77.02728466666667, "fusion_lon": 0.0, "is_disabled": 0, "lat": 38.93249, "bike_id": "e2d5af6fae77cd7bd59f4c5a8e97aaee", "name": "e2d5af6fae77cd7bd59f4c5a8e97aaee", "is_reserved": 0, "fusion_lat": 0.0}, {"type": "electric_bike", "rental_uris": {"ios": "https://dc.lft.to/lastmile_qr_scan", "android": "https://dc.lft.to/lastmile_qr_scan"}, "lon": -77.01013, "fusion_lon": 0.0, "is_disabled": 0, "lat": 38.955952833333335, "bike_id": "48cbcf61bd925d4bced5dc2779d94248", "name": "48cbcf61bd925d4bced5dc2779d94248", "is_reserved": 0, "fusion_lat": 0.0}, {"type": "electric_scooter", "rental_uris": {"ios": "https://dc.lft.to/lastmile_qr_scan", "android": "https://dc.lft.to/lastmile_qr_scan"}, "lon": -77.03881983333333, "fusion_lon": 0.0, "is_disabled": 0, "lat": 38.902477, "bike_id": "6d6df036d7a5e7c46fd4cd52c01da9c1", "name": "6d6df036d7a5e7c46fd4cd52c01da9c1", "is_reserved": 0, "fusion_lat": 0.0}, {"type": "electric_scooter", "rental_uris": {"ios": "https://dc.lft.to/lastmile_qr_scan", "android": "https://dc.lft.to/lastmile_qr_scan"}, "lon": -77.03960083333334, "fusion_lon": 0.0, "is_disabled": 0, "lat": 38.8924015, "bike_id": "1e623d61c4e049d92f85031e801e9ced", "name": "1e623d61c4e049d92f85031e801e9ced", "is_reserved": 0, "fusion_lat": 0.0}, {"type": "electric_scooter", "rental_uris": {"ios": "https://dc.lft.to/lastmile_qr_scan", "android": "https://dc.lft.to/lastmile_qr_scan"}, "lon": -77.04366483333334, "fusion_lon": 0.0, "is_disabled": 0, "lat": 38.933209166666664, "bike_id": "1c1a923ce981ee42cb7b9cf7a1c2b76d", "name": "1c1a923ce981ee42cb7b9cf7a1c2b76d", "is_reserved": 0, "fusion_lat": 0.0}, {"type": "electric_scooter", "rental_uris": {"ios": "https://dc.lft.to/lastmile_qr_scan", "android": "https://dc.lft.to/lastmile_qr_scan"}, "lon": -77.01137233333333, "fusion_lon": 0.0, "is_disabled": 0, "lat": 38.885237000000004, "bike_id": "a4bd53347c1cdd8d8dc38ccd14a80af3", "name": "a4bd53347c1cdd8d8dc38ccd14a80af3", "is_reserved": 0, "fusion_lat": 0.0}, {"type": "electric_scooter", "rental_uris": {"ios": "https://dc.lft.to/lastmile_qr_scan", "android": "https://dc.lft.to/lastmile_qr_scan"}, "lon": -77.04229083333334, "fusion_lon": 0.0, "is_disabled": 0, "lat": 38.921724166666664, "bike_id": "433414135e9d7655f241e309a1809dee", "name": "433414135e9d7655f241e309a1809dee", "is_reserved": 0, "fusion_lat": 0.0}, {"type": "electric_scooter", "rental_uris": {"ios": "https://dc.lft.to/lastmile_qr_scan", "android": "https://dc.lft.to/lastmile_qr_scan"}, "lon": -77.0298755, "fusion_lon": 0.0, "is_disabled": 0, "lat": 38.9050615, "bike_id": "7cb8b59a8a9b0782aa8903707644e8f0", "name": "7cb8b59a8a9b0782aa8903707644e8f0", "is_reserved": 0, "fusion_lat": 0.0}, {"type": "electric_scooter", "rental_uris": {"ios": "https://dc.lft.to/lastmile_qr_scan", "android": "https://dc.lft.to/lastmile_qr_scan"}, "lon": -77.0343875, "fusion_lon": 0.0, "is_disabled": 0, "lat": 38.9307655, "bike_id": "65e08350e6300777c366024be555068a", "name": "65e08350e6300777c366024be555068a", "is_reserved": 0, "fusion_lat": 0.0}, {"type": "electric_scooter", "rental_uris": {"ios": "https://dc.lft.to/lastmile_qr_scan", "android": "https://dc.lft.to/lastmile_qr_scan"}, "lon": -76.98079766666666, "fusion_lon": 0.0, "is_disabled": 0, "lat": 38.91952833333333, "bike_id": "176f7dd26ec9f93ac97db4c6d0648c10", "name": "176f7dd26ec9f93ac97db4c6d0648c10", "is_reserved": 0, "fusion_lat": 0.0}, {"type": "electric_scooter", "rental_uris": {"ios": "https://dc.lft.to/lastmile_qr_scan", "android": "https://dc.lft.to/lastmile_qr_scan"}, "lon": -76.9771045, "fusion_lon": 0.0, "is_disabled": 0, "lat": 38.90258166666667, "bike_id": "b49f19d8b653033f34db3f406a872b09", "name": "b49f19d8b653033f34db3f406a872b09", "is_reserved": 0, "fusion_lat": 0.0}, {"type": "electric_scooter", "rental_uris": {"ios": "https://dc.lft.to/lastmile_qr_scan", "android": "https://dc.lft.to/lastmile_qr_scan"}, "lon": -77.03288733333333, "fusion_lon": 0.0, "is_disabled": 0, "lat": 38.925448833333334, "bike_id": "f7b82a77ab4835172bcc197ffba24c27", "name": "f7b82a77ab4835172bcc197ffba24c27", "is_reserved": 0, "fusion_lat": 0.0}, {"type": "electric_scooter", "rental_uris": {"ios": "https://dc.lft.to/lastmile_qr_scan", "android": "https://dc.lft.to/lastmile_qr_scan"}, "lon": -77.04482966666667, "fusion_lon": 0.0, "is_disabled": 0, "lat": 38.911626166666665, "bike_id": "3022c1a6f0533e285a81a60330e6001f", "name": "3022c1a6f0533e285a81a60330e6001f", "is_reserved": 0, "fusion_lat": 0.0}, {"type": "electric_scooter", "rental_uris": {"ios": "https://dc.lft.to/lastmile_qr_scan", "android": "https://dc.lft.to/lastmile_qr_scan"}, "lon": -77.0402795, "fusion_lon": 0.0, "is_disabled": 0, "lat": 38.92360383333333, "bike_id": "7ceb499e8397a0c97aae77dabc4c1842", "name": "7ceb499e8397a0c97aae77dabc4c1842", "is_reserved": 0, "fusion_lat": 0.0}, {"type": "electric_scooter", "rental_uris": {"ios": "https://dc.lft.to/lastmile_qr_scan", "android": "https://dc.lft.to/lastmile_qr_scan"}, "lon": -77.01182083333333, "fusion_lon": 0.0, "is_disabled": 0, "lat": 38.90316133333334, "bike_id": "d8177045077fe3d99fd707c6deb6938c", "name": "d8177045077fe3d99fd707c6deb6938c", "is_reserved": 0, "fusion_lat": 0.0}, {"type": "electric_scooter", "rental_uris": {"ios": "https://dc.lft.to/lastmile_qr_scan", "android": "https://dc.lft.to/lastmile_qr_scan"}, "lon": -76.99779516666666, "fusion_lon": 0.0, "is_disabled": 0, "lat": 38.84426166666667, "bike_id": "b0712be4b27caf9f0b83f943e865db4a", "name": "b0712be4b27caf9f0b83f943e865db4a", "is_reserved": 0, "fusion_lat": 0.0}, {"type": "electric_scooter", "rental_uris": {"ios": "https://dc.lft.to/lastmile_qr_scan", "android": "https://dc.lft.to/lastmile_qr_scan"}, "lon": -77.0318645, "fusion_lon": 0.0, "is_disabled": 0, "lat": 38.9095405, "bike_id": "3fc13faade209e975c7103468b4ab429", "name": "3fc13faade209e975c7103468b4ab429", "is_reserved": 0, "fusion_lat": 0.0}, {"type": "electric_scooter", "rental_uris": {"ios": "https://dc.lft.to/lastmile_qr_scan", "android": "https://dc.lft.to/lastmile_qr_scan"}, "lon": -77.0405005, "fusion_lon": 0.0, "is_disabled": 0, "lat": 38.91404983333334, "bike_id": "e78c7ed8cca91e81fa554f7cea68d520", "name": "e78c7ed8cca91e81fa554f7cea68d520", "is_reserved": 0, "fusion_lat": 0.0}, {"type": "electric_scooter", "rental_uris": {"ios": "https://dc.lft.to/lastmile_qr_scan", "android": "https://dc.lft.to/lastmile_qr_scan"}, "lon": -76.95761433333334, "fusion_lon": 0.0, "is_disabled": 0, "lat": 38.88430483333333, "bike_id": "0b51b085de34e84591ce679e088be068", "name": "0b51b085de34e84591ce679e088be068", "is_reserved": 0, "fusion_lat": 0.0}, {"type": "electric_scooter", "rental_uris": {"ios": "https://dc.lft.to/lastmile_qr_scan", "android": "https://dc.lft.to/lastmile_qr_scan"}, "lon": -77.02127983333334, "fusion_lon": 0.0, "is_disabled": 0, "lat": 38.8873905, "bike_id": "b5d54f0b2e9d123b4106daff8c002643", "name": "b5d54f0b2e9d123b4106daff8c002643", "is_reserved": 0, "fusion_lat": 0.0}, {"type": "electric_scooter", "rental_uris": {"ios": "https://dc.lft.to/lastmile_qr_scan", "android": "https://dc.lft.to/lastmile_qr_scan"}, "lon": -77.0345055, "fusion_lon": 0.0, "is_disabled": 0, "lat": 38.930945333333334, "bike_id": "ac69045242aecf905903868290ff0bf3", "name": "ac69045242aecf905903868290ff0bf3", "is_reserved": 0, "fusion_lat": 0.0}, {"type": "electric_scooter", "rental_uris": {"ios": "https://dc.lft.to/lastmile_qr_scan", "android": "https://dc.lft.to/lastmile_qr_scan"}, "lon": -76.95532566666667, "fusion_lon": 0.0, "is_disabled": 0, "lat": 38.887831, "bike_id": "d763a25fede4e1ff8a7af7642e5900a9", "name": "d763a25fede4e1ff8a7af7642e5900a9", "is_reserved": 0, "fusion_lat": 0.0}, {"type": "electric_bike", "rental_uris": {"ios": "https://dc.lft.to/lastmile_qr_scan", "android": "https://dc.lft.to/lastmile_qr_scan"}, "lon": -77.10602483333334, "fusion_lon": 0.0, "is_disabled": 0, "lat": 38.928944, "bike_id": "526940979d2cddb78c410fbb15e04072", "name": "526940979d2cddb78c410fbb15e04072", "is_reserved": 0, "fusion_lat": 0.0}, {"type": "electric_scooter", "rental_uris": {"ios": "https://dc.lft.to/lastmile_qr_scan", "android": "https://dc.lft.to/lastmile_qr_scan"}, "lon": -77.027091, "fusion_lon": 0.0, "is_disabled": 0, "lat": 38.90669366666667, "bike_id": "9a9be8ceb90388d81cd588d78ea02e42", "name": "9a9be8ceb90388d81cd588d78ea02e42", "is_reserved": 0, "fusion_lat": 0.0}, {"type": "electric_scooter", "rental_uris": {"ios": "https://dc.lft.to/lastmile_qr_scan", "android": "https://dc.lft.to/lastmile_qr_scan"}, "lon": -77.01141983333333, "fusion_lon": 0.0, "is_disabled": 0, "lat": 38.917004166666665, "bike_id": "535a4bd1144f59ef3801d096e69d9bde", "name": "535a4bd1144f59ef3801d096e69d9bde", "is_reserved": 0, "fusion_lat": 0.0}, {"type": "electric_scooter", "rental_uris": {"ios": "https://dc.lft.to/lastmile_qr_scan", "android": "https://dc.lft.to/lastmile_qr_scan"}, "lon": -77.03206133333333, "fusion_lon": 0.0, "is_disabled": 0, "lat": 38.90267516666667, "bike_id": "be50342d9ec8761c6b8d9cdd56714e6e", "name": "be50342d9ec8761c6b8d9cdd56714e6e", "is_reserved": 0, "fusion_lat": 0.0}, {"type": "electric_scooter", "rental_uris": {"ios": "https://dc.lft.to/lastmile_qr_scan", "android": "https://dc.lft.to/lastmile_qr_scan"}, "lon": -77.03155583333333, "fusion_lon": 0.0, "is_disabled": 0, "lat": 38.89982066666666, "bike_id": "ce352d3edab5b0ae04efadb71c74e220", "name": "ce352d3edab5b0ae04efadb71c74e220", "is_reserved": 0, "fusion_lat": 0.0}, {"type": "electric_scooter", "rental_uris": {"ios": "https://dc.lft.to/lastmile_qr_scan", "android": "https://dc.lft.to/lastmile_qr_scan"}, "lon": -77.040263, "fusion_lon": 0.0, "is_disabled": 0, "lat": 38.924446333333336, "bike_id": "44dea71243d0921dcbf69328f86b5826", "name": "44dea71243d0921dcbf69328f86b5826", "is_reserved": 0, "fusion_lat": 0.0}, {"type": "electric_scooter", "rental_uris": {"ios": "https://dc.lft.to/lastmile_qr_scan", "android": "https://dc.lft.to/lastmile_qr_scan"}, "lon": -77.02160816666667, "fusion_lon": 0.0, "is_disabled": 0, "lat": 38.926126, "bike_id": "01e7a1e2566f4a8072209a94869b0222", "name": "01e7a1e2566f4a8072209a94869b0222", "is_reserved": 0, "fusion_lat": 0.0}, {"type": "electric_bike", "rental_uris": {"ios": "https://dc.lft.to/lastmile_qr_scan", "android": "https://dc.lft.to/lastmile_qr_scan"}, "lon": -77.03651883333333, "fusion_lon": 0.0, "is_disabled": 0, "lat": 38.956330666666666, "bike_id": "08f3c54106eb460727d65b0fd6101470", "name": "08f3c54106eb460727d65b0fd6101470", "is_reserved": 0, "fusion_lat": 0.0}, {"type": "electric_scooter", "rental_uris": {"ios": "https://dc.lft.to/lastmile_qr_scan", "android": "https://dc.lft.to/lastmile_qr_scan"}, "lon": -77.02969133333333, "fusion_lon": 0.0, "is_disabled": 0, "lat": 38.93238816666667, "bike_id": "53a986131e9765c80d719e672f442b80", "name": "53a986131e9765c80d719e672f442b80", "is_reserved": 0, "fusion_lat": 0.0}, {"type": "electric_scooter", "rental_uris": {"ios": "https://dc.lft.to/lastmile_qr_scan", "android": "https://dc.lft.to/lastmile_qr_scan"}, "lon": -77.02715233333333, "fusion_lon": 0.0, "is_disabled": 0, "lat": 38.906836, "bike_id": "27475f6c3a3429b6a231ccf77ccaec39", "name": "27475f6c3a3429b6a231ccf77ccaec39", "is_reserved": 0, "fusion_lat": 0.0}, {"type": "electric_scooter", "rental_uris": {"ios": "https://dc.lft.to/lastmile_qr_scan", "android": "https://dc.lft.to/lastmile_qr_scan"}, "lon": -77.03116083333333, "fusion_lon": 0.0, "is_disabled": 0, "lat": 38.937667166666664, "bike_id": "d2fa0c61381c393baf99bc594684041b", "name": "d2fa0c61381c393baf99bc594684041b", "is_reserved": 0, "fusion_lat": 0.0}, {"type": "electric_scooter", "rental_uris": {"ios": "https://dc.lft.to/lastmile_qr_scan", "android": "https://dc.lft.to/lastmile_qr_scan"}, "lon": -77.02590533333333, "fusion_lon": 0.0, "is_disabled": 0, "lat": 38.914113, "bike_id": "5509d65ec4ca567a00a66f1a817ba98b", "name": "5509d65ec4ca567a00a66f1a817ba98b", "is_reserved": 0, "fusion_lat": 0.0}, {"type": "electric_scooter", "rental_uris": {"ios": "https://dc.lft.to/lastmile_qr_scan", "android": "https://dc.lft.to/lastmile_qr_scan"}, "lon": -76.99825866666667, "fusion_lon": 0.0, "is_disabled": 0, "lat": 38.885319, "bike_id": "722b4637e73e47d44055e07a5f599446", "name": "722b4637e73e47d44055e07a5f599446", "is_reserved": 0, "fusion_lat": 0.0}, {"type": "electric_bike", "rental_uris": {"ios": "https://dc.lft.to/lastmile_qr_scan", "android": "https://dc.lft.to/lastmile_qr_scan"}, "lon": -76.99354483333333, "fusion_lon": 0.0, "is_disabled": 0, "lat": 38.845053166666666, "bike_id": "da8253baca80a71018ab36b3d66915db", "name": "da8253baca80a71018ab36b3d66915db", "is_reserved": 0, "fusion_lat": 0.0}, {"type": "electric_scooter", "rental_uris": {"ios": "https://dc.lft.to/lastmile_qr_scan", "android": "https://dc.lft.to/lastmile_qr_scan"}, "lon": -77.05274933333334, "fusion_lon": 0.0, "is_disabled": 0, "lat": 38.925416, "bike_id": "a05248307ffc6d7a8a9681b538ec8744", "name": "a05248307ffc6d7a8a9681b538ec8744", "is_reserved": 0, "fusion_lat": 0.0}, {"type": "electric_scooter", "rental_uris": {"ios": "https://dc.lft.to/lastmile_qr_scan", "android": "https://dc.lft.to/lastmile_qr_scan"}, "lon": -77.04191733333333, "fusion_lon": 0.0, "is_disabled": 0, "lat": 38.920511, "bike_id": "6f0f2aae7643731116c6bb22f9bcd934", "name": "6f0f2aae7643731116c6bb22f9bcd934", "is_reserved": 0, "fusion_lat": 0.0},