{"data": {"bikes": [{"fusion_lat": 0.0, "bike_id": "6f10b804fe6bd638f89cbf7771bd68f7", "fusion_lon": 0.0, "lon": -77.02840933333333, "lat": 38.88742633333333, "is_reserved": 0, "is_disabled": 0, "rental_uris": {"android": "https://dc.lft.to/lastmile_qr_scan", "ios": "https://dc.lft.to/lastmile_qr_scan"}, "name": "6f10b804fe6bd638f89cbf7771bd68f7", "type": "electric_scooter"}, {"fusion_lat": 0.0, "bike_id": "ec4c44f64aa885241e069c45071ea33a", "fusion_lon": 0.0, "lon": -77.0266185, "lat": 38.9309855, "is_reserved": 0, "is_disabled": 0, "rental_uris": {"android": "https://dc.lft.to/lastmile_qr_scan", "ios": "https://dc.lft.to/lastmile_qr_scan"}, "name": "ec4c44f64aa885241e069c45071ea33a", "type": "electric_scooter"}, {"fusion_lat": 0.0, "bike_id": "569fa4bbec4ec8766befbaecfac8be77", "fusion_lon": 0.0, "lon": -77.027587, "lat": 38.957790333333335, "is_reserved": 0, "is_disabled": 0, "rental_uris": {"android": "https://dc.lft.to/lastmile_qr_scan", "ios": "https://dc.lft.to/lastmile_qr_scan"}, "name": "569fa4bbec4ec8766befbaecfac8be77", "type": "electric_bike"}, {"fusion_lat": 0.0, "bike_id": "3f1d892db6e38c05afde656d46c783e8", "fusion_lon": 0.0, "lon": -76.98612433333334, "lat": 38.882902, "is_reserved": 0, "is_disabled": 0, "rental_uris": {"android": "https://dc.lft.to/lastmile_qr_scan", "ios": "https://dc.lft.to/lastmile_qr_scan"}, "name": "3f1d892db6e38c05afde656d46c783e8", "type": "electric_scooter"}, {"fusion_lat": 0.0, "bike_id": "38d447f9762c88f0553adbee314e361e", "fusion_lon": 0.0, "lon": -77.04610683333334, "lat": 38.92047616666667, "is_reserved": 0, "is_disabled": 0, "rental_uris": {"android": "https://dc.lft.to/lastmile_qr_scan", "ios": "https://dc.lft.to/lastmile_qr_scan"}, "name": "38d447f9762c88f0553adbee314e361e", "type": "electric_scooter"}, {"fusion_lat": 0.0, "bike_id": "0b16a660476587be515b72198933547f", "fusion_lon": 0.0, "lon": -77.08067, "lat": 39.052789833333335, "is_reserved": 0, "is_disabled": 0, "rental_uris": {"android": "https://dc.lft.to/lastmile_qr_scan", "ios": "https://dc.lft.to/lastmile_qr_scan"}, "name": "0b16a660476587be515b72198933547f", "type": "electric_bike"}, {"fusion_lat": 0.0, "bike_id": "76928962d9dd23d42d6929044103d805", "fusion_lon": 0.0, "lon": -76.99837583333333, "lat": 38.904945, "is_reserved": 0, "is_disabled": 0, "rental_uris": {"android": "https://dc.lft.to/lastmile_qr_scan", "ios": "https://dc.lft.to/lastmile_qr_scan"}, "name": "76928962d9dd23d42d6929044103d805", "type": "electric_scooter"}, {"fusion_lat": 0.0, "bike_id": "de39e1332237c335895c026171412e13", "fusion_lon": 0.0, "lon": -77.0281285, "lat": 38.90037566666667, "is_reserved": 0, "is_disabled": 0, "rental_uris": {"android": "https://dc.lft.to/lastmile_qr_scan", "ios": "https://dc.lft.to/lastmile_qr_scan"}, "name": "de39e1332237c335895c026171412e13", "type": "electric_scooter"}, {"fusion_lat": 0.0, "bike_id": "13dbd8daf1ecc9f5e98ca2ce61587c6b", "fusion_lon": 0.0, "lon": -77.0327875, "lat": 38.91616333333333, "is_reserved": 0, "is_disabled": 0, "rental_uris": {"android": "https://dc.lft.to/lastmile_qr_scan", "ios": "https://dc.lft.to/lastmile_qr_scan"}, "name": "13dbd8daf1ecc9f5e98ca2ce61587c6b", "type": "electric_scooter"}, {"fusion_lat": 0.0, "bike_id": "ae90f4ad88acf2257e10e134a47bd73c", "fusion_lon": 0.0, "lon": -77.065187, "lat": 38.90390633333333, "is_reserved": 0, "is_disabled": 0, "rental_uris": {"android": "https://dc.lft.to/lastmile_qr_scan", "ios": "https://dc.lft.to/lastmile_qr_scan"}, "name": "ae90f4ad88acf2257e10e134a47bd73c", "type": "electric_scooter"}, {"fusion_lat": 0.0, "bike_id": "4f4142317939eb4306b191bb96c73e72", "fusion_lon": 0.0, "lon": -77.05132083333334, "lat": 38.90706433333333, "is_reserved": 0, "is_disabled": 0, "rental_uris": {"android": "https://dc.lft.to/lastmile_qr_scan", "ios": "https://dc.lft.to/lastmile_qr_scan"}, "name": "4f4142317939eb4306b191bb96c73e72", "type": "electric_bike"}, {"fusion_lat": 0.0, "bike_id": "02aff89811e0418f5cd53dc898fbaa0d", "fusion_lon": 0.0, "lon": -76.95748216666667, "lat": 38.884243, "is_reserved": 0, "is_disabled": 0, "rental_uris": {"android": "https://dc.lft.to/lastmile_qr_scan", "ios": "https://dc.lft.to/lastmile_qr_scan"}, "name": "02aff89811e0418f5cd53dc898fbaa0d", "type": "electric_scooter"}, {"fusion_lat": 0.0, "bike_id": "7edebef532c03f91ea8f2e1d973721a4", "fusion_lon": 0.0, "lon": -77.03088483333333, "lat": 38.91058983333333, "is_reserved": 0, "is_disabled": 0, "rental_uris": {"android": "https://dc.lft.to/lastmile_qr_scan", "ios": "https://dc.lft.to/lastmile_qr_scan"}, "name": "7edebef532c03f91ea8f2e1d973721a4", "type": "electric_scooter"}, {"fusion_lat": 0.0, "bike_id": "04be81004b92312fa10fc3ab5ab5b50c", "fusion_lon": 0.0, "lon": -76.99792916666667, "lat": 38.82907516666667, "is_reserved": 0, "is_disabled": 0, "rental_uris": {"android": "https://dc.lft.to/lastmile_qr_scan", "ios": "https://dc.lft.to/lastmile_qr_scan"}, "name": "04be81004b92312fa10fc3ab5ab5b50c", "type": "electric_bike"}, {"fusion_lat": 0.0, "bike_id": "b8d48ada508c9fc7628efc7ae7814652", "fusion_lon": 0.0, "lon": -77.03603833333334, "lat": 38.93683683333333, "is_reserved": 0, "is_disabled": 0, "rental_uris": {"android": "https://dc.lft.to/lastmile_qr_scan", "ios": "https://dc.lft.to/lastmile_qr_scan"}, "name": "b8d48ada508c9fc7628efc7ae7814652", "type": "electric_scooter"}, {"fusion_lat": 0.0, "bike_id": "5856bf2a6ce03123bbdc5542ffd4923a", "fusion_lon": 0.0, "lon": -77.02222266666666, "lat": 38.9354775, "is_reserved": 0, "is_disabled": 0, "rental_uris": {"android": "https://dc.lft.to/lastmile_qr_scan", "ios": "https://dc.lft.to/lastmile_qr_scan"}, "name": "5856bf2a6ce03123bbdc5542ffd4923a", "type": "electric_scooter"}, {"fusion_lat": 0.0, "bike_id": "7a8d47543ade6039b944573a85cecec2", "fusion_lon": 0.0, "lon": -77.02317483333333, "lat": 38.89489616666667, "is_reserved": 0, "is_disabled": 0, "rental_uris": {"android": "https://dc.lft.to/lastmile_qr_scan", "ios": "https://dc.lft.to/lastmile_qr_scan"}, "name": "7a8d47543ade6039b944573a85cecec2", "type": "electric_scooter"}, {"fusion_lat": 0.0, "bike_id": "42a5009bb3ab462a385d479e910f1105", "fusion_lon": 0.0, "lon": -77.02099666666666, "lat": 38.93261833333333, "is_reserved": 0, "is_disabled": 0, "rental_uris": {"android": "https://dc.lft.to/lastmile_qr_scan", "ios": "https://dc.lft.to/lastmile_qr_scan"}, "name": "42a5009bb3ab462a385d479e910f1105", "type": "electric_scooter"}, {"fusion_lat": 0.0, "bike_id": "4d6994f190c5e685f5c77b0f76474f40", "fusion_lon": 0.0, "lon": -77.0513615, "lat": 38.92521433333334, "is_reserved": 0, "is_disabled": 0, "rental_uris": {"android": "https://dc.lft.to/lastmile_qr_scan", "ios": "https://dc.lft.to/lastmile_qr_scan"}, "name": "4d6994f190c5e685f5c77b0f76474f40", "type": "electric_scooter"}, {"fusion_lat": 0.0, "bike_id": "04a0188911f1c7cb87baa92809e36292", "fusion_lon": 0.0, "lon": -77.02193833333334, "lat": 38.88595983333333, "is_reserved": 0, "is_disabled": 0, "rental_uris": {"android": "https://dc.lft.to/lastmile_qr_scan", "ios": "https://dc.lft.to/lastmile_qr_scan"}, "name": "04a0188911f1c7cb87baa92809e36292", "type": "electric_scooter"}, {"fusion_lat": 0.0, "bike_id": "418d505dd9b1e972ac6d742d6e6d362b", "fusion_lon": 0.0, "lon": -77.0270915, "lat": 38.89670616666667, "is_reserved": 0, "is_disabled": 0, "rental_uris": {"android": "https://dc.lft.to/lastmile_qr_scan", "ios": "https://dc.lft.to/lastmile_qr_scan"}, "name": "418d505dd9b1e972ac6d742d6e6d362b", "type": "electric_scooter"}, {"fusion_lat": 0.0, "bike_id": "9344f496441840e7809ca68a2a4f9dae", "fusion_lon": 0.0, "lon": -77.02390983333333, "lat": 38.917347666666664, "is_reserved": 0, "is_disabled": 0, "rental_uris": {"android": "https://dc.lft.to/lastmile_qr_scan", "ios": "https://dc.lft.to/lastmile_qr_scan"}, "name": "9344f496441840e7809ca68a2a4f9dae", "type": "electric_scooter"}, {"fusion_lat": 0.0, "bike_id": "3839ad2152e3e00d667daddfc23331b1", "fusion_lon": 0.0, "lon": -77.11708183333333, "lat": 38.86745966666667, "is_reserved": 0, "is_disabled": 0, "rental_uris": {"android": "https://dc.lft.to/lastmile_qr_scan", "ios": "https://dc.lft.to/lastmile_qr_scan"}, "name": "3839ad2152e3e00d667daddfc23331b1", "type": "electric_bike"}, {"fusion_lat": 0.0, "bike_id": "30a8b89d8663bac624af9c89ca4391cf", "fusion_lon": 0.0, "lon": -77.00594466666666, "lat": 38.906180166666665, "is_reserved": 0, "is_disabled": 0, "rental_uris": {"android": "https://dc.lft.to/lastmile_qr_scan", "ios": "https://dc.lft.to/lastmile_qr_scan"}, "name": "30a8b89d8663bac624af9c89ca4391cf", "type": "electric_scooter"}, {"fusion_lat": 0.0, "bike_id": "810c851fe738a8450d75d9449b5fd66e", "fusion_lon": 0.0, "lon": -77.0762645, "lat": 38.96574866666667, "is_reserved": 0, "is_disabled": 0, "rental_uris": {"android": "https://dc.lft.to/lastmile_qr_scan", "ios": "https://dc.lft.to/lastmile_qr_scan"}, "name": "810c851fe738a8450d75d9449b5fd66e", "type": "electric_bike"}, {"fusion_lat": 0.0, "bike_id": "54bfb82fa17472c4cc5eeffa808d98a8", "fusion_lon": 0.0, "lon": -77.03226666666667, "lat": 38.925831, "is_reserved": 0, "is_disabled": 0, "rental_uris": {"android": "https://dc.lft.to/lastmile_qr_scan", "ios": "https://dc.lft.to/lastmile_qr_scan"}, "name": "54bfb82fa17472c4cc5eeffa808d98a8", "type": "electric_scooter"}, {"fusion_lat": 0.0, "bike_id": "09294efcc378d9e7a53297f09a486572", "fusion_lon": 0.0, "lon": -77.029647, "lat": 38.922813166666664, "is_reserved": 0, "is_disabled": 0, "rental_uris": {"android": "https://dc.lft.to/lastmile_qr_scan", "ios": "https://dc.lft.to/lastmile_qr_scan"}, "name": "09294efcc378d9e7a53297f09a486572", "type": "electric_scooter"}, {"fusion_lat": 0.0, "bike_id": "27853c8db51dfd784f77593fe1d543c3", "fusion_lon": 0.0, "lon": -77.03284216666667, "lat": 38.94765733333333, "is_reserved": 0, "is_disabled": 0, "rental_uris": {"android": "https://dc.lft.to/lastmile_qr_scan", "ios": "https://dc.lft.to/lastmile_qr_scan"}, "name": "27853c8db51dfd784f77593fe1d543c3", "type": "electric_bike"}, {"fusion_lat": 0.0, "bike_id": "3077655a71e3fcfbb9fc5c3a642938ad", "fusion_lon": 0.0, "lon": -77.0418025, "lat": 38.9012675, "is_reserved": 0, "is_disabled": 0, "rental_uris": {"android": "https://dc.lft.to/lastmile_qr_scan", "ios": "https://dc.lft.to/lastmile_qr_scan"}, "name": "3077655a71e3fcfbb9fc5c3a642938ad", "type": "electric_scooter"}, {"fusion_lat": 0.0, "bike_id": "7c49dc6def23150d9800ce1544911ba4", "fusion_lon": 0.0, "lon": -76.99128583333334, "lat": 38.90134616666667, "is_reserved": 0, "is_disabled": 0, "rental_uris": {"android": "https://dc.lft.to/lastmile_qr_scan", "ios": "https://dc.lft.to/lastmile_qr_scan"}, "name": "7c49dc6def23150d9800ce1544911ba4", "type": "electric_scooter"}, {"fusion_lat": 0.0, "bike_id": "d86f08d2f0b5331bbb9c7d3b96b73bf6", "fusion_lon": 0.0, "lon": -77.02187566666667, "lat": 38.89479216666667, "is_reserved": 0, "is_disabled": 0, "rental_uris": {"android": "https://dc.lft.to/lastmile_qr_scan", "ios": "https://dc.lft.to/lastmile_qr_scan"}, "name": "d86f08d2f0b5331bbb9c7d3b96b73bf6", "type": "electric_scooter"}, {"fusion_lat": 0.0, "bike_id": "e7c053c38d80618040fdf14bc3640a2f", "fusion_lon": 0.0, "lon": -77.03722416666666, "lat": 38.91475916666667, "is_reserved": 0, "is_disabled": 0, "rental_uris": {"android": "https://dc.lft.to/lastmile_qr_scan", "ios": "https://dc.lft.to/lastmile_qr_scan"}, "name": "e7c053c38d80618040fdf14bc3640a2f", "type": "electric_scooter"}, {"fusion_lat": 0.0, "bike_id": "e90339b8063ba52b29b2874d20beaa50", "fusion_lon": 0.0, "lon": -77.051626, "lat": 38.89754633333333, "is_reserved": 0, "is_disabled": 0, "rental_uris": {"android": "https://dc.lft.to/lastmile_qr_scan", "ios": "https://dc.lft.to/lastmile_qr_scan"}, "name": "e90339b8063ba52b29b2874d20beaa50", "type": "electric_scooter"}, {"fusion_lat": 0.0, "bike_id": "85aa35eff52f16653ade4148861bf0b5", "fusion_lon": 0.0, "lon": -77.044987, "lat": 38.919446, "is_reserved": 0, "is_disabled": 0, "rental_uris": {"android": "https://dc.lft.to/lastmile_qr_scan", "ios": "https://dc.lft.to/lastmile_qr_scan"}, "name": "85aa35eff52f16653ade4148861bf0b5", "type": "electric_scooter"}, {"fusion_lat": 0.0, "bike_id": "969976a0d5f168310d2cddd0e99e87a0", "fusion_lon": 0.0, "lon": -76.92719416666667, "lat": 38.880564166666666, "is_reserved": 0, "is_disabled": 0, "rental_uris": {"android": "https://dc.lft.to/lastmile_qr_scan", "ios": "https://dc.lft.to/lastmile_qr_scan"}, "name": "969976a0d5f168310d2cddd0e99e87a0", "type": "electric_scooter"}, {"fusion_lat": 0.0, "bike_id": "f9007c84f1ff3f31299c947631f18b90", "fusion_lon": 0.0, "lon": -77.04197733333334, "lat": 38.920555666666665, "is_reserved": 0, "is_disabled": 0, "rental_uris": {"android": "https://dc.lft.to/lastmile_qr_scan", "ios": "https://dc.lft.to/lastmile_qr_scan"}, "name": "f9007c84f1ff3f31299c947631f18b90", "type": "electric_scooter"}, {"fusion_lat": 0.0, "bike_id": "0835c82cac5cd406e11cac6e169642be", "fusion_lon": 0.0, "lon": -77.00136566666667, "lat": 38.89471366666667, "is_reserved": 0, "is_disabled": 0, "rental_uris": {"android": "https://dc.lft.to/lastmile_qr_scan", "ios": "https://dc.lft.to/lastmile_qr_scan"}, "name": "0835c82cac5cd406e11cac6e169642be", "type": "electric_scooter"}, {"fusion_lat": 0.0, "bike_id": "3a86bddcfe9e7391db57db21ff4a019c", "fusion_lon": 0.0, "lon": -77.04899933333333, "lat": 38.916043, "is_reserved": 0, "is_disabled": 0, "rental_uris": {"android": "https://dc.lft.to/lastmile_qr_scan", "ios": "https://dc.lft.to/lastmile_qr_scan"}, "name": "3a86bddcfe9e7391db57db21ff4a019c", "type": "electric_scooter"}, {"fusion_lat": 0.0, "bike_id": "c9d33a42254c7d35129713dc7cdcc672", "fusion_lon": 0.0, "lon": -76.93746, "lat": 38.890116166666665, "is_reserved": 0, "is_disabled": 0, "rental_uris": {"android": "https://dc.lft.to/lastmile_qr_scan", "ios": "https://dc.lft.to/lastmile_qr_scan"}, "name": "c9d33a42254c7d35129713dc7cdcc672", "type": "electric_scooter"}, {"fusion_lat": 0.0, "bike_id": "4b8832cb3a28443e9d5324542148c8d1", "fusion_lon": 0.0, "lon": -77.0345865, "lat": 38.92072, "is_reserved": 0, "is_disabled": 0, "rental_uris": {"android": "https://dc.lft.to/lastmile_qr_scan", "ios": "https://dc.lft.to/lastmile_qr_scan"}, "name": "4b8832cb3a28443e9d5324542148c8d1", "type": "electric_scooter"}, {"fusion_lat": 0.0, "bike_id": "d92a553e159ad4e4bd4ecc96fb4b5265", "fusion_lon": 0.0, "lon": -77.02632016666666, "lat": 38.88133533333333, "is_reserved": 0, "is_disabled": 0, "rental_uris": {"android": "https://dc.lft.to/lastmile_qr_scan", "ios": "https://dc.lft.to/lastmile_qr_scan"}, "name": "d92a553e159ad4e4bd4ecc96fb4b5265", "type": "electric_scooter"}, {"fusion_lat": 0.0, "bike_id": "aac9e2b1717680bd55f230e5f8b9a050", "fusion_lon": 0.0, "lon": -77.031813, "lat": 38.9210375, "is_reserved": 0, "is_disabled": 0, "rental_uris": {"android": "https://dc.lft.to/lastmile_qr_scan", "ios": "https://dc.lft.to/lastmile_qr_scan"}, "name": "aac9e2b1717680bd55f230e5f8b9a050", "type": "electric_scooter"}, {"fusion_lat": 0.0, "bike_id": "33167b4a67698835952bc84ab5f43b9e", "fusion_lon": 0.0, "lon": -77.045985, "lat": 38.8972015, "is_reserved": 0, "is_disabled": 0, "rental_uris": {"android": "https://dc.lft.to/lastmile_qr_scan", "ios": "https://dc.lft.to/lastmile_qr_scan"}, "name": "33167b4a67698835952bc84ab5f43b9e", "type": "electric_scooter"}, {"fusion_lat": 0.0, "bike_id": "aa83163179cc763db643add331d277c0", "fusion_lon": 0.0, "lon": -77.04189216666667, "lat": 38.91148233333333, "is_reserved": 0, "is_disabled": 0, "rental_uris": {"android": "https://dc.lft.to/lastmile_qr_scan", "ios": "https://dc.lft.to/lastmile_qr_scan"}, "name": "aa83163179cc763db643add331d277c0", "type": "electric_scooter"}, {"fusion_lat": 0.0, "bike_id": "42d4145e13cedf97ac9b47bb07344f25", "fusion_lon": 0.0, "lon": -77.0429185, "lat": 38.90892916666667, "is_reserved": 0, "is_disabled": 0, "rental_uris": {"android": "https://dc.lft.to/lastmile_qr_scan", "ios": "https://dc.lft.to/lastmile_qr_scan"}, "name": "42d4145e13cedf97ac9b47bb07344f25", "type": "electric_scooter"}, {"fusion_lat": 0.0, "bike_id": "3aa18e769de8ecb8a9c39d9934e43216", "fusion_lon": 0.0, "lon": -77.04317883333333, "lat": 38.9187655, "is_reserved": 0, "is_disabled": 0, "rental_uris": {"android": "https://dc.lft.to/lastmile_qr_scan", "ios": "https://dc.lft.to/lastmile_qr_scan"}, "name": "3aa18e769de8ecb8a9c39d9934e43216", "type": "electric_scooter"}, {"fusion_lat": 0.0, "bike_id": "a83baecfb0dfbd5fbe3432b6f9a762f0", "fusion_lon": 0.0, "lon": -77.02768733333333, "lat": 38.93460616666667, "is_reserved": 0, "is_disabled": 0, "rental_uris": {"android": "https://dc.lft.to/lastmile_qr_scan", "ios": "https://dc.lft.to/lastmile_qr_scan"}, "name": "a83baecfb0dfbd5fbe3432b6f9a762f0", "type": "electric_scooter"}, {"fusion_lat": 0.0, "bike_id": "34cbf09e964a60c91430fef4a1e7a173", "fusion_lon": 0.0, "lon": -77.00265483333334, "lat": 38.9521245, "is_reserved": 0, "is_disabled": 0, "rental_uris": {"android": "https://dc.lft.to/lastmile_qr_scan", "ios": "https://dc.lft.to/lastmile_qr_scan"}, "name": "34cbf09e964a60c91430fef4a1e7a173", "type": "electric_bike"}, {"fusion_lat": 0.0, "bike_id": "d716c5c6417ab2c36fe7e2a88be327d6", "fusion_lon": 0.0, "lon": -77.03191383333333, "lat": 38.90431866666667, "is_reserved": 0, "is_disabled": 0, "rental_uris": {"android": "https://dc.lft.to/lastmile_qr_scan", "ios": "https://dc.lft.to/lastmile_qr_scan"}, "name": "d716c5c6417ab2c36fe7e2a88be327d6", "type": "electric_scooter"}, {"fusion_lat": 0.0, "bike_id": "6b57d6eb90769c5b4a2da2acede4f448", "fusion_lon": 0.0, "lon": -77.02462833333334, "lat": 38.914028, "is_reserved": 0, "is_disabled": 0, "rental_uris": {"android": "https://dc.lft.to/lastmile_qr_scan", "ios": "https://dc.lft.to/lastmile_qr_scan"}, "name": "6b57d6eb90769c5b4a2da2acede4f448", "type": "electric_scooter"}, {"fusion_lat": 0.0, "bike_id": "997f5e74df46a9bf5dabb0de9a80be7e", "fusion_lon": 0.0, "lon": -76.985266, "lat": 38.8668225, "is_reserved": 0, "is_disabled": 0, "rental_uris": {"android": "https://dc.lft.to/lastmile_qr_scan", "ios": "https://dc.lft.to/lastmile_qr_scan"}, "name": "997f5e74df46a9bf5dabb0de9a80be7e", "type": "electric_scooter"}, {"fusion_lat": 0.0, "bike_id": "702352f9a8164379c4c6b4ca6fa2b6d2", "fusion_lon": 0.0, "lon": -77.02637016666667, "lat": 38.929191, "is_reserved": 0, "is_disabled": 0, "rental_uris": {"android": "https://dc.lft.to/lastmile_qr_scan", "ios": "https://dc.lft.to/lastmile_qr_scan"}, "name": "702352f9a8164379c4c6b4ca6fa2b6d2", "type": "electric_scooter"}, {"fusion_lat": 0.0, "bike_id": "0de246c3ee692a9dd64aca027ccca533", "fusion_lon": 0.0, "lon": -77.1013065, "lat": 38.852055666666665, "is_reserved": 0, "is_disabled": 0, "rental_uris": {"android": "https://dc.lft.to/lastmile_qr_scan", "ios": "https://dc.lft.to/lastmile_qr_scan"}, "name": "0de246c3ee692a9dd64aca027ccca533", "type": "electric_bike"}, {"fusion_lat": 0.0, "bike_id": "c62fadaeba4d629d008ff9552daeedb0", "fusion_lon": 0.0, "lon": -77.03520533333334, "lat": 38.92188766666666, "is_reserved": 0, "is_disabled": 0, "rental_uris": {"android": "https://dc.lft.to/lastmile_qr_scan", "ios": "https://dc.lft.to/lastmile_qr_scan"}, "name": "c62fadaeba4d629d008ff9552daeedb0", "type": "electric_scooter"}, {"fusion_lat": 0.0, "bike_id": "97d12bc465d8bf748b7f0791a74d4b24", "fusion_lon": 0.0, "lon": -77.03905366666666, "lat": 38.925811833333334, "is_reserved": 0, "is_disabled": 0, "rental_uris": {"android": "https://dc.lft.to/lastmile_qr_scan", "ios": "https://dc.lft.to/lastmile_qr_scan"}, "name": "97d12bc465d8bf748b7f0791a74d4b24", "type": "electric_scooter"}, {"fusion_lat": 0.0, "bike_id": "855fb3e81c77136e456fac477658f6fb", "fusion_lon": 0.0, "lon": -77.0321005, "lat": 38.91425733333333, "is_reserved": 0, "is_disabled": 0, "rental_uris": {"android": "https://dc.lft.to/lastmile_qr_scan", "ios": "https://dc.lft.to/lastmile_qr_scan"}, "name": "855fb3e81c77136e456fac477658f6fb", "type": "electric_scooter"}, {"fusion_lat": 0.0, "bike_id": "380ebe94812f7067a59db730b8ec3086", "fusion_lon": 0.0, "lon": -77.01350283333333, "lat": 38.956090333333336, "is_reserved": 0, "is_disabled": 0, "rental_uris": {"android": "https://dc.lft.to/lastmile_qr_scan", "ios": "https://dc.lft.to/lastmile_qr_scan"}, "name": "380ebe94812f7067a59db730b8ec3086", "type": "electric_scooter"}, {"fusion_lat": 0.0, "bike_id": "f48549780d0dbe52ba83920de3cc38a7", "fusion_lon": 0.0, "lon": -77.03786533333333, "lat": 38.92211016666667, "is_reserved": 0, "is_disabled": 0, "rental_uris": {"android": "https://dc.lft.to/lastmile_qr_scan", "ios": "https://dc.lft.to/lastmile_qr_scan"}, "name": "f48549780d0dbe52ba83920de3cc38a7", "type": "electric_scooter"}, {"fusion_lat": 0.0, "bike_id": "f8271d65d0bfb3159396e24de1947a49", "fusion_lon": 0.0, "lon": -77.026227, "lat": 38.9622565, "is_reserved": 0, "is_disabled": 0, "rental_uris": {"android": "https://dc.lft.to/lastmile_qr_scan", "ios": "https://dc.lft.to/lastmile_qr_scan"}, "name": "f8271d65d0bfb3159396e24de1947a49", "type": "electric_bike"}, {"fusion_lat": 0.0, "bike_id": "76ca7508e9c10b465893b6cd2d224d78", "fusion_lon": 0.0, "lon": -77.00354666666667, "lat": 38.907188166666664, "is_reserved": 0, "is_disabled": 0, "rental_uris": {"android": "https://dc.lft.to/lastmile_qr_scan", "ios": "https://dc.lft.to/lastmile_qr_scan"}, "name": "76ca7508e9c10b465893b6cd2d224d78", "type": "electric_scooter"}, {"fusion_lat": 0.0, "bike_id": "88245cd74b5e2f2ffaea976975945b38", "fusion_lon": 0.0, "lon": -77.032882, "lat": 38.928570666666666, "is_reserved": 0, "is_disabled": 0, "rental_uris": {"android": "https://dc.lft.to/lastmile_qr_scan", "ios": "https://dc.lft.to/lastmile_qr_scan"}, "name": "88245cd74b5e2f2ffaea976975945b38", "type": "electric_scooter"}, {"fusion_lat": 0.0, "bike_id": "227fda56868380cfdf46949adcfaf16c", "fusion_lon": 0.0, "lon": -77.021808, "lat": 38.887252333333336, "is_reserved": 0, "is_disabled": 0, "rental_uris": {"android": "https://dc.lft.to/lastmile_qr_scan", "ios": "https://dc.lft.to/lastmile_qr_scan"}, "name": "227fda56868380cfdf46949adcfaf16c", "type": "electric_scooter"}, {"fusion_lat": 0.0, "bike_id": "7391f2194837ec825ab82571f47e415e", "fusion_lon": 0.0, "lon": -77.1009145, "lat": 38.95955633333333, "is_reserved": 0, "is_disabled": 0, "rental_uris": {"android": "https://dc.lft.to/lastmile_qr_scan", "ios": "https://dc.lft.to/lastmile_qr_scan"}, "name": "7391f2194837ec825ab82571f47e415e", "type": "electric_bike"}, {"fusion_lat": 0.0, "bike_id": "762002e32b532a505bfa1119a54f4adb", "fusion_lon": 0.0, "lon": -77.0458545, "lat": 38.90953283333333, "is_reserved": 0, "is_disabled": 0, "rental_uris": {"android": "https://dc.lft.to/lastmile_qr_scan", "ios": "https://dc.lft.to/lastmile_qr_scan"}, "name": "762002e32b532a505bfa1119a54f4adb", "type": "electric_scooter"}, {"fusion_lat": 0.0, "bike_id": "18129ecd397013e3320720dcefcb28a6", "fusion_lon": 0.0, "lon": -77.0353435, "lat": 38.92623866666667, "is_reserved": 0, "is_disabled": 0, "rental_uris": {"android": "https://dc.lft.to/lastmile_qr_scan", "ios": "https://dc.lft.to/lastmile_qr_scan"}, "name": "18129ecd397013e3320720dcefcb28a6", "type": "electric_scooter"}, {"fusion_lat": 0.0, "bike_id": "6d480306c3035c58b08e0debf758e666", "fusion_lon": 0.0, "lon": -76.94292183333333, "lat": 38.93866583333333, "is_reserved": 0, "is_disabled": 0, "rental_uris": {"android": "https://dc.lft.to/lastmile_qr_scan", "ios": "https://dc.lft.to/lastmile_qr_scan"}, "name": "6d480306c3035c58b08e0debf758e666", "type": "electric_bike"}, {"fusion_lat": 0.0, "bike_id": "fa60a850725fdf9d4f02e8b225136452", "fusion_lon": 0.0, "lon": -77.0322735, "lat": 38.9289275, "is_reserved": 0, "is_disabled": 0, "rental_uris": {"android": "https://dc.lft.to/lastmile_qr_scan", "ios": "https://dc.lft.to/lastmile_qr_scan"}, "name": "fa60a850725fdf9d4f02e8b225136452", "type": "electric_scooter"}, {"fusion_lat": 0.0, "bike_id": "ec961874ef06fb4eca95c8807cde65d6", "fusion_lon": 0.0, "lon": -77.10836533333334, "lat": 38.81198783333333, "is_reserved": 0, "is_disabled": 0, "rental_uris": {"android": "https://dc.lft.to/lastmile_qr_scan", "ios": "https://dc.lft.to/lastmile_qr_scan"}, "name": "ec961874ef06fb4eca95c8807cde65d6", "type": "electric_bike"}, {"fusion_lat": 0.0, "bike_id": "2a683650a8ef5517e177e9f6e5ba33d5", "fusion_lon": 0.0, "lon": -76.9892775, "lat": 38.86554066666667, "is_reserved": 0, "is_disabled": 0, "rental_uris": {"android": "https://dc.lft.to/lastmile_qr_scan", "ios": "https://dc.lft.to/lastmile_qr_scan"}, "name": "2a683650a8ef5517e177e9f6e5ba33d5", "type": "electric_scooter"}, {"fusion_lat": 0.0, "bike_id": "488ffc5143c4c843327c5081a44691d1", "fusion_lon": 0.0, "lon": -77.02272716666667, "lat": 38.90279133333333, "is_reserved": 0, "is_disabled": 0, "rental_uris": {"android": "https://dc.lft.to/lastmile_qr_scan", "ios": "https://dc.lft.to/lastmile_qr_scan"}, "name": "488ffc5143c4c843327c5081a44691d1", "type": "electric_scooter"}, {"fusion_lat": 0.0, "bike_id": "8934fc7fe99f03556825964074003424", "fusion_lon": 0.0, "lon": -76.99027966666667, "lat": 38.89167466666667, "is_reserved": 0, "is_disabled": 0, "rental_uris": {"android": "https://dc.lft.to/lastmile_qr_scan", "ios": "https://dc.lft.to/lastmile_qr_scan"}, "name": "8934fc7fe99f03556825964074003424", "type": "electric_scooter"}, {"fusion_lat": 0.0, "bike_id": "c7ae26549e44bcd14c346787415407f4", "fusion_lon": 0.0, "lon": -77.03267666666666, "lat": 38.91215283333333, "is_reserved": 0, "is_disabled": 0, "rental_uris": {"android": "https://dc.lft.to/lastmile_qr_scan", "ios": "https://dc.lft.to/lastmile_qr_scan"}, "name": "c7ae26549e44bcd14c346787415407f4", "type": "electric_scooter"}, {"fusion_lat": 0.0, "bike_id": "0ec0262af1e32298f5eb0efd71065e8f", "fusion_lon": 0.0, "lon": -77.02603083333334, "lat": 38.908059, "is_reserved": 0, "is_disabled": 0, "rental_uris": {"android": "https://dc.lft.to/lastmile_qr_scan", "ios": "https://dc.lft.to/lastmile_qr_scan"}, "name": "0ec0262af1e32298f5eb0efd71065e8f", "type": "electric_scooter"}, {"fusion_lat": 0.0, "bike_id": "cafd534eea96fcad8ad98587668f5c1f", "fusion_lon": 0.0, "lon": -77.23325016666666, "lat": 38.872757166666666, "is_reserved": 0, "is_disabled": 0, "rental_uris": {"android": "https://dc.lft.to/lastmile_qr_scan", "ios": "https://dc.lft.to/lastmile_qr_scan"}, "name": "cafd534eea96fcad8ad98587668f5c1f", "type": "electric_bike"}, {"fusion_lat": 0.0, "bike_id": "5fc61291bc95ec25e359eaeeee338951", "fusion_lon": 0.0, "lon": -77.03218, "lat": 38.9087915, "is_reserved": 0, "is_disabled": 0, "rental_uris": {"android": "https://dc.lft.to/lastmile_qr_scan", "ios": "https://dc.lft.to/lastmile_qr_scan"}, "name": "5fc61291bc95ec25e359eaeeee338951", "type": "electric_scooter"}, {"fusion_lat": 0.0, "bike_id": "54ddceca249ea995d7cf512f9e3e344d", "fusion_lon": 0.0, "lon": -77.05039366666666, "lat": 38.90525433333333, "is_reserved": 0, "is_disabled": 0, "rental_uris": {"android": "https://dc.lft.to/lastmile_qr_scan", "ios": "https://dc.lft.to/lastmile_qr_scan"}, "name": "54ddceca249ea995d7cf512f9e3e344d", "type": "electric_scooter"}, {"fusion_lat": 0.0, "bike_id": "e10ce6d0d690c8a997c5d7aae853bb00", "fusion_lon": 0.0, "lon": -77.039797, "lat": 38.927948, "is_reserved": 0, "is_disabled": 0, "rental_uris": {"android": "https://dc.lft.to/lastmile_qr_scan", "ios": "https://dc.lft.to/lastmile_qr_scan"}, "name": "e10ce6d0d690c8a997c5d7aae853bb00", "type": "electric_scooter"}, {"fusion_lat": 0.0, "bike_id": "7100e87cee0d0d467e92f9718e310bcd", "fusion_lon": 0.0, "lon": -76.98882266666666, "lat": 38.866515666666665, "is_reserved": 0, "is_disabled": 0, "rental_uris": {"android": "https://dc.lft.to/lastmile_qr_scan", "ios": "https://dc.lft.to/lastmile_qr_scan"}, "name": "7100e87cee0d0d467e92f9718e310bcd", "type": "electric_scooter"}, {"fusion_lat": 0.0, "bike_id": "f622d75de16f4de97b3388eb3a4f41eb", "fusion_lon": 0.0, "lon": -76.94810416666667, "lat": 38.893566, "is_reserved": 0, "is_disabled": 0, "rental_uris": {"android": "https://dc.lft.to/lastmile_qr_scan", "ios": "https://dc.lft.to/lastmile_qr_scan"}, "name": "f622d75de16f4de97b3388eb3a4f41eb", "type": "electric_scooter"}, {"fusion_lat": 0.0, "bike_id": "98cebd227b6b8d82d9b156c2754f9c63", "fusion_lon": 0.0, "lon": -77.00504916666667, "lat": 38.875333833333336, "is_reserved": 0, "is_disabled": 0, "rental_uris": {"android": "https://dc.lft.to/lastmile_qr_scan", "ios": "https://dc.lft.to/lastmile_qr_scan"}, "name": "98cebd227b6b8d82d9b156c2754f9c63", "type": "electric_scooter"}, {"fusion_lat": 0.0, "bike_id": "1ee2aefd0c9b18f98fa7482c7a80b2ec", "fusion_lon": 0.0, "lon": -77.04336883333333, "lat": 38.913902666666665, "is_reserved": 0, "is_disabled": 0, "rental_uris": {"android": "https://dc.lft.to/lastmile_qr_scan", "ios": "https://dc.lft.to/lastmile_qr_scan"}, "name": "1ee2aefd0c9b18f98fa7482c7a80b2ec", "type": "electric_scooter"}, {"fusion_lat": 0.0, "bike_id": "b6309fd58f000778abe963eb32411df3", "fusion_lon": 0.0, "lon": -77.044692, "lat": 38.89218983333333, "is_reserved": 0, "is_disabled": 0, "rental_uris": {"android": "https://dc.lft.to/lastmile_qr_scan", "ios": "https://dc.lft.to/lastmile_qr_scan"}, "name": "b6309fd58f000778abe963eb32411df3", "type": "electric_scooter"}, {"fusion_lat": 0.0, "bike_id": "7197bbe3887a8071f5153ee3437cbf8f", "fusion_lon": 0.0, "lon": -77.05006816666666, "lat": 38.89224983333333, "is_reserved": 0, "is_disabled": 0, "rental_uris": {"android": "https://dc.lft.to/lastmile_qr_scan", "ios": "https://dc.lft.to/lastmile_qr_scan"}, "name": "7197bbe3887a8071f5153ee3437cbf8f", "type": "electric_scooter"}, {"fusion_lat": 0.0, "bike_id": "c0cd25988315cadaa7d0ed5583c5aae5", "fusion_lon": 0.0, "lon": -77.04512233333334, "lat": 38.89952983333333, "is_reserved": 0, "is_disabled": 0, "rental_uris": {"android": "https://dc.lft.to/lastmile_qr_scan", "ios": "https://dc.lft.to/lastmile_qr_scan"}, "name": "c0cd25988315cadaa7d0ed5583c5aae5", "type": "electric_scooter"}, {"fusion_lat": 0.0, "bike_id": "d9a9e591621b8287926f6dbdeaa3dec8", "fusion_lon": 0.0, "lon": -77.01869566666667, "lat": 38.9149675, "is_reserved": 0, "is_disabled": 0, "rental_uris": {"android": "https://dc.lft.to/lastmile_qr_scan", "ios": "https://dc.lft.to/lastmile_qr_scan"}, "name": "d9a9e591621b8287926f6dbdeaa3dec8", "type": "electric_scooter"}, {"fusion_lat": 0.0, "bike_id": "e4728627472854b56d3bc615830ba029", "fusion_lon": 0.0, "lon": -77.02425716666667, "lat": 38.92048533333333, "is_reserved": 0, "is_disabled": 0, "rental_uris": {"android": "https://dc.lft.to/lastmile_qr_scan", "ios": "https://dc.lft.to/lastmile_qr_scan"}, "name": "e4728627472854b56d3bc615830ba029", "type": "electric_scooter"}, {"fusion_lat": 0.0, "bike_id": "155748c6f6ff0963cf348e57da071ed8", "fusion_lon": 0.0, "lon": -77.026403, "lat": 38.9815055, "is_reserved": 0, "is_disabled": 0, "rental_uris": {"android": "https://dc.lft.to/lastmile_qr_scan", "ios": "https://dc.lft.to/lastmile_qr_scan"}, "name": "155748c6f6ff0963cf348e57da071ed8", "type": "electric_bike"}, {"fusion_lat": 0.0, "bike_id": "c9d1496e8b0fc0453081c606823f8c70", "fusion_lon": 0.0, "lon": -76.97746266666667, "lat": 38.864870833333335, "is_reserved": 0, "is_disabled": 0, "rental_uris": {"android": "https://dc.lft.to/lastmile_qr_scan", "ios": "https://dc.lft.to/lastmile_qr_scan"}, "name": "c9d1496e8b0fc0453081c606823f8c70", "type": "electric_bike"}, {"fusion_lat": 0.0, "bike_id": "ab07d22a11411160999fa43211530b67", "fusion_lon": 0.0, "lon": -77.057062, "lat": 38.926019333333336, "is_reserved": 0, "is_disabled": 0, "rental_uris": {"android": "https://dc.lft.to/lastmile_qr_scan", "ios": "https://dc.lft.to/lastmile_qr_scan"}, "name": "ab07d22a11411160999fa43211530b67", "type": "electric_bike"}, {"fusion_lat": 0.0, "bike_id": "adf65a654ab48b2dffce135a4f588333", "fusion_lon": 0.0, "lon": -76.999306, "lat": 38.84313366666667, "is_reserved": 0, "is_disabled": 0, "rental_uris": {"android": "https://dc.lft.to/lastmile_qr_scan", "ios": "https://dc.lft.to/lastmile_qr_scan"}, "name": "adf65a654ab48b2dffce135a4f588333", "type": "electric_scooter"}, {"fusion_lat": 0.0, "bike_id": "dc0ff0de1b048eabb82e8cbb2a9e4ab3", "fusion_lon": 0.0, "lon": -77.02961066666667, "lat": 38.899231, "is_reserved": 0, "is_disabled": 0, "rental_uris": {"android": "https://dc.lft.to/lastmile_qr_scan", "ios": "https://dc.lft.to/lastmile_qr_scan"}, "name": "dc0ff0de1b048eabb82e8cbb2a9e4ab3", "type": "electric_scooter"}, {"fusion_lat": 0.0, "bike_id": "24229eedd7eb57b4f40f8ccde4818a46", "fusion_lon": 0.0, "lon": -77.03547983333333, "lat": 38.9257845, "is_reserved": 0, "is_disabled": 0, "rental_uris": {"android": "https://dc.lft.to/lastmile_qr_scan", "ios": "https://dc.lft.to/lastmile_qr_scan"}, "name": "24229eedd7eb57b4f40f8ccde4818a46", "type": "electric_scooter"}, {"fusion_lat": 0.0, "bike_id": "b7eff0e126931762239460af79c4a3ee", "fusion_lon": 0.0, "lon": -77.05393566666666, "lat": 38.92793916666667, "is_reserved": 0, "is_disabled": 0, "rental_uris": {"android": "https://dc.lft.to/lastmile_qr_scan", "ios": "https://dc.lft.to/lastmile_qr_scan"}, "name": "b7eff0e126931762239460af79c4a3ee", "type": "electric_scooter"}, {"fusion_lat": 0.0, "bike_id": "32c9ff482e490a42d25d324ba459d447", "fusion_lon": 0.0, "lon": -77.02224683333333, "lat": 38.926226166666666, "is_reserved": 0, "is_disabled": 0, "rental_uris": {"android": "https://dc.lft.to/lastmile_qr_scan", "ios": "https://dc.lft.to/lastmile_qr_scan"}, "name": "32c9ff482e490a42d25d324ba459d447", "type": "electric_scooter"}, {"fusion_lat": 0.0, "bike_id": "ff274ba10a2aea1fa65c2dfdc9b9ff40", "fusion_lon": 0.0, "lon": -77.04320566666667, "lat": 38.909445833333336, "is_reserved": 0, "is_disabled": 0, "rental_uris": {"android": "https://dc.lft.to/lastmile_qr_scan", "ios": "https://dc.lft.to/lastmile_qr_scan"}, "name": "ff274ba10a2aea1fa65c2dfdc9b9ff40", "type": "electric_scooter"}, {"fusion_lat": 0.0, "bike_id": "9287dc863f59d8068aa298587a585ca6", "fusion_lon": 0.0, "lon": -76.9854935, "lat": 38.9201565, "is_reserved": 0, "is_disabled": 0, "rental_uris": {"android": "https://dc.lft.to/lastmile_qr_scan", "ios": "https://dc.lft.to/lastmile_qr_scan"}, "name": "9287dc863f59d8068aa298587a585ca6", "type": "electric_scooter"}, {"fusion_lat": 0.0, "bike_id": "99b5d61c8cfffbf60ef4f70fe0b51623", "fusion_lon": 0.0, "lon": -77.03957433333333, "lat": 38.902588333333334, "is_reserved": 0, "is_disabled": 0, "rental_uris": {"android": "https://dc.lft.to/lastmile_qr_scan", "ios": "https://dc.lft.to/lastmile_qr_scan"}, "name": "99b5d61c8cfffbf60ef4f70fe0b51623", "type": "electric_scooter"}, {"fusion_lat": 0.0, "bike_id": "f5cab47031f82bac2ab9e9ac6378f39a", "fusion_lon": 0.0, "lon": -77.03440966666666, "lat": 38.92147816666667, "is_reserved": 0, "is_disabled": 0, "rental_uris": {"android": "https://dc.lft.to/lastmile_qr_scan", "ios": "https://dc.lft.to/lastmile_qr_scan"}, "name": "f5cab47031f82bac2ab9e9ac6378f39a", "type": "electric_scooter"}, {"fusion_lat": 0.0, "bike_id": "0e5f594439067b16eb8013e36176d33c", "fusion_lon": 0.0, "lon": -77.02844216666666, "lat": 38.92565716666667, "is_reserved": 0, "is_disabled": 0, "rental_uris": {"android": "https://dc.lft.to/lastmile_qr_scan", "ios": "https://dc.lft.to/lastmile_qr_scan"}, "name": "0e5f594439067b16eb8013e36176d33c", "type": "electric_scooter"}, {"fusion_lat": 0.0, "bike_id": "0ca9f134c87e4201746d395b96fc46d4", "fusion_lon": 0.0, "lon": -77.0326445, "lat": 38.90455216666667, "is_reserved": 0, "is_disabled": 0, "rental_uris": {"android": "https://dc.lft.to/lastmile_qr_scan", "ios": "https://dc.lft.to/lastmile_qr_scan"}, "name": "0ca9f134c87e4201746d395b96fc46d4", "type": "electric_scooter"}, {"fusion_lat": 0.0, "bike_id": "d82725ebc22a23a400558a047ee9a0f9", "fusion_lon": 0.0, "lon": -77.02280533333334, "lat": 38.92565033333333, "is_reserved": 0, "is_disabled": 0, "rental_uris": {"android": "https://dc.lft.to/lastmile_qr_scan", "ios": "https://dc.lft.to/lastmile_qr_scan"}, "name": "d82725ebc22a23a400558a047ee9a0f9", "type": "electric_scooter"}, {"fusion_lat": 0.0, "bike_id": "dea4280d8186578c58e1c4a7dd31dd1c", "fusion_lon": 0.0, "lon": -77.02512783333333, "lat": 38.934162666666666, "is_reserved": 0, "is_disabled": 0, "rental_uris": {"android": "https://dc.lft.to/lastmile_qr_scan", "ios": "https://dc.lft.to/lastmile_qr_scan"}, "name": "dea4280d8186578c58e1c4a7dd31dd1c", "type": "electric_bike"}, {"fusion_lat": 0.0, "bike_id": "ba3698a9205462dae32ca0211bbc7c19", "fusion_lon": 0.0, "lon": -77.04391066666666, "lat": 39.04714233333333, "is_reserved": 0, "is_disabled": 0, "rental_uris": {"android": "https://dc.lft.to/lastmile_qr_scan", "ios": "https://dc.lft.to/lastmile_qr_scan"}, "name": "ba3698a9205462dae32ca0211bbc7c19", "type": "electric_bike"}, {"fusion_lat": 0.0, "bike_id": "aef1dafb7a1fe296e17fcdb6ebf5268a", "fusion_lon": 0.0, "lon": -76.9557715, "lat": 38.887627, "is_reserved": 0, "is_disabled": 0, "rental_uris": {"android": "https://dc.lft.to/lastmile_qr_scan", "ios": "https://dc.lft.to/lastmile_qr_scan"}, "name": "aef1dafb7a1fe296e17fcdb6ebf5268a", "type": "electric_scooter"}, {"fusion_lat": 0.0, "bike_id": "b7ace834c18f88866137a1cb747bf005", "fusion_lon": 0.0, "lon": -76.99275633333333, "lat": 38.8960345, "is_reserved": 0, "is_disabled": 0, "rental_uris": {"android": "https://dc.lft.to/lastmile_qr_scan", "ios": "https://dc.lft.to/lastmile_qr_scan"}, "name": "b7ace834c18f88866137a1cb747bf005", "type": "electric_scooter"}, {"fusion_lat": 0.0, "bike_id": "9d08a65d4c8db3feb6b588f420049217", "fusion_lon": 0.0, "lon": -76.985352, "lat": 38.866771166666666, "is_reserved": 0, "is_disabled": 0, "rental_uris": {"android": "https://dc.lft.to/lastmile_qr_scan", "ios": "https://dc.lft.to/lastmile_qr_scan"}, "name": "9d08a65d4c8db3feb6b588f420049217", "type": "electric_scooter"}, {"fusion_lat": 0.0, "bike_id": "0fa97ae90c431c2de84b9d6ae596bfcc", "fusion_lon": 0.0, "lon": -76.90742033333333, "lat": 38.896141166666666, "is_reserved": 0, "is_disabled": 0, "rental_uris": {"android": "https://dc.lft.to/lastmile_qr_scan", "ios": "https://dc.lft.to/lastmile_qr_scan"}, "name": "0fa97ae90c431c2de84b9d6ae596bfcc", "type": "electric_bike"}, {"fusion_lat": 0.0, "bike_id": "c12f336cc1022b4527527ab9a7910f0d", "fusion_lon": 0.0, "lon": -77.02205116666667, "lat": 38.924692, "is_reserved": 0, "is_disabled": 0, "rental_uris": {"android": "https://dc.lft.to/lastmile_qr_scan", "ios": "https://dc.lft.to/lastmile_qr_scan"}, "name": "c12f336cc1022b4527527ab9a7910f0d", "type": "electric_scooter"}, {"fusion_lat": 0.0, "bike_id": "b744fb9c004d5bcaad0a2bdc8a8ce9b6", "fusion_lon": 0.0, "lon": -77.04676333333333, "lat": 38.895585833333335, "is_reserved": 0, "is_disabled": 0, "rental_uris": {"android": "https://dc.lft.to/lastmile_qr_scan", "ios": "https://dc.lft.to/lastmile_qr_scan"}, "name": "b744fb9c004d5bcaad0a2bdc8a8ce9b6", "type": "electric_scooter"}, {"fusion_lat": 0.0, "bike_id": "7c261912343b0b0b6b1ca0c98ece68ab", "fusion_lon": 0.0, "lon": -77.01769116666667, "lat": 38.87472533333333, "is_reserved": 0, "is_disabled": 0, "rental_uris": {"android": "https://dc.lft.to/lastmile_qr_scan", "ios": "https://dc.lft.to/lastmile_qr_scan"}, "name": "7c261912343b0b0b6b1ca0c98ece68ab", "type": "electric_scooter"}, {"fusion_lat": 0.0, "bike_id": "e4d8805b1880fc8bed4bab991ef9eaab", "fusion_lon": 0.0, "lon": -77.054803, "lat": 38.89782666666667, "is_reserved": 0, "is_disabled": 0, "rental_uris": {"android": "https://dc.lft.to/lastmile_qr_scan", "ios": "https://dc.lft.to/lastmile_qr_scan"}, "name": "e4d8805b1880fc8bed4bab991ef9eaab", "type": "electric_scooter"}, {"fusion_lat": 0.0, "bike_id": "ca8b2b0332206d6c6663d2bdfc4ae2b3", "fusion_lon": 0.0, "lon": -77.00531583333333, "lat": 38.90977783333334, "is_reserved": 0, "is_disabled": 0, "rental_uris": {"android": "https://dc.lft.to/lastmile_qr_scan", "ios": "https://dc.lft.to/lastmile_qr_scan"}, "name": "ca8b2b0332206d6c6663d2bdfc4ae2b3", "type": "electric_scooter"}, {"fusion_lat": 0.0, "bike_id": "7f69b5299cd7172316613b22c9dc4bd4", "fusion_lon": 0.0, "lon": -77.0262965, "lat": 38.93334883333333, "is_reserved": 0, "is_disabled": 0, "rental_uris": {"android": "https://dc.lft.to/lastmile_qr_scan", "ios": "https://dc.lft.to/lastmile_qr_scan"}, "name": "7f69b5299cd7172316613b22c9dc4bd4", "type": "electric_scooter"}, {"fusion_lat": 0.0, "bike_id": "cffc60206a6b2b1dacf1d3489cf6abb8", "fusion_lon": 0.0, "lon": -77.00965766666667, "lat": 38.917034, "is_reserved": 0, "is_disabled": 0, "rental_uris": {"android": "https://dc.lft.to/lastmile_qr_scan", "ios": "https://dc.lft.to/lastmile_qr_scan"}, "name": "cffc60206a6b2b1dacf1d3489cf6abb8", "type": "electric_scooter"}, {"fusion_lat": 0.0, "bike_id": "d980293563d82701117a96492b494b08", "fusion_lon": 0.0, "lon": -77.03654166666666, "lat": 38.931326166666665, "is_reserved": 0, "is_disabled": 0, "rental_uris": {"android": "https://dc.lft.to/lastmile_qr_scan", "ios": "https://dc.lft.to/lastmile_qr_scan"}, "name": "d980293563d82701117a96492b494b08", "type": "electric_scooter"}, {"fusion_lat": 0.0, "bike_id": "6c5b3aba2650479adf15e111cf2c1e1c", "fusion_lon": 0.0, "lon": -76.998729, "lat": 38.886394333333335, "is_reserved": 0, "is_disabled": 0, "rental_uris": {"android": "https://dc.lft.to/lastmile_qr_scan", "ios": "https://dc.lft.to/lastmile_qr_scan"}, "name": "6c5b3aba2650479adf15e111cf2c1e1c", "type": "electric_scooter"}, {"fusion_lat": 0.0, "bike_id": "49c4a7bfd458945e06ae1960e6e4b54d", "fusion_lon": 0.0, "lon": -77.03760516666667, "lat": 38.90777666666666, "is_reserved": 0, "is_disabled": 0, "rental_uris": {"android": "https://dc.lft.to/lastmile_qr_scan", "ios": "https://dc.lft.to/lastmile_qr_scan"}, "name": "49c4a7bfd458945e06ae1960e6e4b54d", "type": "electric_scooter"}, {"fusion_lat": 0.0, "bike_id": "908c9903280de136caddce8a23e9ddf0", "fusion_lon": 0.0, "lon": -77.05036833333334, "lat": 38.90547, "is_reserved": 0, "is_disabled": 0, "rental_uris": {"android": "https://dc.lft.to/lastmile_qr_scan", "ios": "https://dc.lft.to/lastmile_qr_scan"}, "name": "908c9903280de136caddce8a23e9ddf0", "type": "electric_scooter"}, {"fusion_lat": 0.0, "bike_id": "80b673f977b2ad936de8f5b0fad3a7f2", "fusion_lon": 0.0, "lon": -76.99566266666666, "lat": 38.851741, "is_reserved": 0, "is_disabled": 0, "rental_uris": {"android": "https://dc.lft.to/lastmile_qr_scan", "ios": "https://dc.lft.to/lastmile_qr_scan"}, "name": "80b673f977b2ad936de8f5b0fad3a7f2", "type": "electric_bike"}, {"fusion_lat": 0.0, "bike_id": "ac7a9705a98512f29910153521c71004", "fusion_lon": 0.0, "lon": -76.93368866666667, "lat": 38.8991385, "is_reserved": 0, "is_disabled": 0, "rental_uris": {"android": "https://dc.lft.to/lastmile_qr_scan", "ios": "https://dc.lft.to/lastmile_qr_scan"}, "name": "ac7a9705a98512f29910153521c71004", "type": "electric_scooter"}, {"fusion_lat": 0.0, "bike_id": "81431f226798e89a8feb4479d82a0eff", "fusion_lon": 0.0, "lon": -76.974776, "lat": 38.903503666666666, "is_reserved": 0, "is_disabled": 0, "rental_uris": {"android": "https://dc.lft.to/lastmile_qr_scan", "ios": "https://dc.lft.to/lastmile_qr_scan"}, "name": "81431f226798e89a8feb4479d82a0eff", "type": "electric_scooter"}, {"fusion_lat": 0.0, "bike_id": "891f75a4f03957c2b168cda9f2104cd7", "fusion_lon": 0.0, "lon": -77.0531405, "lat": 38.915488833333335, "is_reserved": 0, "is_disabled": 0, "rental_uris": {"android": "https://dc.lft.to/lastmile_qr_scan", "ios": "https://dc.lft.to/lastmile_qr_scan"}, "name": "891f75a4f03957c2b168cda9f2104cd7", "type": "electric_scooter"}, {"fusion_lat": 0.0, "bike_id": "93cc9996a1b6d9ed33b42faabe3da6c4", "fusion_lon": 0.0, "lon": -77.0198825, "lat": 38.915618, "is_reserved": 0, "is_disabled": 0, "rental_uris": {"android": "https://dc.lft.to/lastmile_qr_scan", "ios": "https://dc.lft.to/lastmile_qr_scan"}, "name": "93cc9996a1b6d9ed33b42faabe3da6c4", "type": "electric_scooter"}, {"fusion_lat": 0.0, "bike_id": "bae19a9336e99def44f4296266d9b50c", "fusion_lon": 0.0, "lon": -76.94880583333334, "lat": 38.894257, "is_reserved": 0, "is_disabled": 0, "rental_uris": {"android": "https://dc.lft.to/lastmile_qr_scan", "ios": "https://dc.lft.to/lastmile_qr_scan"}, "name": "bae19a9336e99def44f4296266d9b50c", "type": "electric_scooter"}, {"fusion_lat": 0.0, "bike_id": "000aaf5bac498367b7fdb6e2685fb315", "fusion_lon": 0.0, "lon": -77.02889566666667, "lat": 38.932768833333334, "is_reserved": 0, "is_disabled": 0, "rental_uris": {"android": "https://dc.lft.to/lastmile_qr_scan", "ios": "https://dc.lft.to/lastmile_qr_scan"}, "name": "000aaf5bac498367b7fdb6e2685fb315", "type": "electric_scooter"}, {"fusion_lat": 0.0, "bike_id": "b3bf4b43e6446e71253d673ca3077a4c", "fusion_lon": 0.0, "lon": -77.053108, "lat": 38.9065805, "is_reserved": 0, "is_disabled": 0, "rental_uris": {"android": "https://dc.lft.to/lastmile_qr_scan", "ios": "https://dc.lft.to/lastmile_qr_scan"}, "name": "b3bf4b43e6446e71253d673ca3077a4c", "type": "electric_scooter"}, {"fusion_lat": 0.0, "bike_id": "dfcbba9e23381199fe82500730ca0ae6", "fusion_lon": 0.0, "lon": -77.0054255, "lat": 38.87456483333333, "is_reserved": 0, "is_disabled": 0, "rental_uris": {"android": "https://dc.lft.to/lastmile_qr_scan", "ios": "https://dc.lft.to/lastmile_qr_scan"}, "name": "dfcbba9e23381199fe82500730ca0ae6", "type": "electric_scooter"}, {"fusion_lat": 0.0, "bike_id": "a1578eed871f6ffe7c414023bae65538", "fusion_lon": 0.0, "lon": -77.04009066666667, "lat": 38.907749, "is_reserved": 0, "is_disabled": 0, "rental_uris": {"android": "https://dc.lft.to/lastmile_qr_scan", "ios": "https://dc.lft.to/lastmile_qr_scan"}, "name": "a1578eed871f6ffe7c414023bae65538", "type": "electric_scooter"}, {"fusion_lat": 0.0, "bike_id": "a2a89d07171a0fc5f81d0df6db6c5e23", "fusion_lon": 0.0, "lon": -77.02701066666667, "lat": 38.949915, "is_reserved": 0, "is_disabled": 0, "rental_uris": {"android": "https://dc.lft.to/lastmile_qr_scan", "ios": "https://dc.lft.to/lastmile_qr_scan"}, "name": "a2a89d07171a0fc5f81d0df6db6c5e23", "type": "electric_scooter"}, {"fusion_lat": 0.0, "bike_id": "5444916939a848e6d5927d7385d07c42", "fusion_lon": 0.0, "lon": -77.00563383333333, "lat": 38.87548133333333, "is_reserved": 0, "is_disabled": 0, "rental_uris": {"android": "https://dc.lft.to/lastmile_qr_scan", "ios": "https://dc.lft.to/lastmile_qr_scan"}, "name": "5444916939a848e6d5927d7385d07c42", "type": "electric_scooter"}, {"fusion_lat": 0.0, "bike_id": "8a5e9d03da9c68aa371c51f068d80c01", "fusion_lon": 0.0, "lon": -77.026749, "lat": 38.92682516666667, "is_reserved": 0, "is_disabled": 0, "rental_uris": {"android": "https://dc.lft.to/lastmile_qr_scan", "ios": "https://dc.lft.to/lastmile_qr_scan"}, "name": "8a5e9d03da9c68aa371c51f068d80c01", "type": "electric_scooter"}, {"fusion_lat": 0.0, "bike_id": "4980fed47dc31eafaa5d958578d713ad", "fusion_lon": 0.0, "lon": -77.0321555, "lat": 38.912422166666666, "is_reserved": 0, "is_disabled": 0, "rental_uris": {"android": "https://dc.lft.to/lastmile_qr_scan", "ios": "https://dc.lft.to/lastmile_qr_scan"}, "name": "4980fed47dc31eafaa5d958578d713ad", "type": "electric_scooter"}, {"fusion_lat": 0.0, "bike_id": "b3c0b006f8eddad7a600a2903944e70d", "fusion_lon": 0.0, "lon": -77.0450085, "lat": 38.8921975, "is_reserved": 0, "is_disabled": 0, "rental_uris": {"android": "https://dc.lft.to/lastmile_qr_scan", "ios": "https://dc.lft.to/lastmile_qr_scan"}, "name": "b3c0b006f8eddad7a600a2903944e70d", "type": "electric_scooter"}, {"fusion_lat": 0.0, "bike_id": "c2434d7217791484c4da803c94df5b2e", "fusion_lon": 0.0, "lon": -77.01888433333333, "lat": 38.93087116666667, "is_reserved": 0, "is_disabled": 0, "rental_uris": {"android": "https://dc.lft.to/lastmile_qr_scan", "ios": "https://dc.lft.to/lastmile_qr_scan"}, "name": "c2434d7217791484c4da803c94df5b2e", "type": "electric_scooter"}, {"fusion_lat": 0.0, "bike_id": "cf42949ebfb70955d68367921e1cd216", "fusion_lon": 0.0, "lon": -76.92956333333333, "lat": 38.884496, "is_reserved": 0, "is_disabled": 0, "rental_uris": {"android": "https://dc.lft.to/lastmile_qr_scan", "ios": "https://dc.lft.to/lastmile_qr_scan"}, "name": "cf42949ebfb70955d68367921e1cd216", "type": "electric_scooter"}, {"fusion_lat": 0.0, "bike_id": "62a0f75bfc4fa1e4106b67eadf8e356e", "fusion_lon": 0.0, "lon": -77.0441995, "lat": 38.8972575, "is_reserved": 0, "is_disabled": 0, "rental_uris": {"android": "https://dc.lft.to/lastmile_qr_scan", "ios": "https://dc.lft.to/lastmile_qr_scan"}, "name": "62a0f75bfc4fa1e4106b67eadf8e356e", "type": "electric_scooter"}, {"fusion_lat": 0.0, "bike_id": "eb85d120b7b9327a42965d90452e263d", "fusion_lon": 0.0, "lon": -77.0433295, "lat": 38.8921975, "is_reserved": 0, "is_disabled": 0, "rental_uris": {"android": "https://dc.lft.to/lastmile_qr_scan", "ios": "https://dc.lft.to/lastmile_qr_scan"}, "name": "eb85d120b7b9327a42965d90452e263d", "type": "electric_scooter"}, {"fusion_lat": 0.0, "bike_id": "9330dc59f23f8f205edc769fac69689d", "fusion_lon": 0.0, "lon": -76.97729033333333, "lat": 38.87238883333333, "is_reserved": 0, "is_disabled": 0, "rental_uris": {"android": "https://dc.lft.to/lastmile_qr_scan", "ios": "https://dc.lft.to/lastmile_qr_scan"}, "name": "9330dc59f23f8f205edc769fac69689d", "type": "electric_scooter"}, {"fusion_lat": 0.0, "bike_id": "fd359e3453ca063d3dfc9cc6ea54d6f1", "fusion_lon": 0.0, "lon": -77.02462083333333, "lat": 38.91401916666667, "is_reserved": 0, "is_disabled": 0, "rental_uris": {"android": "https://dc.lft.to/lastmile_qr_scan", "ios": "https://dc.lft.to/lastmile_qr_scan"}, "name": "fd359e3453ca063d3dfc9cc6ea54d6f1", "type": "electric_scooter"}, {"fusion_lat": 0.0, "bike_id": "3e799903748515761ea55774f8d8fb77", "fusion_lon": 0.0, "lon": -77.0384145, "lat": 38.917516166666665, "is_reserved": 0, "is_disabled": 0, "rental_uris": {"android": "https://dc.lft.to/lastmile_qr_scan", "ios": "https://dc.lft.to/lastmile_qr_scan"}, "name": "3e799903748515761ea55774f8d8fb77", "type": "electric_scooter"}, {"fusion_lat": 0.0, "bike_id": "b4f01a78bcc25f4838a5acaaf2ada68b", "fusion_lon": 0.0, "lon": -77.023829, "lat": 38.89229233333333, "is_reserved": 0, "is_disabled": 0, "rental_uris": {"android": "https://dc.lft.to/lastmile_qr_scan", "ios": "https://dc.lft.to/lastmile_qr_scan"}, "name": "b4f01a78bcc25f4838a5acaaf2ada68b", "type": "electric_scooter"}, {"fusion_lat": 0.0, "bike_id": "fccc74ce0dab2b5e6a010834294d9112", "fusion_lon": 0.0, "lon": -77.114509, "lat": 38.88228816666667, "is_reserved": 0, "is_disabled": 0, "rental_uris": {"android": "https://dc.lft.to/lastmile_qr_scan", "ios": "https://dc.lft.to/lastmile_qr_scan"}, "name": "fccc74ce0dab2b5e6a010834294d9112", "type": "electric_bike"}, {"fusion_lat": 0.0, "bike_id": "a24476641450784674ad25fef5437188", "fusion_lon": 0.0, "lon": -77.04110466666667, "lat": 38.9024395, "is_reserved": 0, "is_disabled": 0, "rental_uris": {"android": "https://dc.lft.to/lastmile_qr_scan", "ios": "https://dc.lft.to/lastmile_qr_scan"}, "name": "a24476641450784674ad25fef5437188", "type": "electric_scooter"}, {"fusion_lat": 0.0, "bike_id": "bcc902889ca068506f835c446d51e2c9", "fusion_lon": 0.0, "lon": -77.04866283333334, "lat": 38.892219, "is_reserved": 0, "is_disabled": 0, "rental_uris": {"android": "https://dc.lft.to/lastmile_qr_scan", "ios": "https://dc.lft.to/lastmile_qr_scan"}, "name": "bcc902889ca068506f835c446d51e2c9", "type": "electric_scooter"}, {"fusion_lat": 0.0, "bike_id": "d21e0765586fe97f9a02374feb3483c5", "fusion_lon": 0.0, "lon": -76.982322, "lat": 38.86891283333333, "is_reserved": 0, "is_disabled": 0, "rental_uris": {"android": "https://dc.lft.to/lastmile_qr_scan", "ios": "https://dc.lft.to/lastmile_qr_scan"}, "name": "d21e0765586fe97f9a02374feb3483c5", "type": "electric_scooter"}, {"fusion_lat": 0.0, "bike_id": "aa240432c0f5d547b1d5025689d8cba8", "fusion_lon": 0.0, "lon": -77.03280133333334, "lat": 38.9199595, "is_reserved": 0, "is_disabled": 0, "rental_uris": {"android": "https://dc.lft.to/lastmile_qr_scan", "ios": "https://dc.lft.to/lastmile_qr_scan"}, "name": "aa240432c0f5d547b1d5025689d8cba8", "type": "electric_scooter"}, {"fusion_lat": 0.0, "bike_id": "bc2cefe66a0ca21d7d76c5b172ec1288", "fusion_lon": 0.0, "lon": -77.01047633333333, "lat": 38.89752033333333, "is_reserved": 0, "is_disabled": 0, "rental_uris": {"android": "https://dc.lft.to/lastmile_qr_scan", "ios": "https://dc.lft.to/lastmile_qr_scan"}, "name": "bc2cefe66a0ca21d7d76c5b172ec1288", "type": "electric_scooter"}, {"fusion_lat": 0.0, "bike_id": "a766bf3b672a9829b93a5504764e1da8", "fusion_lon": 0.0, "lon": -77.023921, "lat": 38.920412166666665, "is_reserved": 0, "is_disabled": 0, "rental_uris": {"android": "https://dc.lft.to/lastmile_qr_scan", "ios": "https://dc.lft.to/lastmile_qr_scan"}, "name": "a766bf3b672a9829b93a5504764e1da8", "type": "electric_scooter"}, {"fusion_lat": 0.0, "bike_id": "ca0e6f59cb56296b8ad17998a4ab936d", "fusion_lon": 0.0, "lon": -77.0362185, "lat": 38.917221833333336, "is_reserved": 0, "is_disabled": 0, "rental_uris": {"android": "https://dc.lft.to/lastmile_qr_scan", "ios": "https://dc.lft.to/lastmile_qr_scan"}, "name": "ca0e6f59cb56296b8ad17998a4ab936d", "type": "electric_scooter"}, {"fusion_lat": 0.0, "bike_id": "82a5f05a78770dbc20b0d2f9e8a1a4a6", "fusion_lon": 0.0, "lon": -76.987135, "lat": 38.86697, "is_reserved": 0, "is_disabled": 0, "rental_uris": {"android": "https://dc.lft.to/lastmile_qr_scan", "ios": "https://dc.lft.to/lastmile_qr_scan"}, "name": "82a5f05a78770dbc20b0d2f9e8a1a4a6", "type": "electric_scooter"}, {"fusion_lat": 0.0, "bike_id": "eddc4a227be2708ad773a833289f5ef8", "fusion_lon": 0.0, "lon": -77.05410516666667, "lat": 38.927452, "is_reserved": 0, "is_disabled": 0, "rental_uris": {"android": "https://dc.lft.to/lastmile_qr_scan", "ios": "https://dc.lft.to/lastmile_qr_scan"}, "name": "eddc4a227be2708ad773a833289f5ef8", "type": "electric_scooter"}, {"fusion_lat": 0.0, "bike_id": "9611d09f170c94e63c699072be4b99e4", "fusion_lon": 0.0, "lon": -76.9993525, "lat": 38.8431415, "is_reserved": 0, "is_disabled": 0, "rental_uris": {"android": "https://dc.lft.to/lastmile_qr_scan", "ios": "https://dc.lft.to/lastmile_qr_scan"}, "name": "9611d09f170c94e63c699072be4b99e4", "type": "electric_scooter"}, {"fusion_lat": 0.0, "bike_id": "a2ffeb8e25ac676bab7ec80ad99d47ad", "fusion_lon": 0.0, "lon": -77.02457583333333, "lat": 38.937435, "is_reserved": 0, "is_disabled": 0, "rental_uris": {"android": "https://dc.lft.to/lastmile_qr_scan", "ios": "https://dc.lft.to/lastmile_qr_scan"}, "name": "a2ffeb8e25ac676bab7ec80ad99d47ad", "type": "electric_scooter"}, {"fusion_lat": 0.0, "bike_id": "cd4b90b10491b999477a229f0796ff35", "fusion_lon": 0.0, "lon": -76.93058083333334, "lat": 38.898481, "is_reserved": 0, "is_disabled": 0, "rental_uris": {"android": "https://dc.lft.to/lastmile_qr_scan", "ios": "https://dc.lft.to/lastmile_qr_scan"}, "name": "cd4b90b10491b999477a229f0796ff35", "type": "electric_scooter"}, {"fusion_lat": 0.0, "bike_id": "36caf0c5c44aeae5d8330131ab4b1e80", "fusion_lon": 0.0, "lon": -77.03210066666666, "lat": 38.913843166666666, "is_reserved": 0, "is_disabled": 0, "rental_uris": {"android": "https://dc.lft.to/lastmile_qr_scan", "ios": "https://dc.lft.to/lastmile_qr_scan"}, "name": "36caf0c5c44aeae5d8330131ab4b1e80", "type": "electric_scooter"}, {"fusion_lat": 0.0, "bike_id": "40283fabb09bdf01a55cc5589198ec59", "fusion_lon": 0.0, "lon": -77.02352233333333, "lat": 38.93166733333333, "is_reserved": 0, "is_disabled": 0, "rental_uris": {"android": "https://dc.lft.to/lastmile_qr_scan", "ios": "https://dc.lft.to/lastmile_qr_scan"}, "name": "40283fabb09bdf01a55cc5589198ec59", "type": "electric_scooter"}, {"fusion_lat": 0.0, "bike_id": "733e75a548854c4c7b5c3965ff391cc8", "fusion_lon": 0.0, "lon": -77.04095116666667, "lat": 38.91561566666667, "is_reserved": 0, "is_disabled": 0, "rental_uris": {"android": "https://dc.lft.to/lastmile_qr_scan", "ios": "https://dc.lft.to/lastmile_qr_scan"}, "name": "733e75a548854c4c7b5c3965ff391cc8", "type": "electric_scooter"}, {"fusion_lat": 0.0, "bike_id": "cdbfdcd5be0914dac3d6862d98d70760", "fusion_lon": 0.0, "lon": -77.031835, "lat": 38.91833333333334, "is_reserved": 0, "is_disabled": 0, "rental_uris": {"android": "https://dc.lft.to/lastmile_qr_scan", "ios": "https://dc.lft.to/lastmile_qr_scan"}, "name": "cdbfdcd5be0914dac3d6862d98d70760", "type": "electric_scooter"}, {"fusion_lat": 0.0, "bike_id": "e328e8a9a04808647a90b6681eb8a8b8", "fusion_lon": 0.0, "lon": -77.07710483333334, "lat": 38.92523933333333, "is_reserved": 0, "is_disabled": 0, "rental_uris": {"android": "https://dc.lft.to/lastmile_qr_scan", "ios": "https://dc.lft.to/lastmile_qr_scan"}, "name": "e328e8a9a04808647a90b6681eb8a8b8", "type": "electric_scooter"}, {"fusion_lat": 0.0, "bike_id": "7c5516bbf07f4b8f17589e2758f97b67", "fusion_lon": 0.0, "lon": -77.0261405, "lat": 38.975706333333335, "is_reserved": 0, "is_disabled": 0, "rental_uris": {"android": "https://dc.lft.to/lastmile_qr_scan", "ios": "https://dc.lft.to/lastmile_qr_scan"}, "name": "7c5516bbf07f4b8f17589e2758f97b67", "type": "electric_scooter"}, {"fusion_lat": 0.0, "bike_id": "8e82fa0ba88f10eafc287f93c5c08be4", "fusion_lon": 0.0, "lon": -77.03329033333333, "lat": 38.90120366666667, "is_reserved": 0, "is_disabled": 0, "rental_uris": {"android": "https://dc.lft.to/lastmile_qr_scan", "ios": "https://dc.lft.to/lastmile_qr_scan"}, "name": "8e82fa0ba88f10eafc287f93c5c08be4", "type": "electric_scooter"}, {"fusion_lat": 0.0, "bike_id": "778181cd46b1413abe9a9c1eedb2d80b", "fusion_lon": 0.0, "lon": -77.02354716666666, "lat": 38.935314166666664, "is_reserved": 0, "is_disabled": 0, "rental_uris": {"android": "https://dc.lft.to/lastmile_qr_scan", "ios": "https://dc.lft.to/lastmile_qr_scan"}, "name": "778181cd46b1413abe9a9c1eedb2d80b", "type": "electric_scooter"}, {"fusion_lat": 0.0, "bike_id": "3d8621ea044a06cdd241798fdc85e36f", "fusion_lon": 0.0, "lon": -77.0427155, "lat": 38.9222965, "is_reserved": 0, "is_disabled": 0, "rental_uris": {"android": "https://dc.lft.to/lastmile_qr_scan", "ios": "https://dc.lft.to/lastmile_qr_scan"}, "name": "3d8621ea044a06cdd241798fdc85e36f", "type": "electric_scooter"}, {"fusion_lat": 0.0, "bike_id": "4bc6932d5d49cf65d157afe8c32d0fdd", "fusion_lon": 0.0, "lon": -77.0247805, "lat": 38.919258666666664, "is_reserved": 0, "is_disabled": 0, "rental_uris": {"android": "https://dc.lft.to/lastmile_qr_scan", "ios": "https://dc.lft.to/lastmile_qr_scan"}, "name": "4bc6932d5d49cf65d157afe8c32d0fdd", "type": "electric_scooter"}, {"fusion_lat": 0.0, "bike_id": "c96fba4cd65586e37c49b50a81335a4a", "fusion_lon": 0.0, "lon": -77.0316875, "lat": 38.897789333333336, "is_reserved": 0, "is_disabled": 0, "rental_uris": {"android": "https://dc.lft.to/lastmile_qr_scan", "ios": "https://dc.lft.to/lastmile_qr_scan"}, "name": "c96fba4cd65586e37c49b50a81335a4a", "type": "electric_scooter"}, {"fusion_lat": 0.0, "bike_id": "4cfc34ff39f54fdaca0c9880ba42dd91", "fusion_lon": 0.0, "lon": -77.03201833333334, "lat": 38.915705833333334, "is_reserved": 0, "is_disabled": 0, "rental_uris": {"android": "https://dc.lft.to/lastmile_qr_scan", "ios": "https://dc.lft.to/lastmile_qr_scan"}, "name": "4cfc34ff39f54fdaca0c9880ba42dd91", "type": "electric_scooter"}, {"fusion_lat": 0.0, "bike_id": "45791a77fbb9fb4d3e75d4b48cf3590b", "fusion_lon": 0.0, "lon": -77.03116233333333, "lat": 38.89219416666667, "is_reserved": 0, "is_disabled": 0, "rental_uris": {"android": "https://dc.lft.to/lastmile_qr_scan", "ios": "https://dc.lft.to/lastmile_qr_scan"}, "name": "45791a77fbb9fb4d3e75d4b48cf3590b", "type": "electric_scooter"}, {"fusion_lat": 0.0, "bike_id": "4c9f5cf32ff9854debec126e2fee9db2", "fusion_lon": 0.0, "lon": -77.03422183333333, "lat": 38.91707433333333, "is_reserved": 0, "is_disabled": 0, "rental_uris": {"android": "https://dc.lft.to/lastmile_qr_scan", "ios": "https://dc.lft.to/lastmile_qr_scan"}, "name": "4c9f5cf32ff9854debec126e2fee9db2", "type": "electric_scooter"}, {"fusion_lat": 0.0, "bike_id": "13e645a0ba2b7e4d1ff1f2e7a8487539", "fusion_lon": 0.0, "lon": -76.98900033333334, "lat": 38.91342016666667, "is_reserved": 0, "is_disabled": 0, "rental_uris": {"android": "https://dc.lft.to/lastmile_qr_scan", "ios": "https://dc.lft.to/lastmile_qr_scan"}, "name": "13e645a0ba2b7e4d1ff1f2e7a8487539", "type": "electric_scooter"}, {"fusion_lat": 0.0, "bike_id": "c75aed1370e150dee8d84a49ed14801a", "fusion_lon": 0.0, "lon": -77.021742, "lat": 38.94291533333333, "is_reserved": 0, "is_disabled": 0, "rental_uris": {"android": "https://dc.lft.to/lastmile_qr_scan", "ios": "https://dc.lft.to/lastmile_qr_scan"}, "name": "c75aed1370e150dee8d84a49ed14801a", "type": "electric_scooter"}, {"fusion_lat": 0.0, "bike_id": "091ff5650f3d6d0f40def890fe3403f9", "fusion_lon": 0.0, "lon": -77.041749, "lat": 38.917644833333334, "is_reserved": 0, "is_disabled": 0, "rental_uris": {"android": "https://dc.lft.to/lastmile_qr_scan", "ios": "https://dc.lft.to/lastmile_qr_scan"}, "name": "091ff5650f3d6d0f40def890fe3403f9", "type": "electric_scooter"}, {"fusion_lat": 0.0, "bike_id": "5e67ae3538a1a03090c87fbf49e0f7a3", "fusion_lon": 0.0, "lon": -77.07455, "lat": 38.945066833333335, "is_reserved": 0, "is_disabled": 0, "rental_uris": {"android": "https://dc.lft.to/lastmile_qr_scan", "ios": "https://dc.lft.to/lastmile_qr_scan"}, "name": "5e67ae3538a1a03090c87fbf49e0f7a3", "type": "electric_scooter"}, {"fusion_lat": 0.0, "bike_id": "b087d0b1906e41d7d3820a9246868f7d", "fusion_lon": 0.0, "lon": -77.02183433333333, "lat": 38.91273866666667, "is_reserved": 0, "is_disabled": 0, "rental_uris": {"android": "https://dc.lft.to/lastmile_qr_scan", "ios": "https://dc.lft.to/lastmile_qr_scan"}, "name": "b087d0b1906e41d7d3820a9246868f7d", "type": "electric_scooter"}, {"fusion_lat": 0.0, "bike_id": "ad6e45f10a20d1ee9c07c738e5443a7f", "fusion_lon": 0.0, "lon": -77.02594733333333, "lat": 38.905472833333334, "is_reserved": 0, "is_disabled": 0, "rental_uris": {"android": "https://dc.lft.to/lastmile_qr_scan", "ios": "https://dc.lft.to/lastmile_qr_scan"}, "name": "ad6e45f10a20d1ee9c07c738e5443a7f", "type": "electric_scooter"}, {"fusion_lat": 0.0, "bike_id": "d5a239550e2a74d7af304b1a7431bf17", "fusion_lon": 0.0, "lon": -77.03164716666667, "lat": 38.892174, "is_reserved": 0, "is_disabled": 0, "rental_uris": {"android": "https://dc.lft.to/lastmile_qr_scan", "ios": "https://dc.lft.to/lastmile_qr_scan"}, "name": "d5a239550e2a74d7af304b1a7431bf17", "type": "electric_scooter"}, {"fusion_lat": 0.0, "bike_id": "5a5978b2f3e249695c0a69e0f63d18d1", "fusion_lon": 0.0, "lon": -77.03466283333333, "lat": 38.917129333333335, "is_reserved": 0, "is_disabled": 0, "rental_uris": {"android": "https://dc.lft.to/lastmile_qr_scan", "ios": "https://dc.lft.to/lastmile_qr_scan"}, "name": "5a5978b2f3e249695c0a69e0f63d18d1", "type": "electric_scooter"}, {"fusion_lat": 0.0, "bike_id": "d3994f087eae122715619aa1dc56ff4f", "fusion_lon": 0.0, "lon": -77.12527583333333, "lat": 39.056299333333335, "is_reserved": 0, "is_disabled": 0, "rental_uris": {"android": "https://dc.lft.to/lastmile_qr_scan", "ios": "https://dc.lft.to/lastmile_qr_scan"}, "name": "d3994f087eae122715619aa1dc56ff4f", "type": "electric_bike"}, {"fusion_lat": 0.0, "bike_id": "564fe0c9de5a0e31fa31164e209e89c6", "fusion_lon": 0.0, "lon": -77.04372433333333, "lat": 38.892167666666666, "is_reserved": 0, "is_disabled": 0, "rental_uris": {"android": "https://dc.lft.to/lastmile_qr_scan", "ios": "https://dc.lft.to/lastmile_qr_scan"}, "name": "564fe0c9de5a0e31fa31164e209e89c6", "type": "electric_scooter"}, {"fusion_lat": 0.0, "bike_id": "e09e1aabd2423bde040bd0f141333360", "fusion_lon": 0.0, "lon": -76.93477283333333, "lat": 38.8949795, "is_reserved": 0, "is_disabled": 0, "rental_uris": {"android": "https://dc.lft.to/lastmile_qr_scan", "ios": "https://dc.lft.to/lastmile_qr_scan"}, "name": "e09e1aabd2423bde040bd0f141333360", "type": "electric_scooter"}, {"fusion_lat": 0.0, "bike_id": "3199808494899603c19a18b5cfb8637d", "fusion_lon": 0.0, "lon": -77.03359366666666, "lat": 38.9033705, "is_reserved": 0, "is_disabled": 0, "rental_uris": {"android": "https://dc.lft.to/lastmile_qr_scan", "ios": "https://dc.lft.to/lastmile_qr_scan"}, "name": "3199808494899603c19a18b5cfb8637d", "type": "electric_scooter"}, {"fusion_lat": 0.0, "bike_id": "6d18cde7db3b94855bdff780981d6d20", "fusion_lon": 0.0, "lon": -77.026113, "lat": 38.899122, "is_reserved": 0, "is_disabled": 0, "rental_uris": {"android": "https://dc.lft.to/lastmile_qr_scan", "ios": "https://dc.lft.to/lastmile_qr_scan"}, "name": "6d18cde7db3b94855bdff780981d6d20", "type": "electric_scooter"}, {"fusion_lat": 0.0, "bike_id": "3afa0021c9237a516c629cbe6c75ae9c", "fusion_lon": 0.0, "lon": -76.990088, "lat": 38.882648833333334, "is_reserved": 0, "is_disabled": 0, "rental_uris": {"android": "https://dc.lft.to/lastmile_qr_scan", "ios": "https://dc.lft.to/lastmile_qr_scan"}, "name": "3afa0021c9237a516c629cbe6c75ae9c", "type": "electric_scooter"}, {"fusion_lat": 0.0, "bike_id": "97cb16b3d934a2c817e9434d9e411efd", "fusion_lon": 0.0, "lon": -77.02486066666667, "lat": 38.917002, "is_reserved": 0, "is_disabled": 0, "rental_uris": {"android": "https://dc.lft.to/lastmile_qr_scan", "ios": "https://dc.lft.to/lastmile_qr_scan"}, "name": "97cb16b3d934a2c817e9434d9e411efd", "type": "electric_scooter"}, {"fusion_lat": 0.0, "bike_id": "1d4ed7c029eeb2190ae7b72ea6449ccc", "fusion_lon": 0.0, "lon": -76.99933216666666, "lat": 38.843093833333334, "is_reserved": 0, "is_disabled": 0, "rental_uris": {"android": "https://dc.lft.to/lastmile_qr_scan", "ios": "https://dc.lft.to/lastmile_qr_scan"}, "name": "1d4ed7c029eeb2190ae7b72ea6449ccc", "type": "electric_scooter"}, {"fusion_lat": 0.0, "bike_id": "42e228f6ca90dd8e365d29070c053e53", "fusion_lon": 0.0, "lon": -77.03180566666667, "lat": 38.90375516666667, "is_reserved": 0, "is_disabled": 0, "rental_uris": {"android": "https://dc.lft.to/lastmile_qr_scan", "ios": "https://dc.lft.to/lastmile_qr_scan"}, "name": "42e228f6ca90dd8e365d29070c053e53", "type": "electric_scooter"}, {"fusion_lat": 0.0, "bike_id": "d256817328ea8311a58cf2416a4ffb13", "fusion_lon": 0.0, "lon": -77.034665, "lat": 38.902895, "is_reserved": 0, "is_disabled": 0, "rental_uris": {"android": "https://dc.lft.to/lastmile_qr_scan", "ios": "https://dc.lft.to/lastmile_qr_scan"}, "name": "d256817328ea8311a58cf2416a4ffb13", "type": "electric_scooter"}, {"fusion_lat": 0.0, "bike_id": "0c44efe1c54771c69e7f4d68efcfdaea", "fusion_lon": 0.0, "lon": -77.02841283333333, "lat": 38.93417916666667, "is_reserved": 0, "is_disabled": 0, "rental_uris": {"android": "https://dc.lft.to/lastmile_qr_scan", "ios": "https://dc.lft.to/lastmile_qr_scan"}, "name": "0c44efe1c54771c69e7f4d68efcfdaea", "type": "electric_scooter"}, {"fusion_lat": 0.0, "bike_id": "841849cb95a611f525c65cd4ff3c350a", "fusion_lon": 0.0, "lon": -77.03841133333333, "lat": 38.91756266666667, "is_reserved": 0, "is_disabled": 0, "rental_uris": {"android": "https://dc.lft.to/lastmile_qr_scan", "ios": "https://dc.lft.to/lastmile_qr_scan"}, "name": "841849cb95a611f525c65cd4ff3c350a", "type": "electric_scooter"}, {"fusion_lat": 0.0, "bike_id": "7ff8cae1ede6420f858c5bf3265ad15b", "fusion_lon": 0.0, "lon": -77.038114, "lat": 38.99668366666667, "is_reserved": 0, "is_disabled": 0, "rental_uris": {"android": "https://dc.lft.to/lastmile_qr_scan", "ios": "https://dc.lft.to/lastmile_qr_scan"}, "name": "7ff8cae1ede6420f858c5bf3265ad15b", "type": "electric_bike"}, {"fusion_lat": 0.0, "bike_id": "7647291103c6bef3198d02a83bb9e4c4", "fusion_lon": 0.0, "lon": -77.02097933333333, "lat": 38.93259883333333, "is_reserved": 0, "is_disabled": 0, "rental_uris": {"android": "https://dc.lft.to/lastmile_qr_scan", "ios": "https://dc.lft.to/lastmile_qr_scan"}, "name": "7647291103c6bef3198d02a83bb9e4c4", "type": "electric_scooter"}, {"fusion_lat": 0.0, "bike_id": "b01313cd779ef7600d6dbc663ffd1627", "fusion_lon": 0.0, "lon": -77.046656, "lat": 38.911004, "is_reserved": 0, "is_disabled": 0, "rental_uris": {"android": "https://dc.lft.to/lastmile_qr_scan", "ios": "https://dc.lft.to/lastmile_qr_scan"}, "name": "b01313cd779ef7600d6dbc663ffd1627", "type": "electric_scooter"}, {"fusion_lat": 0.0, "bike_id": "244b5ee421c243de2a80f13cf7373323", "fusion_lon": 0.0, "lon": -77.01465633333333, "lat": 38.87932683333333, "is_reserved": 0, "is_disabled": 0, "rental_uris": {"android": "https://dc.lft.to/lastmile_qr_scan", "ios": "https://dc.lft.to/lastmile_qr_scan"}, "name": "244b5ee421c243de2a80f13cf7373323", "type": "electric_scooter"}, {"fusion_lat": 0.0, "bike_id": "87baf0906091976930e806f06a56cab0", "fusion_lon": 0.0, "lon": -77.03505683333333, "lat": 38.921501166666665, "is_reserved": 0, "is_disabled": 0, "rental_uris": {"android": "https://dc.lft.to/lastmile_qr_scan", "ios": "https://dc.lft.to/lastmile_qr_scan"}, "name": "87baf0906091976930e806f06a56cab0", "type": "electric_scooter"}, {"fusion_lat": 0.0, "bike_id": "1a55d4c80a939ab4e92f0ab62126dcba", "fusion_lon": 0.0, "lon": -77.02173483333333, "lat": 38.942944, "is_reserved": 0, "is_disabled": 0, "rental_uris": {"android": "https://dc.lft.to/lastmile_qr_scan", "ios": "https://dc.lft.to/lastmile_qr_scan"}, "name": "1a55d4c80a939ab4e92f0ab62126dcba", "type": "electric_scooter"}, {"fusion_lat": 0.0, "bike_id": "6a649ce4ffa2e27db0de3084b9106738", "fusion_lon": 0.0, "lon": -77.02902233333333, "lat": 38.92729216666667, "is_reserved": 0, "is_disabled": 0, "rental_uris": {"android": "https://dc.lft.to/lastmile_qr_scan", "ios": "https://dc.lft.to/lastmile_qr_scan"}, "name": "6a649ce4ffa2e27db0de3084b9106738", "type": "electric_bike"}, {"fusion_lat": 0.0, "bike_id": "28650fb4f659f0769dfd267ecd740c35", "fusion_lon": 0.0, "lon": -76.997847, "lat": 38.84420733333333, "is_reserved": 0, "is_disabled": 0, "rental_uris": {"android": "https://dc.lft.to/lastmile_qr_scan", "ios": "https://dc.lft.to/lastmile_qr_scan"}, "name": "28650fb4f659f0769dfd267ecd740c35", "type": "electric_scooter"}, {"fusion_lat": 0.0, "bike_id": "482045e2803327b6a10abf04e7d73981", "fusion_lon": 0.0, "lon": -77.0061, "lat": 38.906694, "is_reserved": 0, "is_disabled": 0, "rental_uris": {"android": "https://dc.lft.to/lastmile_qr_scan", "ios": "https://dc.lft.to/lastmile_qr_scan"}, "name": "482045e2803327b6a10abf04e7d73981", "type": "electric_bike"}, {"fusion_lat": 0.0, "bike_id": "9b7095eed8a70091c43349255b2fddc8", "fusion_lon": 0.0, "lon": -76.94728033333334, "lat": 38.897412833333334, "is_reserved": 0, "is_disabled": 0, "rental_uris": {"android": "https://dc.lft.to/lastmile_qr_scan", "ios": "https://dc.lft.to/lastmile_qr_scan"}, "name": "9b7095eed8a70091c43349255b2fddc8", "type": "electric_scooter"}, {"fusion_lat": 0.0, "bike_id": "299c1917837e35198887f82579add53f", "fusion_lon": 0.0, "lon": -77.03093583333333, "lat": 38.938705, "is_reserved": 0, "is_disabled": 0, "rental_uris": {"android": "https://dc.lft.to/lastmile_qr_scan", "ios": "https://dc.lft.to/lastmile_qr_scan"}, "name": "299c1917837e35198887f82579add53f", "type": "electric_scooter"}, {"fusion_lat": 0.0, "bike_id": "90f1ae9a6ad81543ec8cfc8e6a0c452d", "fusion_lon": 0.0, "lon": -77.0418555, "lat": 38.892525166666665, "is_reserved": 0, "is_disabled": 0, "rental_uris": {"android": "https://dc.lft.to/lastmile_qr_scan", "ios": "https://dc.lft.to/lastmile_qr_scan"}, "name": "90f1ae9a6ad81543ec8cfc8e6a0c452d", "type": "electric_scooter"}, {"fusion_lat": 0.0, "bike_id": "06d7d219e6b71cf77aad739f93cdf69c", "fusion_lon": 0.0, "lon": -77.026756, "lat": 38.916943, "is_reserved": 0, "is_disabled": 0, "rental_uris": {"android": "https://dc.lft.to/lastmile_qr_scan", "ios": "https://dc.lft.to/lastmile_qr_scan"}, "name": "06d7d219e6b71cf77aad739f93cdf69c", "type": "electric_scooter"}, {"fusion_lat": 0.0, "bike_id": "15a5e6191c66b7d4258c138b427df046", "fusion_lon": 0.0, "lon": -76.9808835, "lat": 38.9070255, "is_reserved": 0, "is_disabled": 0, "rental_uris": {"android": "https://dc.lft.to/lastmile_qr_scan", "ios": "https://dc.lft.to/lastmile_qr_scan"}, "name": "15a5e6191c66b7d4258c138b427df046", "type": "electric_scooter"}, {"fusion_lat": 0.0, "bike_id": "e07a7401b857d862a28dd4eb430c5fd2", "fusion_lon": 0.0, "lon": -76.92917233333333, "lat": 38.892926833333334, "is_reserved": 0, "is_disabled": 0, "rental_uris": {"android": "https://dc.lft.to/lastmile_qr_scan", "ios": "https://dc.lft.to/lastmile_qr_scan"}, "name": "e07a7401b857d862a28dd4eb430c5fd2", "type": "electric_scooter"}, {"fusion_lat": 0.0, "bike_id": "bb8d64c2e39bb7c2337f13b85d6feac7", "fusion_lon": 0.0, "lon": -77.02685983333333, "lat": 38.895286, "is_reserved": 0, "is_disabled": 0, "rental_uris": {"android": "https://dc.lft.to/lastmile_qr_scan", "ios": "https://dc.lft.to/lastmile_qr_scan"}, "name": "bb8d64c2e39bb7c2337f13b85d6feac7", "type": "electric_scooter"}, {"fusion_lat": 0.0, "bike_id": "da9e9fdef06160ed4ecba5426f39e6fa", "fusion_lon": 0.0, "lon": -77.03006466666666, "lat": 38.90116283333333, "is_reserved": 0, "is_disabled": 0, "rental_uris": {"android": "https://dc.lft.to/lastmile_qr_scan", "ios": "https://dc.lft.to/lastmile_qr_scan"}, "name": "da9e9fdef06160ed4ecba5426f39e6fa", "type": "electric_scooter"}, {"fusion_lat": 0.0, "bike_id": "ec6646d8f3f26eb0c86a093cf111a934", "fusion_lon": 0.0, "lon": -77.04649333333333, "lat": 38.89829066666667, "is_reserved": 0, "is_disabled": 0, "rental_uris": {"android": "https://dc.lft.to/lastmile_qr_scan", "ios": "https://dc.lft.to/lastmile_qr_scan"}, "name": "ec6646d8f3f26eb0c86a093cf111a934", "type": "electric_scooter"}, {"fusion_lat": 0.0, "bike_id": "cdc38827937a008c59aecd021b815154", "fusion_lon": 0.0, "lon": -77.04648633333333, "lat": 38.9065905, "is_reserved": 0, "is_disabled": 0, "rental_uris": {"android": "https://dc.lft.to/lastmile_qr_scan", "ios": "https://dc.lft.to/lastmile_qr_scan"}, "name": "cdc38827937a008c59aecd021b815154", "type": "electric_scooter"}, {"fusion_lat": 0.0, "bike_id": "70ce4862223bfa50d21480f0d54bc2f9", "fusion_lon": 0.0, "lon": -77.03301483333334, "lat": 38.89820183333333, "is_reserved": 0, "is_disabled": 0, "rental_uris": {"android": "https://dc.lft.to/lastmile_qr_scan", "ios": "https://dc.lft.to/lastmile_qr_scan"}, "name": "70ce4862223bfa50d21480f0d54bc2f9", "type": "electric_scooter"}, {"fusion_lat": 0.0, "bike_id": "be72e27db8f7f040eb67bb4cc5664346", "fusion_lon": 0.0, "lon": -77.02553833333333, "lat": 38.930819, "is_reserved": 0, "is_disabled": 0, "rental_uris": {"android": "https://dc.lft.to/lastmile_qr_scan", "ios": "https://dc.lft.to/lastmile_qr_scan"}, "name": "be72e27db8f7f040eb67bb4cc5664346", "type": "electric_scooter"}, {"fusion_lat": 0.0, "bike_id": "3584d7c5e612c7c232cd8fb4583bc3e8", "fusion_lon": 0.0, "lon": -77.1084235, "lat": 38.811999, "is_reserved": 0, "is_disabled": 0, "rental_uris": {"android": "https://dc.lft.to/lastmile_qr_scan", "ios": "https://dc.lft.to/lastmile_qr_scan"}, "name": "3584d7c5e612c7c232cd8fb4583bc3e8", "type": "electric_bike"}, {"fusion_lat": 0.0, "bike_id": "19f18f2012c386868d277ee5defe8833", "fusion_lon": 0.0, "lon": -77.02693866666667, "lat": 38.918071833333336, "is_reserved": 0, "is_disabled": 0, "rental_uris": {"android": "https://dc.lft.to/lastmile_qr_scan", "ios": "https://dc.lft.to/lastmile_qr_scan"}, "name": "19f18f2012c386868d277ee5defe8833", "type": "electric_scooter"}, {"fusion_lat": 0.0, "bike_id": "b4d181be5f93ec3bf9f97e5084580c8a", "fusion_lon": 0.0, "lon": -77.0489895, "lat": 38.897325, "is_reserved": 0, "is_disabled": 0, "rental_uris": {"android": "https://dc.lft.to/lastmile_qr_scan", "ios": "https://dc.lft.to/lastmile_qr_scan"}, "name": "b4d181be5f93ec3bf9f97e5084580c8a", "type": "electric_scooter"}, {"fusion_lat": 0.0, "bike_id": "9abc05c73313dccc9585b14a9bb5d441", "fusion_lon": 0.0, "lon": -76.99007616666667, "lat": 38.865024, "is_reserved": 0, "is_disabled": 0, "rental_uris": {"android": "https://dc.lft.to/lastmile_qr_scan", "ios": "https://dc.lft.to/lastmile_qr_scan"}, "name": "9abc05c73313dccc9585b14a9bb5d441", "type": "electric_scooter"}, {"fusion_lat": 0.0, "bike_id": "2656e2f10513c99921367d6776c383a0", "fusion_lon": 0.0, "lon": -76.98903383333334, "lat": 38.8666455, "is_reserved": 0, "is_disabled": 0, "rental_uris": {"android": "https://dc.lft.to/lastmile_qr_scan", "ios": "https://dc.lft.to/lastmile_qr_scan"}, "name": "2656e2f10513c99921367d6776c383a0", "type": "electric_scooter"}, {"fusion_lat": 0.0, "bike_id": "6f7cc57ebc36834edfb593773721ecf6", "fusion_lon": 0.0, "lon": -77.04146116666666, "lat": 38.916784166666666, "is_reserved": 0, "is_disabled": 0, "rental_uris": {"android": "https://dc.lft.to/lastmile_qr_scan", "ios": "https://dc.lft.to/lastmile_qr_scan"}, "name": "6f7cc57ebc36834edfb593773721ecf6", "type": "electric_scooter"}, {"fusion_lat": 0.0, "bike_id": "fb3a649bf081ce287294f88d61d2d018", "fusion_lon": 0.0, "lon": -77.02618033333333, "lat": 38.9191075, "is_reserved": 0, "is_disabled": 0, "rental_uris": {"android": "https://dc.lft.to/lastmile_qr_scan", "ios": "https://dc.lft.to/lastmile_qr_scan"}, "name": "fb3a649bf081ce287294f88d61d2d018", "type": "electric_scooter"}, {"fusion_lat": 0.0, "bike_id": "639c6c8ed185dae8c424b662b8e8759d", "fusion_lon": 0.0, "lon": -77.03345966666667, "lat": 38.9170735, "is_reserved": 0, "is_disabled": 0, "rental_uris": {"android": "https://dc.lft.to/lastmile_qr_scan", "ios": "https://dc.lft.to/lastmile_qr_scan"}, "name": "639c6c8ed185dae8c424b662b8e8759d", "type": "electric_scooter"}, {"fusion_lat": 0.0, "bike_id": "e36e6db02ab2c2e4db7833c74042f103", "fusion_lon": 0.0, "lon": -77.02347333333333, "lat": 38.91764533333333, "is_reserved": 0, "is_disabled": 0, "rental_uris": {"android": "https://dc.lft.to/lastmile_qr_scan", "ios": "https://dc.lft.to/lastmile_qr_scan"}, "name": "e36e6db02ab2c2e4db7833c74042f103", "type": "electric_scooter"}, {"fusion_lat": 0.0, "bike_id": "53279c48de2d02fd41ff424559f21363", "fusion_lon": 0.0, "lon": -77.01450066666666, "lat": 38.92973383333333, "is_reserved": 0, "is_disabled": 0, "rental_uris": {"android": "https://dc.lft.to/lastmile_qr_scan", "ios": "https://dc.lft.to/lastmile_qr_scan"}, "name": "53279c48de2d02fd41ff424559f21363", "type": "electric_scooter"}, {"fusion_lat": 0.0, "bike_id": "012051cc465b288147071db13f7ffd4c", "fusion_lon": 0.0, "lon": -77.03366166666666, "lat": 38.90826583333333, "is_reserved": 0, "is_disabled": 0, "rental_uris": {"android": "https://dc.lft.to/lastmile_qr_scan", "ios": "https://dc.lft.to/lastmile_qr_scan"}, "name": "012051cc465b288147071db13f7ffd4c", "type": "electric_scooter"}, {"fusion_lat": 0.0, "bike_id": "1f0eaf84567919ee11a8a19121827c3a", "fusion_lon": 0.0, "lon": -77.02736283333333, "lat": 38.91710066666667, "is_reserved": 0, "is_disabled": 0, "rental_uris": {"android": "https://dc.lft.to/lastmile_qr_scan", "ios": "https://dc.lft.to/lastmile_qr_scan"}, "name": "1f0eaf84567919ee11a8a19121827c3a", "type": "electric_scooter"}, {"fusion_lat": 0.0, "bike_id": "3aba2ecf5d3d5dbc6acbb46e5cd832ee", "fusion_lon": 0.0, "lon": -76.93355233333334, "lat": 38.887891333333336, "is_reserved": 0, "is_disabled": 0, "rental_uris": {"android": "https://dc.lft.to/lastmile_qr_scan", "ios": "https://dc.lft.to/lastmile_qr_scan"}, "name": "3aba2ecf5d3d5dbc6acbb46e5cd832ee", "type": "electric_scooter"}, {"fusion_lat": 0.0, "bike_id": "a618be425297a6019e899c1e0528a5dc", "fusion_lon": 0.0, "lon": -76.9949545, "lat": 38.835549666666665, "is_reserved": 0, "is_disabled": 0, "rental_uris": {"android": "https://dc.lft.to/lastmile_qr_scan", "ios": "https://dc.lft.to/lastmile_qr_scan"}, "name": "a618be425297a6019e899c1e0528a5dc", "type": "electric_scooter"}, {"fusion_lat": 0.0, "bike_id": "9bb976ec354a030e7e77049645ab1798", "fusion_lon": 0.0, "lon": -76.99063433333333, "lat": 38.86376666666666, "is_reserved": 0, "is_disabled": 0, "rental_uris": {"android": "https://dc.lft.to/lastmile_qr_scan", "ios": "https://dc.lft.to/lastmile_qr_scan"}, "name": "9bb976ec354a030e7e77049645ab1798", "type": "electric_scooter"}, {"fusion_lat": 0.0, "bike_id": "c737fb538dcfe7324fe189f7d51d8130", "fusion_lon": 0.0, "lon": -76.96086783333334, "lat": 38.918559, "is_reserved": 0, "is_disabled": 0, "rental_uris": {"android": "https://dc.lft.to/lastmile_qr_scan", "ios": "https://dc.lft.to/lastmile_qr_scan"}, "name": "c737fb538dcfe7324fe189f7d51d8130", "type": "electric_scooter"}, {"fusion_lat": 0.0, "bike_id": "d24e3c487f08705519c9481f3158bba4", "fusion_lon": 0.0, "lon": -77.0348805, "lat": 38.9035225, "is_reserved": 0, "is_disabled": 0, "rental_uris": {"android": "https://dc.lft.to/lastmile_qr_scan", "ios": "https://dc.lft.to/lastmile_qr_scan"}, "name": "d24e3c487f08705519c9481f3158bba4", "type": "electric_scooter"}, {"fusion_lat": 0.0, "bike_id": "05ac36618d3102437a7991b563706c4d", "fusion_lon": 0.0, "lon": -77.00547716666667, "lat": 38.87453383333333, "is_reserved": 0, "is_disabled": 0, "rental_uris": {"android": "https://dc.lft.to/lastmile_qr_scan", "ios": "https://dc.lft.to/lastmile_qr_scan"}, "name": "05ac36618d3102437a7991b563706c4d", "type": "electric_scooter"}, {"fusion_lat": 0.0, "bike_id": "6ca17d44bd25fb9d2b085180b599d960", "fusion_lon": 0.0, "lon": -76.98498216666667, "lat": 38.878348, "is_reserved": 0, "is_disabled": 0, "rental_uris": {"android": "https://dc.lft.to/lastmile_qr_scan", "ios": "https://dc.lft.to/lastmile_qr_scan"}, "name": "6ca17d44bd25fb9d2b085180b599d960", "type": "electric_scooter"}, {"fusion_lat": 0.0, "bike_id": "a08cb71c3f7cc6215783d0d9d0ef2d33", "fusion_lon": 0.0, "lon": -76.98978483333333, "lat": 38.859170166666665, "is_reserved": 0, "is_disabled": 0, "rental_uris": {"android": "https://dc.lft.to/lastmile_qr_scan", "ios": "https://dc.lft.to/lastmile_qr_scan"}, "name": "a08cb71c3f7cc6215783d0d9d0ef2d33", "type": "electric_scooter"}, {"fusion_lat": 0.0, "bike_id": "0c2e4bf06a40c37cc7b612a557d8e4df", "fusion_lon": 0.0, "lon": -77.01615116666666, "lat": 38.9058635, "is_reserved": 0, "is_disabled": 0, "rental_uris": {"android": "https://dc.lft.to/lastmile_qr_scan", "ios": "https://dc.lft.to/lastmile_qr_scan"}, "name": "0c2e4bf06a40c37cc7b612a557d8e4df", "type": "electric_scooter"}, {"fusion_lat": 0.0, "bike_id": "2b4321a23ff7cf2c9bf13c24195f4944", "fusion_lon": 0.0, "lon": -77.0354985, "lat": 38.92471333333334, "is_reserved": 0, "is_disabled": 0, "rental_uris": {"android": "https://dc.lft.to/lastmile_qr_scan", "ios": "https://dc.lft.to/lastmile_qr_scan"}, "name": "2b4321a23ff7cf2c9bf13c24195f4944", "type": "electric_scooter"}, {"fusion_lat": 0.0, "bike_id": "cfd74210cebcedccb62013d89567df7c", "fusion_lon": 0.0, "lon": -77.02134533333333, "lat": 38.915527166666664, "is_reserved": 0, "is_disabled": 0, "rental_uris": {"android": "https://dc.lft.to/lastmile_qr_scan", "ios": "https://dc.lft.to/lastmile_qr_scan"}, "name": "cfd74210cebcedccb62013d89567df7c", "type": "electric_scooter"}, {"fusion_lat": 0.0, "bike_id": "87c3ff8471d9444dd6658067bee8df39", "fusion_lon": 0.0, "lon": -76.9852775, "lat": 38.8668155, "is_reserved": 0, "is_disabled": 0, "rental_uris": {"android": "https://dc.lft.to/lastmile_qr_scan", "ios": "https://dc.lft.to/lastmile_qr_scan"}, "name": "87c3ff8471d9444dd6658067bee8df39", "type": "electric_scooter"}, {"fusion_lat": 0.0, "bike_id": "572e12213186c74d8c73e1b403d4b121", "fusion_lon": 0.0, "lon": -77.03923733333333, "lat": 38.918386166666664, "is_reserved": 0, "is_disabled": 0, "rental_uris": {"android": "https://dc.lft.to/lastmile_qr_scan", "ios": "https://dc.lft.to/lastmile_qr_scan"}, "name": "572e12213186c74d8c73e1b403d4b121", "type": "electric_scooter"}, {"fusion_lat": 0.0, "bike_id": "80719cb47bbaea3b685f5cf146e0be03", "fusion_lon": 0.0, "lon": -77.024741, "lat": 38.90178233333334, "is_reserved": 0, "is_disabled": 0, "rental_uris": {"android": "https://dc.lft.to/lastmile_qr_scan", "ios": "https://dc.lft.to/lastmile_qr_scan"}, "name": "80719cb47bbaea3b685f5cf146e0be03", "type": "electric_scooter"}, {"fusion_lat": 0.0, "bike_id": "24557983ac747a0c717da888e58d8669", "fusion_lon": 0.0, "lon": -77.04456733333333, "lat": 38.9141335, "is_reserved": 0, "is_disabled": 0, "rental_uris": {"android": "https://dc.lft.to/lastmile_qr_scan", "ios": "https://dc.lft.to/lastmile_qr_scan"}, "name": "24557983ac747a0c717da888e58d8669", "type": "electric_scooter"}, {"fusion_lat": 0.0, "bike_id": "51aedee3f6036ee20e13bd740c9b54d0", "fusion_lon": 0.0, "lon": -77.05919866666666, "lat": 38.9017895, "is_reserved": 0, "is_disabled": 0, "rental_uris": {"android": "https://dc.lft.to/lastmile_qr_scan", "ios": "https://dc.lft.to/lastmile_qr_scan"}, "name": "51aedee3f6036ee20e13bd740c9b54d0", "type": "electric_scooter"}, {"fusion_lat": 0.0, "bike_id": "e4130d08693dc7032d44464e58b7cd54", "fusion_lon": 0.0, "lon": -77.0225505, "lat": 38.924678166666666, "is_reserved": 0, "is_disabled": 0, "rental_uris": {"android": "https://dc.lft.to/lastmile_qr_scan", "ios": "https://dc.lft.to/lastmile_qr_scan"}, "name": "e4130d08693dc7032d44464e58b7cd54", "type": "electric_scooter"}, {"fusion_lat": 0.0, "bike_id": "51675c5611b5c3c7dfbb43df039b03d6", "fusion_lon": 0.0, "lon": -77.044447, "lat": 38.92162966666667, "is_reserved": 0, "is_disabled": 0, "rental_uris": {"android": "https://dc.lft.to/lastmile_qr_scan", "ios": "https://dc.lft.to/lastmile_qr_scan"}, "name": "51675c5611b5c3c7dfbb43df039b03d6", "type": "electric_scooter"}, {"fusion_lat": 0.0, "bike_id": "6de2fdd8c32f600b658c3ac0f6827544", "fusion_lon": 0.0, "lon": -77.04582283333333, "lat": 38.9211925, "is_reserved": 0, "is_disabled": 0, "rental_uris": {"android": "https://dc.lft.to/lastmile_qr_scan", "ios": "https://dc.lft.to/lastmile_qr_scan"}, "name": "6de2fdd8c32f600b658c3ac0f6827544", "type": "electric_scooter"}, {"fusion_lat": 0.0, "bike_id": "e7a749c5caf156e03fd4dddc81e4be2c", "fusion_lon": 0.0, "lon": -77.02716683333334, "lat": 38.9181945, "is_reserved": 0, "is_disabled": 0, "rental_uris": {"android": "https://dc.lft.to/lastmile_qr_scan", "ios": "https://dc.lft.to/lastmile_qr_scan"}, "name": "e7a749c5caf156e03fd4dddc81e4be2c", "type": "electric_scooter"}, {"fusion_lat": 0.0, "bike_id": "d8613608a6381018ae86d541c865b3ce", "fusion_lon": 0.0, "lon": -77.00946266666666, "lat": 38.89768133333333, "is_reserved": 0, "is_disabled": 0, "rental_uris": {"android": "https://dc.lft.to/lastmile_qr_scan", "ios": "https://dc.lft.to/lastmile_qr_scan"}, "name": "d8613608a6381018ae86d541c865b3ce", "type": "electric_scooter"}, {"fusion_lat": 0.0, "bike_id": "31a7c64b4dd53e944a28202cfed6020f", "fusion_lon": 0.0, "lon": -77.07267483333334, "lat": 38.93471016666667, "is_reserved": 0, "is_disabled": 0, "rental_uris": {"android": "https://dc.lft.to/lastmile_qr_scan", "ios": "https://dc.lft.to/lastmile_qr_scan"}, "name": "31a7c64b4dd53e944a28202cfed6020f", "type": "electric_scooter"}, {"fusion_lat": 0.0, "bike_id": "a0d96b9fce84adefc25b2887ea47cd3b", "fusion_lon": 0.0, "lon": -77.02719016666667, "lat": 38.9182055, "is_reserved": 0, "is_disabled": 0, "rental_uris": {"android": "https://dc.lft.to/lastmile_qr_scan", "ios": "https://dc.lft.to/lastmile_qr_scan"}, "name": "a0d96b9fce84adefc25b2887ea47cd3b", "type": "electric_scooter"}, {"fusion_lat": 0.0, "bike_id": "1745ee5ee01f015de26e750ab516d848", "fusion_lon": 0.0, "lon": -76.97867383333333, "lat": 38.8719, "is_reserved": 0, "is_disabled": 0, "rental_uris": {"android": "https://dc.lft.to/lastmile_qr_scan", "ios": "https://dc.lft.to/lastmile_qr_scan"}, "name": "1745ee5ee01f015de26e750ab516d848", "type": "electric_scooter"}, {"fusion_lat": 0.0, "bike_id": "62c295270d8a5310aac3e974110dbd61", "fusion_lon": 0.0, "lon": -77.02927366666667, "lat": 38.88462533333333, "is_reserved": 0, "is_disabled": 0, "rental_uris": {"android": "https://dc.lft.to/lastmile_qr_scan", "ios": "https://dc.lft.to/lastmile_qr_scan"}, "name": "62c295270d8a5310aac3e974110dbd61", "type": "electric_scooter"}, {"fusion_lat": 0.0, "bike_id": "597696ae293bb54d41575f35cda3c20f", "fusion_lon": 0.0, "lon": -77.02545816666667, "lat": 38.903607, "is_reserved": 0, "is_disabled": 0, "rental_uris": {"android": "https://dc.lft.to/lastmile_qr_scan", "ios": "https://dc.lft.to/lastmile_qr_scan"}, "name": "597696ae293bb54d41575f35cda3c20f", "type": "electric_scooter"}, {"fusion_lat": 0.0, "bike_id": "ac261602263f81431e83eadd76dcbab6", "fusion_lon": 0.0, "lon": -77.033028, "lat": 38.898214, "is_reserved": 0, "is_disabled": 0, "rental_uris": {"android": "https://dc.lft.to/lastmile_qr_scan", "ios": "https://dc.lft.to/lastmile_qr_scan"}, "name": "ac261602263f81431e83eadd76dcbab6", "type": "electric_scooter"}, {"fusion_lat": 0.0, "bike_id": "a0696139717de166b391518f70f9c7ba", "fusion_lon": 0.0, "lon": -77.04722433333333, "lat": 38.89959966666667, "is_reserved": 0, "is_disabled": 0, "rental_uris": {"android": "https://dc.lft.to/lastmile_qr_scan", "ios": "https://dc.lft.to/lastmile_qr_scan"}, "name": "a0696139717de166b391518f70f9c7ba", "type": "electric_scooter"}, {"fusion_lat": 0.0, "bike_id": "45be16211764f034f3720a68141d9f96", "fusion_lon": 0.0, "lon": -77.03802583333334, "lat": 38.90679883333333, "is_reserved": 0, "is_disabled": 0, "rental_uris": {"android": "https://dc.lft.to/lastmile_qr_scan", "ios": "https://dc.lft.to/lastmile_qr_scan"}, "name": "45be16211764f034f3720a68141d9f96", "type": "electric_scooter"}, {"fusion_lat": 0.0, "bike_id": "4c757bd670e8d65dc8900e7989a6b627", "fusion_lon": 0.0, "lon": -76.98854466666667, "lat": 38.8673025, "is_reserved": 0, "is_disabled": 0, "rental_uris": {"android": "https://dc.lft.to/lastmile_qr_scan", "ios": "https://dc.lft.to/lastmile_qr_scan"}, "name": "4c757bd670e8d65dc8900e7989a6b627", "type": "electric_scooter"}, {"fusion_lat": 0.0, "bike_id": "a583d9f9c11cda2009e35892f275ce2b", "fusion_lon": 0.0, "lon": -77.0173865, "lat": 38.8874055, "is_reserved": 0, "is_disabled": 0, "rental_uris": {"android": "https://dc.lft.to/lastmile_qr_scan", "ios": "https://dc.lft.to/lastmile_qr_scan"}, "name": "a583d9f9c11cda2009e35892f275ce2b", "type": "electric_scooter"}, {"fusion_lat": 0.0, "bike_id": "ddc4bd67c4f75422df495fe3e20bdbb4", "fusion_lon": 0.0, "lon": -77.03197683333333, "lat": 38.91738266666667, "is_reserved": 0, "is_disabled": 0, "rental_uris": {"android": "https://dc.lft.to/lastmile_qr_scan", "ios": "https://dc.lft.to/lastmile_qr_scan"}, "name": "ddc4bd67c4f75422df495fe3e20bdbb4", "type": "electric_scooter"}, {"fusion_lat": 0.0, "bike_id": "e0ab82fe889506fe8ab3e03a49497d49", "fusion_lon": 0.0, "lon": -77.0315425, "lat": 38.915583166666664, "is_reserved": 0, "is_disabled": 0, "rental_uris": {"android": "https://dc.lft.to/lastmile_qr_scan", "ios": "https://dc.lft.to/lastmile_qr_scan"}, "name": "e0ab82fe889506fe8ab3e03a49497d49", "type": "electric_scooter"}, {"fusion_lat": 0.0, "bike_id": "95734942dea49cf2ebdd61e07dc66e2f", "fusion_lon": 0.0, "lon": -77.02209333333333, "lat": 38.878988166666666, "is_reserved": 0, "is_disabled": 0, "rental_uris": {"android": "https://dc.lft.to/lastmile_qr_scan", "ios": "https://dc.lft.to/lastmile_qr_scan"}, "name": "95734942dea49cf2ebdd61e07dc66e2f", "type": "electric_scooter"}, {"fusion_lat": 0.0, "bike_id": "c7b5f40ea0559ba0ad9230d00f4c97f4", "fusion_lon": 0.0, "lon": -76.993673, "lat": 38.87964483333333, "is_reserved": 0, "is_disabled": 0, "rental_uris": {"android": "https://dc.lft.to/lastmile_qr_scan", "ios": "https://dc.lft.to/lastmile_qr_scan"}, "name": "c7b5f40ea0559ba0ad9230d00f4c97f4", "type": "electric_scooter"}, {"fusion_lat": 0.0, "bike_id": "2b643c7be02dafe576e8b7e431f58be4", "fusion_lon": 0.0, "lon": -77.03741533333333, "lat": 38.918092333333334, "is_reserved": 0, "is_disabled": 0, "rental_uris": {"android": "https://dc.lft.to/lastmile_qr_scan", "ios": "https://dc.lft.to/lastmile_qr_scan"}, "name": "2b643c7be02dafe576e8b7e431f58be4", "type": "electric_scooter"}, {"fusion_lat": 0.0, "bike_id": "e6eb576d3eec680b21de09d03d564e0a", "fusion_lon": 0.0, "lon": -77.02714083333333, "lat": 38.8970985, "is_reserved": 0, "is_disabled": 0, "rental_uris": {"android": "https://dc.lft.to/lastmile_qr_scan", "ios": "https://dc.lft.to/lastmile_qr_scan"}, "name": "e6eb576d3eec680b21de09d03d564e0a", "type": "electric_scooter"}, {"fusion_lat": 0.0, "bike_id": "2c5c3b76a276288438e7bbf8ceb17e38", "fusion_lon": 0.0, "lon": -76.99007266666666, "lat": 38.86507066666667, "is_reserved": 0, "is_disabled": 0, "rental_uris": {"android": "https://dc.lft.to/lastmile_qr_scan", "ios": "https://dc.lft.to/lastmile_qr_scan"}, "name": "2c5c3b76a276288438e7bbf8ceb17e38", "type": "electric_scooter"}, {"fusion_lat": 0.0, "bike_id": "5096f6d55220d697068e20a4b25d52f0", "fusion_lon": 0.0, "lon": -77.03768983333333, "lat": 38.918746, "is_reserved": 0, "is_disabled": 0, "rental_uris": {"android": "https://dc.lft.to/lastmile_qr_scan", "ios": "https://dc.lft.to/lastmile_qr_scan"}, "name": "5096f6d55220d697068e20a4b25d52f0", "type": "electric_scooter"}, {"fusion_lat": 0.0, "bike_id": "5c7202fbea88f0ff605113be6a34d798", "fusion_lon": 0.0, "lon": -77.028338, "lat": 38.924741, "is_reserved": 0, "is_disabled": 0, "rental_uris": {"android": "https://dc.lft.to/lastmile_qr_scan", "ios": "https://dc.lft.to/lastmile_qr_scan"}, "name": "5c7202fbea88f0ff605113be6a34d798", "type": "electric_scooter"}, {"fusion_lat": 0.0, "bike_id": "49ef2a647468f01cef0d73fe32b025a7", "fusion_lon": 0.0, "lon": -77.025627, "lat": 38.941721, "is_reserved": 0, "is_disabled": 0, "rental_uris": {"android": "https://dc.lft.to/lastmile_qr_scan", "ios": "https://dc.lft.to/lastmile_qr_scan"}, "name": "49ef2a647468f01cef0d73fe32b025a7", "type": "electric_scooter"}, {"fusion_lat": 0.0, "bike_id": "d78c01badb15ddf7021600d7686082d8", "fusion_lon": 0.0, "lon": -77.02540433333333, "lat": 38.940933333333334, "is_reserved": 0, "is_disabled": 0, "rental_uris": {"android": "https://dc.lft.to/lastmile_qr_scan", "ios": "https://dc.lft.to/lastmile_qr_scan"}, "name": "d78c01badb15ddf7021600d7686082d8", "type": "electric_bike"}, {"fusion_lat": 0.0, "bike_id": "06e12b31811b6a8263d63cbfcd569170", "fusion_lon": 0.0, "lon": -77.01766283333333, "lat": 38.88728566666666, "is_reserved": 0, "is_disabled": 0, "rental_uris": {"android": "https://dc.lft.to/lastmile_qr_scan", "ios": "https://dc.lft.to/lastmile_qr_scan"}, "name": "06e12b31811b6a8263d63cbfcd569170", "type": "electric_scooter"}, {"fusion_lat": 0.0, "bike_id": "519d91ad54e378fb81e88a262f141eb6", "fusion_lon": 0.0, "lon": -76.97866033333334, "lat": 38.883004, "is_reserved": 0, "is_disabled": 0, "rental_uris": {"android": "https://dc.lft.to/lastmile_qr_scan", "ios": "https://dc.lft.to/lastmile_qr_scan"}, "name": "519d91ad54e378fb81e88a262f141eb6", "type": "electric_scooter"}, {"fusion_lat": 0.0, "bike_id": "a521446eb8db99f2fc11fd996e6f7dde", "fusion_lon": 0.0, "lon": -77.04269316666667, "lat": 38.922970666666664, "is_reserved": 0, "is_disabled": 0, "rental_uris": {"android": "https://dc.lft.to/lastmile_qr_scan", "ios": "https://dc.lft.to/lastmile_qr_scan"}, "name": "a521446eb8db99f2fc11fd996e6f7dde", "type": "electric_scooter"}, {"fusion_lat": 0.0, "bike_id": "bde1aa81de4ec803045afc6a553d0a64", "fusion_lon": 0.0, "lon": -77.06453333333333, "lat": 38.9052385, "is_reserved": 0, "is_disabled": 0, "rental_uris": {"android": "https://dc.lft.to/lastmile_qr_scan", "ios": "https://dc.lft.to/lastmile_qr_scan"}, "name": "bde1aa81de4ec803045afc6a553d0a64", "type": "electric_scooter"}, {"fusion_lat": 0.0, "bike_id": "17e7ac11a763b64d74a300cbac2f12ad", "fusion_lon": 0.0, "lon": -77.03155733333334, "lat": 38.91359216666667, "is_reserved": 0, "is_disabled": 0, "rental_uris": {"android": "https://dc.lft.to/lastmile_qr_scan", "ios": "https://dc.lft.to/lastmile_qr_scan"}, "name": "17e7ac11a763b64d74a300cbac2f12ad", "type": "electric_scooter"}, {"fusion_lat": 0.0, "bike_id": "4122867b16c16cd58f125ec53fae0f5c", "fusion_lon": 0.0, "lon": -77.0498285, "lat": 39.0629515, "is_reserved": 0, "is_disabled": 0, "rental_uris": {"android": "https://dc.lft.to/lastmile_qr_scan", "ios": "https://dc.lft.to/lastmile_qr_scan"}, "name": "4122867b16c16cd58f125ec53fae0f5c", "type": "electric_bike"}, {"fusion_lat": 0.0, "bike_id": "71b7b154e2cbc14960bf35dd96d7d3bf", "fusion_lon": 0.0, "lon": -77.038704, "lat": 38.92006833333333, "is_reserved": 0, "is_disabled": 0, "rental_uris": {"android": "https://dc.lft.to/lastmile_qr_scan", "ios": "https://dc.lft.to/lastmile_qr_scan"}, "name": "71b7b154e2cbc14960bf35dd96d7d3bf", "type": "electric_scooter"}, {"fusion_lat": 0.0, "bike_id": "1c0b954691cfd07eab3517e6eab55db6", "fusion_lon": 0.0, "lon": -77.03623183333333, "lat": 38.923269166666664, "is_reserved": 0, "is_disabled": 0, "rental_uris": {"android": "https://dc.lft.to/lastmile_qr_scan", "ios": "https://dc.lft.to/lastmile_qr_scan"}, "name": "1c0b954691cfd07eab3517e6eab55db6", "type": "electric_scooter"}, {"fusion_lat": 0.0, "bike_id": "edc0c1d7a358a590307f023b22182d09", "fusion_lon": 0.0, "lon": -77.04982666666666, "lat": 39.03553466666666, "is_reserved": 0, "is_disabled": 0, "rental_uris": {"android": "https://dc.lft.to/lastmile_qr_scan", "ios": "https://dc.lft.to/lastmile_qr_scan"}, "name": "edc0c1d7a358a590307f023b22182d09", "type": "electric_bike"}, {"fusion_lat": 0.0, "bike_id": "898dfa3273c14ad649347528d818e302", "fusion_lon": 0.0, "lon": -77.01203416666667, "lat": 38.885506666666664, "is_reserved": 0, "is_disabled": 0, "rental_uris": {"android": "https://dc.lft.to/lastmile_qr_scan", "ios": "https://dc.lft.to/lastmile_qr_scan"}, "name": "898dfa3273c14ad649347528d818e302", "type": "electric_scooter"}, {"fusion_lat": 0.0, "bike_id": "4b3fe861761bb90cc5f5e76b2e03969b", "fusion_lon": 0.0, "lon": -77.01549433333334, "lat": 38.9413005, "is_reserved": 0, "is_disabled": 0, "rental_uris": {"android": "https://dc.lft.to/lastmile_qr_scan", "ios": "https://dc.lft.to/lastmile_qr_scan"}, "name": "4b3fe861761bb90cc5f5e76b2e03969b", "type": "electric_scooter"}, {"fusion_lat": 0.0, "bike_id": "1c695e1095b7a842aa4241fe30c5f7db", "fusion_lon": 0.0, "lon": -77.041728, "lat": 38.8991035, "is_reserved": 0, "is_disabled": 0, "rental_uris": {"android": "https://dc.lft.to/lastmile_qr_scan", "ios": "https://dc.lft.to/lastmile_qr_scan"}, "name": "1c695e1095b7a842aa4241fe30c5f7db", "type": "electric_scooter"}, {"fusion_lat": 0.0, "bike_id": "97da462fc2a7bbd7416b3915fc234802", "fusion_lon": 0.0, "lon": -77.028228, "lat": 38.897135, "is_reserved": 0, "is_disabled": 0, "rental_uris": {"android": "https://dc.lft.to/lastmile_qr_scan", "ios": "https://dc.lft.to/lastmile_qr_scan"}, "name": "97da462fc2a7bbd7416b3915fc234802", "type": "electric_scooter"}, {"fusion_lat": 0.0, "bike_id": "3e65d7bfc7b82efccd3d71c1e3c74dc0", "fusion_lon": 0.0, "lon": -77.015722, "lat": 38.8762955, "is_reserved": 0, "is_disabled": 0, "rental_uris": {"android": "https://dc.lft.to/lastmile_qr_scan", "ios": "https://dc.lft.to/lastmile_qr_scan"}, "name": "3e65d7bfc7b82efccd3d71c1e3c74dc0", "type": "electric_scooter"}, {"fusion_lat": 0.0, "bike_id": "d14b6f4d48edc2f633b5a9ba6b82bbe7", "fusion_lon": 0.0, "lon": -77.030837, "lat": 38.9223515, "is_reserved": 0, "is_disabled": 0, "rental_uris": {"android": "https://dc.lft.to/lastmile_qr_scan", "ios": "https://dc.lft.to/lastmile_qr_scan"}, "name": "d14b6f4d48edc2f633b5a9ba6b82bbe7", "type": "electric_scooter"}, {"fusion_lat": 0.0, "bike_id": "73f883261ed08da1c676e36d7deb3c72", "fusion_lon": 0.0, "lon": -77.1074105, "lat": 38.96482783333333, "is_reserved": 0, "is_disabled": 0, "rental_uris": {"android": "https://dc.lft.to/lastmile_qr_scan", "ios": "https://dc.lft.to/lastmile_qr_scan"}, "name": "73f883261ed08da1c676e36d7deb3c72", "type": "electric_bike"}, {"fusion_lat": 0.0, "bike_id": "dd95063420d2693471b916cd655b2aae", "fusion_lon": 0.0, "lon": -76.97533016666667, "lat": 38.92229183333333, "is_reserved": 0, "is_disabled": 0, "rental_uris": {"android": "https://dc.lft.to/lastmile_qr_scan", "ios": "https://dc.lft.to/lastmile_qr_scan"}, "name": "dd95063420d2693471b916cd655b2aae", "type": "electric_scooter"}, {"fusion_lat": 0.0, "bike_id": "c4d23f8217651458fab93518a5f92da7", "fusion_lon": 0.0, "lon": -77.0130535, "lat": 38.92959666666667, "is_reserved": 0, "is_disabled": 0, "rental_uris": {"android": "https://dc.lft.to/lastmile_qr_scan", "ios": "https://dc.lft.to/lastmile_qr_scan"}, "name": "c4d23f8217651458fab93518a5f92da7", "type": "electric_scooter"}, {"fusion_lat": 0.0, "bike_id": "f91f93f1e952e808bb84c0facf9a3807", "fusion_lon": 0.0, "lon": -77.02269033333333, "lat": 38.92675833333333, "is_reserved": 0, "is_disabled": 0, "rental_uris": {"android": "https://dc.lft.to/lastmile_qr_scan", "ios": "https://dc.lft.to/lastmile_qr_scan"}, "name": "f91f93f1e952e808bb84c0facf9a3807", "type": "electric_scooter"}, {"fusion_lat": 0.0, "bike_id": "44ea17727c50c926b013739272cab66c", "fusion_lon": 0.0, "lon": -77.0307555, "lat": 38.880351833333336, "is_reserved": 0, "is_disabled": 0, "rental_uris": {"android": "https://dc.lft.to/lastmile_qr_scan", "ios": "https://dc.lft.to/lastmile_qr_scan"},