{"data": {"bikes": [{"name": "02dd26826848d83eade4efbaf62cd9a0", "fusion_lat": 0.0, "type": "electric_scooter", "lat": 38.92112216666666, "is_reserved": 0, "is_disabled": 0, "fusion_lon": 0.0, "bike_id": "02dd26826848d83eade4efbaf62cd9a0", "lon": -77.04392733333333, "rental_uris": {"ios": "https://dc.lft.to/lastmile_qr_scan", "android": "https://dc.lft.to/lastmile_qr_scan"}}, {"name": "d7b0b31fc74f37c5c2850d9dc668bfa1", "fusion_lat": 0.0, "type": "electric_scooter", "lat": 38.928912, "is_reserved": 0, "is_disabled": 0, "fusion_lon": 0.0, "bike_id": "d7b0b31fc74f37c5c2850d9dc668bfa1", "lon": -77.0230875, "rental_uris": {"ios": "https://dc.lft.to/lastmile_qr_scan", "android": "https://dc.lft.to/lastmile_qr_scan"}}, {"name": "95c6e8d4868cb96fef3b602569acd7a9", "fusion_lat": 0.0, "type": "electric_scooter", "lat": 38.89836416666667, "is_reserved": 0, "is_disabled": 0, "fusion_lon": 0.0, "bike_id": "95c6e8d4868cb96fef3b602569acd7a9", "lon": -77.03313133333333, "rental_uris": {"ios": "https://dc.lft.to/lastmile_qr_scan", "android": "https://dc.lft.to/lastmile_qr_scan"}}, {"name": "c1ea83c6be364abedac90348f1b9355d", "fusion_lat": 0.0, "type": "electric_scooter", "lat": 38.93499966666667, "is_reserved": 0, "is_disabled": 0, "fusion_lon": 0.0, "bike_id": "c1ea83c6be364abedac90348f1b9355d", "lon": -77.02545333333333, "rental_uris": {"ios": "https://dc.lft.to/lastmile_qr_scan", "android": "https://dc.lft.to/lastmile_qr_scan"}}, {"name": "a03eca264e247163f189e29581cab642", "fusion_lat": 0.0, "type": "electric_scooter", "lat": 38.89909266666667, "is_reserved": 0, "is_disabled": 0, "fusion_lon": 0.0, "bike_id": "a03eca264e247163f189e29581cab642", "lon": -77.0217575, "rental_uris": {"ios": "https://dc.lft.to/lastmile_qr_scan", "android": "https://dc.lft.to/lastmile_qr_scan"}}, {"name": "7850bd3cb35578a9df8d6b741f6db8bf", "fusion_lat": 0.0, "type": "electric_scooter", "lat": 38.905504, "is_reserved": 0, "is_disabled": 0, "fusion_lon": 0.0, "bike_id": "7850bd3cb35578a9df8d6b741f6db8bf", "lon": -77.0474285, "rental_uris": {"ios": "https://dc.lft.to/lastmile_qr_scan", "android": "https://dc.lft.to/lastmile_qr_scan"}}, {"name": "35ac1a3265d2ccc7f3a5f00f7dbd0f2a", "fusion_lat": 0.0, "type": "electric_scooter", "lat": 38.88918533333333, "is_reserved": 0, "is_disabled": 0, "fusion_lon": 0.0, "bike_id": "35ac1a3265d2ccc7f3a5f00f7dbd0f2a", "lon": -76.95373333333333, "rental_uris": {"ios": "https://dc.lft.to/lastmile_qr_scan", "android": "https://dc.lft.to/lastmile_qr_scan"}}, {"name": "621a704362ae0693ebecf21c165bf10a", "fusion_lat": 0.0, "type": "electric_scooter", "lat": 38.903188666666665, "is_reserved": 0, "is_disabled": 0, "fusion_lon": 0.0, "bike_id": "621a704362ae0693ebecf21c165bf10a", "lon": -77.04148233333333, "rental_uris": {"ios": "https://dc.lft.to/lastmile_qr_scan", "android": "https://dc.lft.to/lastmile_qr_scan"}}, {"name": "67283695689ed8df95b951d6b112bd27", "fusion_lat": 0.0, "type": "electric_scooter", "lat": 38.896074666666664, "is_reserved": 0, "is_disabled": 0, "fusion_lon": 0.0, "bike_id": "67283695689ed8df95b951d6b112bd27", "lon": -77.04689066666667, "rental_uris": {"ios": "https://dc.lft.to/lastmile_qr_scan", "android": "https://dc.lft.to/lastmile_qr_scan"}}, {"name": "159e47a4864e91771de0b1bf9e810765", "fusion_lat": 0.0, "type": "electric_scooter", "lat": 38.913467, "is_reserved": 0, "is_disabled": 0, "fusion_lon": 0.0, "bike_id": "159e47a4864e91771de0b1bf9e810765", "lon": -77.03113966666666, "rental_uris": {"ios": "https://dc.lft.to/lastmile_qr_scan", "android": "https://dc.lft.to/lastmile_qr_scan"}}, {"name": "5b846238501c731719a521e06c61fb24", "fusion_lat": 0.0, "type": "electric_scooter", "lat": 38.9007575, "is_reserved": 0, "is_disabled": 0, "fusion_lon": 0.0, "bike_id": "5b846238501c731719a521e06c61fb24", "lon": -77.05199183333333, "rental_uris": {"ios": "https://dc.lft.to/lastmile_qr_scan", "android": "https://dc.lft.to/lastmile_qr_scan"}}, {"name": "be9e37a7e5cbd648985f64a6b3cafbb3", "fusion_lat": 0.0, "type": "electric_scooter", "lat": 38.93208083333333, "is_reserved": 0, "is_disabled": 0, "fusion_lon": 0.0, "bike_id": "be9e37a7e5cbd648985f64a6b3cafbb3", "lon": -77.02730166666667, "rental_uris": {"ios": "https://dc.lft.to/lastmile_qr_scan", "android": "https://dc.lft.to/lastmile_qr_scan"}}, {"name": "9aa40ece524d594646d5297a110d270a", "fusion_lat": 0.0, "type": "electric_scooter", "lat": 38.91772383333333, "is_reserved": 0, "is_disabled": 0, "fusion_lon": 0.0, "bike_id": "9aa40ece524d594646d5297a110d270a", "lon": -77.029545, "rental_uris": {"ios": "https://dc.lft.to/lastmile_qr_scan", "android": "https://dc.lft.to/lastmile_qr_scan"}}, {"name": "65de4f28d08024568dc6a50dc72e81fa", "fusion_lat": 0.0, "type": "electric_scooter", "lat": 38.895527666666666, "is_reserved": 0, "is_disabled": 0, "fusion_lon": 0.0, "bike_id": "65de4f28d08024568dc6a50dc72e81fa", "lon": -77.01112533333334, "rental_uris": {"ios": "https://dc.lft.to/lastmile_qr_scan", "android": "https://dc.lft.to/lastmile_qr_scan"}}, {"name": "8a54891a6b61e55f0ce16d9169f177f6", "fusion_lat": 0.0, "type": "electric_bike", "lat": 38.968356, "is_reserved": 0, "is_disabled": 0, "fusion_lon": 0.0, "bike_id": "8a54891a6b61e55f0ce16d9169f177f6", "lon": -77.03332233333333, "rental_uris": {"ios": "https://dc.lft.to/lastmile_qr_scan", "android": "https://dc.lft.to/lastmile_qr_scan"}}, {"name": "bb8cc0e9b34dd55f52f8b1a41ecb7816", "fusion_lat": 0.0, "type": "electric_scooter", "lat": 38.899104, "is_reserved": 0, "is_disabled": 0, "fusion_lon": 0.0, "bike_id": "bb8cc0e9b34dd55f52f8b1a41ecb7816", "lon": -77.03940166666666, "rental_uris": {"ios": "https://dc.lft.to/lastmile_qr_scan", "android": "https://dc.lft.to/lastmile_qr_scan"}}, {"name": "c84619b135bf9b5ad2dd93f92c6c4aba", "fusion_lat": 0.0, "type": "electric_scooter", "lat": 38.875035, "is_reserved": 0, "is_disabled": 0, "fusion_lon": 0.0, "bike_id": "c84619b135bf9b5ad2dd93f92c6c4aba", "lon": -77.00173166666667, "rental_uris": {"ios": "https://dc.lft.to/lastmile_qr_scan", "android": "https://dc.lft.to/lastmile_qr_scan"}}, {"name": "aced20ddbf4702699fad62b6c39fb863", "fusion_lat": 0.0, "type": "electric_scooter", "lat": 38.912245166666665, "is_reserved": 0, "is_disabled": 0, "fusion_lon": 0.0, "bike_id": "aced20ddbf4702699fad62b6c39fb863", "lon": -77.04493783333334, "rental_uris": {"ios": "https://dc.lft.to/lastmile_qr_scan", "android": "https://dc.lft.to/lastmile_qr_scan"}}, {"name": "28c3960cbc213eaffde4bb4f82f14a7a", "fusion_lat": 0.0, "type": "electric_scooter", "lat": 38.899685, "is_reserved": 0, "is_disabled": 0, "fusion_lon": 0.0, "bike_id": "28c3960cbc213eaffde4bb4f82f14a7a", "lon": -77.03124783333334, "rental_uris": {"ios": "https://dc.lft.to/lastmile_qr_scan", "android": "https://dc.lft.to/lastmile_qr_scan"}}, {"name": "ae1142dbf7cb58cbe2656d70dfeada11", "fusion_lat": 0.0, "type": "electric_scooter", "lat": 38.93067, "is_reserved": 0, "is_disabled": 0, "fusion_lon": 0.0, "bike_id": "ae1142dbf7cb58cbe2656d70dfeada11", "lon": -77.03958066666667, "rental_uris": {"ios": "https://dc.lft.to/lastmile_qr_scan", "android": "https://dc.lft.to/lastmile_qr_scan"}}, {"name": "ca04990923921b0a64223ef5e22ce612", "fusion_lat": 0.0, "type": "electric_scooter", "lat": 38.9617955, "is_reserved": 0, "is_disabled": 0, "fusion_lon": 0.0, "bike_id": "ca04990923921b0a64223ef5e22ce612", "lon": -77.0322825, "rental_uris": {"ios": "https://dc.lft.to/lastmile_qr_scan", "android": "https://dc.lft.to/lastmile_qr_scan"}}, {"name": "70da9f664e70f324fa3aa90aa03ffade", "fusion_lat": 0.0, "type": "electric_scooter", "lat": 38.9155765, "is_reserved": 0, "is_disabled": 0, "fusion_lon": 0.0, "bike_id": "70da9f664e70f324fa3aa90aa03ffade", "lon": -77.03839983333333, "rental_uris": {"ios": "https://dc.lft.to/lastmile_qr_scan", "android": "https://dc.lft.to/lastmile_qr_scan"}}, {"name": "e430ed3e421d658c07b963b5883aa8b0", "fusion_lat": 0.0, "type": "electric_scooter", "lat": 38.91254283333333, "is_reserved": 0, "is_disabled": 0, "fusion_lon": 0.0, "bike_id": "e430ed3e421d658c07b963b5883aa8b0", "lon": -77.04530116666666, "rental_uris": {"ios": "https://dc.lft.to/lastmile_qr_scan", "android": "https://dc.lft.to/lastmile_qr_scan"}}, {"name": "51a56e41f4c72b65d7cc0e014fdfd263", "fusion_lat": 0.0, "type": "electric_bike", "lat": 39.0242585, "is_reserved": 0, "is_disabled": 0, "fusion_lon": 0.0, "bike_id": "51a56e41f4c72b65d7cc0e014fdfd263", "lon": -77.125081, "rental_uris": {"ios": "https://dc.lft.to/lastmile_qr_scan", "android": "https://dc.lft.to/lastmile_qr_scan"}}, {"name": "f2ec42517ef7a1eb549f0e9d85cfaa6e", "fusion_lat": 0.0, "type": "electric_bike", "lat": 38.9661915, "is_reserved": 0, "is_disabled": 0, "fusion_lon": 0.0, "bike_id": "f2ec42517ef7a1eb549f0e9d85cfaa6e", "lon": -76.94425283333334, "rental_uris": {"ios": "https://dc.lft.to/lastmile_qr_scan", "android": "https://dc.lft.to/lastmile_qr_scan"}}, {"name": "8f4594b27817a791fb7b42e04949f547", "fusion_lat": 0.0, "type": "electric_scooter", "lat": 38.90012483333334, "is_reserved": 0, "is_disabled": 0, "fusion_lon": 0.0, "bike_id": "8f4594b27817a791fb7b42e04949f547", "lon": -77.04113683333334, "rental_uris": {"ios": "https://dc.lft.to/lastmile_qr_scan", "android": "https://dc.lft.to/lastmile_qr_scan"}}, {"name": "0468ad2023c0d57fcbd7c5cc2e5527ea", "fusion_lat": 0.0, "type": "electric_scooter", "lat": 38.92269616666667, "is_reserved": 0, "is_disabled": 0, "fusion_lon": 0.0, "bike_id": "0468ad2023c0d57fcbd7c5cc2e5527ea", "lon": -77.034048, "rental_uris": {"ios": "https://dc.lft.to/lastmile_qr_scan", "android": "https://dc.lft.to/lastmile_qr_scan"}}, {"name": "f10ad9e3492a2d6c4a99c935e094cb9e", "fusion_lat": 0.0, "type": "electric_scooter", "lat": 38.90612216666667, "is_reserved": 0, "is_disabled": 0, "fusion_lon": 0.0, "bike_id": "f10ad9e3492a2d6c4a99c935e094cb9e", "lon": -77.0562335, "rental_uris": {"ios": "https://dc.lft.to/lastmile_qr_scan", "android": "https://dc.lft.to/lastmile_qr_scan"}}, {"name": "b7c144becfb51ae7eb93caab034dd24a", "fusion_lat": 0.0, "type": "electric_scooter", "lat": 38.903633166666665, "is_reserved": 0, "is_disabled": 0, "fusion_lon": 0.0, "bike_id": "b7c144becfb51ae7eb93caab034dd24a", "lon": -77.00347666666667, "rental_uris": {"ios": "https://dc.lft.to/lastmile_qr_scan", "android": "https://dc.lft.to/lastmile_qr_scan"}}, {"name": "465179a58348702f27f46b5ee33a5687", "fusion_lat": 0.0, "type": "electric_scooter", "lat": 38.907031333333336, "is_reserved": 0, "is_disabled": 0, "fusion_lon": 0.0, "bike_id": "465179a58348702f27f46b5ee33a5687", "lon": -77.02383916666666, "rental_uris": {"ios": "https://dc.lft.to/lastmile_qr_scan", "android": "https://dc.lft.to/lastmile_qr_scan"}}, {"name": "c9eb6c4bc4138384d825a996a7759418", "fusion_lat": 0.0, "type": "electric_scooter", "lat": 38.87808883333334, "is_reserved": 0, "is_disabled": 0, "fusion_lon": 0.0, "bike_id": "c9eb6c4bc4138384d825a996a7759418", "lon": -77.01765766666666, "rental_uris": {"ios": "https://dc.lft.to/lastmile_qr_scan", "android": "https://dc.lft.to/lastmile_qr_scan"}}, {"name": "b99494633450ef3dda8fe9c73a090dbc", "fusion_lat": 0.0, "type": "electric_scooter", "lat": 38.912706, "is_reserved": 0, "is_disabled": 0, "fusion_lon": 0.0, "bike_id": "b99494633450ef3dda8fe9c73a090dbc", "lon": -77.0387435, "rental_uris": {"ios": "https://dc.lft.to/lastmile_qr_scan", "android": "https://dc.lft.to/lastmile_qr_scan"}}, {"name": "779eb7e9d0fc638011dc4b5a7eee678d", "fusion_lat": 0.0, "type": "electric_scooter", "lat": 38.9040105, "is_reserved": 0, "is_disabled": 0, "fusion_lon": 0.0, "bike_id": "779eb7e9d0fc638011dc4b5a7eee678d", "lon": -77.06433866666667, "rental_uris": {"ios": "https://dc.lft.to/lastmile_qr_scan", "android": "https://dc.lft.to/lastmile_qr_scan"}}, {"name": "5b2672b07dad9da808e0d5f5fdf65730", "fusion_lat": 0.0, "type": "electric_scooter", "lat": 38.93268583333333, "is_reserved": 0, "is_disabled": 0, "fusion_lon": 0.0, "bike_id": "5b2672b07dad9da808e0d5f5fdf65730", "lon": -77.03897633333334, "rental_uris": {"ios": "https://dc.lft.to/lastmile_qr_scan", "android": "https://dc.lft.to/lastmile_qr_scan"}}, {"name": "bd3e4f472cc4d6343c664a0229d3de67", "fusion_lat": 0.0, "type": "electric_scooter", "lat": 38.93614766666666, "is_reserved": 0, "is_disabled": 0, "fusion_lon": 0.0, "bike_id": "bd3e4f472cc4d6343c664a0229d3de67", "lon": -77.032128, "rental_uris": {"ios": "https://dc.lft.to/lastmile_qr_scan", "android": "https://dc.lft.to/lastmile_qr_scan"}}, {"name": "3121d399aad1f62dd5dc471b8d3189a7", "fusion_lat": 0.0, "type": "electric_scooter", "lat": 38.91168783333333, "is_reserved": 0, "is_disabled": 0, "fusion_lon": 0.0, "bike_id": "3121d399aad1f62dd5dc471b8d3189a7", "lon": -77.01132966666667, "rental_uris": {"ios": "https://dc.lft.to/lastmile_qr_scan", "android": "https://dc.lft.to/lastmile_qr_scan"}}, {"name": "a58c3584dc9c400b02f825bad68d54a1", "fusion_lat": 0.0, "type": "electric_scooter", "lat": 38.88766533333333, "is_reserved": 0, "is_disabled": 0, "fusion_lon": 0.0, "bike_id": "a58c3584dc9c400b02f825bad68d54a1", "lon": -76.95600683333333, "rental_uris": {"ios": "https://dc.lft.to/lastmile_qr_scan", "android": "https://dc.lft.to/lastmile_qr_scan"}}, {"name": "6c0b27cfe054f72757cd96696adfb975", "fusion_lat": 0.0, "type": "electric_scooter", "lat": 38.931112, "is_reserved": 0, "is_disabled": 0, "fusion_lon": 0.0, "bike_id": "6c0b27cfe054f72757cd96696adfb975", "lon": -77.03844033333333, "rental_uris": {"ios": "https://dc.lft.to/lastmile_qr_scan", "android": "https://dc.lft.to/lastmile_qr_scan"}}, {"name": "e787859b5b0e967945f6798377e2766d", "fusion_lat": 0.0, "type": "electric_scooter", "lat": 38.9182505, "is_reserved": 0, "is_disabled": 0, "fusion_lon": 0.0, "bike_id": "e787859b5b0e967945f6798377e2766d", "lon": -77.032067, "rental_uris": {"ios": "https://dc.lft.to/lastmile_qr_scan", "android": "https://dc.lft.to/lastmile_qr_scan"}}, {"name": "e5a5204f925851b6bc3852a2cc51889d", "fusion_lat": 0.0, "type": "electric_scooter", "lat": 38.9067725, "is_reserved": 0, "is_disabled": 0, "fusion_lon": 0.0, "bike_id": "e5a5204f925851b6bc3852a2cc51889d", "lon": -77.03484866666666, "rental_uris": {"ios": "https://dc.lft.to/lastmile_qr_scan", "android": "https://dc.lft.to/lastmile_qr_scan"}}, {"name": "5b3bccc1c6aad68ace2cb7dee3f8e2ad", "fusion_lat": 0.0, "type": "electric_scooter", "lat": 38.8737635, "is_reserved": 0, "is_disabled": 0, "fusion_lon": 0.0, "bike_id": "5b3bccc1c6aad68ace2cb7dee3f8e2ad", "lon": -77.00033933333333, "rental_uris": {"ios": "https://dc.lft.to/lastmile_qr_scan", "android": "https://dc.lft.to/lastmile_qr_scan"}}, {"name": "97a7f435441bacb9794350e12f2cbfa7", "fusion_lat": 0.0, "type": "electric_scooter", "lat": 38.88057766666667, "is_reserved": 0, "is_disabled": 0, "fusion_lon": 0.0, "bike_id": "97a7f435441bacb9794350e12f2cbfa7", "lon": -77.02482033333334, "rental_uris": {"ios": "https://dc.lft.to/lastmile_qr_scan", "android": "https://dc.lft.to/lastmile_qr_scan"}}, {"name": "ba60fc7bc94b00cfb81570226fb1acbe", "fusion_lat": 0.0, "type": "electric_scooter", "lat": 38.91194733333333, "is_reserved": 0, "is_disabled": 0, "fusion_lon": 0.0, "bike_id": "ba60fc7bc94b00cfb81570226fb1acbe", "lon": -77.01885383333334, "rental_uris": {"ios": "https://dc.lft.to/lastmile_qr_scan", "android": "https://dc.lft.to/lastmile_qr_scan"}}, {"name": "91c888dbc931e694d61d05193e7e17b0", "fusion_lat": 0.0, "type": "electric_scooter", "lat": 38.8968305, "is_reserved": 0, "is_disabled": 0, "fusion_lon": 0.0, "bike_id": "91c888dbc931e694d61d05193e7e17b0", "lon": -76.9353515, "rental_uris": {"ios": "https://dc.lft.to/lastmile_qr_scan", "android": "https://dc.lft.to/lastmile_qr_scan"}}, {"name": "5d83b882de256791a1025385144ea774", "fusion_lat": 0.0, "type": "electric_bike", "lat": 38.88124633333334, "is_reserved": 0, "is_disabled": 0, "fusion_lon": 0.0, "bike_id": "5d83b882de256791a1025385144ea774", "lon": -77.01297316666667, "rental_uris": {"ios": "https://dc.lft.to/lastmile_qr_scan", "android": "https://dc.lft.to/lastmile_qr_scan"}}, {"name": "a9addc70686ba7aa8a586206c48e30dd", "fusion_lat": 0.0, "type": "electric_scooter", "lat": 38.89345466666666, "is_reserved": 0, "is_disabled": 0, "fusion_lon": 0.0, "bike_id": "a9addc70686ba7aa8a586206c48e30dd", "lon": -77.04658116666667, "rental_uris": {"ios": "https://dc.lft.to/lastmile_qr_scan", "android": "https://dc.lft.to/lastmile_qr_scan"}}, {"name": "e0d2377c464e2bce0ef8dca64ecd1142", "fusion_lat": 0.0, "type": "electric_scooter", "lat": 38.917077166666665, "is_reserved": 0, "is_disabled": 0, "fusion_lon": 0.0, "bike_id": "e0d2377c464e2bce0ef8dca64ecd1142", "lon": -77.03142966666667, "rental_uris": {"ios": "https://dc.lft.to/lastmile_qr_scan", "android": "https://dc.lft.to/lastmile_qr_scan"}}, {"name": "9ee4d744ffa843ad5b9c3dbfd0d93dc0", "fusion_lat": 0.0, "type": "electric_scooter", "lat": 38.91065966666667, "is_reserved": 0, "is_disabled": 0, "fusion_lon": 0.0, "bike_id": "9ee4d744ffa843ad5b9c3dbfd0d93dc0", "lon": -77.04574033333333, "rental_uris": {"ios": "https://dc.lft.to/lastmile_qr_scan", "android": "https://dc.lft.to/lastmile_qr_scan"}}, {"name": "2e6937f7e725aa353354beb9e2e2ad7b", "fusion_lat": 0.0, "type": "electric_scooter", "lat": 38.91881816666667, "is_reserved": 0, "is_disabled": 0, "fusion_lon": 0.0, "bike_id": "2e6937f7e725aa353354beb9e2e2ad7b", "lon": -77.04313716666667, "rental_uris": {"ios": "https://dc.lft.to/lastmile_qr_scan", "android": "https://dc.lft.to/lastmile_qr_scan"}}, {"name": "934dff581291db1282c5c91c3da6135c", "fusion_lat": 0.0, "type": "electric_scooter", "lat": 38.9127385, "is_reserved": 0, "is_disabled": 0, "fusion_lon": 0.0, "bike_id": "934dff581291db1282c5c91c3da6135c", "lon": -77.02949633333333, "rental_uris": {"ios": "https://dc.lft.to/lastmile_qr_scan", "android": "https://dc.lft.to/lastmile_qr_scan"}}, {"name": "66f38a66b91a2e23bb352c65e86546f8", "fusion_lat": 0.0, "type": "electric_scooter", "lat": 38.9067025, "is_reserved": 0, "is_disabled": 0, "fusion_lon": 0.0, "bike_id": "66f38a66b91a2e23bb352c65e86546f8", "lon": -77.02710283333333, "rental_uris": {"ios": "https://dc.lft.to/lastmile_qr_scan", "android": "https://dc.lft.to/lastmile_qr_scan"}}, {"name": "dca775bec0cef25def266260b03a1beb", "fusion_lat": 0.0, "type": "electric_scooter", "lat": 38.917745333333336, "is_reserved": 0, "is_disabled": 0, "fusion_lon": 0.0, "bike_id": "dca775bec0cef25def266260b03a1beb", "lon": -77.02306083333333, "rental_uris": {"ios": "https://dc.lft.to/lastmile_qr_scan", "android": "https://dc.lft.to/lastmile_qr_scan"}}, {"name": "740cf759e0292af1ce8d617442dd9e20", "fusion_lat": 0.0, "type": "electric_scooter", "lat": 38.866622666666665, "is_reserved": 0, "is_disabled": 0, "fusion_lon": 0.0, "bike_id": "740cf759e0292af1ce8d617442dd9e20", "lon": -76.98881816666666, "rental_uris": {"ios": "https://dc.lft.to/lastmile_qr_scan", "android": "https://dc.lft.to/lastmile_qr_scan"}}, {"name": "2b99ad77015e2dabb6a1b9e8e5f22e6a", "fusion_lat": 0.0, "type": "electric_scooter", "lat": 38.88126533333333, "is_reserved": 0, "is_disabled": 0, "fusion_lon": 0.0, "bike_id": "2b99ad77015e2dabb6a1b9e8e5f22e6a", "lon": -77.01335133333333, "rental_uris": {"ios": "https://dc.lft.to/lastmile_qr_scan", "android": "https://dc.lft.to/lastmile_qr_scan"}}, {"name": "bd8930269339e498857df9aac448a6c4", "fusion_lat": 0.0, "type": "electric_scooter", "lat": 38.91304733333333, "is_reserved": 0, "is_disabled": 0, "fusion_lon": 0.0, "bike_id": "bd8930269339e498857df9aac448a6c4", "lon": -77.02033716666666, "rental_uris": {"ios": "https://dc.lft.to/lastmile_qr_scan", "android": "https://dc.lft.to/lastmile_qr_scan"}}, {"name": "d9c440976b5f06ae011906f8fec2700f", "fusion_lat": 0.0, "type": "electric_scooter", "lat": 38.89730816666667, "is_reserved": 0, "is_disabled": 0, "fusion_lon": 0.0, "bike_id": "d9c440976b5f06ae011906f8fec2700f", "lon": -77.00950716666667, "rental_uris": {"ios": "https://dc.lft.to/lastmile_qr_scan", "android": "https://dc.lft.to/lastmile_qr_scan"}}, {"name": "bd3b3a8927d845dc0726c6be69f953c5", "fusion_lat": 0.0, "type": "electric_scooter", "lat": 38.90315433333333, "is_reserved": 0, "is_disabled": 0, "fusion_lon": 0.0, "bike_id": "bd3b3a8927d845dc0726c6be69f953c5", "lon": -76.977987, "rental_uris": {"ios": "https://dc.lft.to/lastmile_qr_scan", "android": "https://dc.lft.to/lastmile_qr_scan"}}, {"name": "339d122c58ceab20ebdae496b280826a", "fusion_lat": 0.0, "type": "electric_bike", "lat": 38.934123666666665, "is_reserved": 0, "is_disabled": 0, "fusion_lon": 0.0, "bike_id": "339d122c58ceab20ebdae496b280826a", "lon": -77.02511933333334, "rental_uris": {"ios": "https://dc.lft.to/lastmile_qr_scan", "android": "https://dc.lft.to/lastmile_qr_scan"}}, {"name": "677dbe1f8aae20d8a5b654d4d8506c3b", "fusion_lat": 0.0, "type": "electric_scooter", "lat": 38.9044405, "is_reserved": 0, "is_disabled": 0, "fusion_lon": 0.0, "bike_id": "677dbe1f8aae20d8a5b654d4d8506c3b", "lon": -76.9755845, "rental_uris": {"ios": "https://dc.lft.to/lastmile_qr_scan", "android": "https://dc.lft.to/lastmile_qr_scan"}}, {"name": "8aba8e1a1f956b573a925b89bf9d9e81", "fusion_lat": 0.0, "type": "electric_scooter", "lat": 38.90244916666666, "is_reserved": 0, "is_disabled": 0, "fusion_lon": 0.0, "bike_id": "8aba8e1a1f956b573a925b89bf9d9e81", "lon": -77.04362266666666, "rental_uris": {"ios": "https://dc.lft.to/lastmile_qr_scan", "android": "https://dc.lft.to/lastmile_qr_scan"}}, {"name": "4ca73014932c2833a61b6fe21a49fc6d", "fusion_lat": 0.0, "type": "electric_scooter", "lat": 38.90569466666667, "is_reserved": 0, "is_disabled": 0, "fusion_lon": 0.0, "bike_id": "4ca73014932c2833a61b6fe21a49fc6d", "lon": -77.02199066666667, "rental_uris": {"ios": "https://dc.lft.to/lastmile_qr_scan", "android": "https://dc.lft.to/lastmile_qr_scan"}}, {"name": "3229fba164a6546133f21b551cd2714d", "fusion_lat": 0.0, "type": "electric_scooter", "lat": 38.910579, "is_reserved": 0, "is_disabled": 0, "fusion_lon": 0.0, "bike_id": "3229fba164a6546133f21b551cd2714d", "lon": -77.052915, "rental_uris": {"ios": "https://dc.lft.to/lastmile_qr_scan", "android": "https://dc.lft.to/lastmile_qr_scan"}}, {"name": "dba3b98347627f0c1f3550e390d59f8d", "fusion_lat": 0.0, "type": "electric_scooter", "lat": 38.90007633333333, "is_reserved": 0, "is_disabled": 0, "fusion_lon": 0.0, "bike_id": "dba3b98347627f0c1f3550e390d59f8d", "lon": -76.99564633333334, "rental_uris": {"ios": "https://dc.lft.to/lastmile_qr_scan", "android": "https://dc.lft.to/lastmile_qr_scan"}}, {"name": "a28221343efcb794948efaf28f27bc32", "fusion_lat": 0.0, "type": "electric_scooter", "lat": 38.87294716666667, "is_reserved": 0, "is_disabled": 0, "fusion_lon": 0.0, "bike_id": "a28221343efcb794948efaf28f27bc32", "lon": -77.00155033333333, "rental_uris": {"ios": "https://dc.lft.to/lastmile_qr_scan", "android": "https://dc.lft.to/lastmile_qr_scan"}}, {"name": "1c2a97c5a45d3f541a601403cd8d2d70", "fusion_lat": 0.0, "type": "electric_scooter", "lat": 38.8934345, "is_reserved": 0, "is_disabled": 0, "fusion_lon": 0.0, "bike_id": "1c2a97c5a45d3f541a601403cd8d2d70", "lon": -76.99142716666667, "rental_uris": {"ios": "https://dc.lft.to/lastmile_qr_scan", "android": "https://dc.lft.to/lastmile_qr_scan"}}, {"name": "0a57433918a0454754666796dd18fd7d", "fusion_lat": 0.0, "type": "electric_scooter", "lat": 38.89484083333333, "is_reserved": 0, "is_disabled": 0, "fusion_lon": 0.0, "bike_id": "0a57433918a0454754666796dd18fd7d", "lon": -76.9487335, "rental_uris": {"ios": "https://dc.lft.to/lastmile_qr_scan", "android": "https://dc.lft.to/lastmile_qr_scan"}}, {"name": "893896ffc481d0dcf1903bfab1304a41", "fusion_lat": 0.0, "type": "electric_scooter", "lat": 38.901438166666665, "is_reserved": 0, "is_disabled": 0, "fusion_lon": 0.0, "bike_id": "893896ffc481d0dcf1903bfab1304a41", "lon": -77.04609133333334, "rental_uris": {"ios": "https://dc.lft.to/lastmile_qr_scan", "android": "https://dc.lft.to/lastmile_qr_scan"}}, {"name": "420a8f546854eaddc2767bd8d0bc6647", "fusion_lat": 0.0, "type": "electric_bike", "lat": 38.945539333333336, "is_reserved": 0, "is_disabled": 0, "fusion_lon": 0.0, "bike_id": "420a8f546854eaddc2767bd8d0bc6647", "lon": -76.89540233333334, "rental_uris": {"ios": "https://dc.lft.to/lastmile_qr_scan", "android": "https://dc.lft.to/lastmile_qr_scan"}}, {"name": "f13cf2c1ae54df648d66eebbd42d7202", "fusion_lat": 0.0, "type": "electric_bike", "lat": 38.97332816666667, "is_reserved": 0, "is_disabled": 0, "fusion_lon": 0.0, "bike_id": "f13cf2c1ae54df648d66eebbd42d7202", "lon": -77.0214155, "rental_uris": {"ios": "https://dc.lft.to/lastmile_qr_scan", "android": "https://dc.lft.to/lastmile_qr_scan"}}, {"name": "c161fec19235d224904394538d2b1702", "fusion_lat": 0.0, "type": "electric_scooter", "lat": 38.9037935, "is_reserved": 0, "is_disabled": 0, "fusion_lon": 0.0, "bike_id": "c161fec19235d224904394538d2b1702", "lon": -77.04544016666667, "rental_uris": {"ios": "https://dc.lft.to/lastmile_qr_scan", "android": "https://dc.lft.to/lastmile_qr_scan"}}, {"name": "3edbbe22c392c37a30442bf2e7e3462e", "fusion_lat": 0.0, "type": "electric_scooter", "lat": 38.87572266666667, "is_reserved": 0, "is_disabled": 0, "fusion_lon": 0.0, "bike_id": "3edbbe22c392c37a30442bf2e7e3462e", "lon": -77.00598733333334, "rental_uris": {"ios": "https://dc.lft.to/lastmile_qr_scan", "android": "https://dc.lft.to/lastmile_qr_scan"}}, {"name": "14fb81137fb0f9adc6ea71c5dfa3185c", "fusion_lat": 0.0, "type": "electric_scooter", "lat": 38.919810166666664, "is_reserved": 0, "is_disabled": 0, "fusion_lon": 0.0, "bike_id": "14fb81137fb0f9adc6ea71c5dfa3185c", "lon": -77.032985, "rental_uris": {"ios": "https://dc.lft.to/lastmile_qr_scan", "android": "https://dc.lft.to/lastmile_qr_scan"}}, {"name": "8438004fbc81f81ad5a1e537cd098d51", "fusion_lat": 0.0, "type": "electric_scooter", "lat": 38.89649566666667, "is_reserved": 0, "is_disabled": 0, "fusion_lon": 0.0, "bike_id": "8438004fbc81f81ad5a1e537cd098d51", "lon": -77.00928566666667, "rental_uris": {"ios": "https://dc.lft.to/lastmile_qr_scan", "android": "https://dc.lft.to/lastmile_qr_scan"}}, {"name": "de01ffaad328e3c128a6eec4dfd3fd9b", "fusion_lat": 0.0, "type": "electric_scooter", "lat": 38.91408766666667, "is_reserved": 0, "is_disabled": 0, "fusion_lon": 0.0, "bike_id": "de01ffaad328e3c128a6eec4dfd3fd9b", "lon": -77.0456335, "rental_uris": {"ios": "https://dc.lft.to/lastmile_qr_scan", "android": "https://dc.lft.to/lastmile_qr_scan"}}, {"name": "6e8cd1f316d93a6dbc2d1c163df05b7d", "fusion_lat": 0.0, "type": "electric_scooter", "lat": 38.9171055, "is_reserved": 0, "is_disabled": 0, "fusion_lon": 0.0, "bike_id": "6e8cd1f316d93a6dbc2d1c163df05b7d", "lon": -77.03863833333334, "rental_uris": {"ios": "https://dc.lft.to/lastmile_qr_scan", "android": "https://dc.lft.to/lastmile_qr_scan"}}, {"name": "440874fc2fca01c13945438ceeccaa44", "fusion_lat": 0.0, "type": "electric_scooter", "lat": 38.905444833333334, "is_reserved": 0, "is_disabled": 0, "fusion_lon": 0.0, "bike_id": "440874fc2fca01c13945438ceeccaa44", "lon": -77.00699333333333, "rental_uris": {"ios": "https://dc.lft.to/lastmile_qr_scan", "android": "https://dc.lft.to/lastmile_qr_scan"}}, {"name": "da5e48b3a11e21694e5d0744e9b5f52b", "fusion_lat": 0.0, "type": "electric_scooter", "lat": 38.880312, "is_reserved": 0, "is_disabled": 0, "fusion_lon": 0.0, "bike_id": "da5e48b3a11e21694e5d0744e9b5f52b", "lon": -77.00514033333333, "rental_uris": {"ios": "https://dc.lft.to/lastmile_qr_scan", "android": "https://dc.lft.to/lastmile_qr_scan"}}, {"name": "77efa65db7c3ec4d433743b711bf073a", "fusion_lat": 0.0, "type": "electric_scooter", "lat": 38.93871466666667, "is_reserved": 0, "is_disabled": 0, "fusion_lon": 0.0, "bike_id": "77efa65db7c3ec4d433743b711bf073a", "lon": -77.02917966666666, "rental_uris": {"ios": "https://dc.lft.to/lastmile_qr_scan", "android": "https://dc.lft.to/lastmile_qr_scan"}}, {"name": "5d57e02c5938065685ae5472359095b1", "fusion_lat": 0.0, "type": "electric_scooter", "lat": 38.876613166666665, "is_reserved": 0, "is_disabled": 0, "fusion_lon": 0.0, "bike_id": "5d57e02c5938065685ae5472359095b1", "lon": -77.00806933333334, "rental_uris": {"ios": "https://dc.lft.to/lastmile_qr_scan", "android": "https://dc.lft.to/lastmile_qr_scan"}}, {"name": "e772f1975488039c3cc0a37c3543e026", "fusion_lat": 0.0, "type": "electric_scooter", "lat": 38.884056666666666, "is_reserved": 0, "is_disabled": 0, "fusion_lon": 0.0, "bike_id": "e772f1975488039c3cc0a37c3543e026", "lon": -77.01934783333333, "rental_uris": {"ios": "https://dc.lft.to/lastmile_qr_scan", "android": "https://dc.lft.to/lastmile_qr_scan"}}, {"name": "5b70576b97c3e515171fe6615839f93c", "fusion_lat": 0.0, "type": "electric_scooter", "lat": 38.92505966666667, "is_reserved": 0, "is_disabled": 0, "fusion_lon": 0.0, "bike_id": "5b70576b97c3e515171fe6615839f93c", "lon": -77.0216865, "rental_uris": {"ios": "https://dc.lft.to/lastmile_qr_scan", "android": "https://dc.lft.to/lastmile_qr_scan"}}, {"name": "e573dc6b25a7ba33b9bbb4bdc677d2ad", "fusion_lat": 0.0, "type": "electric_scooter", "lat": 38.899717, "is_reserved": 0, "is_disabled": 0, "fusion_lon": 0.0, "bike_id": "e573dc6b25a7ba33b9bbb4bdc677d2ad", "lon": -77.057062, "rental_uris": {"ios": "https://dc.lft.to/lastmile_qr_scan", "android": "https://dc.lft.to/lastmile_qr_scan"}}, {"name": "430799b372c720d726d0722f6aec53d0", "fusion_lat": 0.0, "type": "electric_scooter", "lat": 38.87644433333333, "is_reserved": 0, "is_disabled": 0, "fusion_lon": 0.0, "bike_id": "430799b372c720d726d0722f6aec53d0", "lon": -77.00746566666666, "rental_uris": {"ios": "https://dc.lft.to/lastmile_qr_scan", "android": "https://dc.lft.to/lastmile_qr_scan"}}, {"name": "2712ade948f82b95d110e88abbe1eaf0", "fusion_lat": 0.0, "type": "electric_scooter", "lat": 38.918006166666665, "is_reserved": 0, "is_disabled": 0, "fusion_lon": 0.0, "bike_id": "2712ade948f82b95d110e88abbe1eaf0", "lon": -77.03445133333334, "rental_uris": {"ios": "https://dc.lft.to/lastmile_qr_scan", "android": "https://dc.lft.to/lastmile_qr_scan"}}, {"name": "3ba1fb6f26ffef455ed7299c90a959bb", "fusion_lat": 0.0, "type": "electric_scooter", "lat": 38.896152666666666, "is_reserved": 0, "is_disabled": 0, "fusion_lon": 0.0, "bike_id": "3ba1fb6f26ffef455ed7299c90a959bb", "lon": -77.0475455, "rental_uris": {"ios": "https://dc.lft.to/lastmile_qr_scan", "android": "https://dc.lft.to/lastmile_qr_scan"}}, {"name": "97a52120a4958dc2f45988228db443b8", "fusion_lat": 0.0, "type": "electric_scooter", "lat": 38.918045666666664, "is_reserved": 0, "is_disabled": 0, "fusion_lon": 0.0, "bike_id": "97a52120a4958dc2f45988228db443b8", "lon": -77.039979, "rental_uris": {"ios": "https://dc.lft.to/lastmile_qr_scan", "android": "https://dc.lft.to/lastmile_qr_scan"}}, {"name": "174a3dd7d5183141313bd065ed19dc4c", "fusion_lat": 0.0, "type": "electric_scooter", "lat": 38.93092633333333, "is_reserved": 0, "is_disabled": 0, "fusion_lon": 0.0, "bike_id": "174a3dd7d5183141313bd065ed19dc4c", "lon": -77.0343995, "rental_uris": {"ios": "https://dc.lft.to/lastmile_qr_scan", "android": "https://dc.lft.to/lastmile_qr_scan"}}, {"name": "dad87e6a7a26cc3dc5bf3c4bb1efc841", "fusion_lat": 0.0, "type": "electric_bike", "lat": 38.828745166666664, "is_reserved": 0, "is_disabled": 0, "fusion_lon": 0.0, "bike_id": "dad87e6a7a26cc3dc5bf3c4bb1efc841", "lon": -77.11218833333334, "rental_uris": {"ios": "https://dc.lft.to/lastmile_qr_scan", "android": "https://dc.lft.to/lastmile_qr_scan"}}, {"name": "2a7e426f3d17cc5818d41534cf64a752", "fusion_lat": 0.0, "type": "electric_bike", "lat": 38.99091933333333, "is_reserved": 0, "is_disabled": 0, "fusion_lon": 0.0, "bike_id": "2a7e426f3d17cc5818d41534cf64a752", "lon": -76.87496866666666, "rental_uris": {"ios": "https://dc.lft.to/lastmile_qr_scan", "android": "https://dc.lft.to/lastmile_qr_scan"}}, {"name": "043794be79a2d22af998d710cb066c07", "fusion_lat": 0.0, "type": "electric_scooter", "lat": 38.9096005, "is_reserved": 0, "is_disabled": 0, "fusion_lon": 0.0, "bike_id": "043794be79a2d22af998d710cb066c07", "lon": -77.02748183333334, "rental_uris": {"ios": "https://dc.lft.to/lastmile_qr_scan", "android": "https://dc.lft.to/lastmile_qr_scan"}}, {"name": "e11735e8e8340393a7d4d11ddddeb017", "fusion_lat": 0.0, "type": "electric_scooter", "lat": 38.918738166666664, "is_reserved": 0, "is_disabled": 0, "fusion_lon": 0.0, "bike_id": "e11735e8e8340393a7d4d11ddddeb017", "lon": -77.07341983333333, "rental_uris": {"ios": "https://dc.lft.to/lastmile_qr_scan", "android": "https://dc.lft.to/lastmile_qr_scan"}}, {"name": "db98493f068b4559f5d74a2c1ffefe5e", "fusion_lat": 0.0, "type": "electric_bike", "lat": 38.9069195, "is_reserved": 0, "is_disabled": 0, "fusion_lon": 0.0, "bike_id": "db98493f068b4559f5d74a2c1ffefe5e", "lon": -77.063704, "rental_uris": {"ios": "https://dc.lft.to/lastmile_qr_scan", "android": "https://dc.lft.to/lastmile_qr_scan"}}, {"name": "f611d4777b067a7bd48bbecd7fcb4108", "fusion_lat": 0.0, "type": "electric_scooter", "lat": 38.9264635, "is_reserved": 0, "is_disabled": 0, "fusion_lon": 0.0, "bike_id": "f611d4777b067a7bd48bbecd7fcb4108", "lon": -77.03317266666667, "rental_uris": {"ios": "https://dc.lft.to/lastmile_qr_scan", "android": "https://dc.lft.to/lastmile_qr_scan"}}, {"name": "6876b4821a051e31e973d1cb04928c6f", "fusion_lat": 0.0, "type": "electric_scooter", "lat": 38.915660333333335, "is_reserved": 0, "is_disabled": 0, "fusion_lon": 0.0, "bike_id": "6876b4821a051e31e973d1cb04928c6f", "lon": -77.03235333333333, "rental_uris": {"ios": "https://dc.lft.to/lastmile_qr_scan", "android": "https://dc.lft.to/lastmile_qr_scan"}}, {"name": "ec8bdc56d5a0d12b627f7fb5cab7bf4c", "fusion_lat": 0.0, "type": "electric_bike", "lat": 38.8707475, "is_reserved": 0, "is_disabled": 0, "fusion_lon": 0.0, "bike_id": "ec8bdc56d5a0d12b627f7fb5cab7bf4c", "lon": -77.11045816666666, "rental_uris": {"ios": "https://dc.lft.to/lastmile_qr_scan", "android": "https://dc.lft.to/lastmile_qr_scan"}}, {"name": "16cc1f0bcc48b26cfe022f526834decb", "fusion_lat": 0.0, "type": "electric_scooter", "lat": 38.8876755, "is_reserved": 0, "is_disabled": 0, "fusion_lon": 0.0, "bike_id": "16cc1f0bcc48b26cfe022f526834decb", "lon": -76.980178, "rental_uris": {"ios": "https://dc.lft.to/lastmile_qr_scan", "android": "https://dc.lft.to/lastmile_qr_scan"}}, {"name": "71a83c008646ae6f6e73a4ff39c7207d", "fusion_lat": 0.0, "type": "electric_scooter", "lat": 38.90981016666667, "is_reserved": 0, "is_disabled": 0, "fusion_lon": 0.0, "bike_id": "71a83c008646ae6f6e73a4ff39c7207d", "lon": -77.03864266666666, "rental_uris": {"ios": "https://dc.lft.to/lastmile_qr_scan", "android": "https://dc.lft.to/lastmile_qr_scan"}}, {"name": "ce1d20c5b1dd829aa1daf47cc317871e", "fusion_lat": 0.0, "type": "electric_bike", "lat": 38.9155535, "is_reserved": 0, "is_disabled": 0, "fusion_lon": 0.0, "bike_id": "ce1d20c5b1dd829aa1daf47cc317871e", "lon": -76.98356166666667, "rental_uris": {"ios": "https://dc.lft.to/lastmile_qr_scan", "android": "https://dc.lft.to/lastmile_qr_scan"}}, {"name": "55f63d58f265512f07e7beb33e5ca6bb", "fusion_lat": 0.0, "type": "electric_bike", "lat": 38.9649945, "is_reserved": 0, "is_disabled": 0, "fusion_lon": 0.0, "bike_id": "55f63d58f265512f07e7beb33e5ca6bb", "lon": -77.02824733333334, "rental_uris": {"ios": "https://dc.lft.to/lastmile_qr_scan", "android": "https://dc.lft.to/lastmile_qr_scan"}}, {"name": "ba16eeb843483037f8d95185b76e2511", "fusion_lat": 0.0, "type": "electric_scooter", "lat": 38.9176785, "is_reserved": 0, "is_disabled": 0, "fusion_lon": 0.0, "bike_id": "ba16eeb843483037f8d95185b76e2511", "lon": -77.01749016666666, "rental_uris": {"ios": "https://dc.lft.to/lastmile_qr_scan", "android": "https://dc.lft.to/lastmile_qr_scan"}}, {"name": "bc82de002e41a16f84c03ae98c45b6ee", "fusion_lat": 0.0, "type": "electric_scooter", "lat": 38.9057695, "is_reserved": 0, "is_disabled": 0, "fusion_lon": 0.0, "bike_id": "bc82de002e41a16f84c03ae98c45b6ee", "lon": -77.03425, "rental_uris": {"ios": "https://dc.lft.to/lastmile_qr_scan", "android": "https://dc.lft.to/lastmile_qr_scan"}}, {"name": "e8794e8a6738fb3c7170832b4ed526de", "fusion_lat": 0.0, "type": "electric_scooter", "lat": 38.897433166666666, "is_reserved": 0, "is_disabled": 0, "fusion_lon": 0.0, "bike_id": "e8794e8a6738fb3c7170832b4ed526de", "lon": -77.04726533333333, "rental_uris": {"ios": "https://dc.lft.to/lastmile_qr_scan", "android": "https://dc.lft.to/lastmile_qr_scan"}}, {"name": "852f76d2d73cb4c1cc91cbda22f378c9", "fusion_lat": 0.0, "type": "electric_scooter", "lat": 38.88989766666667, "is_reserved": 0, "is_disabled": 0, "fusion_lon": 0.0, "bike_id": "852f76d2d73cb4c1cc91cbda22f378c9", "lon": -77.00119833333333, "rental_uris": {"ios": "https://dc.lft.to/lastmile_qr_scan", "android": "https://dc.lft.to/lastmile_qr_scan"}}, {"name": "0baca791d92dbd78fc97d47e1fc64239", "fusion_lat": 0.0, "type": "electric_scooter", "lat": 38.87751183333334, "is_reserved": 0, "is_disabled": 0, "fusion_lon": 0.0, "bike_id": "0baca791d92dbd78fc97d47e1fc64239", "lon": -76.97239766666667, "rental_uris": {"ios": "https://dc.lft.to/lastmile_qr_scan", "android": "https://dc.lft.to/lastmile_qr_scan"}}, {"name": "3c8abe8560c0fe0dc76707160628ef8f", "fusion_lat": 0.0, "type": "electric_scooter", "lat": 38.948353833333336, "is_reserved": 0, "is_disabled": 0, "fusion_lon": 0.0, "bike_id": "3c8abe8560c0fe0dc76707160628ef8f", "lon": -77.02552733333333, "rental_uris": {"ios": "https://dc.lft.to/lastmile_qr_scan", "android": "https://dc.lft.to/lastmile_qr_scan"}}, {"name": "e372f2ac628ee7dc2c1398fdc429d99a", "fusion_lat": 0.0, "type": "electric_scooter", "lat": 38.984735, "is_reserved": 0, "is_disabled": 0, "fusion_lon": 0.0, "bike_id": "e372f2ac628ee7dc2c1398fdc429d99a", "lon": -77.02640883333333, "rental_uris": {"ios": "https://dc.lft.to/lastmile_qr_scan", "android": "https://dc.lft.to/lastmile_qr_scan"}}, {"name": "3ca379173d5a54f50d3c5e474925ace7", "fusion_lat": 0.0, "type": "electric_scooter", "lat": 38.91292266666667, "is_reserved": 0, "is_disabled": 0, "fusion_lon": 0.0, "bike_id": "3ca379173d5a54f50d3c5e474925ace7", "lon": -77.06165766666666, "rental_uris": {"ios": "https://dc.lft.to/lastmile_qr_scan", "android": "https://dc.lft.to/lastmile_qr_scan"}}, {"name": "0915e4610ff3a9ddd551b79095b994a0", "fusion_lat": 0.0, "type": "electric_scooter", "lat": 38.91565216666667, "is_reserved": 0, "is_disabled": 0, "fusion_lon": 0.0, "bike_id": "0915e4610ff3a9ddd551b79095b994a0", "lon": -77.02947033333334, "rental_uris": {"ios": "https://dc.lft.to/lastmile_qr_scan", "android": "https://dc.lft.to/lastmile_qr_scan"}}, {"name": "b2996a3d25504d0832ee069873db5e84", "fusion_lat": 0.0, "type": "electric_scooter", "lat": 38.94294416666666, "is_reserved": 0, "is_disabled": 0, "fusion_lon": 0.0, "bike_id": "b2996a3d25504d0832ee069873db5e84", "lon": -77.021729, "rental_uris": {"ios": "https://dc.lft.to/lastmile_qr_scan", "android": "https://dc.lft.to/lastmile_qr_scan"}}, {"name": "d90cb31171176469c9c9333af39ea715", "fusion_lat": 0.0, "type": "electric_bike", "lat": 38.89216016666666, "is_reserved": 0, "is_disabled": 0, "fusion_lon": 0.0, "bike_id": "d90cb31171176469c9c9333af39ea715", "lon": -77.10781133333333, "rental_uris": {"ios": "https://dc.lft.to/lastmile_qr_scan", "android": "https://dc.lft.to/lastmile_qr_scan"}}, {"name": "3a50d353ab58dddf8543cc6d4b0dc4fe", "fusion_lat": 0.0, "type": "electric_scooter", "lat": 38.9094605, "is_reserved": 0, "is_disabled": 0, "fusion_lon": 0.0, "bike_id": "3a50d353ab58dddf8543cc6d4b0dc4fe", "lon": -77.02689816666667, "rental_uris": {"ios": "https://dc.lft.to/lastmile_qr_scan", "android": "https://dc.lft.to/lastmile_qr_scan"}}, {"name": "7f14b68cce1b9ce9ca3c45f5656701ec", "fusion_lat": 0.0, "type": "electric_scooter", "lat": 38.866926166666666, "is_reserved": 0, "is_disabled": 0, "fusion_lon": 0.0, "bike_id": "7f14b68cce1b9ce9ca3c45f5656701ec", "lon": -76.9890355, "rental_uris": {"ios": "https://dc.lft.to/lastmile_qr_scan", "android": "https://dc.lft.to/lastmile_qr_scan"}}, {"name": "ff73c9cd49e0a66d2fb0f52edf7275e8", "fusion_lat": 0.0, "type": "electric_scooter", "lat": 38.902679166666665, "is_reserved": 0, "is_disabled": 0, "fusion_lon": 0.0, "bike_id": "ff73c9cd49e0a66d2fb0f52edf7275e8", "lon": -77.034878, "rental_uris": {"ios": "https://dc.lft.to/lastmile_qr_scan", "android": "https://dc.lft.to/lastmile_qr_scan"}}, {"name": "4f59653e4dcd9c7592e9ebb754c89142", "fusion_lat": 0.0, "type": "electric_bike", "lat": 38.95275266666667, "is_reserved": 0, "is_disabled": 0, "fusion_lon": 0.0, "bike_id": "4f59653e4dcd9c7592e9ebb754c89142", "lon": -77.06984983333334, "rental_uris": {"ios": "https://dc.lft.to/lastmile_qr_scan", "android": "https://dc.lft.to/lastmile_qr_scan"}}, {"name": "a1cb035492e9569067b860e555c1e935", "fusion_lat": 0.0, "type": "electric_scooter", "lat": 38.921871833333334, "is_reserved": 0, "is_disabled": 0, "fusion_lon": 0.0, "bike_id": "a1cb035492e9569067b860e555c1e935", "lon": -77.04015316666667, "rental_uris": {"ios": "https://dc.lft.to/lastmile_qr_scan", "android": "https://dc.lft.to/lastmile_qr_scan"}}, {"name": "97b23140294ac0a8feaead3f54ee7194", "fusion_lat": 0.0, "type": "electric_scooter", "lat": 38.883835833333336, "is_reserved": 0, "is_disabled": 0, "fusion_lon": 0.0, "bike_id": "97b23140294ac0a8feaead3f54ee7194", "lon": -77.02626133333334, "rental_uris": {"ios": "https://dc.lft.to/lastmile_qr_scan", "android": "https://dc.lft.to/lastmile_qr_scan"}}, {"name": "1672a56ec75bb552eddf1c41992df1f9", "fusion_lat": 0.0, "type": "electric_scooter", "lat": 38.89189116666667, "is_reserved": 0, "is_disabled": 0, "fusion_lon": 0.0, "bike_id": "1672a56ec75bb552eddf1c41992df1f9", "lon": -77.015849, "rental_uris": {"ios": "https://dc.lft.to/lastmile_qr_scan", "android": "https://dc.lft.to/lastmile_qr_scan"}}, {"name": "ec0fe028f785c6f106daa11f0e0e022b", "fusion_lat": 0.0, "type": "electric_scooter", "lat": 38.910682333333334, "is_reserved": 0, "is_disabled": 0, "fusion_lon": 0.0, "bike_id": "ec0fe028f785c6f106daa11f0e0e022b", "lon": -77.067177, "rental_uris": {"ios": "https://dc.lft.to/lastmile_qr_scan", "android": "https://dc.lft.to/lastmile_qr_scan"}}, {"name": "06399fc40ab72006a2ee6743f33d999b", "fusion_lat": 0.0, "type": "electric_bike", "lat": 38.93321483333333, "is_reserved": 0, "is_disabled": 0, "fusion_lon": 0.0, "bike_id": "06399fc40ab72006a2ee6743f33d999b", "lon": -77.0362125, "rental_uris": {"ios": "https://dc.lft.to/lastmile_qr_scan", "android": "https://dc.lft.to/lastmile_qr_scan"}}, {"name": "d2742df9df6f901dd2a441a29f0aa1b5", "fusion_lat": 0.0, "type": "electric_scooter", "lat": 38.909639166666665, "is_reserved": 0, "is_disabled": 0, "fusion_lon": 0.0, "bike_id": "d2742df9df6f901dd2a441a29f0aa1b5", "lon": -77.03886333333334, "rental_uris": {"ios": "https://dc.lft.to/lastmile_qr_scan", "android": "https://dc.lft.to/lastmile_qr_scan"}}, {"name": "a2b08a6624abbcce170c22927bf1efb0", "fusion_lat": 0.0, "type": "electric_scooter", "lat": 38.87298966666667, "is_reserved": 0, "is_disabled": 0, "fusion_lon": 0.0, "bike_id": "a2b08a6624abbcce170c22927bf1efb0", "lon": -77.009803, "rental_uris": {"ios": "https://dc.lft.to/lastmile_qr_scan", "android": "https://dc.lft.to/lastmile_qr_scan"}}, {"name": "614f2289a4aa52fd96acf731004dd6a9", "fusion_lat": 0.0, "type": "electric_scooter", "lat": 38.916951166666664, "is_reserved": 0, "is_disabled": 0, "fusion_lon": 0.0, "bike_id": "614f2289a4aa52fd96acf731004dd6a9", "lon": -77.01256983333333, "rental_uris": {"ios": "https://dc.lft.to/lastmile_qr_scan", "android": "https://dc.lft.to/lastmile_qr_scan"}}, {"name": "efdecc7c1b195c56eba5967d7b2de7b7", "fusion_lat": 0.0, "type": "electric_scooter", "lat": 38.87900116666667, "is_reserved": 0, "is_disabled": 0, "fusion_lon": 0.0, "bike_id": "efdecc7c1b195c56eba5967d7b2de7b7", "lon": -77.0057655, "rental_uris": {"ios": "https://dc.lft.to/lastmile_qr_scan", "android": "https://dc.lft.to/lastmile_qr_scan"}}, {"name": "285a8bbf3ebd0c9007c3ec817913a65b", "fusion_lat": 0.0, "type": "electric_scooter", "lat": 38.914212, "is_reserved": 0, "is_disabled": 0, "fusion_lon": 0.0, "bike_id": "285a8bbf3ebd0c9007c3ec817913a65b", "lon": -77.02204316666666, "rental_uris": {"ios": "https://dc.lft.to/lastmile_qr_scan", "android": "https://dc.lft.to/lastmile_qr_scan"}}, {"name": "9c9021d11f2edae97987a6e717598790", "fusion_lat": 0.0, "type": "electric_scooter", "lat": 38.9037955, "is_reserved": 0, "is_disabled": 0, "fusion_lon": 0.0, "bike_id": "9c9021d11f2edae97987a6e717598790", "lon": -77.04904633333334, "rental_uris": {"ios": "https://dc.lft.to/lastmile_qr_scan", "android": "https://dc.lft.to/lastmile_qr_scan"}}, {"name": "a2cf6d54648dde5da2d1272f37d4aa19", "fusion_lat": 0.0, "type": "electric_scooter", "lat": 38.916835166666665, "is_reserved": 0, "is_disabled": 0, "fusion_lon": 0.0, "bike_id": "a2cf6d54648dde5da2d1272f37d4aa19", "lon": -77.02955616666667, "rental_uris": {"ios": "https://dc.lft.to/lastmile_qr_scan", "android": "https://dc.lft.to/lastmile_qr_scan"}}, {"name": "f9cf8ea587ad0797f7ab90983375ef44", "fusion_lat": 0.0, "type": "electric_scooter", "lat": 38.945624333333335, "is_reserved": 0, "is_disabled": 0, "fusion_lon": 0.0, "bike_id": "f9cf8ea587ad0797f7ab90983375ef44", "lon": -77.07773233333333, "rental_uris": {"ios": "https://dc.lft.to/lastmile_qr_scan", "android": "https://dc.lft.to/lastmile_qr_scan"}}, {"name": "2a74de2d92a1d645ec379aaa6c8358c7", "fusion_lat": 0.0, "type": "electric_scooter", "lat": 38.90140683333333, "is_reserved": 0, "is_disabled": 0, "fusion_lon": 0.0, "bike_id": "2a74de2d92a1d645ec379aaa6c8358c7", "lon": -76.98949716666667, "rental_uris": {"ios": "https://dc.lft.to/lastmile_qr_scan", "android": "https://dc.lft.to/lastmile_qr_scan"}}, {"name": "10747af897ffa04b62bab6f76983b17d", "fusion_lat": 0.0, "type": "electric_scooter", "lat": 38.892288666666666, "is_reserved": 0, "is_disabled": 0, "fusion_lon": 0.0, "bike_id": "10747af897ffa04b62bab6f76983b17d", "lon": -77.05008216666667, "rental_uris": {"ios": "https://dc.lft.to/lastmile_qr_scan", "android": "https://dc.lft.to/lastmile_qr_scan"}}, {"name": "72bea63c0cbd6e2b019de343e161a143", "fusion_lat": 0.0, "type": "electric_scooter", "lat": 38.906439, "is_reserved": 0, "is_disabled": 0, "fusion_lon": 0.0, "bike_id": "72bea63c0cbd6e2b019de343e161a143", "lon": -77.0413855, "rental_uris": {"ios": "https://dc.lft.to/lastmile_qr_scan", "android": "https://dc.lft.to/lastmile_qr_scan"}}, {"name": "64cb9a275a09b0add6c5a5f7fcdd54f5", "fusion_lat": 0.0, "type": "electric_scooter", "lat": 38.877542, "is_reserved": 0, "is_disabled": 0, "fusion_lon": 0.0, "bike_id": "64cb9a275a09b0add6c5a5f7fcdd54f5", "lon": -77.01971033333334, "rental_uris": {"ios": "https://dc.lft.to/lastmile_qr_scan", "android": "https://dc.lft.to/lastmile_qr_scan"}}, {"name": "e1ecf80cbac1b7757c2cd28403aefd98", "fusion_lat": 0.0, "type": "electric_scooter", "lat": 38.91395833333333, "is_reserved": 0, "is_disabled": 0, "fusion_lon": 0.0, "bike_id": "e1ecf80cbac1b7757c2cd28403aefd98", "lon": -77.04171883333333, "rental_uris": {"ios": "https://dc.lft.to/lastmile_qr_scan", "android": "https://dc.lft.to/lastmile_qr_scan"}}, {"name": "e2387f0b454234d69afad445f1d1751a", "fusion_lat": 0.0, "type": "electric_bike", "lat": 38.842742333333334, "is_reserved": 0, "is_disabled": 0, "fusion_lon": 0.0, "bike_id": "e2387f0b454234d69afad445f1d1751a", "lon": -76.98843516666666, "rental_uris": {"ios": "https://dc.lft.to/lastmile_qr_scan", "android": "https://dc.lft.to/lastmile_qr_scan"}}, {"name": "caa6fc59eadd45ad0161acb785636399", "fusion_lat": 0.0, "type": "electric_scooter", "lat": 38.90613466666667, "is_reserved": 0, "is_disabled": 0, "fusion_lon": 0.0, "bike_id": "caa6fc59eadd45ad0161acb785636399", "lon": -77.0070465, "rental_uris": {"ios": "https://dc.lft.to/lastmile_qr_scan", "android": "https://dc.lft.to/lastmile_qr_scan"}}, {"name": "5a1bb6d859dbfcf4a64a35cf0a845cce", "fusion_lat": 0.0, "type": "electric_scooter", "lat": 38.902811166666666, "is_reserved": 0, "is_disabled": 0, "fusion_lon": 0.0, "bike_id": "5a1bb6d859dbfcf4a64a35cf0a845cce", "lon": -77.06285233333334, "rental_uris": {"ios": "https://dc.lft.to/lastmile_qr_scan", "android": "https://dc.lft.to/lastmile_qr_scan"}}, {"name": "2bfc00ab5eff4fa4919147764bc185f3", "fusion_lat": 0.0, "type": "electric_scooter", "lat": 38.87914516666667, "is_reserved": 0, "is_disabled": 0, "fusion_lon": 0.0, "bike_id": "2bfc00ab5eff4fa4919147764bc185f3", "lon": -77.0225675, "rental_uris": {"ios": "https://dc.lft.to/lastmile_qr_scan", "android": "https://dc.lft.to/lastmile_qr_scan"}}, {"name": "24fd2ba383b9456d3e183692bca50a7c", "fusion_lat": 0.0, "type": "electric_bike", "lat": 38.8813635, "is_reserved": 0, "is_disabled": 0, "fusion_lon": 0.0, "bike_id": "24fd2ba383b9456d3e183692bca50a7c", "lon": -76.98091033333333, "rental_uris": {"ios": "https://dc.lft.to/lastmile_qr_scan", "android": "https://dc.lft.to/lastmile_qr_scan"}}, {"name": "95180d3bd0accc5968696f2370a48b26", "fusion_lat": 0.0, "type": "electric_scooter", "lat": 38.91043466666667, "is_reserved": 0, "is_disabled": 0, "fusion_lon": 0.0, "bike_id": "95180d3bd0accc5968696f2370a48b26", "lon": -77.04347466666667, "rental_uris": {"ios": "https://dc.lft.to/lastmile_qr_scan", "android": "https://dc.lft.to/lastmile_qr_scan"}}, {"name": "5c6f2aabdd3d13d0cb05b168ca484553", "fusion_lat": 0.0, "type": "electric_scooter", "lat": 38.842948166666666, "is_reserved": 0, "is_disabled": 0, "fusion_lon": 0.0, "bike_id": "5c6f2aabdd3d13d0cb05b168ca484553", "lon": -76.99949933333333, "rental_uris": {"ios": "https://dc.lft.to/lastmile_qr_scan", "android": "https://dc.lft.to/lastmile_qr_scan"}}, {"name": "8b3081fa98440797fb3e37783660ddf4", "fusion_lat": 0.0, "type": "electric_scooter", "lat": 38.88432483333333, "is_reserved": 0, "is_disabled": 0, "fusion_lon": 0.0, "bike_id": "8b3081fa98440797fb3e37783660ddf4", "lon": -77.0304665, "rental_uris": {"ios": "https://dc.lft.to/lastmile_qr_scan", "android": "https://dc.lft.to/lastmile_qr_scan"}}, {"name": "5d55ad2da99ae0e5c2d2649eb86d93d1", "fusion_lat": 0.0, "type": "electric_scooter", "lat": 38.922088, "is_reserved": 0, "is_disabled": 0, "fusion_lon": 0.0, "bike_id": "5d55ad2da99ae0e5c2d2649eb86d93d1", "lon": -77.041262, "rental_uris": {"ios": "https://dc.lft.to/lastmile_qr_scan", "android": "https://dc.lft.to/lastmile_qr_scan"}}, {"name": "255cabc36c0648d3fc8184a2146c855a", "fusion_lat": 0.0, "type": "electric_scooter", "lat": 38.9180905, "is_reserved": 0, "is_disabled": 0, "fusion_lon": 0.0, "bike_id": "255cabc36c0648d3fc8184a2146c855a", "lon": -77.03431983333333, "rental_uris": {"ios": "https://dc.lft.to/lastmile_qr_scan", "android": "https://dc.lft.to/lastmile_qr_scan"}}, {"name": "1d1740ba2ca4d6835b46a1407401d8eb", "fusion_lat": 0.0, "type": "electric_bike", "lat": 38.8245125, "is_reserved": 0, "is_disabled": 0, "fusion_lon": 0.0, "bike_id": "1d1740ba2ca4d6835b46a1407401d8eb", "lon": -77.07043516666667, "rental_uris": {"ios": "https://dc.lft.to/lastmile_qr_scan", "android": "https://dc.lft.to/lastmile_qr_scan"}}, {"name": "eb6915331e5895f865b267f84875c507", "fusion_lat": 0.0, "type": "electric_scooter", "lat": 38.902959, "is_reserved": 0, "is_disabled": 0, "fusion_lon": 0.0, "bike_id": "eb6915331e5895f865b267f84875c507", "lon": -77.05821083333333, "rental_uris": {"ios": "https://dc.lft.to/lastmile_qr_scan", "android": "https://dc.lft.to/lastmile_qr_scan"}}, {"name": "3ae40d9400b65267a37b1c402bad1300", "fusion_lat": 0.0, "type": "electric_scooter", "lat": 38.90642066666667, "is_reserved": 0, "is_disabled": 0, "fusion_lon": 0.0, "bike_id": "3ae40d9400b65267a37b1c402bad1300", "lon": -76.98572683333333, "rental_uris": {"ios": "https://dc.lft.to/lastmile_qr_scan", "android": "https://dc.lft.to/lastmile_qr_scan"}}, {"name": "34422cdcced19eb54c4ae324524e0b42", "fusion_lat": 0.0, "type": "electric_scooter", "lat": 38.92315833333333, "is_reserved": 0, "is_disabled": 0, "fusion_lon": 0.0, "bike_id": "34422cdcced19eb54c4ae324524e0b42", "lon": -77.0297835, "rental_uris": {"ios": "https://dc.lft.to/lastmile_qr_scan", "android": "https://dc.lft.to/lastmile_qr_scan"}}, {"name": "ce2334175c3f5d9c288a4205385792ef", "fusion_lat": 0.0, "type": "electric_scooter", "lat": 38.9319135, "is_reserved": 0, "is_disabled": 0, "fusion_lon": 0.0, "bike_id": "ce2334175c3f5d9c288a4205385792ef", "lon": -77.02581083333334, "rental_uris": {"ios": "https://dc.lft.to/lastmile_qr_scan", "android": "https://dc.lft.to/lastmile_qr_scan"}}, {"name": "d2c81283aa9e3744300144a8f780f683", "fusion_lat": 0.0, "type": "electric_scooter", "lat": 38.9243465, "is_reserved": 0, "is_disabled": 0, "fusion_lon": 0.0, "bike_id": "d2c81283aa9e3744300144a8f780f683", "lon": -77.04221366666667, "rental_uris": {"ios": "https://dc.lft.to/lastmile_qr_scan", "android": "https://dc.lft.to/lastmile_qr_scan"}}, {"name": "f5b56ba9a61665c54c524491a3fbb863", "fusion_lat": 0.0, "type": "electric_bike", "lat": 38.91182383333334, "is_reserved": 0, "is_disabled": 0, "fusion_lon": 0.0, "bike_id": "f5b56ba9a61665c54c524491a3fbb863", "lon": -77.01149533333333, "rental_uris": {"ios": "https://dc.lft.to/lastmile_qr_scan", "android": "https://dc.lft.to/lastmile_qr_scan"}}, {"name": "1d8e1bfa1e4b9afa4154382a003d5cb1", "fusion_lat": 0.0, "type": "electric_scooter", "lat": 38.91704166666667, "is_reserved": 0, "is_disabled": 0, "fusion_lon": 0.0, "bike_id": "1d8e1bfa1e4b9afa4154382a003d5cb1", "lon": -77.0307735, "rental_uris": {"ios": "https://dc.lft.to/lastmile_qr_scan", "android": "https://dc.lft.to/lastmile_qr_scan"}}, {"name": "0db1f6e75afc2fd7906c384e18d9ddfc", "fusion_lat": 0.0, "type": "electric_scooter", "lat": 38.91900566666666, "is_reserved": 0, "is_disabled": 0, "fusion_lon": 0.0, "bike_id": "0db1f6e75afc2fd7906c384e18d9ddfc", "lon": -77.00044316666667, "rental_uris": {"ios": "https://dc.lft.to/lastmile_qr_scan", "android": "https://dc.lft.to/lastmile_qr_scan"}}, {"name": "f81637ba1363cb05a2d71179a4a3e0c2", "fusion_lat": 0.0, "type": "electric_scooter", "lat": 38.9004125, "is_reserved": 0, "is_disabled": 0, "fusion_lon": 0.0, "bike_id": "f81637ba1363cb05a2d71179a4a3e0c2", "lon": -77.00197266666666, "rental_uris": {"ios": "https://dc.lft.to/lastmile_qr_scan", "android": "https://dc.lft.to/lastmile_qr_scan"}}, {"name": "fa9650f316333a386d20c977c73010b2", "fusion_lat": 0.0, "type": "electric_scooter", "lat": 38.8666115, "is_reserved": 0, "is_disabled": 0, "fusion_lon": 0.0, "bike_id": "fa9650f316333a386d20c977c73010b2", "lon": -76.98883233333333, "rental_uris": {"ios": "https://dc.lft.to/lastmile_qr_scan", "android": "https://dc.lft.to/lastmile_qr_scan"}}, {"name": "9928ff4d70fd49a89fc12f1bb4380884", "fusion_lat": 0.0, "type": "electric_scooter", "lat": 38.9170775, "is_reserved": 0, "is_disabled": 0, "fusion_lon": 0.0, "bike_id": "9928ff4d70fd49a89fc12f1bb4380884", "lon": -77.0234605, "rental_uris": {"ios": "https://dc.lft.to/lastmile_qr_scan", "android": "https://dc.lft.to/lastmile_qr_scan"}}, {"name": "b0a01d794e0fc7dc413aaa94c176fa64", "fusion_lat": 0.0, "type": "electric_scooter", "lat": 38.9242655, "is_reserved": 0, "is_disabled": 0, "fusion_lon": 0.0, "bike_id": "b0a01d794e0fc7dc413aaa94c176fa64", "lon": -77.04245483333334, "rental_uris": {"ios": "https://dc.lft.to/lastmile_qr_scan", "android": "https://dc.lft.to/lastmile_qr_scan"}}, {"name": "f4c7ab96334ea72d30e403afcd292cf2", "fusion_lat": 0.0, "type": "electric_scooter", "lat": 38.9111675, "is_reserved": 0, "is_disabled": 0, "fusion_lon": 0.0, "bike_id": "f4c7ab96334ea72d30e403afcd292cf2", "lon": -77.0329385, "rental_uris": {"ios": "https://dc.lft.to/lastmile_qr_scan", "android": "https://dc.lft.to/lastmile_qr_scan"}}, {"name": "8fecd05a6a7d92263493662b30b2aeb4", "fusion_lat": 0.0, "type": "electric_scooter", "lat": 38.904597, "is_reserved": 0, "is_disabled": 0, "fusion_lon": 0.0, "bike_id": "8fecd05a6a7d92263493662b30b2aeb4", "lon": -76.98528916666666, "rental_uris": {"ios": "https://dc.lft.to/lastmile_qr_scan", "android": "https://dc.lft.to/lastmile_qr_scan"}}, {"name": "b144ff23b4a75e86666d1e437fab24da", "fusion_lat": 0.0, "type": "electric_bike", "lat": 38.85493016666667, "is_reserved": 0, "is_disabled": 0, "fusion_lon": 0.0, "bike_id": "b144ff23b4a75e86666d1e437fab24da", "lon": -77.11520666666667, "rental_uris": {"ios": "https://dc.lft.to/lastmile_qr_scan", "android": "https://dc.lft.to/lastmile_qr_scan"}}, {"name": "b6bae84408c9a285529631eefabc1392", "fusion_lat": 0.0, "type": "electric_scooter", "lat": 38.87692533333333, "is_reserved": 0, "is_disabled": 0, "fusion_lon": 0.0, "bike_id": "b6bae84408c9a285529631eefabc1392", "lon": -77.00754766666667, "rental_uris": {"ios": "https://dc.lft.to/lastmile_qr_scan", "android": "https://dc.lft.to/lastmile_qr_scan"}}, {"name": "320194a95106eeff8c4acbd37f4bf878", "fusion_lat": 0.0, "type": "electric_scooter", "lat": 38.921797833333336, "is_reserved": 0, "is_disabled": 0, "fusion_lon": 0.0, "bike_id": "320194a95106eeff8c4acbd37f4bf878", "lon": -77.024148, "rental_uris": {"ios": "https://dc.lft.to/lastmile_qr_scan", "android": "https://dc.lft.to/lastmile_qr_scan"}}, {"name": "0d14ecd40868b6fa8d006064aec74ceb", "fusion_lat": 0.0, "type": "electric_scooter", "lat": 38.90852116666667, "is_reserved": 0, "is_disabled": 0, "fusion_lon": 0.0, "bike_id": "0d14ecd40868b6fa8d006064aec74ceb", "lon": -77.0209585, "rental_uris": {"ios": "https://dc.lft.to/lastmile_qr_scan", "android": "https://dc.lft.to/lastmile_qr_scan"}}, {"name": "0bf707daf3d9d3a1b3f9a94c6a4c68da", "fusion_lat": 0.0, "type": "electric_scooter", "lat": 38.899127166666666, "is_reserved": 0, "is_disabled": 0, "fusion_lon": 0.0, "bike_id": "0bf707daf3d9d3a1b3f9a94c6a4c68da", "lon": -77.07096633333333, "rental_uris": {"ios": "https://dc.lft.to/lastmile_qr_scan", "android": "https://dc.lft.to/lastmile_qr_scan"}}, {"name": "ad9f3481c3035ea6e06ed60f2988d18b", "fusion_lat": 0.0, "type": "electric_scooter", "lat": 38.94176233333334, "is_reserved": 0, "is_disabled": 0, "fusion_lon": 0.0, "bike_id": "ad9f3481c3035ea6e06ed60f2988d18b", "lon": -77.02511583333333, "rental_uris": {"ios": "https://dc.lft.to/lastmile_qr_scan", "android": "https://dc.lft.to/lastmile_qr_scan"}}, {"name": "a90f03071c3d17df12cf647e17ac0e9e", "fusion_lat": 0.0, "type": "electric_scooter", "lat": 38.897210333333334, "is_reserved": 0, "is_disabled": 0, "fusion_lon": 0.0, "bike_id": "a90f03071c3d17df12cf647e17ac0e9e", "lon": -77.002121, "rental_uris": {"ios": "https://dc.lft.to/lastmile_qr_scan", "android": "https://dc.lft.to/lastmile_qr_scan"}}, {"name": "49dc9b8e7286a15c80ebc26b2d2514ef", "fusion_lat": 0.0, "type": "electric_scooter", "lat": 38.90636583333333, "is_reserved": 0, "is_disabled": 0, "fusion_lon": 0.0, "bike_id": "49dc9b8e7286a15c80ebc26b2d2514ef", "lon": -77.05140416666667, "rental_uris": {"ios": "https://dc.lft.to/lastmile_qr_scan", "android": "https://dc.lft.to/lastmile_qr_scan"}}, {"name": "6b9c1c355f6bc02ba04626c89b1f3e69", "fusion_lat": 0.0, "type": "electric_scooter", "lat": 38.90445483333333, "is_reserved": 0, "is_disabled": 0, "fusion_lon": 0.0, "bike_id": "6b9c1c355f6bc02ba04626c89b1f3e69", "lon": -77.02889366666666, "rental_uris": {"ios": "https://dc.lft.to/lastmile_qr_scan", "android": "https://dc.lft.to/lastmile_qr_scan"}}, {"name": "8f9e1c40c8e388ab194d2c882b6fc0d2", "fusion_lat": 0.0, "type": "electric_bike", "lat": 38.8723595, "is_reserved": 0, "is_disabled": 0, "fusion_lon": 0.0, "bike_id": "8f9e1c40c8e388ab194d2c882b6fc0d2", "lon": -77.01163083333333, "rental_uris": {"ios": "https://dc.lft.to/lastmile_qr_scan", "android": "https://dc.lft.to/lastmile_qr_scan"}}, {"name": "f853fa7236f462d643fb204d89a7c032", "fusion_lat": 0.0, "type": "electric_scooter", "lat": 38.9241505, "is_reserved": 0, "is_disabled": 0, "fusion_lon": 0.0, "bike_id": "f853fa7236f462d643fb204d89a7c032", "lon": -77.02268683333334, "rental_uris": {"ios": "https://dc.lft.to/lastmile_qr_scan", "android": "https://dc.lft.to/lastmile_qr_scan"}}, {"name": "4ce7ece8546401c343e9e3ccdb25980a", "fusion_lat": 0.0, "type": "electric_scooter", "lat": 38.905005833333334, "is_reserved": 0, "is_disabled": 0, "fusion_lon": 0.0, "bike_id": "4ce7ece8546401c343e9e3ccdb25980a", "lon": -77.02766116666666, "rental_uris": {"ios": "https://dc.lft.to/lastmile_qr_scan", "android": "https://dc.lft.to/lastmile_qr_scan"}}, {"name": "5c3eb9ca10066f569b3367069443d258", "fusion_lat": 0.0, "type": "electric_scooter", "lat": 38.90510916666667, "is_reserved": 0, "is_disabled": 0, "fusion_lon": 0.0, "bike_id": "5c3eb9ca10066f569b3367069443d258", "lon": -77.05145333333333, "rental_uris": {"ios": "https://dc.lft.to/lastmile_qr_scan", "android": "https://dc.lft.to/lastmile_qr_scan"}}, {"name": "79f437cc35efe69f67da2675fe144f36", "fusion_lat": 0.0, "type": "electric_bike", "lat": 38.99456166666667, "is_reserved": 0, "is_disabled": 0, "fusion_lon": 0.0, "bike_id": "79f437cc35efe69f67da2675fe144f36", "lon": -76.90815383333333, "rental_uris": {"ios": "https://dc.lft.to/lastmile_qr_scan", "android": "https://dc.lft.to/lastmile_qr_scan"}}, {"name": "5d026fe7b2d4546e71ace2d4b711c9e1", "fusion_lat": 0.0, "type": "electric_scooter", "lat": 38.90028616666667, "is_reserved": 0, "is_disabled": 0, "fusion_lon": 0.0, "bike_id": "5d026fe7b2d4546e71ace2d4b711c9e1", "lon": -77.00207583333334, "rental_uris": {"ios": "https://dc.lft.to/lastmile_qr_scan", "android": "https://dc.lft.to/lastmile_qr_scan"}}, {"name": "d64e61efcb760f13c1ea150bae8a73db", "fusion_lat": 0.0, "type": "electric_scooter", "lat": 38.908628, "is_reserved": 0, "is_disabled": 0, "fusion_lon": 0.0, "bike_id": "d64e61efcb760f13c1ea150bae8a73db", "lon": -76.99966883333333, "rental_uris": {"ios": "https://dc.lft.to/lastmile_qr_scan", "android": "https://dc.lft.to/lastmile_qr_scan"}}, {"name": "0399a249924c9912e5a72c0806e44aab", "fusion_lat": 0.0, "type": "electric_scooter", "lat": 38.925814833333334, "is_reserved": 0, "is_disabled": 0, "fusion_lon": 0.0, "bike_id": "0399a249924c9912e5a72c0806e44aab", "lon": -77.03782766666667, "rental_uris": {"ios": "https://dc.lft.to/lastmile_qr_scan", "android": "https://dc.lft.to/lastmile_qr_scan"}}, {"name": "5f9926521d2cc990e1ae8b6a330429d7", "fusion_lat": 0.0, "type": "electric_scooter", "lat": 38.904872833333336, "is_reserved": 0, "is_disabled": 0, "fusion_lon": 0.0, "bike_id": "5f9926521d2cc990e1ae8b6a330429d7", "lon": -77.06541, "rental_uris": {"ios": "https://dc.lft.to/lastmile_qr_scan", "android": "https://dc.lft.to/lastmile_qr_scan"}}, {"name": "c7c3c8779bea1ad311e27eae1aea78d4", "fusion_lat": 0.0, "type": "electric_scooter", "lat": 38.909653666666664, "is_reserved": 0, "is_disabled": 0, "fusion_lon": 0.0, "bike_id": "c7c3c8779bea1ad311e27eae1aea78d4", "lon": -77.045947, "rental_uris": {"ios": "https://dc.lft.to/lastmile_qr_scan", "android": "https://dc.lft.to/lastmile_qr_scan"}}, {"name": "a61de3de3e9c1fc8c2db783b0e9fdb06", "fusion_lat": 0.0, "type": "electric_scooter", "lat": 38.9058105, "is_reserved": 0, "is_disabled": 0, "fusion_lon": 0.0, "bike_id": "a61de3de3e9c1fc8c2db783b0e9fdb06", "lon": -77.04868416666666, "rental_uris": {"ios": "https://dc.lft.to/lastmile_qr_scan", "android": "https://dc.lft.to/lastmile_qr_scan"}}, {"name": "6be6bc4d7235d93a9e1190cfec0acf82", "fusion_lat": 0.0, "type": "electric_scooter", "lat": 38.9203715, "is_reserved": 0, "is_disabled": 0, "fusion_lon": 0.0, "bike_id": "6be6bc4d7235d93a9e1190cfec0acf82", "lon": -77.02585933333333, "rental_uris": {"ios": "https://dc.lft.to/lastmile_qr_scan", "android": "https://dc.lft.to/lastmile_qr_scan"}}, {"name": "f56ee2f08d2d2cccef5166a7179092b1", "fusion_lat": 0.0, "type": "electric_scooter", "lat": 38.914054, "is_reserved": 0, "is_disabled": 0, "fusion_lon": 0.0, "bike_id": "f56ee2f08d2d2cccef5166a7179092b1", "lon": -77.03954283333333, "rental_uris": {"ios": "https://dc.lft.to/lastmile_qr_scan", "android": "https://dc.lft.to/lastmile_qr_scan"}}, {"name": "e6e1500c1262addf9b992f1d97808267", "fusion_lat": 0.0, "type": "electric_scooter", "lat": 38.886858, "is_reserved": 0, "is_disabled": 0, "fusion_lon": 0.0, "bike_id": "e6e1500c1262addf9b992f1d97808267", "lon": -76.9576225, "rental_uris": {"ios": "https://dc.lft.to/lastmile_qr_scan", "android": "https://dc.lft.to/lastmile_qr_scan"}}, {"name": "dd44c7fc6a3a51a767954c85214cc00c", "fusion_lat": 0.0, "type": "electric_scooter", "lat": 38.88279466666667, "is_reserved": 0, "is_disabled": 0, "fusion_lon": 0.0, "bike_id": "dd44c7fc6a3a51a767954c85214cc00c", "lon": -76.99834566666667, "rental_uris": {"ios": "https://dc.lft.to/lastmile_qr_scan", "android": "https://dc.lft.to/lastmile_qr_scan"}}, {"name": "9e604b86499f8492b51f86ec4567a0ba", "fusion_lat": 0.0, "type": "electric_scooter", "lat": 38.8689375, "is_reserved": 0, "is_disabled": 0, "fusion_lon": 0.0, "bike_id": "9e604b86499f8492b51f86ec4567a0ba", "lon": -76.9831, "rental_uris": {"ios": "https://dc.lft.to/lastmile_qr_scan", "android": "https://dc.lft.to/lastmile_qr_scan"}}, {"name": "2a51aa34caa1d97e33cf803f54826004", "fusion_lat": 0.0, "type": "electric_scooter", "lat": 38.9417685, "is_reserved": 0, "is_disabled": 0, "fusion_lon": 0.0, "bike_id": "2a51aa34caa1d97e33cf803f54826004", "lon": -77.0251005, "rental_uris": {"ios": "https://dc.lft.to/lastmile_qr_scan", "android": "https://dc.lft.to/lastmile_qr_scan"}}, {"name": "21080edc99b9eeec4cd1c725eaf7cd2b", "fusion_lat": 0.0, "type": "electric_scooter", "lat": 38.91713, "is_reserved": 0, "is_disabled": 0, "fusion_lon": 0.0, "bike_id": "21080edc99b9eeec4cd1c725eaf7cd2b", "lon": -77.027855, "rental_uris": {"ios": "https://dc.lft.to/lastmile_qr_scan", "android": "https://dc.lft.to/lastmile_qr_scan"}}, {"name": "348b926e3e72948a579d884936752dc6", "fusion_lat": 0.0, "type": "electric_scooter", "lat": 38.85849316666667, "is_reserved": 0, "is_disabled": 0, "fusion_lon": 0.0, "bike_id": "348b926e3e72948a579d884936752dc6", "lon": -76.95889016666666, "rental_uris": {"ios": "https://dc.lft.to/lastmile_qr_scan", "android": "https://dc.lft.to/lastmile_qr_scan"}}, {"name": "b307706e5b50136fd80fd98aba5a6684", "fusion_lat": 0.0, "type": "electric_bike", "lat": 38.94200433333334, "is_reserved": 0, "is_disabled": 0, "fusion_lon": 0.0, "bike_id": "b307706e5b50136fd80fd98aba5a6684", "lon": -77.03277316666667, "rental_uris": {"ios": "https://dc.lft.to/lastmile_qr_scan", "android": "https://dc.lft.to/lastmile_qr_scan"}}, {"name": "b1bef1d31a090aba96d289eaae493b74", "fusion_lat": 0.0, "type": "electric_bike", "lat": 38.84489633333333, "is_reserved": 0, "is_disabled": 0, "fusion_lon": 0.0, "bike_id": "b1bef1d31a090aba96d289eaae493b74", "lon": -76.972312, "rental_uris": {"ios": "https://dc.lft.to/lastmile_qr_scan", "android": "https://dc.lft.to/lastmile_qr_scan"}}, {"name": "cbec74792a1bb8447ee75188787e8db7", "fusion_lat": 0.0, "type": "electric_scooter", "lat": 38.90173516666667, "is_reserved": 0, "is_disabled": 0, "fusion_lon": 0.0, "bike_id": "cbec74792a1bb8447ee75188787e8db7", "lon": -77.01870366666667, "rental_uris": {"ios": "https://dc.lft.to/lastmile_qr_scan", "android": "https://dc.lft.to/lastmile_qr_scan"}}, {"name": "2734bf1ebfa31fafa2d3a0ea0c54d6c6", "fusion_lat": 0.0, "type": "electric_scooter", "lat": 38.901947166666666, "is_reserved": 0, "is_disabled": 0, "fusion_lon": 0.0, "bike_id": "2734bf1ebfa31fafa2d3a0ea0c54d6c6", "lon": -77.05049983333333, "rental_uris": {"ios": "https://dc.lft.to/lastmile_qr_scan", "android": "https://dc.lft.to/lastmile_qr_scan"}}, {"name": "ea17eeb09349455edac9d097d0a8a97d", "fusion_lat": 0.0, "type": "electric_scooter", "lat": 38.9125345, "is_reserved": 0, "is_disabled": 0, "fusion_lon": 0.0, "bike_id": "ea17eeb09349455edac9d097d0a8a97d", "lon": -77.03844616666666, "rental_uris": {"ios": "https://dc.lft.to/lastmile_qr_scan", "android": "https://dc.lft.to/lastmile_qr_scan"}}, {"name": "46d2fd8c65cfe8bea3b93ee51bd07c4e", "fusion_lat": 0.0, "type": "electric_scooter", "lat": 38.90383166666667, "is_reserved": 0, "is_disabled": 0, "fusion_lon": 0.0, "bike_id": "46d2fd8c65cfe8bea3b93ee51bd07c4e", "lon": -77.048395, "rental_uris": {"ios": "https://dc.lft.to/lastmile_qr_scan", "android": "https://dc.lft.to/lastmile_qr_scan"}}, {"name": "5b1954674d9b4493b3f88e159b7bdf66", "fusion_lat": 0.0, "type": "electric_scooter", "lat": 38.917634, "is_reserved": 0, "is_disabled": 0, "fusion_lon": 0.0, "bike_id": "5b1954674d9b4493b3f88e159b7bdf66", "lon": -77.02511083333333, "rental_uris": {"ios": "https://dc.lft.to/lastmile_qr_scan", "android": "https://dc.lft.to/lastmile_qr_scan"}}, {"name": "a1aa8bdaf64f464f9903710cbb0e4503", "fusion_lat": 0.0, "type": "electric_bike", "lat": 38.923323833333335, "is_reserved": 0, "is_disabled": 0, "fusion_lon": 0.0, "bike_id": "a1aa8bdaf64f464f9903710cbb0e4503", "lon": -77.02292416666667, "rental_uris": {"ios": "https://dc.lft.to/lastmile_qr_scan", "android": "https://dc.lft.to/lastmile_qr_scan"}}, {"name": "e2a169b5c0e90c9c5baa9501d6562480", "fusion_lat": 0.0, "type": "electric_scooter", "lat": 38.937279333333336, "is_reserved": 0, "is_disabled": 0, "fusion_lon": 0.0, "bike_id": "e2a169b5c0e90c9c5baa9501d6562480", "lon": -77.036278, "rental_uris": {"ios": "https://dc.lft.to/lastmile_qr_scan", "android": "https://dc.lft.to/lastmile_qr_scan"}}, {"name": "595f68d1de73a4938a4e9f3400b38cda", "fusion_lat": 0.0, "type": "electric_scooter", "lat": 38.8973355, "is_reserved": 0, "is_disabled": 0, "fusion_lon": 0.0, "bike_id": "595f68d1de73a4938a4e9f3400b38cda", "lon": -77.04654416666666, "rental_uris": {"ios": "https://dc.lft.to/lastmile_qr_scan", "android": "https://dc.lft.to/lastmile_qr_scan"}}, {"name": "1bff45699ce48592a054c6ca87b072f5", "fusion_lat": 0.0, "type": "electric_bike", "lat": 38.9462395, "is_reserved": 0, "is_disabled": 0, "fusion_lon": 0.0, "bike_id": "1bff45699ce48592a054c6ca87b072f5", "lon": -77.08052183333334, "rental_uris": {"ios": "https://dc.lft.to/lastmile_qr_scan", "android": "https://dc.lft.to/lastmile_qr_scan"}}, {"name": "1c81e8286cce5f49035b62e248f9e714", "fusion_lat": 0.0, "type": "electric_scooter", "lat": 38.91721233333333, "is_reserved": 0, "is_disabled": 0, "fusion_lon": 0.0, "bike_id": "1c81e8286cce5f49035b62e248f9e714", "lon": -77.01863333333333, "rental_uris": {"ios": "https://dc.lft.to/lastmile_qr_scan", "android": "https://dc.lft.to/lastmile_qr_scan"}}, {"name": "9d8692132875ddc6bb032fc64a90008b", "fusion_lat": 0.0, "type": "electric_scooter", "lat": 38.95644466666667, "is_reserved": 0, "is_disabled": 0, "fusion_lon": 0.0, "bike_id": "9d8692132875ddc6bb032fc64a90008b", "lon": -77.02273633333333, "rental_uris": {"ios": "https://dc.lft.to/lastmile_qr_scan", "android": "https://dc.lft.to/lastmile_qr_scan"}}, {"name": "0094422b3d4a6c81d150f0b5ab11b87c", "fusion_lat": 0.0, "type": "electric_scooter", "lat": 38.90515716666667, "is_reserved": 0, "is_disabled": 0, "fusion_lon": 0.0, "bike_id": "0094422b3d4a6c81d150f0b5ab11b87c", "lon": -77.0688935, "rental_uris": {"ios": "https://dc.lft.to/lastmile_qr_scan", "android": "https://dc.lft.to/lastmile_qr_scan"}}, {"name": "cc9b4dd85c3ec4ad1d67277540b0fa78", "fusion_lat": 0.0, "type": "electric_scooter", "lat": 38.9382565, "is_reserved": 0, "is_disabled": 0, "fusion_lon": 0.0, "bike_id": "cc9b4dd85c3ec4ad1d67277540b0fa78", "lon": -77.02477233333333, "rental_uris": {"ios": "https://dc.lft.to/lastmile_qr_scan", "android": "https://dc.lft.to/lastmile_qr_scan"}}, {"name": "91d137b7a2833e47d7576d95fe40a90f", "fusion_lat": 0.0, "type": "electric_scooter", "lat": 38.925960833333335, "is_reserved": 0, "is_disabled": 0, "fusion_lon": 0.0, "bike_id": "91d137b7a2833e47d7576d95fe40a90f", "lon": -77.02489883333334, "rental_uris": {"ios": "https://dc.lft.to/lastmile_qr_scan", "android": "https://dc.lft.to/lastmile_qr_scan"}}, {"name": "949ddc626d479535b756700ed47e0a46", "fusion_lat": 0.0, "type": "electric_scooter", "lat": 38.863764833333335, "is_reserved": 0, "is_disabled": 0, "fusion_lon": 0.0, "bike_id": "949ddc626d479535b756700ed47e0a46", "lon": -77.01364366666667, "rental_uris": {"ios": "https://dc.lft.to/lastmile_qr_scan", "android": "https://dc.lft.to/lastmile_qr_scan"}}, {"name": "64af0729712004e9777da184e9132615", "fusion_lat": 0.0, "type": "electric_scooter", "lat": 38.936134333333335, "is_reserved": 0, "is_disabled": 0, "fusion_lon": 0.0, "bike_id": "64af0729712004e9777da184e9132615", "lon": -77.05590766666667, "rental_uris": {"ios": "https://dc.lft.to/lastmile_qr_scan", "android": "https://dc.lft.to/lastmile_qr_scan"}}, {"name": "fd58a5d404172cab16f652e2abdeeb21", "fusion_lat": 0.0, "type": "electric_scooter", "lat": 38.900842, "is_reserved": 0, "is_disabled": 0, "fusion_lon": 0.0, "bike_id": "fd58a5d404172cab16f652e2abdeeb21", "lon": -77.01767633333333, "rental_uris": {"ios": "https://dc.lft.to/lastmile_qr_scan", "android": "https://dc.lft.to/lastmile_qr_scan"}}, {"name": "df121f181e3ad09d2906a318217a4333", "fusion_lat": 0.0, "type": "electric_scooter", "lat": 38.90644616666667, "is_reserved": 0, "is_disabled": 0, "fusion_lon": 0.0, "bike_id": "df121f181e3ad09d2906a318217a4333", "lon": -77.01398533333334, "rental_uris": {"ios": "https://dc.lft.to/lastmile_qr_scan", "android": "https://dc.lft.to/lastmile_qr_scan"}}, {"name": "943942b34a73709e29abc703bf67a865", "fusion_lat": 0.0, "type": "electric_scooter", "lat": 38.912019, "is_reserved": 0, "is_disabled": 0, "fusion_lon": 0.0, "bike_id": "943942b34a73709e29abc703bf67a865", "lon": -77.0023525, "rental_uris": {"ios": "https://dc.lft.to/lastmile_qr_scan", "android": "https://dc.lft.to/lastmile_qr_scan"}}, {"name": "f1a7d2dff91ede57428175776b3cc104", "fusion_lat": 0.0, "type": "electric_scooter", "lat": 38.9114565, "is_reserved": 0, "is_disabled": 0, "fusion_lon": 0.0, "bike_id": "f1a7d2dff91ede57428175776b3cc104", "lon": -77.01685183333333, "rental_uris": {"ios": "https://dc.lft.to/lastmile_qr_scan", "android": "https://dc.lft.to/lastmile_qr_scan"}}, {"name": "ae04509b7ea6677f262383d698b2172b", "fusion_lat": 0.0, "type": "electric_bike", "lat": 38.893445666666665, "is_reserved": 0, "is_disabled": 0, "fusion_lon": 0.0, "bike_id": "ae04509b7ea6677f262383d698b2172b", "lon": -76.99151866666666, "rental_uris": {"ios": "https://dc.lft.to/lastmile_qr_scan", "android": "https://dc.lft.to/lastmile_qr_scan"}}, {"name": "1908605b1420a1b84bb4166d897f0e26", "fusion_lat": 0.0, "type": "electric_scooter", "lat": 38.928251333333336, "is_reserved": 0, "is_disabled": 0, "fusion_lon": 0.0, "bike_id": "1908605b1420a1b84bb4166d897f0e26", "lon": -77.02254366666666, "rental_uris": {"ios": "https://dc.lft.to/lastmile_qr_scan", "android": "https://dc.lft.to/lastmile_qr_scan"}}, {"name": "bf3853ca97a9acb459f8e169975a6f71", "fusion_lat": 0.0, "type": "electric_scooter", "lat": 38.875826833333335, "is_reserved": 0, "is_disabled": 0, "fusion_lon": 0.0, "bike_id": "bf3853ca97a9acb459f8e169975a6f71", "lon": -77.01059816666667, "rental_uris": {"ios": "https://dc.lft.to/lastmile_qr_scan", "android": "https://dc.lft.to/lastmile_qr_scan"}}, {"name": "2614c2c3bc600b407c433e57fa3daf88", "fusion_lat": 0.0, "type": "electric_scooter", "lat": 38.91291616666667, "is_reserved": 0, "is_disabled": 0, "fusion_lon": 0.0, "bike_id": "2614c2c3bc600b407c433e57fa3daf88", "lon": -76.93748233333334, "rental_uris": {"ios": "https://dc.lft.to/lastmile_qr_scan", "android": "https://dc.lft.to/lastmile_qr_scan"}}, {"name": "494e650aba205be3d82e0e58e3defcf9", "fusion_lat": 0.0, "type": "electric_scooter", "lat": 38.929596833333335, "is_reserved": 0, "is_disabled": 0, "fusion_lon": 0.0, "bike_id": "494e650aba205be3d82e0e58e3defcf9", "lon": -77.04106, "rental_uris": {"ios": "https://dc.lft.to/lastmile_qr_scan", "android": "https://dc.lft.to/lastmile_qr_scan"}}, {"name": "6502676d8d035aee81ba3b9613fce19d", "fusion_lat": 0.0, "type": "electric_scooter", "lat": 38.902552, "is_reserved": 0, "is_disabled": 0, "fusion_lon": 0.0, "bike_id": "6502676d8d035aee81ba3b9613fce19d", "lon": -76.977032, "rental_uris": {"ios": "https://dc.lft.to/lastmile_qr_scan", "android": "https://dc.lft.to/lastmile_qr_scan"}}, {"name": "8bfc96edc606e13e48a55f93a313e46d", "fusion_lat": 0.0, "type": "electric_scooter", "lat": 38.9140725, "is_reserved": 0, "is_disabled": 0, "fusion_lon": 0.0, "bike_id": "8bfc96edc606e13e48a55f93a313e46d", "lon": -77.03949966666667, "rental_uris": {"ios": "https://dc.lft.to/lastmile_qr_scan", "android": "https://dc.lft.to/lastmile_qr_scan"}}, {"name": "553de643b242570d6f4ede573c92307b", "fusion_lat": 0.0, "type": "electric_scooter", "lat": 38.9176695, "is_reserved": 0, "is_disabled": 0, "fusion_lon": 0.0, "bike_id": "553de643b242570d6f4ede573c92307b", "lon": -77.09669933333333, "rental_uris": {"ios": "https://dc.lft.to/lastmile_qr_scan", "android": "https://dc.lft.to/lastmile_qr_scan"}}, {"name": "31ee9b07b541b0dfd06aac83d128005e", "fusion_lat": 0.0, "type": "electric_scooter", "lat": 38.91988466666667, "is_reserved": 0, "is_disabled": 0, "fusion_lon": 0.0, "bike_id": "31ee9b07b541b0dfd06aac83d128005e", "lon": -77.02364633333333, "rental_uris": {"ios": "https://dc.lft.to/lastmile_qr_scan", "android": "https://dc.lft.to/lastmile_qr_scan"}}, {"name": "f1ed527f34ea659609847e53d0ebb046", "fusion_lat": 0.0, "type": "electric_scooter", "lat": 38.8665825, "is_reserved": 0, "is_disabled": 0, "fusion_lon": 0.0, "bike_id": "f1ed527f34ea659609847e53d0ebb046", "lon": -76.98883516666666, "rental_uris": {"ios": "https://dc.lft.to/lastmile_qr_scan", "android": "https://dc.lft.to/lastmile_qr_scan"}}, {"name": "6e972d327877fcee4627312dee3f78b7", "fusion_lat": 0.0, "type": "electric_scooter", "lat": 38.89615333333333, "is_reserved": 0, "is_disabled": 0, "fusion_lon": 0.0, "bike_id": "6e972d327877fcee4627312dee3f78b7", "lon": -77.04461316666666, "rental_uris": {"ios": "https://dc.lft.to/lastmile_qr_scan", "android": "https://dc.lft.to/lastmile_qr_scan"}}, {"name": "e7617068a50068e84d5c5ea0775b4d2b", "fusion_lat": 0.0, "type": "electric_scooter", "lat": 38.9111165, "is_reserved": 0, "is_disabled": 0, "fusion_lon": 0.0, "bike_id": "e7617068a50068e84d5c5ea0775b4d2b", "lon": -77.02465133333334, "rental_uris": {"ios": "https://dc.lft.to/lastmile_qr_scan", "android": "https://dc.lft.to/lastmile_qr_scan"}}, {"name": "00ef9d626156df9ad9786114be7ca588", "fusion_lat": 0.0, "type": "electric_scooter", "lat": 38.908001, "is_reserved": 0, "is_disabled": 0, "fusion_lon": 0.0, "bike_id": "00ef9d626156df9ad9786114be7ca588", "lon": -77.0181815, "rental_uris": {"ios": "https://dc.lft.to/lastmile_qr_scan", "android": "https://dc.lft.to/lastmile_qr_scan"}}, {"name": "e93c131c4ce3804fc3da728785747fcc", "fusion_lat": 0.0, "type": "electric_scooter", "lat": 38.90975533333334, "is_reserved": 0, "is_disabled": 0, "fusion_lon": 0.0, "bike_id": "e93c131c4ce3804fc3da728785747fcc", "lon": -77.02173133333334, "rental_uris": {"ios": "https://dc.lft.to/lastmile_qr_scan", "android": "https://dc.lft.to/lastmile_qr_scan"}}, {"name": "34c66bd4739a22ef3e8670fb09c7f548", "fusion_lat": 0.0, "type": "electric_scooter", "lat": 38.925842833333334, "is_reserved": 0, "is_disabled": 0, "fusion_lon": 0.0, "bike_id": "34c66bd4739a22ef3e8670fb09c7f548", "lon": -77.05283566666667, "rental_uris": {"ios": "https://dc.lft.to/lastmile_qr_scan", "android": "https://dc.lft.to/lastmile_qr_scan"}}, {"name": "aed109d963bbe4a6bbdbd5bd4fb8d90f", "fusion_lat": 0.0, "type": "electric_scooter", "lat": 38.89504916666667, "is_reserved": 0, "is_disabled": 0, "fusion_lon": 0.0, "bike_id": "aed109d963bbe4a6bbdbd5bd4fb8d90f", "lon": -77.024154, "rental_uris": {"ios": "https://dc.lft.to/lastmile_qr_scan", "android": "https://dc.lft.to/lastmile_qr_scan"}}, {"name": "3b29e664e2bb92bb4569dc41c502481a", "fusion_lat": 0.0, "type": "electric_scooter", "lat": 38.9011215, "is_reserved": 0, "is_disabled": 0, "fusion_lon": 0.0, "bike_id": "3b29e664e2bb92bb4569dc41c502481a", "lon": -77.0334235, "rental_uris": {"ios": "https://dc.lft.to/lastmile_qr_scan", "android": "https://dc.lft.to/lastmile_qr_scan"}}, {"name": "31eaa241b306dbd7b2ad4ebeb6327a6a", "fusion_lat": 0.0, "type": "electric_scooter", "lat": 38.886728, "is_reserved": 0, "is_disabled": 0, "fusion_lon": 0.0, "bike_id": "31eaa241b306dbd7b2ad4ebeb6327a6a", "lon": -76.936141, "rental_uris": {"ios": "https://dc.lft.to/lastmile_qr_scan", "android": "https://dc.lft.to/lastmile_qr_scan"}}, {"name": "72ad7795cb2c44cb93ec1614a5ec3a43", "fusion_lat": 0.0, "type": "electric_scooter", "lat": 38.92327983333333, "is_reserved": 0, "is_disabled": 0, "fusion_lon": 0.0, "bike_id": "72ad7795cb2c44cb93ec1614a5ec3a43", "lon": -77.05433716666667, "rental_uris": {"ios": "https://dc.lft.to/lastmile_qr_scan", "android": "https://dc.lft.to/lastmile_qr_scan"}}, {"name": "af674a5165257fdfec8696afe62e351e", "fusion_lat": 0.0, "type": "electric_scooter", "lat": 38.9024995, "is_reserved": 0, "is_disabled": 0, "fusion_lon": 0.0, "bike_id": "af674a5165257fdfec8696afe62e351e", "lon": -77.01751933333334, "rental_uris": {"ios": "https://dc.lft.to/lastmile_qr_scan", "android": "https://dc.lft.to/lastmile_qr_scan"}}, {"name": "5e2aaac5578fe30acb77fc4dcf6ac36b", "fusion_lat": 0.0, "type": "electric_bike", "lat": 38.8272425, "is_reserved": 0, "is_disabled": 0, "fusion_lon": 0.0, "bike_id": "5e2aaac5578fe30acb77fc4dcf6ac36b", "lon": -77.00862733333334, "rental_uris": {"ios": "https://dc.lft.to/lastmile_qr_scan", "android": "https://dc.lft.to/lastmile_qr_scan"}}, {"name": "f4c22ac21cd67d0b58a42ea5e76f87b6", "fusion_lat": 0.0, "type": "electric_scooter", "lat": 38.922694, "is_reserved": 0, "is_disabled": 0, "fusion_lon": 0.0, "bike_id": "f4c22ac21cd67d0b58a42ea5e76f87b6", "lon": -77.03402166666666, "rental_uris": {"ios": "https://dc.lft.to/lastmile_qr_scan", "android": "https://dc.lft.to/lastmile_qr_scan"}}, {"name": "ebf7cd7991e9340dc0c1f8fc409c21f1", "fusion_lat": 0.0, "type": "electric_scooter", "lat": 38.95219316666667, "is_reserved": 0, "is_disabled": 0, "fusion_lon": 0.0, "bike_id": "ebf7cd7991e9340dc0c1f8fc409c21f1", "lon": -77.070648, "rental_uris": {"ios": "https://dc.lft.to/lastmile_qr_scan", "android": "https://dc.lft.to/lastmile_qr_scan"}}, {"name": "0475457ff627a4f79375cd7537f5adfd", "fusion_lat": 0.0, "type": "electric_scooter", "lat": 38.91060816666667, "is_reserved": 0, "is_disabled": 0, "fusion_lon": 0.0, "bike_id": "0475457ff627a4f79375cd7537f5adfd", "lon": -77.0457165, "rental_uris": {"ios": "https://dc.lft.to/lastmile_qr_scan", "android": "https://dc.lft.to/lastmile_qr_scan"}}, {"name": "0cc9a3e3881d78b1d802468ac7e24117", "fusion_lat": 0.0, "type": "electric_scooter", "lat": 38.894856, "is_reserved": 0, "is_disabled": 0, "fusion_lon": 0.0, "bike_id": "0cc9a3e3881d78b1d802468ac7e24117", "lon": -76.94874433333334, "rental_uris": {"ios": "https://dc.lft.to/lastmile_qr_scan", "android": "https://dc.lft.to/lastmile_qr_scan"}}, {"name": "4803b62029fdf6fac3d0afc08158d5ce", "fusion_lat": 0.0, "type": "electric_scooter", "lat": 38.865039333333335, "is_reserved": 0, "is_disabled": 0, "fusion_lon": 0.0, "bike_id": "4803b62029fdf6fac3d0afc08158d5ce", "lon": -76.99000433333333, "rental_uris": {"ios": "https://dc.lft.to/lastmile_qr_scan", "android": "https://dc.lft.to/lastmile_qr_scan"}}, {"name": "90167d588d4d0d7b7a10763507b89af3", "fusion_lat": 0.0, "type": "electric_scooter", "lat": 38.91893916666667, "is_reserved": 0, "is_disabled": 0, "fusion_lon": 0.0, "bike_id": "90167d588d4d0d7b7a10763507b89af3", "lon": -77.0528845, "rental_uris": {"ios": "https://dc.lft.to/lastmile_qr_scan", "android": "https://dc.lft.to/lastmile_qr_scan"}}, {"name": "134b94b1c78316f68fbe426b2fe00fd3", "fusion_lat": 0.0, "type": "electric_bike", "lat": 38.8882315, "is_reserved": 0, "is_disabled": 0, "fusion_lon": 0.0, "bike_id": "134b94b1c78316f68fbe426b2fe00fd3", "lon": -77.1274525, "rental_uris": {"ios": "https://dc.lft.to/lastmile_qr_scan", "android": "https://dc.lft.to/lastmile_qr_scan"}}, {"name": "a06feed840ac9bfcf4e34fe8ef2fe921", "fusion_lat": 0.0, "type": "electric_scooter", "lat": 38.911717333333335, "is_reserved": 0, "is_disabled": 0, "fusion_lon": 0.0, "bike_id": "a06feed840ac9bfcf4e34fe8ef2fe921", "lon": -76.98772116666666, "rental_uris": {"ios": "https://dc.lft.to/lastmile_qr_scan", "android": "https://dc.lft.to/lastmile_qr_scan"}}, {"name": "4f76c89390966a8062527abe41a0f0b0", "fusion_lat": 0.0, "type": "electric_scooter", "lat": 38.915572166666664, "is_reserved": 0, "is_disabled": 0, "fusion_lon": 0.0, "bike_id": "4f76c89390966a8062527abe41a0f0b0", "lon": -77.03237133333333, "rental_uris": {"ios": "https://dc.lft.to/lastmile_qr_scan", "android": "https://dc.lft.to/lastmile_qr_scan"}}, {"name": "3aaeda9d2498eee8440bb028693d7047", "fusion_lat": 0.0, "type": "electric_scooter", "lat": 38.892237333333334, "is_reserved": 0, "is_disabled": 0, "fusion_lon": 0.0, "bike_id": "3aaeda9d2498eee8440bb028693d7047", "lon": -77.02229866666667, "rental_uris": {"ios": "https://dc.lft.to/lastmile_qr_scan", "android": "https://dc.lft.to/lastmile_qr_scan"}}, {"name": "a88ec3b9cf3d9d117d2a3eb003d5c58b", "fusion_lat": 0.0, "type": "electric_scooter", "lat": 38.912867166666665, "is_reserved": 0, "is_disabled": 0, "fusion_lon": 0.0, "bike_id": "a88ec3b9cf3d9d117d2a3eb003d5c58b", "lon": -76.93800216666666, "rental_uris": {"ios": "https://dc.lft.to/lastmile_qr_scan", "android": "https://dc.lft.to/lastmile_qr_scan"}}, {"name": "0c4dd1ef78cf5e63316f941bc081105a", "fusion_lat": 0.0, "type": "electric_scooter", "lat": 38.91747816666667, "is_reserved": 0, "is_disabled": 0, "fusion_lon": 0.0, "bike_id": "0c4dd1ef78cf5e63316f941bc081105a", "lon": -77.03639816666667, "rental_uris": {"ios": "https://dc.lft.to/lastmile_qr_scan", "android": "https://dc.lft.to/lastmile_qr_scan"}}, {"name": "e484e0a402b1baee5bee8b9fc82403f8", "fusion_lat": 0.0, "type": "electric_scooter", "lat": 38.8997825, "is_reserved": 0, "is_disabled": 0, "fusion_lon": 0.0, "bike_id": "e484e0a402b1baee5bee8b9fc82403f8", "lon": -77.03926333333334, "rental_uris": {"ios": "https://dc.lft.to/lastmile_qr_scan", "android": "https://dc.lft.to/lastmile_qr_scan"}}, {"name": "bdd1ee28130a654ba0fd18045887e71c", "fusion_lat": 0.0, "type": "electric_scooter", "lat": 38.9267565, "is_reserved": 0, "is_disabled": 0, "fusion_lon": 0.0, "bike_id": "bdd1ee28130a654ba0fd18045887e71c", "lon": -76.99533916666667, "rental_uris": {"ios": "https://dc.lft.to/lastmile_qr_scan", "android": "https://dc.lft.to/lastmile_qr_scan"}}, {"name": "c12fd404417c984946ba3aa8ef771c50", "fusion_lat": 0.0, "type": "electric_scooter", "lat": 38.905608666666666, "is_reserved": 0, "is_disabled": 0, "fusion_lon": 0.0, "bike_id": "c12fd404417c984946ba3aa8ef771c50", "lon": -77.02214733333334, "rental_uris": {"ios": "https://dc.lft.to/lastmile_qr_scan", "android": "https://dc.lft.to/lastmile_qr_scan"}}, {"name": "3fde41781c16b166b6f6e0b0d79de12e", "fusion_lat": 0.0, "type": "electric_scooter", "lat": 38.92596066666667, "is_reserved": 0, "is_disabled": 0, "fusion_lon": 0.0, "bike_id": "3fde41781c16b166b6f6e0b0d79de12e", "lon": -77.008505, "rental_uris": {"ios": "https://dc.lft.to/lastmile_qr_scan", "android": "https://dc.lft.to/lastmile_qr_scan"}}, {"name": "5b27ce784a11725e428d334dbdc2acb5", "fusion_lat": 0.0, "type": "electric_scooter", "lat": 38.930356, "is_reserved": 0, "is_disabled": 0, "fusion_lon": 0.0, "bike_id": "5b27ce784a11725e428d334dbdc2acb5", "lon": -77.0836515, "rental_uris": {"ios": "https://dc.lft.to/lastmile_qr_scan", "android": "https://dc.lft.to/lastmile_qr_scan"}}, {"name": "a9e5ac9951725e5e0039991290a5c461", "fusion_lat": 0.0, "type": "electric_scooter", "lat": 38.91817616666667, "is_reserved": 0, "is_disabled": 0, "fusion_lon": 0.0, "bike_id": "a9e5ac9951725e5e0039991290a5c461", "lon": -77.03207, "rental_uris": {"ios": "https://dc.lft.to/lastmile_qr_scan", "android": "https://dc.lft.to/lastmile_qr_scan"}}, {"name": "add1d4164a74418401094ecf8f90c891", "fusion_lat": 0.0, "type": "electric_scooter", "lat": 38.902294833333336, "is_reserved": 0, "is_disabled": 0, "fusion_lon": 0.0, "bike_id": "add1d4164a74418401094ecf8f90c891", "lon": -77.05121566666666, "rental_uris": {"ios": "https://dc.lft.to/lastmile_qr_scan", "android": "https://dc.lft.to/lastmile_qr_scan"}}, {"name": "c236db733b6d7ccfcbd311ae9a793bb9", "fusion_lat": 0.0, "type": "electric_scooter", "lat": 38.9247985, "is_reserved": 0, "is_disabled": 0, "fusion_lon": 0.0, "bike_id": "c236db733b6d7ccfcbd311ae9a793bb9", "lon": -77.0299985, "rental_uris": {"ios": "https://dc.lft.to/lastmile_qr_scan", "android": "https://dc.lft.to/lastmile_qr_scan"}}, {"name": "305e02e86f3f9a21857ecc23416581c0", "fusion_lat": 0.0, "type": "electric_scooter", "lat": 38.8976925, "is_reserved": 0, "is_disabled": 0, "fusion_lon": 0.0, "bike_id": "305e02e86f3f9a21857ecc23416581c0", "lon": -77.05160566666666, "rental_uris": {"ios": "https://dc.lft.to/lastmile_qr_scan", "android": "https://dc.lft.to/lastmile_qr_scan"}}, {"name": "261d1ecfd0275b00492856bf08cbfffa", "fusion_lat": 0.0, "type": "electric_scooter", "lat": 38.938946666666666, "is_reserved": 0, "is_disabled": 0, "fusion_lon": 0.0, "bike_id": "261d1ecfd0275b00492856bf08cbfffa", "lon": -77.01758933333333, "rental_uris": {"ios": "https://dc.lft.to/lastmile_qr_scan", "android": "https://dc.lft.to/lastmile_qr_scan"}}, {"name": "9e4161250f41ddd44ef92053bc75bfb3", "fusion_lat": 0.0, "type": "electric_scooter", "lat": 38.917834666666664, "is_reserved": 0, "is_disabled": 0, "fusion_lon": 0.0, "bike_id": "9e4161250f41ddd44ef92053bc75bfb3", "lon": -77.0230455, "rental_uris": {"ios": "https://dc.lft.to/lastmile_qr_scan", "android": "https://dc.lft.to/lastmile_qr_scan"}}, {"name": "9345608964ba215b0f3d258528fd75c1", "fusion_lat": 0.0, "type": "electric_bike", "lat": 38.946252666666666, "is_reserved": 0, "is_disabled": 0, "fusion_lon": 0.0, "bike_id": "9345608964ba215b0f3d258528fd75c1", "lon": -76.946325, "rental_uris": {"ios": "https://dc.lft.to/lastmile_qr_scan", "android": "https://dc.lft.to/lastmile_qr_scan"}}, {"name": "4ea180607e76fa73e0c914d1c363d779", "fusion_lat": 0.0, "type": "electric_scooter", "lat": 38.92156283333333, "is_reserved": 0, "is_disabled": 0, "fusion_lon": 0.0, "bike_id": "4ea180607e76fa73e0c914d1c363d779", "lon": -77.03437483333333, "rental_uris": {"ios": "https://dc.lft.to/lastmile_qr_scan", "android": "https://dc.lft.to/lastmile_qr_scan"}}, {"name": "2f6e516ece3b66ab0a257f46307472ae", "fusion_lat": 0.0, "type": "electric_scooter", "lat": 38.88051383333333, "is_reserved": 0, "is_disabled": 0, "fusion_lon": 0.0, "bike_id": "2f6e516ece3b66ab0a257f46307472ae", "lon": -77.0133125, "rental_uris": {"ios": "https://dc.lft.to/lastmile_qr_scan", "android": "https://dc.lft.to/lastmile_qr_scan"}}, {"name": "9082280dc34ac86fd736de10d523e94a", "fusion_lat": 0.0, "type": "electric_scooter", "lat": 38.9003585, "is_reserved": 0, "is_disabled": 0, "fusion_lon": 0.0, "bike_id": "9082280dc34ac86fd736de10d523e94a", "lon": -77.0395235, "rental_uris": {"ios": "https://dc.lft.to/lastmile_qr_scan", "android": "https://dc.lft.to/lastmile_qr_scan"}}, {"name": "c362ec0fba823ca64f652e93fe0918d9", "fusion_lat": 0.0, "type": "electric_scooter", "lat": 38.91425133333333, "is_reserved": 0, "is_disabled": 0, "fusion_lon": 0.0, "bike_id": "c362ec0fba823ca64f652e93fe0918d9", "lon": -77.02208683333333, "rental_uris": {"ios": "https://dc.lft.to/lastmile_qr_scan", "android": "https://dc.lft.to/lastmile_qr_scan"}}, {"name": "96e9892f2c7a9f1a3044504655286dc6", "fusion_lat": 0.0, "type": "electric_scooter", "lat": 38.91191533333333, "is_reserved": 0, "is_disabled": 0, "fusion_lon": 0.0, "bike_id": "96e9892f2c7a9f1a3044504655286dc6", "lon": -77.04498933333333, "rental_uris": {"ios": "https://dc.lft.to/lastmile_qr_scan", "android": "https://dc.lft.to/lastmile_qr_scan"}}, {"name": "f3815ef04b6d032a83f98dab84bf50af", "fusion_lat": 0.0, "type": "electric_scooter", "lat": 38.89917466666667, "is_reserved": 0, "is_disabled": 0, "fusion_lon": 0.0, "bike_id": "f3815ef04b6d032a83f98dab84bf50af", "lon": -77.03945266666666, "rental_uris": {"ios": "https://dc.lft.to/lastmile_qr_scan", "android": "https://dc.lft.to/lastmile_qr_scan"}}, {"name": "c3b007269280fe20b493e612b29ec79e", "fusion_lat": 0.0, "type": "electric_scooter", "lat": 38.90655833333334, "is_reserved": 0, "is_disabled": 0, "fusion_lon": 0.0, "bike_id": "c3b007269280fe20b493e612b29ec79e", "lon": -77.05308866666667, "rental_uris": {"ios": "https://dc.lft.to/lastmile_qr_scan", "android": "https://dc.lft.to/lastmile_qr_scan"}}, {"name": "c246a29d84c174b103622b0abcad831e", "fusion_lat": 0.0, "type": "electric_scooter", "lat": 38.916220333333335, "is_reserved": 0, "is_disabled": 0, "fusion_lon": 0.0, "bike_id": "c246a29d84c174b103622b0abcad831e", "lon": -77.0364775, "rental_uris": {"ios": "https://dc.lft.to/lastmile_qr_scan", "android": "https://dc.lft.to/lastmile_qr_scan"}}, {"name": "632363bc53ac94ac1ed7692a71098377", "fusion_lat": 0.0, "type": "electric_scooter", "lat": 38.91933316666667, "is_reserved": 0, "is_disabled": 0, "fusion_lon": 0.0, "bike_id": "632363bc53ac94ac1ed7692a71098377", "lon": -77.03178233333334, "rental_uris": {"ios": "https://dc.lft.to/lastmile_qr_scan", "android": "https://dc.lft.to/lastmile_qr_scan"}}, {"name": "a923f57fde24763db2ab64687340a131", "fusion_lat": 0.0, "type": "electric_scooter", "lat": 38.89553216666667, "is_reserved": 0, "is_disabled": 0, "fusion_lon": 0.0, "bike_id": "a923f57fde24763db2ab64687340a131", "lon": -77.02919416666667, "rental_uris": {"ios": "https://dc.lft.to/lastmile_qr_scan", "android": "https://dc.lft.to/lastmile_qr_scan"}}, {"name": "ae059f5cc3c6d1593f76e4d75254d17b", "fusion_lat": 0.0, "type": "electric_scooter", "lat": 38.887338, "is_reserved": 0, "is_disabled": 0, "fusion_lon": 0.0, "bike_id": "ae059f5cc3c6d1593f76e4d75254d17b", "lon": -77.01764783333333, "rental_uris": {"ios": "https://dc.lft.to/lastmile_qr_scan", "android": "https://dc.lft.to/lastmile_qr_scan"}}, {"name": "60b8b9b9116db86a3f8726a4294e4891", "fusion_lat": 0.0, "type": "electric_scooter", "lat": 38.92072183333333, "is_reserved": 0, "is_disabled": 0, "fusion_lon": 0.0, "bike_id": "60b8b9b9116db86a3f8726a4294e4891", "lon": -76.99855916666667, "rental_uris": {"ios": "https://dc.lft.to/lastmile_qr_scan", "android": "https://dc.lft.to/lastmile_qr_scan"}}, {"name": "a55f9dac608a9ad2cbacf268ec5e33a5", "fusion_lat": 0.0, "type": "electric_scooter", "lat": 38.90243783333333, "is_reserved": 0, "is_disabled": 0, "fusion_lon": 0.0, "bike_id": "a55f9dac608a9ad2cbacf268ec5e33a5", "lon": -77.04361566666667, "rental_uris": {"ios": "https://dc.lft.to/lastmile_qr_scan", "android": "https://dc.lft.to/lastmile_qr_scan"}}, {"name": "d95e975e454a8f1f56c75f9e96595f3c", "fusion_lat": 0.0, "type": "electric_scooter", "lat": 38.923648666666665, "is_reserved": 0, "is_disabled": 0, "fusion_lon": 0.0, "bike_id": "d95e975e454a8f1f56c75f9e96595f3c", "lon": -77.05126716666666, "rental_uris": {"ios": "https://dc.lft.to/lastmile_qr_scan", "android": "https://dc.lft.to/lastmile_qr_scan"}}, {"name": "1fa858db55f1f16718dba4766c015c22", "fusion_lat": 0.0, "type": "electric_scooter", "lat": 38.860739333333335, "is_reserved": 0, "is_disabled": 0, "fusion_lon": 0.0, "bike_id": "1fa858db55f1f16718dba4766c015c22", "lon": -76.96743733333334, "rental_uris": {"ios": "https://dc.lft.to/lastmile_qr_scan", "android": "https://dc.lft.to/lastmile_qr_scan"}}, {"name": "55c3de8788829ac8ef7d83d618b7b791", "fusion_lat": 0.0, "type": "electric_scooter", "lat": 38.914043, "is_reserved": 0, "is_disabled": 0, "fusion_lon": 0.0, "bike_id": "55c3de8788829ac8ef7d83d618b7b791", "lon": -77.013237, "rental_uris": {"ios": "https://dc.lft.to/lastmile_qr_scan", "android": "https://dc.lft.to/lastmile_qr_scan"}}, {"name": "033ee7bc88d0e3daf06baf891459608b", "fusion_lat": 0.0, "type": "electric_scooter", "lat": 38.922082, "is_reserved": 0, "is_disabled": 0, "fusion_lon": 0.0, "bike_id": "033ee7bc88d0e3daf06baf891459608b", "lon": -77.0431305, "rental_uris": {"ios": "https://dc.lft.to/lastmile_qr_scan", "android": "https://dc.lft.to/lastmile_qr_scan"}}, {"name": "2c719a9a565d4aa613d37508bf36dd03", "fusion_lat": 0.0, "type": "electric_scooter", "lat": 38.9170965, "is_reserved": 0, "is_disabled": 0, "fusion_lon": 0.0, "bike_id": "2c719a9a565d4aa613d37508bf36dd03", "lon": -77.03141833333333, "rental_uris": {"ios": "https://dc.lft.to/lastmile_qr_scan", "android": "https://dc.lft.to/lastmile_qr_scan"}}, {"name": "8f5aa579688a141de56bdd0e2e458123", "fusion_lat": 0.0, "type": "electric_scooter", "lat": 38.93249133333333, "is_reserved": 0, "is_disabled": 0, "fusion_lon": 0.0, "bike_id": "8f5aa579688a141de56bdd0e2e458123", "lon": -77.02022366666667, "rental_uris": {"ios": "https://dc.lft.to/lastmile_qr_scan", "android": "https://dc.lft.to/lastmile_qr_scan"}}, {"name": "70dfb8217a74a4c9192fc10272cfb7e3", "fusion_lat": 0.0, "type": "electric_scooter", "lat": 38.886013, "is_reserved": 0, "is_disabled": 0, "fusion_lon": 0.0, "bike_id": "70dfb8217a74a4c9192fc10272cfb7e3", "lon": -77.02204116666667, "rental_uris": {"ios": "https://dc.lft.to/lastmile_qr_scan", "android": "https://dc.lft.to/lastmile_qr_scan"}}, {"name": "d0ea459bdd93cc99fe4a6eac523e3617", "fusion_lat": 0.0, "type": "electric_scooter", "lat": 38.93454033333333, "is_reserved": 0, "is_disabled": 0, "fusion_lon": 0.0, "bike_id": "d0ea459bdd93cc99fe4a6eac523e3617", "lon": -77.029163, "rental_uris": {"ios": "https://dc.lft.to/lastmile_qr_scan", "android": "https://dc.lft.to/lastmile_qr_scan"}}, {"name": "2a5c85e33714ab12e637f73601e13605", "fusion_lat": 0.0, "type": "electric_bike", "lat": 38.8840965, "is_reserved": 0, "is_disabled": 0, "fusion_lon": 0.0, "bike_id": "2a5c85e33714ab12e637f73601e13605", "lon": -76.9606605, "rental_uris": {"ios": "https://dc.lft.to/lastmile_qr_scan", "android": "https://dc.lft.to/lastmile_qr_scan"}}, {"name": "d1520792402753c5d8a8fe09e020c4aa", "fusion_lat": 0.0, "type": "electric_scooter", "lat": 38.87917366666667, "is_reserved": 0, "is_disabled": 0, "fusion_lon": 0.0, "bike_id": "d1520792402753c5d8a8fe09e020c4aa", "lon": -76.99507983333334, "rental_uris": {"ios": "https://dc.lft.to/lastmile_qr_scan", "android": "https://dc.lft.to/lastmile_qr_scan"}}, {"name": "7470d69dde2ff940aca396972db9048f", "fusion_lat": 0.0, "type": "electric_scooter", "lat": 38.91020683333333, "is_reserved": 0, "is_disabled": 0, "fusion_lon": 0.0, "bike_id": "7470d69dde2ff940aca396972db9048f", "lon": -76.99673116666666, "rental_uris": {"ios": "https://dc.lft.to/lastmile_qr_scan", "android": "https://dc.lft.to/lastmile_qr_scan"}}, {"name": "90c7541725707ef54d5e112693f8615a", "fusion_lat": 0.0, "type": "electric_scooter", "lat": 38.937085833333335, "is_reserved": 0, "is_disabled": 0, "fusion_lon": 0.0, "bike_id": "90c7541725707ef54d5e112693f8615a", "lon": -77.06107616666667, "rental_uris": {"ios": "https://dc.lft.to/lastmile_qr_scan", "android": "https://dc.lft.to/lastmile_qr_scan"}}, {"name": "4d7cc578426f4f68060fa36916819071", "fusion_lat": 0.0, "type": "electric_scooter", "lat": 38.9005225, "is_reserved": 0, "is_disabled": 0, "fusion_lon": 0.0, "bike_id": "4d7cc578426f4f68060fa36916819071", "lon": -77.04896483333333, "rental_uris": {"ios": "https://dc.lft.to/lastmile_qr_scan", "android": "https://dc.lft.to/lastmile_qr_scan"}}, {"name": "5ac4108eb3e868a64d12ba7cf784a982", "fusion_lat": 0.0, "type": "electric_scooter", "lat": 38.93431116666667, "is_reserved": 0, "is_disabled": 0, "fusion_lon": 0.0, "bike_id": "5ac4108eb3e868a64d12ba7cf784a982", "lon": -77.02724783333333, "rental_uris": {"ios": "https://dc.lft.to/lastmile_qr_scan", "android": "https://dc.lft.to/lastmile_qr_scan"}}, {"name": "0df68b736b7ded20ef01e89af850dc52", "fusion_lat": 0.0, "type": "electric_scooter", "lat": 38.90051366666667, "is_reserved": 0, "is_disabled": 0, "fusion_lon": 0.0, "bike_id": "0df68b736b7ded20ef01e89af850dc52", "lon": -76.98820966666666, "rental_uris": {"ios": "https://dc.lft.to/lastmile_qr_scan", "android": "https://dc.lft.to/lastmile_qr_scan"}}, {"name": "ba72efc1ffb21274bebb2373a7ea12fa", "fusion_lat": 0.0, "type": "electric_bike", "lat": 39.02417333333333, "is_reserved": 0, "is_disabled": 0, "fusion_lon": 0.0, "bike_id": "ba72efc1ffb21274bebb2373a7ea12fa", "lon": -77.12500166666666, "rental_uris": {"ios": "https://dc.lft.to/lastmile_qr_scan", "android": "https://dc.lft.to/lastmile_qr_scan"}}, {"name": "05cc0b19f8c432e1fd2a7d19a9fc961a", "fusion_lat": 0.0, "type": "electric_scooter", "lat": 38.9085595, "is_reserved": 0, "is_disabled": 0, "fusion_lon": 0.0, "bike_id": "05cc0b19f8c432e1fd2a7d19a9fc961a", "lon": -77.04498883333333, "rental_uris": {"ios": "https://dc.lft.to/lastmile_qr_scan", "android": "https://dc.lft.to/lastmile_qr_scan"}},