{"data": {"bikes": [{"lat": 38.902407833333335, "lon": -77.04713416666667, "is_disabled": 0, "fusion_lon": 0.0, "is_reserved": 0, "name": "153445caf57e2b14f1674f42750b3c17", "type": "electric_scooter", "bike_id": "153445caf57e2b14f1674f42750b3c17", "rental_uris": {"ios": "https://dc.lft.to/lastmile_qr_scan", "android": "https://dc.lft.to/lastmile_qr_scan"}, "fusion_lat": 0.0}, {"lat": 38.873778, "lon": -77.00166033333333, "is_disabled": 0, "fusion_lon": 0.0, "is_reserved": 0, "name": "61f2ed9b635296439d370b08be4fdfec", "type": "electric_scooter", "bike_id": "61f2ed9b635296439d370b08be4fdfec", "rental_uris": {"ios": "https://dc.lft.to/lastmile_qr_scan", "android": "https://dc.lft.to/lastmile_qr_scan"}, "fusion_lat": 0.0}, {"lat": 38.88458333333333, "lon": -77.01761616666667, "is_disabled": 0, "fusion_lon": 0.0, "is_reserved": 0, "name": "8bf5553601b6c94f4086918b563fe410", "type": "electric_scooter", "bike_id": "8bf5553601b6c94f4086918b563fe410", "rental_uris": {"ios": "https://dc.lft.to/lastmile_qr_scan", "android": "https://dc.lft.to/lastmile_qr_scan"}, "fusion_lat": 0.0}, {"lat": 38.93117616666667, "lon": -77.03037116666667, "is_disabled": 0, "fusion_lon": 0.0, "is_reserved": 0, "name": "32a1c64a767b85d29db37645c57ce96d", "type": "electric_scooter", "bike_id": "32a1c64a767b85d29db37645c57ce96d", "rental_uris": {"ios": "https://dc.lft.to/lastmile_qr_scan", "android": "https://dc.lft.to/lastmile_qr_scan"}, "fusion_lat": 0.0}, {"lat": 38.91913266666667, "lon": -77.02367233333334, "is_disabled": 0, "fusion_lon": 0.0, "is_reserved": 0, "name": "a2254aafd1bab72d05b282ae0c2fc869", "type": "electric_scooter", "bike_id": "a2254aafd1bab72d05b282ae0c2fc869", "rental_uris": {"ios": "https://dc.lft.to/lastmile_qr_scan", "android": "https://dc.lft.to/lastmile_qr_scan"}, "fusion_lat": 0.0}, {"lat": 38.914724, "lon": -77.038401, "is_disabled": 0, "fusion_lon": 0.0, "is_reserved": 0, "name": "3fcabea9d464fd5edca80143a351a132", "type": "electric_scooter", "bike_id": "3fcabea9d464fd5edca80143a351a132", "rental_uris": {"ios": "https://dc.lft.to/lastmile_qr_scan", "android": "https://dc.lft.to/lastmile_qr_scan"}, "fusion_lat": 0.0}, {"lat": 38.926213833333335, "lon": -77.04198666666667, "is_disabled": 0, "fusion_lon": 0.0, "is_reserved": 0, "name": "90f6f1ef4a849f7c3e2f5c1e67a1770f", "type": "electric_scooter", "bike_id": "90f6f1ef4a849f7c3e2f5c1e67a1770f", "rental_uris": {"ios": "https://dc.lft.to/lastmile_qr_scan", "android": "https://dc.lft.to/lastmile_qr_scan"}, "fusion_lat": 0.0}, {"lat": 38.919139, "lon": -77.02411883333333, "is_disabled": 0, "fusion_lon": 0.0, "is_reserved": 0, "name": "bf3f11318789b0a91c96468fbe3cfae2", "type": "electric_scooter", "bike_id": "bf3f11318789b0a91c96468fbe3cfae2", "rental_uris": {"ios": "https://dc.lft.to/lastmile_qr_scan", "android": "https://dc.lft.to/lastmile_qr_scan"}, "fusion_lat": 0.0}, {"lat": 38.89808566666667, "lon": -77.03140116666667, "is_disabled": 0, "fusion_lon": 0.0, "is_reserved": 0, "name": "047be100397bfb1671532ac59ba8d709", "type": "electric_scooter", "bike_id": "047be100397bfb1671532ac59ba8d709", "rental_uris": {"ios": "https://dc.lft.to/lastmile_qr_scan", "android": "https://dc.lft.to/lastmile_qr_scan"}, "fusion_lat": 0.0}, {"lat": 38.97494233333333, "lon": -77.01666466666667, "is_disabled": 0, "fusion_lon": 0.0, "is_reserved": 0, "name": "a740ba269f450afaa6869bbc87692a2a", "type": "electric_scooter", "bike_id": "a740ba269f450afaa6869bbc87692a2a", "rental_uris": {"ios": "https://dc.lft.to/lastmile_qr_scan", "android": "https://dc.lft.to/lastmile_qr_scan"}, "fusion_lat": 0.0}, {"lat": 38.9119995, "lon": -77.04143933333333, "is_disabled": 0, "fusion_lon": 0.0, "is_reserved": 0, "name": "7ef45ea47ddda10aa2c29a4a0fafbdee", "type": "electric_scooter", "bike_id": "7ef45ea47ddda10aa2c29a4a0fafbdee", "rental_uris": {"ios": "https://dc.lft.to/lastmile_qr_scan", "android": "https://dc.lft.to/lastmile_qr_scan"}, "fusion_lat": 0.0}, {"lat": 38.93064433333333, "lon": -77.02154033333333, "is_disabled": 0, "fusion_lon": 0.0, "is_reserved": 0, "name": "a9882a03c90c59dbeb48a62f7bf48af2", "type": "electric_scooter", "bike_id": "a9882a03c90c59dbeb48a62f7bf48af2", "rental_uris": {"ios": "https://dc.lft.to/lastmile_qr_scan", "android": "https://dc.lft.to/lastmile_qr_scan"}, "fusion_lat": 0.0}, {"lat": 38.850838333333336, "lon": -76.95696583333333, "is_disabled": 0, "fusion_lon": 0.0, "is_reserved": 0, "name": "7d70c919c215da0769735065bb96929f", "type": "electric_bike", "bike_id": "7d70c919c215da0769735065bb96929f", "rental_uris": {"ios": "https://dc.lft.to/lastmile_qr_scan", "android": "https://dc.lft.to/lastmile_qr_scan"}, "fusion_lat": 0.0}, {"lat": 38.918158, "lon": -77.04175416666666, "is_disabled": 0, "fusion_lon": 0.0, "is_reserved": 0, "name": "c9112b9083036d276fbb80f453bba87b", "type": "electric_scooter", "bike_id": "c9112b9083036d276fbb80f453bba87b", "rental_uris": {"ios": "https://dc.lft.to/lastmile_qr_scan", "android": "https://dc.lft.to/lastmile_qr_scan"}, "fusion_lat": 0.0}, {"lat": 38.87780333333333, "lon": -77.00117033333333, "is_disabled": 0, "fusion_lon": 0.0, "is_reserved": 0, "name": "19d8a76326b6b624d332313bdbf0f5eb", "type": "electric_scooter", "bike_id": "19d8a76326b6b624d332313bdbf0f5eb", "rental_uris": {"ios": "https://dc.lft.to/lastmile_qr_scan", "android": "https://dc.lft.to/lastmile_qr_scan"}, "fusion_lat": 0.0}, {"lat": 38.9113505, "lon": -77.04199466666667, "is_disabled": 0, "fusion_lon": 0.0, "is_reserved": 0, "name": "a2cfd35597150429e98342a3af316782", "type": "electric_scooter", "bike_id": "a2cfd35597150429e98342a3af316782", "rental_uris": {"ios": "https://dc.lft.to/lastmile_qr_scan", "android": "https://dc.lft.to/lastmile_qr_scan"}, "fusion_lat": 0.0}, {"lat": 38.91417216666667, "lon": -77.0180305, "is_disabled": 0, "fusion_lon": 0.0, "is_reserved": 0, "name": "a6914e042e3a99709b47c0e6cbfbd9d4", "type": "electric_scooter", "bike_id": "a6914e042e3a99709b47c0e6cbfbd9d4", "rental_uris": {"ios": "https://dc.lft.to/lastmile_qr_scan", "android": "https://dc.lft.to/lastmile_qr_scan"}, "fusion_lat": 0.0}, {"lat": 38.9072585, "lon": -77.03449283333333, "is_disabled": 0, "fusion_lon": 0.0, "is_reserved": 0, "name": "c854f8e2003e4f254e25f3acb7152fff", "type": "electric_scooter", "bike_id": "c854f8e2003e4f254e25f3acb7152fff", "rental_uris": {"ios": "https://dc.lft.to/lastmile_qr_scan", "android": "https://dc.lft.to/lastmile_qr_scan"}, "fusion_lat": 0.0}, {"lat": 38.928982833333336, "lon": -77.02747016666666, "is_disabled": 0, "fusion_lon": 0.0, "is_reserved": 0, "name": "c49e7715b30f018cb1aff8fafe165474", "type": "electric_scooter", "bike_id": "c49e7715b30f018cb1aff8fafe165474", "rental_uris": {"ios": "https://dc.lft.to/lastmile_qr_scan", "android": "https://dc.lft.to/lastmile_qr_scan"}, "fusion_lat": 0.0}, {"lat": 38.89642966666667, "lon": -77.023358, "is_disabled": 0, "fusion_lon": 0.0, "is_reserved": 0, "name": "4f435cffce98bf7dda40bde4c23cd576", "type": "electric_scooter", "bike_id": "4f435cffce98bf7dda40bde4c23cd576", "rental_uris": {"ios": "https://dc.lft.to/lastmile_qr_scan", "android": "https://dc.lft.to/lastmile_qr_scan"}, "fusion_lat": 0.0}, {"lat": 38.97256383333333, "lon": -76.99275533333333, "is_disabled": 0, "fusion_lon": 0.0, "is_reserved": 0, "name": "6c849eff302512c251cc5046f6bc50c6", "type": "electric_bike", "bike_id": "6c849eff302512c251cc5046f6bc50c6", "rental_uris": {"ios": "https://dc.lft.to/lastmile_qr_scan", "android": "https://dc.lft.to/lastmile_qr_scan"}, "fusion_lat": 0.0}, {"lat": 38.90730333333333, "lon": -77.03175066666667, "is_disabled": 0, "fusion_lon": 0.0, "is_reserved": 0, "name": "9da336a1a50a6f0f39b990f5a41f90e9", "type": "electric_scooter", "bike_id": "9da336a1a50a6f0f39b990f5a41f90e9", "rental_uris": {"ios": "https://dc.lft.to/lastmile_qr_scan", "android": "https://dc.lft.to/lastmile_qr_scan"}, "fusion_lat": 0.0}, {"lat": 38.900031166666665, "lon": -77.01203633333333, "is_disabled": 0, "fusion_lon": 0.0, "is_reserved": 0, "name": "2f33707cc280d11d8c8955e93c043847", "type": "electric_scooter", "bike_id": "2f33707cc280d11d8c8955e93c043847", "rental_uris": {"ios": "https://dc.lft.to/lastmile_qr_scan", "android": "https://dc.lft.to/lastmile_qr_scan"}, "fusion_lat": 0.0}, {"lat": 38.9168565, "lon": -77.02899816666667, "is_disabled": 0, "fusion_lon": 0.0, "is_reserved": 0, "name": "ce511c8fe89838b93760a0996c7a0efe", "type": "electric_scooter", "bike_id": "ce511c8fe89838b93760a0996c7a0efe", "rental_uris": {"ios": "https://dc.lft.to/lastmile_qr_scan", "android": "https://dc.lft.to/lastmile_qr_scan"}, "fusion_lat": 0.0}, {"lat": 38.95594166666667, "lon": -77.03362166666666, "is_disabled": 0, "fusion_lon": 0.0, "is_reserved": 0, "name": "75ba97df409ef42ebeb4fde13ad366ec", "type": "electric_scooter", "bike_id": "75ba97df409ef42ebeb4fde13ad366ec", "rental_uris": {"ios": "https://dc.lft.to/lastmile_qr_scan", "android": "https://dc.lft.to/lastmile_qr_scan"}, "fusion_lat": 0.0}, {"lat": 38.915450666666665, "lon": -77.04161166666667, "is_disabled": 0, "fusion_lon": 0.0, "is_reserved": 0, "name": "d3bbc8f6e7e54c84e892221a50c56a14", "type": "electric_scooter", "bike_id": "d3bbc8f6e7e54c84e892221a50c56a14", "rental_uris": {"ios": "https://dc.lft.to/lastmile_qr_scan", "android": "https://dc.lft.to/lastmile_qr_scan"}, "fusion_lat": 0.0}, {"lat": 38.937018333333334, "lon": -77.02395016666667, "is_disabled": 0, "fusion_lon": 0.0, "is_reserved": 0, "name": "3ec53e51714e56b87b696f247a832763", "type": "electric_scooter", "bike_id": "3ec53e51714e56b87b696f247a832763", "rental_uris": {"ios": "https://dc.lft.to/lastmile_qr_scan", "android": "https://dc.lft.to/lastmile_qr_scan"}, "fusion_lat": 0.0}, {"lat": 38.921250666666666, "lon": -77.02530716666666, "is_disabled": 0, "fusion_lon": 0.0, "is_reserved": 0, "name": "17999931d35cb1bf23f8f578a4730f5f", "type": "electric_scooter", "bike_id": "17999931d35cb1bf23f8f578a4730f5f", "rental_uris": {"ios": "https://dc.lft.to/lastmile_qr_scan", "android": "https://dc.lft.to/lastmile_qr_scan"}, "fusion_lat": 0.0}, {"lat": 38.916881000000004, "lon": -77.02674066666667, "is_disabled": 0, "fusion_lon": 0.0, "is_reserved": 0, "name": "87c8298f0ce7ccf3e9596eea7789c863", "type": "electric_scooter", "bike_id": "87c8298f0ce7ccf3e9596eea7789c863", "rental_uris": {"ios": "https://dc.lft.to/lastmile_qr_scan", "android": "https://dc.lft.to/lastmile_qr_scan"}, "fusion_lat": 0.0}, {"lat": 38.924602166666666, "lon": -77.02236633333334, "is_disabled": 0, "fusion_lon": 0.0, "is_reserved": 0, "name": "539a5f1025f8c13b52ebb8d62dc70667", "type": "electric_scooter", "bike_id": "539a5f1025f8c13b52ebb8d62dc70667", "rental_uris": {"ios": "https://dc.lft.to/lastmile_qr_scan", "android": "https://dc.lft.to/lastmile_qr_scan"}, "fusion_lat": 0.0}, {"lat": 38.9450075, "lon": -77.07795883333333, "is_disabled": 0, "fusion_lon": 0.0, "is_reserved": 0, "name": "0bd240f98e603e6a2e31e4058c09493d", "type": "electric_scooter", "bike_id": "0bd240f98e603e6a2e31e4058c09493d", "rental_uris": {"ios": "https://dc.lft.to/lastmile_qr_scan", "android": "https://dc.lft.to/lastmile_qr_scan"}, "fusion_lat": 0.0}, {"lat": 38.92286283333333, "lon": -77.03193816666666, "is_disabled": 0, "fusion_lon": 0.0, "is_reserved": 0, "name": "22f0c94894590799e059148470cfb7c8", "type": "electric_scooter", "bike_id": "22f0c94894590799e059148470cfb7c8", "rental_uris": {"ios": "https://dc.lft.to/lastmile_qr_scan", "android": "https://dc.lft.to/lastmile_qr_scan"}, "fusion_lat": 0.0}, {"lat": 38.9014195, "lon": -77.04157866666667, "is_disabled": 0, "fusion_lon": 0.0, "is_reserved": 0, "name": "42d4260b5bc0575dd12f50ae882d3980", "type": "electric_scooter", "bike_id": "42d4260b5bc0575dd12f50ae882d3980", "rental_uris": {"ios": "https://dc.lft.to/lastmile_qr_scan", "android": "https://dc.lft.to/lastmile_qr_scan"}, "fusion_lat": 0.0}, {"lat": 38.8973795, "lon": -77.03349066666667, "is_disabled": 0, "fusion_lon": 0.0, "is_reserved": 0, "name": "4fad945670a5383f54b286ce17d4b56b", "type": "electric_scooter", "bike_id": "4fad945670a5383f54b286ce17d4b56b", "rental_uris": {"ios": "https://dc.lft.to/lastmile_qr_scan", "android": "https://dc.lft.to/lastmile_qr_scan"}, "fusion_lat": 0.0}, {"lat": 38.92370116666667, "lon": -77.030534, "is_disabled": 0, "fusion_lon": 0.0, "is_reserved": 0, "name": "0bde3ec9101df923927ef83f129154fa", "type": "electric_scooter", "bike_id": "0bde3ec9101df923927ef83f129154fa", "rental_uris": {"ios": "https://dc.lft.to/lastmile_qr_scan", "android": "https://dc.lft.to/lastmile_qr_scan"}, "fusion_lat": 0.0}, {"lat": 38.923298833333334, "lon": -77.05679483333333, "is_disabled": 0, "fusion_lon": 0.0, "is_reserved": 0, "name": "969074be8158e068fecf948cd608c240", "type": "electric_scooter", "bike_id": "969074be8158e068fecf948cd608c240", "rental_uris": {"ios": "https://dc.lft.to/lastmile_qr_scan", "android": "https://dc.lft.to/lastmile_qr_scan"}, "fusion_lat": 0.0}, {"lat": 38.8581005, "lon": -76.98992166666666, "is_disabled": 0, "fusion_lon": 0.0, "is_reserved": 0, "name": "a96767a240bea9caae5d2c318b038103", "type": "electric_scooter", "bike_id": "a96767a240bea9caae5d2c318b038103", "rental_uris": {"ios": "https://dc.lft.to/lastmile_qr_scan", "android": "https://dc.lft.to/lastmile_qr_scan"}, "fusion_lat": 0.0}, {"lat": 38.883415166666666, "lon": -76.93501283333333, "is_disabled": 0, "fusion_lon": 0.0, "is_reserved": 0, "name": "ece713b3217d40447b348a1d62ac35e0", "type": "electric_scooter", "bike_id": "ece713b3217d40447b348a1d62ac35e0", "rental_uris": {"ios": "https://dc.lft.to/lastmile_qr_scan", "android": "https://dc.lft.to/lastmile_qr_scan"}, "fusion_lat": 0.0}, {"lat": 38.918566166666665, "lon": -77.01520916666666, "is_disabled": 0, "fusion_lon": 0.0, "is_reserved": 0, "name": "46fca361abdfc624a3534381e1472b12", "type": "electric_scooter", "bike_id": "46fca361abdfc624a3534381e1472b12", "rental_uris": {"ios": "https://dc.lft.to/lastmile_qr_scan", "android": "https://dc.lft.to/lastmile_qr_scan"}, "fusion_lat": 0.0}, {"lat": 38.9041005, "lon": -76.973323, "is_disabled": 0, "fusion_lon": 0.0, "is_reserved": 0, "name": "392718bc2f961bfc305636cff1c32f7b", "type": "electric_scooter", "bike_id": "392718bc2f961bfc305636cff1c32f7b", "rental_uris": {"ios": "https://dc.lft.to/lastmile_qr_scan", "android": "https://dc.lft.to/lastmile_qr_scan"}, "fusion_lat": 0.0}, {"lat": 38.898953, "lon": -76.98080466666667, "is_disabled": 0, "fusion_lon": 0.0, "is_reserved": 0, "name": "25dd11f3b0ac78cbf999d61ecc8173c2", "type": "electric_scooter", "bike_id": "25dd11f3b0ac78cbf999d61ecc8173c2", "rental_uris": {"ios": "https://dc.lft.to/lastmile_qr_scan", "android": "https://dc.lft.to/lastmile_qr_scan"}, "fusion_lat": 0.0}, {"lat": 38.900043, "lon": -77.039477, "is_disabled": 0, "fusion_lon": 0.0, "is_reserved": 0, "name": "f375cfcadd89bba4b4161f73c2396dcd", "type": "electric_scooter", "bike_id": "f375cfcadd89bba4b4161f73c2396dcd", "rental_uris": {"ios": "https://dc.lft.to/lastmile_qr_scan", "android": "https://dc.lft.to/lastmile_qr_scan"}, "fusion_lat": 0.0}, {"lat": 38.900103333333334, "lon": -77.00699316666666, "is_disabled": 0, "fusion_lon": 0.0, "is_reserved": 0, "name": "fb5c6e991d6741823c5ce0459b8b24d5", "type": "electric_scooter", "bike_id": "fb5c6e991d6741823c5ce0459b8b24d5", "rental_uris": {"ios": "https://dc.lft.to/lastmile_qr_scan", "android": "https://dc.lft.to/lastmile_qr_scan"}, "fusion_lat": 0.0}, {"lat": 38.900175, "lon": -77.0020795, "is_disabled": 0, "fusion_lon": 0.0, "is_reserved": 0, "name": "ba3477d6bd5759fa08757e23145570eb", "type": "electric_scooter", "bike_id": "ba3477d6bd5759fa08757e23145570eb", "rental_uris": {"ios": "https://dc.lft.to/lastmile_qr_scan", "android": "https://dc.lft.to/lastmile_qr_scan"}, "fusion_lat": 0.0}, {"lat": 38.914748, "lon": -77.0423665, "is_disabled": 0, "fusion_lon": 0.0, "is_reserved": 0, "name": "bf8535027251a4b40eca617e467016d3", "type": "electric_scooter", "bike_id": "bf8535027251a4b40eca617e467016d3", "rental_uris": {"ios": "https://dc.lft.to/lastmile_qr_scan", "android": "https://dc.lft.to/lastmile_qr_scan"}, "fusion_lat": 0.0}, {"lat": 38.91234133333333, "lon": -77.04877766666667, "is_disabled": 0, "fusion_lon": 0.0, "is_reserved": 0, "name": "368447920e4ad8572524e42756aa9695", "type": "electric_scooter", "bike_id": "368447920e4ad8572524e42756aa9695", "rental_uris": {"ios": "https://dc.lft.to/lastmile_qr_scan", "android": "https://dc.lft.to/lastmile_qr_scan"}, "fusion_lat": 0.0}, {"lat": 38.92073833333333, "lon": -77.04194166666667, "is_disabled": 0, "fusion_lon": 0.0, "is_reserved": 0, "name": "56dac9fa19edbdcfaf45e486baa624dc", "type": "electric_scooter", "bike_id": "56dac9fa19edbdcfaf45e486baa624dc", "rental_uris": {"ios": "https://dc.lft.to/lastmile_qr_scan", "android": "https://dc.lft.to/lastmile_qr_scan"}, "fusion_lat": 0.0}, {"lat": 39.0705315, "lon": -77.11522783333334, "is_disabled": 0, "fusion_lon": 0.0, "is_reserved": 0, "name": "97e984b69fddbab695602f58dd7a88fd", "type": "electric_bike", "bike_id": "97e984b69fddbab695602f58dd7a88fd", "rental_uris": {"ios": "https://dc.lft.to/lastmile_qr_scan", "android": "https://dc.lft.to/lastmile_qr_scan"}, "fusion_lat": 0.0}, {"lat": 38.9157945, "lon": -77.0123135, "is_disabled": 0, "fusion_lon": 0.0, "is_reserved": 0, "name": "c8a9d713567c38aac6793069d70f0fc5", "type": "electric_scooter", "bike_id": "c8a9d713567c38aac6793069d70f0fc5", "rental_uris": {"ios": "https://dc.lft.to/lastmile_qr_scan", "android": "https://dc.lft.to/lastmile_qr_scan"}, "fusion_lat": 0.0}, {"lat": 38.911211333333334, "lon": -77.02194, "is_disabled": 0, "fusion_lon": 0.0, "is_reserved": 0, "name": "2e9800327c0837a8bb44d0578bfe7fdf", "type": "electric_scooter", "bike_id": "2e9800327c0837a8bb44d0578bfe7fdf", "rental_uris": {"ios": "https://dc.lft.to/lastmile_qr_scan", "android": "https://dc.lft.to/lastmile_qr_scan"}, "fusion_lat": 0.0}, {"lat": 38.917108, "lon": -77.03251283333333, "is_disabled": 0, "fusion_lon": 0.0, "is_reserved": 0, "name": "12bf239409231cae1da0bf1de2701be6", "type": "electric_scooter", "bike_id": "12bf239409231cae1da0bf1de2701be6", "rental_uris": {"ios": "https://dc.lft.to/lastmile_qr_scan", "android": "https://dc.lft.to/lastmile_qr_scan"}, "fusion_lat": 0.0}, {"lat": 38.9155045, "lon": -77.04155466666667, "is_disabled": 0, "fusion_lon": 0.0, "is_reserved": 0, "name": "17e91bf8b19e67c76df09a32943e9daa", "type": "electric_scooter", "bike_id": "17e91bf8b19e67c76df09a32943e9daa", "rental_uris": {"ios": "https://dc.lft.to/lastmile_qr_scan", "android": "https://dc.lft.to/lastmile_qr_scan"}, "fusion_lat": 0.0}, {"lat": 38.947037, "lon": -77.019397, "is_disabled": 0, "fusion_lon": 0.0, "is_reserved": 0, "name": "d073a0848109dc8489613fb8f479cbbe", "type": "electric_scooter", "bike_id": "d073a0848109dc8489613fb8f479cbbe", "rental_uris": {"ios": "https://dc.lft.to/lastmile_qr_scan", "android": "https://dc.lft.to/lastmile_qr_scan"}, "fusion_lat": 0.0}, {"lat": 38.916826666666665, "lon": -77.02887416666667, "is_disabled": 0, "fusion_lon": 0.0, "is_reserved": 0, "name": "049c4ca6819552235376180e4928f826", "type": "electric_scooter", "bike_id": "049c4ca6819552235376180e4928f826", "rental_uris": {"ios": "https://dc.lft.to/lastmile_qr_scan", "android": "https://dc.lft.to/lastmile_qr_scan"}, "fusion_lat": 0.0}, {"lat": 38.93186983333333, "lon": -77.03460116666666, "is_disabled": 0, "fusion_lon": 0.0, "is_reserved": 0, "name": "f6c64e5cddf63e9f154ce8ccb596c8da", "type": "electric_scooter", "bike_id": "f6c64e5cddf63e9f154ce8ccb596c8da", "rental_uris": {"ios": "https://dc.lft.to/lastmile_qr_scan", "android": "https://dc.lft.to/lastmile_qr_scan"}, "fusion_lat": 0.0}, {"lat": 38.93875966666667, "lon": -77.024832, "is_disabled": 0, "fusion_lon": 0.0, "is_reserved": 0, "name": "bf7d39e4a809cc4760a7aeb30a2cec25", "type": "electric_scooter", "bike_id": "bf7d39e4a809cc4760a7aeb30a2cec25", "rental_uris": {"ios": "https://dc.lft.to/lastmile_qr_scan", "android": "https://dc.lft.to/lastmile_qr_scan"}, "fusion_lat": 0.0}, {"lat": 38.93716666666667, "lon": -77.03261666666667, "is_disabled": 0, "fusion_lon": 0.0, "is_reserved": 0, "name": "a8d1d7c2287ea24d7ff391d6640ed0f4", "type": "electric_scooter", "bike_id": "a8d1d7c2287ea24d7ff391d6640ed0f4", "rental_uris": {"ios": "https://dc.lft.to/lastmile_qr_scan", "android": "https://dc.lft.to/lastmile_qr_scan"}, "fusion_lat": 0.0}, {"lat": 38.897336333333335, "lon": -77.04355433333333, "is_disabled": 0, "fusion_lon": 0.0, "is_reserved": 0, "name": "a24200d3cdad70489978662616041d06", "type": "electric_scooter", "bike_id": "a24200d3cdad70489978662616041d06", "rental_uris": {"ios": "https://dc.lft.to/lastmile_qr_scan", "android": "https://dc.lft.to/lastmile_qr_scan"}, "fusion_lat": 0.0}, {"lat": 38.9563375, "lon": -77.033102, "is_disabled": 0, "fusion_lon": 0.0, "is_reserved": 0, "name": "c345e1f2af72c32767d20c02d92a7490", "type": "electric_scooter", "bike_id": "c345e1f2af72c32767d20c02d92a7490", "rental_uris": {"ios": "https://dc.lft.to/lastmile_qr_scan", "android": "https://dc.lft.to/lastmile_qr_scan"}, "fusion_lat": 0.0}, {"lat": 38.909467666666664, "lon": -77.03938733333334, "is_disabled": 0, "fusion_lon": 0.0, "is_reserved": 0, "name": "5fc3322003e8a45386018fa6fb9a121f", "type": "electric_scooter", "bike_id": "5fc3322003e8a45386018fa6fb9a121f", "rental_uris": {"ios": "https://dc.lft.to/lastmile_qr_scan", "android": "https://dc.lft.to/lastmile_qr_scan"}, "fusion_lat": 0.0}, {"lat": 38.90589216666667, "lon": -77.04325116666666, "is_disabled": 0, "fusion_lon": 0.0, "is_reserved": 0, "name": "c2fd36adb261811505f3b3942505a6dc", "type": "electric_scooter", "bike_id": "c2fd36adb261811505f3b3942505a6dc", "rental_uris": {"ios": "https://dc.lft.to/lastmile_qr_scan", "android": "https://dc.lft.to/lastmile_qr_scan"}, "fusion_lat": 0.0}, {"lat": 38.898332, "lon": -77.03157983333334, "is_disabled": 0, "fusion_lon": 0.0, "is_reserved": 0, "name": "4a53b33f4facaf5938fedc113b57ed55", "type": "electric_scooter", "bike_id": "4a53b33f4facaf5938fedc113b57ed55", "rental_uris": {"ios": "https://dc.lft.to/lastmile_qr_scan", "android": "https://dc.lft.to/lastmile_qr_scan"}, "fusion_lat": 0.0}, {"lat": 38.9360295, "lon": -77.031844, "is_disabled": 0, "fusion_lon": 0.0, "is_reserved": 0, "name": "8716c5484d0b1063e89f1df5084650b7", "type": "electric_scooter", "bike_id": "8716c5484d0b1063e89f1df5084650b7", "rental_uris": {"ios": "https://dc.lft.to/lastmile_qr_scan", "android": "https://dc.lft.to/lastmile_qr_scan"}, "fusion_lat": 0.0}, {"lat": 38.95730616666667, "lon": -77.02399433333333, "is_disabled": 0, "fusion_lon": 0.0, "is_reserved": 0, "name": "ef12cea8469ed129e3b420f575ccbf73", "type": "electric_scooter", "bike_id": "ef12cea8469ed129e3b420f575ccbf73", "rental_uris": {"ios": "https://dc.lft.to/lastmile_qr_scan", "android": "https://dc.lft.to/lastmile_qr_scan"}, "fusion_lat": 0.0}, {"lat": 38.881216333333334, "lon": -77.01657883333333, "is_disabled": 0, "fusion_lon": 0.0, "is_reserved": 0, "name": "388cd9cf66c8347a8f27e1bc8eb22ea4", "type": "electric_scooter", "bike_id": "388cd9cf66c8347a8f27e1bc8eb22ea4", "rental_uris": {"ios": "https://dc.lft.to/lastmile_qr_scan", "android": "https://dc.lft.to/lastmile_qr_scan"}, "fusion_lat": 0.0}, {"lat": 38.87832066666667, "lon": -76.98354033333334, "is_disabled": 0, "fusion_lon": 0.0, "is_reserved": 0, "name": "71a68a0198dc0498ca8900478d5cce72", "type": "electric_bike", "bike_id": "71a68a0198dc0498ca8900478d5cce72", "rental_uris": {"ios": "https://dc.lft.to/lastmile_qr_scan", "android": "https://dc.lft.to/lastmile_qr_scan"}, "fusion_lat": 0.0}, {"lat": 38.949455, "lon": -77.06663883333333, "is_disabled": 0, "fusion_lon": 0.0, "is_reserved": 0, "name": "c20d1fabbeda3ca66c1d7e91ddc371d8", "type": "electric_scooter", "bike_id": "c20d1fabbeda3ca66c1d7e91ddc371d8", "rental_uris": {"ios": "https://dc.lft.to/lastmile_qr_scan", "android": "https://dc.lft.to/lastmile_qr_scan"}, "fusion_lat": 0.0}, {"lat": 38.91223316666667, "lon": -77.02701216666667, "is_disabled": 0, "fusion_lon": 0.0, "is_reserved": 0, "name": "412c9f75045ac6d0dd6549b9d239d8ad", "type": "electric_scooter", "bike_id": "412c9f75045ac6d0dd6549b9d239d8ad", "rental_uris": {"ios": "https://dc.lft.to/lastmile_qr_scan", "android": "https://dc.lft.to/lastmile_qr_scan"}, "fusion_lat": 0.0}, {"lat": 38.906673833333336, "lon": -77.02698133333334, "is_disabled": 0, "fusion_lon": 0.0, "is_reserved": 0, "name": "b5f7962859f3889b31ba828be53ed0bf", "type": "electric_scooter", "bike_id": "b5f7962859f3889b31ba828be53ed0bf", "rental_uris": {"ios": "https://dc.lft.to/lastmile_qr_scan", "android": "https://dc.lft.to/lastmile_qr_scan"}, "fusion_lat": 0.0}, {"lat": 38.92494216666667, "lon": -77.23350616666667, "is_disabled": 0, "fusion_lon": 0.0, "is_reserved": 0, "name": "442bf2c36fc0687622e754313670cca7", "type": "electric_bike", "bike_id": "442bf2c36fc0687622e754313670cca7", "rental_uris": {"ios": "https://dc.lft.to/lastmile_qr_scan", "android": "https://dc.lft.to/lastmile_qr_scan"}, "fusion_lat": 0.0}, {"lat": 38.9305175, "lon": -77.0231725, "is_disabled": 0, "fusion_lon": 0.0, "is_reserved": 0, "name": "74a0d77a4ea9066ef3bf8d092e4d1501", "type": "electric_scooter", "bike_id": "74a0d77a4ea9066ef3bf8d092e4d1501", "rental_uris": {"ios": "https://dc.lft.to/lastmile_qr_scan", "android": "https://dc.lft.to/lastmile_qr_scan"}, "fusion_lat": 0.0}, {"lat": 38.9475505, "lon": -77.02369283333333, "is_disabled": 0, "fusion_lon": 0.0, "is_reserved": 0, "name": "62df122c8c14ea3308b6296c3e82a450", "type": "electric_bike", "bike_id": "62df122c8c14ea3308b6296c3e82a450", "rental_uris": {"ios": "https://dc.lft.to/lastmile_qr_scan", "android": "https://dc.lft.to/lastmile_qr_scan"}, "fusion_lat": 0.0}, {"lat": 38.927166, "lon": -77.02783783333334, "is_disabled": 0, "fusion_lon": 0.0, "is_reserved": 0, "name": "8f8e3bb0e3c5c0ff13f85605c7837e32", "type": "electric_scooter", "bike_id": "8f8e3bb0e3c5c0ff13f85605c7837e32", "rental_uris": {"ios": "https://dc.lft.to/lastmile_qr_scan", "android": "https://dc.lft.to/lastmile_qr_scan"}, "fusion_lat": 0.0}, {"lat": 38.907174499999996, "lon": -77.02566016666667, "is_disabled": 0, "fusion_lon": 0.0, "is_reserved": 0, "name": "5d97393df2a5c34ddb8c22ecc2548be5", "type": "electric_scooter", "bike_id": "5d97393df2a5c34ddb8c22ecc2548be5", "rental_uris": {"ios": "https://dc.lft.to/lastmile_qr_scan", "android": "https://dc.lft.to/lastmile_qr_scan"}, "fusion_lat": 0.0}, {"lat": 38.9019655, "lon": -77.023768, "is_disabled": 0, "fusion_lon": 0.0, "is_reserved": 0, "name": "f9059760f72ee0efa5c993b5546cc323", "type": "electric_scooter", "bike_id": "f9059760f72ee0efa5c993b5546cc323", "rental_uris": {"ios": "https://dc.lft.to/lastmile_qr_scan", "android": "https://dc.lft.to/lastmile_qr_scan"}, "fusion_lat": 0.0}, {"lat": 38.91401583333333, "lon": -77.03260483333334, "is_disabled": 0, "fusion_lon": 0.0, "is_reserved": 0, "name": "71b2763840a71cedb0966d17fbfd5656", "type": "electric_scooter", "bike_id": "71b2763840a71cedb0966d17fbfd5656", "rental_uris": {"ios": "https://dc.lft.to/lastmile_qr_scan", "android": "https://dc.lft.to/lastmile_qr_scan"}, "fusion_lat": 0.0}, {"lat": 38.92764116666667, "lon": -76.97350683333333, "is_disabled": 0, "fusion_lon": 0.0, "is_reserved": 0, "name": "0d5d594b7b8829b3da323a4957511077", "type": "electric_scooter", "bike_id": "0d5d594b7b8829b3da323a4957511077", "rental_uris": {"ios": "https://dc.lft.to/lastmile_qr_scan", "android": "https://dc.lft.to/lastmile_qr_scan"}, "fusion_lat": 0.0}, {"lat": 38.91038533333333, "lon": -77.042786, "is_disabled": 0, "fusion_lon": 0.0, "is_reserved": 0, "name": "ef69ddd0f2c77eb2d579b7fbd49fa919", "type": "electric_scooter", "bike_id": "ef69ddd0f2c77eb2d579b7fbd49fa919", "rental_uris": {"ios": "https://dc.lft.to/lastmile_qr_scan", "android": "https://dc.lft.to/lastmile_qr_scan"}, "fusion_lat": 0.0}, {"lat": 38.9012835, "lon": -77.05475283333334, "is_disabled": 0, "fusion_lon": 0.0, "is_reserved": 0, "name": "2d1ffbcb6c182601f4556b0cbc100144", "type": "electric_scooter", "bike_id": "2d1ffbcb6c182601f4556b0cbc100144", "rental_uris": {"ios": "https://dc.lft.to/lastmile_qr_scan", "android": "https://dc.lft.to/lastmile_qr_scan"}, "fusion_lat": 0.0}, {"lat": 38.93596, "lon": -77.0365215, "is_disabled": 0, "fusion_lon": 0.0, "is_reserved": 0, "name": "e154904685596a07ded359d232dadc69", "type": "electric_scooter", "bike_id": "e154904685596a07ded359d232dadc69", "rental_uris": {"ios": "https://dc.lft.to/lastmile_qr_scan", "android": "https://dc.lft.to/lastmile_qr_scan"}, "fusion_lat": 0.0}, {"lat": 38.9024345, "lon": -77.0266065, "is_disabled": 0, "fusion_lon": 0.0, "is_reserved": 0, "name": "159dd5a9b2627cfad0ec3cc925394899", "type": "electric_scooter", "bike_id": "159dd5a9b2627cfad0ec3cc925394899", "rental_uris": {"ios": "https://dc.lft.to/lastmile_qr_scan", "android": "https://dc.lft.to/lastmile_qr_scan"}, "fusion_lat": 0.0}, {"lat": 39.00315916666667, "lon": -76.90331016666667, "is_disabled": 0, "fusion_lon": 0.0, "is_reserved": 0, "name": "4f89db949c65dd3e59da7f1d2d8481e0", "type": "electric_bike", "bike_id": "4f89db949c65dd3e59da7f1d2d8481e0", "rental_uris": {"ios": "https://dc.lft.to/lastmile_qr_scan", "android": "https://dc.lft.to/lastmile_qr_scan"}, "fusion_lat": 0.0}, {"lat": 38.902001, "lon": -77.02378916666666, "is_disabled": 0, "fusion_lon": 0.0, "is_reserved": 0, "name": "2d59c9f304295ba7dfb3886e42376434", "type": "electric_scooter", "bike_id": "2d59c9f304295ba7dfb3886e42376434", "rental_uris": {"ios": "https://dc.lft.to/lastmile_qr_scan", "android": "https://dc.lft.to/lastmile_qr_scan"}, "fusion_lat": 0.0}, {"lat": 38.91805566666667, "lon": -77.0141835, "is_disabled": 0, "fusion_lon": 0.0, "is_reserved": 0, "name": "f3a536c1a1a00359385de4b9f4082fde", "type": "electric_scooter", "bike_id": "f3a536c1a1a00359385de4b9f4082fde", "rental_uris": {"ios": "https://dc.lft.to/lastmile_qr_scan", "android": "https://dc.lft.to/lastmile_qr_scan"}, "fusion_lat": 0.0}, {"lat": 38.910356166666666, "lon": -77.06496816666667, "is_disabled": 0, "fusion_lon": 0.0, "is_reserved": 0, "name": "029e067d2b4ad271433a57b1f91e01e8", "type": "electric_scooter", "bike_id": "029e067d2b4ad271433a57b1f91e01e8", "rental_uris": {"ios": "https://dc.lft.to/lastmile_qr_scan", "android": "https://dc.lft.to/lastmile_qr_scan"}, "fusion_lat": 0.0}, {"lat": 38.907311166666666, "lon": -77.02391216666666, "is_disabled": 0, "fusion_lon": 0.0, "is_reserved": 0, "name": "c1372336ac6bc67846414250ce3c5934", "type": "electric_scooter", "bike_id": "c1372336ac6bc67846414250ce3c5934", "rental_uris": {"ios": "https://dc.lft.to/lastmile_qr_scan", "android": "https://dc.lft.to/lastmile_qr_scan"}, "fusion_lat": 0.0}, {"lat": 38.916846166666666, "lon": -77.01576383333334, "is_disabled": 0, "fusion_lon": 0.0, "is_reserved": 0, "name": "0a1cebe5664c006f97e64093ec64a182", "type": "electric_scooter", "bike_id": "0a1cebe5664c006f97e64093ec64a182", "rental_uris": {"ios": "https://dc.lft.to/lastmile_qr_scan", "android": "https://dc.lft.to/lastmile_qr_scan"}, "fusion_lat": 0.0}, {"lat": 38.94501016666667, "lon": -77.03833716666666, "is_disabled": 0, "fusion_lon": 0.0, "is_reserved": 0, "name": "fc829329924d6f0c2966c26c17e22465", "type": "electric_scooter", "bike_id": "fc829329924d6f0c2966c26c17e22465", "rental_uris": {"ios": "https://dc.lft.to/lastmile_qr_scan", "android": "https://dc.lft.to/lastmile_qr_scan"}, "fusion_lat": 0.0}, {"lat": 38.931828333333335, "lon": -77.03101733333334, "is_disabled": 0, "fusion_lon": 0.0, "is_reserved": 0, "name": "b7114e6506130fcb6899099ff79c96a3", "type": "electric_scooter", "bike_id": "b7114e6506130fcb6899099ff79c96a3", "rental_uris": {"ios": "https://dc.lft.to/lastmile_qr_scan", "android": "https://dc.lft.to/lastmile_qr_scan"}, "fusion_lat": 0.0}, {"lat": 38.907285, "lon": -77.0239255, "is_disabled": 0, "fusion_lon": 0.0, "is_reserved": 0, "name": "9bcb33fcb6452d9877cc79026f0f8ffb", "type": "electric_scooter", "bike_id": "9bcb33fcb6452d9877cc79026f0f8ffb", "rental_uris": {"ios": "https://dc.lft.to/lastmile_qr_scan", "android": "https://dc.lft.to/lastmile_qr_scan"}, "fusion_lat": 0.0}, {"lat": 38.92883916666667, "lon": -77.03271, "is_disabled": 0, "fusion_lon": 0.0, "is_reserved": 0, "name": "7b7e3d748c00be0c655339911dad1b4b", "type": "electric_scooter", "bike_id": "7b7e3d748c00be0c655339911dad1b4b", "rental_uris": {"ios": "https://dc.lft.to/lastmile_qr_scan", "android": "https://dc.lft.to/lastmile_qr_scan"}, "fusion_lat": 0.0}, {"lat": 38.97348816666667, "lon": -77.02787733333334, "is_disabled": 0, "fusion_lon": 0.0, "is_reserved": 0, "name": "72dacb332f11f4f232b703ec707c772d", "type": "electric_scooter", "bike_id": "72dacb332f11f4f232b703ec707c772d", "rental_uris": {"ios": "https://dc.lft.to/lastmile_qr_scan", "android": "https://dc.lft.to/lastmile_qr_scan"}, "fusion_lat": 0.0}, {"lat": 38.92761, "lon": -77.02797933333333, "is_disabled": 0, "fusion_lon": 0.0, "is_reserved": 0, "name": "254123e0eab3cd3a5d9702091c7d2111", "type": "electric_scooter", "bike_id": "254123e0eab3cd3a5d9702091c7d2111", "rental_uris": {"ios": "https://dc.lft.to/lastmile_qr_scan", "android": "https://dc.lft.to/lastmile_qr_scan"}, "fusion_lat": 0.0}, {"lat": 38.917938166666666, "lon": -77.03215766666666, "is_disabled": 0, "fusion_lon": 0.0, "is_reserved": 0, "name": "9b01e548050168ec16bd8272ed431d36", "type": "electric_scooter", "bike_id": "9b01e548050168ec16bd8272ed431d36", "rental_uris": {"ios": "https://dc.lft.to/lastmile_qr_scan", "android": "https://dc.lft.to/lastmile_qr_scan"}, "fusion_lat": 0.0}, {"lat": 38.928818, "lon": -77.03624, "is_disabled": 0, "fusion_lon": 0.0, "is_reserved": 0, "name": "f2c4ece84bc264928e551966a61f7f3c", "type": "electric_bike", "bike_id": "f2c4ece84bc264928e551966a61f7f3c", "rental_uris": {"ios": "https://dc.lft.to/lastmile_qr_scan", "android": "https://dc.lft.to/lastmile_qr_scan"}, "fusion_lat": 0.0}, {"lat": 38.88196466666667, "lon": -77.0036155, "is_disabled": 0, "fusion_lon": 0.0, "is_reserved": 0, "name": "ba77f0b6e1a50879729383c7ffa9b9bd", "type": "electric_scooter", "bike_id": "ba77f0b6e1a50879729383c7ffa9b9bd", "rental_uris": {"ios": "https://dc.lft.to/lastmile_qr_scan", "android": "https://dc.lft.to/lastmile_qr_scan"}, "fusion_lat": 0.0}, {"lat": 38.903692, "lon": -77.0075415, "is_disabled": 0, "fusion_lon": 0.0, "is_reserved": 0, "name": "4646bbdc3d77601bcfa4153c315461b4", "type": "electric_scooter", "bike_id": "4646bbdc3d77601bcfa4153c315461b4", "rental_uris": {"ios": "https://dc.lft.to/lastmile_qr_scan", "android": "https://dc.lft.to/lastmile_qr_scan"}, "fusion_lat": 0.0}, {"lat": 38.9170745, "lon": -77.03210916666667, "is_disabled": 0, "fusion_lon": 0.0, "is_reserved": 0, "name": "dd2a8edfc4a2ea006cce5fba78171efe", "type": "electric_scooter", "bike_id": "dd2a8edfc4a2ea006cce5fba78171efe", "rental_uris": {"ios": "https://dc.lft.to/lastmile_qr_scan", "android": "https://dc.lft.to/lastmile_qr_scan"}, "fusion_lat": 0.0}, {"lat": 38.907229, "lon": -77.03462633333334, "is_disabled": 0, "fusion_lon": 0.0, "is_reserved": 0, "name": "8c1e1d4cec1932f0ddef179747386f89", "type": "electric_scooter", "bike_id": "8c1e1d4cec1932f0ddef179747386f89", "rental_uris": {"ios": "https://dc.lft.to/lastmile_qr_scan", "android": "https://dc.lft.to/lastmile_qr_scan"}, "fusion_lat": 0.0}, {"lat": 38.921076, "lon": -77.04689666666667, "is_disabled": 0, "fusion_lon": 0.0, "is_reserved": 0, "name": "0befb368d2983b96ce2bc2d776a12cb5", "type": "electric_scooter", "bike_id": "0befb368d2983b96ce2bc2d776a12cb5", "rental_uris": {"ios": "https://dc.lft.to/lastmile_qr_scan", "android": "https://dc.lft.to/lastmile_qr_scan"}, "fusion_lat": 0.0}, {"lat": 38.91101066666667, "lon": -77.02414316666666, "is_disabled": 0, "fusion_lon": 0.0, "is_reserved": 0, "name": "d0afe639485f9901f327ebffee462b41", "type": "electric_scooter", "bike_id": "d0afe639485f9901f327ebffee462b41", "rental_uris": {"ios": "https://dc.lft.to/lastmile_qr_scan", "android": "https://dc.lft.to/lastmile_qr_scan"}, "fusion_lat": 0.0}, {"lat": 38.897867, "lon": -77.04886366666666, "is_disabled": 0, "fusion_lon": 0.0, "is_reserved": 0, "name": "995a202ad36d84d2631e9b8c045ec68b", "type": "electric_scooter", "bike_id": "995a202ad36d84d2631e9b8c045ec68b", "rental_uris": {"ios": "https://dc.lft.to/lastmile_qr_scan", "android": "https://dc.lft.to/lastmile_qr_scan"}, "fusion_lat": 0.0}, {"lat": 38.88718566666667, "lon": -77.02811816666667, "is_disabled": 0, "fusion_lon": 0.0, "is_reserved": 0, "name": "8e862abe5625e45828f4742cfbe852af", "type": "electric_scooter", "bike_id": "8e862abe5625e45828f4742cfbe852af", "rental_uris": {"ios": "https://dc.lft.to/lastmile_qr_scan", "android": "https://dc.lft.to/lastmile_qr_scan"}, "fusion_lat": 0.0}, {"lat": 38.9056975, "lon": -77.04236066666667, "is_disabled": 0, "fusion_lon": 0.0, "is_reserved": 0, "name": "735f9bf40aac211f63ac91b945997197", "type": "electric_scooter", "bike_id": "735f9bf40aac211f63ac91b945997197", "rental_uris": {"ios": "https://dc.lft.to/lastmile_qr_scan", "android": "https://dc.lft.to/lastmile_qr_scan"}, "fusion_lat": 0.0}, {"lat": 38.90671366666667, "lon": -77.02067383333333, "is_disabled": 0, "fusion_lon": 0.0, "is_reserved": 0, "name": "433fb46f00cd68436a133d5a39dbbbda", "type": "electric_scooter", "bike_id": "433fb46f00cd68436a133d5a39dbbbda", "rental_uris": {"ios": "https://dc.lft.to/lastmile_qr_scan", "android": "https://dc.lft.to/lastmile_qr_scan"}, "fusion_lat": 0.0}, {"lat": 38.93403266666667, "lon": -77.04307183333333, "is_disabled": 0, "fusion_lon": 0.0, "is_reserved": 0, "name": "ed212c5fbb44cc6ce520b726d615411f", "type": "electric_bike", "bike_id": "ed212c5fbb44cc6ce520b726d615411f", "rental_uris": {"ios": "https://dc.lft.to/lastmile_qr_scan", "android": "https://dc.lft.to/lastmile_qr_scan"}, "fusion_lat": 0.0}, {"lat": 38.906552166666664, "lon": -77.0067205, "is_disabled": 0, "fusion_lon": 0.0, "is_reserved": 0, "name": "4c81109f6cbb15dfa2c7e4f7d67bba13", "type": "electric_scooter", "bike_id": "4c81109f6cbb15dfa2c7e4f7d67bba13", "rental_uris": {"ios": "https://dc.lft.to/lastmile_qr_scan", "android": "https://dc.lft.to/lastmile_qr_scan"}, "fusion_lat": 0.0}, {"lat": 38.857254, "lon": -76.97773816666667, "is_disabled": 0, "fusion_lon": 0.0, "is_reserved": 0, "name": "90f6b1f37a70ce2d1cd372395510504e", "type": "electric_bike", "bike_id": "90f6b1f37a70ce2d1cd372395510504e", "rental_uris": {"ios": "https://dc.lft.to/lastmile_qr_scan", "android": "https://dc.lft.to/lastmile_qr_scan"}, "fusion_lat": 0.0}, {"lat": 38.9402065, "lon": -76.97610166666666, "is_disabled": 0, "fusion_lon": 0.0, "is_reserved": 0, "name": "9282606893d6b0110fff7cdcd711eb38", "type": "electric_bike", "bike_id": "9282606893d6b0110fff7cdcd711eb38", "rental_uris": {"ios": "https://dc.lft.to/lastmile_qr_scan", "android": "https://dc.lft.to/lastmile_qr_scan"}, "fusion_lat": 0.0}, {"lat": 38.9168695, "lon": -77.02949616666666, "is_disabled": 0, "fusion_lon": 0.0, "is_reserved": 0, "name": "6f8a4ccef11631ff2ec989f028c70929", "type": "electric_scooter", "bike_id": "6f8a4ccef11631ff2ec989f028c70929", "rental_uris": {"ios": "https://dc.lft.to/lastmile_qr_scan", "android": "https://dc.lft.to/lastmile_qr_scan"}, "fusion_lat": 0.0}, {"lat": 38.92472566666667, "lon": -77.02651866666666, "is_disabled": 0, "fusion_lon": 0.0, "is_reserved": 0, "name": "30555be72d873edaa46b36f4ea2a1bdd", "type": "electric_scooter", "bike_id": "30555be72d873edaa46b36f4ea2a1bdd", "rental_uris": {"ios": "https://dc.lft.to/lastmile_qr_scan", "android": "https://dc.lft.to/lastmile_qr_scan"}, "fusion_lat": 0.0}, {"lat": 38.9562805, "lon": -77.0283735, "is_disabled": 0, "fusion_lon": 0.0, "is_reserved": 0, "name": "0840bbdb83812f859c6b8bcfac403c29", "type": "electric_scooter", "bike_id": "0840bbdb83812f859c6b8bcfac403c29", "rental_uris": {"ios": "https://dc.lft.to/lastmile_qr_scan", "android": "https://dc.lft.to/lastmile_qr_scan"}, "fusion_lat": 0.0}, {"lat": 38.923385833333334, "lon": -77.05224216666667, "is_disabled": 0, "fusion_lon": 0.0, "is_reserved": 0, "name": "aa07a5822d744df6e6baac4af52b4607", "type": "electric_scooter", "bike_id": "aa07a5822d744df6e6baac4af52b4607", "rental_uris": {"ios": "https://dc.lft.to/lastmile_qr_scan", "android": "https://dc.lft.to/lastmile_qr_scan"}, "fusion_lat": 0.0}, {"lat": 38.91658616666667, "lon": -77.03855983333334, "is_disabled": 0, "fusion_lon": 0.0, "is_reserved": 0, "name": "f2c03a5ac1ca41b2d2d2a2651acadb33", "type": "electric_scooter", "bike_id": "f2c03a5ac1ca41b2d2d2a2651acadb33", "rental_uris": {"ios": "https://dc.lft.to/lastmile_qr_scan", "android": "https://dc.lft.to/lastmile_qr_scan"}, "fusion_lat": 0.0}, {"lat": 38.90941866666667, "lon": -77.0339315, "is_disabled": 0, "fusion_lon": 0.0, "is_reserved": 0, "name": "780957d392f59c8b55a87108526ec758", "type": "electric_scooter", "bike_id": "780957d392f59c8b55a87108526ec758", "rental_uris": {"ios": "https://dc.lft.to/lastmile_qr_scan", "android": "https://dc.lft.to/lastmile_qr_scan"}, "fusion_lat": 0.0}, {"lat": 38.908314, "lon": -77.0394105, "is_disabled": 0, "fusion_lon": 0.0, "is_reserved": 0, "name": "bcc57eea21ae2c6763995ef8f6f28a39", "type": "electric_scooter", "bike_id": "bcc57eea21ae2c6763995ef8f6f28a39", "rental_uris": {"ios": "https://dc.lft.to/lastmile_qr_scan", "android": "https://dc.lft.to/lastmile_qr_scan"}, "fusion_lat": 0.0}, {"lat": 38.78456966666667, "lon": -77.01641966666666, "is_disabled": 0, "fusion_lon": 0.0, "is_reserved": 0, "name": "a326fcb2f9d093e1268b47d487b109a6", "type": "electric_bike", "bike_id": "a326fcb2f9d093e1268b47d487b109a6", "rental_uris": {"ios": "https://dc.lft.to/lastmile_qr_scan", "android": "https://dc.lft.to/lastmile_qr_scan"}, "fusion_lat": 0.0}, {"lat": 38.874971, "lon": -76.99968433333333, "is_disabled": 0, "fusion_lon": 0.0, "is_reserved": 0, "name": "eacf49c68f093194d42241ab21c1a80c", "type": "electric_scooter", "bike_id": "eacf49c68f093194d42241ab21c1a80c", "rental_uris": {"ios": "https://dc.lft.to/lastmile_qr_scan", "android": "https://dc.lft.to/lastmile_qr_scan"}, "fusion_lat": 0.0}, {"lat": 38.9336675, "lon": -77.057302, "is_disabled": 0, "fusion_lon": 0.0, "is_reserved": 0, "name": "25f4dbb3143ec6ea1071a2fce3b64b98", "type": "electric_scooter", "bike_id": "25f4dbb3143ec6ea1071a2fce3b64b98", "rental_uris": {"ios": "https://dc.lft.to/lastmile_qr_scan", "android": "https://dc.lft.to/lastmile_qr_scan"}, "fusion_lat": 0.0}, {"lat": 38.944740833333334, "lon": -77.022426, "is_disabled": 0, "fusion_lon": 0.0, "is_reserved": 0, "name": "0379b80584a227bda75fbbf342ae231b", "type": "electric_bike", "bike_id": "0379b80584a227bda75fbbf342ae231b", "rental_uris": {"ios": "https://dc.lft.to/lastmile_qr_scan", "android": "https://dc.lft.to/lastmile_qr_scan"}, "fusion_lat": 0.0}, {"lat": 38.879487, "lon": -77.00582166666666, "is_disabled": 0, "fusion_lon": 0.0, "is_reserved": 0, "name": "fee83f58f89d14759ecad9d8426f0fe9", "type": "electric_scooter", "bike_id": "fee83f58f89d14759ecad9d8426f0fe9", "rental_uris": {"ios": "https://dc.lft.to/lastmile_qr_scan", "android": "https://dc.lft.to/lastmile_qr_scan"}, "fusion_lat": 0.0}, {"lat": 38.8647345, "lon": -77.076464, "is_disabled": 0, "fusion_lon": 0.0, "is_reserved": 0, "name": "6d87f4817cb5803883fe9c5fd9fbef09", "type": "electric_bike", "bike_id": "6d87f4817cb5803883fe9c5fd9fbef09", "rental_uris": {"ios": "https://dc.lft.to/lastmile_qr_scan", "android": "https://dc.lft.to/lastmile_qr_scan"}, "fusion_lat": 0.0}, {"lat": 38.904961, "lon": -76.97443116666666, "is_disabled": 0, "fusion_lon": 0.0, "is_reserved": 0, "name": "b95098dc33dbf40dd3d0c470534a0e17", "type": "electric_bike", "bike_id": "b95098dc33dbf40dd3d0c470534a0e17", "rental_uris": {"ios": "https://dc.lft.to/lastmile_qr_scan", "android": "https://dc.lft.to/lastmile_qr_scan"}, "fusion_lat": 0.0}, {"lat": 38.914782333333335, "lon": -77.04257516666667, "is_disabled": 0, "fusion_lon": 0.0, "is_reserved": 0, "name": "072bda34ca38e9a652721dd3fca6b75a", "type": "electric_scooter", "bike_id": "072bda34ca38e9a652721dd3fca6b75a", "rental_uris": {"ios": "https://dc.lft.to/lastmile_qr_scan", "android": "https://dc.lft.to/lastmile_qr_scan"}, "fusion_lat": 0.0}, {"lat": 38.92996083333333, "lon": -77.03795, "is_disabled": 0, "fusion_lon": 0.0, "is_reserved": 0, "name": "ab5bbd4c7656e6660ef4889ee0480926", "type": "electric_scooter", "bike_id": "ab5bbd4c7656e6660ef4889ee0480926", "rental_uris": {"ios": "https://dc.lft.to/lastmile_qr_scan", "android": "https://dc.lft.to/lastmile_qr_scan"}, "fusion_lat": 0.0}, {"lat": 38.898261833333336, "lon": -77.03350033333334, "is_disabled": 0, "fusion_lon": 0.0, "is_reserved": 0, "name": "bffeb221a6e36b309a61af3b15bfb6af", "type": "electric_scooter", "bike_id": "bffeb221a6e36b309a61af3b15bfb6af", "rental_uris": {"ios": "https://dc.lft.to/lastmile_qr_scan", "android": "https://dc.lft.to/lastmile_qr_scan"}, "fusion_lat": 0.0}, {"lat": 38.877399833333335, "lon": -76.9703595, "is_disabled": 0, "fusion_lon": 0.0, "is_reserved": 0, "name": "417effca4d562907bcb4276c46368681", "type": "electric_scooter", "bike_id": "417effca4d562907bcb4276c46368681", "rental_uris": {"ios": "https://dc.lft.to/lastmile_qr_scan", "android": "https://dc.lft.to/lastmile_qr_scan"}, "fusion_lat": 0.0}, {"lat": 38.923019, "lon": -77.02899466666666, "is_disabled": 0, "fusion_lon": 0.0, "is_reserved": 0, "name": "bd286b5ddaa3062e692cb2acdfc5ffb5", "type": "electric_scooter", "bike_id": "bd286b5ddaa3062e692cb2acdfc5ffb5", "rental_uris": {"ios": "https://dc.lft.to/lastmile_qr_scan", "android": "https://dc.lft.to/lastmile_qr_scan"}, "fusion_lat": 0.0}, {"lat": 38.93232483333333, "lon": -76.97422833333333, "is_disabled": 0, "fusion_lon": 0.0, "is_reserved": 0, "name": "f08ae4b4bc3f0abc311382749fa4bcfc", "type": "electric_bike", "bike_id": "f08ae4b4bc3f0abc311382749fa4bcfc", "rental_uris": {"ios": "https://dc.lft.to/lastmile_qr_scan", "android": "https://dc.lft.to/lastmile_qr_scan"}, "fusion_lat": 0.0}, {"lat": 38.927494833333334, "lon": -77.03353733333333, "is_disabled": 0, "fusion_lon": 0.0, "is_reserved": 0, "name": "f98444e2fd210affee4e8a78d26bc0ac", "type": "electric_scooter", "bike_id": "f98444e2fd210affee4e8a78d26bc0ac", "rental_uris": {"ios": "https://dc.lft.to/lastmile_qr_scan", "android": "https://dc.lft.to/lastmile_qr_scan"}, "fusion_lat": 0.0}, {"lat": 38.92357633333334, "lon": -77.029198, "is_disabled": 0, "fusion_lon": 0.0, "is_reserved": 0, "name": "ca36e907aa9a2cbc96c050655e18d436", "type": "electric_scooter", "bike_id": "ca36e907aa9a2cbc96c050655e18d436", "rental_uris": {"ios": "https://dc.lft.to/lastmile_qr_scan", "android": "https://dc.lft.to/lastmile_qr_scan"}, "fusion_lat": 0.0}, {"lat": 38.9069235, "lon": -77.03595266666666, "is_disabled": 0, "fusion_lon": 0.0, "is_reserved": 0, "name": "d596056fd4c83ae8cd32428c7b2a30ba", "type": "electric_scooter", "bike_id": "d596056fd4c83ae8cd32428c7b2a30ba", "rental_uris": {"ios": "https://dc.lft.to/lastmile_qr_scan", "android": "https://dc.lft.to/lastmile_qr_scan"}, "fusion_lat": 0.0}, {"lat": 38.8922855, "lon": -77.04871733333333, "is_disabled": 0, "fusion_lon": 0.0, "is_reserved": 0, "name": "5782ceaaabd31184f668f8ff34742646", "type": "electric_scooter", "bike_id": "5782ceaaabd31184f668f8ff34742646", "rental_uris": {"ios": "https://dc.lft.to/lastmile_qr_scan", "android": "https://dc.lft.to/lastmile_qr_scan"}, "fusion_lat": 0.0}, {"lat": 38.910404166666666, "lon": -77.04261566666666, "is_disabled": 0, "fusion_lon": 0.0, "is_reserved": 0, "name": "e7a5456f8be6c73d9046ec2c492853db", "type": "electric_scooter", "bike_id": "e7a5456f8be6c73d9046ec2c492853db", "rental_uris": {"ios": "https://dc.lft.to/lastmile_qr_scan", "android": "https://dc.lft.to/lastmile_qr_scan"}, "fusion_lat": 0.0}, {"lat": 38.927003666666664, "lon": -76.99759383333334, "is_disabled": 0, "fusion_lon": 0.0, "is_reserved": 0, "name": "c9f094580b34a34fffd4826cea175ddf", "type": "electric_scooter", "bike_id": "c9f094580b34a34fffd4826cea175ddf", "rental_uris": {"ios": "https://dc.lft.to/lastmile_qr_scan", "android": "https://dc.lft.to/lastmile_qr_scan"}, "fusion_lat": 0.0}, {"lat": 38.93573383333333, "lon": -77.036502, "is_disabled": 0, "fusion_lon": 0.0, "is_reserved": 0, "name": "b4f487991f98adcfbbc0de488e04746b", "type": "electric_bike", "bike_id": "b4f487991f98adcfbbc0de488e04746b", "rental_uris": {"ios": "https://dc.lft.to/lastmile_qr_scan", "android": "https://dc.lft.to/lastmile_qr_scan"}, "fusion_lat": 0.0}, {"lat": 38.9141415, "lon": -77.0218475, "is_disabled": 0, "fusion_lon": 0.0, "is_reserved": 0, "name": "719ee3bc499efb14a9c0fb65eb562fb4", "type": "electric_scooter", "bike_id": "719ee3bc499efb14a9c0fb65eb562fb4", "rental_uris": {"ios": "https://dc.lft.to/lastmile_qr_scan", "android": "https://dc.lft.to/lastmile_qr_scan"}, "fusion_lat": 0.0}, {"lat": 38.931381333333334, "lon": -77.04264983333333, "is_disabled": 0, "fusion_lon": 0.0, "is_reserved": 0, "name": "e1958f1493a848a18b3b30b7d72bdc19", "type": "electric_scooter", "bike_id": "e1958f1493a848a18b3b30b7d72bdc19", "rental_uris": {"ios": "https://dc.lft.to/lastmile_qr_scan", "android": "https://dc.lft.to/lastmile_qr_scan"}, "fusion_lat": 0.0}, {"lat": 38.946495, "lon": -77.0296155, "is_disabled": 0, "fusion_lon": 0.0, "is_reserved": 0, "name": "f73ffdf0daad1c4bdb04afd146082ffd", "type": "electric_scooter", "bike_id": "f73ffdf0daad1c4bdb04afd146082ffd", "rental_uris": {"ios": "https://dc.lft.to/lastmile_qr_scan", "android": "https://dc.lft.to/lastmile_qr_scan"}, "fusion_lat": 0.0}, {"lat": 38.9260405, "lon": -77.064108, "is_disabled": 0, "fusion_lon": 0.0, "is_reserved": 0, "name": "e88ae55a3310ba5bfecc33195c1320b0", "type": "electric_bike", "bike_id": "e88ae55a3310ba5bfecc33195c1320b0", "rental_uris": {"ios": "https://dc.lft.to/lastmile_qr_scan", "android": "https://dc.lft.to/lastmile_qr_scan"}, "fusion_lat": 0.0}, {"lat": 38.995122333333335, "lon": -76.99967066666666, "is_disabled": 0, "fusion_lon": 0.0, "is_reserved": 0, "name": "63ffde3efec006355d7f6e7c2376d5c2", "type": "electric_bike", "bike_id": "63ffde3efec006355d7f6e7c2376d5c2", "rental_uris": {"ios": "https://dc.lft.to/lastmile_qr_scan", "android": "https://dc.lft.to/lastmile_qr_scan"}, "fusion_lat": 0.0}, {"lat": 38.8853805, "lon": -76.9788705, "is_disabled": 0, "fusion_lon": 0.0, "is_reserved": 0, "name": "f6ac23eb820ee611bc4fdc5d44f4cd50", "type": "electric_scooter", "bike_id": "f6ac23eb820ee611bc4fdc5d44f4cd50", "rental_uris": {"ios": "https://dc.lft.to/lastmile_qr_scan", "android": "https://dc.lft.to/lastmile_qr_scan"}, "fusion_lat": 0.0}, {"lat": 38.90247516666667, "lon": -76.98479016666667, "is_disabled": 0, "fusion_lon": 0.0, "is_reserved": 0, "name": "fd68654001b1567e5356c05eebbe4123", "type": "electric_scooter", "bike_id": "fd68654001b1567e5356c05eebbe4123", "rental_uris": {"ios": "https://dc.lft.to/lastmile_qr_scan", "android": "https://dc.lft.to/lastmile_qr_scan"}, "fusion_lat": 0.0}, {"lat": 38.9037875, "lon": -77.02469083333334, "is_disabled": 0, "fusion_lon": 0.0, "is_reserved": 0, "name": "707403cdaa863a0c9114b9d34a3896ae", "type": "electric_scooter", "bike_id": "707403cdaa863a0c9114b9d34a3896ae", "rental_uris": {"ios": "https://dc.lft.to/lastmile_qr_scan", "android": "https://dc.lft.to/lastmile_qr_scan"}, "fusion_lat": 0.0}, {"lat": 38.909697, "lon": -77.01713266666667, "is_disabled": 0, "fusion_lon": 0.0, "is_reserved": 0, "name": "ae158790682ac6fa4bd8c2eb04cea8f0", "type": "electric_scooter", "bike_id": "ae158790682ac6fa4bd8c2eb04cea8f0", "rental_uris": {"ios": "https://dc.lft.to/lastmile_qr_scan", "android": "https://dc.lft.to/lastmile_qr_scan"}, "fusion_lat": 0.0}, {"lat": 38.88734133333333, "lon": -77.003254, "is_disabled": 0, "fusion_lon": 0.0, "is_reserved": 0, "name": "e849257a88636d46b945fc674a324668", "type": "electric_scooter", "bike_id": "e849257a88636d46b945fc674a324668", "rental_uris": {"ios": "https://dc.lft.to/lastmile_qr_scan", "android": "https://dc.lft.to/lastmile_qr_scan"}, "fusion_lat": 0.0}, {"lat": 38.9985155, "lon": -77.02678316666666, "is_disabled": 0, "fusion_lon": 0.0, "is_reserved": 0, "name": "573059b0d8138e939591707ef718d054", "type": "electric_bike", "bike_id": "573059b0d8138e939591707ef718d054", "rental_uris": {"ios": "https://dc.lft.to/lastmile_qr_scan", "android": "https://dc.lft.to/lastmile_qr_scan"}, "fusion_lat": 0.0}, {"lat": 38.8997585, "lon": -77.02189883333334, "is_disabled": 0, "fusion_lon": 0.0, "is_reserved": 0, "name": "f87efb9a213490fcb9e15eeaf1c7d5dc", "type": "electric_scooter", "bike_id": "f87efb9a213490fcb9e15eeaf1c7d5dc", "rental_uris": {"ios": "https://dc.lft.to/lastmile_qr_scan", "android": "https://dc.lft.to/lastmile_qr_scan"}, "fusion_lat": 0.0}, {"lat": 38.86039683333333, "lon": -77.00345666666666, "is_disabled": 0, "fusion_lon": 0.0, "is_reserved": 0, "name": "bca1b5a07273a912fa733ac30553cb3f", "type": "electric_scooter", "bike_id": "bca1b5a07273a912fa733ac30553cb3f", "rental_uris": {"ios": "https://dc.lft.to/lastmile_qr_scan", "android": "https://dc.lft.to/lastmile_qr_scan"}, "fusion_lat": 0.0}, {"lat": 38.905143333333335, "lon": -77.04836916666666, "is_disabled": 0, "fusion_lon": 0.0, "is_reserved": 0, "name": "4bc2c2f4ee3bf0f1a4004e27c7801c65", "type": "electric_scooter", "bike_id": "4bc2c2f4ee3bf0f1a4004e27c7801c65", "rental_uris": {"ios": "https://dc.lft.to/lastmile_qr_scan", "android": "https://dc.lft.to/lastmile_qr_scan"}, "fusion_lat": 0.0}, {"lat": 38.8962335, "lon": -77.040098, "is_disabled": 0, "fusion_lon": 0.0, "is_reserved": 0, "name": "c0c43b4633bdb6b357d03c4b93c33821", "type": "electric_scooter", "bike_id": "c0c43b4633bdb6b357d03c4b93c33821", "rental_uris": {"ios": "https://dc.lft.to/lastmile_qr_scan", "android": "https://dc.lft.to/lastmile_qr_scan"}, "fusion_lat": 0.0}, {"lat": 38.974889166666664, "lon": -77.01666166666666, "is_disabled": 0, "fusion_lon": 0.0, "is_reserved": 0, "name": "2d9b67c23743174f0c2748fcfbd1f98e", "type": "electric_scooter", "bike_id": "2d9b67c23743174f0c2748fcfbd1f98e", "rental_uris": {"ios": "https://dc.lft.to/lastmile_qr_scan", "android": "https://dc.lft.to/lastmile_qr_scan"}, "fusion_lat": 0.0}, {"lat": 38.91799283333334, "lon": -77.03445083333334, "is_disabled": 0, "fusion_lon": 0.0, "is_reserved": 0, "name": "9f3c2eed5c262169f41b559506e4c49b", "type": "electric_scooter", "bike_id": "9f3c2eed5c262169f41b559506e4c49b", "rental_uris": {"ios": "https://dc.lft.to/lastmile_qr_scan", "android": "https://dc.lft.to/lastmile_qr_scan"}, "fusion_lat": 0.0}, {"lat": 38.921733, "lon": -77.01816333333333, "is_disabled": 0, "fusion_lon": 0.0, "is_reserved": 0, "name": "63eb3774fc974149679d7bdc8cefc6f7", "type": "electric_scooter", "bike_id": "63eb3774fc974149679d7bdc8cefc6f7", "rental_uris": {"ios": "https://dc.lft.to/lastmile_qr_scan", "android": "https://dc.lft.to/lastmile_qr_scan"}, "fusion_lat": 0.0}, {"lat": 38.90920533333333, "lon": -77.03958016666667, "is_disabled": 0, "fusion_lon": 0.0, "is_reserved": 0, "name": "d7bb637e15cde048b78b3f5521a80913", "type": "electric_scooter", "bike_id": "d7bb637e15cde048b78b3f5521a80913", "rental_uris": {"ios": "https://dc.lft.to/lastmile_qr_scan", "android": "https://dc.lft.to/lastmile_qr_scan"}, "fusion_lat": 0.0}, {"lat": 38.92787766666667, "lon": -77.03242216666666, "is_disabled": 0, "fusion_lon": 0.0, "is_reserved": 0, "name": "1544f138c7fbf58cc5a3f8f58daf0683", "type": "electric_scooter", "bike_id": "1544f138c7fbf58cc5a3f8f58daf0683", "rental_uris": {"ios": "https://dc.lft.to/lastmile_qr_scan", "android": "https://dc.lft.to/lastmile_qr_scan"}, "fusion_lat": 0.0}, {"lat": 38.93673416666667, "lon": -77.03627216666666, "is_disabled": 0, "fusion_lon": 0.0, "is_reserved": 0, "name": "5305944794e69abdd3818c1e002e5b16", "type": "electric_scooter", "bike_id": "5305944794e69abdd3818c1e002e5b16", "rental_uris": {"ios": "https://dc.lft.to/lastmile_qr_scan", "android": "https://dc.lft.to/lastmile_qr_scan"}, "fusion_lat": 0.0}, {"lat": 38.89974466666666, "lon": -77.0246715, "is_disabled": 0, "fusion_lon": 0.0, "is_reserved": 0, "name": "ada2e186d46080a6d88f70b005227e37", "type": "electric_scooter", "bike_id": "ada2e186d46080a6d88f70b005227e37", "rental_uris": {"ios": "https://dc.lft.to/lastmile_qr_scan", "android": "https://dc.lft.to/lastmile_qr_scan"}, "fusion_lat": 0.0}, {"lat": 38.92115183333333, "lon": -77.026949, "is_disabled": 0, "fusion_lon": 0.0, "is_reserved": 0, "name": "945063cb79de6d06e2a48890c9d11cac", "type": "electric_scooter", "bike_id": "945063cb79de6d06e2a48890c9d11cac", "rental_uris": {"ios": "https://dc.lft.to/lastmile_qr_scan", "android": "https://dc.lft.to/lastmile_qr_scan"}, "fusion_lat": 0.0}, {"lat": 38.916277666666666, "lon": -77.05068083333333, "is_disabled": 0, "fusion_lon": 0.0, "is_reserved": 0, "name": "971b357bf257d8d06e2aed47b9f24935", "type": "electric_scooter", "bike_id": "971b357bf257d8d06e2aed47b9f24935", "rental_uris": {"ios": "https://dc.lft.to/lastmile_qr_scan", "android": "https://dc.lft.to/lastmile_qr_scan"}, "fusion_lat": 0.0}, {"lat": 38.9367225, "lon": -77.03627316666666, "is_disabled": 0, "fusion_lon": 0.0, "is_reserved": 0, "name": "cb8a4f2f05157a2d3a594c08396d14aa", "type": "electric_scooter", "bike_id": "cb8a4f2f05157a2d3a594c08396d14aa", "rental_uris": {"ios": "https://dc.lft.to/lastmile_qr_scan", "android": "https://dc.lft.to/lastmile_qr_scan"}, "fusion_lat": 0.0}, {"lat": 38.9201775, "lon": -77.0441745, "is_disabled": 0, "fusion_lon": 0.0, "is_reserved": 0, "name": "fefdb3176499acc3a551450aa2ffb29d", "type": "electric_scooter", "bike_id": "fefdb3176499acc3a551450aa2ffb29d", "rental_uris": {"ios": "https://dc.lft.to/lastmile_qr_scan", "android": "https://dc.lft.to/lastmile_qr_scan"}, "fusion_lat": 0.0}, {"lat": 38.924034666666664, "lon": -77.02545183333334, "is_disabled": 0, "fusion_lon": 0.0, "is_reserved": 0, "name": "c805b342b7be798b5770ecb89cf8fcba", "type": "electric_scooter", "bike_id": "c805b342b7be798b5770ecb89cf8fcba", "rental_uris": {"ios": "https://dc.lft.to/lastmile_qr_scan", "android": "https://dc.lft.to/lastmile_qr_scan"}, "fusion_lat": 0.0}, {"lat": 38.857729166666665, "lon": -76.98767883333333, "is_disabled": 0, "fusion_lon": 0.0, "is_reserved": 0, "name": "08b495d1e75ba98b3b6c0aa06b295dd8", "type": "electric_bike", "bike_id": "08b495d1e75ba98b3b6c0aa06b295dd8", "rental_uris": {"ios": "https://dc.lft.to/lastmile_qr_scan", "android": "https://dc.lft.to/lastmile_qr_scan"}, "fusion_lat": 0.0}, {"lat": 38.9125735, "lon": -77.0314465, "is_disabled": 0, "fusion_lon": 0.0, "is_reserved": 0, "name": "ad5b6f5b24e8965cb02c8def473819f9", "type": "electric_scooter", "bike_id": "ad5b6f5b24e8965cb02c8def473819f9", "rental_uris": {"ios": "https://dc.lft.to/lastmile_qr_scan", "android": "https://dc.lft.to/lastmile_qr_scan"}, "fusion_lat": 0.0}, {"lat": 38.88745866666667, "lon": -77.027738, "is_disabled": 0, "fusion_lon": 0.0, "is_reserved": 0, "name": "0ce13e198b5741e917736c1a7ee0f0f4", "type": "electric_scooter", "bike_id": "0ce13e198b5741e917736c1a7ee0f0f4", "rental_uris": {"ios": "https://dc.lft.to/lastmile_qr_scan", "android": "https://dc.lft.to/lastmile_qr_scan"}, "fusion_lat": 0.0}, {"lat": 38.93612483333333, "lon": -77.03773583333333, "is_disabled": 0, "fusion_lon": 0.0, "is_reserved": 0, "name": "57039e693b40588c51b5a425505e77e3", "type": "electric_scooter", "bike_id": "57039e693b40588c51b5a425505e77e3", "rental_uris": {"ios": "https://dc.lft.to/lastmile_qr_scan", "android": "https://dc.lft.to/lastmile_qr_scan"}, "fusion_lat": 0.0}, {"lat": 38.907252, "lon": -77.0076325, "is_disabled": 0, "fusion_lon": 0.0, "is_reserved": 0, "name": "4b77da95168d1b165d47e4d06853051e", "type": "electric_scooter", "bike_id": "4b77da95168d1b165d47e4d06853051e", "rental_uris": {"ios": "https://dc.lft.to/lastmile_qr_scan", "android": "https://dc.lft.to/lastmile_qr_scan"}, "fusion_lat": 0.0}, {"lat": 38.905256, "lon": -77.050333, "is_disabled": 0, "fusion_lon": 0.0, "is_reserved": 0, "name": "31fe0f3af01fc4eaeba3a8a32c34d316", "type": "electric_scooter", "bike_id": "31fe0f3af01fc4eaeba3a8a32c34d316", "rental_uris": {"ios": "https://dc.lft.to/lastmile_qr_scan", "android": "https://dc.lft.to/lastmile_qr_scan"}, "fusion_lat": 0.0}, {"lat": 38.9288635, "lon": -77.037339, "is_disabled": 0, "fusion_lon": 0.0, "is_reserved": 0, "name": "dbd3fd4b813f80287f80155fa7ec5ce6", "type": "electric_scooter", "bike_id": "dbd3fd4b813f80287f80155fa7ec5ce6", "rental_uris": {"ios": "https://dc.lft.to/lastmile_qr_scan", "android": "https://dc.lft.to/lastmile_qr_scan"}, "fusion_lat": 0.0}, {"lat": 38.921382333333334, "lon": -77.01806266666667, "is_disabled": 0, "fusion_lon": 0.0, "is_reserved": 0, "name": "ddf0e0f6fcc27c185b347194f168b797", "type": "electric_scooter", "bike_id": "ddf0e0f6fcc27c185b347194f168b797", "rental_uris": {"ios": "https://dc.lft.to/lastmile_qr_scan", "android": "https://dc.lft.to/lastmile_qr_scan"}, "fusion_lat": 0.0}, {"lat": 38.910413, "lon": -77.034368, "is_disabled": 0, "fusion_lon": 0.0, "is_reserved": 0, "name": "5c37dfd248ea93970ee840574b5c7b76", "type": "electric_scooter", "bike_id": "5c37dfd248ea93970ee840574b5c7b76", "rental_uris": {"ios": "https://dc.lft.to/lastmile_qr_scan", "android": "https://dc.lft.to/lastmile_qr_scan"}, "fusion_lat": 0.0}, {"lat": 38.93605516666667, "lon": -77.03540766666667, "is_disabled": 0, "fusion_lon": 0.0, "is_reserved": 0, "name": "139ec51cd1056f1490102697c1e125c1", "type": "electric_bike", "bike_id": "139ec51cd1056f1490102697c1e125c1", "rental_uris": {"ios": "https://dc.lft.to/lastmile_qr_scan", "android": "https://dc.lft.to/lastmile_qr_scan"}, "fusion_lat": 0.0}, {"lat": 38.916740833333336, "lon": -77.0238635, "is_disabled": 0, "fusion_lon": 0.0, "is_reserved": 0, "name": "6c9efa24bcd1616ed9d7dfa2b544b3ce", "type": "electric_scooter", "bike_id": "6c9efa24bcd1616ed9d7dfa2b544b3ce", "rental_uris": {"ios": "https://dc.lft.to/lastmile_qr_scan", "android": "https://dc.lft.to/lastmile_qr_scan"}, "fusion_lat": 0.0}, {"lat": 38.9334855, "lon": -77.061931, "is_disabled": 0, "fusion_lon": 0.0, "is_reserved": 0, "name": "6ac6ad9b65e0ed1d7d342cec069492f1", "type": "electric_scooter", "bike_id": "6ac6ad9b65e0ed1d7d342cec069492f1", "rental_uris": {"ios": "https://dc.lft.to/lastmile_qr_scan", "android": "https://dc.lft.to/lastmile_qr_scan"}, "fusion_lat": 0.0}, {"lat": 38.92472266666667, "lon": -77.03552583333334, "is_disabled": 0, "fusion_lon": 0.0, "is_reserved": 0, "name": "f8b63c706c8aabe15eec35598c46f614", "type": "electric_scooter", "bike_id": "f8b63c706c8aabe15eec35598c46f614", "rental_uris": {"ios": "https://dc.lft.to/lastmile_qr_scan", "android": "https://dc.lft.to/lastmile_qr_scan"}, "fusion_lat": 0.0}, {"lat": 38.898637666666666, "lon": -77.02202466666667, "is_disabled": 0, "fusion_lon": 0.0, "is_reserved": 0, "name": "b35b158cb2cafa4b5e548a000728b4c3", "type": "electric_scooter", "bike_id": "b35b158cb2cafa4b5e548a000728b4c3", "rental_uris": {"ios": "https://dc.lft.to/lastmile_qr_scan", "android": "https://dc.lft.to/lastmile_qr_scan"}, "fusion_lat": 0.0}, {"lat": 38.91759366666667, "lon": -77.03192416666667, "is_disabled": 0, "fusion_lon": 0.0, "is_reserved": 0, "name": "a33a0b2dde5737c88933d3c081f6461b", "type": "electric_scooter", "bike_id": "a33a0b2dde5737c88933d3c081f6461b", "rental_uris": {"ios": "https://dc.lft.to/lastmile_qr_scan", "android": "https://dc.lft.to/lastmile_qr_scan"}, "fusion_lat": 0.0}, {"lat": 38.9003065, "lon": -76.99757933333333, "is_disabled": 0, "fusion_lon": 0.0, "is_reserved": 0, "name": "c878371a5631b818d8d30b9480a86b5d", "type": "electric_scooter", "bike_id": "c878371a5631b818d8d30b9480a86b5d", "rental_uris": {"ios": "https://dc.lft.to/lastmile_qr_scan", "android": "https://dc.lft.to/lastmile_qr_scan"}, "fusion_lat": 0.0}, {"lat": 38.91713433333334, "lon": -77.01221333333334, "is_disabled": 0, "fusion_lon": 0.0, "is_reserved": 0, "name": "77c1c400a3a086e7edbf5fadc0cc7bb1", "type": "electric_scooter", "bike_id": "77c1c400a3a086e7edbf5fadc0cc7bb1", "rental_uris": {"ios": "https://dc.lft.to/lastmile_qr_scan", "android": "https://dc.lft.to/lastmile_qr_scan"}, "fusion_lat": 0.0}, {"lat": 38.92598866666667, "lon": -77.035447, "is_disabled": 0, "fusion_lon": 0.0, "is_reserved": 0, "name": "1c99baee5b4520951e686fde039079d2", "type": "electric_scooter", "bike_id": "1c99baee5b4520951e686fde039079d2", "rental_uris": {"ios": "https://dc.lft.to/lastmile_qr_scan", "android": "https://dc.lft.to/lastmile_qr_scan"}, "fusion_lat": 0.0}, {"lat": 38.91411566666667, "lon": -77.02094733333334, "is_disabled": 0, "fusion_lon": 0.0, "is_reserved": 0, "name": "724662aff36d4704723a26b434d322e4", "type": "electric_scooter", "bike_id": "724662aff36d4704723a26b434d322e4", "rental_uris": {"ios": "https://dc.lft.to/lastmile_qr_scan", "android": "https://dc.lft.to/lastmile_qr_scan"}, "fusion_lat": 0.0}, {"lat": 38.91479133333333, "lon": -77.046099, "is_disabled": 0, "fusion_lon": 0.0, "is_reserved": 0, "name": "e1dd0c58eec3126290558cef36bbf347", "type": "electric_scooter", "bike_id": "e1dd0c58eec3126290558cef36bbf347", "rental_uris": {"ios": "https://dc.lft.to/lastmile_qr_scan", "android": "https://dc.lft.to/lastmile_qr_scan"}, "fusion_lat": 0.0}, {"lat": 38.92669316666667, "lon": -77.02123733333333, "is_disabled": 0, "fusion_lon": 0.0, "is_reserved": 0, "name": "6dd05b212ee39768af3e396167c6187f", "type": "electric_scooter", "bike_id": "6dd05b212ee39768af3e396167c6187f", "rental_uris": {"ios": "https://dc.lft.to/lastmile_qr_scan", "android": "https://dc.lft.to/lastmile_qr_scan"}, "fusion_lat": 0.0}, {"lat": 38.91554, "lon": -77.03183916666667, "is_disabled": 0, "fusion_lon": 0.0, "is_reserved": 0, "name": "18386406941cf0ce4409072650fba47b", "type": "electric_scooter", "bike_id": "18386406941cf0ce4409072650fba47b", "rental_uris": {"ios": "https://dc.lft.to/lastmile_qr_scan", "android": "https://dc.lft.to/lastmile_qr_scan"}, "fusion_lat": 0.0}, {"lat": 38.9308145, "lon": -77.02806266666667, "is_disabled": 0, "fusion_lon": 0.0, "is_reserved": 0, "name": "affa0e68f50149db298ce5cf80aae8f1", "type": "electric_scooter", "bike_id": "affa0e68f50149db298ce5cf80aae8f1", "rental_uris": {"ios": "https://dc.lft.to/lastmile_qr_scan", "android": "https://dc.lft.to/lastmile_qr_scan"}, "fusion_lat": 0.0}, {"lat": 38.91552, "lon": -77.038509, "is_disabled": 0, "fusion_lon": 0.0, "is_reserved": 0, "name": "d963abc2004ca635eed59adaf44740d7", "type": "electric_scooter", "bike_id": "d963abc2004ca635eed59adaf44740d7", "rental_uris": {"ios": "https://dc.lft.to/lastmile_qr_scan", "android": "https://dc.lft.to/lastmile_qr_scan"}, "fusion_lat": 0.0}, {"lat": 38.92201016666667, "lon": -77.041885, "is_disabled": 0, "fusion_lon": 0.0, "is_reserved": 0, "name": "5e1cbc2954c7346be47b2b8891e6692b", "type": "electric_scooter", "bike_id": "5e1cbc2954c7346be47b2b8891e6692b", "rental_uris": {"ios": "https://dc.lft.to/lastmile_qr_scan", "android": "https://dc.lft.to/lastmile_qr_scan"}, "fusion_lat": 0.0}, {"lat": 38.873120166666666, "lon": -77.0014485, "is_disabled": 0, "fusion_lon": 0.0, "is_reserved": 0, "name": "db2093afad1f24a248da50b25e8184bc", "type": "electric_scooter", "bike_id": "db2093afad1f24a248da50b25e8184bc", "rental_uris": {"ios": "https://dc.lft.to/lastmile_qr_scan", "android": "https://dc.lft.to/lastmile_qr_scan"}, "fusion_lat": 0.0}, {"lat": 38.891601333333334, "lon": -76.994902, "is_disabled": 0, "fusion_lon": 0.0, "is_reserved": 0, "name": "09e0ed06219aadb7bad8b16946c0476e", "type": "electric_scooter", "bike_id": "09e0ed06219aadb7bad8b16946c0476e", "rental_uris": {"ios": "https://dc.lft.to/lastmile_qr_scan", "android": "https://dc.lft.to/lastmile_qr_scan"}, "fusion_lat": 0.0}, {"lat": 38.847557333333334, "lon": -76.994992, "is_disabled": 0, "fusion_lon": 0.0, "is_reserved": 0, "name": "81bb77af90fdc7f7db0390330c877d27", "type": "electric_scooter", "bike_id": "81bb77af90fdc7f7db0390330c877d27", "rental_uris": {"ios": "https://dc.lft.to/lastmile_qr_scan", "android": "https://dc.lft.to/lastmile_qr_scan"}, "fusion_lat": 0.0}, {"lat": 38.88957383333333, "lon": -76.936839, "is_disabled": 0, "fusion_lon": 0.0, "is_reserved": 0, "name": "6fd749f5abf74d740695a89f5ebc396a", "type": "electric_scooter", "bike_id": "6fd749f5abf74d740695a89f5ebc396a", "rental_uris": {"ios": "https://dc.lft.to/lastmile_qr_scan", "android": "https://dc.lft.to/lastmile_qr_scan"}, "fusion_lat": 0.0}, {"lat": 38.922241, "lon": -77.02124816666667, "is_disabled": 0, "fusion_lon": 0.0, "is_reserved": 0, "name": "8b95129eab9c9b6f22b65ff1351d3602", "type": "electric_scooter", "bike_id": "8b95129eab9c9b6f22b65ff1351d3602", "rental_uris": {"ios": "https://dc.lft.to/lastmile_qr_scan", "android": "https://dc.lft.to/lastmile_qr_scan"}, "fusion_lat": 0.0}, {"lat": 39.0525455, "lon": -77.08066933333333, "is_disabled": 0, "fusion_lon": 0.0, "is_reserved": 0, "name": "077c995ee3374d29a13a267be7663f02", "type": "electric_bike", "bike_id": "077c995ee3374d29a13a267be7663f02", "rental_uris": {"ios": "https://dc.lft.to/lastmile_qr_scan", "android": "https://dc.lft.to/lastmile_qr_scan"}, "fusion_lat": 0.0}, {"lat": 38.904404666666665, "lon": -76.99829883333334, "is_disabled": 0, "fusion_lon": 0.0, "is_reserved": 0, "name": "5d9e2e05e5d5ab851c48d7fd752cfaea", "type": "electric_scooter", "bike_id": "5d9e2e05e5d5ab851c48d7fd752cfaea", "rental_uris": {"ios": "https://dc.lft.to/lastmile_qr_scan", "android": "https://dc.lft.to/lastmile_qr_scan"}, "fusion_lat": 0.0}, {"lat": 38.91565716666667, "lon": -77.01905716666667, "is_disabled": 0, "fusion_lon": 0.0, "is_reserved": 0, "name": "46d27f1f2d2e93efee203976d97818b7", "type": "electric_scooter", "bike_id": "46d27f1f2d2e93efee203976d97818b7", "rental_uris": {"ios": "https://dc.lft.to/lastmile_qr_scan", "android": "https://dc.lft.to/lastmile_qr_scan"}, "fusion_lat": 0.0}, {"lat": 38.903346666666664, "lon": -77.06282766666666, "is_disabled": 0, "fusion_lon": 0.0, "is_reserved": 0, "name": "d47638590dd338761884da21f9c0ad2d", "type": "electric_scooter", "bike_id": "d47638590dd338761884da21f9c0ad2d", "rental_uris": {"ios": "https://dc.lft.to/lastmile_qr_scan", "android": "https://dc.lft.to/lastmile_qr_scan"}, "fusion_lat": 0.0}, {"lat": 38.907215, "lon": -77.04146416666667, "is_disabled": 0, "fusion_lon": 0.0, "is_reserved": 0, "name": "7d445894cee231a5ef15b4e9fe4ff518", "type": "electric_scooter", "bike_id": "7d445894cee231a5ef15b4e9fe4ff518", "rental_uris": {"ios": "https://dc.lft.to/lastmile_qr_scan", "android": "https://dc.lft.to/lastmile_qr_scan"}, "fusion_lat": 0.0}, {"lat": 38.89976466666667, "lon": -76.98547466666666, "is_disabled": 0, "fusion_lon": 0.0, "is_reserved": 0, "name": "3fa2efb7cdc0c634a239afa7035279af", "type": "electric_scooter", "bike_id": "3fa2efb7cdc0c634a239afa7035279af", "rental_uris": {"ios": "https://dc.lft.to/lastmile_qr_scan", "android": "https://dc.lft.to/lastmile_qr_scan"}, "fusion_lat": 0.0}, {"lat": 38.9090695, "lon": -77.027095, "is_disabled": 0, "fusion_lon": 0.0, "is_reserved": 0, "name": "bdebc8e23df17c78fe36055afeaac602", "type": "electric_scooter", "bike_id": "bdebc8e23df17c78fe36055afeaac602", "rental_uris": {"ios": "https://dc.lft.to/lastmile_qr_scan", "android": "https://dc.lft.to/lastmile_qr_scan"}, "fusion_lat": 0.0}, {"lat": 38.96438, "lon": -77.03158933333333, "is_disabled": 0, "fusion_lon": 0.0, "is_reserved": 0, "name": "48d253ce99cbace2d82a07dffe2ead46", "type": "electric_bike", "bike_id": "48d253ce99cbace2d82a07dffe2ead46", "rental_uris": {"ios": "https://dc.lft.to/lastmile_qr_scan", "android": "https://dc.lft.to/lastmile_qr_scan"}, "fusion_lat": 0.0}, {"lat": 38.923445, "lon": -77.0517605, "is_disabled": 0, "fusion_lon": 0.0, "is_reserved": 0, "name": "9be257b8d6e6dc3f2528dbc4f49afc0c", "type": "electric_scooter", "bike_id": "9be257b8d6e6dc3f2528dbc4f49afc0c", "rental_uris": {"ios": "https://dc.lft.to/lastmile_qr_scan", "android": "https://dc.lft.to/lastmile_qr_scan"}, "fusion_lat": 0.0}, {"lat": 38.87713183333334, "lon": -77.01705816666667, "is_disabled": 0, "fusion_lon": 0.0, "is_reserved": 0, "name": "0c7bddd34e44619edbdd20d13f92ff61", "type": "electric_scooter", "bike_id": "0c7bddd34e44619edbdd20d13f92ff61", "rental_uris": {"ios": "https://dc.lft.to/lastmile_qr_scan", "android": "https://dc.lft.to/lastmile_qr_scan"}, "fusion_lat": 0.0}, {"lat": 38.91006383333333, "lon": -77.049111, "is_disabled": 0, "fusion_lon": 0.0, "is_reserved": 0, "name": "68e34bcb38046e284bfb8949baa7d574", "type": "electric_scooter", "bike_id": "68e34bcb38046e284bfb8949baa7d574", "rental_uris": {"ios": "https://dc.lft.to/lastmile_qr_scan", "android": "https://dc.lft.to/lastmile_qr_scan"}, "fusion_lat": 0.0}, {"lat": 38.905034, "lon": -77.048195, "is_disabled": 0, "fusion_lon": 0.0, "is_reserved": 0, "name": "5221ed616e633e8fcb042a4e1a3a2bb9", "type": "electric_scooter", "bike_id": "5221ed616e633e8fcb042a4e1a3a2bb9", "rental_uris": {"ios": "https://dc.lft.to/lastmile_qr_scan", "android": "https://dc.lft.to/lastmile_qr_scan"}, "fusion_lat": 0.0}, {"lat": 38.950055666666664, "lon": -77.0802835, "is_disabled": 0, "fusion_lon": 0.0, "is_reserved": 0, "name": "2422d2a6a53f50697ffae0d1e35b57fb", "type": "electric_scooter", "bike_id": "2422d2a6a53f50697ffae0d1e35b57fb", "rental_uris": {"ios": "https://dc.lft.to/lastmile_qr_scan", "android": "https://dc.lft.to/lastmile_qr_scan"}, "fusion_lat": 0.0}, {"lat": 38.92144033333334, "lon": -77.0335085, "is_disabled": 0, "fusion_lon": 0.0, "is_reserved": 0, "name": "11eeeabcb9f1eca08f50580acdb7421c", "type": "electric_scooter", "bike_id": "11eeeabcb9f1eca08f50580acdb7421c", "rental_uris": {"ios": "https://dc.lft.to/lastmile_qr_scan", "android": "https://dc.lft.to/lastmile_qr_scan"}, "fusion_lat": 0.0}, {"lat": 38.9152305, "lon": -77.03857, "is_disabled": 0, "fusion_lon": 0.0, "is_reserved": 0, "name": "4ede00b04a5e0d211902f282f23598fd", "type": "electric_scooter", "bike_id": "4ede00b04a5e0d211902f282f23598fd", "rental_uris": {"ios": "https://dc.lft.to/lastmile_qr_scan", "android": "https://dc.lft.to/lastmile_qr_scan"}, "fusion_lat": 0.0}, {"lat": 38.868880833333336, "lon": -76.9851745, "is_disabled": 0, "fusion_lon": 0.0, "is_reserved": 0, "name": "f3bf6c43fe46c2859e7a475e7be2077b", "type": "electric_bike", "bike_id": "f3bf6c43fe46c2859e7a475e7be2077b", "rental_uris": {"ios": "https://dc.lft.to/lastmile_qr_scan", "android": "https://dc.lft.to/lastmile_qr_scan"}, "fusion_lat": 0.0}, {"lat": 38.91780966666666, "lon": -77.0229445, "is_disabled": 0, "fusion_lon": 0.0, "is_reserved": 0, "name": "c1ed6c400493747f426be3434d691011", "type": "electric_scooter", "bike_id": "c1ed6c400493747f426be3434d691011", "rental_uris": {"ios": "https://dc.lft.to/lastmile_qr_scan", "android": "https://dc.lft.to/lastmile_qr_scan"}, "fusion_lat": 0.0}, {"lat": 38.90022316666666, "lon": -76.974004, "is_disabled": 0, "fusion_lon": 0.0, "is_reserved": 0, "name": "e1c86982a7650488788d172041cedb2a", "type": "electric_scooter", "bike_id": "e1c86982a7650488788d172041cedb2a", "rental_uris": {"ios": "https://dc.lft.to/lastmile_qr_scan", "android": "https://dc.lft.to/lastmile_qr_scan"}, "fusion_lat": 0.0}, {"lat": 38.92297933333333, "lon": -77.04293416666667, "is_disabled": 0, "fusion_lon": 0.0, "is_reserved": 0, "name": "e916772172cdbcd6871fb45695a887e4", "type": "electric_scooter", "bike_id": "e916772172cdbcd6871fb45695a887e4", "rental_uris": {"ios": "https://dc.lft.to/lastmile_qr_scan", "android": "https://dc.lft.to/lastmile_qr_scan"}, "fusion_lat": 0.0}, {"lat": 38.916933666666665, "lon": -77.03626383333334, "is_disabled": 0, "fusion_lon": 0.0, "is_reserved": 0, "name": "35b90f728e5b3f6408e99c5ec9654685", "type": "electric_scooter", "bike_id": "35b90f728e5b3f6408e99c5ec9654685", "rental_uris": {"ios": "https://dc.lft.to/lastmile_qr_scan", "android": "https://dc.lft.to/lastmile_qr_scan"}, "fusion_lat": 0.0}, {"lat": 38.88110916666667, "lon": -77.016822, "is_disabled": 0, "fusion_lon": 0.0, "is_reserved": 0, "name": "5a4326af1586525d9b6176dff94574ce", "type": "electric_scooter", "bike_id": "5a4326af1586525d9b6176dff94574ce", "rental_uris": {"ios": "https://dc.lft.to/lastmile_qr_scan", "android": "https://dc.lft.to/lastmile_qr_scan"}, "fusion_lat": 0.0}, {"lat": 38.91113416666666, "lon": -77.03770066666667, "is_disabled": 0, "fusion_lon": 0.0, "is_reserved": 0, "name": "7df38289cec42b0066d9972473251dc4", "type": "electric_scooter", "bike_id": "7df38289cec42b0066d9972473251dc4", "rental_uris": {"ios": "https://dc.lft.to/lastmile_qr_scan", "android": "https://dc.lft.to/lastmile_qr_scan"}, "fusion_lat": 0.0}, {"lat": 38.9229555, "lon": -77.02327183333334, "is_disabled": 0, "fusion_lon": 0.0, "is_reserved": 0, "name": "aea892fc8144173a79934f1f9011c6b8", "type": "electric_scooter", "bike_id": "aea892fc8144173a79934f1f9011c6b8", "rental_uris": {"ios": "https://dc.lft.to/lastmile_qr_scan", "android": "https://dc.lft.to/lastmile_qr_scan"}, "fusion_lat": 0.0}, {"lat": 38.90274766666667, "lon": -77.034402, "is_disabled": 0, "fusion_lon": 0.0, "is_reserved": 0, "name": "c53fa87156f3f6b98a7d888f8611edd3", "type": "electric_scooter", "bike_id": "c53fa87156f3f6b98a7d888f8611edd3", "rental_uris": {"ios": "https://dc.lft.to/lastmile_qr_scan", "android": "https://dc.lft.to/lastmile_qr_scan"}, "fusion_lat": 0.0}, {"lat": 38.91613816666667, "lon": -77.03198816666666, "is_disabled": 0, "fusion_lon": 0.0, "is_reserved": 0, "name": "2d7e0d8f66d66f671d7e1105a00e6c2b", "type": "electric_scooter", "bike_id": "2d7e0d8f66d66f671d7e1105a00e6c2b", "rental_uris": {"ios": "https://dc.lft.to/lastmile_qr_scan", "android": "https://dc.lft.to/lastmile_qr_scan"}, "fusion_lat": 0.0}, {"lat": 38.899171, "lon": -77.02373916666667, "is_disabled": 0, "fusion_lon": 0.0, "is_reserved": 0, "name": "5711f899efe61aa56940f8ac8e01a4ae", "type": "electric_scooter", "bike_id": "5711f899efe61aa56940f8ac8e01a4ae", "rental_uris": {"ios": "https://dc.lft.to/lastmile_qr_scan", "android": "https://dc.lft.to/lastmile_qr_scan"}, "fusion_lat": 0.0}, {"lat": 38.926774333333334, "lon": -77.02266983333334, "is_disabled": 0, "fusion_lon": 0.0, "is_reserved": 0, "name": "c69a6ea2b31ce04989b97a9d77ff32d5", "type": "electric_scooter", "bike_id": "c69a6ea2b31ce04989b97a9d77ff32d5", "rental_uris": {"ios": "https://dc.lft.to/lastmile_qr_scan", "android": "https://dc.lft.to/lastmile_qr_scan"}, "fusion_lat": 0.0}, {"lat": 38.9081205, "lon": -77.0345, "is_disabled": 0, "fusion_lon": 0.0, "is_reserved": 0, "name": "b9682135d2bcaa40ec6142a5564df50a", "type": "electric_scooter", "bike_id": "b9682135d2bcaa40ec6142a5564df50a", "rental_uris": {"ios": "https://dc.lft.to/lastmile_qr_scan", "android": "https://dc.lft.to/lastmile_qr_scan"}, "fusion_lat": 0.0}, {"lat": 38.90360583333333, "lon": -77.02924833333333, "is_disabled": 0, "fusion_lon": 0.0, "is_reserved": 0, "name": "5e4a2026e41c4b2283cc2ed6e2f385df", "type": "electric_scooter", "bike_id": "5e4a2026e41c4b2283cc2ed6e2f385df", "rental_uris": {"ios": "https://dc.lft.to/lastmile_qr_scan", "android": "https://dc.lft.to/lastmile_qr_scan"}, "fusion_lat": 0.0}, {"lat": 38.8970785, "lon": -77.02545983333333, "is_disabled": 0, "fusion_lon": 0.0, "is_reserved": 0, "name": "69a14e44c48df209ee22ed2968f5f365", "type": "electric_scooter", "bike_id": "69a14e44c48df209ee22ed2968f5f365", "rental_uris": {"ios": "https://dc.lft.to/lastmile_qr_scan", "android": "https://dc.lft.to/lastmile_qr_scan"}, "fusion_lat": 0.0}, {"lat": 38.877516666666665, "lon": -77.01759466666667, "is_disabled": 0, "fusion_lon": 0.0, "is_reserved": 0, "name": "e947328e32b5bff796d80b4058c842c6", "type": "electric_scooter", "bike_id": "e947328e32b5bff796d80b4058c842c6", "rental_uris": {"ios": "https://dc.lft.to/lastmile_qr_scan", "android": "https://dc.lft.to/lastmile_qr_scan"}, "fusion_lat": 0.0}, {"lat": 38.910376666666664, "lon": -77.03411283333334, "is_disabled": 0, "fusion_lon": 0.0, "is_reserved": 0, "name": "088fd40e85444d058a7bebdf775ed788", "type": "electric_scooter", "bike_id": "088fd40e85444d058a7bebdf775ed788", "rental_uris": {"ios": "https://dc.lft.to/lastmile_qr_scan", "android": "https://dc.lft.to/lastmile_qr_scan"}, "fusion_lat": 0.0}, {"lat": 38.9217685, "lon": -77.03837283333333, "is_disabled": 0, "fusion_lon": 0.0, "is_reserved": 0, "name": "fc5946a3577c51cb4335279b0c6a15fb", "type": "electric_scooter", "bike_id": "fc5946a3577c51cb4335279b0c6a15fb", "rental_uris": {"ios": "https://dc.lft.to/lastmile_qr_scan", "android": "https://dc.lft.to/lastmile_qr_scan"}, "fusion_lat": 0.0}, {"lat": 38.9070535, "lon": -77.04340016666667, "is_disabled": 0, "fusion_lon": 0.0, "is_reserved": 0, "name": "6fa861846c92936b3167f173dc65e939", "type": "electric_scooter", "bike_id": "6fa861846c92936b3167f173dc65e939", "rental_uris": {"ios": "https://dc.lft.to/lastmile_qr_scan", "android": "https://dc.lft.to/lastmile_qr_scan"}, "fusion_lat": 0.0}, {"lat": 38.9238745, "lon": -77.021622, "is_disabled": 0, "fusion_lon": 0.0, "is_reserved": 0, "name": "98d287b98dfd1f29b9976a852123f03e", "type": "electric_scooter", "bike_id": "98d287b98dfd1f29b9976a852123f03e", "rental_uris": {"ios": "https://dc.lft.to/lastmile_qr_scan", "android": "https://dc.lft.to/lastmile_qr_scan"}, "fusion_lat": 0.0}, {"lat": 38.9018495, "lon": -77.01622966666666, "is_disabled": 0, "fusion_lon": 0.0, "is_reserved": 0, "name": "ffdac484521eec13e56b0528f43fdf1c", "type": "electric_scooter", "bike_id": "ffdac484521eec13e56b0528f43fdf1c", "rental_uris": {"ios": "https://dc.lft.to/lastmile_qr_scan", "android": "https://dc.lft.to/lastmile_qr_scan"}, "fusion_lat": 0.0}, {"lat": 38.901951, "lon": -77.023485, "is_disabled": 0, "fusion_lon": 0.0, "is_reserved": 0, "name": "7ed6396c5bd57d5333b58db45062a906", "type": "electric_scooter", "bike_id": "7ed6396c5bd57d5333b58db45062a906", "rental_uris": {"ios": "https://dc.lft.to/lastmile_qr_scan", "android": "https://dc.lft.to/lastmile_qr_scan"}, "fusion_lat": 0.0}, {"lat": 38.90271383333334, "lon": -76.92885733333334, "is_disabled": 0, "fusion_lon": 0.0, "is_reserved": 0, "name": "cde90267847a9e9e2eb6a0df20fe5685", "type": "electric_scooter", "bike_id": "cde90267847a9e9e2eb6a0df20fe5685", "rental_uris": {"ios": "https://dc.lft.to/lastmile_qr_scan", "android": "https://dc.lft.to/lastmile_qr_scan"}, "fusion_lat": 0.0}, {"lat": 38.92482183333333, "lon": -77.03503416666666, "is_disabled": 0, "fusion_lon": 0.0, "is_reserved": 0, "name": "b8cda44f67945e11adc22497ebe710a5", "type": "electric_scooter", "bike_id": "b8cda44f67945e11adc22497ebe710a5", "rental_uris": {"ios": "https://dc.lft.to/lastmile_qr_scan", "android": "https://dc.lft.to/lastmile_qr_scan"}, "fusion_lat": 0.0}, {"lat": 38.90032866666667, "lon": -77.0019565, "is_disabled": 0, "fusion_lon": 0.0, "is_reserved": 0, "name": "c8a97853b0fa61fd5067da97fd21c61e", "type": "electric_scooter", "bike_id": "c8a97853b0fa61fd5067da97fd21c61e", "rental_uris": {"ios": "https://dc.lft.to/lastmile_qr_scan", "android": "https://dc.lft.to/lastmile_qr_scan"}, "fusion_lat": 0.0}, {"lat": 38.9048525, "lon": -77.02967483333333, "is_disabled": 0, "fusion_lon": 0.0, "is_reserved": 0, "name": "33b240cccb3fdd58abd23985a06498b7", "type": "electric_scooter", "bike_id": "33b240cccb3fdd58abd23985a06498b7", "rental_uris": {"ios": "https://dc.lft.to/lastmile_qr_scan", "android": "https://dc.lft.to/lastmile_qr_scan"}, "fusion_lat": 0.0}, {"lat": 38.934259, "lon": -77.03291216666666, "is_disabled": 0, "fusion_lon": 0.0, "is_reserved": 0, "name": "8545fafab9154792d7e6caf4b5ca28a5", "type": "electric_scooter", "bike_id": "8545fafab9154792d7e6caf4b5ca28a5", "rental_uris": {"ios": "https://dc.lft.to/lastmile_qr_scan", "android": "https://dc.lft.to/lastmile_qr_scan"}, "fusion_lat": 0.0}, {"lat": 38.87101583333333, "lon": -76.965771, "is_disabled": 0, "fusion_lon": 0.0, "is_reserved": 0, "name": "6a2f7983924d11be895e26e2e86e0874", "type": "electric_scooter", "bike_id": "6a2f7983924d11be895e26e2e86e0874", "rental_uris": {"ios": "https://dc.lft.to/lastmile_qr_scan", "android": "https://dc.lft.to/lastmile_qr_scan"}, "fusion_lat": 0.0}, {"lat": 38.91709216666667, "lon": -76.97650633333333, "is_disabled": 0, "fusion_lon": 0.0, "is_reserved": 0, "name": "bdaa5ae13bad6afd5066d5e65b47538f", "type": "electric_scooter", "bike_id": "bdaa5ae13bad6afd5066d5e65b47538f", "rental_uris": {"ios": "https://dc.lft.to/lastmile_qr_scan", "android": "https://dc.lft.to/lastmile_qr_scan"}, "fusion_lat": 0.0}, {"lat": 38.918958, "lon": -77.02463433333334, "is_disabled": 0, "fusion_lon": 0.0, "is_reserved": 0, "name": "b85c726a27c5411c1858b27efc046625", "type": "electric_scooter", "bike_id": "b85c726a27c5411c1858b27efc046625", "rental_uris": {"ios": "https://dc.lft.to/lastmile_qr_scan", "android": "https://dc.lft.to/lastmile_qr_scan"}, "fusion_lat": 0.0}, {"lat": 38.8773175, "lon": -77.11853566666667, "is_disabled": 0, "fusion_lon": 0.0, "is_reserved": 0, "name": "ad91676b2056ade734f93ac0b7c5cd36", "type": "electric_bike", "bike_id": "ad91676b2056ade734f93ac0b7c5cd36", "rental_uris": {"ios": "https://dc.lft.to/lastmile_qr_scan", "android": "https://dc.lft.to/lastmile_qr_scan"}, "fusion_lat": 0.0}, {"lat": 38.887223666666664, "lon": -77.02826583333334, "is_disabled": 0, "fusion_lon": 0.0, "is_reserved": 0, "name": "58fe152e092c4a2128eb4b75ea991950", "type": "electric_scooter", "bike_id": "58fe152e092c4a2128eb4b75ea991950", "rental_uris": {"ios": "https://dc.lft.to/lastmile_qr_scan", "android": "https://dc.lft.to/lastmile_qr_scan"}, "fusion_lat": 0.0}, {"lat": 38.9187475, "lon": -77.04315483333333, "is_disabled": 0, "fusion_lon": 0.0, "is_reserved": 0, "name": "61d7d855e08a5c2c6072c15215d74e07", "type": "electric_scooter", "bike_id": "61d7d855e08a5c2c6072c15215d74e07", "rental_uris": {"ios": "https://dc.lft.to/lastmile_qr_scan", "android": "https://dc.lft.to/lastmile_qr_scan"}, "fusion_lat": 0.0}, {"lat": 38.880056833333335, "lon": -77.005699, "is_disabled": 0, "fusion_lon": 0.0, "is_reserved": 0, "name": "d610b833122c350c5159387628bb6ea7", "type": "electric_scooter", "bike_id": "d610b833122c350c5159387628bb6ea7", "rental_uris": {"ios": "https://dc.lft.to/lastmile_qr_scan", "android": "https://dc.lft.to/lastmile_qr_scan"}, "fusion_lat": 0.0}, {"lat": 38.92829033333334, "lon": -76.99587533333333, "is_disabled": 0, "fusion_lon": 0.0, "is_reserved": 0, "name": "31e6626be659d31de25bec75ed665c8d", "type": "electric_scooter", "bike_id": "31e6626be659d31de25bec75ed665c8d", "rental_uris": {"ios": "https://dc.lft.to/lastmile_qr_scan", "android": "https://dc.lft.to/lastmile_qr_scan"}, "fusion_lat": 0.0}, {"lat": 38.90378666666667, "lon": -77.06001, "is_disabled": 0, "fusion_lon": 0.0, "is_reserved": 0, "name": "78b2faabd295fc895ac999a025948147", "type": "electric_scooter", "bike_id": "78b2faabd295fc895ac999a025948147", "rental_uris": {"ios": "https://dc.lft.to/lastmile_qr_scan", "android": "https://dc.lft.to/lastmile_qr_scan"}, "fusion_lat": 0.0}, {"lat": 38.909577, "lon": -77.04821916666667, "is_disabled": 0, "fusion_lon": 0.0, "is_reserved": 0, "name": "97efe56343435341d9fa179cb5df4a76", "type": "electric_scooter", "bike_id": "97efe56343435341d9fa179cb5df4a76", "rental_uris": {"ios": "https://dc.lft.to/lastmile_qr_scan", "android": "https://dc.lft.to/lastmile_qr_scan"}, "fusion_lat": 0.0}, {"lat": 38.91821383333333, "lon": -77.02419283333333, "is_disabled": 0, "fusion_lon": 0.0, "is_reserved": 0, "name": "a6c7507d78d2af8fdf4f303a14a405b4", "type": "electric_scooter", "bike_id": "a6c7507d78d2af8fdf4f303a14a405b4", "rental_uris": {"ios": "https://dc.lft.to/lastmile_qr_scan", "android": "https://dc.lft.to/lastmile_qr_scan"}, "fusion_lat": 0.0}, {"lat": 38.90340366666667, "lon": -77.02394783333334, "is_disabled": 0, "fusion_lon": 0.0, "is_reserved": 0, "name": "c0a008f21a79db7c3a1f4d8063bbeae2", "type": "electric_scooter", "bike_id": "c0a008f21a79db7c3a1f4d8063bbeae2", "rental_uris": {"ios": "https://dc.lft.to/lastmile_qr_scan", "android": "https://dc.lft.to/lastmile_qr_scan"}, "fusion_lat": 0.0}, {"lat": 38.8753035, "lon": -77.0050565, "is_disabled": 0, "fusion_lon": 0.0, "is_reserved": 0, "name": "0ad25fc302d1ad8f019f5a12c062b2b5", "type": "electric_scooter", "bike_id": "0ad25fc302d1ad8f019f5a12c062b2b5", "rental_uris": {"ios": "https://dc.lft.to/lastmile_qr_scan", "android": "https://dc.lft.to/lastmile_qr_scan"}, "fusion_lat": 0.0}, {"lat": 38.925695166666664, "lon": -77.0399545, "is_disabled": 0, "fusion_lon": 0.0, "is_reserved": 0, "name": "987db55c6c8d7d19926890f31f03b331", "type": "electric_scooter", "bike_id": "987db55c6c8d7d19926890f31f03b331", "rental_uris": {"ios": "https://dc.lft.to/lastmile_qr_scan", "android": "https://dc.lft.to/lastmile_qr_scan"}, "fusion_lat": 0.0}, {"lat": 38.92395883333333, "lon": -77.03524183333333, "is_disabled": 0, "fusion_lon": 0.0, "is_reserved": 0, "name": "f4c8821a6a132a5d73678ccf51af8fff", "type": "electric_scooter", "bike_id": "f4c8821a6a132a5d73678ccf51af8fff", "rental_uris": {"ios": "https://dc.lft.to/lastmile_qr_scan", "android": "https://dc.lft.to/lastmile_qr_scan"}, "fusion_lat": 0.0}, {"lat": 38.807618166666664, "lon": -77.1298645, "is_disabled": 0, "fusion_lon": 0.0, "is_reserved": 0, "name": "e78e2c26dd28dad96706e5876f7fda01", "type": "electric_bike", "bike_id": "e78e2c26dd28dad96706e5876f7fda01", "rental_uris": {"ios": "https://dc.lft.to/lastmile_qr_scan", "android": "https://dc.lft.to/lastmile_qr_scan"}, "fusion_lat": 0.0}, {"lat": 38.922395333333334, "lon": -77.03519983333334, "is_disabled": 0, "fusion_lon": 0.0, "is_reserved": 0, "name": "c1f0222041a8a9c62d0a5ba10a6fdf67", "type": "electric_scooter", "bike_id": "c1f0222041a8a9c62d0a5ba10a6fdf67", "rental_uris": {"ios": "https://dc.lft.to/lastmile_qr_scan", "android": "https://dc.lft.to/lastmile_qr_scan"}, "fusion_lat": 0.0}, {"lat": 38.89542216666667, "lon": -76.949518, "is_disabled": 0, "fusion_lon": 0.0, "is_reserved": 0, "name": "f6665314054b25f24dd72048ca9f9aa9", "type": "electric_scooter", "bike_id": "f6665314054b25f24dd72048ca9f9aa9", "rental_uris": {"ios": "https://dc.lft.to/lastmile_qr_scan", "android": "https://dc.lft.to/lastmile_qr_scan"}, "fusion_lat": 0.0}, {"lat": 38.88176716666667, "lon": -76.99253116666667, "is_disabled": 0, "fusion_lon": 0.0, "is_reserved": 0, "name": "3ed60f2d5df07cd88be9f476bca30502", "type": "electric_scooter", "bike_id": "3ed60f2d5df07cd88be9f476bca30502", "rental_uris": {"ios": "https://dc.lft.to/lastmile_qr_scan", "android": "https://dc.lft.to/lastmile_qr_scan"}, "fusion_lat": 0.0}, {"lat": 38.9054755, "lon": -77.00683183333334, "is_disabled": 0, "fusion_lon": 0.0, "is_reserved": 0, "name": "8e35a4aa89cbe0b05bf87674ccb48da7", "type": "electric_scooter", "bike_id": "8e35a4aa89cbe0b05bf87674ccb48da7", "rental_uris": {"ios": "https://dc.lft.to/lastmile_qr_scan", "android": "https://dc.lft.to/lastmile_qr_scan"}, "fusion_lat": 0.0}, {"lat": 38.895515333333336, "lon": -76.948694, "is_disabled": 0, "fusion_lon": 0.0, "is_reserved": 0, "name": "988e0decc0cf59206305c524dd4453c9", "type": "electric_scooter", "bike_id": "988e0decc0cf59206305c524dd4453c9", "rental_uris": {"ios": "https://dc.lft.to/lastmile_qr_scan", "android": "https://dc.lft.to/lastmile_qr_scan"}, "fusion_lat": 0.0}, {"lat": 38.919146166666664, "lon": -77.0320165, "is_disabled": 0, "fusion_lon": 0.0, "is_reserved": 0, "name": "dab4b41cee2ee9f99a5cc50f7e2aef99", "type": "electric_scooter", "bike_id": "dab4b41cee2ee9f99a5cc50f7e2aef99", "rental_uris": {"ios": "https://dc.lft.to/lastmile_qr_scan", "android": "https://dc.lft.to/lastmile_qr_scan"}, "fusion_lat": 0.0}, {"lat": 38.87819183333333, "lon": -77.02228733333334, "is_disabled": 0, "fusion_lon": 0.0, "is_reserved": 0, "name": "f1223cdbb622dc85833c18d2c8fa6f66", "type": "electric_scooter", "bike_id": "f1223cdbb622dc85833c18d2c8fa6f66", "rental_uris": {"ios": "https://dc.lft.to/lastmile_qr_scan", "android": "https://dc.lft.to/lastmile_qr_scan"}, "fusion_lat": 0.0}, {"lat": 38.91798633333333, "lon": -77.034468, "is_disabled": 0, "fusion_lon": 0.0, "is_reserved": 0, "name": "5bb4c9b8ff154886c6bebc97dafaf19d", "type": "electric_scooter", "bike_id": "5bb4c9b8ff154886c6bebc97dafaf19d", "rental_uris": {"ios": "https://dc.lft.to/lastmile_qr_scan", "android": "https://dc.lft.to/lastmile_qr_scan"}, "fusion_lat": 0.0}, {"lat": 38.91707616666667, "lon": -77.0247735, "is_disabled": 0, "fusion_lon": 0.0, "is_reserved": 0, "name": "b5c953698ee83e447e60ce53da08a388", "type": "electric_scooter", "bike_id": "b5c953698ee83e447e60ce53da08a388", "rental_uris": {"ios": "https://dc.lft.to/lastmile_qr_scan", "android": "https://dc.lft.to/lastmile_qr_scan"}, "fusion_lat": 0.0}, {"lat": 38.902382333333335, "lon": -77.04697816666666, "is_disabled": 0, "fusion_lon": 0.0, "is_reserved": 0, "name": "d12a5b9147657a5070489e69fec0bc3a", "type": "electric_scooter", "bike_id": "d12a5b9147657a5070489e69fec0bc3a", "rental_uris": {"ios": "https://dc.lft.to/lastmile_qr_scan", "android": "https://dc.lft.to/lastmile_qr_scan"}, "fusion_lat": 0.0}, {"lat": 38.92872633333333, "lon": -77.0345375, "is_disabled": 0, "fusion_lon": 0.0, "is_reserved": 0, "name": "2bed28984ba2c1679983df1086487b49", "type": "electric_scooter", "bike_id": "2bed28984ba2c1679983df1086487b49", "rental_uris": {"ios": "https://dc.lft.to/lastmile_qr_scan", "android": "https://dc.lft.to/lastmile_qr_scan"}, "fusion_lat": 0.0}, {"lat": 38.9041895, "lon": -77.019946, "is_disabled": 0, "fusion_lon": 0.0, "is_reserved": 0, "name": "9495ad6ede1123cc64504f25156c6080", "type": "electric_scooter", "bike_id": "9495ad6ede1123cc64504f25156c6080", "rental_uris": {"ios": "https://dc.lft.to/lastmile_qr_scan", "android": "https://dc.lft.to/lastmile_qr_scan"}, "fusion_lat": 0.0}, {"lat": 38.901430833333336, "lon": -77.0190675, "is_disabled": 0, "fusion_lon": 0.0, "is_reserved": 0, "name": "1cdaf2e2d8c2bdcbde8795286f32f537", "type": "electric_scooter", "bike_id": "1cdaf2e2d8c2bdcbde8795286f32f537", "rental_uris": {"ios": "https://dc.lft.to/lastmile_qr_scan", "android": "https://dc.lft.to/lastmile_qr_scan"}, "fusion_lat": 0.0}, {"lat": 38.9110265, "lon": -77.04537166666667, "is_disabled": 0, "fusion_lon": 0.0, "is_reserved": 0, "name": "66896dc97628306c4f9b929a2a2cee6d", "type": "electric_scooter", "bike_id": "66896dc97628306c4f9b929a2a2cee6d", "rental_uris": {"ios": "https://dc.lft.to/lastmile_qr_scan", "android": "https://dc.lft.to/lastmile_qr_scan"}, "fusion_lat": 0.0}, {"lat": 38.897252, "lon": -77.0232405, "is_disabled": 0, "fusion_lon": 0.0, "is_reserved": 0, "name": "c5f2f065a77fc0e54d171e6d030e5aaf", "type": "electric_scooter", "bike_id": "c5f2f065a77fc0e54d171e6d030e5aaf", "rental_uris": {"ios": "https://dc.lft.to/lastmile_qr_scan", "android": "https://dc.lft.to/lastmile_qr_scan"}, "fusion_lat": 0.0}, {"lat": 38.900594, "lon": -76.927423, "is_disabled": 0, "fusion_lon": 0.0, "is_reserved": 0, "name": "460e9ae922cd7c29ae7f7e6512015af3", "type": "electric_scooter", "bike_id": "460e9ae922cd7c29ae7f7e6512015af3", "rental_uris": {"ios": "https://dc.lft.to/lastmile_qr_scan", "android": "https://dc.lft.to/lastmile_qr_scan"}, "fusion_lat": 0.0}, {"lat": 38.88600233333333, "lon": -77.00323, "is_disabled": 0, "fusion_lon": 0.0, "is_reserved": 0, "name": "c65270a921ddc80e1e654917b91eea61", "type": "electric_scooter", "bike_id": "c65270a921ddc80e1e654917b91eea61", "rental_uris": {"ios": "https://dc.lft.to/lastmile_qr_scan", "android": "https://dc.lft.to/lastmile_qr_scan"}, "fusion_lat": 0.0}, {"lat": 38.876904833333334, "lon": -76.99701916666666, "is_disabled": 0, "fusion_lon": 0.0, "is_reserved": 0, "name": "38749ee63c993ea71b18eeeeaf287b1a", "type": "electric_scooter", "bike_id": "38749ee63c993ea71b18eeeeaf287b1a", "rental_uris": {"ios": "https://dc.lft.to/lastmile_qr_scan", "android": "https://dc.lft.to/lastmile_qr_scan"}, "fusion_lat": 0.0}, {"lat": 38.8959665, "lon": -76.99228033333333, "is_disabled": 0, "fusion_lon": 0.0, "is_reserved": 0, "name": "01101a9e8269e28e9981049c775dd9a0", "type": "electric_bike", "bike_id": "01101a9e8269e28e9981049c775dd9a0", "rental_uris": {"ios": "https://dc.lft.to/lastmile_qr_scan", "android": "https://dc.lft.to/lastmile_qr_scan"}, "fusion_lat": 0.0}, {"lat": 38.908599, "lon": -77.06397483333333, "is_disabled": 0, "fusion_lon": 0.0, "is_reserved": 0, "name": "bb542c0755540e470df67eb22bd6c27b", "type": "electric_scooter", "bike_id": "bb542c0755540e470df67eb22bd6c27b", "rental_uris": {"ios": "https://dc.lft.to/lastmile_qr_scan", "android": "https://dc.lft.to/lastmile_qr_scan"}, "fusion_lat": 0.0}, {"lat": 38.933618833333334, "lon": -77.036554, "is_disabled": 0, "fusion_lon": 0.0, "is_reserved": 0, "name": "7ef5dd75edb2645126c04440e26c53ec", "type": "electric_scooter", "bike_id": "7ef5dd75edb2645126c04440e26c53ec", "rental_uris": {"ios": "https://dc.lft.to/lastmile_qr_scan", "android": "https://dc.lft.to/lastmile_qr_scan"}, "fusion_lat": 0.0}, {"lat": 38.872220666666664, "lon": -77.01221516666666, "is_disabled": 0, "fusion_lon": 0.0, "is_reserved": 0, "name": "7a2b2c0d4e4af058e3df619c2a29b89c", "type": "electric_scooter", "bike_id": "7a2b2c0d4e4af058e3df619c2a29b89c", "rental_uris": {"ios": "https://dc.lft.to/lastmile_qr_scan", "android": "https://dc.lft.to/lastmile_qr_scan"}, "fusion_lat": 0.0}, {"lat": 38.924868833333335, "lon": -77.02137716666667, "is_disabled": 0, "fusion_lon": 0.0, "is_reserved": 0, "name": "5808ed860f323ecc350efafb1b86f199", "type": "electric_scooter", "bike_id": "5808ed860f323ecc350efafb1b86f199", "rental_uris": {"ios": "https://dc.lft.to/lastmile_qr_scan", "android": "https://dc.lft.to/lastmile_qr_scan"}, "fusion_lat": 0.0}, {"lat": 38.896192, "lon": -77.00193, "is_disabled": 0, "fusion_lon": 0.0, "is_reserved": 0, "name": "39e26dee89a86f19c99cf97f47447f71", "type": "electric_scooter", "bike_id": "39e26dee89a86f19c99cf97f47447f71", "rental_uris": {"ios": "https://dc.lft.to/lastmile_qr_scan", "android": "https://dc.lft.to/lastmile_qr_scan"}, "fusion_lat": 0.0}, {"lat": 38.90899366666667, "lon": -77.03211366666666, "is_disabled": 0, "fusion_lon": 0.0, "is_reserved": 0, "name": "d029e463235b0f36721f438b8c9839ba", "type": "electric_scooter", "bike_id": "d029e463235b0f36721f438b8c9839ba", "rental_uris": {"ios": "https://dc.lft.to/lastmile_qr_scan", "android": "https://dc.lft.to/lastmile_qr_scan"}, "fusion_lat": 0.0}, {"lat": 38.91121066666667, "lon": -77.021993, "is_disabled": 0, "fusion_lon": 0.0, "is_reserved": 0, "name": "163e83e90bff59936c2b4c11e147b96a", "type": "electric_scooter", "bike_id": "163e83e90bff59936c2b4c11e147b96a", "rental_uris": {"ios": "https://dc.lft.to/lastmile_qr_scan", "android": "https://dc.lft.to/lastmile_qr_scan"}, "fusion_lat": 0.0}, {"lat": 38.942913833333336, "lon": -77.02170683333334, "is_disabled": 0, "fusion_lon": 0.0, "is_reserved": 0, "name": "16dd6246d1d4851df1a6cb65d4bdf8f1", "type": "electric_scooter", "bike_id": "16dd6246d1d4851df1a6cb65d4bdf8f1", "rental_uris": {"ios": "https://dc.lft.to/lastmile_qr_scan", "android": "https://dc.lft.to/lastmile_qr_scan"}, "fusion_lat": 0.0}, {"lat": 38.924993, "lon": -77.024033, "is_disabled": 0, "fusion_lon": 0.0, "is_reserved": 0, "name": "111eb05dca940f31b0527d38e1b32f8b", "type": "electric_scooter", "bike_id": "111eb05dca940f31b0527d38e1b32f8b", "rental_uris": {"ios": "https://dc.lft.to/lastmile_qr_scan", "android": "https://dc.lft.to/lastmile_qr_scan"}, "fusion_lat": 0.0}, {"lat": 38.8921705, "lon": -77.026294, "is_disabled": 0, "fusion_lon": 0.0, "is_reserved": 0, "name": "3cd69c42cbfb10b20d86bcf7004004d2", "type": "electric_scooter", "bike_id": "3cd69c42cbfb10b20d86bcf7004004d2", "rental_uris": {"ios": "https://dc.lft.to/lastmile_qr_scan", "android": "https://dc.lft.to/lastmile_qr_scan"}, "fusion_lat": 0.0}, {"lat": 38.90400983333333, "lon": -77.06807566666667, "is_disabled": 0, "fusion_lon": 0.0, "is_reserved": 0, "name": "29c0e3d83eb7297f97afdc14ca92f2d1", "type": "electric_scooter", "bike_id": "29c0e3d83eb7297f97afdc14ca92f2d1", "rental_uris": {"ios": "https://dc.lft.to/lastmile_qr_scan", "android": "https://dc.lft.to/lastmile_qr_scan"}, "fusion_lat": 0.0}, {"lat": 38.932447833333335, "lon": -77.03280483333333, "is_disabled": 0, "fusion_lon": 0.0, "is_reserved": 0, "name": "bd9d3f095d0f05d2868695d2514a5bc6", "type": "electric_scooter", "bike_id": "bd9d3f095d0f05d2868695d2514a5bc6", "rental_uris": {"ios": "https://dc.lft.to/lastmile_qr_scan", "android": "https://dc.lft.to/lastmile_qr_scan"}, "fusion_lat": 0.0}, {"lat": 38.92048666666667, "lon": -77.04624283333334, "is_disabled": 0, "fusion_lon": 0.0, "is_reserved": 0, "name": "5fe81ae15988be20829b0669e74a5603", "type": "electric_scooter", "bike_id": "5fe81ae15988be20829b0669e74a5603", "rental_uris": {"ios": "https://dc.lft.to/lastmile_qr_scan", "android": "https://dc.lft.to/lastmile_qr_scan"}, "fusion_lat": 0.0},