{"data": {"bikes": [{"type": "electric_scooter", "rental_uris": {"ios": "https://dc.lft.to/lastmile_qr_scan", "android": "https://dc.lft.to/lastmile_qr_scan"}, "lon": -77.04353033333334, "fusion_lon": 0.0, "is_disabled": 0, "lat": 38.912976, "bike_id": "d0864f89ceccfe2ec26feb521d4fddf1", "name": "d0864f89ceccfe2ec26feb521d4fddf1", "is_reserved": 0, "fusion_lat": 0.0}, {"type": "electric_scooter", "rental_uris": {"ios": "https://dc.lft.to/lastmile_qr_scan", "android": "https://dc.lft.to/lastmile_qr_scan"}, "lon": -76.93363583333333, "fusion_lon": 0.0, "is_disabled": 0, "lat": 38.899106333333336, "bike_id": "26a57e80f70d565a5ed26771f1d929ac", "name": "26a57e80f70d565a5ed26771f1d929ac", "is_reserved": 0, "fusion_lat": 0.0}, {"type": "electric_scooter", "rental_uris": {"ios": "https://dc.lft.to/lastmile_qr_scan", "android": "https://dc.lft.to/lastmile_qr_scan"}, "lon": -77.02498616666666, "fusion_lon": 0.0, "is_disabled": 0, "lat": 38.918072333333335, "bike_id": "c7d88366e3246520fc216c0d00e0fe39", "name": "c7d88366e3246520fc216c0d00e0fe39", "is_reserved": 0, "fusion_lat": 0.0}, {"type": "electric_scooter", "rental_uris": {"ios": "https://dc.lft.to/lastmile_qr_scan", "android": "https://dc.lft.to/lastmile_qr_scan"}, "lon": -77.04455866666666, "fusion_lon": 0.0, "is_disabled": 0, "lat": 38.91186533333333, "bike_id": "93edd9f87711ee28d84511ad950d4496", "name": "93edd9f87711ee28d84511ad950d4496", "is_reserved": 0, "fusion_lat": 0.0}, {"type": "electric_scooter", "rental_uris": {"ios": "https://dc.lft.to/lastmile_qr_scan", "android": "https://dc.lft.to/lastmile_qr_scan"}, "lon": -77.0243055, "fusion_lon": 0.0, "is_disabled": 0, "lat": 38.95627183333333, "bike_id": "d78a4ad479cd8fd66fd5c8f1f478d72e", "name": "d78a4ad479cd8fd66fd5c8f1f478d72e", "is_reserved": 0, "fusion_lat": 0.0}, {"type": "electric_scooter", "rental_uris": {"ios": "https://dc.lft.to/lastmile_qr_scan", "android": "https://dc.lft.to/lastmile_qr_scan"}, "lon": -77.04340416666666, "fusion_lon": 0.0, "is_disabled": 0, "lat": 38.89524816666667, "bike_id": "adda46454a22822c7c2a517f5c603f2a", "name": "adda46454a22822c7c2a517f5c603f2a", "is_reserved": 0, "fusion_lat": 0.0}, {"type": "electric_scooter", "rental_uris": {"ios": "https://dc.lft.to/lastmile_qr_scan", "android": "https://dc.lft.to/lastmile_qr_scan"}, "lon": -77.0730565, "fusion_lon": 0.0, "is_disabled": 0, "lat": 38.92888966666666, "bike_id": "c5fbb6b85697ac15156e8ce0098a3ba4", "name": "c5fbb6b85697ac15156e8ce0098a3ba4", "is_reserved": 0, "fusion_lat": 0.0}, {"type": "electric_scooter", "rental_uris": {"ios": "https://dc.lft.to/lastmile_qr_scan", "android": "https://dc.lft.to/lastmile_qr_scan"}, "lon": -77.02354516666666, "fusion_lon": 0.0, "is_disabled": 0, "lat": 38.917815833333336, "bike_id": "8c6e081640be360974f230f09d66b249", "name": "8c6e081640be360974f230f09d66b249", "is_reserved": 0, "fusion_lat": 0.0}, {"type": "electric_scooter", "rental_uris": {"ios": "https://dc.lft.to/lastmile_qr_scan", "android": "https://dc.lft.to/lastmile_qr_scan"}, "lon": -77.0320885, "fusion_lon": 0.0, "is_disabled": 0, "lat": 38.9173455, "bike_id": "f3a503c5794689052bba67b3809508b8", "name": "f3a503c5794689052bba67b3809508b8", "is_reserved": 0, "fusion_lat": 0.0}, {"type": "electric_scooter", "rental_uris": {"ios": "https://dc.lft.to/lastmile_qr_scan", "android": "https://dc.lft.to/lastmile_qr_scan"}, "lon": -77.0375, "fusion_lon": 0.0, "is_disabled": 0, "lat": 38.91270766666667, "bike_id": "f45b6588dc2f76d57531cd5279e7c568", "name": "f45b6588dc2f76d57531cd5279e7c568", "is_reserved": 0, "fusion_lat": 0.0}, {"type": "electric_scooter", "rental_uris": {"ios": "https://dc.lft.to/lastmile_qr_scan", "android": "https://dc.lft.to/lastmile_qr_scan"}, "lon": -76.98883066666667, "fusion_lon": 0.0, "is_disabled": 0, "lat": 38.86654333333333, "bike_id": "17bec8408b0cda997d26b735e9760bb8", "name": "17bec8408b0cda997d26b735e9760bb8", "is_reserved": 0, "fusion_lat": 0.0}, {"type": "electric_scooter", "rental_uris": {"ios": "https://dc.lft.to/lastmile_qr_scan", "android": "https://dc.lft.to/lastmile_qr_scan"}, "lon": -77.0298715, "fusion_lon": 0.0, "is_disabled": 0, "lat": 38.90507, "bike_id": "4b9e1561a25c1f7f2ec9d8ea61f756d1", "name": "4b9e1561a25c1f7f2ec9d8ea61f756d1", "is_reserved": 0, "fusion_lat": 0.0}, {"type": "electric_scooter", "rental_uris": {"ios": "https://dc.lft.to/lastmile_qr_scan", "android": "https://dc.lft.to/lastmile_qr_scan"}, "lon": -77.03426366666666, "fusion_lon": 0.0, "is_disabled": 0, "lat": 38.9309125, "bike_id": "99aa0227ad21538380bc61dfec653baa", "name": "99aa0227ad21538380bc61dfec653baa", "is_reserved": 0, "fusion_lat": 0.0}, {"type": "electric_scooter", "rental_uris": {"ios": "https://dc.lft.to/lastmile_qr_scan", "android": "https://dc.lft.to/lastmile_qr_scan"}, "lon": -76.9808355, "fusion_lon": 0.0, "is_disabled": 0, "lat": 38.919494666666665, "bike_id": "6960d04456f97f10cc571b657833d0aa", "name": "6960d04456f97f10cc571b657833d0aa", "is_reserved": 0, "fusion_lat": 0.0}, {"type": "electric_scooter", "rental_uris": {"ios": "https://dc.lft.to/lastmile_qr_scan", "android": "https://dc.lft.to/lastmile_qr_scan"}, "lon": -76.97705316666666, "fusion_lon": 0.0, "is_disabled": 0, "lat": 38.90252916666667, "bike_id": "e5457bccee521160e5bba572d40e024a", "name": "e5457bccee521160e5bba572d40e024a", "is_reserved": 0, "fusion_lat": 0.0}, {"type": "electric_bike", "rental_uris": {"ios": "https://dc.lft.to/lastmile_qr_scan", "android": "https://dc.lft.to/lastmile_qr_scan"}, "lon": -77.01005833333333, "fusion_lon": 0.0, "is_disabled": 0, "lat": 38.955977833333336, "bike_id": "9f38f08d3a32e2bf84b8283327569a76", "name": "9f38f08d3a32e2bf84b8283327569a76", "is_reserved": 0, "fusion_lat": 0.0}, {"type": "electric_scooter", "rental_uris": {"ios": "https://dc.lft.to/lastmile_qr_scan", "android": "https://dc.lft.to/lastmile_qr_scan"}, "lon": -77.0388015, "fusion_lon": 0.0, "is_disabled": 0, "lat": 38.902518, "bike_id": "0ba39f39de90ebf329560400edc62eb7", "name": "0ba39f39de90ebf329560400edc62eb7", "is_reserved": 0, "fusion_lat": 0.0}, {"type": "electric_scooter", "rental_uris": {"ios": "https://dc.lft.to/lastmile_qr_scan", "android": "https://dc.lft.to/lastmile_qr_scan"}, "lon": -77.03961433333333, "fusion_lon": 0.0, "is_disabled": 0, "lat": 38.892437, "bike_id": "c08815de0248562bfe9a352d59c48ceb", "name": "c08815de0248562bfe9a352d59c48ceb", "is_reserved": 0, "fusion_lat": 0.0}, {"type": "electric_scooter", "rental_uris": {"ios": "https://dc.lft.to/lastmile_qr_scan", "android": "https://dc.lft.to/lastmile_qr_scan"}, "lon": -77.04367783333333, "fusion_lon": 0.0, "is_disabled": 0, "lat": 38.933231, "bike_id": "cc50430196979e5ebec14cae55f875f7", "name": "cc50430196979e5ebec14cae55f875f7", "is_reserved": 0, "fusion_lat": 0.0}, {"type": "electric_scooter", "rental_uris": {"ios": "https://dc.lft.to/lastmile_qr_scan", "android": "https://dc.lft.to/lastmile_qr_scan"}, "lon": -77.04229683333334, "fusion_lon": 0.0, "is_disabled": 0, "lat": 38.92170933333333, "bike_id": "984c442df91a22130b7607187b22a7ae", "name": "984c442df91a22130b7607187b22a7ae", "is_reserved": 0, "fusion_lat": 0.0}, {"type": "electric_scooter", "rental_uris": {"ios": "https://dc.lft.to/lastmile_qr_scan", "android": "https://dc.lft.to/lastmile_qr_scan"}, "lon": -77.0113385, "fusion_lon": 0.0, "is_disabled": 0, "lat": 38.88525883333333, "bike_id": "55f614bed2687cd056ef53a52dac1c16", "name": "55f614bed2687cd056ef53a52dac1c16", "is_reserved": 0, "fusion_lat": 0.0}, {"type": "electric_bike", "rental_uris": {"ios": "https://dc.lft.to/lastmile_qr_scan", "android": "https://dc.lft.to/lastmile_qr_scan"}, "lon": -77.17839716666667, "fusion_lon": 0.0, "is_disabled": 0, "lat": 39.0885465, "bike_id": "c3f4a34244dd54dd552184c3c0c16352", "name": "c3f4a34244dd54dd552184c3c0c16352", "is_reserved": 0, "fusion_lat": 0.0}, {"type": "electric_bike", "rental_uris": {"ios": "https://dc.lft.to/lastmile_qr_scan", "android": "https://dc.lft.to/lastmile_qr_scan"}, "lon": -77.01204366666667, "fusion_lon": 0.0, "is_disabled": 0, "lat": 38.872570833333334, "bike_id": "1e43c2793c401961a7a36679594de4bc", "name": "1e43c2793c401961a7a36679594de4bc", "is_reserved": 0, "fusion_lat": 0.0}, {"type": "electric_bike", "rental_uris": {"ios": "https://dc.lft.to/lastmile_qr_scan", "android": "https://dc.lft.to/lastmile_qr_scan"}, "lon": -77.2222855, "fusion_lon": 0.0, "is_disabled": 0, "lat": 38.92861666666667, "bike_id": "41b83d941c0f5084a9c9932b240d3fc8", "name": "41b83d941c0f5084a9c9932b240d3fc8", "is_reserved": 0, "fusion_lat": 0.0}, {"type": "electric_scooter", "rental_uris": {"ios": "https://dc.lft.to/lastmile_qr_scan", "android": "https://dc.lft.to/lastmile_qr_scan"}, "lon": -76.93991383333334, "fusion_lon": 0.0, "is_disabled": 0, "lat": 38.899835833333334, "bike_id": "3f9330baa57f8b83f1486bb97c2dd4f4", "name": "3f9330baa57f8b83f1486bb97c2dd4f4", "is_reserved": 0, "fusion_lat": 0.0}, {"type": "electric_scooter", "rental_uris": {"ios": "https://dc.lft.to/lastmile_qr_scan", "android": "https://dc.lft.to/lastmile_qr_scan"}, "lon": -77.03972233333333, "fusion_lon": 0.0, "is_disabled": 0, "lat": 38.898845333333334, "bike_id": "88178bd23d1556af85b3befef4325f87", "name": "88178bd23d1556af85b3befef4325f87", "is_reserved": 0, "fusion_lat": 0.0}, {"type": "electric_scooter", "rental_uris": {"ios": "https://dc.lft.to/lastmile_qr_scan", "android": "https://dc.lft.to/lastmile_qr_scan"}, "lon": -77.0328825, "fusion_lon": 0.0, "is_disabled": 0, "lat": 38.927490166666665, "bike_id": "2fa067939ae028efc053b03d1a0d7d03", "name": "2fa067939ae028efc053b03d1a0d7d03", "is_reserved": 0, "fusion_lat": 0.0}, {"type": "electric_bike", "rental_uris": {"ios": "https://dc.lft.to/lastmile_qr_scan", "android": "https://dc.lft.to/lastmile_qr_scan"}, "lon": -76.965172, "fusion_lon": 0.0, "is_disabled": 0, "lat": 38.874788833333334, "bike_id": "a956d7d5e96ae09d39a2767723cde65c", "name": "a956d7d5e96ae09d39a2767723cde65c", "is_reserved": 0, "fusion_lat": 0.0}, {"type": "electric_scooter", "rental_uris": {"ios": "https://dc.lft.to/lastmile_qr_scan", "android": "https://dc.lft.to/lastmile_qr_scan"}, "lon": -77.0503905, "fusion_lon": 0.0, "is_disabled": 0, "lat": 38.89278266666667, "bike_id": "9627a23378e01dfbe1cbee06a04f94ad", "name": "9627a23378e01dfbe1cbee06a04f94ad", "is_reserved": 0, "fusion_lat": 0.0}, {"type": "electric_bike", "rental_uris": {"ios": "https://dc.lft.to/lastmile_qr_scan", "android": "https://dc.lft.to/lastmile_qr_scan"}, "lon": -77.02811833333334, "fusion_lon": 0.0, "is_disabled": 0, "lat": 38.9142185, "bike_id": "bd28c27b70f0993be14e9119af36f26b", "name": "bd28c27b70f0993be14e9119af36f26b", "is_reserved": 0, "fusion_lat": 0.0}, {"type": "electric_scooter", "rental_uris": {"ios": "https://dc.lft.to/lastmile_qr_scan", "android": "https://dc.lft.to/lastmile_qr_scan"}, "lon": -77.026942, "fusion_lon": 0.0, "is_disabled": 0, "lat": 38.906795333333335, "bike_id": "a958051b59ab2fa21bd246f1a0138919", "name": "a958051b59ab2fa21bd246f1a0138919", "is_reserved": 0, "fusion_lat": 0.0}, {"type": "electric_scooter", "rental_uris": {"ios": "https://dc.lft.to/lastmile_qr_scan", "android": "https://dc.lft.to/lastmile_qr_scan"}, "lon": -77.043309, "fusion_lon": 0.0, "is_disabled": 0, "lat": 38.89223333333333, "bike_id": "b4f1648486d8b0b513d425a2c9b6581c", "name": "b4f1648486d8b0b513d425a2c9b6581c", "is_reserved": 0, "fusion_lat": 0.0}, {"type": "electric_scooter", "rental_uris": {"ios": "https://dc.lft.to/lastmile_qr_scan", "android": "https://dc.lft.to/lastmile_qr_scan"}, "lon": -77.02497383333333, "fusion_lon": 0.0, "is_disabled": 0, "lat": 38.91806183333333, "bike_id": "59bae4671a2999c3865e028898709530", "name": "59bae4671a2999c3865e028898709530", "is_reserved": 0, "fusion_lat": 0.0}, {"type": "electric_scooter", "rental_uris": {"ios": "https://dc.lft.to/lastmile_qr_scan", "android": "https://dc.lft.to/lastmile_qr_scan"}, "lon": -77.03286783333333, "fusion_lon": 0.0, "is_disabled": 0, "lat": 38.937728666666665, "bike_id": "27f167b6c401acbd46fd83a0d6b726ef", "name": "27f167b6c401acbd46fd83a0d6b726ef", "is_reserved": 0, "fusion_lat": 0.0}, {"type": "electric_scooter", "rental_uris": {"ios": "https://dc.lft.to/lastmile_qr_scan", "android": "https://dc.lft.to/lastmile_qr_scan"}, "lon": -77.036366, "fusion_lon": 0.0, "is_disabled": 0, "lat": 38.9371325, "bike_id": "9b224ca24f0a1bf74dd17d85b1a18226", "name": "9b224ca24f0a1bf74dd17d85b1a18226", "is_reserved": 0, "fusion_lat": 0.0}, {"type": "electric_scooter", "rental_uris": {"ios": "https://dc.lft.to/lastmile_qr_scan", "android": "https://dc.lft.to/lastmile_qr_scan"}, "lon": -77.03263616666666, "fusion_lon": 0.0, "is_disabled": 0, "lat": 38.9351385, "bike_id": "e1bb007ed6dc40b216d67896450884b0", "name": "e1bb007ed6dc40b216d67896450884b0", "is_reserved": 0, "fusion_lat": 0.0}, {"type": "electric_scooter", "rental_uris": {"ios": "https://dc.lft.to/lastmile_qr_scan", "android": "https://dc.lft.to/lastmile_qr_scan"}, "lon": -77.020108, "fusion_lon": 0.0, "is_disabled": 0, "lat": 38.911162833333336, "bike_id": "565e898a28ae71536b33ec484828ee64", "name": "565e898a28ae71536b33ec484828ee64", "is_reserved": 0, "fusion_lat": 0.0}, {"type": "electric_scooter", "rental_uris": {"ios": "https://dc.lft.to/lastmile_qr_scan", "android": "https://dc.lft.to/lastmile_qr_scan"}, "lon": -77.02315783333333, "fusion_lon": 0.0, "is_disabled": 0, "lat": 38.91791933333333, "bike_id": "9d64dbe41af15186a0cd2b87b9659d20", "name": "9d64dbe41af15186a0cd2b87b9659d20", "is_reserved": 0, "fusion_lat": 0.0}, {"type": "electric_scooter", "rental_uris": {"ios": "https://dc.lft.to/lastmile_qr_scan", "android": "https://dc.lft.to/lastmile_qr_scan"}, "lon": -76.99371433333333, "fusion_lon": 0.0, "is_disabled": 0, "lat": 38.90034033333333, "bike_id": "ccb9f0b43eb7f0e4806ec0d687ab258d", "name": "ccb9f0b43eb7f0e4806ec0d687ab258d", "is_reserved": 0, "fusion_lat": 0.0}, {"type": "electric_scooter", "rental_uris": {"ios": "https://dc.lft.to/lastmile_qr_scan", "android": "https://dc.lft.to/lastmile_qr_scan"}, "lon": -77.03174516666667, "fusion_lon": 0.0, "is_disabled": 0, "lat": 38.918141166666665, "bike_id": "5f4f0a161a2149440b660a8c98d9427c", "name": "5f4f0a161a2149440b660a8c98d9427c", "is_reserved": 0, "fusion_lat": 0.0}, {"type": "electric_scooter", "rental_uris": {"ios": "https://dc.lft.to/lastmile_qr_scan", "android": "https://dc.lft.to/lastmile_qr_scan"}, "lon": -77.02803416666667, "fusion_lon": 0.0, "is_disabled": 0, "lat": 38.892360833333335, "bike_id": "79f1f37dda99bf6c2bbfebf3c6b329c8", "name": "79f1f37dda99bf6c2bbfebf3c6b329c8", "is_reserved": 0, "fusion_lat": 0.0}, {"type": "electric_scooter", "rental_uris": {"ios": "https://dc.lft.to/lastmile_qr_scan", "android": "https://dc.lft.to/lastmile_qr_scan"}, "lon": -77.04141216666666, "fusion_lon": 0.0, "is_disabled": 0, "lat": 38.893524666666664, "bike_id": "9340d9820ff580a6699b28d5aa60f2fb", "name": "9340d9820ff580a6699b28d5aa60f2fb", "is_reserved": 0, "fusion_lat": 0.0}, {"type": "electric_scooter", "rental_uris": {"ios": "https://dc.lft.to/lastmile_qr_scan", "android": "https://dc.lft.to/lastmile_qr_scan"}, "lon": -77.046884, "fusion_lon": 0.0, "is_disabled": 0, "lat": 38.8922555, "bike_id": "582d593cb8a089c5031c7f18ae9191fa", "name": "582d593cb8a089c5031c7f18ae9191fa", "is_reserved": 0, "fusion_lat": 0.0}, {"type": "electric_scooter", "rental_uris": {"ios": "https://dc.lft.to/lastmile_qr_scan", "android": "https://dc.lft.to/lastmile_qr_scan"}, "lon": -76.99709716666666, "fusion_lon": 0.0, "is_disabled": 0, "lat": 38.84429566666667, "bike_id": "f7d10273cf630e8e746f62b9fcbd569b", "name": "f7d10273cf630e8e746f62b9fcbd569b", "is_reserved": 0, "fusion_lat": 0.0}, {"type": "electric_scooter", "rental_uris": {"ios": "https://dc.lft.to/lastmile_qr_scan", "android": "https://dc.lft.to/lastmile_qr_scan"}, "lon": -77.04200733333333, "fusion_lon": 0.0, "is_disabled": 0, "lat": 38.918695166666666, "bike_id": "7eced63c5b463d68cd02e552f6e475e1", "name": "7eced63c5b463d68cd02e552f6e475e1", "is_reserved": 0, "fusion_lat": 0.0}, {"type": "electric_scooter", "rental_uris": {"ios": "https://dc.lft.to/lastmile_qr_scan", "android": "https://dc.lft.to/lastmile_qr_scan"}, "lon": -77.048343, "fusion_lon": 0.0, "is_disabled": 0, "lat": 38.91031816666667, "bike_id": "ceb35e2c781be77cb96e954104ebcf42", "name": "ceb35e2c781be77cb96e954104ebcf42", "is_reserved": 0, "fusion_lat": 0.0}, {"type": "electric_scooter", "rental_uris": {"ios": "https://dc.lft.to/lastmile_qr_scan", "android": "https://dc.lft.to/lastmile_qr_scan"}, "lon": -77.03195866666667, "fusion_lon": 0.0, "is_disabled": 0, "lat": 38.91671216666667, "bike_id": "9101529339550ab140c73c77ab745533", "name": "9101529339550ab140c73c77ab745533", "is_reserved": 0, "fusion_lat": 0.0}, {"type": "electric_scooter", "rental_uris": {"ios": "https://dc.lft.to/lastmile_qr_scan", "android": "https://dc.lft.to/lastmile_qr_scan"}, "lon": -77.03194666666667, "fusion_lon": 0.0, "is_disabled": 0, "lat": 38.9095005, "bike_id": "6a9aeaf90a175028825db3360e608b0d", "name": "6a9aeaf90a175028825db3360e608b0d", "is_reserved": 0, "fusion_lat": 0.0}, {"type": "electric_scooter", "rental_uris": {"ios": "https://dc.lft.to/lastmile_qr_scan", "android": "https://dc.lft.to/lastmile_qr_scan"}, "lon": -77.055738, "fusion_lon": 0.0, "is_disabled": 0, "lat": 38.90012816666667, "bike_id": "487ae8ddf5f8eb2dc286195bb5464634", "name": "487ae8ddf5f8eb2dc286195bb5464634", "is_reserved": 0, "fusion_lat": 0.0}, {"type": "electric_scooter", "rental_uris": {"ios": "https://dc.lft.to/lastmile_qr_scan", "android": "https://dc.lft.to/lastmile_qr_scan"}, "lon": -77.03646866666666, "fusion_lon": 0.0, "is_disabled": 0, "lat": 38.91309183333333, "bike_id": "668c30a7bd64d93863a5ae103916a4ad", "name": "668c30a7bd64d93863a5ae103916a4ad", "is_reserved": 0, "fusion_lat": 0.0}, {"type": "electric_scooter", "rental_uris": {"ios": "https://dc.lft.to/lastmile_qr_scan", "android": "https://dc.lft.to/lastmile_qr_scan"}, "lon": -77.031901, "fusion_lon": 0.0, "is_disabled": 0, "lat": 38.909815333333334, "bike_id": "a6ac6cf236abce802cc7dbf6e98f9a25", "name": "a6ac6cf236abce802cc7dbf6e98f9a25", "is_reserved": 0, "fusion_lat": 0.0}, {"type": "electric_scooter", "rental_uris": {"ios": "https://dc.lft.to/lastmile_qr_scan", "android": "https://dc.lft.to/lastmile_qr_scan"}, "lon": -77.02700183333333, "fusion_lon": 0.0, "is_disabled": 0, "lat": 38.92568883333333, "bike_id": "ee3d3eafbd455ac675b2fc19ba4e11ea", "name": "ee3d3eafbd455ac675b2fc19ba4e11ea", "is_reserved": 0, "fusion_lat": 0.0}, {"type": "electric_scooter", "rental_uris": {"ios": "https://dc.lft.to/lastmile_qr_scan", "android": "https://dc.lft.to/lastmile_qr_scan"}, "lon": -77.004679, "fusion_lon": 0.0, "is_disabled": 0, "lat": 38.876658666666664, "bike_id": "aa8ae5c8ea7404706116d91f0e98a6a1", "name": "aa8ae5c8ea7404706116d91f0e98a6a1", "is_reserved": 0, "fusion_lat": 0.0}, {"type": "electric_scooter", "rental_uris": {"ios": "https://dc.lft.to/lastmile_qr_scan", "android": "https://dc.lft.to/lastmile_qr_scan"}, "lon": -77.032075, "fusion_lon": 0.0, "is_disabled": 0, "lat": 38.918481666666665, "bike_id": "2f5d8f1fab2cba9f26937d7418b96be5", "name": "2f5d8f1fab2cba9f26937d7418b96be5", "is_reserved": 0, "fusion_lat": 0.0}, {"type": "electric_bike", "rental_uris": {"ios": "https://dc.lft.to/lastmile_qr_scan", "android": "https://dc.lft.to/lastmile_qr_scan"}, "lon": -77.08122533333334, "fusion_lon": 0.0, "is_disabled": 0, "lat": 38.80680483333333, "bike_id": "d5b58e93ce56b7ff94c03dc6919816ed", "name": "d5b58e93ce56b7ff94c03dc6919816ed", "is_reserved": 0, "fusion_lat": 0.0}, {"type": "electric_scooter", "rental_uris": {"ios": "https://dc.lft.to/lastmile_qr_scan", "android": "https://dc.lft.to/lastmile_qr_scan"}, "lon": -77.03663283333333, "fusion_lon": 0.0, "is_disabled": 0, "lat": 38.926018666666664, "bike_id": "ef017c36f8b80dc8722733c78a6fcfa4", "name": "ef017c36f8b80dc8722733c78a6fcfa4", "is_reserved": 0, "fusion_lat": 0.0}, {"type": "electric_scooter", "rental_uris": {"ios": "https://dc.lft.to/lastmile_qr_scan", "android": "https://dc.lft.to/lastmile_qr_scan"}, "lon": -77.0489935, "fusion_lon": 0.0, "is_disabled": 0, "lat": 38.89227283333334, "bike_id": "d11f2f154e81f86932e06efc9423d231", "name": "d11f2f154e81f86932e06efc9423d231", "is_reserved": 0, "fusion_lat": 0.0}, {"type": "electric_scooter", "rental_uris": {"ios": "https://dc.lft.to/lastmile_qr_scan", "android": "https://dc.lft.to/lastmile_qr_scan"}, "lon": -77.0234195, "fusion_lon": 0.0, "is_disabled": 0, "lat": 38.9178285, "bike_id": "3ac79f812a1f8926efd227f288f09dee", "name": "3ac79f812a1f8926efd227f288f09dee", "is_reserved": 0, "fusion_lat": 0.0}, {"type": "electric_scooter", "rental_uris": {"ios": "https://dc.lft.to/lastmile_qr_scan", "android": "https://dc.lft.to/lastmile_qr_scan"}, "lon": -77.04012933333334, "fusion_lon": 0.0, "is_disabled": 0, "lat": 38.924354, "bike_id": "23b0129df4855ed47328406c38ab917d", "name": "23b0129df4855ed47328406c38ab917d", "is_reserved": 0, "fusion_lat": 0.0}, {"type": "electric_bike", "rental_uris": {"ios": "https://dc.lft.to/lastmile_qr_scan", "android": "https://dc.lft.to/lastmile_qr_scan"}, "lon": -76.91603483333333, "fusion_lon": 0.0, "is_disabled": 0, "lat": 38.87970133333334, "bike_id": "8f306081001f1f187c32d5f4510c9a15", "name": "8f306081001f1f187c32d5f4510c9a15", "is_reserved": 0, "fusion_lat": 0.0}, {"type": "electric_scooter", "rental_uris": {"ios": "https://dc.lft.to/lastmile_qr_scan", "android": "https://dc.lft.to/lastmile_qr_scan"}, "lon": -76.98006533333333, "fusion_lon": 0.0, "is_disabled": 0, "lat": 38.901188, "bike_id": "8a1eeb320ecb6d434311d992dd640fe2", "name": "8a1eeb320ecb6d434311d992dd640fe2", "is_reserved": 0, "fusion_lat": 0.0}, {"type": "electric_bike", "rental_uris": {"ios": "https://dc.lft.to/lastmile_qr_scan", "android": "https://dc.lft.to/lastmile_qr_scan"}, "lon": -76.97183416666667, "fusion_lon": 0.0, "is_disabled": 0, "lat": 38.917890666666665, "bike_id": "d55aba0a15b1b274fa703175034e23f7", "name": "d55aba0a15b1b274fa703175034e23f7", "is_reserved": 0, "fusion_lat": 0.0}, {"type": "electric_scooter", "rental_uris": {"ios": "https://dc.lft.to/lastmile_qr_scan", "android": "https://dc.lft.to/lastmile_qr_scan"}, "lon": -76.98708, "fusion_lon": 0.0, "is_disabled": 0, "lat": 38.8653455, "bike_id": "f93f7cf266e1f7b5eda0cc15b2050c9b", "name": "f93f7cf266e1f7b5eda0cc15b2050c9b", "is_reserved": 0, "fusion_lat": 0.0}, {"type": "electric_scooter", "rental_uris": {"ios": "https://dc.lft.to/lastmile_qr_scan", "android": "https://dc.lft.to/lastmile_qr_scan"}, "lon": -77.0297385, "fusion_lon": 0.0, "is_disabled": 0, "lat": 38.934712, "bike_id": "3290e439d7a0d44287cf5113e6290b49", "name": "3290e439d7a0d44287cf5113e6290b49", "is_reserved": 0, "fusion_lat": 0.0}, {"type": "electric_scooter", "rental_uris": {"ios": "https://dc.lft.to/lastmile_qr_scan", "android": "https://dc.lft.to/lastmile_qr_scan"}, "lon": -77.011371, "fusion_lon": 0.0, "is_disabled": 0, "lat": 38.88526866666667, "bike_id": "550368f8935bc1354e860ef2bbb6ee43", "name": "550368f8935bc1354e860ef2bbb6ee43", "is_reserved": 0, "fusion_lat": 0.0}, {"type": "electric_scooter", "rental_uris": {"ios": "https://dc.lft.to/lastmile_qr_scan", "android": "https://dc.lft.to/lastmile_qr_scan"}, "lon": -77.035033, "fusion_lon": 0.0, "is_disabled": 0, "lat": 38.921556, "bike_id": "4369561f13a448656b5c3be98326cc7f", "name": "4369561f13a448656b5c3be98326cc7f", "is_reserved": 0, "fusion_lat": 0.0}, {"type": "electric_scooter", "rental_uris": {"ios": "https://dc.lft.to/lastmile_qr_scan", "android": "https://dc.lft.to/lastmile_qr_scan"}, "lon": -77.04165816666666, "fusion_lon": 0.0, "is_disabled": 0, "lat": 38.91614833333333, "bike_id": "e74a4c629f905add8110e8e219ecc2b4", "name": "e74a4c629f905add8110e8e219ecc2b4", "is_reserved": 0, "fusion_lat": 0.0}, {"type": "electric_scooter", "rental_uris": {"ios": "https://dc.lft.to/lastmile_qr_scan", "android": "https://dc.lft.to/lastmile_qr_scan"}, "lon": -77.01769616666667, "fusion_lon": 0.0, "is_disabled": 0, "lat": 38.90560683333333, "bike_id": "ac06e040286bb11c9085db2ee67fdcf6", "name": "ac06e040286bb11c9085db2ee67fdcf6", "is_reserved": 0, "fusion_lat": 0.0}, {"type": "electric_bike", "rental_uris": {"ios": "https://dc.lft.to/lastmile_qr_scan", "android": "https://dc.lft.to/lastmile_qr_scan"}, "lon": -77.027753, "fusion_lon": 0.0, "is_disabled": 0, "lat": 38.92929816666667, "bike_id": "304cfb610447464db84dbe074104b2c8", "name": "304cfb610447464db84dbe074104b2c8", "is_reserved": 0, "fusion_lat": 0.0}, {"type": "electric_scooter", "rental_uris": {"ios": "https://dc.lft.to/lastmile_qr_scan", "android": "https://dc.lft.to/lastmile_qr_scan"}, "lon": -77.03173333333334, "fusion_lon": 0.0, "is_disabled": 0, "lat": 38.914191833333334, "bike_id": "8235bb351e185acca1e7a7f14daf6274", "name": "8235bb351e185acca1e7a7f14daf6274", "is_reserved": 0, "fusion_lat": 0.0}, {"type": "electric_scooter", "rental_uris": {"ios": "https://dc.lft.to/lastmile_qr_scan", "android": "https://dc.lft.to/lastmile_qr_scan"}, "lon": -77.024138, "fusion_lon": 0.0, "is_disabled": 0, "lat": 38.89197883333333, "bike_id": "44e01768af9220f264ea227c09920467", "name": "44e01768af9220f264ea227c09920467", "is_reserved": 0, "fusion_lat": 0.0}, {"type": "electric_scooter", "rental_uris": {"ios": "https://dc.lft.to/lastmile_qr_scan", "android": "https://dc.lft.to/lastmile_qr_scan"}, "lon": -77.05505966666666, "fusion_lon": 0.0, "is_disabled": 0, "lat": 38.936603, "bike_id": "34a794801a6934291387bed1381c42c8", "name": "34a794801a6934291387bed1381c42c8", "is_reserved": 0, "fusion_lat": 0.0}, {"type": "electric_bike", "rental_uris": {"ios": "https://dc.lft.to/lastmile_qr_scan", "android": "https://dc.lft.to/lastmile_qr_scan"}, "lon": -77.13147133333334, "fusion_lon": 0.0, "is_disabled": 0, "lat": 38.861714666666664, "bike_id": "073ac0ea443cd7309c39d5229b265c12", "name": "073ac0ea443cd7309c39d5229b265c12", "is_reserved": 0, "fusion_lat": 0.0}, {"type": "electric_scooter", "rental_uris": {"ios": "https://dc.lft.to/lastmile_qr_scan", "android": "https://dc.lft.to/lastmile_qr_scan"}, "lon": -77.02628716666666, "fusion_lon": 0.0, "is_disabled": 0, "lat": 38.887467, "bike_id": "579eed3e825a038eabfddca53265d272", "name": "579eed3e825a038eabfddca53265d272", "is_reserved": 0, "fusion_lat": 0.0}, {"type": "electric_scooter", "rental_uris": {"ios": "https://dc.lft.to/lastmile_qr_scan", "android": "https://dc.lft.to/lastmile_qr_scan"}, "lon": -77.02491116666667, "fusion_lon": 0.0, "is_disabled": 0, "lat": 38.94183966666667, "bike_id": "8f0f4ea5f3e76f3ba156c09fe7f01be1", "name": "8f0f4ea5f3e76f3ba156c09fe7f01be1", "is_reserved": 0, "fusion_lat": 0.0}, {"type": "electric_scooter", "rental_uris": {"ios": "https://dc.lft.to/lastmile_qr_scan", "android": "https://dc.lft.to/lastmile_qr_scan"}, "lon": -77.0269135, "fusion_lon": 0.0, "is_disabled": 0, "lat": 38.90679733333333, "bike_id": "15ef059bbf1efdd4df939311c94cb3fc", "name": "15ef059bbf1efdd4df939311c94cb3fc", "is_reserved": 0, "fusion_lat": 0.0}, {"type": "electric_scooter", "rental_uris": {"ios": "https://dc.lft.to/lastmile_qr_scan", "android": "https://dc.lft.to/lastmile_qr_scan"}, "lon": -77.05238483333333, "fusion_lon": 0.0, "is_disabled": 0, "lat": 38.923396833333335, "bike_id": "1e2ef4ef71e0a9846c723456b025b53c", "name": "1e2ef4ef71e0a9846c723456b025b53c", "is_reserved": 0, "fusion_lat": 0.0}, {"type": "electric_scooter", "rental_uris": {"ios": "https://dc.lft.to/lastmile_qr_scan", "android": "https://dc.lft.to/lastmile_qr_scan"}, "lon": -77.04243766666667, "fusion_lon": 0.0, "is_disabled": 0, "lat": 38.92193266666666, "bike_id": "7540719f2822e4ba95f5115f18f02cca", "name": "7540719f2822e4ba95f5115f18f02cca", "is_reserved": 0, "fusion_lat": 0.0}, {"type": "electric_scooter", "rental_uris": {"ios": "https://dc.lft.to/lastmile_qr_scan", "android": "https://dc.lft.to/lastmile_qr_scan"}, "lon": -77.04145233333334, "fusion_lon": 0.0, "is_disabled": 0, "lat": 38.89221083333333, "bike_id": "042e2b8efa7fc762b19a3fd865b32957", "name": "042e2b8efa7fc762b19a3fd865b32957", "is_reserved": 0, "fusion_lat": 0.0}, {"type": "electric_scooter", "rental_uris": {"ios": "https://dc.lft.to/lastmile_qr_scan", "android": "https://dc.lft.to/lastmile_qr_scan"}, "lon": -77.0269045, "fusion_lon": 0.0, "is_disabled": 0, "lat": 38.9112055, "bike_id": "16a1c56fbf29f6edb4e4330b6439ede3", "name": "16a1c56fbf29f6edb4e4330b6439ede3", "is_reserved": 0, "fusion_lat": 0.0}, {"type": "electric_scooter", "rental_uris": {"ios": "https://dc.lft.to/lastmile_qr_scan", "android": "https://dc.lft.to/lastmile_qr_scan"}, "lon": -76.98888316666667, "fusion_lon": 0.0, "is_disabled": 0, "lat": 38.866566166666665, "bike_id": "c6b73ed3d6e046d5e46c35e32dcb85e4", "name": "c6b73ed3d6e046d5e46c35e32dcb85e4", "is_reserved": 0, "fusion_lat": 0.0}, {"type": "electric_scooter", "rental_uris": {"ios": "https://dc.lft.to/lastmile_qr_scan", "android": "https://dc.lft.to/lastmile_qr_scan"}, "lon": -77.03297166666667, "fusion_lon": 0.0, "is_disabled": 0, "lat": 38.95642933333333, "bike_id": "454aed48fdd4953c388c9d6c90e9c1cd", "name": "454aed48fdd4953c388c9d6c90e9c1cd", "is_reserved": 0, "fusion_lat": 0.0}, {"type": "electric_scooter", "rental_uris": {"ios": "https://dc.lft.to/lastmile_qr_scan", "android": "https://dc.lft.to/lastmile_qr_scan"}, "lon": -77.05263416666666, "fusion_lon": 0.0, "is_disabled": 0, "lat": 38.92539383333333, "bike_id": "4ba003b95f7b75996dcec9c877725b8f", "name": "4ba003b95f7b75996dcec9c877725b8f", "is_reserved": 0, "fusion_lat": 0.0}, {"type": "electric_bike", "rental_uris": {"ios": "https://dc.lft.to/lastmile_qr_scan", "android": "https://dc.lft.to/lastmile_qr_scan"}, "lon": -77.12733183333333, "fusion_lon": 0.0, "is_disabled": 0, "lat": 38.89560383333333, "bike_id": "b9e2aa817be03ebda7e0842b0fdfa480", "name": "b9e2aa817be03ebda7e0842b0fdfa480", "is_reserved": 0, "fusion_lat": 0.0}, {"type": "electric_scooter", "rental_uris": {"ios": "https://dc.lft.to/lastmile_qr_scan", "android": "https://dc.lft.to/lastmile_qr_scan"}, "lon": -77.039278, "fusion_lon": 0.0, "is_disabled": 0, "lat": 38.917101333333335, "bike_id": "4ce47752c08b890dcf6bedc6d69fdbbb", "name": "4ce47752c08b890dcf6bedc6d69fdbbb", "is_reserved": 0, "fusion_lat": 0.0}, {"type": "electric_scooter", "rental_uris": {"ios": "https://dc.lft.to/lastmile_qr_scan", "android": "https://dc.lft.to/lastmile_qr_scan"}, "lon": -77.00717883333333, "fusion_lon": 0.0, "is_disabled": 0, "lat": 38.87669833333333, "bike_id": "c7d181b7a8875d4de2a1cb01cedede9d", "name": "c7d181b7a8875d4de2a1cb01cedede9d", "is_reserved": 0, "fusion_lat": 0.0}, {"type": "electric_scooter", "rental_uris": {"ios": "https://dc.lft.to/lastmile_qr_scan", "android": "https://dc.lft.to/lastmile_qr_scan"}, "lon": -77.033033, "fusion_lon": 0.0, "is_disabled": 0, "lat": 38.909738, "bike_id": "8f2e7bdb29a6f569398f8103670f4ccf", "name": "8f2e7bdb29a6f569398f8103670f4ccf", "is_reserved": 0, "fusion_lat": 0.0}, {"type": "electric_scooter", "rental_uris": {"ios": "https://dc.lft.to/lastmile_qr_scan", "android": "https://dc.lft.to/lastmile_qr_scan"}, "lon": -77.03485033333334, "fusion_lon": 0.0, "is_disabled": 0, "lat": 38.92481333333333, "bike_id": "4e42a6e962b0ddba75de30f56faf7c24", "name": "4e42a6e962b0ddba75de30f56faf7c24", "is_reserved": 0, "fusion_lat": 0.0}, {"type": "electric_scooter", "rental_uris": {"ios": "https://dc.lft.to/lastmile_qr_scan", "android": "https://dc.lft.to/lastmile_qr_scan"}, "lon": -77.02969866666666, "fusion_lon": 0.0, "is_disabled": 0, "lat": 38.923264333333336, "bike_id": "28675131114c83fd3f13e9b3eafa0b0c", "name": "28675131114c83fd3f13e9b3eafa0b0c", "is_reserved": 0, "fusion_lat": 0.0}, {"type": "electric_scooter", "rental_uris": {"ios": "https://dc.lft.to/lastmile_qr_scan", "android": "https://dc.lft.to/lastmile_qr_scan"}, "lon": -77.03432216666667, "fusion_lon": 0.0, "is_disabled": 0, "lat": 38.909741833333335, "bike_id": "b63a8c3a2f16a67d715918a614a1faee", "name": "b63a8c3a2f16a67d715918a614a1faee", "is_reserved": 0, "fusion_lat": 0.0}, {"type": "electric_scooter", "rental_uris": {"ios": "https://dc.lft.to/lastmile_qr_scan", "android": "https://dc.lft.to/lastmile_qr_scan"}, "lon": -76.98529483333333, "fusion_lon": 0.0, "is_disabled": 0, "lat": 38.8668645, "bike_id": "cfcfeb4dfb2552dc284f0fdc6367d593", "name": "cfcfeb4dfb2552dc284f0fdc6367d593", "is_reserved": 0, "fusion_lat": 0.0}, {"type": "electric_scooter", "rental_uris": {"ios": "https://dc.lft.to/lastmile_qr_scan", "android": "https://dc.lft.to/lastmile_qr_scan"}, "lon": -77.03166016666667, "fusion_lon": 0.0, "is_disabled": 0, "lat": 38.91558933333334, "bike_id": "3e451b76f3e6429b3564146e5fa9bb25", "name": "3e451b76f3e6429b3564146e5fa9bb25", "is_reserved": 0, "fusion_lat": 0.0}, {"type": "electric_scooter", "rental_uris": {"ios": "https://dc.lft.to/lastmile_qr_scan", "android": "https://dc.lft.to/lastmile_qr_scan"}, "lon": -77.02955333333334, "fusion_lon": 0.0, "is_disabled": 0, "lat": 38.92248566666667, "bike_id": "51d78d9e527f9701a51c9e91cf96e73c", "name": "51d78d9e527f9701a51c9e91cf96e73c", "is_reserved": 0, "fusion_lat": 0.0}, {"type": "electric_scooter", "rental_uris": {"ios": "https://dc.lft.to/lastmile_qr_scan", "android": "https://dc.lft.to/lastmile_qr_scan"}, "lon": -77.034546, "fusion_lon": 0.0, "is_disabled": 0, "lat": 38.937530833333334, "bike_id": "0b6c6ad27865b32555309a577b0f1e67", "name": "0b6c6ad27865b32555309a577b0f1e67", "is_reserved": 0, "fusion_lat": 0.0}, {"type": "electric_scooter", "rental_uris": {"ios": "https://dc.lft.to/lastmile_qr_scan", "android": "https://dc.lft.to/lastmile_qr_scan"}, "lon": -77.02849933333333, "fusion_lon": 0.0, "is_disabled": 0, "lat": 38.961133, "bike_id": "bd5eb5ebadd5a7a4542e071bf922198e", "name": "bd5eb5ebadd5a7a4542e071bf922198e", "is_reserved": 0, "fusion_lat": 0.0}, {"type": "electric_scooter", "rental_uris": {"ios": "https://dc.lft.to/lastmile_qr_scan", "android": "https://dc.lft.to/lastmile_qr_scan"}, "lon": -76.9489135, "fusion_lon": 0.0, "is_disabled": 0, "lat": 38.895278166666664, "bike_id": "3629e3cc585a3c38c4e246bb6b70a3d8", "name": "3629e3cc585a3c38c4e246bb6b70a3d8", "is_reserved": 0, "fusion_lat": 0.0}, {"type": "electric_scooter", "rental_uris": {"ios": "https://dc.lft.to/lastmile_qr_scan", "android": "https://dc.lft.to/lastmile_qr_scan"}, "lon": -76.99417083333333, "fusion_lon": 0.0, "is_disabled": 0, "lat": 38.8779985, "bike_id": "60618004c08728fc17da31c9209c779f", "name": "60618004c08728fc17da31c9209c779f", "is_reserved": 0, "fusion_lat": 0.0}, {"type": "electric_bike", "rental_uris": {"ios": "https://dc.lft.to/lastmile_qr_scan", "android": "https://dc.lft.to/lastmile_qr_scan"}, "lon": -77.06080433333334, "fusion_lon": 0.0, "is_disabled": 0, "lat": 38.88578733333333, "bike_id": "3aedc892aabd485f252ecb4651a53895", "name": "3aedc892aabd485f252ecb4651a53895", "is_reserved": 0, "fusion_lat": 0.0}, {"type": "electric_scooter", "rental_uris": {"ios": "https://dc.lft.to/lastmile_qr_scan", "android": "https://dc.lft.to/lastmile_qr_scan"}, "lon": -77.033566, "fusion_lon": 0.0, "is_disabled": 0, "lat": 38.93522333333333, "bike_id": "63eb1648f837ab7161b4468bc27052c1", "name": "63eb1648f837ab7161b4468bc27052c1", "is_reserved": 0, "fusion_lat": 0.0}, {"type": "electric_scooter", "rental_uris": {"ios": "https://dc.lft.to/lastmile_qr_scan", "android": "https://dc.lft.to/lastmile_qr_scan"}, "lon": -77.03108633333333, "fusion_lon": 0.0, "is_disabled": 0, "lat": 38.938587, "bike_id": "fb5704e8ce58c2246efe6a096f38f013", "name": "fb5704e8ce58c2246efe6a096f38f013", "is_reserved": 0, "fusion_lat": 0.0}, {"type": "electric_scooter", "rental_uris": {"ios": "https://dc.lft.to/lastmile_qr_scan", "android": "https://dc.lft.to/lastmile_qr_scan"}, "lon": -77.02195466666667, "fusion_lon": 0.0, "is_disabled": 0, "lat": 38.9112755, "bike_id": "2f3e129b24916bc4afa955a8d3640b2b", "name": "2f3e129b24916bc4afa955a8d3640b2b", "is_reserved": 0, "fusion_lat": 0.0}, {"type": "electric_scooter", "rental_uris": {"ios": "https://dc.lft.to/lastmile_qr_scan", "android": "https://dc.lft.to/lastmile_qr_scan"}, "lon": -77.0250125, "fusion_lon": 0.0, "is_disabled": 0, "lat": 38.919498833333336, "bike_id": "2bc565796c2c121d0de7a15540741139", "name": "2bc565796c2c121d0de7a15540741139", "is_reserved": 0, "fusion_lat": 0.0}, {"type": "electric_bike", "rental_uris": {"ios": "https://dc.lft.to/lastmile_qr_scan", "android": "https://dc.lft.to/lastmile_qr_scan"}, "lon": -77.09487733333333, "fusion_lon": 0.0, "is_disabled": 0, "lat": 39.0304375, "bike_id": "58adb9fd233a33aff4ca2a54fe91046f", "name": "58adb9fd233a33aff4ca2a54fe91046f", "is_reserved": 0, "fusion_lat": 0.0}, {"type": "electric_scooter", "rental_uris": {"ios": "https://dc.lft.to/lastmile_qr_scan", "android": "https://dc.lft.to/lastmile_qr_scan"}, "lon": -77.03290216666667, "fusion_lon": 0.0, "is_disabled": 0, "lat": 38.907756166666665, "bike_id": "b7ed11102a232ea272687a909cc3e190", "name": "b7ed11102a232ea272687a909cc3e190", "is_reserved": 0, "fusion_lat": 0.0}, {"type": "electric_scooter", "rental_uris": {"ios": "https://dc.lft.to/lastmile_qr_scan", "android": "https://dc.lft.to/lastmile_qr_scan"}, "lon": -77.01166583333334, "fusion_lon": 0.0, "is_disabled": 0, "lat": 38.90034566666667, "bike_id": "7dbeae32d7cdf918fcc42809751bd9dd", "name": "7dbeae32d7cdf918fcc42809751bd9dd", "is_reserved": 0, "fusion_lat": 0.0}, {"type": "electric_bike", "rental_uris": {"ios": "https://dc.lft.to/lastmile_qr_scan", "android": "https://dc.lft.to/lastmile_qr_scan"}, "lon": -77.13096183333333, "fusion_lon": 0.0, "is_disabled": 0, "lat": 39.024434666666664, "bike_id": "082ec67462613f166e5783f534cff349", "name": "082ec67462613f166e5783f534cff349", "is_reserved": 0, "fusion_lat": 0.0}, {"type": "electric_scooter", "rental_uris": {"ios": "https://dc.lft.to/lastmile_qr_scan", "android": "https://dc.lft.to/lastmile_qr_scan"}, "lon": -77.02656933333333, "fusion_lon": 0.0, "is_disabled": 0, "lat": 38.8922185, "bike_id": "7b967dfffed2d1161f8cef745d7ba715", "name": "7b967dfffed2d1161f8cef745d7ba715", "is_reserved": 0, "fusion_lat": 0.0}, {"type": "electric_scooter", "rental_uris": {"ios": "https://dc.lft.to/lastmile_qr_scan", "android": "https://dc.lft.to/lastmile_qr_scan"}, "lon": -77.03866466666666, "fusion_lon": 0.0, "is_disabled": 0, "lat": 38.915653166666665, "bike_id": "520ca04bf5cb303d67119b21ea4f84e2", "name": "520ca04bf5cb303d67119b21ea4f84e2", "is_reserved": 0, "fusion_lat": 0.0}, {"type": "electric_scooter", "rental_uris": {"ios": "https://dc.lft.to/lastmile_qr_scan", "android": "https://dc.lft.to/lastmile_qr_scan"}, "lon": -77.03727333333333, "fusion_lon": 0.0, "is_disabled": 0, "lat": 38.91714366666667, "bike_id": "71eb3007cf0b4ee5d261efb5dd036f6f", "name": "71eb3007cf0b4ee5d261efb5dd036f6f", "is_reserved": 0, "fusion_lat": 0.0}, {"type": "electric_scooter", "rental_uris": {"ios": "https://dc.lft.to/lastmile_qr_scan", "android": "https://dc.lft.to/lastmile_qr_scan"}, "lon": -77.02179566666666, "fusion_lon": 0.0, "is_disabled": 0, "lat": 38.909763166666664, "bike_id": "d2f5603d1ed7fe99a3de80dd7c3eb0a6", "name": "d2f5603d1ed7fe99a3de80dd7c3eb0a6", "is_reserved": 0, "fusion_lat": 0.0}, {"type": "electric_scooter", "rental_uris": {"ios": "https://dc.lft.to/lastmile_qr_scan", "android": "https://dc.lft.to/lastmile_qr_scan"}, "lon": -77.022212, "fusion_lon": 0.0, "is_disabled": 0, "lat": 38.91278283333333, "bike_id": "61987377079187ed985c97bd4dbf7fb7", "name": "61987377079187ed985c97bd4dbf7fb7", "is_reserved": 0, "fusion_lat": 0.0}, {"type": "electric_scooter", "rental_uris": {"ios": "https://dc.lft.to/lastmile_qr_scan", "android": "https://dc.lft.to/lastmile_qr_scan"}, "lon": -77.0354155, "fusion_lon": 0.0, "is_disabled": 0, "lat": 38.92644883333333, "bike_id": "de8331bc3678957e9817b646848f3780", "name": "de8331bc3678957e9817b646848f3780", "is_reserved": 0, "fusion_lat": 0.0}, {"type": "electric_scooter", "rental_uris": {"ios": "https://dc.lft.to/lastmile_qr_scan", "android": "https://dc.lft.to/lastmile_qr_scan"}, "lon": -77.02712866666667, "fusion_lon": 0.0, "is_disabled": 0, "lat": 38.90732633333333, "bike_id": "44abe8194fb17220b0cae759f92ad752", "name": "44abe8194fb17220b0cae759f92ad752", "is_reserved": 0, "fusion_lat": 0.0}, {"type": "electric_scooter", "rental_uris": {"ios": "https://dc.lft.to/lastmile_qr_scan", "android": "https://dc.lft.to/lastmile_qr_scan"}, "lon": -77.02800516666667, "fusion_lon": 0.0, "is_disabled": 0, "lat": 38.892308166666666, "bike_id": "8627441db30de58f615c8857fc39f2d7", "name": "8627441db30de58f615c8857fc39f2d7", "is_reserved": 0, "fusion_lat": 0.0}, {"type": "electric_scooter", "rental_uris": {"ios": "https://dc.lft.to/lastmile_qr_scan", "android": "https://dc.lft.to/lastmile_qr_scan"}, "lon": -77.02782316666666, "fusion_lon": 0.0, "is_disabled": 0, "lat": 38.8971785, "bike_id": "fe23fff09dd828de46d1e357f8be4629", "name": "fe23fff09dd828de46d1e357f8be4629", "is_reserved": 0, "fusion_lat": 0.0}, {"type": "electric_scooter", "rental_uris": {"ios": "https://dc.lft.to/lastmile_qr_scan", "android": "https://dc.lft.to/lastmile_qr_scan"}, "lon": -77.04328383333333, "fusion_lon": 0.0, "is_disabled": 0, "lat": 38.892254333333334, "bike_id": "091705e94375ea138cc19ab2e57a934b", "name": "091705e94375ea138cc19ab2e57a934b", "is_reserved": 0, "fusion_lat": 0.0}, {"type": "electric_scooter", "rental_uris": {"ios": "https://dc.lft.to/lastmile_qr_scan", "android": "https://dc.lft.to/lastmile_qr_scan"}, "lon": -77.01375433333334, "fusion_lon": 0.0, "is_disabled": 0, "lat": 38.892236833333335, "bike_id": "c4883b4d6025bf002df8b17208fef6cf", "name": "c4883b4d6025bf002df8b17208fef6cf", "is_reserved": 0, "fusion_lat": 0.0}, {"type": "electric_scooter", "rental_uris": {"ios": "https://dc.lft.to/lastmile_qr_scan", "android": "https://dc.lft.to/lastmile_qr_scan"}, "lon": -77.02489883333334, "fusion_lon": 0.0, "is_disabled": 0, "lat": 38.91911, "bike_id": "2681a8d8ebf997ca3aa3bc4074a58c71", "name": "2681a8d8ebf997ca3aa3bc4074a58c71", "is_reserved": 0, "fusion_lat": 0.0}, {"type": "electric_scooter", "rental_uris": {"ios": "https://dc.lft.to/lastmile_qr_scan", "android": "https://dc.lft.to/lastmile_qr_scan"}, "lon": -76.98925616666666, "fusion_lon": 0.0, "is_disabled": 0, "lat": 38.84078733333333, "bike_id": "0a7f04c8b7bc801df2596439d9700edc", "name": "0a7f04c8b7bc801df2596439d9700edc", "is_reserved": 0, "fusion_lat": 0.0}, {"type": "electric_scooter", "rental_uris": {"ios": "https://dc.lft.to/lastmile_qr_scan", "android": "https://dc.lft.to/lastmile_qr_scan"}, "lon": -77.033447, "fusion_lon": 0.0, "is_disabled": 0, "lat": 38.892239333333336, "bike_id": "e9aa57daf539843a2177f9d640af251f", "name": "e9aa57daf539843a2177f9d640af251f", "is_reserved": 0, "fusion_lat": 0.0}, {"type": "electric_scooter", "rental_uris": {"ios": "https://dc.lft.to/lastmile_qr_scan", "android": "https://dc.lft.to/lastmile_qr_scan"}, "lon": -77.00207533333334, "fusion_lon": 0.0, "is_disabled": 0, "lat": 38.900326166666666, "bike_id": "be5ce8f690c4eb9edb0d3cddd1523eb0", "name": "be5ce8f690c4eb9edb0d3cddd1523eb0", "is_reserved": 0, "fusion_lat": 0.0}, {"type": "electric_scooter", "rental_uris": {"ios": "https://dc.lft.to/lastmile_qr_scan", "android": "https://dc.lft.to/lastmile_qr_scan"}, "lon": -77.0768845, "fusion_lon": 0.0, "is_disabled": 0, "lat": 38.9422815, "bike_id": "ec553328915860b8eb6eb21428511410", "name": "ec553328915860b8eb6eb21428511410", "is_reserved": 0, "fusion_lat": 0.0}, {"type": "electric_scooter", "rental_uris": {"ios": "https://dc.lft.to/lastmile_qr_scan", "android": "https://dc.lft.to/lastmile_qr_scan"}, "lon": -77.04910366666667, "fusion_lon": 0.0, "is_disabled": 0, "lat": 38.900903166666666, "bike_id": "731ba64e569f3d34827ae074df756f87", "name": "731ba64e569f3d34827ae074df756f87", "is_reserved": 0, "fusion_lat": 0.0}, {"type": "electric_bike", "rental_uris": {"ios": "https://dc.lft.to/lastmile_qr_scan", "android": "https://dc.lft.to/lastmile_qr_scan"}, "lon": -77.11723883333333, "fusion_lon": 0.0, "is_disabled": 0, "lat": 39.05456816666667, "bike_id": "f19e463a24d832b5c59c3d3d0ef2e065", "name": "f19e463a24d832b5c59c3d3d0ef2e065", "is_reserved": 0, "fusion_lat": 0.0}, {"type": "electric_scooter", "rental_uris": {"ios": "https://dc.lft.to/lastmile_qr_scan", "android": "https://dc.lft.to/lastmile_qr_scan"}, "lon": -77.031237, "fusion_lon": 0.0, "is_disabled": 0, "lat": 38.9201895, "bike_id": "337dbe80d6ca0f3e1eac2247f9a95fe7", "name": "337dbe80d6ca0f3e1eac2247f9a95fe7", "is_reserved": 0, "fusion_lat": 0.0}, {"type": "electric_scooter", "rental_uris": {"ios": "https://dc.lft.to/lastmile_qr_scan", "android": "https://dc.lft.to/lastmile_qr_scan"}, "lon": -77.0391705, "fusion_lon": 0.0, "is_disabled": 0, "lat": 38.91819366666667, "bike_id": "2fe6ddd6935480c32bde5d9fc0a8164a", "name": "2fe6ddd6935480c32bde5d9fc0a8164a", "is_reserved": 0, "fusion_lat": 0.0}, {"type": "electric_scooter", "rental_uris": {"ios": "https://dc.lft.to/lastmile_qr_scan", "android": "https://dc.lft.to/lastmile_qr_scan"}, "lon": -77.02972433333333, "fusion_lon": 0.0, "is_disabled": 0, "lat": 38.9259175, "bike_id": "1fe25aa8cfa9bbbc1f15877ec353941a", "name": "1fe25aa8cfa9bbbc1f15877ec353941a", "is_reserved": 0, "fusion_lat": 0.0}, {"type": "electric_scooter", "rental_uris": {"ios": "https://dc.lft.to/lastmile_qr_scan", "android": "https://dc.lft.to/lastmile_qr_scan"}, "lon": -77.04443666666667, "fusion_lon": 0.0, "is_disabled": 0, "lat": 38.90988016666667, "bike_id": "d63c7548866cb932c5975860603ad454", "name": "d63c7548866cb932c5975860603ad454", "is_reserved": 0, "fusion_lat": 0.0}, {"type": "electric_scooter", "rental_uris": {"ios": "https://dc.lft.to/lastmile_qr_scan", "android": "https://dc.lft.to/lastmile_qr_scan"}, "lon": -77.0319665, "fusion_lon": 0.0, "is_disabled": 0, "lat": 38.89221233333333, "bike_id": "6015342b28950bb35961a4704c51f670", "name": "6015342b28950bb35961a4704c51f670", "is_reserved": 0, "fusion_lat": 0.0}, {"type": "electric_scooter", "rental_uris": {"ios": "https://dc.lft.to/lastmile_qr_scan", "android": "https://dc.lft.to/lastmile_qr_scan"}, "lon": -77.03658666666666, "fusion_lon": 0.0, "is_disabled": 0, "lat": 38.920256, "bike_id": "670e48b2bf65ff513abb3db2cd46c922", "name": "670e48b2bf65ff513abb3db2cd46c922", "is_reserved": 0, "fusion_lat": 0.0}, {"type": "electric_scooter", "rental_uris": {"ios": "https://dc.lft.to/lastmile_qr_scan", "android": "https://dc.lft.to/lastmile_qr_scan"}, "lon": -77.04071516666667, "fusion_lon": 0.0, "is_disabled": 0, "lat": 38.914173, "bike_id": "bb5f3cfcecfc0184ddb68d1533a174ee", "name": "bb5f3cfcecfc0184ddb68d1533a174ee", "is_reserved": 0, "fusion_lat": 0.0}, {"type": "electric_scooter", "rental_uris": {"ios": "https://dc.lft.to/lastmile_qr_scan", "android": "https://dc.lft.to/lastmile_qr_scan"}, "lon": -76.990281, "fusion_lon": 0.0, "is_disabled": 0, "lat": 38.89143766666667, "bike_id": "80b14fe01dae6268d655a99973a58677", "name": "80b14fe01dae6268d655a99973a58677", "is_reserved": 0, "fusion_lat": 0.0}, {"type": "electric_scooter", "rental_uris": {"ios": "https://dc.lft.to/lastmile_qr_scan", "android": "https://dc.lft.to/lastmile_qr_scan"}, "lon": -77.023367, "fusion_lon": 0.0, "is_disabled": 0, "lat": 38.91770066666667, "bike_id": "64c7a12ba48c483e6dfc483fa37b170e", "name": "64c7a12ba48c483e6dfc483fa37b170e", "is_reserved": 0, "fusion_lat": 0.0}, {"type": "electric_scooter", "rental_uris": {"ios": "https://dc.lft.to/lastmile_qr_scan", "android": "https://dc.lft.to/lastmile_qr_scan"}, "lon": -77.04681766666667, "fusion_lon": 0.0, "is_disabled": 0, "lat": 38.915874333333335, "bike_id": "defd806dd582134385911a82d1674431", "name": "defd806dd582134385911a82d1674431", "is_reserved": 0, "fusion_lat": 0.0}, {"type": "electric_bike", "rental_uris": {"ios": "https://dc.lft.to/lastmile_qr_scan", "android": "https://dc.lft.to/lastmile_qr_scan"}, "lon": -77.0296775, "fusion_lon": 0.0, "is_disabled": 0, "lat": 38.93718616666666, "bike_id": "fb44c1c0cd468c469e076b98e79ce05f", "name": "fb44c1c0cd468c469e076b98e79ce05f", "is_reserved": 0, "fusion_lat": 0.0}, {"type": "electric_scooter", "rental_uris": {"ios": "https://dc.lft.to/lastmile_qr_scan", "android": "https://dc.lft.to/lastmile_qr_scan"}, "lon": -77.03218733333334, "fusion_lon": 0.0, "is_disabled": 0, "lat": 38.892244166666664, "bike_id": "15a06881cfb0a1e39352f27177e4a3b6", "name": "15a06881cfb0a1e39352f27177e4a3b6", "is_reserved": 0, "fusion_lat": 0.0}, {"type": "electric_scooter", "rental_uris": {"ios": "https://dc.lft.to/lastmile_qr_scan", "android": "https://dc.lft.to/lastmile_qr_scan"}, "lon": -77.04333716666666, "fusion_lon": 0.0, "is_disabled": 0, "lat": 38.9081765, "bike_id": "8fd07a74a052eaca040548d874d33492", "name": "8fd07a74a052eaca040548d874d33492", "is_reserved": 0, "fusion_lat": 0.0}, {"type": "electric_scooter", "rental_uris": {"ios": "https://dc.lft.to/lastmile_qr_scan", "android": "https://dc.lft.to/lastmile_qr_scan"}, "lon": -77.02222266666666, "fusion_lon": 0.0, "is_disabled": 0, "lat": 38.892207666666664, "bike_id": "753d479a27916ff279dcdd0faecf2721", "name": "753d479a27916ff279dcdd0faecf2721", "is_reserved": 0, "fusion_lat": 0.0}, {"type": "electric_scooter", "rental_uris": {"ios": "https://dc.lft.to/lastmile_qr_scan", "android": "https://dc.lft.to/lastmile_qr_scan"}, "lon": -77.0802645, "fusion_lon": 0.0, "is_disabled": 0, "lat": 38.9092275, "bike_id": "1f0e02281bf38086c8bcddfa90c9579b", "name": "1f0e02281bf38086c8bcddfa90c9579b", "is_reserved": 0, "fusion_lat": 0.0}, {"type": "electric_bike", "rental_uris": {"ios": "https://dc.lft.to/lastmile_qr_scan", "android": "https://dc.lft.to/lastmile_qr_scan"}, "lon": -76.93547283333334, "fusion_lon": 0.0, "is_disabled": 0, "lat": 38.951842, "bike_id": "2bf552af099e2093a8a882e976655f07", "name": "2bf552af099e2093a8a882e976655f07", "is_reserved": 0, "fusion_lat": 0.0}, {"type": "electric_scooter", "rental_uris": {"ios": "https://dc.lft.to/lastmile_qr_scan", "android": "https://dc.lft.to/lastmile_qr_scan"}, "lon": -77.01845733333333, "fusion_lon": 0.0, "is_disabled": 0, "lat": 38.946335166666664, "bike_id": "e9a93330f536cc2b7b0bc91dc6c6b6e5", "name": "e9a93330f536cc2b7b0bc91dc6c6b6e5", "is_reserved": 0, "fusion_lat": 0.0}, {"type": "electric_scooter", "rental_uris": {"ios": "https://dc.lft.to/lastmile_qr_scan", "android": "https://dc.lft.to/lastmile_qr_scan"}, "lon": -77.04517883333334, "fusion_lon": 0.0, "is_disabled": 0, "lat": 38.91817833333333, "bike_id": "c2f517bd67d4088890528300c1b66f44", "name": "c2f517bd67d4088890528300c1b66f44", "is_reserved": 0, "fusion_lat": 0.0}, {"type": "electric_scooter", "rental_uris": {"ios": "https://dc.lft.to/lastmile_qr_scan", "android": "https://dc.lft.to/lastmile_qr_scan"}, "lon": -77.03136633333334, "fusion_lon": 0.0, "is_disabled": 0, "lat": 38.89224683333333, "bike_id": "9c0bb9da3eaf07385a4fc1503a263ae8", "name": "9c0bb9da3eaf07385a4fc1503a263ae8", "is_reserved": 0, "fusion_lat": 0.0}, {"type": "electric_scooter", "rental_uris": {"ios": "https://dc.lft.to/lastmile_qr_scan", "android": "https://dc.lft.to/lastmile_qr_scan"}, "lon": -77.02760933333333, "fusion_lon": 0.0, "is_disabled": 0, "lat": 38.90730283333333, "bike_id": "f91f37f56b3951fa358f6ab3f07f6b7f", "name": "f91f37f56b3951fa358f6ab3f07f6b7f", "is_reserved": 0, "fusion_lat": 0.0}, {"type": "electric_scooter", "rental_uris": {"ios": "https://dc.lft.to/lastmile_qr_scan", "android": "https://dc.lft.to/lastmile_qr_scan"}, "lon": -77.02584466666667, "fusion_lon": 0.0, "is_disabled": 0, "lat": 38.9041425, "bike_id": "889cbc0dc3ebc93216dd5920598c5089", "name": "889cbc0dc3ebc93216dd5920598c5089", "is_reserved": 0, "fusion_lat": 0.0}, {"type": "electric_scooter", "rental_uris": {"ios": "https://dc.lft.to/lastmile_qr_scan", "android": "https://dc.lft.to/lastmile_qr_scan"}, "lon": -77.02764566666667, "fusion_lon": 0.0, "is_disabled": 0, "lat": 38.90731183333333, "bike_id": "d7c05faa363859aa9d4df820a6046dd0", "name": "d7c05faa363859aa9d4df820a6046dd0", "is_reserved": 0, "fusion_lat": 0.0}, {"type": "electric_scooter", "rental_uris": {"ios": "https://dc.lft.to/lastmile_qr_scan", "android": "https://dc.lft.to/lastmile_qr_scan"}, "lon": -77.03182833333334, "fusion_lon": 0.0, "is_disabled": 0, "lat": 38.9190605, "bike_id": "b35598ae3faa18e4c94fb246685c159f", "name": "b35598ae3faa18e4c94fb246685c159f", "is_reserved": 0, "fusion_lat": 0.0}, {"type": "electric_scooter", "rental_uris": {"ios": "https://dc.lft.to/lastmile_qr_scan", "android": "https://dc.lft.to/lastmile_qr_scan"}, "lon": -77.02298183333333, "fusion_lon": 0.0, "is_disabled": 0, "lat": 38.916013666666665, "bike_id": "c613800a340c0847647b8529a4f1ba4f", "name": "c613800a340c0847647b8529a4f1ba4f", "is_reserved": 0, "fusion_lat": 0.0}, {"type": "electric_scooter", "rental_uris": {"ios": "https://dc.lft.to/lastmile_qr_scan", "android": "https://dc.lft.to/lastmile_qr_scan"}, "lon": -77.03509933333333, "fusion_lon": 0.0, "is_disabled": 0, "lat": 38.9187495, "bike_id": "b7812e773a180fa5532f0c5986cc6b9e", "name": "b7812e773a180fa5532f0c5986cc6b9e", "is_reserved": 0, "fusion_lat": 0.0}, {"type": "electric_scooter", "rental_uris": {"ios": "https://dc.lft.to/lastmile_qr_scan", "android": "https://dc.lft.to/lastmile_qr_scan"}, "lon": -76.99089933333333, "fusion_lon": 0.0, "is_disabled": 0, "lat": 38.882404666666666, "bike_id": "10a30393c8b7e3f623cf3cd2de700769", "name": "10a30393c8b7e3f623cf3cd2de700769", "is_reserved": 0, "fusion_lat": 0.0}, {"type": "electric_scooter", "rental_uris": {"ios": "https://dc.lft.to/lastmile_qr_scan", "android": "https://dc.lft.to/lastmile_qr_scan"}, "lon": -77.0441555, "fusion_lon": 0.0, "is_disabled": 0, "lat": 38.9259455, "bike_id": "697796475926f54116a5abb6f57ee50f", "name": "697796475926f54116a5abb6f57ee50f", "is_reserved": 0, "fusion_lat": 0.0}, {"type": "electric_scooter", "rental_uris": {"ios": "https://dc.lft.to/lastmile_qr_scan", "android": "https://dc.lft.to/lastmile_qr_scan"}, "lon": -77.04181733333333, "fusion_lon": 0.0, "is_disabled": 0, "lat": 38.90540566666667, "bike_id": "de7224f7abcf9a6e316a106985584771", "name": "de7224f7abcf9a6e316a106985584771", "is_reserved": 0, "fusion_lat": 0.0}, {"type": "electric_scooter", "rental_uris": {"ios": "https://dc.lft.to/lastmile_qr_scan", "android": "https://dc.lft.to/lastmile_qr_scan"}, "lon": -77.03210383333334, "fusion_lon": 0.0, "is_disabled": 0, "lat": 38.9185365, "bike_id": "ee525d9d7ed426533846bee7ea648479", "name": "ee525d9d7ed426533846bee7ea648479", "is_reserved": 0, "fusion_lat": 0.0}, {"type": "electric_scooter", "rental_uris": {"ios": "https://dc.lft.to/lastmile_qr_scan", "android": "https://dc.lft.to/lastmile_qr_scan"}, "lon": -77.0591415, "fusion_lon": 0.0, "is_disabled": 0, "lat": 38.902379833333335, "bike_id": "155beeaf5e33f105bc7eea501c7160d9", "name": "155beeaf5e33f105bc7eea501c7160d9", "is_reserved": 0, "fusion_lat": 0.0}, {"type": "electric_scooter", "rental_uris": {"ios": "https://dc.lft.to/lastmile_qr_scan", "android": "https://dc.lft.to/lastmile_qr_scan"}, "lon": -77.02228533333333, "fusion_lon": 0.0, "is_disabled": 0, "lat": 38.92095166666667, "bike_id": "3484966532adcab8fbe2c3826d6adaf7", "name": "3484966532adcab8fbe2c3826d6adaf7", "is_reserved": 0, "fusion_lat": 0.0}, {"type": "electric_scooter", "rental_uris": {"ios": "https://dc.lft.to/lastmile_qr_scan", "android": "https://dc.lft.to/lastmile_qr_scan"}, "lon": -76.99636966666667, "fusion_lon": 0.0, "is_disabled": 0, "lat": 38.90888283333334, "bike_id": "44a194dbbee0bc4c768b4f41c821fdd8", "name": "44a194dbbee0bc4c768b4f41c821fdd8", "is_reserved": 0, "fusion_lat": 0.0}, {"type": "electric_scooter", "rental_uris": {"ios": "https://dc.lft.to/lastmile_qr_scan", "android": "https://dc.lft.to/lastmile_qr_scan"}, "lon": -77.036369, "fusion_lon": 0.0, "is_disabled": 0, "lat": 38.906815, "bike_id": "910247a22e7cec89d1c171b3c45d4f55", "name": "910247a22e7cec89d1c171b3c45d4f55", "is_reserved": 0, "fusion_lat": 0.0}, {"type": "electric_scooter", "rental_uris": {"ios": "https://dc.lft.to/lastmile_qr_scan", "android": "https://dc.lft.to/lastmile_qr_scan"}, "lon": -77.04203966666667, "fusion_lon": 0.0, "is_disabled": 0, "lat": 38.90580583333333, "bike_id": "3b0aefb091ad1ef0f0bd1a8d9d57ffbb", "name": "3b0aefb091ad1ef0f0bd1a8d9d57ffbb", "is_reserved": 0, "fusion_lat": 0.0}, {"type": "electric_scooter", "rental_uris": {"ios": "https://dc.lft.to/lastmile_qr_scan", "android": "https://dc.lft.to/lastmile_qr_scan"}, "lon": -76.97717266666666, "fusion_lon": 0.0, "is_disabled": 0, "lat": 38.8886665, "bike_id": "dc5fefae53b1276f1d35d8676e0f6907", "name": "dc5fefae53b1276f1d35d8676e0f6907", "is_reserved": 0, "fusion_lat": 0.0}, {"type": "electric_scooter", "rental_uris": {"ios": "https://dc.lft.to/lastmile_qr_scan", "android": "https://dc.lft.to/lastmile_qr_scan"}, "lon": -77.03885483333333, "fusion_lon": 0.0, "is_disabled": 0, "lat": 38.902638333333336, "bike_id": "21e45276f94b67a64fd68acf9b1033e2", "name": "21e45276f94b67a64fd68acf9b1033e2", "is_reserved": 0, "fusion_lat": 0.0}, {"type": "electric_scooter", "rental_uris": {"ios": "https://dc.lft.to/lastmile_qr_scan", "android": "https://dc.lft.to/lastmile_qr_scan"}, "lon": -77.03865633333334, "fusion_lon": 0.0, "is_disabled": 0, "lat": 38.90975483333333, "bike_id": "317df55477ead6294896086744f4b995", "name": "317df55477ead6294896086744f4b995", "is_reserved": 0, "fusion_lat": 0.0}, {"type": "electric_scooter", "rental_uris": {"ios": "https://dc.lft.to/lastmile_qr_scan", "android": "https://dc.lft.to/lastmile_qr_scan"}, "lon": -77.035069, "fusion_lon": 0.0, "is_disabled": 0, "lat": 38.921534666666666, "bike_id": "2b32732e44631fa2f186afc5aa69facb", "name": "2b32732e44631fa2f186afc5aa69facb", "is_reserved": 0, "fusion_lat": 0.0}, {"type": "electric_scooter", "rental_uris": {"ios": "https://dc.lft.to/lastmile_qr_scan", "android": "https://dc.lft.to/lastmile_qr_scan"}, "lon": -77.0770945, "fusion_lon": 0.0, "is_disabled": 0, "lat": 38.94386933333333, "bike_id": "a8ef5c8dc3991d2a8ba90a05f98c95e7", "name": "a8ef5c8dc3991d2a8ba90a05f98c95e7", "is_reserved": 0, "fusion_lat": 0.0}, {"type": "electric_bike", "rental_uris": {"ios": "https://dc.lft.to/lastmile_qr_scan", "android": "https://dc.lft.to/lastmile_qr_scan"}, "lon": -77.039029, "fusion_lon": 0.0, "is_disabled": 0, "lat": 38.922225166666664, "bike_id": "ecb06e67b0e29c0c0d2f327b3396e15c", "name": "ecb06e67b0e29c0c0d2f327b3396e15c", "is_reserved": 0, "fusion_lat": 0.0}, {"type": "electric_scooter", "rental_uris": {"ios": "https://dc.lft.to/lastmile_qr_scan", "android": "https://dc.lft.to/lastmile_qr_scan"}, "lon": -77.0422245, "fusion_lon": 0.0, "is_disabled": 0, "lat": 38.9073685, "bike_id": "e99abf8496af8c98538be9d0d933edf2", "name": "e99abf8496af8c98538be9d0d933edf2", "is_reserved": 0, "fusion_lat": 0.0}, {"type": "electric_scooter", "rental_uris": {"ios": "https://dc.lft.to/lastmile_qr_scan", "android": "https://dc.lft.to/lastmile_qr_scan"}, "lon": -77.02685483333333, "fusion_lon": 0.0, "is_disabled": 0, "lat": 38.9060465, "bike_id": "a47ecc9dc3620c4f6c7fb276f9cf72ca", "name": "a47ecc9dc3620c4f6c7fb276f9cf72ca", "is_reserved": 0, "fusion_lat": 0.0}, {"type": "electric_bike", "rental_uris": {"ios": "https://dc.lft.to/lastmile_qr_scan", "android": "https://dc.lft.to/lastmile_qr_scan"}, "lon": -77.04928133333334, "fusion_lon": 0.0, "is_disabled": 0, "lat": 39.029329833333335, "bike_id": "56533dadea3f800a05cbdf1143defb26", "name": "56533dadea3f800a05cbdf1143defb26", "is_reserved": 0, "fusion_lat": 0.0}, {"type": "electric_scooter", "rental_uris": {"ios": "https://dc.lft.to/lastmile_qr_scan", "android": "https://dc.lft.to/lastmile_qr_scan"}, "lon": -77.04430166666667, "fusion_lon": 0.0, "is_disabled": 0, "lat": 38.921258333333334, "bike_id": "ca9c1864b062d99d3bb04cf7c27f0636", "name": "ca9c1864b062d99d3bb04cf7c27f0636", "is_reserved": 0, "fusion_lat": 0.0}, {"type": "electric_scooter", "rental_uris": {"ios": "https://dc.lft.to/lastmile_qr_scan", "android": "https://dc.lft.to/lastmile_qr_scan"}, "lon": -76.99827283333333, "fusion_lon": 0.0, "is_disabled": 0, "lat": 38.900290166666665, "bike_id": "13cdc415047226a6f13437b453c65c11", "name": "13cdc415047226a6f13437b453c65c11", "is_reserved": 0, "fusion_lat": 0.0}, {"type": "electric_scooter", "rental_uris": {"ios": "https://dc.lft.to/lastmile_qr_scan", "android": "https://dc.lft.to/lastmile_qr_scan"}, "lon": -77.03625733333334, "fusion_lon": 0.0, "is_disabled": 0, "lat": 38.936861, "bike_id": "d56a798fa6f7e6e5d89c22063d98a735", "name": "d56a798fa6f7e6e5d89c22063d98a735", "is_reserved": 0, "fusion_lat": 0.0}, {"type": "electric_scooter", "rental_uris": {"ios": "https://dc.lft.to/lastmile_qr_scan", "android": "https://dc.lft.to/lastmile_qr_scan"}, "lon": -77.01374333333334, "fusion_lon": 0.0, "is_disabled": 0, "lat": 38.89221666666667, "bike_id": "1f1567226c22ad90620db31701392dde", "name": "1f1567226c22ad90620db31701392dde", "is_reserved": 0, "fusion_lat": 0.0}, {"type": "electric_scooter", "rental_uris": {"ios": "https://dc.lft.to/lastmile_qr_scan", "android": "https://dc.lft.to/lastmile_qr_scan"}, "lon": -76.97020616666667, "fusion_lon": 0.0, "is_disabled": 0, "lat": 38.920344, "bike_id": "f000d8fc20adbf284f5d6c58d7c1b9d7", "name": "f000d8fc20adbf284f5d6c58d7c1b9d7", "is_reserved": 0, "fusion_lat": 0.0}, {"type": "electric_scooter", "rental_uris": {"ios": "https://dc.lft.to/lastmile_qr_scan", "android": "https://dc.lft.to/lastmile_qr_scan"}, "lon": -77.02220816666667, "fusion_lon": 0.0, "is_disabled": 0, "lat": 38.8922405, "bike_id": "72b8d9fcdd8e06df2051706d055af248", "name": "72b8d9fcdd8e06df2051706d055af248", "is_reserved": 0, "fusion_lat": 0.0}, {"type": "electric_scooter", "rental_uris": {"ios": "https://dc.lft.to/lastmile_qr_scan", "android": "https://dc.lft.to/lastmile_qr_scan"}, "lon": -77.03097416666667, "fusion_lon": 0.0, "is_disabled": 0, "lat": 38.90098283333333, "bike_id": "6b7a6117452005a33181f4de1e58fcaa", "name": "6b7a6117452005a33181f4de1e58fcaa", "is_reserved": 0, "fusion_lat": 0.0}, {"type": "electric_scooter", "rental_uris": {"ios": "https://dc.lft.to/lastmile_qr_scan", "android": "https://dc.lft.to/lastmile_qr_scan"}, "lon": -77.050591, "fusion_lon": 0.0, "is_disabled": 0, "lat": 38.923696166666666, "bike_id": "5e8d8b7af8dc93c28f6c03746b7bedb5", "name": "5e8d8b7af8dc93c28f6c03746b7bedb5", "is_reserved": 0, "fusion_lat": 0.0}, {"type": "electric_scooter", "rental_uris": {"ios": "https://dc.lft.to/lastmile_qr_scan", "android": "https://dc.lft.to/lastmile_qr_scan"}, "lon": -77.024278, "fusion_lon": 0.0, "is_disabled": 0, "lat": 38.92656616666667, "bike_id": "d123f7606df541efba062c74342748bc", "name": "d123f7606df541efba062c74342748bc", "is_reserved": 0, "fusion_lat": 0.0}, {"type": "electric_scooter", "rental_uris": {"ios": "https://dc.lft.to/lastmile_qr_scan", "android": "https://dc.lft.to/lastmile_qr_scan"}, "lon": -77.045712, "fusion_lon": 0.0, "is_disabled": 0, "lat": 38.9015, "bike_id": "0f0166ffb0c2407965ed28c03ca9e4ed", "name": "0f0166ffb0c2407965ed28c03ca9e4ed", "is_reserved": 0, "fusion_lat": 0.0}, {"type": "electric_scooter", "rental_uris": {"ios": "https://dc.lft.to/lastmile_qr_scan", "android": "https://dc.lft.to/lastmile_qr_scan"}, "lon": -77.03031366666667, "fusion_lon": 0.0, "is_disabled": 0, "lat": 38.92681733333333, "bike_id": "e964e9c3550843439f007f9c5abe9dd0", "name": "e964e9c3550843439f007f9c5abe9dd0", "is_reserved": 0, "fusion_lat": 0.0}, {"type": "electric_scooter", "rental_uris": {"ios": "https://dc.lft.to/lastmile_qr_scan", "android": "https://dc.lft.to/lastmile_qr_scan"}, "lon": -77.03076916666667, "fusion_lon": 0.0, "is_disabled": 0, "lat": 38.917544666666664, "bike_id": "5d7dd8996c1908c80dd987ee3cf6f934", "name": "5d7dd8996c1908c80dd987ee3cf6f934", "is_reserved": 0, "fusion_lat": 0.0}, {"type": "electric_scooter", "rental_uris": {"ios": "https://dc.lft.to/lastmile_qr_scan", "android": "https://dc.lft.to/lastmile_qr_scan"}, "lon": -77.02190733333333, "fusion_lon": 0.0, "is_disabled": 0, "lat": 38.9108125, "bike_id": "e5655c49ffb5229967c5ff210131c0af", "name": "e5655c49ffb5229967c5ff210131c0af", "is_reserved": 0, "fusion_lat": 0.0}, {"type": "electric_scooter", "rental_uris": {"ios": "https://dc.lft.to/lastmile_qr_scan", "android": "https://dc.lft.to/lastmile_qr_scan"}, "lon": -77.04025916666667, "fusion_lon": 0.0, "is_disabled": 0, "lat": 38.922126666666664, "bike_id": "5fa6aa82526d9c340b36f68c35005480", "name": "5fa6aa82526d9c340b36f68c35005480", "is_reserved": 0, "fusion_lat": 0.0}, {"type": "electric_scooter", "rental_uris": {"ios": "https://dc.lft.to/lastmile_qr_scan", "android": "https://dc.lft.to/lastmile_qr_scan"}, "lon": -77.03165016666667, "fusion_lon": 0.0, "is_disabled": 0, "lat": 38.89226716666667, "bike_id": "2dd41d13b36f6c1816e73f1472ebf6ef", "name": "2dd41d13b36f6c1816e73f1472ebf6ef", "is_reserved": 0, "fusion_lat": 0.0}, {"type": "electric_scooter", "rental_uris": {"ios": "https://dc.lft.to/lastmile_qr_scan", "android": "https://dc.lft.to/lastmile_qr_scan"}, "lon": -77.03628383333333, "fusion_lon": 0.0, "is_disabled": 0, "lat": 38.910001, "bike_id": "577ef302373f1547e40c1066b8082cbd", "name": "577ef302373f1547e40c1066b8082cbd", "is_reserved": 0, "fusion_lat": 0.0}, {"type": "electric_scooter", "rental_uris": {"ios": "https://dc.lft.to/lastmile_qr_scan", "android": "https://dc.lft.to/lastmile_qr_scan"}, "lon": -77.0466525, "fusion_lon": 0.0, "is_disabled": 0, "lat": 38.8924125, "bike_id": "e9864b47c29eca2962fd56bbc3195356", "name": "e9864b47c29eca2962fd56bbc3195356", "is_reserved": 0, "fusion_lat": 0.0}, {"type": "electric_scooter", "rental_uris": {"ios": "https://dc.lft.to/lastmile_qr_scan", "android": "https://dc.lft.to/lastmile_qr_scan"}, "lon": -77.03451766666667, "fusion_lon": 0.0, "is_disabled": 0, "lat": 38.907365, "bike_id": "edc44d54fc796c3d9066ee7f8bc6e8c2", "name": "edc44d54fc796c3d9066ee7f8bc6e8c2", "is_reserved": 0, "fusion_lat": 0.0}, {"type": "electric_scooter", "rental_uris": {"ios": "https://dc.lft.to/lastmile_qr_scan", "android": "https://dc.lft.to/lastmile_qr_scan"}, "lon": -77.0233235, "fusion_lon": 0.0, "is_disabled": 0, "lat": 38.935998833333336, "bike_id": "ceb03f4a21bbddefea3b239dcaa8225a", "name": "ceb03f4a21bbddefea3b239dcaa8225a", "is_reserved": 0, "fusion_lat": 0.0}, {"type": "electric_bike", "rental_uris": {"ios": "https://dc.lft.to/lastmile_qr_scan", "android": "https://dc.lft.to/lastmile_qr_scan"}, "lon": -76.98109633333334, "fusion_lon": 0.0, "is_disabled": 0, "lat": 38.877323, "bike_id": "520fa2441f5bba503d6538606a4d7c3a", "name": "520fa2441f5bba503d6538606a4d7c3a", "is_reserved": 0, "fusion_lat": 0.0}, {"type": "electric_scooter", "rental_uris": {"ios": "https://dc.lft.to/lastmile_qr_scan", "android": "https://dc.lft.to/lastmile_qr_scan"}, "lon": -77.04159933333334, "fusion_lon": 0.0, "is_disabled": 0, "lat": 38.915194166666666, "bike_id": "f4300ecc53d1ce834286ab28bf299c2e", "name": "f4300ecc53d1ce834286ab28bf299c2e", "is_reserved": 0, "fusion_lat": 0.0}, {"type": "electric_scooter", "rental_uris": {"ios": "https://dc.lft.to/lastmile_qr_scan", "android": "https://dc.lft.to/lastmile_qr_scan"}, "lon": -77.025963, "fusion_lon": 0.0, "is_disabled": 0, "lat": 38.94203866666667, "bike_id": "c0d8d28f70eccf32d613cdaffa4623ce", "name": "c0d8d28f70eccf32d613cdaffa4623ce", "is_reserved": 0, "fusion_lat": 0.0}, {"type": "electric_scooter", "rental_uris": {"ios": "https://dc.lft.to/lastmile_qr_scan", "android": "https://dc.lft.to/lastmile_qr_scan"}, "lon": -77.00591966666667, "fusion_lon": 0.0, "is_disabled": 0, "lat": 38.905788, "bike_id": "f6f3c5646cc1d91653876fa60e50e234", "name": "f6f3c5646cc1d91653876fa60e50e234", "is_reserved": 0, "fusion_lat": 0.0}, {"type": "electric_scooter", "rental_uris": {"ios": "https://dc.lft.to/lastmile_qr_scan", "android": "https://dc.lft.to/lastmile_qr_scan"}, "lon": -77.03503116666667, "fusion_lon": 0.0, "is_disabled": 0, "lat": 38.91710633333334, "bike_id": "17d6766079940886cea4fc5d0eab7aaf", "name": "17d6766079940886cea4fc5d0eab7aaf", "is_reserved": 0, "fusion_lat": 0.0}, {"type": "electric_scooter", "rental_uris": {"ios": "https://dc.lft.to/lastmile_qr_scan", "android": "https://dc.lft.to/lastmile_qr_scan"}, "lon": -77.02038683333333, "fusion_lon": 0.0, "is_disabled": 0, "lat": 38.898577, "bike_id": "2103dd691818b932a20f5d872d3ca0c0", "name": "2103dd691818b932a20f5d872d3ca0c0", "is_reserved": 0, "fusion_lat": 0.0}, {"type": "electric_scooter", "rental_uris": {"ios": "https://dc.lft.to/lastmile_qr_scan", "android": "https://dc.lft.to/lastmile_qr_scan"}, "lon": -77.043869, "fusion_lon": 0.0, "is_disabled": 0, "lat": 38.9022775, "bike_id": "3fbbdb2a5ca1ff0401861143d018f366", "name": "3fbbdb2a5ca1ff0401861143d018f366", "is_reserved": 0, "fusion_lat": 0.0}, {"type": "electric_scooter", "rental_uris": {"ios": "https://dc.lft.to/lastmile_qr_scan", "android": "https://dc.lft.to/lastmile_qr_scan"}, "lon": -77.02287083333333, "fusion_lon": 0.0, "is_disabled": 0, "lat": 38.916887333333335, "bike_id": "487e5d642bf29fc4aca2e4c55e5d2070", "name": "487e5d642bf29fc4aca2e4c55e5d2070", "is_reserved": 0, "fusion_lat": 0.0}, {"type": "electric_scooter", "rental_uris": {"ios": "https://dc.lft.to/lastmile_qr_scan", "android": "https://dc.lft.to/lastmile_qr_scan"}, "lon": -77.045221, "fusion_lon": 0.0, "is_disabled": 0, "lat": 38.93313883333333, "bike_id": "96665f7c2936b47cfbbbbf4ee5b1da64", "name": "96665f7c2936b47cfbbbbf4ee5b1da64", "is_reserved": 0, "fusion_lat": 0.0}, {"type": "electric_scooter", "rental_uris": {"ios": "https://dc.lft.to/lastmile_qr_scan", "android": "https://dc.lft.to/lastmile_qr_scan"}, "lon": -77.04659733333334, "fusion_lon": 0.0, "is_disabled": 0, "lat": 38.89241366666667, "bike_id": "33eb6f7ce402db5bc94dba4bd5928773", "name": "33eb6f7ce402db5bc94dba4bd5928773", "is_reserved": 0, "fusion_lat": 0.0}, {"type": "electric_scooter", "rental_uris": {"ios": "https://dc.lft.to/lastmile_qr_scan", "android": "https://dc.lft.to/lastmile_qr_scan"}, "lon": -77.03973166666667, "fusion_lon": 0.0, "is_disabled": 0, "lat": 38.8990695, "bike_id": "0cf67f9415caaa63e1cebc284a7cfae6", "name": "0cf67f9415caaa63e1cebc284a7cfae6", "is_reserved": 0, "fusion_lat": 0.0}, {"type": "electric_scooter", "rental_uris": {"ios": "https://dc.lft.to/lastmile_qr_scan", "android": "https://dc.lft.to/lastmile_qr_scan"}, "lon": -76.946387, "fusion_lon": 0.0, "is_disabled": 0, "lat": 38.89845016666666, "bike_id": "8cf53054b5edf10d8d6e9f95705ab380", "name": "8cf53054b5edf10d8d6e9f95705ab380", "is_reserved": 0, "fusion_lat": 0.0}, {"type": "electric_scooter", "rental_uris": {"ios": "https://dc.lft.to/lastmile_qr_scan", "android": "https://dc.lft.to/lastmile_qr_scan"}, "lon": -77.04647766666666, "fusion_lon": 0.0, "is_disabled": 0, "lat": 38.89226216666667, "bike_id": "333c8097e7b39449acd82f79686fd76f", "name": "333c8097e7b39449acd82f79686fd76f", "is_reserved": 0, "fusion_lat": 0.0}, {"type": "electric_scooter", "rental_uris": {"ios": "https://dc.lft.to/lastmile_qr_scan", "android": "https://dc.lft.to/lastmile_qr_scan"}, "lon": -77.026533, "fusion_lon": 0.0, "is_disabled": 0, "lat": 38.924763666666664, "bike_id": "50e57b636fcd10552096e1445d478dae", "name": "50e57b636fcd10552096e1445d478dae", "is_reserved": 0, "fusion_lat": 0.0}, {"type": "electric_scooter", "rental_uris": {"ios": "https://dc.lft.to/lastmile_qr_scan", "android": "https://dc.lft.to/lastmile_qr_scan"}, "lon": -76.98686516666666, "fusion_lon": 0.0, "is_disabled": 0, "lat": 38.867230166666666, "bike_id": "20357b7ec9d1fb572c6fd53d6984a324", "name": "20357b7ec9d1fb572c6fd53d6984a324", "is_reserved": 0, "fusion_lat": 0.0}, {"type": "electric_scooter", "rental_uris": {"ios": "https://dc.lft.to/lastmile_qr_scan", "android": "https://dc.lft.to/lastmile_qr_scan"}, "lon": -77.0316475, "fusion_lon": 0.0, "is_disabled": 0, "lat": 38.897847166666665, "bike_id": "0c8394c06cf186bf81c67740f9897e27", "name": "0c8394c06cf186bf81c67740f9897e27", "is_reserved": 0, "fusion_lat": 0.0}, {"type": "electric_bike", "rental_uris": {"ios": "https://dc.lft.to/lastmile_qr_scan", "android": "https://dc.lft.to/lastmile_qr_scan"}, "lon": -76.94621383333333, "fusion_lon": 0.0, "is_disabled": 0, "lat": 38.832311, "bike_id": "aabfb560aff860d9c44f9ab429e275f4", "name": "aabfb560aff860d9c44f9ab429e275f4", "is_reserved": 0, "fusion_lat": 0.0}, {"type": "electric_scooter", "rental_uris": {"ios": "https://dc.lft.to/lastmile_qr_scan", "android": "https://dc.lft.to/lastmile_qr_scan"}, "lon": -77.039371, "fusion_lon": 0.0, "is_disabled": 0, "lat": 38.91563766666667, "bike_id": "8edd689619824a552110a18208bb535a", "name": "8edd689619824a552110a18208bb535a", "is_reserved": 0, "fusion_lat": 0.0}, {"type": "electric_bike", "rental_uris": {"ios": "https://dc.lft.to/lastmile_qr_scan", "android": "https://dc.lft.to/lastmile_qr_scan"}, "lon": -77.05343333333333, "fusion_lon": 0.0, "is_disabled": 0, "lat": 38.9038285, "bike_id": "d603c9e1f045a09093be4e1b37954baf", "name": "d603c9e1f045a09093be4e1b37954baf", "is_reserved": 0, "fusion_lat": 0.0}, {"type": "electric_scooter", "rental_uris": {"ios": "https://dc.lft.to/lastmile_qr_scan", "android": "https://dc.lft.to/lastmile_qr_scan"}, "lon": -76.9774295, "fusion_lon": 0.0, "is_disabled": 0, "lat": 38.86833416666666, "bike_id": "95d3997a90275244304ee037e213a83e", "name": "95d3997a90275244304ee037e213a83e", "is_reserved": 0, "fusion_lat": 0.0}, {"type": "electric_scooter", "rental_uris": {"ios": "https://dc.lft.to/lastmile_qr_scan", "android": "https://dc.lft.to/lastmile_qr_scan"}, "lon": -77.017654, "fusion_lon": 0.0, "is_disabled": 0, "lat": 38.8767405, "bike_id": "f8bf509ab96340b67eaadf39242ddf7e", "name": "f8bf509ab96340b67eaadf39242ddf7e", "is_reserved": 0, "fusion_lat": 0.0}, {"type": "electric_scooter", "rental_uris": {"ios": "https://dc.lft.to/lastmile_qr_scan", "android": "https://dc.lft.to/lastmile_qr_scan"}, "lon": -77.03162366666666, "fusion_lon": 0.0, "is_disabled": 0, "lat": 38.89224316666667, "bike_id": "b01c8d5fe103f6777f291f05daf96961", "name": "b01c8d5fe103f6777f291f05daf96961", "is_reserved": 0, "fusion_lat": 0.0}, {"type": "electric_scooter", "rental_uris": {"ios": "https://dc.lft.to/lastmile_qr_scan", "android": "https://dc.lft.to/lastmile_qr_scan"}, "lon": -77.0362965, "fusion_lon": 0.0, "is_disabled": 0, "lat": 38.93741433333334, "bike_id": "3e170b168966bf5d39ad8cd51bdbbb61", "name": "3e170b168966bf5d39ad8cd51bdbbb61", "is_reserved": 0, "fusion_lat": 0.0}, {"type": "electric_scooter", "rental_uris": {"ios": "https://dc.lft.to/lastmile_qr_scan", "android": "https://dc.lft.to/lastmile_qr_scan"}, "lon": -77.04649816666667, "fusion_lon": 0.0, "is_disabled": 0, "lat": 38.896446166666664, "bike_id": "31b8c8952824a0070b5c977a2f585c97", "name": "31b8c8952824a0070b5c977a2f585c97", "is_reserved": 0, "fusion_lat": 0.0}, {"type": "electric_scooter", "rental_uris": {"ios": "https://dc.lft.to/lastmile_qr_scan", "android": "https://dc.lft.to/lastmile_qr_scan"}, "lon": -77.053173, "fusion_lon": 0.0, "is_disabled": 0, "lat": 38.900792, "bike_id": "e0b5208dab9ff624c980ad914760c9ac", "name": "e0b5208dab9ff624c980ad914760c9ac", "is_reserved": 0, "fusion_lat": 0.0}, {"type": "electric_scooter", "rental_uris": {"ios": "https://dc.lft.to/lastmile_qr_scan", "android": "https://dc.lft.to/lastmile_qr_scan"}, "lon": -77.0399965, "fusion_lon": 0.0, "is_disabled": 0, "lat": 38.91411166666666, "bike_id": "28ce7ddca2db6ec5a0f9aa7c28c432e5", "name": "28ce7ddca2db6ec5a0f9aa7c28c432e5", "is_reserved": 0, "fusion_lat": 0.0}, {"type": "electric_scooter", "rental_uris": {"ios": "https://dc.lft.to/lastmile_qr_scan", "android": "https://dc.lft.to/lastmile_qr_scan"}, "lon": -77.04673683333333, "fusion_lon": 0.0, "is_disabled": 0, "lat": 38.90543566666667, "bike_id": "1283d87381505bbf5249c991d31c6cb2", "name": "1283d87381505bbf5249c991d31c6cb2", "is_reserved": 0, "fusion_lat": 0.0}, {"type": "electric_scooter", "rental_uris": {"ios": "https://dc.lft.to/lastmile_qr_scan", "android": "https://dc.lft.to/lastmile_qr_scan"}, "lon": -77.03836983333333, "fusion_lon": 0.0, "is_disabled": 0, "lat": 38.91109516666667, "bike_id": "fc063fc26ea08f20d8c4a99d4f93315a", "name": "fc063fc26ea08f20d8c4a99d4f93315a", "is_reserved": 0, "fusion_lat": 0.0}, {"type": "electric_scooter", "rental_uris": {"ios": "https://dc.lft.to/lastmile_qr_scan", "android": "https://dc.lft.to/lastmile_qr_scan"}, "lon": -77.01536483333334, "fusion_lon": 0.0, "is_disabled": 0, "lat": 38.88736183333333, "bike_id": "36772a083e5f289473a963a83bec0f56", "name": "36772a083e5f289473a963a83bec0f56", "is_reserved": 0, "fusion_lat": 0.0}, {"type": "electric_scooter", "rental_uris": {"ios": "https://dc.lft.to/lastmile_qr_scan", "android": "https://dc.lft.to/lastmile_qr_scan"}, "lon": -77.01538316666667, "fusion_lon": 0.0, "is_disabled": 0, "lat": 38.88415066666666, "bike_id": "03b5bcdf2900ddbf920d9b9e5e763b68", "name": "03b5bcdf2900ddbf920d9b9e5e763b68", "is_reserved": 0, "fusion_lat": 0.0}, {"type": "electric_scooter", "rental_uris": {"ios": "https://dc.lft.to/lastmile_qr_scan", "android": "https://dc.lft.to/lastmile_qr_scan"}, "lon": -77.03164816666667, "fusion_lon": 0.0, "is_disabled": 0, "lat": 38.89772933333333, "bike_id": "bac0cc2f1f1e81318ea62aacbae49aa0", "name": "bac0cc2f1f1e81318ea62aacbae49aa0", "is_reserved": 0, "fusion_lat": 0.0}, {"type": "electric_scooter", "rental_uris": {"ios": "https://dc.lft.to/lastmile_qr_scan", "android": "https://dc.lft.to/lastmile_qr_scan"}, "lon": -77.02538216666666, "fusion_lon": 0.0, "is_disabled": 0, "lat": 38.91273183333333, "bike_id": "ecc91ace4c8cb8fb9fe5cf448e622363", "name": "ecc91ace4c8cb8fb9fe5cf448e622363", "is_reserved": 0, "fusion_lat": 0.0}, {"type": "electric_bike", "rental_uris": {"ios": "https://dc.lft.to/lastmile_qr_scan", "android": "https://dc.lft.to/lastmile_qr_scan"}, "lon": -77.06570133333334, "fusion_lon": 0.0, "is_disabled": 0, "lat": 38.86996533333333, "bike_id": "7b0cb9373ebcf38e194bca2f4b7e2e46", "name": "7b0cb9373ebcf38e194bca2f4b7e2e46", "is_reserved": 0, "fusion_lat": 0.0}, {"type": "electric_scooter", "rental_uris": {"ios": "https://dc.lft.to/lastmile_qr_scan", "android": "https://dc.lft.to/lastmile_qr_scan"}, "lon": -77.03659566666667, "fusion_lon": 0.0, "is_disabled": 0, "lat": 38.92134633333333, "bike_id": "f7c7fad8458547dde7e89f7702d07f03", "name": "f7c7fad8458547dde7e89f7702d07f03", "is_reserved": 0, "fusion_lat": 0.0}, {"type": "electric_scooter", "rental_uris": {"ios": "https://dc.lft.to/lastmile_qr_scan", "android": "https://dc.lft.to/lastmile_qr_scan"}, "lon": -77.0436765, "fusion_lon": 0.0, "is_disabled": 0, "lat": 38.921059, "bike_id": "9725329ce6f1dddbee2986b0faa9322f", "name": "9725329ce6f1dddbee2986b0faa9322f", "is_reserved": 0, "fusion_lat": 0.0}, {"type": "electric_scooter", "rental_uris": {"ios": "https://dc.lft.to/lastmile_qr_scan", "android": "https://dc.lft.to/lastmile_qr_scan"}, "lon": -77.02426583333333, "fusion_lon": 0.0, "is_disabled": 0, "lat": 38.92756166666667, "bike_id": "ed480695cd3b9a1c5bf6255b59c02ee2", "name": "ed480695cd3b9a1c5bf6255b59c02ee2", "is_reserved": 0, "fusion_lat": 0.0}, {"type": "electric_scooter", "rental_uris": {"ios": "https://dc.lft.to/lastmile_qr_scan", "android": "https://dc.lft.to/lastmile_qr_scan"}, "lon": -77.04351966666667, "fusion_lon": 0.0, "is_disabled": 0, "lat": 38.90151383333333, "bike_id": "b180a0389af81f4f34f5d68fc399f613", "name": "b180a0389af81f4f34f5d68fc399f613", "is_reserved": 0, "fusion_lat": 0.0}, {"type": "electric_scooter", "rental_uris": {"ios": "https://dc.lft.to/lastmile_qr_scan", "android": "https://dc.lft.to/lastmile_qr_scan"}, "lon": -77.03644, "fusion_lon": 0.0, "is_disabled": 0, "lat": 38.91779433333333, "bike_id": "94ef7f012b1c1bae0957236039a5ae61", "name": "94ef7f012b1c1bae0957236039a5ae61", "is_reserved": 0, "fusion_lat": 0.0}, {"type": "electric_scooter", "rental_uris": {"ios": "https://dc.lft.to/lastmile_qr_scan", "android": "https://dc.lft.to/lastmile_qr_scan"}, "lon": -77.0251725, "fusion_lon": 0.0, "is_disabled": 0, "lat": 38.94621983333333, "bike_id": "9cb95ba5095365d09e5657950c61ef6b", "name": "9cb95ba5095365d09e5657950c61ef6b", "is_reserved": 0, "fusion_lat": 0.0}, {"type": "electric_scooter", "rental_uris": {"ios": "https://dc.lft.to/lastmile_qr_scan", "android": "https://dc.lft.to/lastmile_qr_scan"}, "lon": -77.03341366666666, "fusion_lon": 0.0, "is_disabled": 0, "lat": 38.917077, "bike_id": "de056b4387feb45e4b3a26e2638da7a4", "name": "de056b4387feb45e4b3a26e2638da7a4", "is_reserved": 0, "fusion_lat": 0.0}, {"type": "electric_scooter", "rental_uris": {"ios": "https://dc.lft.to/lastmile_qr_scan", "android": "https://dc.lft.to/lastmile_qr_scan"}, "lon": -77.03534883333333, "fusion_lon": 0.0, "is_disabled": 0, "lat": 38.92388233333333, "bike_id": "c995f23bdb5239e8f9cfcf865ad8b7a6", "name": "c995f23bdb5239e8f9cfcf865ad8b7a6", "is_reserved": 0, "fusion_lat": 0.0}, {"type": "electric_scooter", "rental_uris": {"ios": "https://dc.lft.to/lastmile_qr_scan", "android": "https://dc.lft.to/lastmile_qr_scan"}, "lon": -77.04155116666666, "fusion_lon": 0.0, "is_disabled": 0, "lat": 38.91914466666667, "bike_id": "e3512260a58caf88ebe1a02dc2e1ee93", "name": "e3512260a58caf88ebe1a02dc2e1ee93", "is_reserved": 0, "fusion_lat": 0.0}, {"type": "electric_bike", "rental_uris": {"ios": "https://dc.lft.to/lastmile_qr_scan", "android": "https://dc.lft.to/lastmile_qr_scan"}, "lon": -77.056351, "fusion_lon": 0.0, "is_disabled": 0, "lat": 38.98648, "bike_id": "e858907644689189d2e2139f8eb58cbc", "name": "e858907644689189d2e2139f8eb58cbc", "is_reserved": 0, "fusion_lat": 0.0}, {"type": "electric_scooter", "rental_uris": {"ios": "https://dc.lft.to/lastmile_qr_scan", "android": "https://dc.lft.to/lastmile_qr_scan"}, "lon": -77.0326605, "fusion_lon": 0.0, "is_disabled": 0, "lat": 38.929775666666664, "bike_id": "cfd4525fb84e9d7b7f95476907f6a5af", "name": "cfd4525fb84e9d7b7f95476907f6a5af", "is_reserved": 0, "fusion_lat": 0.0}, {"type": "electric_scooter", "rental_uris": {"ios": "https://dc.lft.to/lastmile_qr_scan", "android": "https://dc.lft.to/lastmile_qr_scan"}, "lon": -77.03347616666667, "fusion_lon": 0.0, "is_disabled": 0, "lat": 38.89252283333333, "bike_id": "bd010ea1fb6e2cc056a7e6520e5bb280", "name": "bd010ea1fb6e2cc056a7e6520e5bb280", "is_reserved": 0, "fusion_lat": 0.0}, {"type": "electric_scooter", "rental_uris": {"ios": "https://dc.lft.to/lastmile_qr_scan", "android": "https://dc.lft.to/lastmile_qr_scan"}, "lon": -77.03216683333333, "fusion_lon": 0.0, "is_disabled": 0, "lat": 38.909715166666665, "bike_id": "1615705e94fb5d5fc487c1989a829f67", "name": "1615705e94fb5d5fc487c1989a829f67", "is_reserved": 0, "fusion_lat": 0.0}, {"type": "electric_bike", "rental_uris": {"ios": "https://dc.lft.to/lastmile_qr_scan", "android": "https://dc.lft.to/lastmile_qr_scan"}, "lon": -76.92500716666666, "fusion_lon": 0.0, "is_disabled": 0, "lat": 38.9999775, "bike_id": "be4ef36e0c5cd29e378e9133b30e6a56", "name": "be4ef36e0c5cd29e378e9133b30e6a56", "is_reserved": 0, "fusion_lat": 0.0}, {"type": "electric_scooter", "rental_uris": {"ios": "https://dc.lft.to/lastmile_qr_scan", "android": "https://dc.lft.to/lastmile_qr_scan"}, "lon": -77.0592835, "fusion_lon": 0.0, "is_disabled": 0, "lat": 38.90943083333333, "bike_id": "a7848e30cf761cf1b7326387592ceed7", "name": "a7848e30cf761cf1b7326387592ceed7", "is_reserved": 0, "fusion_lat": 0.0}, {"type": "electric_scooter", "rental_uris": {"ios": "https://dc.lft.to/lastmile_qr_scan", "android": "https://dc.lft.to/lastmile_qr_scan"}, "lon": -77.02032816666667, "fusion_lon": 0.0, "is_disabled": 0, "lat": 38.93187966666667, "bike_id": "0126dd15cc2dcb9caabe9ad07075b138", "name": "0126dd15cc2dcb9caabe9ad07075b138", "is_reserved": 0, "fusion_lat": 0.0}, {"type": "electric_scooter", "rental_uris": {"ios": "https://dc.lft.to/lastmile_qr_scan", "android": "https://dc.lft.to/lastmile_qr_scan"}, "lon": -77.03134616666667, "fusion_lon": 0.0, "is_disabled": 0, "lat": 38.918117, "bike_id": "12c49cc80b7a51cced5bcfaf35818dc3", "name": "12c49cc80b7a51cced5bcfaf35818dc3", "is_reserved": 0, "fusion_lat": 0.0}, {"type": "electric_scooter", "rental_uris": {"ios": "https://dc.lft.to/lastmile_qr_scan", "android": "https://dc.lft.to/lastmile_qr_scan"}, "lon": -77.03835383333333, "fusion_lon": 0.0, "is_disabled": 0, "lat": 38.91108, "bike_id": "214d66c6d43114368b5e5894d58eb828", "name": "214d66c6d43114368b5e5894d58eb828", "is_reserved": 0, "fusion_lat": 0.0}, {"type": "electric_scooter", "rental_uris": {"ios": "https://dc.lft.to/lastmile_qr_scan", "android": "https://dc.lft.to/lastmile_qr_scan"}, "lon": -77.04370333333334, "fusion_lon": 0.0, "is_disabled": 0, "lat": 38.92143766666667, "bike_id": "11717f7a7f9b66eff6c63e1312ceb32e", "name": "11717f7a7f9b66eff6c63e1312ceb32e", "is_reserved": 0, "fusion_lat": 0.0}, {"type": "electric_bike", "rental_uris": {"ios": "https://dc.lft.to/lastmile_qr_scan", "android": "https://dc.lft.to/lastmile_qr_scan"}, "lon": -77.01203233333334, "fusion_lon": 0.0, "is_disabled": 0, "lat": 38.950844833333335, "bike_id": "dcddc29164d903e6ae0a729d0e35e638", "name": "dcddc29164d903e6ae0a729d0e35e638", "is_reserved": 0, "fusion_lat": 0.0}, {"type": "electric_scooter", "rental_uris": {"ios": "https://dc.lft.to/lastmile_qr_scan", "android": "https://dc.lft.to/lastmile_qr_scan"}, "lon": -77.04169683333333, "fusion_lon": 0.0, "is_disabled": 0, "lat": 38.90301183333333, "bike_id": "7a2cf5f90dc7d3a6b95e6ce4a40c8c3b", "name": "7a2cf5f90dc7d3a6b95e6ce4a40c8c3b", "is_reserved": 0, "fusion_lat": 0.0}, {"type": "electric_scooter", "rental_uris": {"ios": "https://dc.lft.to/lastmile_qr_scan", "android": "https://dc.lft.to/lastmile_qr_scan"}, "lon": -77.01759783333334, "fusion_lon": 0.0, "is_disabled": 0, "lat": 38.902575, "bike_id": "d7ad6ce063bf3050371606228e9ded9d", "name": "d7ad6ce063bf3050371606228e9ded9d", "is_reserved": 0, "fusion_lat": 0.0}, {"type": "electric_scooter", "rental_uris": {"ios": "https://dc.lft.to/lastmile_qr_scan", "android": "https://dc.lft.to/lastmile_qr_scan"}, "lon": -77.0602155, "fusion_lon": 0.0, "is_disabled": 0, "lat": 38.90233683333334, "bike_id": "ca0fe954a3782e1f0bbae612c2572b5c", "name": "ca0fe954a3782e1f0bbae612c2572b5c", "is_reserved": 0, "fusion_lat": 0.0}, {"type": "electric_scooter", "rental_uris": {"ios": "https://dc.lft.to/lastmile_qr_scan", "android": "https://dc.lft.to/lastmile_qr_scan"}, "lon": -77.02793316666667, "fusion_lon": 0.0, "is_disabled": 0, "lat": 38.9308725, "bike_id": "e1a288029c2abfb27eef2edebeb8d9b0", "name": "e1a288029c2abfb27eef2edebeb8d9b0", "is_reserved": 0, "fusion_lat": 0.0}, {"type": "electric_scooter", "rental_uris": {"ios": "https://dc.lft.to/lastmile_qr_scan", "android": "https://dc.lft.to/lastmile_qr_scan"}, "lon": -77.05240966666666, "fusion_lon": 0.0, "is_disabled": 0, "lat": 38.92525966666667, "bike_id": "2174353f072fff5cb3e6fc5982f8c380", "name": "2174353f072fff5cb3e6fc5982f8c380", "is_reserved": 0, "fusion_lat": 0.0}, {"type": "electric_scooter", "rental_uris": {"ios": "https://dc.lft.to/lastmile_qr_scan", "android": "https://dc.lft.to/lastmile_qr_scan"}, "lon": -77.03646516666667, "fusion_lon": 0.0, "is_disabled": 0, "lat": 38.932807833333335, "bike_id": "27a358da89beb13a12fa31315a474281", "name": "27a358da89beb13a12fa31315a474281", "is_reserved": 0, "fusion_lat": 0.0}, {"type": "electric_scooter", "rental_uris": {"ios": "https://dc.lft.to/lastmile_qr_scan", "android": "https://dc.lft.to/lastmile_qr_scan"}, "lon": -77.034284, "fusion_lon": 0.0, "is_disabled": 0, "lat": 38.90974816666667, "bike_id": "34067be6d81ee67993ba156358794b46", "name": "34067be6d81ee67993ba156358794b46", "is_reserved": 0, "fusion_lat": 0.0}, {"type": "electric_scooter", "rental_uris": {"ios": "https://dc.lft.to/lastmile_qr_scan", "android": "https://dc.lft.to/lastmile_qr_scan"}, "lon": -77.03273916666667, "fusion_lon": 0.0, "is_disabled": 0, "lat": 38.9205275, "bike_id": "a61c8cd00df2d7cce35600735e55cb3a", "name": "a61c8cd00df2d7cce35600735e55cb3a", "is_reserved": 0, "fusion_lat": 0.0}, {"type": "electric_bike", "rental_uris": {"ios": "https://dc.lft.to/lastmile_qr_scan", "android": "https://dc.lft.to/lastmile_qr_scan"}, "lon": -76.963858, "fusion_lon": 0.0, "is_disabled": 0, "lat": 38.897128333333335, "bike_id": "32a563673ee85c576fe366fb29019735", "name": "32a563673ee85c576fe366fb29019735", "is_reserved": 0, "fusion_lat": 0.0}, {"type": "electric_scooter", "rental_uris": {"ios": "https://dc.lft.to/lastmile_qr_scan", "android": "https://dc.lft.to/lastmile_qr_scan"}, "lon": -77.02195333333333, "fusion_lon": 0.0, "is_disabled": 0, "lat": 38.90617183333333, "bike_id": "29c7d43ac804bcf7861c4ec56d63d50b", "name": "29c7d43ac804bcf7861c4ec56d63d50b", "is_reserved": 0, "fusion_lat": 0.0}, {"type": "electric_scooter", "rental_uris": {"ios": "https://dc.lft.to/lastmile_qr_scan", "android": "https://dc.lft.to/lastmile_qr_scan"}, "lon": -77.05023033333333, "fusion_lon": 0.0, "is_disabled": 0, "lat": 38.923558666666665, "bike_id": "ef17f9cbbdd926d98863259c2690ca45", "name": "ef17f9cbbdd926d98863259c2690ca45", "is_reserved": 0, "fusion_lat": 0.0}, {"type": "electric_scooter", "rental_uris": {"ios": "https://dc.lft.to/lastmile_qr_scan", "android": "https://dc.lft.to/lastmile_qr_scan"}, "lon": -77.02534666666666, "fusion_lon": 0.0, "is_disabled": 0, "lat": 38.91492916666667, "bike_id": "fd848c5029fed73c7f7fa72e0189036f", "name": "fd848c5029fed73c7f7fa72e0189036f", "is_reserved": 0, "fusion_lat": 0.0}, {"type": "electric_scooter", "rental_uris": {"ios": "https://dc.lft.to/lastmile_qr_scan", "android": "https://dc.lft.to/lastmile_qr_scan"}, "lon": -77.037593, "fusion_lon": 0.0, "is_disabled": 0, "lat": 38.9357685, "bike_id": "e734274a338915a1725ca41895c132e7", "name": "e734274a338915a1725ca41895c132e7", "is_reserved": 0, "fusion_lat": 0.0}, {"type": "electric_scooter", "rental_uris": {"ios": "https://dc.lft.to/lastmile_qr_scan", "android": "https://dc.lft.to/lastmile_qr_scan"}, "lon": -77.03189416666666, "fusion_lon": 0.0, "is_disabled": 0, "lat": 38.892233166666664, "bike_id": "0147cbceb1a37affdc85912c0dc58016", "name": "0147cbceb1a37affdc85912c0dc58016", "is_reserved": 0, "fusion_lat": 0.0}, {"type": "electric_scooter", "rental_uris": {"ios": "https://dc.lft.to/lastmile_qr_scan", "android": "https://dc.lft.to/lastmile_qr_scan"}, "lon": -76.95759166666667, "fusion_lon": 0.0, "is_disabled": 0, "lat": 38.88431716666667, "bike_id": "5ebe97e37ab6d5592a4d401a00514099", "name": "5ebe97e37ab6d5592a4d401a00514099", "is_reserved": 0, "fusion_lat": 0.0}, {"type": "electric_scooter", "rental_uris": {"ios": "https://dc.lft.to/lastmile_qr_scan", "android": "https://dc.lft.to/lastmile_qr_scan"}, "lon": -77.0223565, "fusion_lon": 0.0, "is_disabled": 0, "lat": 38.96134816666667, "bike_id": "fb33cdc5cf6d1ceef11c73d347f52f68", "name": "fb33cdc5cf6d1ceef11c73d347f52f68", "is_reserved": 0, "fusion_lat": 0.0}, {"type": "electric_scooter", "rental_uris": {"ios": "https://dc.lft.to/lastmile_qr_scan", "android": "https://dc.lft.to/lastmile_qr_scan"}, "lon": -77.02329233333333, "fusion_lon": 0.0, "is_disabled": 0, "lat": 38.91678983333333, "bike_id": "ab1b24384a9ea0b2a5cce0ab2ada45dc", "name": "ab1b24384a9ea0b2a5cce0ab2ada45dc", "is_reserved": 0, "fusion_lat": 0.0}, {"type": "electric_bike", "rental_uris": {"ios": "https://dc.lft.to/lastmile_qr_scan", "android": "https://dc.lft.to/lastmile_qr_scan"}, "lon": -76.93703016666667, "fusion_lon": 0.0, "is_disabled": 0, "lat": 38.871462, "bike_id": "004ad3892903c1fa66a3487a66e27e72", "name": "004ad3892903c1fa66a3487a66e27e72", "is_reserved": 0, "fusion_lat": 0.0}, {"type": "electric_scooter", "rental_uris": {"ios": "https://dc.lft.to/lastmile_qr_scan", "android": "https://dc.lft.to/lastmile_qr_scan"}, "lon": -76.99777266666666, "fusion_lon": 0.0, "is_disabled": 0, "lat": 38.844323833333334, "bike_id": "ecd8529d729cd3d2cdb05e4df8acbe41", "name": "ecd8529d729cd3d2cdb05e4df8acbe41", "is_reserved": 0, "fusion_lat": 0.0}, {"type": "electric_scooter", "rental_uris": {"ios": "https://dc.lft.to/lastmile_qr_scan", "android": "https://dc.lft.to/lastmile_qr_scan"}, "lon": -76.93990283333333, "fusion_lon": 0.0, "is_disabled": 0, "lat": 38.899762333333335, "bike_id": "b9ebab6419939ed768c1604498830bf3", "name": "b9ebab6419939ed768c1604498830bf3", "is_reserved": 0, "fusion_lat": 0.0}, {"type": "electric_scooter", "rental_uris": {"ios": "https://dc.lft.to/lastmile_qr_scan", "android": "https://dc.lft.to/lastmile_qr_scan"}, "lon": -77.0336635, "fusion_lon": 0.0, "is_disabled": 0, "lat": 38.89225916666667, "bike_id": "d9244e4b3771392e470ab449ce42fe26", "name": "d9244e4b3771392e470ab449ce42fe26", "is_reserved": 0, "fusion_lat": 0.0}, {"type": "electric_bike", "rental_uris": {"ios": "https://dc.lft.to/lastmile_qr_scan", "android": "https://dc.lft.to/lastmile_qr_scan"}, "lon": -76.97104783333333, "fusion_lon": 0.0, "is_disabled": 0, "lat": 38.8572495, "bike_id": "5f3fca2d66da763ea3473c20471252ec", "name": "5f3fca2d66da763ea3473c20471252ec", "is_reserved": 0, "fusion_lat": 0.0}, {"type": "electric_scooter", "rental_uris": {"ios": "https://dc.lft.to/lastmile_qr_scan", "android": "https://dc.lft.to/lastmile_qr_scan"}, "lon": -77.03011266666667, "fusion_lon": 0.0, "is_disabled": 0, "lat": 38.92246516666667, "bike_id": "0e633f0179e8a32ea045828b6b9e85b0", "name": "0e633f0179e8a32ea045828b6b9e85b0", "is_reserved": 0, "fusion_lat": 0.0}, {"type": "electric_scooter", "rental_uris": {"ios": "https://dc.lft.to/lastmile_qr_scan", "android": "https://dc.lft.to/lastmile_qr_scan"}, "lon": -77.01895883333333, "fusion_lon": 0.0, "is_disabled": 0, "lat": 38.923830833333334, "bike_id": "88ce576160fb65d802800aaeb66b81f4", "name": "88ce576160fb65d802800aaeb66b81f4", "is_reserved": 0, "fusion_lat": 0.0}, {"type": "electric_scooter", "rental_uris": {"ios": "https://dc.lft.to/lastmile_qr_scan", "android": "https://dc.lft.to/lastmile_qr_scan"}, "lon": -77.04578, "fusion_lon": 0.0, "is_disabled": 0, "lat": 38.902368833333334, "bike_id": "f622e78f21d71c7823449bb6660d908d", "name": "f622e78f21d71c7823449bb6660d908d", "is_reserved": 0, "fusion_lat": 0.0}, {"type": "electric_scooter", "rental_uris": {"ios": "https://dc.lft.to/lastmile_qr_scan", "android": "https://dc.lft.to/lastmile_qr_scan"}, "lon": -76.99782516666667, "fusion_lon": 0.0, "is_disabled": 0, "lat": 38.844254166666666, "bike_id": "b5458ce649aecc6b8850bf250cf8332a", "name": "b5458ce649aecc6b8850bf250cf8332a", "is_reserved": 0, "fusion_lat": 0.0}, {"type": "electric_scooter", "rental_uris": {"ios": "https://dc.lft.to/lastmile_qr_scan", "android": "https://dc.lft.to/lastmile_qr_scan"}, "lon": -76.94638533333334, "fusion_lon": 0.0, "is_disabled": 0, "lat": 38.898441166666665, "bike_id": "f384de9b4efe83be0be44493d67eb019", "name": "f384de9b4efe83be0be44493d67eb019", "is_reserved": 0, "fusion_lat": 0.0}, {"type": "electric_scooter", "rental_uris": {"ios": "https://dc.lft.to/lastmile_qr_scan", "android": "https://dc.lft.to/lastmile_qr_scan"}, "lon": -77.051194, "fusion_lon": 0.0, "is_disabled": 0, "lat": 38.902150166666665, "bike_id": "5d6a0c337fde85104c7158074a5a6d1a", "name": "5d6a0c337fde85104c7158074a5a6d1a", "is_reserved": 0, "fusion_lat": 0.0}, {"type": "electric_scooter", "rental_uris": {"ios": "https://dc.lft.to/lastmile_qr_scan", "android": "https://dc.lft.to/lastmile_qr_scan"}, "lon": -77.02212783333333, "fusion_lon": 0.0, "is_disabled": 0, "lat": 38.912599666666665, "bike_id": "77ca14842f9740a8cf022532073f1973", "name": "77ca14842f9740a8cf022532073f1973", "is_reserved": 0, "fusion_lat": 0.0}, {"type": "electric_scooter", "rental_uris": {"ios": "https://dc.lft.to/lastmile_qr_scan", "android": "https://dc.lft.to/lastmile_qr_scan"}, "lon": -77.04599866666666, "fusion_lon": 0.0, "is_disabled": 0, "lat": 38.90864066666666, "bike_id": "a43a040dc0e241d4ffaba54a63cf70a0", "name": "a43a040dc0e241d4ffaba54a63cf70a0", "is_reserved": 0, "fusion_lat": 0.0}, {"type": "electric_scooter", "rental_uris": {"ios": "https://dc.lft.to/lastmile_qr_scan", "android": "https://dc.lft.to/lastmile_qr_scan"}, "lon": -77.0335785, "fusion_lon": 0.0, "is_disabled": 0, "lat": 38.93145166666667, "bike_id": "3195ccb6490ba555bbd2b244923cad13", "name": "3195ccb6490ba555bbd2b244923cad13", "is_reserved": 0, "fusion_lat": 0.0}, {"type": "electric_scooter", "rental_uris": {"ios": "https://dc.lft.to/lastmile_qr_scan", "android": "https://dc.lft.to/lastmile_qr_scan"}, "lon": -76.99834016666667, "fusion_lon": 0.0, "is_disabled": 0, "lat": 38.90026066666667, "bike_id": "42cf779566b338cda9c2a4b67b6c1e7a", "name": "42cf779566b338cda9c2a4b67b6c1e7a", "is_reserved": 0, "fusion_lat": 0.0}, {"type": "electric_scooter", "rental_uris": {"ios": "https://dc.lft.to/lastmile_qr_scan", "android": "https://dc.lft.to/lastmile_qr_scan"}, "lon": -76.975962, "fusion_lon": 0.0, "is_disabled": 0, "lat": 38.90332683333333, "bike_id": "ecd3c6747c3913886483f70c6534536c", "name": "ecd3c6747c3913886483f70c6534536c", "is_reserved": 0, "fusion_lat": 0.0}, {"type": "electric_scooter", "rental_uris": {"ios": "https://dc.lft.to/lastmile_qr_scan", "android": "https://dc.lft.to/lastmile_qr_scan"}, "lon": -77.03868616666666, "fusion_lon": 0.0, "is_disabled": 0, "lat": 38.909719, "bike_id": "06655889331536a426ff1da834df0e13", "name": "06655889331536a426ff1da834df0e13", "is_reserved": 0, "fusion_lat": 0.0}, {"type": "electric_scooter", "rental_uris": {"ios": "https://dc.lft.to/lastmile_qr_scan", "android": "https://dc.lft.to/lastmile_qr_scan"}, "lon": -77.05135783333333, "fusion_lon": 0.0, "is_disabled": 0, "lat": 38.923673666666666, "bike_id": "f400f23002920f4d9c25a43b96b81157", "name": "f400f23002920f4d9c25a43b96b81157", "is_reserved": 0, "fusion_lat": 0.0}, {"type": "electric_scooter", "rental_uris": {"ios": "https://dc.lft.to/lastmile_qr_scan", "android": "https://dc.lft.to/lastmile_qr_scan"}, "lon": -77.03443566666667, "fusion_lon": 0.0, "is_disabled": 0, "lat": 38.918471, "bike_id": "40c0f73ebce5c51d11395ab3c9205a61", "name": "40c0f73ebce5c51d11395ab3c9205a61", "is_reserved": 0, "fusion_lat": 0.0}, {"type": "electric_scooter", "rental_uris": {"ios": "https://dc.lft.to/lastmile_qr_scan", "android": "https://dc.lft.to/lastmile_qr_scan"}, "lon": -77.05581466666666, "fusion_lon": 0.0, "is_disabled": 0, "lat": 38.910497666666664, "bike_id": "022e9b8442dba5981c9a9f578a36827e", "name": "022e9b8442dba5981c9a9f578a36827e", "is_reserved": 0, "fusion_lat": 0.0}, {"type": "electric_scooter", "rental_uris": {"ios": "https://dc.lft.to/lastmile_qr_scan", "android": "https://dc.lft.to/lastmile_qr_scan"}, "lon": -77.02539216666666, "fusion_lon": 0.0, "is_disabled": 0, "lat": 38.92404333333333, "bike_id": "681d30df7828789ce85172ad130f65a5", "name": "681d30df7828789ce85172ad130f65a5", "is_reserved": 0, "fusion_lat": 0.0}, {"type": "electric_scooter", "rental_uris": {"ios": "https://dc.lft.to/lastmile_qr_scan", "android": "https://dc.lft.to/lastmile_qr_scan"}, "lon": -76.936126, "fusion_lon": 0.0, "is_disabled": 0, "lat": 38.88673283333333, "bike_id": "7260ed33b445dabdb41cca69a35c783e", "name": "7260ed33b445dabdb41cca69a35c783e", "is_reserved": 0, "fusion_lat": 0.0}, {"type": "electric_scooter", "rental_uris": {"ios": "https://dc.lft.to/lastmile_qr_scan", "android": "https://dc.lft.to/lastmile_qr_scan"}, "lon": -77.04864033333334, "fusion_lon": 0.0, "is_disabled": 0, "lat": 38.904768833333335, "bike_id": "c4fc75210bc79c7fea76da0662c7a8d3", "name": "c4fc75210bc79c7fea76da0662c7a8d3", "is_reserved": 0, "fusion_lat": 0.0}, {"type": "electric_scooter", "rental_uris": {"ios": "https://dc.lft.to/lastmile_qr_scan", "android": "https://dc.lft.to/lastmile_qr_scan"}, "lon": -77.05147933333333, "fusion_lon": 0.0, "is_disabled": 0, "lat": 38.9005005, "bike_id": "4cc32db73f9ec04a1c45d1d8c6177b2f", "name": "4cc32db73f9ec04a1c45d1d8c6177b2f", "is_reserved": 0, "fusion_lat": 0.0}, {"type": "electric_scooter", "rental_uris": {"ios": "https://dc.lft.to/lastmile_qr_scan", "android": "https://dc.lft.to/lastmile_qr_scan"}, "lon": -77.03327783333333, "fusion_lon": 0.0, "is_disabled": 0, "lat": 38.92872883333333, "bike_id": "03e4e6182c9a7f803ce5c8f758042a88", "name": "03e4e6182c9a7f803ce5c8f758042a88", "is_reserved": 0, "fusion_lat": 0.0}, {"type": "electric_scooter", "rental_uris": {"ios": "https://dc.lft.to/lastmile_qr_scan", "android": "https://dc.lft.to/lastmile_qr_scan"}, "lon": -77.02916283333333, "fusion_lon": 0.0, "is_disabled": 0, "lat": 38.902817666666664, "bike_id": "0bdb3509388f41db855626fca7f339cf", "name": "0bdb3509388f41db855626fca7f339cf", "is_reserved": 0, "fusion_lat": 0.0},