{"data": {"bikes": [{"name": "7f67fb7b1a3d58e30e209b53dd3c6783", "fusion_lon": 0.0, "lat": 38.92313866666667, "is_reserved": 0, "type": "electric_scooter", "bike_id": "7f67fb7b1a3d58e30e209b53dd3c6783", "is_disabled": 0, "rental_uris": {"android": "https://dc.lft.to/lastmile_qr_scan", "ios": "https://dc.lft.to/lastmile_qr_scan"}, "lon": -77.04346383333333, "fusion_lat": 0.0}, {"name": "da6540a405a45c71b2274f9a2292055e", "fusion_lon": 0.0, "lat": 38.956861833333335, "is_reserved": 0, "type": "electric_bike", "bike_id": "da6540a405a45c71b2274f9a2292055e", "is_disabled": 0, "rental_uris": {"android": "https://dc.lft.to/lastmile_qr_scan", "ios": "https://dc.lft.to/lastmile_qr_scan"}, "lon": -77.02226516666667, "fusion_lat": 0.0}, {"name": "ba867aa99ba1b945c82ca78ee91cd99d", "fusion_lon": 0.0, "lat": 38.9006555, "is_reserved": 0, "type": "electric_scooter", "bike_id": "ba867aa99ba1b945c82ca78ee91cd99d", "is_disabled": 0, "rental_uris": {"android": "https://dc.lft.to/lastmile_qr_scan", "ios": "https://dc.lft.to/lastmile_qr_scan"}, "lon": -76.9871135, "fusion_lat": 0.0}, {"name": "a9eca3a934e84554fc357c4b46914dbe", "fusion_lon": 0.0, "lat": 38.921746666666664, "is_reserved": 0, "type": "electric_scooter", "bike_id": "a9eca3a934e84554fc357c4b46914dbe", "is_disabled": 0, "rental_uris": {"android": "https://dc.lft.to/lastmile_qr_scan", "ios": "https://dc.lft.to/lastmile_qr_scan"}, "lon": -77.01919883333333, "fusion_lat": 0.0}, {"name": "b278a8ddd6d27b339a828a7f0a7e1df4", "fusion_lon": 0.0, "lat": 38.92092433333333, "is_reserved": 0, "type": "electric_scooter", "bike_id": "b278a8ddd6d27b339a828a7f0a7e1df4", "is_disabled": 0, "rental_uris": {"android": "https://dc.lft.to/lastmile_qr_scan", "ios": "https://dc.lft.to/lastmile_qr_scan"}, "lon": -77.02297883333334, "fusion_lat": 0.0}, {"name": "390a09344bc552231f82c42e267034b5", "fusion_lon": 0.0, "lat": 38.910498, "is_reserved": 0, "type": "electric_scooter", "bike_id": "390a09344bc552231f82c42e267034b5", "is_disabled": 0, "rental_uris": {"android": "https://dc.lft.to/lastmile_qr_scan", "ios": "https://dc.lft.to/lastmile_qr_scan"}, "lon": -77.03912966666667, "fusion_lat": 0.0}, {"name": "87b1da61d5f9f46c3af339ba8d6e1f53", "fusion_lon": 0.0, "lat": 38.90411833333334, "is_reserved": 0, "type": "electric_scooter", "bike_id": "87b1da61d5f9f46c3af339ba8d6e1f53", "is_disabled": 0, "rental_uris": {"android": "https://dc.lft.to/lastmile_qr_scan", "ios": "https://dc.lft.to/lastmile_qr_scan"}, "lon": -76.97334083333334, "fusion_lat": 0.0}, {"name": "470d3367c67efde7b1d2e6769cf81375", "fusion_lon": 0.0, "lat": 38.899552, "is_reserved": 0, "type": "electric_scooter", "bike_id": "470d3367c67efde7b1d2e6769cf81375", "is_disabled": 0, "rental_uris": {"android": "https://dc.lft.to/lastmile_qr_scan", "ios": "https://dc.lft.to/lastmile_qr_scan"}, "lon": -77.02215433333333, "fusion_lat": 0.0}, {"name": "3906d7b4fde4905047a55d2f0b2d87bb", "fusion_lon": 0.0, "lat": 38.90384266666667, "is_reserved": 0, "type": "electric_scooter", "bike_id": "3906d7b4fde4905047a55d2f0b2d87bb", "is_disabled": 0, "rental_uris": {"android": "https://dc.lft.to/lastmile_qr_scan", "ios": "https://dc.lft.to/lastmile_qr_scan"}, "lon": -77.03346783333333, "fusion_lat": 0.0}, {"name": "504ac9b65660188dfa250471e4a5eed1", "fusion_lon": 0.0, "lat": 38.90445916666667, "is_reserved": 0, "type": "electric_scooter", "bike_id": "504ac9b65660188dfa250471e4a5eed1", "is_disabled": 0, "rental_uris": {"android": "https://dc.lft.to/lastmile_qr_scan", "ios": "https://dc.lft.to/lastmile_qr_scan"}, "lon": -77.06295133333333, "fusion_lat": 0.0}, {"name": "9d2438f120e9aa7c92f0296893e5b972", "fusion_lon": 0.0, "lat": 38.93489183333333, "is_reserved": 0, "type": "electric_bike", "bike_id": "9d2438f120e9aa7c92f0296893e5b972", "is_disabled": 0, "rental_uris": {"android": "https://dc.lft.to/lastmile_qr_scan", "ios": "https://dc.lft.to/lastmile_qr_scan"}, "lon": -77.0302125, "fusion_lat": 0.0}, {"name": "277c224c2bba27ddeb1da083d3eaf328", "fusion_lon": 0.0, "lat": 38.951539833333335, "is_reserved": 0, "type": "electric_scooter", "bike_id": "277c224c2bba27ddeb1da083d3eaf328", "is_disabled": 0, "rental_uris": {"android": "https://dc.lft.to/lastmile_qr_scan", "ios": "https://dc.lft.to/lastmile_qr_scan"}, "lon": -77.018722, "fusion_lat": 0.0}, {"name": "72c2f693fb8e79ac90f8f1256c5e259a", "fusion_lon": 0.0, "lat": 38.8922585, "is_reserved": 0, "type": "electric_scooter", "bike_id": "72c2f693fb8e79ac90f8f1256c5e259a", "is_disabled": 0, "rental_uris": {"android": "https://dc.lft.to/lastmile_qr_scan", "ios": "https://dc.lft.to/lastmile_qr_scan"}, "lon": -77.0487, "fusion_lat": 0.0}, {"name": "1544b93c3d00291078c2e0da13485bfa", "fusion_lon": 0.0, "lat": 38.92334233333333, "is_reserved": 0, "type": "electric_scooter", "bike_id": "1544b93c3d00291078c2e0da13485bfa", "is_disabled": 0, "rental_uris": {"android": "https://dc.lft.to/lastmile_qr_scan", "ios": "https://dc.lft.to/lastmile_qr_scan"}, "lon": -77.02112416666667, "fusion_lat": 0.0}, {"name": "76164eb89da1bc3e195d1f6d5b2995d9", "fusion_lon": 0.0, "lat": 38.856969, "is_reserved": 0, "type": "electric_scooter", "bike_id": "76164eb89da1bc3e195d1f6d5b2995d9", "is_disabled": 0, "rental_uris": {"android": "https://dc.lft.to/lastmile_qr_scan", "ios": "https://dc.lft.to/lastmile_qr_scan"}, "lon": -76.98962416666667, "fusion_lat": 0.0}, {"name": "bd073ab8e9170726929eb84278c7d745", "fusion_lon": 0.0, "lat": 38.83737216666667, "is_reserved": 0, "type": "electric_bike", "bike_id": "bd073ab8e9170726929eb84278c7d745", "is_disabled": 0, "rental_uris": {"android": "https://dc.lft.to/lastmile_qr_scan", "ios": "https://dc.lft.to/lastmile_qr_scan"}, "lon": -77.09551683333333, "fusion_lat": 0.0}, {"name": "5c658acff0d4b8e11111415f5acd3cae", "fusion_lon": 0.0, "lat": 38.93008533333333, "is_reserved": 0, "type": "electric_scooter", "bike_id": "5c658acff0d4b8e11111415f5acd3cae", "is_disabled": 0, "rental_uris": {"android": "https://dc.lft.to/lastmile_qr_scan", "ios": "https://dc.lft.to/lastmile_qr_scan"}, "lon": -77.01432316666667, "fusion_lat": 0.0}, {"name": "4c4bc2d2b07afc4ef45880327ab724bd", "fusion_lon": 0.0, "lat": 38.844218166666664, "is_reserved": 0, "type": "electric_scooter", "bike_id": "4c4bc2d2b07afc4ef45880327ab724bd", "is_disabled": 0, "rental_uris": {"android": "https://dc.lft.to/lastmile_qr_scan", "ios": "https://dc.lft.to/lastmile_qr_scan"}, "lon": -76.9978305, "fusion_lat": 0.0}, {"name": "3dcb05060f979e18678dbe43b6f6af59", "fusion_lon": 0.0, "lat": 38.908874833333336, "is_reserved": 0, "type": "electric_scooter", "bike_id": "3dcb05060f979e18678dbe43b6f6af59", "is_disabled": 0, "rental_uris": {"android": "https://dc.lft.to/lastmile_qr_scan", "ios": "https://dc.lft.to/lastmile_qr_scan"}, "lon": -77.07269833333334, "fusion_lat": 0.0}, {"name": "14c33dae447b822703e0e09e9a0b1070", "fusion_lon": 0.0, "lat": 38.9213005, "is_reserved": 0, "type": "electric_scooter", "bike_id": "14c33dae447b822703e0e09e9a0b1070", "is_disabled": 0, "rental_uris": {"android": "https://dc.lft.to/lastmile_qr_scan", "ios": "https://dc.lft.to/lastmile_qr_scan"}, "lon": -77.04427833333334, "fusion_lat": 0.0}, {"name": "286662969c1d98c69db6dcb959e8b946", "fusion_lon": 0.0, "lat": 38.90288666666667, "is_reserved": 0, "type": "electric_scooter", "bike_id": "286662969c1d98c69db6dcb959e8b946", "is_disabled": 0, "rental_uris": {"android": "https://dc.lft.to/lastmile_qr_scan", "ios": "https://dc.lft.to/lastmile_qr_scan"}, "lon": -77.0581505, "fusion_lat": 0.0}, {"name": "71257ee5165b37f892b736d802c13f9c", "fusion_lon": 0.0, "lat": 38.91056066666667, "is_reserved": 0, "type": "electric_scooter", "bike_id": "71257ee5165b37f892b736d802c13f9c", "is_disabled": 0, "rental_uris": {"android": "https://dc.lft.to/lastmile_qr_scan", "ios": "https://dc.lft.to/lastmile_qr_scan"}, "lon": -77.041071, "fusion_lat": 0.0}, {"name": "1508f91ea79d88eec8654a73859f7110", "fusion_lon": 0.0, "lat": 38.90061083333333, "is_reserved": 0, "type": "electric_scooter", "bike_id": "1508f91ea79d88eec8654a73859f7110", "is_disabled": 0, "rental_uris": {"android": "https://dc.lft.to/lastmile_qr_scan", "ios": "https://dc.lft.to/lastmile_qr_scan"}, "lon": -76.934768, "fusion_lat": 0.0}, {"name": "5e0dcec84aaf0f56c7cb9a39b111ab20", "fusion_lon": 0.0, "lat": 38.909567, "is_reserved": 0, "type": "electric_scooter", "bike_id": "5e0dcec84aaf0f56c7cb9a39b111ab20", "is_disabled": 0, "rental_uris": {"android": "https://dc.lft.to/lastmile_qr_scan", "ios": "https://dc.lft.to/lastmile_qr_scan"}, "lon": -77.04802366666667, "fusion_lat": 0.0}, {"name": "f3efa4ab04bd98ffe24418639e4b8405", "fusion_lon": 0.0, "lat": 39.05789633333333, "is_reserved": 0, "type": "electric_bike", "bike_id": "f3efa4ab04bd98ffe24418639e4b8405", "is_disabled": 0, "rental_uris": {"android": "https://dc.lft.to/lastmile_qr_scan", "ios": "https://dc.lft.to/lastmile_qr_scan"}, "lon": -77.15024833333334, "fusion_lat": 0.0}, {"name": "dcd6ad53f0d7b019b5df2571ed4c0541", "fusion_lon": 0.0, "lat": 38.923789666666664, "is_reserved": 0, "type": "electric_scooter", "bike_id": "dcd6ad53f0d7b019b5df2571ed4c0541", "is_disabled": 0, "rental_uris": {"android": "https://dc.lft.to/lastmile_qr_scan", "ios": "https://dc.lft.to/lastmile_qr_scan"}, "lon": -77.01900083333334, "fusion_lat": 0.0}, {"name": "d37c2d5d17ab95a17584f0bdb9dfa114", "fusion_lon": 0.0, "lat": 38.9367845, "is_reserved": 0, "type": "electric_scooter", "bike_id": "d37c2d5d17ab95a17584f0bdb9dfa114", "is_disabled": 0, "rental_uris": {"android": "https://dc.lft.to/lastmile_qr_scan", "ios": "https://dc.lft.to/lastmile_qr_scan"}, "lon": -77.03283433333333, "fusion_lat": 0.0}, {"name": "6b46e364ae5b49bceede36c3e1c3843c", "fusion_lon": 0.0, "lat": 38.93278683333333, "is_reserved": 0, "type": "electric_scooter", "bike_id": "6b46e364ae5b49bceede36c3e1c3843c", "is_disabled": 0, "rental_uris": {"android": "https://dc.lft.to/lastmile_qr_scan", "ios": "https://dc.lft.to/lastmile_qr_scan"}, "lon": -77.04541866666666, "fusion_lat": 0.0}, {"name": "27e41adeb8035623772bff6c37c79ec4", "fusion_lon": 0.0, "lat": 38.917066, "is_reserved": 0, "type": "electric_scooter", "bike_id": "27e41adeb8035623772bff6c37c79ec4", "is_disabled": 0, "rental_uris": {"android": "https://dc.lft.to/lastmile_qr_scan", "ios": "https://dc.lft.to/lastmile_qr_scan"}, "lon": -77.0219865, "fusion_lat": 0.0}, {"name": "623f458a5b523634eceb355f4f136fcf", "fusion_lon": 0.0, "lat": 38.9335715, "is_reserved": 0, "type": "electric_scooter", "bike_id": "623f458a5b523634eceb355f4f136fcf", "is_disabled": 0, "rental_uris": {"android": "https://dc.lft.to/lastmile_qr_scan", "ios": "https://dc.lft.to/lastmile_qr_scan"}, "lon": -77.0737305, "fusion_lat": 0.0}, {"name": "07086a0ee3b1eda7f1ca4da847b14c32", "fusion_lon": 0.0, "lat": 38.9064745, "is_reserved": 0, "type": "electric_scooter", "bike_id": "07086a0ee3b1eda7f1ca4da847b14c32", "is_disabled": 0, "rental_uris": {"android": "https://dc.lft.to/lastmile_qr_scan", "ios": "https://dc.lft.to/lastmile_qr_scan"}, "lon": -77.00192316666667, "fusion_lat": 0.0}, {"name": "40e033d742e13ccad9388738d612406d", "fusion_lon": 0.0, "lat": 38.956703166666664, "is_reserved": 0, "type": "electric_scooter", "bike_id": "40e033d742e13ccad9388738d612406d", "is_disabled": 0, "rental_uris": {"android": "https://dc.lft.to/lastmile_qr_scan", "ios": "https://dc.lft.to/lastmile_qr_scan"}, "lon": -77.012813, "fusion_lat": 0.0}, {"name": "c98da32d304e1f1a04f7fe8a1d3a93bb", "fusion_lon": 0.0, "lat": 38.938652833333336, "is_reserved": 0, "type": "electric_scooter", "bike_id": "c98da32d304e1f1a04f7fe8a1d3a93bb", "is_disabled": 0, "rental_uris": {"android": "https://dc.lft.to/lastmile_qr_scan", "ios": "https://dc.lft.to/lastmile_qr_scan"}, "lon": -77.03084883333334, "fusion_lat": 0.0}, {"name": "5df42bc2830459925cac7a2af6faf9d3", "fusion_lon": 0.0, "lat": 38.904057333333334, "is_reserved": 0, "type": "electric_scooter", "bike_id": "5df42bc2830459925cac7a2af6faf9d3", "is_disabled": 0, "rental_uris": {"android": "https://dc.lft.to/lastmile_qr_scan", "ios": "https://dc.lft.to/lastmile_qr_scan"}, "lon": -77.06781033333333, "fusion_lat": 0.0}, {"name": "d3aaecc1cb86fa16e891eb5cc7087102", "fusion_lon": 0.0, "lat": 38.900402666666665, "is_reserved": 0, "type": "electric_scooter", "bike_id": "d3aaecc1cb86fa16e891eb5cc7087102", "is_disabled": 0, "rental_uris": {"android": "https://dc.lft.to/lastmile_qr_scan", "ios": "https://dc.lft.to/lastmile_qr_scan"}, "lon": -76.98827416666667, "fusion_lat": 0.0}, {"name": "627437e3f07cddb929ecea2ba1ab5ba4", "fusion_lon": 0.0, "lat": 38.931163, "is_reserved": 0, "type": "electric_scooter", "bike_id": "627437e3f07cddb929ecea2ba1ab5ba4", "is_disabled": 0, "rental_uris": {"android": "https://dc.lft.to/lastmile_qr_scan", "ios": "https://dc.lft.to/lastmile_qr_scan"}, "lon": -77.030267, "fusion_lat": 0.0}, {"name": "d3c7fe337e4deb6a2d81fd1559f0d9ec", "fusion_lon": 0.0, "lat": 38.863907833333336, "is_reserved": 0, "type": "electric_scooter", "bike_id": "d3c7fe337e4deb6a2d81fd1559f0d9ec", "is_disabled": 0, "rental_uris": {"android": "https://dc.lft.to/lastmile_qr_scan", "ios": "https://dc.lft.to/lastmile_qr_scan"}, "lon": -76.99042383333334, "fusion_lat": 0.0}, {"name": "5ce6dfde356d734dcb30dabe562ec648", "fusion_lon": 0.0, "lat": 38.902439333333334, "is_reserved": 0, "type": "electric_scooter", "bike_id": "5ce6dfde356d734dcb30dabe562ec648", "is_disabled": 0, "rental_uris": {"android": "https://dc.lft.to/lastmile_qr_scan", "ios": "https://dc.lft.to/lastmile_qr_scan"}, "lon": -77.00199416666666, "fusion_lat": 0.0}, {"name": "e479a0f7b7329cafa9ff925f721d5c4e", "fusion_lon": 0.0, "lat": 38.91650466666667, "is_reserved": 0, "type": "electric_scooter", "bike_id": "e479a0f7b7329cafa9ff925f721d5c4e", "is_disabled": 0, "rental_uris": {"android": "https://dc.lft.to/lastmile_qr_scan", "ios": "https://dc.lft.to/lastmile_qr_scan"}, "lon": -77.020088, "fusion_lat": 0.0}, {"name": "2934610ac05d85b81bad7f436f92be19", "fusion_lon": 0.0, "lat": 38.92836633333334, "is_reserved": 0, "type": "electric_scooter", "bike_id": "2934610ac05d85b81bad7f436f92be19", "is_disabled": 0, "rental_uris": {"android": "https://dc.lft.to/lastmile_qr_scan", "ios": "https://dc.lft.to/lastmile_qr_scan"}, "lon": -77.03731133333334, "fusion_lat": 0.0}, {"name": "6f2553c28a4b8519e40faa509b1e0eb6", "fusion_lon": 0.0, "lat": 38.897609, "is_reserved": 0, "type": "electric_scooter", "bike_id": "6f2553c28a4b8519e40faa509b1e0eb6", "is_disabled": 0, "rental_uris": {"android": "https://dc.lft.to/lastmile_qr_scan", "ios": "https://dc.lft.to/lastmile_qr_scan"}, "lon": -77.0487455, "fusion_lat": 0.0}, {"name": "5e65f2030b3aac3f8ea756fe73206d84", "fusion_lon": 0.0, "lat": 38.832359, "is_reserved": 0, "type": "electric_bike", "bike_id": "5e65f2030b3aac3f8ea756fe73206d84", "is_disabled": 0, "rental_uris": {"android": "https://dc.lft.to/lastmile_qr_scan", "ios": "https://dc.lft.to/lastmile_qr_scan"}, "lon": -76.946192, "fusion_lat": 0.0}, {"name": "27c3fc1d6b11ed8eb1cca7a22763622d", "fusion_lon": 0.0, "lat": 38.90487383333333, "is_reserved": 0, "type": "electric_scooter", "bike_id": "27c3fc1d6b11ed8eb1cca7a22763622d", "is_disabled": 0, "rental_uris": {"android": "https://dc.lft.to/lastmile_qr_scan", "ios": "https://dc.lft.to/lastmile_qr_scan"}, "lon": -77.06008133333333, "fusion_lat": 0.0}, {"name": "1ae429a325039d17133b7d79b2356304", "fusion_lon": 0.0, "lat": 38.898127333333335, "is_reserved": 0, "type": "electric_bike", "bike_id": "1ae429a325039d17133b7d79b2356304", "is_disabled": 0, "rental_uris": {"android": "https://dc.lft.to/lastmile_qr_scan", "ios": "https://dc.lft.to/lastmile_qr_scan"}, "lon": -76.9906535, "fusion_lat": 0.0}, {"name": "65fd2cc12aa5d54f98f457071e92ae07", "fusion_lon": 0.0, "lat": 38.90674333333333, "is_reserved": 0, "type": "electric_scooter", "bike_id": "65fd2cc12aa5d54f98f457071e92ae07", "is_disabled": 0, "rental_uris": {"android": "https://dc.lft.to/lastmile_qr_scan", "ios": "https://dc.lft.to/lastmile_qr_scan"}, "lon": -77.02959183333333, "fusion_lat": 0.0}, {"name": "7cc7e5e7fc850a1e44a79595070aab91", "fusion_lon": 0.0, "lat": 38.879291333333335, "is_reserved": 0, "type": "electric_scooter", "bike_id": "7cc7e5e7fc850a1e44a79595070aab91", "is_disabled": 0, "rental_uris": {"android": "https://dc.lft.to/lastmile_qr_scan", "ios": "https://dc.lft.to/lastmile_qr_scan"}, "lon": -76.999854, "fusion_lat": 0.0}, {"name": "721f7318d857c25b049c6b0b6b224624", "fusion_lon": 0.0, "lat": 38.932503833333335, "is_reserved": 0, "type": "electric_scooter", "bike_id": "721f7318d857c25b049c6b0b6b224624", "is_disabled": 0, "rental_uris": {"android": "https://dc.lft.to/lastmile_qr_scan", "ios": "https://dc.lft.to/lastmile_qr_scan"}, "lon": -77.03856983333333, "fusion_lat": 0.0}, {"name": "9d33bc9e6e096387641e42ac5d48fd22", "fusion_lon": 0.0, "lat": 38.92517683333333, "is_reserved": 0, "type": "electric_scooter", "bike_id": "9d33bc9e6e096387641e42ac5d48fd22", "is_disabled": 0, "rental_uris": {"android": "https://dc.lft.to/lastmile_qr_scan", "ios": "https://dc.lft.to/lastmile_qr_scan"}, "lon": -77.02341533333333, "fusion_lat": 0.0}, {"name": "9d54c7b9e8748a7a57cab47186c11145", "fusion_lon": 0.0, "lat": 38.89396516666667, "is_reserved": 0, "type": "electric_scooter", "bike_id": "9d54c7b9e8748a7a57cab47186c11145", "is_disabled": 0, "rental_uris": {"android": "https://dc.lft.to/lastmile_qr_scan", "ios": "https://dc.lft.to/lastmile_qr_scan"}, "lon": -77.028123, "fusion_lat": 0.0}, {"name": "e05a385e26429f87173e90f5cf118208", "fusion_lon": 0.0, "lat": 38.906391, "is_reserved": 0, "type": "electric_scooter", "bike_id": "e05a385e26429f87173e90f5cf118208", "is_disabled": 0, "rental_uris": {"android": "https://dc.lft.to/lastmile_qr_scan", "ios": "https://dc.lft.to/lastmile_qr_scan"}, "lon": -77.03860183333333, "fusion_lat": 0.0}, {"name": "b1dc6e6dd23f92975cc35ddae81e2b83", "fusion_lon": 0.0, "lat": 38.92737983333333, "is_reserved": 0, "type": "electric_scooter", "bike_id": "b1dc6e6dd23f92975cc35ddae81e2b83", "is_disabled": 0, "rental_uris": {"android": "https://dc.lft.to/lastmile_qr_scan", "ios": "https://dc.lft.to/lastmile_qr_scan"}, "lon": -77.05262083333334, "fusion_lat": 0.0}, {"name": "c26a2c76779e643f4d47bc3636d3945b", "fusion_lon": 0.0, "lat": 38.87460216666667, "is_reserved": 0, "type": "electric_scooter", "bike_id": "c26a2c76779e643f4d47bc3636d3945b", "is_disabled": 0, "rental_uris": {"android": "https://dc.lft.to/lastmile_qr_scan", "ios": "https://dc.lft.to/lastmile_qr_scan"}, "lon": -77.01866733333334, "fusion_lat": 0.0}, {"name": "f2cb2d9e5b29826bdc950745cc8cd3b2", "fusion_lon": 0.0, "lat": 38.93243666666667, "is_reserved": 0, "type": "electric_scooter", "bike_id": "f2cb2d9e5b29826bdc950745cc8cd3b2", "is_disabled": 0, "rental_uris": {"android": "https://dc.lft.to/lastmile_qr_scan", "ios": "https://dc.lft.to/lastmile_qr_scan"}, "lon": -77.02049183333334, "fusion_lat": 0.0}, {"name": "9c7e024f367c46ae80eed33a34652115", "fusion_lon": 0.0, "lat": 38.9302325, "is_reserved": 0, "type": "electric_scooter", "bike_id": "9c7e024f367c46ae80eed33a34652115", "is_disabled": 0, "rental_uris": {"android": "https://dc.lft.to/lastmile_qr_scan", "ios": "https://dc.lft.to/lastmile_qr_scan"}, "lon": -77.06312766666667, "fusion_lat": 0.0}, {"name": "0c5ee4c65f5a82e0208a9c011c5e4b2c", "fusion_lon": 0.0, "lat": 39.05052583333333, "is_reserved": 0, "type": "electric_bike", "bike_id": "0c5ee4c65f5a82e0208a9c011c5e4b2c", "is_disabled": 0, "rental_uris": {"android": "https://dc.lft.to/lastmile_qr_scan", "ios": "https://dc.lft.to/lastmile_qr_scan"}, "lon": -77.0515085, "fusion_lat": 0.0}, {"name": "2ef2e895895a068ab6ac50d8be93b70b", "fusion_lon": 0.0, "lat": 38.904123166666665, "is_reserved": 0, "type": "electric_scooter", "bike_id": "2ef2e895895a068ab6ac50d8be93b70b", "is_disabled": 0, "rental_uris": {"android": "https://dc.lft.to/lastmile_qr_scan", "ios": "https://dc.lft.to/lastmile_qr_scan"}, "lon": -76.97335016666666, "fusion_lat": 0.0}, {"name": "1a71aea6d063b2107a91ae4099fd8ec8", "fusion_lon": 0.0, "lat": 38.923216833333335, "is_reserved": 0, "type": "electric_scooter", "bike_id": "1a71aea6d063b2107a91ae4099fd8ec8", "is_disabled": 0, "rental_uris": {"android": "https://dc.lft.to/lastmile_qr_scan", "ios": "https://dc.lft.to/lastmile_qr_scan"}, "lon": -77.02982516666667, "fusion_lat": 0.0}, {"name": "545d566a8463b73e4b653df5c9e45181", "fusion_lon": 0.0, "lat": 38.90040716666667, "is_reserved": 0, "type": "electric_scooter", "bike_id": "545d566a8463b73e4b653df5c9e45181", "is_disabled": 0, "rental_uris": {"android": "https://dc.lft.to/lastmile_qr_scan", "ios": "https://dc.lft.to/lastmile_qr_scan"}, "lon": -76.91920083333333, "fusion_lat": 0.0}, {"name": "c95ccb1fad27ad3c4a2c78922c524477", "fusion_lon": 0.0, "lat": 38.9112575, "is_reserved": 0, "type": "electric_scooter", "bike_id": "c95ccb1fad27ad3c4a2c78922c524477", "is_disabled": 0, "rental_uris": {"android": "https://dc.lft.to/lastmile_qr_scan", "ios": "https://dc.lft.to/lastmile_qr_scan"}, "lon": -77.02095433333334, "fusion_lat": 0.0}, {"name": "ad3b68362023e83c913cc71f8f3b3928", "fusion_lon": 0.0, "lat": 38.90181466666667, "is_reserved": 0, "type": "electric_scooter", "bike_id": "ad3b68362023e83c913cc71f8f3b3928", "is_disabled": 0, "rental_uris": {"android": "https://dc.lft.to/lastmile_qr_scan", "ios": "https://dc.lft.to/lastmile_qr_scan"}, "lon": -77.01297433333333, "fusion_lat": 0.0}, {"name": "5aa4e5a612e6fb8fc86e8fae4194f582", "fusion_lon": 0.0, "lat": 38.84316066666667, "is_reserved": 0, "type": "electric_scooter", "bike_id": "5aa4e5a612e6fb8fc86e8fae4194f582", "is_disabled": 0, "rental_uris": {"android": "https://dc.lft.to/lastmile_qr_scan", "ios": "https://dc.lft.to/lastmile_qr_scan"}, "lon": -76.9993255, "fusion_lat": 0.0}, {"name": "84543dd47f84f9313f92eb9fb4fdbde4", "fusion_lon": 0.0, "lat": 38.923253833333334, "is_reserved": 0, "type": "electric_scooter", "bike_id": "84543dd47f84f9313f92eb9fb4fdbde4", "is_disabled": 0, "rental_uris": {"android": "https://dc.lft.to/lastmile_qr_scan", "ios": "https://dc.lft.to/lastmile_qr_scan"}, "lon": -77.03569866666666, "fusion_lat": 0.0}, {"name": "1963ce18896805fe100e56f3c9e017d8", "fusion_lon": 0.0, "lat": 38.93614216666667, "is_reserved": 0, "type": "electric_scooter", "bike_id": "1963ce18896805fe100e56f3c9e017d8", "is_disabled": 0, "rental_uris": {"android": "https://dc.lft.to/lastmile_qr_scan", "ios": "https://dc.lft.to/lastmile_qr_scan"}, "lon": -77.03660566666667, "fusion_lat": 0.0}, {"name": "9ce26765cc3f596968ed56f363aa9cc5", "fusion_lon": 0.0, "lat": 38.92039183333333, "is_reserved": 0, "type": "electric_scooter", "bike_id": "9ce26765cc3f596968ed56f363aa9cc5", "is_disabled": 0, "rental_uris": {"android": "https://dc.lft.to/lastmile_qr_scan", "ios": "https://dc.lft.to/lastmile_qr_scan"}, "lon": -77.02612483333333, "fusion_lat": 0.0}, {"name": "dd3fd24b91d5890a762fac04e4c566b2", "fusion_lon": 0.0, "lat": 38.879368666666664, "is_reserved": 0, "type": "electric_scooter", "bike_id": "dd3fd24b91d5890a762fac04e4c566b2", "is_disabled": 0, "rental_uris": {"android": "https://dc.lft.to/lastmile_qr_scan", "ios": "https://dc.lft.to/lastmile_qr_scan"}, "lon": -77.00402883333334, "fusion_lat": 0.0}, {"name": "c37750d7f1bb3c311ba007152f663fad", "fusion_lon": 0.0, "lat": 38.930717333333334, "is_reserved": 0, "type": "electric_scooter", "bike_id": "c37750d7f1bb3c311ba007152f663fad", "is_disabled": 0, "rental_uris": {"android": "https://dc.lft.to/lastmile_qr_scan", "ios": "https://dc.lft.to/lastmile_qr_scan"}, "lon": -77.03197216666666, "fusion_lat": 0.0}, {"name": "e6c3591dc4a815e057407e9cdfc4f554", "fusion_lon": 0.0, "lat": 38.874592, "is_reserved": 0, "type": "electric_scooter", "bike_id": "e6c3591dc4a815e057407e9cdfc4f554", "is_disabled": 0, "rental_uris": {"android": "https://dc.lft.to/lastmile_qr_scan", "ios": "https://dc.lft.to/lastmile_qr_scan"}, "lon": -77.00947283333333, "fusion_lat": 0.0}, {"name": "1e962eee81f62b503e0584cc20d67c9b", "fusion_lon": 0.0, "lat": 38.88310466666667, "is_reserved": 0, "type": "electric_scooter", "bike_id": "1e962eee81f62b503e0584cc20d67c9b", "is_disabled": 0, "rental_uris": {"android": "https://dc.lft.to/lastmile_qr_scan", "ios": "https://dc.lft.to/lastmile_qr_scan"}, "lon": -77.000526, "fusion_lat": 0.0}, {"name": "315f741d2bb4d779c28077f6d4544d12", "fusion_lon": 0.0, "lat": 38.918929166666665, "is_reserved": 0, "type": "electric_scooter", "bike_id": "315f741d2bb4d779c28077f6d4544d12", "is_disabled": 0, "rental_uris": {"android": "https://dc.lft.to/lastmile_qr_scan", "ios": "https://dc.lft.to/lastmile_qr_scan"}, "lon": -77.04476966666667, "fusion_lat": 0.0}, {"name": "5b1e58fe1ea97f9457488ed691c70ee2", "fusion_lon": 0.0, "lat": 38.904817, "is_reserved": 0, "type": "electric_scooter", "bike_id": "5b1e58fe1ea97f9457488ed691c70ee2", "is_disabled": 0, "rental_uris": {"android": "https://dc.lft.to/lastmile_qr_scan", "ios": "https://dc.lft.to/lastmile_qr_scan"}, "lon": -77.03219833333333, "fusion_lat": 0.0}, {"name": "c438257077536ab1c4188a7c06275713", "fusion_lon": 0.0, "lat": 38.899096, "is_reserved": 0, "type": "electric_scooter", "bike_id": "c438257077536ab1c4188a7c06275713", "is_disabled": 0, "rental_uris": {"android": "https://dc.lft.to/lastmile_qr_scan", "ios": "https://dc.lft.to/lastmile_qr_scan"}, "lon": -76.97714083333334, "fusion_lat": 0.0}, {"name": "594e1dd732c1a1e7dd598690ecd06cc5", "fusion_lon": 0.0, "lat": 38.927718666666664, "is_reserved": 0, "type": "electric_scooter", "bike_id": "594e1dd732c1a1e7dd598690ecd06cc5", "is_disabled": 0, "rental_uris": {"android": "https://dc.lft.to/lastmile_qr_scan", "ios": "https://dc.lft.to/lastmile_qr_scan"}, "lon": -77.0306425, "fusion_lat": 0.0}, {"name": "cc9591ce49aaf356424311e4e7eaa692", "fusion_lon": 0.0, "lat": 38.838106833333335, "is_reserved": 0, "type": "electric_bike", "bike_id": "cc9591ce49aaf356424311e4e7eaa692", "is_disabled": 0, "rental_uris": {"android": "https://dc.lft.to/lastmile_qr_scan", "ios": "https://dc.lft.to/lastmile_qr_scan"}, "lon": -77.09525283333333, "fusion_lat": 0.0}, {"name": "a72d5834bff2113d80387647db0d266b", "fusion_lon": 0.0, "lat": 38.930215, "is_reserved": 0, "type": "electric_scooter", "bike_id": "a72d5834bff2113d80387647db0d266b", "is_disabled": 0, "rental_uris": {"android": "https://dc.lft.to/lastmile_qr_scan", "ios": "https://dc.lft.to/lastmile_qr_scan"}, "lon": -77.060929, "fusion_lat": 0.0}, {"name": "a4b0885708b0bcc967655c94a965df0b", "fusion_lon": 0.0, "lat": 38.955329166666665, "is_reserved": 0, "type": "electric_scooter", "bike_id": "a4b0885708b0bcc967655c94a965df0b", "is_disabled": 0, "rental_uris": {"android": "https://dc.lft.to/lastmile_qr_scan", "ios": "https://dc.lft.to/lastmile_qr_scan"}, "lon": -77.0278235, "fusion_lat": 0.0}, {"name": "9a31d0c197c4ce379b306bfa6fb1d7e3", "fusion_lon": 0.0, "lat": 38.893441, "is_reserved": 0, "type": "electric_scooter", "bike_id": "9a31d0c197c4ce379b306bfa6fb1d7e3", "is_disabled": 0, "rental_uris": {"android": "https://dc.lft.to/lastmile_qr_scan", "ios": "https://dc.lft.to/lastmile_qr_scan"}, "lon": -77.0172075, "fusion_lat": 0.0}, {"name": "3252fc163820f5f4a46a15e62b0a81b1", "fusion_lon": 0.0, "lat": 38.857743166666666, "is_reserved": 0, "type": "electric_bike", "bike_id": "3252fc163820f5f4a46a15e62b0a81b1", "is_disabled": 0, "rental_uris": {"android": "https://dc.lft.to/lastmile_qr_scan", "ios": "https://dc.lft.to/lastmile_qr_scan"}, "lon": -76.98773616666666, "fusion_lat": 0.0}, {"name": "33420a2fb46a66fb278e2f5c324d845f", "fusion_lon": 0.0, "lat": 38.92420216666667, "is_reserved": 0, "type": "electric_scooter", "bike_id": "33420a2fb46a66fb278e2f5c324d845f", "is_disabled": 0, "rental_uris": {"android": "https://dc.lft.to/lastmile_qr_scan", "ios": "https://dc.lft.to/lastmile_qr_scan"}, "lon": -77.03557333333333, "fusion_lat": 0.0}, {"name": "c455f1b6c1e835d6b6ea016192f901db", "fusion_lon": 0.0, "lat": 38.90807366666667, "is_reserved": 0, "type": "electric_scooter", "bike_id": "c455f1b6c1e835d6b6ea016192f901db", "is_disabled": 0, "rental_uris": {"android": "https://dc.lft.to/lastmile_qr_scan", "ios": "https://dc.lft.to/lastmile_qr_scan"}, "lon": -77.0363765, "fusion_lat": 0.0}, {"name": "64e32cf07a7d1d018d491ab3b6bbfb1b", "fusion_lon": 0.0, "lat": 38.95177433333333, "is_reserved": 0, "type": "electric_scooter", "bike_id": "64e32cf07a7d1d018d491ab3b6bbfb1b", "is_disabled": 0, "rental_uris": {"android": "https://dc.lft.to/lastmile_qr_scan", "ios": "https://dc.lft.to/lastmile_qr_scan"}, "lon": -77.027325, "fusion_lat": 0.0}, {"name": "b49b81fe176b56f2097693aecc1542f0", "fusion_lon": 0.0, "lat": 38.91940916666667, "is_reserved": 0, "type": "electric_scooter", "bike_id": "b49b81fe176b56f2097693aecc1542f0", "is_disabled": 0, "rental_uris": {"android": "https://dc.lft.to/lastmile_qr_scan", "ios": "https://dc.lft.to/lastmile_qr_scan"}, "lon": -77.02488883333334, "fusion_lat": 0.0}, {"name": "b9d308c7a53509aeaf6d9c36fbf45ab5", "fusion_lon": 0.0, "lat": 38.88500583333333, "is_reserved": 0, "type": "electric_scooter", "bike_id": "b9d308c7a53509aeaf6d9c36fbf45ab5", "is_disabled": 0, "rental_uris": {"android": "https://dc.lft.to/lastmile_qr_scan", "ios": "https://dc.lft.to/lastmile_qr_scan"}, "lon": -77.008799, "fusion_lat": 0.0}, {"name": "134dccb93d9694a337b6dcd91524e277", "fusion_lon": 0.0, "lat": 38.9429745, "is_reserved": 0, "type": "electric_scooter", "bike_id": "134dccb93d9694a337b6dcd91524e277", "is_disabled": 0, "rental_uris": {"android": "https://dc.lft.to/lastmile_qr_scan", "ios": "https://dc.lft.to/lastmile_qr_scan"}, "lon": -77.02172566666667, "fusion_lat": 0.0}, {"name": "c90f349cd45b34d455c525d96682e513", "fusion_lon": 0.0, "lat": 38.90065533333333, "is_reserved": 0, "type": "electric_scooter", "bike_id": "c90f349cd45b34d455c525d96682e513", "is_disabled": 0, "rental_uris": {"android": "https://dc.lft.to/lastmile_qr_scan", "ios": "https://dc.lft.to/lastmile_qr_scan"}, "lon": -76.92750433333333, "fusion_lat": 0.0}, {"name": "2c7655b27afde7de1598b100754c3339", "fusion_lon": 0.0, "lat": 38.917812166666664, "is_reserved": 0, "type": "electric_scooter", "bike_id": "2c7655b27afde7de1598b100754c3339", "is_disabled": 0, "rental_uris": {"android": "https://dc.lft.to/lastmile_qr_scan", "ios": "https://dc.lft.to/lastmile_qr_scan"}, "lon": -77.041752, "fusion_lat": 0.0}, {"name": "28b6fcb545a485341e4ad06c8af3e662", "fusion_lon": 0.0, "lat": 38.945071666666664, "is_reserved": 0, "type": "electric_scooter", "bike_id": "28b6fcb545a485341e4ad06c8af3e662", "is_disabled": 0, "rental_uris": {"android": "https://dc.lft.to/lastmile_qr_scan", "ios": "https://dc.lft.to/lastmile_qr_scan"}, "lon": -77.03496716666666, "fusion_lat": 0.0}, {"name": "2b955afcd48696fbf3ea25ee14282dae", "fusion_lon": 0.0, "lat": 38.92206733333333, "is_reserved": 0, "type": "electric_bike", "bike_id": "2b955afcd48696fbf3ea25ee14282dae", "is_disabled": 0, "rental_uris": {"android": "https://dc.lft.to/lastmile_qr_scan", "ios": "https://dc.lft.to/lastmile_qr_scan"}, "lon": -77.081909, "fusion_lat": 0.0}, {"name": "b881c1a09fa6bfb76a4121bdbfa4de74", "fusion_lon": 0.0, "lat": 38.940975, "is_reserved": 0, "type": "electric_bike", "bike_id": "b881c1a09fa6bfb76a4121bdbfa4de74", "is_disabled": 0, "rental_uris": {"android": "https://dc.lft.to/lastmile_qr_scan", "ios": "https://dc.lft.to/lastmile_qr_scan"}, "lon": -77.03279566666667, "fusion_lat": 0.0}, {"name": "ecdb86151052dcdeb7df6c965cd593d2", "fusion_lon": 0.0, "lat": 38.900849666666666, "is_reserved": 0, "type": "electric_scooter", "bike_id": "ecdb86151052dcdeb7df6c965cd593d2", "is_disabled": 0, "rental_uris": {"android": "https://dc.lft.to/lastmile_qr_scan", "ios": "https://dc.lft.to/lastmile_qr_scan"}, "lon": -76.93031066666667, "fusion_lat": 0.0}, {"name": "90ecd3cf7b55899c2ab099d8c12e41dc", "fusion_lon": 0.0, "lat": 38.911993333333335, "is_reserved": 0, "type": "electric_scooter", "bike_id": "90ecd3cf7b55899c2ab099d8c12e41dc", "is_disabled": 0, "rental_uris": {"android": "https://dc.lft.to/lastmile_qr_scan", "ios": "https://dc.lft.to/lastmile_qr_scan"}, "lon": -77.01896133333334, "fusion_lat": 0.0}, {"name": "c33e43c0444db8cca5cde288c9aea50d", "fusion_lon": 0.0, "lat": 38.96099983333333, "is_reserved": 0, "type": "electric_bike", "bike_id": "c33e43c0444db8cca5cde288c9aea50d", "is_disabled": 0, "rental_uris": {"android": "https://dc.lft.to/lastmile_qr_scan", "ios": "https://dc.lft.to/lastmile_qr_scan"}, "lon": -77.06942433333333, "fusion_lat": 0.0}, {"name": "5b5e15bc11855ab55e3935d812808251", "fusion_lon": 0.0, "lat": 38.9205175, "is_reserved": 0, "type": "electric_scooter", "bike_id": "5b5e15bc11855ab55e3935d812808251", "is_disabled": 0, "rental_uris": {"android": "https://dc.lft.to/lastmile_qr_scan", "ios": "https://dc.lft.to/lastmile_qr_scan"}, "lon": -77.02419766666667, "fusion_lat": 0.0}, {"name": "5e3bfa26df3e79b43e3ff890559df350", "fusion_lon": 0.0, "lat": 38.93886533333333, "is_reserved": 0, "type": "electric_scooter", "bike_id": "5e3bfa26df3e79b43e3ff890559df350", "is_disabled": 0, "rental_uris": {"android": "https://dc.lft.to/lastmile_qr_scan", "ios": "https://dc.lft.to/lastmile_qr_scan"}, "lon": -77.02485216666666, "fusion_lat": 0.0}, {"name": "a6f34139b2592125ac146c7025f84963", "fusion_lon": 0.0, "lat": 38.9034945, "is_reserved": 0, "type": "electric_scooter", "bike_id": "a6f34139b2592125ac146c7025f84963", "is_disabled": 0, "rental_uris": {"android": "https://dc.lft.to/lastmile_qr_scan", "ios": "https://dc.lft.to/lastmile_qr_scan"}, "lon": -77.0409585, "fusion_lat": 0.0}, {"name": "0dd74e18329c5611f0c6aedfee5d33a8", "fusion_lon": 0.0, "lat": 38.918417166666664, "is_reserved": 0, "type": "electric_scooter", "bike_id": "0dd74e18329c5611f0c6aedfee5d33a8", "is_disabled": 0, "rental_uris": {"android": "https://dc.lft.to/lastmile_qr_scan", "ios": "https://dc.lft.to/lastmile_qr_scan"}, "lon": -77.02309316666667, "fusion_lat": 0.0}, {"name": "2f865f023209c9c464a287d1516e0c16", "fusion_lon": 0.0, "lat": 38.917099666666665, "is_reserved": 0, "type": "electric_scooter", "bike_id": "2f865f023209c9c464a287d1516e0c16", "is_disabled": 0, "rental_uris": {"android": "https://dc.lft.to/lastmile_qr_scan", "ios": "https://dc.lft.to/lastmile_qr_scan"}, "lon": -77.03319383333333, "fusion_lat": 0.0}, {"name": "a8a03a83945de26253ec3b83a8672a55", "fusion_lon": 0.0, "lat": 38.92360733333334, "is_reserved": 0, "type": "electric_scooter", "bike_id": "a8a03a83945de26253ec3b83a8672a55", "is_disabled": 0, "rental_uris": {"android": "https://dc.lft.to/lastmile_qr_scan", "ios": "https://dc.lft.to/lastmile_qr_scan"}, "lon": -77.0323285, "fusion_lat": 0.0}, {"name": "302c92aea05b4d9f4ecb6942119832a5", "fusion_lon": 0.0, "lat": 38.900156, "is_reserved": 0, "type": "electric_scooter", "bike_id": "302c92aea05b4d9f4ecb6942119832a5", "is_disabled": 0, "rental_uris": {"android": "https://dc.lft.to/lastmile_qr_scan", "ios": "https://dc.lft.to/lastmile_qr_scan"}, "lon": -76.993015, "fusion_lat": 0.0}, {"name": "e1d65a4e6ebcbca6c03a0cab83448290", "fusion_lon": 0.0, "lat": 38.91930883333333, "is_reserved": 0, "type": "electric_scooter", "bike_id": "e1d65a4e6ebcbca6c03a0cab83448290", "is_disabled": 0, "rental_uris": {"android": "https://dc.lft.to/lastmile_qr_scan", "ios": "https://dc.lft.to/lastmile_qr_scan"}, "lon": -77.03426433333334, "fusion_lat": 0.0}, {"name": "a973be509a8bff7f7f6e8b7c69ce56c1", "fusion_lon": 0.0, "lat": 39.01484833333333, "is_reserved": 0, "type": "electric_bike", "bike_id": "a973be509a8bff7f7f6e8b7c69ce56c1", "is_disabled": 0, "rental_uris": {"android": "https://dc.lft.to/lastmile_qr_scan", "ios": "https://dc.lft.to/lastmile_qr_scan"}, "lon": -77.0549575, "fusion_lat": 0.0}, {"name": "6e4c5e8d4a835e9b749251cb2720db40", "fusion_lon": 0.0, "lat": 38.9287745, "is_reserved": 0, "type": "electric_scooter", "bike_id": "6e4c5e8d4a835e9b749251cb2720db40", "is_disabled": 0, "rental_uris": {"android": "https://dc.lft.to/lastmile_qr_scan", "ios": "https://dc.lft.to/lastmile_qr_scan"}, "lon": -77.02649, "fusion_lat": 0.0}, {"name": "73d90e5255136cc958406295418b16b0", "fusion_lon": 0.0, "lat": 38.90629933333334, "is_reserved": 0, "type": "electric_scooter", "bike_id": "73d90e5255136cc958406295418b16b0", "is_disabled": 0, "rental_uris": {"android": "https://dc.lft.to/lastmile_qr_scan", "ios": "https://dc.lft.to/lastmile_qr_scan"}, "lon": -77.02378366666667, "fusion_lat": 0.0}, {"name": "ab0e83054bb62fbce4e46aedd8e78f9b", "fusion_lon": 0.0, "lat": 38.9124155, "is_reserved": 0, "type": "electric_scooter", "bike_id": "ab0e83054bb62fbce4e46aedd8e78f9b", "is_disabled": 0, "rental_uris": {"android": "https://dc.lft.to/lastmile_qr_scan", "ios": "https://dc.lft.to/lastmile_qr_scan"}, "lon": -77.0341875, "fusion_lat": 0.0}, {"name": "837506ce4313343c7d12b2e982fa4e55", "fusion_lon": 0.0, "lat": 38.907874666666665, "is_reserved": 0, "type": "electric_scooter", "bike_id": "837506ce4313343c7d12b2e982fa4e55", "is_disabled": 0, "rental_uris": {"android": "https://dc.lft.to/lastmile_qr_scan", "ios": "https://dc.lft.to/lastmile_qr_scan"}, "lon": -77.00973816666666, "fusion_lat": 0.0}, {"name": "64409c6a45462415d7f1174188154964", "fusion_lon": 0.0, "lat": 38.90628133333333, "is_reserved": 0, "type": "electric_bike", "bike_id": "64409c6a45462415d7f1174188154964", "is_disabled": 0, "rental_uris": {"android": "https://dc.lft.to/lastmile_qr_scan", "ios": "https://dc.lft.to/lastmile_qr_scan"}, "lon": -76.98610233333333, "fusion_lat": 0.0}, {"name": "f13f8db7d0934f5cf05c5eb5dd149c2f", "fusion_lon": 0.0, "lat": 38.90569333333333, "is_reserved": 0, "type": "electric_scooter", "bike_id": "f13f8db7d0934f5cf05c5eb5dd149c2f", "is_disabled": 0, "rental_uris": {"android": "https://dc.lft.to/lastmile_qr_scan", "ios": "https://dc.lft.to/lastmile_qr_scan"}, "lon": -77.0399485, "fusion_lat": 0.0}, {"name": "a067f5e0522e1d386bf254e7f13c700e", "fusion_lon": 0.0, "lat": 38.906640333333335, "is_reserved": 0, "type": "electric_scooter", "bike_id": "a067f5e0522e1d386bf254e7f13c700e", "is_disabled": 0, "rental_uris": {"android": "https://dc.lft.to/lastmile_qr_scan", "ios": "https://dc.lft.to/lastmile_qr_scan"}, "lon": -77.03541633333333, "fusion_lat": 0.0}, {"name": "6ff32366a2cb99d5447b8de598a93187", "fusion_lon": 0.0, "lat": 38.97881116666667, "is_reserved": 0, "type": "electric_bike", "bike_id": "6ff32366a2cb99d5447b8de598a93187", "is_disabled": 0, "rental_uris": {"android": "https://dc.lft.to/lastmile_qr_scan", "ios": "https://dc.lft.to/lastmile_qr_scan"}, "lon": -77.0603215, "fusion_lat": 0.0}, {"name": "ea4cdb26d1505ec25337cab32a8e7327", "fusion_lon": 0.0, "lat": 38.94994666666667, "is_reserved": 0, "type": "electric_scooter", "bike_id": "ea4cdb26d1505ec25337cab32a8e7327", "is_disabled": 0, "rental_uris": {"android": "https://dc.lft.to/lastmile_qr_scan", "ios": "https://dc.lft.to/lastmile_qr_scan"}, "lon": -77.02706216666667, "fusion_lat": 0.0}, {"name": "cb80a9c1ecf122bffaf2e832a5e4c801", "fusion_lon": 0.0, "lat": 38.91126516666667, "is_reserved": 0, "type": "electric_scooter", "bike_id": "cb80a9c1ecf122bffaf2e832a5e4c801", "is_disabled": 0, "rental_uris": {"android": "https://dc.lft.to/lastmile_qr_scan", "ios": "https://dc.lft.to/lastmile_qr_scan"}, "lon": -77.02245983333333, "fusion_lat": 0.0}, {"name": "8f1e8e5e9615264a4d4413af980b4cce", "fusion_lon": 0.0, "lat": 38.9718465, "is_reserved": 0, "type": "electric_scooter", "bike_id": "8f1e8e5e9615264a4d4413af980b4cce", "is_disabled": 0, "rental_uris": {"android": "https://dc.lft.to/lastmile_qr_scan", "ios": "https://dc.lft.to/lastmile_qr_scan"}, "lon": -77.02685416666667, "fusion_lat": 0.0}, {"name": "1bcbee972527ed4fd28ca61f7bf298c0", "fusion_lon": 0.0, "lat": 38.883940333333335, "is_reserved": 0, "type": "electric_scooter", "bike_id": "1bcbee972527ed4fd28ca61f7bf298c0", "is_disabled": 0, "rental_uris": {"android": "https://dc.lft.to/lastmile_qr_scan", "ios": "https://dc.lft.to/lastmile_qr_scan"}, "lon": -77.02573916666667, "fusion_lat": 0.0}, {"name": "52a62805a862e7ce037fda1daebdd7d1", "fusion_lon": 0.0, "lat": 39.000302833333336, "is_reserved": 0, "type": "electric_bike", "bike_id": "52a62805a862e7ce037fda1daebdd7d1", "is_disabled": 0, "rental_uris": {"android": "https://dc.lft.to/lastmile_qr_scan", "ios": "https://dc.lft.to/lastmile_qr_scan"}, "lon": -77.047443, "fusion_lat": 0.0}, {"name": "f23df26a6a829ae69cbe9d1bf8ce685b", "fusion_lon": 0.0, "lat": 38.91840166666667, "is_reserved": 0, "type": "electric_scooter", "bike_id": "f23df26a6a829ae69cbe9d1bf8ce685b", "is_disabled": 0, "rental_uris": {"android": "https://dc.lft.to/lastmile_qr_scan", "ios": "https://dc.lft.to/lastmile_qr_scan"}, "lon": -77.05953866666667, "fusion_lat": 0.0}, {"name": "4216e8397a2f6afd34b708e66b0a5052", "fusion_lon": 0.0, "lat": 38.872974666666664, "is_reserved": 0, "type": "electric_bike", "bike_id": "4216e8397a2f6afd34b708e66b0a5052", "is_disabled": 0, "rental_uris": {"android": "https://dc.lft.to/lastmile_qr_scan", "ios": "https://dc.lft.to/lastmile_qr_scan"}, "lon": -76.96981416666667, "fusion_lat": 0.0}, {"name": "279f5dcdef9db37f52e534169cae6e3e", "fusion_lon": 0.0, "lat": 38.878214, "is_reserved": 0, "type": "electric_scooter", "bike_id": "279f5dcdef9db37f52e534169cae6e3e", "is_disabled": 0, "rental_uris": {"android": "https://dc.lft.to/lastmile_qr_scan", "ios": "https://dc.lft.to/lastmile_qr_scan"}, "lon": -76.9310165, "fusion_lat": 0.0}, {"name": "ad0c507b1103e197e339cc0949794733", "fusion_lon": 0.0, "lat": 38.904172333333335, "is_reserved": 0, "type": "electric_scooter", "bike_id": "ad0c507b1103e197e339cc0949794733", "is_disabled": 0, "rental_uris": {"android": "https://dc.lft.to/lastmile_qr_scan", "ios": "https://dc.lft.to/lastmile_qr_scan"}, "lon": -76.97333883333333, "fusion_lat": 0.0}, {"name": "cb399992a9186926fed54243097d11b3", "fusion_lon": 0.0, "lat": 38.92124333333334, "is_reserved": 0, "type": "electric_scooter", "bike_id": "cb399992a9186926fed54243097d11b3", "is_disabled": 0, "rental_uris": {"android": "https://dc.lft.to/lastmile_qr_scan", "ios": "https://dc.lft.to/lastmile_qr_scan"}, "lon": -77.0365795, "fusion_lat": 0.0}, {"name": "cc303d730794a1a669134591b051e3ae", "fusion_lon": 0.0, "lat": 38.90495216666667, "is_reserved": 0, "type": "electric_bike", "bike_id": "cc303d730794a1a669134591b051e3ae", "is_disabled": 0, "rental_uris": {"android": "https://dc.lft.to/lastmile_qr_scan", "ios": "https://dc.lft.to/lastmile_qr_scan"}, "lon": -76.97424083333334, "fusion_lat": 0.0}, {"name": "c3860cd89c16d44825219f976667b96c", "fusion_lon": 0.0, "lat": 38.924708833333334, "is_reserved": 0, "type": "electric_scooter", "bike_id": "c3860cd89c16d44825219f976667b96c", "is_disabled": 0, "rental_uris": {"android": "https://dc.lft.to/lastmile_qr_scan", "ios": "https://dc.lft.to/lastmile_qr_scan"}, "lon": -77.03900683333333, "fusion_lat": 0.0}, {"name": "43baa5857242fa6e5b06c5edc14e7642", "fusion_lon": 0.0, "lat": 38.91833783333333, "is_reserved": 0, "type": "electric_scooter", "bike_id": "43baa5857242fa6e5b06c5edc14e7642", "is_disabled": 0, "rental_uris": {"android": "https://dc.lft.to/lastmile_qr_scan", "ios": "https://dc.lft.to/lastmile_qr_scan"}, "lon": -77.039041, "fusion_lat": 0.0}, {"name": "273b452e0e05dc389526d44e6ece6faf", "fusion_lon": 0.0, "lat": 38.90609166666667, "is_reserved": 0, "type": "electric_scooter", "bike_id": "273b452e0e05dc389526d44e6ece6faf", "is_disabled": 0, "rental_uris": {"android": "https://dc.lft.to/lastmile_qr_scan", "ios": "https://dc.lft.to/lastmile_qr_scan"}, "lon": -77.021145, "fusion_lat": 0.0}, {"name": "e8afb8557ba8cb3490b6eecf42858654", "fusion_lon": 0.0, "lat": 38.9650765, "is_reserved": 0, "type": "electric_bike", "bike_id": "e8afb8557ba8cb3490b6eecf42858654", "is_disabled": 0, "rental_uris": {"android": "https://dc.lft.to/lastmile_qr_scan", "ios": "https://dc.lft.to/lastmile_qr_scan"}, "lon": -77.028201, "fusion_lat": 0.0}, {"name": "faa82f93a77a8a68c525744685d503e9", "fusion_lon": 0.0, "lat": 38.905821333333336, "is_reserved": 0, "type": "electric_scooter", "bike_id": "faa82f93a77a8a68c525744685d503e9", "is_disabled": 0, "rental_uris": {"android": "https://dc.lft.to/lastmile_qr_scan", "ios": "https://dc.lft.to/lastmile_qr_scan"}, "lon": -77.04140283333334, "fusion_lat": 0.0}, {"name": "bee95389664ce6a9603644a92901b8cb", "fusion_lon": 0.0, "lat": 38.921546, "is_reserved": 0, "type": "electric_scooter", "bike_id": "bee95389664ce6a9603644a92901b8cb", "is_disabled": 0, "rental_uris": {"android": "https://dc.lft.to/lastmile_qr_scan", "ios": "https://dc.lft.to/lastmile_qr_scan"}, "lon": -77.0346805, "fusion_lat": 0.0}, {"name": "d455bba70533787ca2b55ffed945fd08", "fusion_lon": 0.0, "lat": 38.902427833333334, "is_reserved": 0, "type": "electric_scooter", "bike_id": "d455bba70533787ca2b55ffed945fd08", "is_disabled": 0, "rental_uris": {"android": "https://dc.lft.to/lastmile_qr_scan", "ios": "https://dc.lft.to/lastmile_qr_scan"}, "lon": -77.002023, "fusion_lat": 0.0}, {"name": "271f6e88aad0769cadf95a3485a682d3", "fusion_lon": 0.0, "lat": 38.913276, "is_reserved": 0, "type": "electric_scooter", "bike_id": "271f6e88aad0769cadf95a3485a682d3", "is_disabled": 0, "rental_uris": {"android": "https://dc.lft.to/lastmile_qr_scan", "ios": "https://dc.lft.to/lastmile_qr_scan"}, "lon": -77.03669433333333, "fusion_lat": 0.0}, {"name": "409f392ff74a4fc6191ad385676bf2df", "fusion_lon": 0.0, "lat": 38.8923865, "is_reserved": 0, "type": "electric_scooter", "bike_id": "409f392ff74a4fc6191ad385676bf2df", "is_disabled": 0, "rental_uris": {"android": "https://dc.lft.to/lastmile_qr_scan", "ios": "https://dc.lft.to/lastmile_qr_scan"}, "lon": -77.03209783333334, "fusion_lat": 0.0}, {"name": "a4036708dccb2cb545dc360413a5750b", "fusion_lon": 0.0, "lat": 38.962245833333334, "is_reserved": 0, "type": "electric_bike", "bike_id": "a4036708dccb2cb545dc360413a5750b", "is_disabled": 0, "rental_uris": {"android": "https://dc.lft.to/lastmile_qr_scan", "ios": "https://dc.lft.to/lastmile_qr_scan"}, "lon": -77.02629666666667, "fusion_lat": 0.0}, {"name": "0905bd0e237c1f32e0128539d9edcdd8", "fusion_lon": 0.0, "lat": 38.8852555, "is_reserved": 0, "type": "electric_scooter", "bike_id": "0905bd0e237c1f32e0128539d9edcdd8", "is_disabled": 0, "rental_uris": {"android": "https://dc.lft.to/lastmile_qr_scan", "ios": "https://dc.lft.to/lastmile_qr_scan"}, "lon": -76.996261, "fusion_lat": 0.0}, {"name": "0fee963801987a965cb2fceb06dd8dab", "fusion_lon": 0.0, "lat": 38.91312383333333, "is_reserved": 0, "type": "electric_scooter", "bike_id": "0fee963801987a965cb2fceb06dd8dab", "is_disabled": 0, "rental_uris": {"android": "https://dc.lft.to/lastmile_qr_scan", "ios": "https://dc.lft.to/lastmile_qr_scan"}, "lon": -77.04531216666666, "fusion_lat": 0.0}, {"name": "507d2c045b45f77750b62eea9653eef7", "fusion_lon": 0.0, "lat": 38.870901, "is_reserved": 0, "type": "electric_scooter", "bike_id": "507d2c045b45f77750b62eea9653eef7", "is_disabled": 0, "rental_uris": {"android": "https://dc.lft.to/lastmile_qr_scan", "ios": "https://dc.lft.to/lastmile_qr_scan"}, "lon": -77.01360333333334, "fusion_lat": 0.0}, {"name": "81da7c2a51a7e7180492b0cd268e1574", "fusion_lon": 0.0, "lat": 38.90541266666666, "is_reserved": 0, "type": "electric_scooter", "bike_id": "81da7c2a51a7e7180492b0cd268e1574", "is_disabled": 0, "rental_uris": {"android": "https://dc.lft.to/lastmile_qr_scan", "ios": "https://dc.lft.to/lastmile_qr_scan"}, "lon": -77.02974783333333, "fusion_lat": 0.0}, {"name": "db78222a66e01af8a9d02cc37e8c1bfa", "fusion_lon": 0.0, "lat": 38.884624333333335, "is_reserved": 0, "type": "electric_scooter", "bike_id": "db78222a66e01af8a9d02cc37e8c1bfa", "is_disabled": 0, "rental_uris": {"android": "https://dc.lft.to/lastmile_qr_scan", "ios": "https://dc.lft.to/lastmile_qr_scan"}, "lon": -76.92625333333334, "fusion_lat": 0.0}, {"name": "c563af92ec9ce469b6cb5299454820b6", "fusion_lon": 0.0, "lat": 38.886089, "is_reserved": 0, "type": "electric_scooter", "bike_id": "c563af92ec9ce469b6cb5299454820b6", "is_disabled": 0, "rental_uris": {"android": "https://dc.lft.to/lastmile_qr_scan", "ios": "https://dc.lft.to/lastmile_qr_scan"}, "lon": -76.99514483333333, "fusion_lat": 0.0}, {"name": "b8d7584cdae8e8a0e93f659da68b79a0", "fusion_lon": 0.0, "lat": 38.9038195, "is_reserved": 0, "type": "electric_scooter", "bike_id": "b8d7584cdae8e8a0e93f659da68b79a0", "is_disabled": 0, "rental_uris": {"android": "https://dc.lft.to/lastmile_qr_scan", "ios": "https://dc.lft.to/lastmile_qr_scan"}, "lon": -77.0383235, "fusion_lat": 0.0}, {"name": "6ee461089ce08e3384f177448344da0f", "fusion_lon": 0.0, "lat": 38.92932033333334, "is_reserved": 0, "type": "electric_bike", "bike_id": "6ee461089ce08e3384f177448344da0f", "is_disabled": 0, "rental_uris": {"android": "https://dc.lft.to/lastmile_qr_scan", "ios": "https://dc.lft.to/lastmile_qr_scan"}, "lon": -77.02782383333333, "fusion_lat": 0.0}, {"name": "f33c88add2ad6291367a92147500de2e", "fusion_lon": 0.0, "lat": 38.90166166666667, "is_reserved": 0, "type": "electric_scooter", "bike_id": "f33c88add2ad6291367a92147500de2e", "is_disabled": 0, "rental_uris": {"android": "https://dc.lft.to/lastmile_qr_scan", "ios": "https://dc.lft.to/lastmile_qr_scan"}, "lon": -77.0602625, "fusion_lat": 0.0}, {"name": "1b4b2740732234232be73dd7a657117f", "fusion_lon": 0.0, "lat": 38.87273833333333, "is_reserved": 0, "type": "electric_bike", "bike_id": "1b4b2740732234232be73dd7a657117f", "is_disabled": 0, "rental_uris": {"android": "https://dc.lft.to/lastmile_qr_scan", "ios": "https://dc.lft.to/lastmile_qr_scan"}, "lon": -77.23328033333334, "fusion_lat": 0.0}, {"name": "cef3ac5cafbd1875d70acf7d5bbe3ad3", "fusion_lon": 0.0, "lat": 38.9272485, "is_reserved": 0, "type": "electric_scooter", "bike_id": "cef3ac5cafbd1875d70acf7d5bbe3ad3", "is_disabled": 0, "rental_uris": {"android": "https://dc.lft.to/lastmile_qr_scan", "ios": "https://dc.lft.to/lastmile_qr_scan"}, "lon": -77.039971, "fusion_lat": 0.0}, {"name": "b53943ea2268b5e2dcb65b9b1455c79f", "fusion_lon": 0.0, "lat": 38.964718833333336, "is_reserved": 0, "type": "electric_bike", "bike_id": "b53943ea2268b5e2dcb65b9b1455c79f", "is_disabled": 0, "rental_uris": {"android": "https://dc.lft.to/lastmile_qr_scan", "ios": "https://dc.lft.to/lastmile_qr_scan"}, "lon": -77.03567616666666, "fusion_lat": 0.0}, {"name": "fc3fce699b28005a0d0cc321cc2f4358", "fusion_lon": 0.0, "lat": 38.900851833333334, "is_reserved": 0, "type": "electric_scooter", "bike_id": "fc3fce699b28005a0d0cc321cc2f4358", "is_disabled": 0, "rental_uris": {"android": "https://dc.lft.to/lastmile_qr_scan", "ios": "https://dc.lft.to/lastmile_qr_scan"}, "lon": -77.04767666666666, "fusion_lat": 0.0}, {"name": "25c2308845faf63b32db9a6d593c97e6", "fusion_lon": 0.0, "lat": 38.92869916666667, "is_reserved": 0, "type": "electric_scooter", "bike_id": "25c2308845faf63b32db9a6d593c97e6", "is_disabled": 0, "rental_uris": {"android": "https://dc.lft.to/lastmile_qr_scan", "ios": "https://dc.lft.to/lastmile_qr_scan"}, "lon": -77.035028, "fusion_lat": 0.0}, {"name": "39e50a10752353f9eea9592eced8c7e0", "fusion_lon": 0.0, "lat": 38.905665166666665, "is_reserved": 0, "type": "electric_scooter", "bike_id": "39e50a10752353f9eea9592eced8c7e0", "is_disabled": 0, "rental_uris": {"android": "https://dc.lft.to/lastmile_qr_scan", "ios": "https://dc.lft.to/lastmile_qr_scan"}, "lon": -77.0071565, "fusion_lat": 0.0}, {"name": "6c153ff2beaf3d085cbfdec26bf2625b", "fusion_lon": 0.0, "lat": 38.90645583333333, "is_reserved": 0, "type": "electric_scooter", "bike_id": "6c153ff2beaf3d085cbfdec26bf2625b", "is_disabled": 0, "rental_uris": {"android": "https://dc.lft.to/lastmile_qr_scan", "ios": "https://dc.lft.to/lastmile_qr_scan"}, "lon": -77.06921066666666, "fusion_lat": 0.0}, {"name": "a990195bc3b1350ddf53c4490b3359de", "fusion_lon": 0.0, "lat": 38.90830616666667, "is_reserved": 0, "type": "electric_scooter", "bike_id": "a990195bc3b1350ddf53c4490b3359de", "is_disabled": 0, "rental_uris": {"android": "https://dc.lft.to/lastmile_qr_scan", "ios": "https://dc.lft.to/lastmile_qr_scan"}, "lon": -76.941619, "fusion_lat": 0.0}, {"name": "094e5412c8cef338dc773ceff19bd056", "fusion_lon": 0.0, "lat": 38.913858166666664, "is_reserved": 0, "type": "electric_scooter", "bike_id": "094e5412c8cef338dc773ceff19bd056", "is_disabled": 0, "rental_uris": {"android": "https://dc.lft.to/lastmile_qr_scan", "ios": "https://dc.lft.to/lastmile_qr_scan"}, "lon": -77.0413515, "fusion_lat": 0.0}, {"name": "fb5d43a312306f00327fcd39318c4385", "fusion_lon": 0.0, "lat": 38.90010133333333, "is_reserved": 0, "type": "electric_scooter", "bike_id": "fb5d43a312306f00327fcd39318c4385", "is_disabled": 0, "rental_uris": {"android": "https://dc.lft.to/lastmile_qr_scan", "ios": "https://dc.lft.to/lastmile_qr_scan"}, "lon": -77.00675566666666, "fusion_lat": 0.0}, {"name": "798936a683f690e7c79ecaf2e1e35613", "fusion_lon": 0.0, "lat": 38.87453083333333, "is_reserved": 0, "type": "electric_scooter", "bike_id": "798936a683f690e7c79ecaf2e1e35613", "is_disabled": 0, "rental_uris": {"android": "https://dc.lft.to/lastmile_qr_scan", "ios": "https://dc.lft.to/lastmile_qr_scan"}, "lon": -77.00294633333333, "fusion_lat": 0.0}, {"name": "fb1a1c9f65d16a39817e15f2e68e3dee", "fusion_lon": 0.0, "lat": 38.89879766666667, "is_reserved": 0, "type": "electric_scooter", "bike_id": "fb1a1c9f65d16a39817e15f2e68e3dee", "is_disabled": 0, "rental_uris": {"android": "https://dc.lft.to/lastmile_qr_scan", "ios": "https://dc.lft.to/lastmile_qr_scan"}, "lon": -76.93188216666667, "fusion_lat": 0.0}, {"name": "ff75e5e4ef8eb748637aada5625803bb", "fusion_lon": 0.0, "lat": 38.92095416666667, "is_reserved": 0, "type": "electric_scooter", "bike_id": "ff75e5e4ef8eb748637aada5625803bb", "is_disabled": 0, "rental_uris": {"android": "https://dc.lft.to/lastmile_qr_scan", "ios": "https://dc.lft.to/lastmile_qr_scan"}, "lon": -77.02435666666666, "fusion_lat": 0.0}, {"name": "916c59e10c3c15a3562cd8eed1e98ce7", "fusion_lon": 0.0, "lat": 38.90216266666667, "is_reserved": 0, "type": "electric_scooter", "bike_id": "916c59e10c3c15a3562cd8eed1e98ce7", "is_disabled": 0, "rental_uris": {"android": "https://dc.lft.to/lastmile_qr_scan", "ios": "https://dc.lft.to/lastmile_qr_scan"}, "lon": -77.02170416666667, "fusion_lat": 0.0}, {"name": "c370750004e976ef16ce9c988a7d8d90", "fusion_lon": 0.0, "lat": 38.88136016666667, "is_reserved": 0, "type": "electric_scooter", "bike_id": "c370750004e976ef16ce9c988a7d8d90", "is_disabled": 0, "rental_uris": {"android": "https://dc.lft.to/lastmile_qr_scan", "ios": "https://dc.lft.to/lastmile_qr_scan"}, "lon": -77.01338166666666, "fusion_lat": 0.0}, {"name": "a2950904648f206b4d8bfe771f379fdc", "fusion_lon": 0.0, "lat": 38.8706225, "is_reserved": 0, "type": "electric_scooter", "bike_id": "a2950904648f206b4d8bfe771f379fdc", "is_disabled": 0, "rental_uris": {"android": "https://dc.lft.to/lastmile_qr_scan", "ios": "https://dc.lft.to/lastmile_qr_scan"}, "lon": -76.98092616666666, "fusion_lat": 0.0}, {"name": "c27895d832a7103beb55f8dc0913246d", "fusion_lon": 0.0, "lat": 38.83797633333333, "is_reserved": 0, "type": "electric_bike", "bike_id": "c27895d832a7103beb55f8dc0913246d", "is_disabled": 0, "rental_uris": {"android": "https://dc.lft.to/lastmile_qr_scan", "ios": "https://dc.lft.to/lastmile_qr_scan"}, "lon": -76.99754833333333, "fusion_lat": 0.0}, {"name": "80d9fb265e87ca37567ffcf00891fc83", "fusion_lon": 0.0, "lat": 38.900813666666664, "is_reserved": 0, "type": "electric_scooter", "bike_id": "80d9fb265e87ca37567ffcf00891fc83", "is_disabled": 0, "rental_uris": {"android": "https://dc.lft.to/lastmile_qr_scan", "ios": "https://dc.lft.to/lastmile_qr_scan"}, "lon": -77.0308715, "fusion_lat": 0.0}, {"name": "c2fd6e3a1c15fdf067dd9e1830c71e70", "fusion_lon": 0.0, "lat": 38.91324766666666, "is_reserved": 0, "type": "electric_scooter", "bike_id": "c2fd6e3a1c15fdf067dd9e1830c71e70", "is_disabled": 0, "rental_uris": {"android": "https://dc.lft.to/lastmile_qr_scan", "ios": "https://dc.lft.to/lastmile_qr_scan"}, "lon": -76.985037, "fusion_lat": 0.0}, {"name": "e375369c76ce12512e82609c3e6041e9", "fusion_lon": 0.0, "lat": 38.92451533333333, "is_reserved": 0, "type": "electric_bike", "bike_id": "e375369c76ce12512e82609c3e6041e9", "is_disabled": 0, "rental_uris": {"android": "https://dc.lft.to/lastmile_qr_scan", "ios": "https://dc.lft.to/lastmile_qr_scan"}, "lon": -77.22575416666666, "fusion_lat": 0.0}, {"name": "719702193ac230b03e65c2fb127d4673", "fusion_lon": 0.0, "lat": 38.903594166666664, "is_reserved": 0, "type": "electric_scooter", "bike_id": "719702193ac230b03e65c2fb127d4673", "is_disabled": 0, "rental_uris": {"android": "https://dc.lft.to/lastmile_qr_scan", "ios": "https://dc.lft.to/lastmile_qr_scan"}, "lon": -77.05016666666667, "fusion_lat": 0.0}, {"name": "5ffd378ebc827028a1630d133cc78fbf", "fusion_lon": 0.0, "lat": 38.9529705, "is_reserved": 0, "type": "electric_bike", "bike_id": "5ffd378ebc827028a1630d133cc78fbf", "is_disabled": 0, "rental_uris": {"android": "https://dc.lft.to/lastmile_qr_scan", "ios": "https://dc.lft.to/lastmile_qr_scan"}, "lon": -77.02403866666667, "fusion_lat": 0.0}, {"name": "e2c9c6165ecebf50f125982aefb0c799", "fusion_lon": 0.0, "lat": 38.919214833333335, "is_reserved": 0, "type": "electric_scooter", "bike_id": "e2c9c6165ecebf50f125982aefb0c799", "is_disabled": 0, "rental_uris": {"android": "https://dc.lft.to/lastmile_qr_scan", "ios": "https://dc.lft.to/lastmile_qr_scan"}, "lon": -77.02516233333333, "fusion_lat": 0.0}, {"name": "8c60dd03a2021cbf05486f75dfc9b791", "fusion_lon": 0.0, "lat": 38.904642333333335, "is_reserved": 0, "type": "electric_scooter", "bike_id": "8c60dd03a2021cbf05486f75dfc9b791", "is_disabled": 0, "rental_uris": {"android": "https://dc.lft.to/lastmile_qr_scan", "ios": "https://dc.lft.to/lastmile_qr_scan"}, "lon": -77.04045283333333, "fusion_lat": 0.0}, {"name": "f99ee85d7512099aef20c21f771b2b6d", "fusion_lon": 0.0, "lat": 38.87889033333333, "is_reserved": 0, "type": "electric_bike", "bike_id": "f99ee85d7512099aef20c21f771b2b6d", "is_disabled": 0, "rental_uris": {"android": "https://dc.lft.to/lastmile_qr_scan", "ios": "https://dc.lft.to/lastmile_qr_scan"}, "lon": -77.09617883333334, "fusion_lat": 0.0}, {"name": "999419449d882341df4a4364f47ffc8d", "fusion_lon": 0.0, "lat": 38.897738, "is_reserved": 0, "type": "electric_scooter", "bike_id": "999419449d882341df4a4364f47ffc8d", "is_disabled": 0, "rental_uris": {"android": "https://dc.lft.to/lastmile_qr_scan", "ios": "https://dc.lft.to/lastmile_qr_scan"}, "lon": -77.00884833333333, "fusion_lat": 0.0}, {"name": "355729dc7a07c1b5e64732dcf6f30766", "fusion_lon": 0.0, "lat": 38.917757333333334, "is_reserved": 0, "type": "electric_scooter", "bike_id": "355729dc7a07c1b5e64732dcf6f30766", "is_disabled": 0, "rental_uris": {"android": "https://dc.lft.to/lastmile_qr_scan", "ios": "https://dc.lft.to/lastmile_qr_scan"}, "lon": -77.04063883333333, "fusion_lat": 0.0}, {"name": "a02a8adf4be977abce378f67d96b3457", "fusion_lon": 0.0, "lat": 38.922306, "is_reserved": 0, "type": "electric_scooter", "bike_id": "a02a8adf4be977abce378f67d96b3457", "is_disabled": 0, "rental_uris": {"android": "https://dc.lft.to/lastmile_qr_scan", "ios": "https://dc.lft.to/lastmile_qr_scan"}, "lon": -77.04500683333333, "fusion_lat": 0.0}, {"name": "99d99d9f4e1538eaaa39453e6c0123c4", "fusion_lon": 0.0, "lat": 38.92505766666667, "is_reserved": 0, "type": "electric_scooter", "bike_id": "99d99d9f4e1538eaaa39453e6c0123c4", "is_disabled": 0, "rental_uris": {"android": "https://dc.lft.to/lastmile_qr_scan", "ios": "https://dc.lft.to/lastmile_qr_scan"}, "lon": -77.02362916666667, "fusion_lat": 0.0}, {"name": "5a6ce84cf1ff0c50765544e52c0ac592", "fusion_lon": 0.0, "lat": 38.91700633333333, "is_reserved": 0, "type": "electric_scooter", "bike_id": "5a6ce84cf1ff0c50765544e52c0ac592", "is_disabled": 0, "rental_uris": {"android": "https://dc.lft.to/lastmile_qr_scan", "ios": "https://dc.lft.to/lastmile_qr_scan"}, "lon": -77.04266816666667, "fusion_lat": 0.0}, {"name": "cfdc31d6eacabb7c7f8bbdcb071f84bb", "fusion_lon": 0.0, "lat": 38.903310166666664, "is_reserved": 0, "type": "electric_scooter", "bike_id": "cfdc31d6eacabb7c7f8bbdcb071f84bb", "is_disabled": 0, "rental_uris": {"android": "https://dc.lft.to/lastmile_qr_scan", "ios": "https://dc.lft.to/lastmile_qr_scan"}, "lon": -76.98169033333333, "fusion_lat": 0.0}, {"name": "f312bb2637efa8b1cde7adbc8c1688df", "fusion_lon": 0.0, "lat": 38.924488833333335, "is_reserved": 0, "type": "electric_scooter", "bike_id": "f312bb2637efa8b1cde7adbc8c1688df", "is_disabled": 0, "rental_uris": {"android": "https://dc.lft.to/lastmile_qr_scan", "ios": "https://dc.lft.to/lastmile_qr_scan"}, "lon": -77.04108, "fusion_lat": 0.0}, {"name": "78425c7d4e3a2787531064b57fdc8bed", "fusion_lon": 0.0, "lat": 38.885351666666665, "is_reserved": 0, "type": "electric_scooter", "bike_id": "78425c7d4e3a2787531064b57fdc8bed", "is_disabled": 0, "rental_uris": {"android": "https://dc.lft.to/lastmile_qr_scan", "ios": "https://dc.lft.to/lastmile_qr_scan"}, "lon": -76.998304, "fusion_lat": 0.0}, {"name": "6eb4f6c27230ba0b4b6422ef53729678", "fusion_lon": 0.0, "lat": 38.96791533333333, "is_reserved": 0, "type": "electric_bike", "bike_id": "6eb4f6c27230ba0b4b6422ef53729678", "is_disabled": 0, "rental_uris": {"android": "https://dc.lft.to/lastmile_qr_scan", "ios": "https://dc.lft.to/lastmile_qr_scan"}, "lon": -77.00044533333333, "fusion_lat": 0.0}, {"name": "fe31231d2ba59495f3f8139674f8bf62", "fusion_lon": 0.0, "lat": 38.90031883333333, "is_reserved": 0, "type": "electric_scooter", "bike_id": "fe31231d2ba59495f3f8139674f8bf62", "is_disabled": 0, "rental_uris": {"android": "https://dc.lft.to/lastmile_qr_scan", "ios": "https://dc.lft.to/lastmile_qr_scan"}, "lon": -77.043355, "fusion_lat": 0.0}, {"name": "df33abf2cd20f8f327a12ed5de7f4037", "fusion_lon": 0.0, "lat": 38.93084016666667, "is_reserved": 0, "type": "electric_scooter", "bike_id": "df33abf2cd20f8f327a12ed5de7f4037", "is_disabled": 0, "rental_uris": {"android": "https://dc.lft.to/lastmile_qr_scan", "ios": "https://dc.lft.to/lastmile_qr_scan"}, "lon": -77.027979, "fusion_lat": 0.0}, {"name": "5263d25e61be98a154a2701733dbbccc", "fusion_lon": 0.0, "lat": 38.9217495, "is_reserved": 0, "type": "electric_scooter", "bike_id": "5263d25e61be98a154a2701733dbbccc", "is_disabled": 0, "rental_uris": {"android": "https://dc.lft.to/lastmile_qr_scan", "ios": "https://dc.lft.to/lastmile_qr_scan"}, "lon": -77.03835433333333, "fusion_lat": 0.0}, {"name": "12ff77d53ac0f9ad020e9d6b858d2edf", "fusion_lon": 0.0, "lat": 38.898746333333335, "is_reserved": 0, "type": "electric_scooter", "bike_id": "12ff77d53ac0f9ad020e9d6b858d2edf", "is_disabled": 0, "rental_uris": {"android": "https://dc.lft.to/lastmile_qr_scan", "ios": "https://dc.lft.to/lastmile_qr_scan"}, "lon": -77.02426616666666, "fusion_lat": 0.0}, {"name": "34a3a8abd44a3db1b9db922729875bf5", "fusion_lon": 0.0, "lat": 38.928640333333334, "is_reserved": 0, "type": "electric_scooter", "bike_id": "34a3a8abd44a3db1b9db922729875bf5", "is_disabled": 0, "rental_uris": {"android": "https://dc.lft.to/lastmile_qr_scan", "ios": "https://dc.lft.to/lastmile_qr_scan"}, "lon": -77.03289216666667, "fusion_lat": 0.0}, {"name": "5b0144212708ee0695d25e7def1d4ac3", "fusion_lon": 0.0, "lat": 38.92290333333333, "is_reserved": 0, "type": "electric_scooter", "bike_id": "5b0144212708ee0695d25e7def1d4ac3", "is_disabled": 0, "rental_uris": {"android": "https://dc.lft.to/lastmile_qr_scan", "ios": "https://dc.lft.to/lastmile_qr_scan"}, "lon": -77.01843416666667, "fusion_lat": 0.0}, {"name": "9e9d1c5311a5e90dbaaca2dfc8b65255", "fusion_lon": 0.0, "lat": 38.93011816666667, "is_reserved": 0, "type": "electric_scooter", "bike_id": "9e9d1c5311a5e90dbaaca2dfc8b65255", "is_disabled": 0, "rental_uris": {"android": "https://dc.lft.to/lastmile_qr_scan", "ios": "https://dc.lft.to/lastmile_qr_scan"}, "lon": -77.02113883333334, "fusion_lat": 0.0}, {"name": "90294c3e44d67d80576a8ceb32fd3476", "fusion_lon": 0.0, "lat": 38.909735166666664, "is_reserved": 0, "type": "electric_scooter", "bike_id": "90294c3e44d67d80576a8ceb32fd3476", "is_disabled": 0, "rental_uris": {"android": "https://dc.lft.to/lastmile_qr_scan", "ios": "https://dc.lft.to/lastmile_qr_scan"}, "lon": -77.03599216666667, "fusion_lat": 0.0}, {"name": "66f3ce34f6e35d1daf37ec5a7044a1ab", "fusion_lon": 0.0, "lat": 38.86514616666667, "is_reserved": 0, "type": "electric_scooter", "bike_id": "66f3ce34f6e35d1daf37ec5a7044a1ab", "is_disabled": 0, "rental_uris": {"android": "https://dc.lft.to/lastmile_qr_scan", "ios": "https://dc.lft.to/lastmile_qr_scan"}, "lon": -76.990207, "fusion_lat": 0.0}, {"name": "92999db50e3b3a487ce281fe2b0e9de6", "fusion_lon": 0.0, "lat": 38.904487333333336, "is_reserved": 0, "type": "electric_scooter", "bike_id": "92999db50e3b3a487ce281fe2b0e9de6", "is_disabled": 0, "rental_uris": {"android": "https://dc.lft.to/lastmile_qr_scan", "ios": "https://dc.lft.to/lastmile_qr_scan"}, "lon": -76.98001666666667, "fusion_lat": 0.0}, {"name": "bfbaf6ae55f2e4faf747736a209b9679", "fusion_lon": 0.0, "lat": 38.91565583333333, "is_reserved": 0, "type": "electric_scooter", "bike_id": "bfbaf6ae55f2e4faf747736a209b9679", "is_disabled": 0, "rental_uris": {"android": "https://dc.lft.to/lastmile_qr_scan", "ios": "https://dc.lft.to/lastmile_qr_scan"}, "lon": -77.03764783333334, "fusion_lat": 0.0}, {"name": "845de4978637e34e59ebb1e9c3c6ee11", "fusion_lon": 0.0, "lat": 38.903182666666666, "is_reserved": 0, "type": "electric_scooter", "bike_id": "845de4978637e34e59ebb1e9c3c6ee11", "is_disabled": 0, "rental_uris": {"android": "https://dc.lft.to/lastmile_qr_scan", "ios": "https://dc.lft.to/lastmile_qr_scan"}, "lon": -77.03829783333333, "fusion_lat": 0.0}, {"name": "7a5cb40fe19b593a8c8e32602a525cf6", "fusion_lon": 0.0, "lat": 38.983634333333335, "is_reserved": 0, "type": "electric_bike", "bike_id": "7a5cb40fe19b593a8c8e32602a525cf6", "is_disabled": 0, "rental_uris": {"android": "https://dc.lft.to/lastmile_qr_scan", "ios": "https://dc.lft.to/lastmile_qr_scan"}, "lon": -76.972177, "fusion_lat": 0.0}, {"name": "a18b7ca239c64a3ff89d45bf88b34603", "fusion_lon": 0.0, "lat": 38.91825516666667, "is_reserved": 0, "type": "electric_scooter", "bike_id": "a18b7ca239c64a3ff89d45bf88b34603", "is_disabled": 0, "rental_uris": {"android": "https://dc.lft.to/lastmile_qr_scan", "ios": "https://dc.lft.to/lastmile_qr_scan"}, "lon": -77.02714516666667, "fusion_lat": 0.0}, {"name": "275ad02614b2d147f3b0ff720996a8f9", "fusion_lon": 0.0, "lat": 38.931517666666664, "is_reserved": 0, "type": "electric_bike", "bike_id": "275ad02614b2d147f3b0ff720996a8f9", "is_disabled": 0, "rental_uris": {"android": "https://dc.lft.to/lastmile_qr_scan", "ios": "https://dc.lft.to/lastmile_qr_scan"}, "lon": -77.02721616666666, "fusion_lat": 0.0}, {"name": "d0d3cdb4425273c6223bbdb3cc9c49fa", "fusion_lon": 0.0, "lat": 38.923484, "is_reserved": 0, "type": "electric_scooter", "bike_id": "d0d3cdb4425273c6223bbdb3cc9c49fa", "is_disabled": 0, "rental_uris": {"android": "https://dc.lft.to/lastmile_qr_scan", "ios": "https://dc.lft.to/lastmile_qr_scan"}, "lon": -77.05087733333333, "fusion_lat": 0.0}, {"name": "0825b83c469de60c1e80ca4869344400", "fusion_lon": 0.0, "lat": 38.87478983333333, "is_reserved": 0, "type": "electric_bike", "bike_id": "0825b83c469de60c1e80ca4869344400", "is_disabled": 0, "rental_uris": {"android": "https://dc.lft.to/lastmile_qr_scan", "ios": "https://dc.lft.to/lastmile_qr_scan"}, "lon": -77.00255266666667, "fusion_lat": 0.0}, {"name": "c6330da54e8526ffe0320c594094b091", "fusion_lon": 0.0, "lat": 38.92423766666667, "is_reserved": 0, "type": "electric_scooter", "bike_id": "c6330da54e8526ffe0320c594094b091", "is_disabled": 0, "rental_uris": {"android": "https://dc.lft.to/lastmile_qr_scan", "ios": "https://dc.lft.to/lastmile_qr_scan"}, "lon": -77.05064883333333, "fusion_lat": 0.0}, {"name": "0ca6a6fa44b396b55f9e3026ec6e5901", "fusion_lon": 0.0, "lat": 38.88438983333333, "is_reserved": 0, "type": "electric_scooter", "bike_id": "0ca6a6fa44b396b55f9e3026ec6e5901", "is_disabled": 0, "rental_uris": {"android": "https://dc.lft.to/lastmile_qr_scan", "ios": "https://dc.lft.to/lastmile_qr_scan"}, "lon": -77.02961216666667, "fusion_lat": 0.0}, {"name": "910c2c6a6cf12c05e84416d6c2bff275", "fusion_lon": 0.0, "lat": 38.8624335, "is_reserved": 0, "type": "electric_scooter", "bike_id": "910c2c6a6cf12c05e84416d6c2bff275", "is_disabled": 0, "rental_uris": {"android": "https://dc.lft.to/lastmile_qr_scan", "ios": "https://dc.lft.to/lastmile_qr_scan"}, "lon": -76.99501233333334, "fusion_lat": 0.0}, {"name": "cbd5a64d0fc31993081f79a2266a4a29", "fusion_lon": 0.0, "lat": 38.92586816666667, "is_reserved": 0, "type": "electric_scooter", "bike_id": "cbd5a64d0fc31993081f79a2266a4a29", "is_disabled": 0, "rental_uris": {"android": "https://dc.lft.to/lastmile_qr_scan", "ios": "https://dc.lft.to/lastmile_qr_scan"}, "lon": -77.039195, "fusion_lat": 0.0}, {"name": "d7a4f13a7384f39d4b975358f1e2cdc5", "fusion_lon": 0.0, "lat": 38.95750366666667, "is_reserved": 0, "type": "electric_scooter", "bike_id": "d7a4f13a7384f39d4b975358f1e2cdc5", "is_disabled": 0, "rental_uris": {"android": "https://dc.lft.to/lastmile_qr_scan", "ios": "https://dc.lft.to/lastmile_qr_scan"}, "lon": -77.02067966666667, "fusion_lat": 0.0}, {"name": "6d243c68802aa13ce7e9082e63144205", "fusion_lon": 0.0, "lat": 38.91742766666667, "is_reserved": 0, "type": "electric_scooter", "bike_id": "6d243c68802aa13ce7e9082e63144205", "is_disabled": 0, "rental_uris": {"android": "https://dc.lft.to/lastmile_qr_scan", "ios": "https://dc.lft.to/lastmile_qr_scan"}, "lon": -77.01470433333333, "fusion_lat": 0.0}, {"name": "3e6a3f96ed9187b5f327e0079b542fb2", "fusion_lon": 0.0, "lat": 38.897236666666664, "is_reserved": 0, "type": "electric_scooter", "bike_id": "3e6a3f96ed9187b5f327e0079b542fb2", "is_disabled": 0, "rental_uris": {"android": "https://dc.lft.to/lastmile_qr_scan", "ios": "https://dc.lft.to/lastmile_qr_scan"}, "lon": -76.97348166666667, "fusion_lat": 0.0}, {"name": "916f1ff4d3c62260e3dffb945b7d2cca", "fusion_lon": 0.0, "lat": 38.83152166666667, "is_reserved": 0, "type": "electric_scooter", "bike_id": "916f1ff4d3c62260e3dffb945b7d2cca", "is_disabled": 0, "rental_uris": {"android": "https://dc.lft.to/lastmile_qr_scan", "ios": "https://dc.lft.to/lastmile_qr_scan"}, "lon": -77.0513875, "fusion_lat": 0.0}, {"name": "e582edd0584b480bc243f51a642c9226", "fusion_lon": 0.0, "lat": 38.879704, "is_reserved": 0, "type": "electric_bike", "bike_id": "e582edd0584b480bc243f51a642c9226", "is_disabled": 0, "rental_uris": {"android": "https://dc.lft.to/lastmile_qr_scan", "ios": "https://dc.lft.to/lastmile_qr_scan"}, "lon": -76.91609533333333, "fusion_lat": 0.0}, {"name": "eff02c64adb9b3f4f5e7bfb740290e6f", "fusion_lon": 0.0, "lat": 38.92664533333333, "is_reserved": 0, "type": "electric_scooter", "bike_id": "eff02c64adb9b3f4f5e7bfb740290e6f", "is_disabled": 0, "rental_uris": {"android": "https://dc.lft.to/lastmile_qr_scan", "ios": "https://dc.lft.to/lastmile_qr_scan"}, "lon": -77.00877633333333, "fusion_lat": 0.0}, {"name": "dad2e7026934afc48e1da52df51de07b", "fusion_lon": 0.0, "lat": 38.90022233333333, "is_reserved": 0, "type": "electric_scooter", "bike_id": "dad2e7026934afc48e1da52df51de07b", "is_disabled": 0, "rental_uris": {"android": "https://dc.lft.to/lastmile_qr_scan", "ios": "https://dc.lft.to/lastmile_qr_scan"}, "lon": -76.993512, "fusion_lat": 0.0}, {"name": "9e3ee439eb004ba4df17ade9f34a4a2e", "fusion_lon": 0.0, "lat": 38.88135716666667, "is_reserved": 0, "type": "electric_scooter", "bike_id": "9e3ee439eb004ba4df17ade9f34a4a2e", "is_disabled": 0, "rental_uris": {"android": "https://dc.lft.to/lastmile_qr_scan", "ios": "https://dc.lft.to/lastmile_qr_scan"}, "lon": -76.99571233333333, "fusion_lat": 0.0}, {"name": "0b750243a0bcf1f671569eebc22a35a0", "fusion_lon": 0.0, "lat": 38.91012533333333, "is_reserved": 0, "type": "electric_scooter", "bike_id": "0b750243a0bcf1f671569eebc22a35a0", "is_disabled": 0, "rental_uris": {"android": "https://dc.lft.to/lastmile_qr_scan", "ios": "https://dc.lft.to/lastmile_qr_scan"}, "lon": -77.040086, "fusion_lat": 0.0}, {"name": "891350bbcdeaa3b2d2c8e403e7e6fb63", "fusion_lon": 0.0, "lat": 38.91643633333333, "is_reserved": 0, "type": "electric_scooter", "bike_id": "891350bbcdeaa3b2d2c8e403e7e6fb63", "is_disabled": 0, "rental_uris": {"android": "https://dc.lft.to/lastmile_qr_scan", "ios": "https://dc.lft.to/lastmile_qr_scan"}, "lon": -77.0217585, "fusion_lat": 0.0}, {"name": "e0a212cea422e7f992cb4a7020f72ce1", "fusion_lon": 0.0, "lat": 38.918436166666666, "is_reserved": 0, "type": "electric_scooter", "bike_id": "e0a212cea422e7f992cb4a7020f72ce1", "is_disabled": 0, "rental_uris": {"android": "https://dc.lft.to/lastmile_qr_scan", "ios": "https://dc.lft.to/lastmile_qr_scan"}, "lon": -77.0400425, "fusion_lat": 0.0}, {"name": "0a079e0ce77e8d79fbbc02ad42bbaf10", "fusion_lon": 0.0, "lat": 39.034215333333336, "is_reserved": 0, "type": "electric_bike", "bike_id": "0a079e0ce77e8d79fbbc02ad42bbaf10", "is_disabled": 0, "rental_uris": {"android": "https://dc.lft.to/lastmile_qr_scan", "ios": "https://dc.lft.to/lastmile_qr_scan"}, "lon": -77.0423755, "fusion_lat": 0.0}, {"name": "7940d2c39d56cc8f82f38e02ec099653", "fusion_lon": 0.0, "lat": 39.054973, "is_reserved": 0, "type": "electric_bike", "bike_id": "7940d2c39d56cc8f82f38e02ec099653", "is_disabled": 0, "rental_uris": {"android": "https://dc.lft.to/lastmile_qr_scan", "ios": "https://dc.lft.to/lastmile_qr_scan"}, "lon": -77.11793116666666, "fusion_lat": 0.0}, {"name": "66161622a3b6836604ebcddfbf9d2bef", "fusion_lon": 0.0, "lat": 38.884622666666665, "is_reserved": 0, "type": "electric_scooter", "bike_id": "66161622a3b6836604ebcddfbf9d2bef", "is_disabled": 0, "rental_uris": {"android": "https://dc.lft.to/lastmile_qr_scan", "ios": "https://dc.lft.to/lastmile_qr_scan"}, "lon": -76.95751366666667, "fusion_lat": 0.0}, {"name": "880814d1591384ba7b634f51ea6bcc84", "fusion_lon": 0.0, "lat": 38.909930333333335, "is_reserved": 0, "type": "electric_scooter", "bike_id": "880814d1591384ba7b634f51ea6bcc84", "is_disabled": 0, "rental_uris": {"android": "https://dc.lft.to/lastmile_qr_scan", "ios": "https://dc.lft.to/lastmile_qr_scan"}, "lon": -77.03846483333334, "fusion_lat": 0.0}, {"name": "4ab2c819177f46d0ed64b3acc73fc496", "fusion_lon": 0.0, "lat": 38.918353833333335, "is_reserved": 0, "type": "electric_scooter", "bike_id": "4ab2c819177f46d0ed64b3acc73fc496", "is_disabled": 0, "rental_uris": {"android": "https://dc.lft.to/lastmile_qr_scan", "ios": "https://dc.lft.to/lastmile_qr_scan"}, "lon": -77.02290583333334, "fusion_lat": 0.0}, {"name": "f0a2ab248b70e8bf19b55c9435dd8998", "fusion_lon": 0.0, "lat": 38.892263, "is_reserved": 0, "type": "electric_scooter", "bike_id": "f0a2ab248b70e8bf19b55c9435dd8998", "is_disabled": 0, "rental_uris": {"android": "https://dc.lft.to/lastmile_qr_scan", "ios": "https://dc.lft.to/lastmile_qr_scan"}, "lon": -77.0486205, "fusion_lat": 0.0}, {"name": "ef454b98e16e5b644bf28d38b7fa7dc7", "fusion_lon": 0.0, "lat": 38.909623333333336, "is_reserved": 0, "type": "electric_scooter", "bike_id": "ef454b98e16e5b644bf28d38b7fa7dc7", "is_disabled": 0, "rental_uris": {"android": "https://dc.lft.to/lastmile_qr_scan", "ios": "https://dc.lft.to/lastmile_qr_scan"}, "lon": -77.032912, "fusion_lat": 0.0}, {"name": "c15dfe70580c102dbd54902af312da2a", "fusion_lon": 0.0, "lat": 38.87010316666667, "is_reserved": 0, "type": "electric_scooter", "bike_id": "c15dfe70580c102dbd54902af312da2a", "is_disabled": 0, "rental_uris": {"android": "https://dc.lft.to/lastmile_qr_scan", "ios": "https://dc.lft.to/lastmile_qr_scan"}, "lon": -76.980833, "fusion_lat": 0.0}, {"name": "80e15dcdfb121489ee5f3b7eb71b1fdd", "fusion_lon": 0.0, "lat": 38.945194, "is_reserved": 0, "type": "electric_scooter", "bike_id": "80e15dcdfb121489ee5f3b7eb71b1fdd", "is_disabled": 0, "rental_uris": {"android": "https://dc.lft.to/lastmile_qr_scan", "ios": "https://dc.lft.to/lastmile_qr_scan"}, "lon": -77.03369783333333, "fusion_lat": 0.0}, {"name": "a8bb5cf3221019f1fe03e6744bfb4ef3", "fusion_lon": 0.0, "lat": 38.87659433333334, "is_reserved": 0, "type": "electric_scooter", "bike_id": "a8bb5cf3221019f1fe03e6744bfb4ef3", "is_disabled": 0, "rental_uris": {"android": "https://dc.lft.to/lastmile_qr_scan", "ios": "https://dc.lft.to/lastmile_qr_scan"}, "lon": -77.00317633333333, "fusion_lat": 0.0}, {"name": "1cac4e56385897ca760294cd9998275a", "fusion_lon": 0.0, "lat": 38.92496783333333, "is_reserved": 0, "type": "electric_scooter", "bike_id": "1cac4e56385897ca760294cd9998275a", "is_disabled": 0, "rental_uris": {"android": "https://dc.lft.to/lastmile_qr_scan", "ios": "https://dc.lft.to/lastmile_qr_scan"}, "lon": -77.03183083333333, "fusion_lat": 0.0}, {"name": "f96fd5486689a9d7ef6b36fd64c82bdd", "fusion_lon": 0.0, "lat": 38.91479116666667, "is_reserved": 0, "type": "electric_scooter", "bike_id": "f96fd5486689a9d7ef6b36fd64c82bdd", "is_disabled": 0, "rental_uris": {"android": "https://dc.lft.to/lastmile_qr_scan", "ios": "https://dc.lft.to/lastmile_qr_scan"}, "lon": -77.03188766666666, "fusion_lat": 0.0}, {"name": "b1c1fb50731d40689db8e94d4b0a739c", "fusion_lon": 0.0, "lat": 38.9535765, "is_reserved": 0, "type": "electric_bike", "bike_id": "b1c1fb50731d40689db8e94d4b0a739c", "is_disabled": 0, "rental_uris": {"android": "https://dc.lft.to/lastmile_qr_scan", "ios": "https://dc.lft.to/lastmile_qr_scan"}, "lon": -76.9809475, "fusion_lat": 0.0}, {"name": "f912a308e3ee4e3ada1a53dfc58e8065", "fusion_lon": 0.0, "lat": 38.92377, "is_reserved": 0, "type": "electric_scooter", "bike_id": "f912a308e3ee4e3ada1a53dfc58e8065", "is_disabled": 0, "rental_uris": {"android": "https://dc.lft.to/lastmile_qr_scan", "ios": "https://dc.lft.to/lastmile_qr_scan"}, "lon": -77.03532733333333, "fusion_lat": 0.0}, {"name": "29ca19a4ececd83b68aece146b21ae94", "fusion_lon": 0.0, "lat": 38.919096, "is_reserved": 0, "type": "electric_scooter", "bike_id": "29ca19a4ececd83b68aece146b21ae94", "is_disabled": 0, "rental_uris": {"android": "https://dc.lft.to/lastmile_qr_scan", "ios": "https://dc.lft.to/lastmile_qr_scan"}, "lon": -77.0153795, "fusion_lat": 0.0}, {"name": "aa27ae58f131a9db7ffa5737e1715ea0", "fusion_lon": 0.0, "lat": 38.938711833333336, "is_reserved": 0, "type": "electric_scooter", "bike_id": "aa27ae58f131a9db7ffa5737e1715ea0", "is_disabled": 0, "rental_uris": {"android": "https://dc.lft.to/lastmile_qr_scan", "ios": "https://dc.lft.to/lastmile_qr_scan"}, "lon": -77.02599016666667, "fusion_lat": 0.0}, {"name": "adcec50cc0f4cab0e1390591e1a4e40f", "fusion_lon": 0.0, "lat": 38.91896283333333, "is_reserved": 0, "type": "electric_scooter", "bike_id": "adcec50cc0f4cab0e1390591e1a4e40f", "is_disabled": 0, "rental_uris": {"android": "https://dc.lft.to/lastmile_qr_scan", "ios": "https://dc.lft.to/lastmile_qr_scan"}, "lon": -77.0417695, "fusion_lat": 0.0}, {"name": "30ae106881563fdb44ef53c1c9555cc1", "fusion_lon": 0.0, "lat": 38.905075, "is_reserved": 0, "type": "electric_scooter", "bike_id": "30ae106881563fdb44ef53c1c9555cc1", "is_disabled": 0, "rental_uris": {"android": "https://dc.lft.to/lastmile_qr_scan", "ios": "https://dc.lft.to/lastmile_qr_scan"}, "lon": -77.0701905, "fusion_lat": 0.0}, {"name": "3b90aec240723bfdfb2781be6fd692b6", "fusion_lon": 0.0, "lat": 38.96316733333333, "is_reserved": 0, "type": "electric_bike", "bike_id": "3b90aec240723bfdfb2781be6fd692b6", "is_disabled": 0, "rental_uris": {"android": "https://dc.lft.to/lastmile_qr_scan", "ios": "https://dc.lft.to/lastmile_qr_scan"}, "lon": -76.97360183333333, "fusion_lat": 0.0}, {"name": "66a78e4253b3397c9d0cb960acb4acaf", "fusion_lon": 0.0, "lat": 38.96303416666667, "is_reserved": 0, "type": "electric_bike", "bike_id": "66a78e4253b3397c9d0cb960acb4acaf", "is_disabled": 0, "rental_uris": {"android": "https://dc.lft.to/lastmile_qr_scan", "ios": "https://dc.lft.to/lastmile_qr_scan"}, "lon": -77.01118566666666, "fusion_lat": 0.0}, {"name": "419a896a71e19b81702909c26bc2f9ab", "fusion_lon": 0.0, "lat": 38.904798166666666, "is_reserved": 0, "type": "electric_scooter", "bike_id": "419a896a71e19b81702909c26bc2f9ab", "is_disabled": 0, "rental_uris": {"android": "https://dc.lft.to/lastmile_qr_scan", "ios": "https://dc.lft.to/lastmile_qr_scan"}, "lon": -77.04192916666666, "fusion_lat": 0.0}, {"name": "b4c215b82f02fa5842eaef288660ba47", "fusion_lon": 0.0, "lat": 38.93234283333334, "is_reserved": 0, "type": "electric_scooter", "bike_id": "b4c215b82f02fa5842eaef288660ba47", "is_disabled": 0, "rental_uris": {"android": "https://dc.lft.to/lastmile_qr_scan", "ios": "https://dc.lft.to/lastmile_qr_scan"}, "lon": -77.0386755, "fusion_lat": 0.0}, {"name": "56e378570ff704a02e6e929b4bf97f24", "fusion_lon": 0.0, "lat": 38.91813966666667, "is_reserved": 0, "type": "electric_scooter", "bike_id": "56e378570ff704a02e6e929b4bf97f24", "is_disabled": 0, "rental_uris": {"android": "https://dc.lft.to/lastmile_qr_scan", "ios": "https://dc.lft.to/lastmile_qr_scan"}, "lon": -77.08964283333333, "fusion_lat": 0.0}, {"name": "51b3630d94390130533eae2a5d5577d8", "fusion_lon": 0.0, "lat": 38.93044233333333, "is_reserved": 0, "type": "electric_scooter", "bike_id": "51b3630d94390130533eae2a5d5577d8", "is_disabled": 0, "rental_uris": {"android": "https://dc.lft.to/lastmile_qr_scan", "ios": "https://dc.lft.to/lastmile_qr_scan"}, "lon": -77.01229733333334, "fusion_lat": 0.0}, {"name": "6948c86b5a40da5517c9af524ab26f58", "fusion_lon": 0.0, "lat": 38.93187533333333, "is_reserved": 0, "type": "electric_scooter", "bike_id": "6948c86b5a40da5517c9af524ab26f58", "is_disabled": 0, "rental_uris": {"android": "https://dc.lft.to/lastmile_qr_scan", "ios": "https://dc.lft.to/lastmile_qr_scan"}, "lon": -77.0388155, "fusion_lat": 0.0}, {"name": "d00a2f4b0f485e8211d8ddab388f04f8", "fusion_lon": 0.0, "lat": 38.91197, "is_reserved": 0, "type": "electric_scooter", "bike_id": "d00a2f4b0f485e8211d8ddab388f04f8", "is_disabled": 0, "rental_uris": {"android": "https://dc.lft.to/lastmile_qr_scan", "ios": "https://dc.lft.to/lastmile_qr_scan"}, "lon": -77.03843216666667, "fusion_lat": 0.0}, {"name": "3f7a3d461407230abc0d2ca1fd30e25f", "fusion_lon": 0.0, "lat": 38.863774, "is_reserved": 0, "type": "electric_scooter", "bike_id": "3f7a3d461407230abc0d2ca1fd30e25f", "is_disabled": 0, "rental_uris": {"android": "https://dc.lft.to/lastmile_qr_scan", "ios": "https://dc.lft.to/lastmile_qr_scan"}, "lon": -76.990649, "fusion_lat": 0.0}, {"name": "ae15fac59c985f46943af183eb42e6e7", "fusion_lon": 0.0, "lat": 38.9131385, "is_reserved": 0, "type": "electric_bike", "bike_id": "ae15fac59c985f46943af183eb42e6e7", "is_disabled": 0, "rental_uris": {"android": "https://dc.lft.to/lastmile_qr_scan", "ios": "https://dc.lft.to/lastmile_qr_scan"}, "lon": -77.223054, "fusion_lat": 0.0}, {"name": "86c7d16a3c7ff45ec2c8faf35188694e", "fusion_lon": 0.0, "lat": 38.914064333333336, "is_reserved": 0, "type": "electric_scooter", "bike_id": "86c7d16a3c7ff45ec2c8faf35188694e", "is_disabled": 0, "rental_uris": {"android": "https://dc.lft.to/lastmile_qr_scan", "ios": "https://dc.lft.to/lastmile_qr_scan"}, "lon": -77.04223233333333, "fusion_lat": 0.0}, {"name": "013942d7e0b04aef7db920ad132fabe4", "fusion_lon": 0.0, "lat": 38.90576866666667, "is_reserved": 0, "type": "electric_scooter", "bike_id": "013942d7e0b04aef7db920ad132fabe4", "is_disabled": 0, "rental_uris": {"android": "https://dc.lft.to/lastmile_qr_scan", "ios": "https://dc.lft.to/lastmile_qr_scan"}, "lon": -77.02768966666666, "fusion_lat": 0.0}, {"name": "812291917dd4dafc2d78df7c6ffe84bc", "fusion_lon": 0.0, "lat": 38.941779, "is_reserved": 0, "type": "electric_scooter", "bike_id": "812291917dd4dafc2d78df7c6ffe84bc", "is_disabled": 0, "rental_uris": {"android": "https://dc.lft.to/lastmile_qr_scan", "ios": "https://dc.lft.to/lastmile_qr_scan"}, "lon": -77.0256235, "fusion_lat": 0.0}, {"name": "f9ab5a398f6094185e1a04b9c03802c4", "fusion_lon": 0.0, "lat": 38.91925716666667, "is_reserved": 0, "type": "electric_scooter", "bike_id": "f9ab5a398f6094185e1a04b9c03802c4", "is_disabled": 0, "rental_uris": {"android": "https://dc.lft.to/lastmile_qr_scan", "ios": "https://dc.lft.to/lastmile_qr_scan"}, "lon": -77.04253783333333, "fusion_lat": 0.0}, {"name": "e13ab6e198a19a6a3c0c7b41b2d22a0c", "fusion_lon": 0.0, "lat": 38.913269166666666, "is_reserved": 0, "type": "electric_scooter", "bike_id": "e13ab6e198a19a6a3c0c7b41b2d22a0c", "is_disabled": 0, "rental_uris": {"android": "https://dc.lft.to/lastmile_qr_scan", "ios": "https://dc.lft.to/lastmile_qr_scan"}, "lon": -77.0151425, "fusion_lat": 0.0}, {"name": "52d216e9050156844d7d6855f4d90108", "fusion_lon": 0.0, "lat": 38.888735833333335, "is_reserved": 0, "type": "electric_scooter", "bike_id": "52d216e9050156844d7d6855f4d90108", "is_disabled": 0, "rental_uris": {"android": "https://dc.lft.to/lastmile_qr_scan", "ios": "https://dc.lft.to/lastmile_qr_scan"}, "lon": -76.990324, "fusion_lat": 0.0}, {"name": "db9d163f8c89be8a2c66a752a0b491e8", "fusion_lon": 0.0, "lat": 38.91091516666667, "is_reserved": 0, "type": "electric_scooter", "bike_id": "db9d163f8c89be8a2c66a752a0b491e8", "is_disabled": 0, "rental_uris": {"android": "https://dc.lft.to/lastmile_qr_scan", "ios": "https://dc.lft.to/lastmile_qr_scan"}, "lon": -77.07379116666667, "fusion_lat": 0.0}, {"name": "4f5039286bc0255174da247891a1df8c", "fusion_lon": 0.0, "lat": 38.902188833333334, "is_reserved": 0, "type": "electric_scooter", "bike_id": "4f5039286bc0255174da247891a1df8c", "is_disabled": 0, "rental_uris": {"android": "https://dc.lft.to/lastmile_qr_scan", "ios": "https://dc.lft.to/lastmile_qr_scan"}, "lon": -77.02170383333333, "fusion_lat": 0.0}, {"name": "c75597cf7aebcc37497180459232be34", "fusion_lon": 0.0, "lat": 38.90020633333334, "is_reserved": 0, "type": "electric_scooter", "bike_id": "c75597cf7aebcc37497180459232be34", "is_disabled": 0, "rental_uris": {"android": "https://dc.lft.to/lastmile_qr_scan", "ios": "https://dc.lft.to/lastmile_qr_scan"}, "lon": -77.00144883333333, "fusion_lat": 0.0}, {"name": "46614b2801bb365041789316214a47a6", "fusion_lon": 0.0, "lat": 38.9207045, "is_reserved": 0, "type": "electric_scooter", "bike_id": "46614b2801bb365041789316214a47a6", "is_disabled": 0, "rental_uris": {"android": "https://dc.lft.to/lastmile_qr_scan", "ios": "https://dc.lft.to/lastmile_qr_scan"}, "lon": -77.0346695, "fusion_lat": 0.0}, {"name": "632e4b71e52a9c871f98dd877df49319", "fusion_lon": 0.0, "lat": 38.9005895, "is_reserved": 0, "type": "electric_scooter", "bike_id": "632e4b71e52a9c871f98dd877df49319", "is_disabled": 0, "rental_uris": {"android": "https://dc.lft.to/lastmile_qr_scan", "ios": "https://dc.lft.to/lastmile_qr_scan"}, "lon": -77.05023116666666, "fusion_lat": 0.0}, {"name": "1646c8278514f32a4bfda294772b4417", "fusion_lon": 0.0, "lat": 38.919147833333334, "is_reserved": 0, "type": "electric_scooter", "bike_id": "1646c8278514f32a4bfda294772b4417", "is_disabled": 0, "rental_uris": {"android": "https://dc.lft.to/lastmile_qr_scan", "ios": "https://dc.lft.to/lastmile_qr_scan"}, "lon": -77.02409516666667, "fusion_lat": 0.0}, {"name": "f4be53b950d5f5044402dd839494ded6", "fusion_lon": 0.0, "lat": 38.89544033333333, "is_reserved": 0, "type": "electric_scooter", "bike_id": "f4be53b950d5f5044402dd839494ded6", "is_disabled": 0, "rental_uris": {"android": "https://dc.lft.to/lastmile_qr_scan", "ios": "https://dc.lft.to/lastmile_qr_scan"}, "lon": -77.0566235, "fusion_lat": 0.0}, {"name": "a8954495d9d1e53357cde6e024c6465f", "fusion_lon": 0.0, "lat": 38.869437833333336, "is_reserved": 0, "type": "electric_bike", "bike_id": "a8954495d9d1e53357cde6e024c6465f", "is_disabled": 0, "rental_uris": {"android": "https://dc.lft.to/lastmile_qr_scan", "ios": "https://dc.lft.to/lastmile_qr_scan"}, "lon": -77.01241316666666, "fusion_lat": 0.0}, {"name": "f9e13a21cc9a03da0c93d8d608c2306a", "fusion_lon": 0.0, "lat": 38.9111625, "is_reserved": 0, "type": "electric_scooter", "bike_id": "f9e13a21cc9a03da0c93d8d608c2306a", "is_disabled": 0, "rental_uris": {"android": "https://dc.lft.to/lastmile_qr_scan", "ios": "https://dc.lft.to/lastmile_qr_scan"}, "lon": -77.02115283333333, "fusion_lat": 0.0}, {"name": "c5c5fc12ccbcf80051e46cb1f53992f1", "fusion_lon": 0.0, "lat": 38.938886833333335, "is_reserved": 0, "type": "electric_scooter", "bike_id": "c5c5fc12ccbcf80051e46cb1f53992f1", "is_disabled": 0, "rental_uris": {"android": "https://dc.lft.to/lastmile_qr_scan", "ios": "https://dc.lft.to/lastmile_qr_scan"}, "lon": -77.02487383333333, "fusion_lat": 0.0}, {"name": "c65aec3a38cbbbddc7f511a8f4fd00a4", "fusion_lon": 0.0, "lat": 38.885073, "is_reserved": 0, "type": "electric_scooter", "bike_id": "c65aec3a38cbbbddc7f511a8f4fd00a4", "is_disabled": 0, "rental_uris": {"android": "https://dc.lft.to/lastmile_qr_scan", "ios": "https://dc.lft.to/lastmile_qr_scan"}, "lon": -76.9984355, "fusion_lat": 0.0}, {"name": "895ea865ca919b523d163893222ae3ce", "fusion_lon": 0.0, "lat": 38.90972283333333, "is_reserved": 0, "type": "electric_scooter", "bike_id": "895ea865ca919b523d163893222ae3ce", "is_disabled": 0, "rental_uris": {"android": "https://dc.lft.to/lastmile_qr_scan", "ios": "https://dc.lft.to/lastmile_qr_scan"}, "lon": -77.03305133333333, "fusion_lat": 0.0}, {"name": "b223df1d141c04cfa96cae16f22958ed", "fusion_lon": 0.0, "lat": 38.920701666666666, "is_reserved": 0, "type": "electric_scooter", "bike_id": "b223df1d141c04cfa96cae16f22958ed", "is_disabled": 0, "rental_uris": {"android": "https://dc.lft.to/lastmile_qr_scan", "ios": "https://dc.lft.to/lastmile_qr_scan"}, "lon": -77.03218183333334, "fusion_lat": 0.0}, {"name": "549e979d4845d04c6e645354436d3858", "fusion_lon": 0.0, "lat": 38.9435135, "is_reserved": 0, "type": "electric_scooter", "bike_id": "549e979d4845d04c6e645354436d3858", "is_disabled": 0, "rental_uris": {"android": "https://dc.lft.to/lastmile_qr_scan", "ios": "https://dc.lft.to/lastmile_qr_scan"}, "lon": -77.06137166666667, "fusion_lat": 0.0}, {"name": "0b0aee8fe6e50ea028622478fac7db84", "fusion_lon": 0.0, "lat": 38.916866, "is_reserved": 0, "type": "electric_scooter", "bike_id": "0b0aee8fe6e50ea028622478fac7db84", "is_disabled": 0, "rental_uris": {"android": "https://dc.lft.to/lastmile_qr_scan", "ios": "https://dc.lft.to/lastmile_qr_scan"}, "lon": -77.03863233333334, "fusion_lat": 0.0}, {"name": "aa0dd2a2786e9808d53a02e5bf6174fa", "fusion_lon": 0.0, "lat": 38.8986675, "is_reserved": 0, "type": "electric_scooter", "bike_id": "aa0dd2a2786e9808d53a02e5bf6174fa", "is_disabled": 0, "rental_uris": {"android": "https://dc.lft.to/lastmile_qr_scan", "ios": "https://dc.lft.to/lastmile_qr_scan"}, "lon": -76.9466255, "fusion_lat": 0.0}, {"name": "e925c6b31302e1eb93d86697dfac3a47", "fusion_lon": 0.0, "lat": 38.92379833333333, "is_reserved": 0, "type": "electric_scooter", "bike_id": "e925c6b31302e1eb93d86697dfac3a47", "is_disabled": 0, "rental_uris": {"android": "https://dc.lft.to/lastmile_qr_scan", "ios": "https://dc.lft.to/lastmile_qr_scan"}, "lon": -77.0193505, "fusion_lat": 0.0}, {"name": "9f28362fee9a601a178cd86b7f54a3f7", "fusion_lon": 0.0, "lat": 38.9420625, "is_reserved": 0, "type": "electric_scooter", "bike_id": "9f28362fee9a601a178cd86b7f54a3f7", "is_disabled": 0, "rental_uris": {"android": "https://dc.lft.to/lastmile_qr_scan", "ios": "https://dc.lft.to/lastmile_qr_scan"}, "lon": -77.0251785, "fusion_lat": 0.0}, {"name": "4e2b3a828173ac9bdfe438aa59eb1ff7", "fusion_lon": 0.0, "lat": 38.892978, "is_reserved": 0, "type": "electric_scooter", "bike_id": "4e2b3a828173ac9bdfe438aa59eb1ff7", "is_disabled": 0, "rental_uris": {"android": "https://dc.lft.to/lastmile_qr_scan", "ios": "https://dc.lft.to/lastmile_qr_scan"}, "lon": -76.929232, "fusion_lat": 0.0}, {"name": "7fdb7cdaa4217a4c4c43f4238d143c66", "fusion_lon": 0.0, "lat": 38.872058, "is_reserved": 0, "type": "electric_scooter", "bike_id": "7fdb7cdaa4217a4c4c43f4238d143c66", "is_disabled": 0, "rental_uris": {"android": "https://dc.lft.to/lastmile_qr_scan", "ios": "https://dc.lft.to/lastmile_qr_scan"}, "lon": -76.97838466666667, "fusion_lat": 0.0}, {"name": "da1449a7743286a5c3b03e4c7cb8eda0", "fusion_lon": 0.0, "lat": 38.86264333333333, "is_reserved": 0, "type": "electric_bike", "bike_id": "da1449a7743286a5c3b03e4c7cb8eda0", "is_disabled": 0, "rental_uris": {"android": "https://dc.lft.to/lastmile_qr_scan", "ios": "https://dc.lft.to/lastmile_qr_scan"}, "lon": -76.98353216666666, "fusion_lat": 0.0}, {"name": "f5471ca8a7ada9aea9c53f511badf051", "fusion_lon": 0.0, "lat": 38.900034166666664, "is_reserved": 0, "type": "electric_scooter", "bike_id": "f5471ca8a7ada9aea9c53f511badf051", "is_disabled": 0, "rental_uris": {"android": "https://dc.lft.to/lastmile_qr_scan", "ios": "https://dc.lft.to/lastmile_qr_scan"}, "lon": -77.0260975, "fusion_lat": 0.0}, {"name": "2659dd99cb2e985ec40422d1ecd1ba02", "fusion_lon": 0.0, "lat": 38.91689483333333, "is_reserved": 0, "type": "electric_scooter", "bike_id": "2659dd99cb2e985ec40422d1ecd1ba02", "is_disabled": 0, "rental_uris": {"android": "https://dc.lft.to/lastmile_qr_scan", "ios": "https://dc.lft.to/lastmile_qr_scan"}, "lon": -77.0232815, "fusion_lat": 0.0}, {"name": "49c28abd168e263eca7067f648e03edb", "fusion_lon": 0.0, "lat": 38.91127866666667, "is_reserved": 0, "type": "electric_scooter", "bike_id": "49c28abd168e263eca7067f648e03edb", "is_disabled": 0, "rental_uris": {"android": "https://dc.lft.to/lastmile_qr_scan", "ios": "https://dc.lft.to/lastmile_qr_scan"}, "lon": -77.03148083333333, "fusion_lat": 0.0}, {"name": "bfadca50f0136d3a2e0d93692e6206c7", "fusion_lon": 0.0, "lat": 38.857888, "is_reserved": 0, "type": "electric_bike", "bike_id": "bfadca50f0136d3a2e0d93692e6206c7", "is_disabled": 0, "rental_uris": {"android": "https://dc.lft.to/lastmile_qr_scan", "ios": "https://dc.lft.to/lastmile_qr_scan"}, "lon": -77.12023216666667, "fusion_lat": 0.0}, {"name": "4a920dca031a0c80f47e4ea603ca60d1", "fusion_lon": 0.0, "lat": 38.90533, "is_reserved": 0, "type": "electric_scooter", "bike_id": "4a920dca031a0c80f47e4ea603ca60d1", "is_disabled": 0, "rental_uris": {"android": "https://dc.lft.to/lastmile_qr_scan", "ios": "https://dc.lft.to/lastmile_qr_scan"}, "lon": -76.98100016666666, "fusion_lat": 0.0}, {"name": "83bf6e380d7e9492d0b8bdacd0b05923", "fusion_lon": 0.0, "lat": 38.89526166666667, "is_reserved": 0, "type": "electric_scooter", "bike_id": "83bf6e380d7e9492d0b8bdacd0b05923", "is_disabled": 0, "rental_uris": {"android": "https://dc.lft.to/lastmile_qr_scan", "ios": "https://dc.lft.to/lastmile_qr_scan"}, "lon": -76.9296575, "fusion_lat": 0.0}, {"name": "86a547d5e58b25d068c69f09fa31f514", "fusion_lon": 0.0, "lat": 38.92316833333334, "is_reserved": 0, "type": "electric_scooter", "bike_id": "86a547d5e58b25d068c69f09fa31f514", "is_disabled": 0, "rental_uris": {"android": "https://dc.lft.to/lastmile_qr_scan", "ios": "https://dc.lft.to/lastmile_qr_scan"}, "lon": -77.04177316666667, "fusion_lat": 0.0}, {"name": "83793b0a6981452482cb3ebfe909e076", "fusion_lon": 0.0, "lat": 38.906247, "is_reserved": 0, "type": "electric_scooter", "bike_id": "83793b0a6981452482cb3ebfe909e076", "is_disabled": 0, "rental_uris": {"android": "https://dc.lft.to/lastmile_qr_scan", "ios": "https://dc.lft.to/lastmile_qr_scan"}, "lon": -77.046286, "fusion_lat": 0.0}, {"name": "a5fe1f204a3fb516642fb81484cb7466", "fusion_lon": 0.0, "lat": 38.903889666666664, "is_reserved": 0, "type": "electric_scooter", "bike_id": "a5fe1f204a3fb516642fb81484cb7466", "is_disabled": 0, "rental_uris": {"android": "https://dc.lft.to/lastmile_qr_scan", "ios": "https://dc.lft.to/lastmile_qr_scan"}, "lon": -77.02598083333334, "fusion_lat": 0.0}, {"name": "d6a2fe6c0a4133d0952c6619d9af7cb7", "fusion_lon": 0.0, "lat": 38.9288095, "is_reserved": 0, "type": "electric_scooter", "bike_id": "d6a2fe6c0a4133d0952c6619d9af7cb7", "is_disabled": 0, "rental_uris": {"android": "https://dc.lft.to/lastmile_qr_scan", "ios": "https://dc.lft.to/lastmile_qr_scan"}, "lon": -77.04240566666667, "fusion_lat": 0.0}, {"name": "9291597cf646245d93831b76c31cd119", "fusion_lon": 0.0, "lat": 38.9215915, "is_reserved": 0, "type": "electric_scooter", "bike_id": "9291597cf646245d93831b76c31cd119", "is_disabled": 0, "rental_uris": {"android": "https://dc.lft.to/lastmile_qr_scan", "ios": "https://dc.lft.to/lastmile_qr_scan"}, "lon": -77.034624, "fusion_lat": 0.0}, {"name": "7f564a4f29f7cebe90bdfaf46667da48", "fusion_lon": 0.0, "lat": 38.923864333333334, "is_reserved": 0, "type": "electric_scooter", "bike_id": "7f564a4f29f7cebe90bdfaf46667da48", "is_disabled": 0, "rental_uris": {"android": "https://dc.lft.to/lastmile_qr_scan", "ios": "https://dc.lft.to/lastmile_qr_scan"}, "lon": -77.02928283333334, "fusion_lat": 0.0}, {"name": "c2e3667dd061be87f32e1c3a63963a4c", "fusion_lon": 0.0, "lat": 38.861815, "is_reserved": 0, "type": "electric_scooter", "bike_id": "c2e3667dd061be87f32e1c3a63963a4c", "is_disabled": 0, "rental_uris": {"android": "https://dc.lft.to/lastmile_qr_scan", "ios": "https://dc.lft.to/lastmile_qr_scan"}, "lon": -77.08808966666666, "fusion_lat": 0.0}, {"name": "31632a33c3370e25c69a45cd493cd591", "fusion_lon": 0.0, "lat": 38.8723295, "is_reserved": 0, "type": "electric_scooter", "bike_id": "31632a33c3370e25c69a45cd493cd591", "is_disabled": 0, "rental_uris": {"android": "https://dc.lft.to/lastmile_qr_scan", "ios": "https://dc.lft.to/lastmile_qr_scan"}, "lon": -77.01162933333333, "fusion_lat": 0.0}, {"name": "74337d12190247337b5f6f79ffdadb3d", "fusion_lon": 0.0, "lat": 38.900385, "is_reserved": 0, "type": "electric_scooter", "bike_id": "74337d12190247337b5f6f79ffdadb3d", "is_disabled": 0, "rental_uris": {"android": "https://dc.lft.to/lastmile_qr_scan", "ios": "https://dc.lft.to/lastmile_qr_scan"}, "lon": -77.00147666666666, "fusion_lat": 0.0}, {"name": "93a13646fba6c78909e43e99cb851522", "fusion_lon": 0.0, "lat": 38.9367415, "is_reserved": 0, "type": "electric_scooter", "bike_id": "93a13646fba6c78909e43e99cb851522", "is_disabled": 0, "rental_uris": {"android": "https://dc.lft.to/lastmile_qr_scan", "ios": "https://dc.lft.to/lastmile_qr_scan"}, "lon": -77.03580783333334, "fusion_lat": 0.0}, {"name": "1862acc568f8fb888bda6de66209c3fd", "fusion_lon": 0.0, "lat": 38.91122216666667, "is_reserved": 0, "type": "electric_scooter", "bike_id": "1862acc568f8fb888bda6de66209c3fd", "is_disabled": 0, "rental_uris": {"android": "https://dc.lft.to/lastmile_qr_scan", "ios": "https://dc.lft.to/lastmile_qr_scan"}, "lon": -77.02241933333333, "fusion_lat": 0.0}, {"name": "f4e0db796f4b6ecb7350c81f900ecbea", "fusion_lon": 0.0, "lat": 38.894817833333335, "is_reserved": 0, "type": "electric_scooter", "bike_id": "f4e0db796f4b6ecb7350c81f900ecbea", "is_disabled": 0, "rental_uris": {"android": "https://dc.lft.to/lastmile_qr_scan", "ios": "https://dc.lft.to/lastmile_qr_scan"}, "lon": -77.0465735, "fusion_lat": 0.0}, {"name": "b9d6c597bc6fa1655881aef9851c1d27", "fusion_lon": 0.0, "lat": 38.8783765, "is_reserved": 0, "type": "electric_scooter", "bike_id": "b9d6c597bc6fa1655881aef9851c1d27", "is_disabled": 0, "rental_uris": {"android": "https://dc.lft.to/lastmile_qr_scan", "ios": "https://dc.lft.to/lastmile_qr_scan"}, "lon": -77.01598083333333, "fusion_lat": 0.0}, {"name": "9db2eb50a721f66350d4f50abbd2d6df", "fusion_lon": 0.0, "lat": 38.945654833333336, "is_reserved": 0, "type": "electric_bike", "bike_id": "9db2eb50a721f66350d4f50abbd2d6df", "is_disabled": 0, "rental_uris": {"android": "https://dc.lft.to/lastmile_qr_scan", "ios": "https://dc.lft.to/lastmile_qr_scan"}, "lon": -76.96688766666666, "fusion_lat": 0.0}, {"name": "79964f18953145f8341e2453fff93458", "fusion_lon": 0.0, "lat": 38.892231, "is_reserved": 0, "type": "electric_scooter", "bike_id": "79964f18953145f8341e2453fff93458", "is_disabled": 0, "rental_uris": {"android": "https://dc.lft.to/lastmile_qr_scan", "ios": "https://dc.lft.to/lastmile_qr_scan"}, "lon": -77.043709, "fusion_lat": 0.0}, {"name": "6187cca92585e2d876ea21f335071779", "fusion_lon": 0.0, "lat": 38.892428, "is_reserved": 0, "type": "electric_scooter", "bike_id": "6187cca92585e2d876ea21f335071779", "is_disabled": 0, "rental_uris": {"android": "https://dc.lft.to/lastmile_qr_scan", "ios": "https://dc.lft.to/lastmile_qr_scan"}, "lon": -77.0241165, "fusion_lat": 0.0}, {"name": "e5d0c78803c34d1f2dd7ec0bc3aaa4af", "fusion_lon": 0.0, "lat": 38.89222183333333, "is_reserved": 0, "type": "electric_scooter", "bike_id": "e5d0c78803c34d1f2dd7ec0bc3aaa4af", "is_disabled": 0, "rental_uris": {"android": "https://dc.lft.to/lastmile_qr_scan", "ios": "https://dc.lft.to/lastmile_qr_scan"}, "lon": -77.04871816666666, "fusion_lat": 0.0},