{"data": {"bikes": [{"lon": -77.0234765, "name": "618c8d6769b302faff28f7c2c0c63c24", "is_disabled": 0, "type": "electric_scooter", "is_reserved": 0, "fusion_lon": 0.0, "lat": 38.92958983333333, "rental_uris": {"ios": "https://dc.lft.to/lastmile_qr_scan", "android": "https://dc.lft.to/lastmile_qr_scan"}, "bike_id": "618c8d6769b302faff28f7c2c0c63c24", "fusion_lat": 0.0}, {"lon": -77.02402266666667, "name": "323f948d7859d39d36ddb8d6e29fa9d0", "is_disabled": 0, "type": "electric_scooter", "is_reserved": 0, "fusion_lon": 0.0, "lat": 38.92703916666667, "rental_uris": {"ios": "https://dc.lft.to/lastmile_qr_scan", "android": "https://dc.lft.to/lastmile_qr_scan"}, "bike_id": "323f948d7859d39d36ddb8d6e29fa9d0", "fusion_lat": 0.0}, {"lon": -77.03135783333333, "name": "4e50ac21962997a7c9efe742eb0a9b01", "is_disabled": 0, "type": "electric_scooter", "is_reserved": 0, "fusion_lon": 0.0, "lat": 38.928068833333334, "rental_uris": {"ios": "https://dc.lft.to/lastmile_qr_scan", "android": "https://dc.lft.to/lastmile_qr_scan"}, "bike_id": "4e50ac21962997a7c9efe742eb0a9b01", "fusion_lat": 0.0}, {"lon": -77.02797383333333, "name": "16a8a7cdcb976c2c64bc58f8ae86f2eb", "is_disabled": 0, "type": "electric_scooter", "is_reserved": 0, "fusion_lon": 0.0, "lat": 38.90700916666667, "rental_uris": {"ios": "https://dc.lft.to/lastmile_qr_scan", "android": "https://dc.lft.to/lastmile_qr_scan"}, "bike_id": "16a8a7cdcb976c2c64bc58f8ae86f2eb", "fusion_lat": 0.0}, {"lon": -77.01576866666667, "name": "9ef34fcc87c73609aab9a106e657f093", "is_disabled": 0, "type": "electric_scooter", "is_reserved": 0, "fusion_lon": 0.0, "lat": 38.87643416666667, "rental_uris": {"ios": "https://dc.lft.to/lastmile_qr_scan", "android": "https://dc.lft.to/lastmile_qr_scan"}, "bike_id": "9ef34fcc87c73609aab9a106e657f093", "fusion_lat": 0.0}, {"lon": -77.0575125, "name": "f5996fb453be0e108358fc48dea2e0a4", "is_disabled": 0, "type": "electric_scooter", "is_reserved": 0, "fusion_lon": 0.0, "lat": 38.9245775, "rental_uris": {"ios": "https://dc.lft.to/lastmile_qr_scan", "android": "https://dc.lft.to/lastmile_qr_scan"}, "bike_id": "f5996fb453be0e108358fc48dea2e0a4", "fusion_lat": 0.0}, {"lon": -77.0339475, "name": "e64a30e2e03f8c366edafb84407efecf", "is_disabled": 0, "type": "electric_scooter", "is_reserved": 0, "fusion_lon": 0.0, "lat": 38.92152933333333, "rental_uris": {"ios": "https://dc.lft.to/lastmile_qr_scan", "android": "https://dc.lft.to/lastmile_qr_scan"}, "bike_id": "e64a30e2e03f8c366edafb84407efecf", "fusion_lat": 0.0}, {"lon": -77.00587666666667, "name": "6f31969c298aa457be94d535793ff1aa", "is_disabled": 0, "type": "electric_scooter", "is_reserved": 0, "fusion_lon": 0.0, "lat": 38.9055945, "rental_uris": {"ios": "https://dc.lft.to/lastmile_qr_scan", "android": "https://dc.lft.to/lastmile_qr_scan"}, "bike_id": "6f31969c298aa457be94d535793ff1aa", "fusion_lat": 0.0}, {"lon": -77.05596966666667, "name": "b07bd9ee33a215f3622c2cec2839a761", "is_disabled": 0, "type": "electric_scooter", "is_reserved": 0, "fusion_lon": 0.0, "lat": 38.93695916666667, "rental_uris": {"ios": "https://dc.lft.to/lastmile_qr_scan", "android": "https://dc.lft.to/lastmile_qr_scan"}, "bike_id": "b07bd9ee33a215f3622c2cec2839a761", "fusion_lat": 0.0}, {"lon": -77.02993083333334, "name": "2e566b270f0fbb33076ac21651d4e390", "is_disabled": 0, "type": "electric_scooter", "is_reserved": 0, "fusion_lon": 0.0, "lat": 38.9048085, "rental_uris": {"ios": "https://dc.lft.to/lastmile_qr_scan", "android": "https://dc.lft.to/lastmile_qr_scan"}, "bike_id": "2e566b270f0fbb33076ac21651d4e390", "fusion_lat": 0.0}, {"lon": -77.00916216666667, "name": "b45b90287b8cd1ab042b117933e68787", "is_disabled": 0, "type": "electric_scooter", "is_reserved": 0, "fusion_lon": 0.0, "lat": 38.923404833333336, "rental_uris": {"ios": "https://dc.lft.to/lastmile_qr_scan", "android": "https://dc.lft.to/lastmile_qr_scan"}, "bike_id": "b45b90287b8cd1ab042b117933e68787", "fusion_lat": 0.0}, {"lon": -77.02433533333334, "name": "bd96fe8172b785e75b71fc945b113665", "is_disabled": 0, "type": "electric_scooter", "is_reserved": 0, "fusion_lon": 0.0, "lat": 38.93360833333333, "rental_uris": {"ios": "https://dc.lft.to/lastmile_qr_scan", "android": "https://dc.lft.to/lastmile_qr_scan"}, "bike_id": "bd96fe8172b785e75b71fc945b113665", "fusion_lat": 0.0}, {"lon": -77.05687383333333, "name": "21adb7bb412dd215cfc2e28426e8f1d5", "is_disabled": 0, "type": "electric_scooter", "is_reserved": 0, "fusion_lon": 0.0, "lat": 38.90603266666667, "rental_uris": {"ios": "https://dc.lft.to/lastmile_qr_scan", "android": "https://dc.lft.to/lastmile_qr_scan"}, "bike_id": "21adb7bb412dd215cfc2e28426e8f1d5", "fusion_lat": 0.0}, {"lon": -77.0346795, "name": "c9bfbb18aed0ab32d0d381b7d4f949e4", "is_disabled": 0, "type": "electric_scooter", "is_reserved": 0, "fusion_lon": 0.0, "lat": 38.9166735, "rental_uris": {"ios": "https://dc.lft.to/lastmile_qr_scan", "android": "https://dc.lft.to/lastmile_qr_scan"}, "bike_id": "c9bfbb18aed0ab32d0d381b7d4f949e4", "fusion_lat": 0.0}, {"lon": -77.03995616666667, "name": "63a79d05975d07454d418b5428c8c188", "is_disabled": 0, "type": "electric_scooter", "is_reserved": 0, "fusion_lon": 0.0, "lat": 38.90272233333334, "rental_uris": {"ios": "https://dc.lft.to/lastmile_qr_scan", "android": "https://dc.lft.to/lastmile_qr_scan"}, "bike_id": "63a79d05975d07454d418b5428c8c188", "fusion_lat": 0.0}, {"lon": -76.99837383333333, "name": "0ca1b90942cc90ea04e2c5acd94a4e53", "is_disabled": 0, "type": "electric_bike", "is_reserved": 0, "fusion_lon": 0.0, "lat": 38.839136333333336, "rental_uris": {"ios": "https://dc.lft.to/lastmile_qr_scan", "android": "https://dc.lft.to/lastmile_qr_scan"}, "bike_id": "0ca1b90942cc90ea04e2c5acd94a4e53", "fusion_lat": 0.0}, {"lon": -77.03121816666666, "name": "7bb35a1af21e4c62b2cb3a965182d560", "is_disabled": 0, "type": "electric_scooter", "is_reserved": 0, "fusion_lon": 0.0, "lat": 38.9180835, "rental_uris": {"ios": "https://dc.lft.to/lastmile_qr_scan", "android": "https://dc.lft.to/lastmile_qr_scan"}, "bike_id": "7bb35a1af21e4c62b2cb3a965182d560", "fusion_lat": 0.0}, {"lon": -77.01897516666666, "name": "3a805540e545bac00300f075543226ee", "is_disabled": 0, "type": "electric_scooter", "is_reserved": 0, "fusion_lon": 0.0, "lat": 38.923365833333335, "rental_uris": {"ios": "https://dc.lft.to/lastmile_qr_scan", "android": "https://dc.lft.to/lastmile_qr_scan"}, "bike_id": "3a805540e545bac00300f075543226ee", "fusion_lat": 0.0}, {"lon": -77.059286, "name": "72666439e24d22bb72f4134987070e69", "is_disabled": 0, "type": "electric_scooter", "is_reserved": 0, "fusion_lon": 0.0, "lat": 38.94299566666667, "rental_uris": {"ios": "https://dc.lft.to/lastmile_qr_scan", "android": "https://dc.lft.to/lastmile_qr_scan"}, "bike_id": "72666439e24d22bb72f4134987070e69", "fusion_lat": 0.0}, {"lon": -77.03168033333333, "name": "7fb994aecf2aa823d3725c968c7c226a", "is_disabled": 0, "type": "electric_scooter", "is_reserved": 0, "fusion_lon": 0.0, "lat": 38.892170166666666, "rental_uris": {"ios": "https://dc.lft.to/lastmile_qr_scan", "android": "https://dc.lft.to/lastmile_qr_scan"}, "bike_id": "7fb994aecf2aa823d3725c968c7c226a", "fusion_lat": 0.0}, {"lon": -77.04321616666667, "name": "dbdf08c8c2595d9ae0459d100dd8225e", "is_disabled": 0, "type": "electric_scooter", "is_reserved": 0, "fusion_lon": 0.0, "lat": 38.91876583333333, "rental_uris": {"ios": "https://dc.lft.to/lastmile_qr_scan", "android": "https://dc.lft.to/lastmile_qr_scan"}, "bike_id": "dbdf08c8c2595d9ae0459d100dd8225e", "fusion_lat": 0.0}, {"lon": -77.03801216666666, "name": "47636b1348fdb1c1a2ed4f2144b650a4", "is_disabled": 0, "type": "electric_scooter", "is_reserved": 0, "fusion_lon": 0.0, "lat": 38.92306816666667, "rental_uris": {"ios": "https://dc.lft.to/lastmile_qr_scan", "android": "https://dc.lft.to/lastmile_qr_scan"}, "bike_id": "47636b1348fdb1c1a2ed4f2144b650a4", "fusion_lat": 0.0}, {"lon": -77.02513266666666, "name": "4ab11e654aaf79c9ef6b2fbe4be457bd", "is_disabled": 0, "type": "electric_scooter", "is_reserved": 0, "fusion_lon": 0.0, "lat": 38.88477366666667, "rental_uris": {"ios": "https://dc.lft.to/lastmile_qr_scan", "android": "https://dc.lft.to/lastmile_qr_scan"}, "bike_id": "4ab11e654aaf79c9ef6b2fbe4be457bd", "fusion_lat": 0.0}, {"lon": -77.03421783333333, "name": "ae9c925cefd006ace53307b33322a424", "is_disabled": 0, "type": "electric_scooter", "is_reserved": 0, "fusion_lon": 0.0, "lat": 38.935378166666666, "rental_uris": {"ios": "https://dc.lft.to/lastmile_qr_scan", "android": "https://dc.lft.to/lastmile_qr_scan"}, "bike_id": "ae9c925cefd006ace53307b33322a424", "fusion_lat": 0.0}, {"lon": -77.0400555, "name": "b5585d7a652317b5b5805c407fbd29df", "is_disabled": 0, "type": "electric_scooter", "is_reserved": 0, "fusion_lon": 0.0, "lat": 38.902880333333336, "rental_uris": {"ios": "https://dc.lft.to/lastmile_qr_scan", "android": "https://dc.lft.to/lastmile_qr_scan"}, "bike_id": "b5585d7a652317b5b5805c407fbd29df", "fusion_lat": 0.0}, {"lon": -77.03438466666667, "name": "db0b47927e07212fc91717cf7467d1f4", "is_disabled": 0, "type": "electric_scooter", "is_reserved": 0, "fusion_lon": 0.0, "lat": 38.917788333333334, "rental_uris": {"ios": "https://dc.lft.to/lastmile_qr_scan", "android": "https://dc.lft.to/lastmile_qr_scan"}, "bike_id": "db0b47927e07212fc91717cf7467d1f4", "fusion_lat": 0.0}, {"lon": -77.03460616666666, "name": "860888362e574d1767184ed55e09af40", "is_disabled": 0, "type": "electric_scooter", "is_reserved": 0, "fusion_lon": 0.0, "lat": 38.9166735, "rental_uris": {"ios": "https://dc.lft.to/lastmile_qr_scan", "android": "https://dc.lft.to/lastmile_qr_scan"}, "bike_id": "860888362e574d1767184ed55e09af40", "fusion_lat": 0.0}, {"lon": -77.05388333333333, "name": "b2ecddd98cf898a5c75e6a147afeb884", "is_disabled": 0, "type": "electric_scooter", "is_reserved": 0, "fusion_lon": 0.0, "lat": 38.92808383333333, "rental_uris": {"ios": "https://dc.lft.to/lastmile_qr_scan", "android": "https://dc.lft.to/lastmile_qr_scan"}, "bike_id": "b2ecddd98cf898a5c75e6a147afeb884", "fusion_lat": 0.0}, {"lon": -77.0575875, "name": "d2c2bbc52f9fd7ab8d6ea85335155783", "is_disabled": 0, "type": "electric_scooter", "is_reserved": 0, "fusion_lon": 0.0, "lat": 38.933778833333335, "rental_uris": {"ios": "https://dc.lft.to/lastmile_qr_scan", "android": "https://dc.lft.to/lastmile_qr_scan"}, "bike_id": "d2c2bbc52f9fd7ab8d6ea85335155783", "fusion_lat": 0.0}, {"lon": -77.03027933333334, "name": "d6cb688f14b3e0647408d184c8b35489", "is_disabled": 0, "type": "electric_scooter", "is_reserved": 0, "fusion_lon": 0.0, "lat": 38.922466666666665, "rental_uris": {"ios": "https://dc.lft.to/lastmile_qr_scan", "android": "https://dc.lft.to/lastmile_qr_scan"}, "bike_id": "d6cb688f14b3e0647408d184c8b35489", "fusion_lat": 0.0}, {"lon": -77.033474, "name": "5832fe1b5d6a2fc9284a7ccf8cebf4dc", "is_disabled": 0, "type": "electric_scooter", "is_reserved": 0, "fusion_lon": 0.0, "lat": 38.892511999999996, "rental_uris": {"ios": "https://dc.lft.to/lastmile_qr_scan", "android": "https://dc.lft.to/lastmile_qr_scan"}, "bike_id": "5832fe1b5d6a2fc9284a7ccf8cebf4dc", "fusion_lat": 0.0}, {"lon": -77.0028655, "name": "8446c93079aad74bbe398a2da990957d", "is_disabled": 0, "type": "electric_scooter", "is_reserved": 0, "fusion_lon": 0.0, "lat": 38.89355616666667, "rental_uris": {"ios": "https://dc.lft.to/lastmile_qr_scan", "android": "https://dc.lft.to/lastmile_qr_scan"}, "bike_id": "8446c93079aad74bbe398a2da990957d", "fusion_lat": 0.0}, {"lon": -77.01025816666667, "name": "1e982dc45aaee9d2a40f4a62dcc21189", "is_disabled": 0, "type": "electric_scooter", "is_reserved": 0, "fusion_lon": 0.0, "lat": 38.917095833333335, "rental_uris": {"ios": "https://dc.lft.to/lastmile_qr_scan", "android": "https://dc.lft.to/lastmile_qr_scan"}, "bike_id": "1e982dc45aaee9d2a40f4a62dcc21189", "fusion_lat": 0.0}, {"lon": -77.03883883333333, "name": "3f022eaaaa2f9c24cde5d6db6235d48f", "is_disabled": 0, "type": "electric_scooter", "is_reserved": 0, "fusion_lon": 0.0, "lat": 38.91842833333333, "rental_uris": {"ios": "https://dc.lft.to/lastmile_qr_scan", "android": "https://dc.lft.to/lastmile_qr_scan"}, "bike_id": "3f022eaaaa2f9c24cde5d6db6235d48f", "fusion_lat": 0.0}, {"lon": -76.99162766666667, "name": "ca7f3f128aba165fb19035e50b74c22c", "is_disabled": 0, "type": "electric_scooter", "is_reserved": 0, "fusion_lon": 0.0, "lat": 38.901259833333334, "rental_uris": {"ios": "https://dc.lft.to/lastmile_qr_scan", "android": "https://dc.lft.to/lastmile_qr_scan"}, "bike_id": "ca7f3f128aba165fb19035e50b74c22c", "fusion_lat": 0.0}, {"lon": -77.062178, "name": "8fd412672ad424a5a30cf1376a0b6ddc", "is_disabled": 0, "type": "electric_scooter", "is_reserved": 0, "fusion_lon": 0.0, "lat": 38.94227766666667, "rental_uris": {"ios": "https://dc.lft.to/lastmile_qr_scan", "android": "https://dc.lft.to/lastmile_qr_scan"}, "bike_id": "8fd412672ad424a5a30cf1376a0b6ddc", "fusion_lat": 0.0}, {"lon": -77.03184116666667, "name": "1d420a204dfc343ef82a54af6e5a61c5", "is_disabled": 0, "type": "electric_scooter", "is_reserved": 0, "fusion_lon": 0.0, "lat": 38.916319, "rental_uris": {"ios": "https://dc.lft.to/lastmile_qr_scan", "android": "https://dc.lft.to/lastmile_qr_scan"}, "bike_id": "1d420a204dfc343ef82a54af6e5a61c5", "fusion_lat": 0.0}, {"lon": -77.0318885, "name": "a8a8cd8fad1dd9c883fcc6bfa81f097a", "is_disabled": 0, "type": "electric_scooter", "is_reserved": 0, "fusion_lon": 0.0, "lat": 38.916263666666666, "rental_uris": {"ios": "https://dc.lft.to/lastmile_qr_scan", "android": "https://dc.lft.to/lastmile_qr_scan"}, "bike_id": "a8a8cd8fad1dd9c883fcc6bfa81f097a", "fusion_lat": 0.0}, {"lon": -77.054545, "name": "7ec54129760f2ffbe1a5aee683bf3792", "is_disabled": 0, "type": "electric_scooter", "is_reserved": 0, "fusion_lon": 0.0, "lat": 38.914802333333334, "rental_uris": {"ios": "https://dc.lft.to/lastmile_qr_scan", "android": "https://dc.lft.to/lastmile_qr_scan"}, "bike_id": "7ec54129760f2ffbe1a5aee683bf3792", "fusion_lat": 0.0}, {"lon": -77.03862333333333, "name": "a9df08b2037c80df13fb18273605577b", "is_disabled": 0, "type": "electric_scooter", "is_reserved": 0, "fusion_lon": 0.0, "lat": 38.91703366666667, "rental_uris": {"ios": "https://dc.lft.to/lastmile_qr_scan", "android": "https://dc.lft.to/lastmile_qr_scan"}, "bike_id": "a9df08b2037c80df13fb18273605577b", "fusion_lat": 0.0}, {"lon": -77.02084416666666, "name": "ed4735dd9cfa1865633b47dbda85737a", "is_disabled": 0, "type": "electric_scooter", "is_reserved": 0, "fusion_lon": 0.0, "lat": 38.911309833333334, "rental_uris": {"ios": "https://dc.lft.to/lastmile_qr_scan", "android": "https://dc.lft.to/lastmile_qr_scan"}, "bike_id": "ed4735dd9cfa1865633b47dbda85737a", "fusion_lat": 0.0}, {"lon": -77.04996616666666, "name": "34da5d0087feef1180ab6ead8fb5a1bd", "is_disabled": 0, "type": "electric_scooter", "is_reserved": 0, "fusion_lon": 0.0, "lat": 38.89232066666667, "rental_uris": {"ios": "https://dc.lft.to/lastmile_qr_scan", "android": "https://dc.lft.to/lastmile_qr_scan"}, "bike_id": "34da5d0087feef1180ab6ead8fb5a1bd", "fusion_lat": 0.0}, {"lon": -77.06132783333334, "name": "b565583f483ebaddb09dec096ff14354", "is_disabled": 0, "type": "electric_scooter", "is_reserved": 0, "fusion_lon": 0.0, "lat": 38.940837, "rental_uris": {"ios": "https://dc.lft.to/lastmile_qr_scan", "android": "https://dc.lft.to/lastmile_qr_scan"}, "bike_id": "b565583f483ebaddb09dec096ff14354", "fusion_lat": 0.0}, {"lon": -77.0469465, "name": "9513132cca38195b64e0de2b452bc75a", "is_disabled": 0, "type": "electric_scooter", "is_reserved": 0, "fusion_lon": 0.0, "lat": 38.92160616666666, "rental_uris": {"ios": "https://dc.lft.to/lastmile_qr_scan", "android": "https://dc.lft.to/lastmile_qr_scan"}, "bike_id": "9513132cca38195b64e0de2b452bc75a", "fusion_lat": 0.0}, {"lon": -77.01883866666667, "name": "94415b057e689476970169362a687d91", "is_disabled": 0, "type": "electric_scooter", "is_reserved": 0, "fusion_lon": 0.0, "lat": 38.91943166666667, "rental_uris": {"ios": "https://dc.lft.to/lastmile_qr_scan", "android": "https://dc.lft.to/lastmile_qr_scan"}, "bike_id": "94415b057e689476970169362a687d91", "fusion_lat": 0.0}, {"lon": -77.0172205, "name": "b82963ce069eb5ea03547d7e1ffc5469", "is_disabled": 0, "type": "electric_scooter", "is_reserved": 0, "fusion_lon": 0.0, "lat": 38.913689, "rental_uris": {"ios": "https://dc.lft.to/lastmile_qr_scan", "android": "https://dc.lft.to/lastmile_qr_scan"}, "bike_id": "b82963ce069eb5ea03547d7e1ffc5469", "fusion_lat": 0.0}, {"lon": -77.029465, "name": "b06086beb75a1fc269ac5ccc0b4eb140", "is_disabled": 0, "type": "electric_scooter", "is_reserved": 0, "fusion_lon": 0.0, "lat": 38.92769666666667, "rental_uris": {"ios": "https://dc.lft.to/lastmile_qr_scan", "android": "https://dc.lft.to/lastmile_qr_scan"}, "bike_id": "b06086beb75a1fc269ac5ccc0b4eb140", "fusion_lat": 0.0}, {"lon": -77.00178116666666, "name": "eb4216d856a5a6acc61a367feb23e872", "is_disabled": 0, "type": "electric_scooter", "is_reserved": 0, "fusion_lon": 0.0, "lat": 38.888592833333334, "rental_uris": {"ios": "https://dc.lft.to/lastmile_qr_scan", "android": "https://dc.lft.to/lastmile_qr_scan"}, "bike_id": "eb4216d856a5a6acc61a367feb23e872", "fusion_lat": 0.0}, {"lon": -76.998316, "name": "929500490ebcca972eb09bf0153f4c11", "is_disabled": 0, "type": "electric_scooter", "is_reserved": 0, "fusion_lon": 0.0, "lat": 38.900004333333335, "rental_uris": {"ios": "https://dc.lft.to/lastmile_qr_scan", "android": "https://dc.lft.to/lastmile_qr_scan"}, "bike_id": "929500490ebcca972eb09bf0153f4c11", "fusion_lat": 0.0}, {"lon": -77.0227975, "name": "52fe64d16a7168ed7d69c67fdfa516f3", "is_disabled": 0, "type": "electric_scooter", "is_reserved": 0, "fusion_lon": 0.0, "lat": 38.91658283333334, "rental_uris": {"ios": "https://dc.lft.to/lastmile_qr_scan", "android": "https://dc.lft.to/lastmile_qr_scan"}, "bike_id": "52fe64d16a7168ed7d69c67fdfa516f3", "fusion_lat": 0.0}, {"lon": -77.00573983333334, "name": "d5b100ea03b94844df25e24a2e5bf7c9", "is_disabled": 0, "type": "electric_scooter", "is_reserved": 0, "fusion_lon": 0.0, "lat": 38.87215, "rental_uris": {"ios": "https://dc.lft.to/lastmile_qr_scan", "android": "https://dc.lft.to/lastmile_qr_scan"}, "bike_id": "d5b100ea03b94844df25e24a2e5bf7c9", "fusion_lat": 0.0}, {"lon": -77.01836966666667, "name": "c8469d8162832ab9198edb1525f78041", "is_disabled": 0, "type": "electric_scooter", "is_reserved": 0, "fusion_lon": 0.0, "lat": 38.897388166666666, "rental_uris": {"ios": "https://dc.lft.to/lastmile_qr_scan", "android": "https://dc.lft.to/lastmile_qr_scan"}, "bike_id": "c8469d8162832ab9198edb1525f78041", "fusion_lat": 0.0}, {"lon": -77.02640766666667, "name": "d53b479fc7eedcda1ca9692d59824423", "is_disabled": 0, "type": "electric_scooter", "is_reserved": 0, "fusion_lon": 0.0, "lat": 38.9110365, "rental_uris": {"ios": "https://dc.lft.to/lastmile_qr_scan", "android": "https://dc.lft.to/lastmile_qr_scan"}, "bike_id": "d53b479fc7eedcda1ca9692d59824423", "fusion_lat": 0.0}, {"lon": -77.07873483333333, "name": "9bbf8ce20da095051f1d8af799351f30", "is_disabled": 0, "type": "electric_scooter", "is_reserved": 0, "fusion_lon": 0.0, "lat": 38.91955433333333, "rental_uris": {"ios": "https://dc.lft.to/lastmile_qr_scan", "android": "https://dc.lft.to/lastmile_qr_scan"}, "bike_id": "9bbf8ce20da095051f1d8af799351f30", "fusion_lat": 0.0}, {"lon": -77.04191866666666, "name": "ca628a0b8ece4106b0db2bfc8974fc15", "is_disabled": 0, "type": "electric_scooter", "is_reserved": 0, "fusion_lon": 0.0, "lat": 38.920530166666666, "rental_uris": {"ios": "https://dc.lft.to/lastmile_qr_scan", "android": "https://dc.lft.to/lastmile_qr_scan"}, "bike_id": "ca628a0b8ece4106b0db2bfc8974fc15", "fusion_lat": 0.0}, {"lon": -77.05522516666667, "name": "20dc25db3261a0e410f5e9c11529ecb4", "is_disabled": 0, "type": "electric_scooter", "is_reserved": 0, "fusion_lon": 0.0, "lat": 38.89725516666667, "rental_uris": {"ios": "https://dc.lft.to/lastmile_qr_scan", "android": "https://dc.lft.to/lastmile_qr_scan"}, "bike_id": "20dc25db3261a0e410f5e9c11529ecb4", "fusion_lat": 0.0}, {"lon": -77.01803133333334, "name": "679bde37e9e3ad4d88c084d886dfc46d", "is_disabled": 0, "type": "electric_scooter", "is_reserved": 0, "fusion_lon": 0.0, "lat": 38.921388, "rental_uris": {"ios": "https://dc.lft.to/lastmile_qr_scan", "android": "https://dc.lft.to/lastmile_qr_scan"}, "bike_id": "679bde37e9e3ad4d88c084d886dfc46d", "fusion_lat": 0.0}, {"lon": -77.01147933333333, "name": "17f8c2d8a13ad76295ad521aad910eeb", "is_disabled": 0, "type": "electric_scooter", "is_reserved": 0, "fusion_lon": 0.0, "lat": 38.91098616666667, "rental_uris": {"ios": "https://dc.lft.to/lastmile_qr_scan", "android": "https://dc.lft.to/lastmile_qr_scan"}, "bike_id": "17f8c2d8a13ad76295ad521aad910eeb", "fusion_lat": 0.0}, {"lon": -77.0198695, "name": "ba4652d7c0b8c4ae9ddf7eca1121b5bf", "is_disabled": 0, "type": "electric_scooter", "is_reserved": 0, "fusion_lon": 0.0, "lat": 38.915665833333335, "rental_uris": {"ios": "https://dc.lft.to/lastmile_qr_scan", "android": "https://dc.lft.to/lastmile_qr_scan"}, "bike_id": "ba4652d7c0b8c4ae9ddf7eca1121b5bf", "fusion_lat": 0.0}, {"lon": -77.02129666666667, "name": "2c41081fc7080d8bcfd009ad8229839b", "is_disabled": 0, "type": "electric_scooter", "is_reserved": 0, "fusion_lon": 0.0, "lat": 38.931125, "rental_uris": {"ios": "https://dc.lft.to/lastmile_qr_scan", "android": "https://dc.lft.to/lastmile_qr_scan"}, "bike_id": "2c41081fc7080d8bcfd009ad8229839b", "fusion_lat": 0.0}, {"lon": -77.02171183333333, "name": "88dce5f5e5d130e61394880239e423bc", "is_disabled": 0, "type": "electric_scooter", "is_reserved": 0, "fusion_lon": 0.0, "lat": 38.89970483333333, "rental_uris": {"ios": "https://dc.lft.to/lastmile_qr_scan", "android": "https://dc.lft.to/lastmile_qr_scan"}, "bike_id": "88dce5f5e5d130e61394880239e423bc", "fusion_lat": 0.0}, {"lon": -76.98376466666667, "name": "abe64c4662471ca18f61b354279748ad", "is_disabled": 0, "type": "electric_scooter", "is_reserved": 0, "fusion_lon": 0.0, "lat": 38.8607975, "rental_uris": {"ios": "https://dc.lft.to/lastmile_qr_scan", "android": "https://dc.lft.to/lastmile_qr_scan"}, "bike_id": "abe64c4662471ca18f61b354279748ad", "fusion_lat": 0.0}, {"lon": -77.02340366666667, "name": "e8922fa58be45d23542db1e41add2872", "is_disabled": 0, "type": "electric_scooter", "is_reserved": 0, "fusion_lon": 0.0, "lat": 38.9177645, "rental_uris": {"ios": "https://dc.lft.to/lastmile_qr_scan", "android": "https://dc.lft.to/lastmile_qr_scan"}, "bike_id": "e8922fa58be45d23542db1e41add2872", "fusion_lat": 0.0}, {"lon": -77.03434383333334, "name": "09ac85e4d767e965c831f7553c3bb6c7", "is_disabled": 0, "type": "electric_scooter", "is_reserved": 0, "fusion_lon": 0.0, "lat": 38.902571, "rental_uris": {"ios": "https://dc.lft.to/lastmile_qr_scan", "android": "https://dc.lft.to/lastmile_qr_scan"}, "bike_id": "09ac85e4d767e965c831f7553c3bb6c7", "fusion_lat": 0.0}, {"lon": -77.02215466666667, "name": "7070da3ae3da92e6b218aaa2ed149b8a", "is_disabled": 0, "type": "electric_scooter", "is_reserved": 0, "fusion_lon": 0.0, "lat": 38.905539833333336, "rental_uris": {"ios": "https://dc.lft.to/lastmile_qr_scan", "android": "https://dc.lft.to/lastmile_qr_scan"}, "bike_id": "7070da3ae3da92e6b218aaa2ed149b8a", "fusion_lat": 0.0}, {"lon": -77.04248016666666, "name": "672baee92802d00bbc19d1fdf44b95cd", "is_disabled": 0, "type": "electric_scooter", "is_reserved": 0, "fusion_lon": 0.0, "lat": 38.92069033333333, "rental_uris": {"ios": "https://dc.lft.to/lastmile_qr_scan", "android": "https://dc.lft.to/lastmile_qr_scan"}, "bike_id": "672baee92802d00bbc19d1fdf44b95cd", "fusion_lat": 0.0}, {"lon": -77.017869, "name": "56bd959f1dbfaab06d8d1667859097ea", "is_disabled": 0, "type": "electric_scooter", "is_reserved": 0, "fusion_lon": 0.0, "lat": 38.9198905, "rental_uris": {"ios": "https://dc.lft.to/lastmile_qr_scan", "android": "https://dc.lft.to/lastmile_qr_scan"}, "bike_id": "56bd959f1dbfaab06d8d1667859097ea", "fusion_lat": 0.0}, {"lon": -77.01427466666667, "name": "3459426a9e502678a98280b75df4491c", "is_disabled": 0, "type": "electric_scooter", "is_reserved": 0, "fusion_lon": 0.0, "lat": 38.91952883333333, "rental_uris": {"ios": "https://dc.lft.to/lastmile_qr_scan", "android": "https://dc.lft.to/lastmile_qr_scan"}, "bike_id": "3459426a9e502678a98280b75df4491c", "fusion_lat": 0.0}, {"lon": -77.05323816666667, "name": "e99841b3ab4f9cdd523e3e02d39ef92c", "is_disabled": 0, "type": "electric_scooter", "is_reserved": 0, "fusion_lon": 0.0, "lat": 38.9042535, "rental_uris": {"ios": "https://dc.lft.to/lastmile_qr_scan", "android": "https://dc.lft.to/lastmile_qr_scan"}, "bike_id": "e99841b3ab4f9cdd523e3e02d39ef92c", "fusion_lat": 0.0}, {"lon": -77.0032665, "name": "92086a3207a19938af70d485d4e9d5ef", "is_disabled": 0, "type": "electric_scooter", "is_reserved": 0, "fusion_lon": 0.0, "lat": 38.90131616666667, "rental_uris": {"ios": "https://dc.lft.to/lastmile_qr_scan", "android": "https://dc.lft.to/lastmile_qr_scan"}, "bike_id": "92086a3207a19938af70d485d4e9d5ef", "fusion_lat": 0.0}, {"lon": -77.03608083333333, "name": "3a0c4c92eadab6953a27f836bd05a87e", "is_disabled": 0, "type": "electric_scooter", "is_reserved": 0, "fusion_lon": 0.0, "lat": 38.90233383333333, "rental_uris": {"ios": "https://dc.lft.to/lastmile_qr_scan", "android": "https://dc.lft.to/lastmile_qr_scan"}, "bike_id": "3a0c4c92eadab6953a27f836bd05a87e", "fusion_lat": 0.0}, {"lon": -76.95829533333334, "name": "40435ae58e7585215526a635edd48e3b", "is_disabled": 0, "type": "electric_bike", "is_reserved": 0, "fusion_lon": 0.0, "lat": 38.8507125, "rental_uris": {"ios": "https://dc.lft.to/lastmile_qr_scan", "android": "https://dc.lft.to/lastmile_qr_scan"}, "bike_id": "40435ae58e7585215526a635edd48e3b", "fusion_lat": 0.0}, {"lon": -77.03933016666667, "name": "1fbbbefad47b79e4788f93ef7877cdc7", "is_disabled": 0, "type": "electric_scooter", "is_reserved": 0, "fusion_lon": 0.0, "lat": 38.91631066666667, "rental_uris": {"ios": "https://dc.lft.to/lastmile_qr_scan", "android": "https://dc.lft.to/lastmile_qr_scan"}, "bike_id": "1fbbbefad47b79e4788f93ef7877cdc7", "fusion_lat": 0.0}, {"lon": -77.0365535, "name": "4f0eae5ca835d0bb968344366a99acb4", "is_disabled": 0, "type": "electric_scooter", "is_reserved": 0, "fusion_lon": 0.0, "lat": 38.93352466666666, "rental_uris": {"ios": "https://dc.lft.to/lastmile_qr_scan", "android": "https://dc.lft.to/lastmile_qr_scan"}, "bike_id": "4f0eae5ca835d0bb968344366a99acb4", "fusion_lat": 0.0}, {"lon": -76.93742433333334, "name": "feb9a914f68f55e90891685f18933314", "is_disabled": 0, "type": "electric_scooter", "is_reserved": 0, "fusion_lon": 0.0, "lat": 38.890087666666666, "rental_uris": {"ios": "https://dc.lft.to/lastmile_qr_scan", "android": "https://dc.lft.to/lastmile_qr_scan"}, "bike_id": "feb9a914f68f55e90891685f18933314", "fusion_lat": 0.0}, {"lon": -77.026059, "name": "a9445597d58955e88d1e0e912e4251b7", "is_disabled": 0, "type": "electric_scooter", "is_reserved": 0, "fusion_lon": 0.0, "lat": 38.9202565, "rental_uris": {"ios": "https://dc.lft.to/lastmile_qr_scan", "android": "https://dc.lft.to/lastmile_qr_scan"}, "bike_id": "a9445597d58955e88d1e0e912e4251b7", "fusion_lat": 0.0}, {"lon": -77.06356916666667, "name": "bdc99fb6303552e88f7f9c946d43543f", "is_disabled": 0, "type": "electric_scooter", "is_reserved": 0, "fusion_lon": 0.0, "lat": 38.906816166666665, "rental_uris": {"ios": "https://dc.lft.to/lastmile_qr_scan", "android": "https://dc.lft.to/lastmile_qr_scan"}, "bike_id": "bdc99fb6303552e88f7f9c946d43543f", "fusion_lat": 0.0}, {"lon": -77.02194466666667, "name": "85b2810372dab6eb76a9d94b07a9efc4", "is_disabled": 0, "type": "electric_scooter", "is_reserved": 0, "fusion_lon": 0.0, "lat": 38.877787833333336, "rental_uris": {"ios": "https://dc.lft.to/lastmile_qr_scan", "android": "https://dc.lft.to/lastmile_qr_scan"}, "bike_id": "85b2810372dab6eb76a9d94b07a9efc4", "fusion_lat": 0.0}, {"lon": -77.0457975, "name": "2fab632b725937280b56bb33aab788b2", "is_disabled": 0, "type": "electric_scooter", "is_reserved": 0, "fusion_lon": 0.0, "lat": 38.92129766666667, "rental_uris": {"ios": "https://dc.lft.to/lastmile_qr_scan", "android": "https://dc.lft.to/lastmile_qr_scan"}, "bike_id": "2fab632b725937280b56bb33aab788b2", "fusion_lat": 0.0}, {"lon": -77.02685066666666, "name": "c55026097dd130a592d6fa4487e8916d", "is_disabled": 0, "type": "electric_scooter", "is_reserved": 0, "fusion_lon": 0.0, "lat": 38.9249405, "rental_uris": {"ios": "https://dc.lft.to/lastmile_qr_scan", "android": "https://dc.lft.to/lastmile_qr_scan"}, "bike_id": "c55026097dd130a592d6fa4487e8916d", "fusion_lat": 0.0}, {"lon": -77.0296975, "name": "d942e2f073ab03f70071e5141c3b559c", "is_disabled": 0, "type": "electric_scooter", "is_reserved": 0, "fusion_lon": 0.0, "lat": 38.910963833333334, "rental_uris": {"ios": "https://dc.lft.to/lastmile_qr_scan", "android": "https://dc.lft.to/lastmile_qr_scan"}, "bike_id": "d942e2f073ab03f70071e5141c3b559c", "fusion_lat": 0.0}, {"lon": -77.0160475, "name": "2a70b7d030eb8802e7996133025354c6", "is_disabled": 0, "type": "electric_scooter", "is_reserved": 0, "fusion_lon": 0.0, "lat": 38.905884, "rental_uris": {"ios": "https://dc.lft.to/lastmile_qr_scan", "android": "https://dc.lft.to/lastmile_qr_scan"}, "bike_id": "2a70b7d030eb8802e7996133025354c6", "fusion_lat": 0.0}, {"lon": -77.04629833333334, "name": "b0f093f6df298c2ff26b3b70530eb2ca", "is_disabled": 0, "type": "electric_scooter", "is_reserved": 0, "fusion_lon": 0.0, "lat": 38.9222715, "rental_uris": {"ios": "https://dc.lft.to/lastmile_qr_scan", "android": "https://dc.lft.to/lastmile_qr_scan"}, "bike_id": "b0f093f6df298c2ff26b3b70530eb2ca", "fusion_lat": 0.0}, {"lon": -77.017824, "name": "8243172e443163e94c32ebf2757f56d3", "is_disabled": 0, "type": "electric_scooter", "is_reserved": 0, "fusion_lon": 0.0, "lat": 38.91995033333333, "rental_uris": {"ios": "https://dc.lft.to/lastmile_qr_scan", "android": "https://dc.lft.to/lastmile_qr_scan"}, "bike_id": "8243172e443163e94c32ebf2757f56d3", "fusion_lat": 0.0}, {"lon": -76.90753766666667, "name": "357394bd5fb2ed69e6971b3211d4d064", "is_disabled": 0, "type": "electric_bike", "is_reserved": 0, "fusion_lon": 0.0, "lat": 38.896164, "rental_uris": {"ios": "https://dc.lft.to/lastmile_qr_scan", "android": "https://dc.lft.to/lastmile_qr_scan"}, "bike_id": "357394bd5fb2ed69e6971b3211d4d064", "fusion_lat": 0.0}, {"lon": -77.03974416666667, "name": "eb388f30d56525e6136ba2133346ee73", "is_disabled": 0, "type": "electric_scooter", "is_reserved": 0, "fusion_lon": 0.0, "lat": 38.920285166666666, "rental_uris": {"ios": "https://dc.lft.to/lastmile_qr_scan", "android": "https://dc.lft.to/lastmile_qr_scan"}, "bike_id": "eb388f30d56525e6136ba2133346ee73", "fusion_lat": 0.0}, {"lon": -77.03378433333333, "name": "095e7ef912ce567586fdb5626396a764", "is_disabled": 0, "type": "electric_scooter", "is_reserved": 0, "fusion_lon": 0.0, "lat": 38.90957566666667, "rental_uris": {"ios": "https://dc.lft.to/lastmile_qr_scan", "android": "https://dc.lft.to/lastmile_qr_scan"}, "bike_id": "095e7ef912ce567586fdb5626396a764", "fusion_lat": 0.0}, {"lon": -77.03822733333334, "name": "15f4784137a04a64219b75b56994460c", "is_disabled": 0, "type": "electric_scooter", "is_reserved": 0, "fusion_lon": 0.0, "lat": 38.91420933333333, "rental_uris": {"ios": "https://dc.lft.to/lastmile_qr_scan", "android": "https://dc.lft.to/lastmile_qr_scan"}, "bike_id": "15f4784137a04a64219b75b56994460c", "fusion_lat": 0.0}, {"lon": -77.01928583333333, "name": "c086ed8cdbd1e040846de8aade91ef3a", "is_disabled": 0, "type": "electric_scooter", "is_reserved": 0, "fusion_lon": 0.0, "lat": 38.922545666666664, "rental_uris": {"ios": "https://dc.lft.to/lastmile_qr_scan", "android": "https://dc.lft.to/lastmile_qr_scan"}, "bike_id": "c086ed8cdbd1e040846de8aade91ef3a", "fusion_lat": 0.0}, {"lon": -77.00533383333334, "name": "a5a20bb9228455d42e5fc5cb3b282a59", "is_disabled": 0, "type": "electric_scooter", "is_reserved": 0, "fusion_lon": 0.0, "lat": 38.87542083333334, "rental_uris": {"ios": "https://dc.lft.to/lastmile_qr_scan", "android": "https://dc.lft.to/lastmile_qr_scan"}, "bike_id": "a5a20bb9228455d42e5fc5cb3b282a59", "fusion_lat": 0.0}, {"lon": -77.03533333333333, "name": "446ddb5ee0ed98ba1fb0d00d8bcb8da8", "is_disabled": 0, "type": "electric_scooter", "is_reserved": 0, "fusion_lon": 0.0, "lat": 38.907062833333335, "rental_uris": {"ios": "https://dc.lft.to/lastmile_qr_scan", "android": "https://dc.lft.to/lastmile_qr_scan"}, "bike_id": "446ddb5ee0ed98ba1fb0d00d8bcb8da8", "fusion_lat": 0.0}, {"lon": -77.0338405, "name": "d4965b64d86e41b5717907d68e5c36a6", "is_disabled": 0, "type": "electric_scooter", "is_reserved": 0, "fusion_lon": 0.0, "lat": 38.92157383333333, "rental_uris": {"ios": "https://dc.lft.to/lastmile_qr_scan", "android": "https://dc.lft.to/lastmile_qr_scan"}, "bike_id": "d4965b64d86e41b5717907d68e5c36a6", "fusion_lat": 0.0}, {"lon": -77.04189516666666, "name": "6e3a816d077b3d604112cec45559aaf3", "is_disabled": 0, "type": "electric_scooter", "is_reserved": 0, "fusion_lon": 0.0, "lat": 38.920547, "rental_uris": {"ios": "https://dc.lft.to/lastmile_qr_scan", "android": "https://dc.lft.to/lastmile_qr_scan"}, "bike_id": "6e3a816d077b3d604112cec45559aaf3", "fusion_lat": 0.0}, {"lon": -77.0269245, "name": "f45fb279cb403f2ba9c3fb663ac9b746", "is_disabled": 0, "type": "electric_scooter", "is_reserved": 0, "fusion_lon": 0.0, "lat": 38.897508, "rental_uris": {"ios": "https://dc.lft.to/lastmile_qr_scan", "android": "https://dc.lft.to/lastmile_qr_scan"}, "bike_id": "f45fb279cb403f2ba9c3fb663ac9b746", "fusion_lat": 0.0}, {"lon": -76.97136266666666, "name": "1ee61e570601f4e1a4ced16937857f9b", "is_disabled": 0, "type": "electric_scooter", "is_reserved": 0, "fusion_lon": 0.0, "lat": 38.91348433333334, "rental_uris": {"ios": "https://dc.lft.to/lastmile_qr_scan", "android": "https://dc.lft.to/lastmile_qr_scan"}, "bike_id": "1ee61e570601f4e1a4ced16937857f9b", "fusion_lat": 0.0}, {"lon": -77.04189716666667, "name": "bee39969b7a2c6dd65db716728c0838f", "is_disabled": 0, "type": "electric_scooter", "is_reserved": 0, "fusion_lon": 0.0, "lat": 38.92062633333333, "rental_uris": {"ios": "https://dc.lft.to/lastmile_qr_scan", "android": "https://dc.lft.to/lastmile_qr_scan"}, "bike_id": "bee39969b7a2c6dd65db716728c0838f", "fusion_lat": 0.0}, {"lon": -77.04163766666667, "name": "35ff40407233549aacb4f8688c96a729", "is_disabled": 0, "type": "electric_scooter", "is_reserved": 0, "fusion_lon": 0.0, "lat": 38.918267, "rental_uris": {"ios": "https://dc.lft.to/lastmile_qr_scan", "android": "https://dc.lft.to/lastmile_qr_scan"}, "bike_id": "35ff40407233549aacb4f8688c96a729", "fusion_lat": 0.0}, {"lon": -77.0310395, "name": "ba4820de467c93ee27e4535e83e36b83", "is_disabled": 0, "type": "electric_scooter", "is_reserved": 0, "fusion_lon": 0.0, "lat": 38.9266805, "rental_uris": {"ios": "https://dc.lft.to/lastmile_qr_scan", "android": "https://dc.lft.to/lastmile_qr_scan"}, "bike_id": "ba4820de467c93ee27e4535e83e36b83", "fusion_lat": 0.0}, {"lon": -77.084056, "name": "a212d3db81c10b1bdd637a0f9bfab23e", "is_disabled": 0, "type": "electric_bike", "is_reserved": 0, "fusion_lon": 0.0, "lat": 38.832934, "rental_uris": {"ios": "https://dc.lft.to/lastmile_qr_scan", "android": "https://dc.lft.to/lastmile_qr_scan"}, "bike_id": "a212d3db81c10b1bdd637a0f9bfab23e", "fusion_lat": 0.0}, {"lon": -77.02298966666666, "name": "9cbe4f33b4956519f899cd64aca8eb7c", "is_disabled": 0, "type": "electric_scooter", "is_reserved": 0, "fusion_lon": 0.0, "lat": 38.93206516666667, "rental_uris": {"ios": "https://dc.lft.to/lastmile_qr_scan", "android": "https://dc.lft.to/lastmile_qr_scan"}, "bike_id": "9cbe4f33b4956519f899cd64aca8eb7c", "fusion_lat": 0.0}, {"lon": -77.03317883333334, "name": "78e7340314d47fdbe03f42ea9c44e587", "is_disabled": 0, "type": "electric_scooter", "is_reserved": 0, "fusion_lon": 0.0, "lat": 38.900152, "rental_uris": {"ios": "https://dc.lft.to/lastmile_qr_scan", "android": "https://dc.lft.to/lastmile_qr_scan"}, "bike_id": "78e7340314d47fdbe03f42ea9c44e587", "fusion_lat": 0.0}, {"lon": -77.03642116666667, "name": "828790d1b3cd98374db401d1e16e25b6", "is_disabled": 0, "type": "electric_scooter", "is_reserved": 0, "fusion_lon": 0.0, "lat": 38.9274925, "rental_uris": {"ios": "https://dc.lft.to/lastmile_qr_scan", "android": "https://dc.lft.to/lastmile_qr_scan"}, "bike_id": "828790d1b3cd98374db401d1e16e25b6", "fusion_lat": 0.0}, {"lon": -77.03185966666666, "name": "a831ea0ab186c64d108e4f5d09fa0401", "is_disabled": 0, "type": "electric_scooter", "is_reserved": 0, "fusion_lon": 0.0, "lat": 38.9160015, "rental_uris": {"ios": "https://dc.lft.to/lastmile_qr_scan", "android": "https://dc.lft.to/lastmile_qr_scan"}, "bike_id": "a831ea0ab186c64d108e4f5d09fa0401", "fusion_lat": 0.0}, {"lon": -76.99909133333334, "name": "2b908bba84f93698cd07d8535aecb34c", "is_disabled": 0, "type": "electric_scooter", "is_reserved": 0, "fusion_lon": 0.0, "lat": 38.89607266666667, "rental_uris": {"ios": "https://dc.lft.to/lastmile_qr_scan", "android": "https://dc.lft.to/lastmile_qr_scan"}, "bike_id": "2b908bba84f93698cd07d8535aecb34c", "fusion_lat": 0.0}, {"lon": -77.03260133333333, "name": "d2bbad83d0542879865462d59706b49b", "is_disabled": 0, "type": "electric_scooter", "is_reserved": 0, "fusion_lon": 0.0, "lat": 38.932514, "rental_uris": {"ios": "https://dc.lft.to/lastmile_qr_scan", "android": "https://dc.lft.to/lastmile_qr_scan"}, "bike_id": "d2bbad83d0542879865462d59706b49b", "fusion_lat": 0.0}, {"lon": -77.03686616666667, "name": "9ac4654624d3a00bc8aca41f59e6838d", "is_disabled": 0, "type": "electric_scooter", "is_reserved": 0, "fusion_lon": 0.0, "lat": 38.92637766666667, "rental_uris": {"ios": "https://dc.lft.to/lastmile_qr_scan", "android": "https://dc.lft.to/lastmile_qr_scan"}, "bike_id": "9ac4654624d3a00bc8aca41f59e6838d", "fusion_lat": 0.0}, {"lon": -77.027868, "name": "5ed9aba635e723a9b09df1b361b57228", "is_disabled": 0, "type": "electric_scooter", "is_reserved": 0, "fusion_lon": 0.0, "lat": 38.9319235, "rental_uris": {"ios": "https://dc.lft.to/lastmile_qr_scan", "android": "https://dc.lft.to/lastmile_qr_scan"}, "bike_id": "5ed9aba635e723a9b09df1b361b57228", "fusion_lat": 0.0}, {"lon": -77.02203916666667, "name": "fbe9c1d661969c0f3548e87f61deb535", "is_disabled": 0, "type": "electric_scooter", "is_reserved": 0, "fusion_lon": 0.0, "lat": 38.924650666666665, "rental_uris": {"ios": "https://dc.lft.to/lastmile_qr_scan", "android": "https://dc.lft.to/lastmile_qr_scan"}, "bike_id": "fbe9c1d661969c0f3548e87f61deb535", "fusion_lat": 0.0}, {"lon": -77.02299066666667, "name": "6a0991871ad88ceced0d1e758c2bc852", "is_disabled": 0, "type": "electric_scooter", "is_reserved": 0, "fusion_lon": 0.0, "lat": 38.91789, "rental_uris": {"ios": "https://dc.lft.to/lastmile_qr_scan", "android": "https://dc.lft.to/lastmile_qr_scan"}, "bike_id": "6a0991871ad88ceced0d1e758c2bc852", "fusion_lat": 0.0}, {"lon": -77.0257965, "name": "00c1313a664ece6b59e58b0fe1b1ddfb", "is_disabled": 0, "type": "electric_scooter", "is_reserved": 0, "fusion_lon": 0.0, "lat": 38.90332, "rental_uris": {"ios": "https://dc.lft.to/lastmile_qr_scan", "android": "https://dc.lft.to/lastmile_qr_scan"}, "bike_id": "00c1313a664ece6b59e58b0fe1b1ddfb", "fusion_lat": 0.0}, {"lon": -76.98566133333334, "name": "956e77538c7ad914b5fcc9dde4ab0e9e", "is_disabled": 0, "type": "electric_scooter", "is_reserved": 0, "fusion_lon": 0.0, "lat": 38.9127605, "rental_uris": {"ios": "https://dc.lft.to/lastmile_qr_scan", "android": "https://dc.lft.to/lastmile_qr_scan"}, "bike_id": "956e77538c7ad914b5fcc9dde4ab0e9e", "fusion_lat": 0.0}, {"lon": -76.98552966666666, "name": "34cf97ea4e5a6c864b6ae246c8d5bcc3", "is_disabled": 0, "type": "electric_scooter", "is_reserved": 0, "fusion_lon": 0.0, "lat": 38.89763083333333, "rental_uris": {"ios": "https://dc.lft.to/lastmile_qr_scan", "android": "https://dc.lft.to/lastmile_qr_scan"}, "bike_id": "34cf97ea4e5a6c864b6ae246c8d5bcc3", "fusion_lat": 0.0}, {"lon": -77.07728033333333, "name": "809bec88cad8fefd66afa1266f714a7b", "is_disabled": 0, "type": "electric_scooter", "is_reserved": 0, "fusion_lon": 0.0, "lat": 38.92258616666667, "rental_uris": {"ios": "https://dc.lft.to/lastmile_qr_scan", "android": "https://dc.lft.to/lastmile_qr_scan"}, "bike_id": "809bec88cad8fefd66afa1266f714a7b", "fusion_lat": 0.0}, {"lon": -77.02416566666666, "name": "f746ab5343deebfd17cef71c4ac707e3", "is_disabled": 0, "type": "electric_scooter", "is_reserved": 0, "fusion_lon": 0.0, "lat": 38.909613, "rental_uris": {"ios": "https://dc.lft.to/lastmile_qr_scan", "android": "https://dc.lft.to/lastmile_qr_scan"}, "bike_id": "f746ab5343deebfd17cef71c4ac707e3", "fusion_lat": 0.0}, {"lon": -77.0402305, "name": "f23fc39329940f810152b57fba0ea670", "is_disabled": 0, "type": "electric_scooter", "is_reserved": 0, "fusion_lon": 0.0, "lat": 38.904857666666665, "rental_uris": {"ios": "https://dc.lft.to/lastmile_qr_scan", "android": "https://dc.lft.to/lastmile_qr_scan"}, "bike_id": "f23fc39329940f810152b57fba0ea670", "fusion_lat": 0.0}, {"lon": -77.02172266666666, "name": "1e786b2cb1b30029d812820c34328368", "is_disabled": 0, "type": "electric_scooter", "is_reserved": 0, "fusion_lon": 0.0, "lat": 38.914052, "rental_uris": {"ios": "https://dc.lft.to/lastmile_qr_scan", "android": "https://dc.lft.to/lastmile_qr_scan"}, "bike_id": "1e786b2cb1b30029d812820c34328368", "fusion_lat": 0.0}, {"lon": -76.9339455, "name": "d8f40b31bc8395f8f0718efd747039d7", "is_disabled": 0, "type": "electric_scooter", "is_reserved": 0, "fusion_lon": 0.0, "lat": 38.89911566666667, "rental_uris": {"ios": "https://dc.lft.to/lastmile_qr_scan", "android": "https://dc.lft.to/lastmile_qr_scan"}, "bike_id": "d8f40b31bc8395f8f0718efd747039d7", "fusion_lat": 0.0}, {"lon": -77.0423395, "name": "69f975dc23c5af8e621ffceca290210c", "is_disabled": 0, "type": "electric_scooter", "is_reserved": 0, "fusion_lon": 0.0, "lat": 38.921511833333334, "rental_uris": {"ios": "https://dc.lft.to/lastmile_qr_scan", "android": "https://dc.lft.to/lastmile_qr_scan"}, "bike_id": "69f975dc23c5af8e621ffceca290210c", "fusion_lat": 0.0}, {"lon": -77.043501, "name": "62c6fb616885b7ee7ba6e92c152a42f9", "is_disabled": 0, "type": "electric_scooter", "is_reserved": 0, "fusion_lon": 0.0, "lat": 38.89698283333333, "rental_uris": {"ios": "https://dc.lft.to/lastmile_qr_scan", "android": "https://dc.lft.to/lastmile_qr_scan"}, "bike_id": "62c6fb616885b7ee7ba6e92c152a42f9", "fusion_lat": 0.0}, {"lon": -77.0678735, "name": "9fd2f771c3722b323f64fa8c3974acf9", "is_disabled": 0, "type": "electric_scooter", "is_reserved": 0, "fusion_lon": 0.0, "lat": 38.952088333333336, "rental_uris": {"ios": "https://dc.lft.to/lastmile_qr_scan", "android": "https://dc.lft.to/lastmile_qr_scan"}, "bike_id": "9fd2f771c3722b323f64fa8c3974acf9", "fusion_lat": 0.0}, {"lon": -77.0067785, "name": "8bd0e973ace29d4e58a42b6696677c6a", "is_disabled": 0, "type": "electric_bike", "is_reserved": 0, "fusion_lon": 0.0, "lat": 38.94512983333333, "rental_uris": {"ios": "https://dc.lft.to/lastmile_qr_scan", "android": "https://dc.lft.to/lastmile_qr_scan"}, "bike_id": "8bd0e973ace29d4e58a42b6696677c6a", "fusion_lat": 0.0}, {"lon": -77.0789645, "name": "11ab2813de71110c55e0d0c1b3acf942", "is_disabled": 0, "type": "electric_bike", "is_reserved": 0, "fusion_lon": 0.0, "lat": 38.839294333333335, "rental_uris": {"ios": "https://dc.lft.to/lastmile_qr_scan", "android": "https://dc.lft.to/lastmile_qr_scan"}, "bike_id": "11ab2813de71110c55e0d0c1b3acf942", "fusion_lat": 0.0}, {"lon": -77.03356666666667, "name": "cec4c3e9f80d0bb4b36a275c3f485310", "is_disabled": 0, "type": "electric_scooter", "is_reserved": 0, "fusion_lon": 0.0, "lat": 38.92759566666667, "rental_uris": {"ios": "https://dc.lft.to/lastmile_qr_scan", "android": "https://dc.lft.to/lastmile_qr_scan"}, "bike_id": "cec4c3e9f80d0bb4b36a275c3f485310", "fusion_lat": 0.0}, {"lon": -76.99307983333334, "name": "e2302f86742e5a1d5384e47aee3d9411", "is_disabled": 0, "type": "electric_scooter", "is_reserved": 0, "fusion_lon": 0.0, "lat": 38.93770983333334, "rental_uris": {"ios": "https://dc.lft.to/lastmile_qr_scan", "android": "https://dc.lft.to/lastmile_qr_scan"}, "bike_id": "e2302f86742e5a1d5384e47aee3d9411", "fusion_lat": 0.0}, {"lon": -77.0220425, "name": "5be1bce8f52b175395fe653f2de80bcb", "is_disabled": 0, "type": "electric_scooter", "is_reserved": 0, "fusion_lon": 0.0, "lat": 38.89609933333333, "rental_uris": {"ios": "https://dc.lft.to/lastmile_qr_scan", "android": "https://dc.lft.to/lastmile_qr_scan"}, "bike_id": "5be1bce8f52b175395fe653f2de80bcb", "fusion_lat": 0.0}, {"lon": -77.0265635, "name": "5390317dfab92a4844f94ef0f9ffc6bd", "is_disabled": 0, "type": "electric_scooter", "is_reserved": 0, "fusion_lon": 0.0, "lat": 38.92382383333333, "rental_uris": {"ios": "https://dc.lft.to/lastmile_qr_scan", "android": "https://dc.lft.to/lastmile_qr_scan"}, "bike_id": "5390317dfab92a4844f94ef0f9ffc6bd", "fusion_lat": 0.0}, {"lon": -76.984687, "name": "e98e7c763c35a9ff9836c6e57b50bb22", "is_disabled": 0, "type": "electric_bike", "is_reserved": 0, "fusion_lon": 0.0, "lat": 38.91268683333333, "rental_uris": {"ios": "https://dc.lft.to/lastmile_qr_scan", "android": "https://dc.lft.to/lastmile_qr_scan"}, "bike_id": "e98e7c763c35a9ff9836c6e57b50bb22", "fusion_lat": 0.0}, {"lon": -77.02065883333333, "name": "73c7f53d92cb3852f44ca518c5031fee", "is_disabled": 0, "type": "electric_scooter", "is_reserved": 0, "fusion_lon": 0.0, "lat": 38.9326195, "rental_uris": {"ios": "https://dc.lft.to/lastmile_qr_scan", "android": "https://dc.lft.to/lastmile_qr_scan"}, "bike_id": "73c7f53d92cb3852f44ca518c5031fee", "fusion_lat": 0.0}, {"lon": -76.99782333333333, "name": "5675ec758da2524d58d03ab211c6df02", "is_disabled": 0, "type": "electric_scooter", "is_reserved": 0, "fusion_lon": 0.0, "lat": 38.93215, "rental_uris": {"ios": "https://dc.lft.to/lastmile_qr_scan", "android": "https://dc.lft.to/lastmile_qr_scan"}, "bike_id": "5675ec758da2524d58d03ab211c6df02", "fusion_lat": 0.0}, {"lon": -77.0156355, "name": "2f7eee4cacef1b3cb3e84d2afccb892e", "is_disabled": 0, "type": "electric_scooter", "is_reserved": 0, "fusion_lon": 0.0, "lat": 38.893554333333334, "rental_uris": {"ios": "https://dc.lft.to/lastmile_qr_scan", "android": "https://dc.lft.to/lastmile_qr_scan"}, "bike_id": "2f7eee4cacef1b3cb3e84d2afccb892e", "fusion_lat": 0.0}, {"lon": -76.98833083333334, "name": "8b4927552851c8c5c54a6a78e628b98c", "is_disabled": 0, "type": "electric_scooter", "is_reserved": 0, "fusion_lon": 0.0, "lat": 38.89098533333333, "rental_uris": {"ios": "https://dc.lft.to/lastmile_qr_scan", "android": "https://dc.lft.to/lastmile_qr_scan"}, "bike_id": "8b4927552851c8c5c54a6a78e628b98c", "fusion_lat": 0.0}, {"lon": -76.99391466666667, "name": "cf3ba709522b03e02d521989112980cb", "is_disabled": 0, "type": "electric_scooter", "is_reserved": 0, "fusion_lon": 0.0, "lat": 38.91001683333333, "rental_uris": {"ios": "https://dc.lft.to/lastmile_qr_scan", "android": "https://dc.lft.to/lastmile_qr_scan"}, "bike_id": "cf3ba709522b03e02d521989112980cb", "fusion_lat": 0.0}, {"lon": -77.0353565, "name": "3d6da9534a3cad8d2b9257189b6c439f", "is_disabled": 0, "type": "electric_scooter", "is_reserved": 0, "fusion_lon": 0.0, "lat": 38.907684333333336, "rental_uris": {"ios": "https://dc.lft.to/lastmile_qr_scan", "android": "https://dc.lft.to/lastmile_qr_scan"}, "bike_id": "3d6da9534a3cad8d2b9257189b6c439f", "fusion_lat": 0.0}, {"lon": -77.01215883333333, "name": "5617b2bfb34f3173dbb74436dff75d45", "is_disabled": 0, "type": "electric_scooter", "is_reserved": 0, "fusion_lon": 0.0, "lat": 38.91342233333334, "rental_uris": {"ios": "https://dc.lft.to/lastmile_qr_scan", "android": "https://dc.lft.to/lastmile_qr_scan"}, "bike_id": "5617b2bfb34f3173dbb74436dff75d45", "fusion_lat": 0.0}, {"lon": -77.02128483333334, "name": "0ccec7503f33fc5e0bf51ebf2c44f19d", "is_disabled": 0, "type": "electric_scooter", "is_reserved": 0, "fusion_lon": 0.0, "lat": 38.924133166666664, "rental_uris": {"ios": "https://dc.lft.to/lastmile_qr_scan", "android": "https://dc.lft.to/lastmile_qr_scan"}, "bike_id": "0ccec7503f33fc5e0bf51ebf2c44f19d", "fusion_lat": 0.0}, {"lon": -77.02380633333334, "name": "15b1d83176aa8b602435c6970216317d", "is_disabled": 0, "type": "electric_scooter", "is_reserved": 0, "fusion_lon": 0.0, "lat": 38.903417833333336, "rental_uris": {"ios": "https://dc.lft.to/lastmile_qr_scan", "android": "https://dc.lft.to/lastmile_qr_scan"}, "bike_id": "15b1d83176aa8b602435c6970216317d", "fusion_lat": 0.0}, {"lon": -76.98555883333333, "name": "4d5c4ab94c7d40d00caecc3f0bf68336", "is_disabled": 0, "type": "electric_scooter", "is_reserved": 0, "fusion_lon": 0.0, "lat": 38.899568, "rental_uris": {"ios": "https://dc.lft.to/lastmile_qr_scan", "android": "https://dc.lft.to/lastmile_qr_scan"}, "bike_id": "4d5c4ab94c7d40d00caecc3f0bf68336", "fusion_lat": 0.0}, {"lon": -77.13936783333334, "name": "ee8704a9a8a57c738b332d2eda72e6f1", "is_disabled": 0, "type": "electric_bike", "is_reserved": 0, "fusion_lon": 0.0, "lat": 38.84676133333333, "rental_uris": {"ios": "https://dc.lft.to/lastmile_qr_scan", "android": "https://dc.lft.to/lastmile_qr_scan"}, "bike_id": "ee8704a9a8a57c738b332d2eda72e6f1", "fusion_lat": 0.0}, {"lon": -77.02600266666667, "name": "47247198dee598ae11341fc1201a1d80", "is_disabled": 0, "type": "electric_scooter", "is_reserved": 0, "fusion_lon": 0.0, "lat": 38.90424616666667, "rental_uris": {"ios": "https://dc.lft.to/lastmile_qr_scan", "android": "https://dc.lft.to/lastmile_qr_scan"}, "bike_id": "47247198dee598ae11341fc1201a1d80", "fusion_lat": 0.0}, {"lon": -76.9903295, "name": "20af1daf9af74f13cbddd2f45c1a1a97", "is_disabled": 0, "type": "electric_scooter", "is_reserved": 0, "fusion_lon": 0.0, "lat": 38.89850966666667, "rental_uris": {"ios": "https://dc.lft.to/lastmile_qr_scan", "android": "https://dc.lft.to/lastmile_qr_scan"}, "bike_id": "20af1daf9af74f13cbddd2f45c1a1a97", "fusion_lat": 0.0}, {"lon": -77.03540683333334, "name": "c45fd887c431f31223b10954e0393ded", "is_disabled": 0, "type": "electric_scooter", "is_reserved": 0, "fusion_lon": 0.0, "lat": 38.9071645, "rental_uris": {"ios": "https://dc.lft.to/lastmile_qr_scan", "android": "https://dc.lft.to/lastmile_qr_scan"}, "bike_id": "c45fd887c431f31223b10954e0393ded", "fusion_lat": 0.0}, {"lon": -77.00578233333333, "name": "8af38ac52c3585779ac788f14b0aacec", "is_disabled": 0, "type": "electric_scooter", "is_reserved": 0, "fusion_lon": 0.0, "lat": 38.905614, "rental_uris": {"ios": "https://dc.lft.to/lastmile_qr_scan", "android": "https://dc.lft.to/lastmile_qr_scan"}, "bike_id": "8af38ac52c3585779ac788f14b0aacec", "fusion_lat": 0.0}, {"lon": -77.00584316666666, "name": "10d6b4747201239c7ce04f5f3a8047c2", "is_disabled": 0, "type": "electric_scooter", "is_reserved": 0, "fusion_lon": 0.0, "lat": 38.87208583333334, "rental_uris": {"ios": "https://dc.lft.to/lastmile_qr_scan", "android": "https://dc.lft.to/lastmile_qr_scan"}, "bike_id": "10d6b4747201239c7ce04f5f3a8047c2", "fusion_lat": 0.0}, {"lon": -77.01221833333334, "name": "c7b26aca4beefc8e85ac7708869c562e", "is_disabled": 0, "type": "electric_scooter", "is_reserved": 0, "fusion_lon": 0.0, "lat": 38.915258, "rental_uris": {"ios": "https://dc.lft.to/lastmile_qr_scan", "android": "https://dc.lft.to/lastmile_qr_scan"}, "bike_id": "c7b26aca4beefc8e85ac7708869c562e", "fusion_lat": 0.0}, {"lon": -77.035491, "name": "8c6376e928c7da991d27e27002647f23", "is_disabled": 0, "type": "electric_scooter", "is_reserved": 0, "fusion_lon": 0.0, "lat": 38.90476616666667, "rental_uris": {"ios": "https://dc.lft.to/lastmile_qr_scan", "android": "https://dc.lft.to/lastmile_qr_scan"}, "bike_id": "8c6376e928c7da991d27e27002647f23", "fusion_lat": 0.0}, {"lon": -77.07796883333333, "name": "8ab6b2b664b0b6100633d0a5d5d17289", "is_disabled": 0, "type": "electric_scooter", "is_reserved": 0, "fusion_lon": 0.0, "lat": 38.93848916666666, "rental_uris": {"ios": "https://dc.lft.to/lastmile_qr_scan", "android": "https://dc.lft.to/lastmile_qr_scan"}, "bike_id": "8ab6b2b664b0b6100633d0a5d5d17289", "fusion_lat": 0.0}, {"lon": -76.93006633333333, "name": "2bce3b968147150a65ebf6803206f3c7", "is_disabled": 0, "type": "electric_scooter", "is_reserved": 0, "fusion_lon": 0.0, "lat": 38.90713616666667, "rental_uris": {"ios": "https://dc.lft.to/lastmile_qr_scan", "android": "https://dc.lft.to/lastmile_qr_scan"}, "bike_id": "2bce3b968147150a65ebf6803206f3c7", "fusion_lat": 0.0}, {"lon": -77.04998666666667, "name": "0b385fa005f0cee4d6b5fa5992aa6c42", "is_disabled": 0, "type": "electric_scooter", "is_reserved": 0, "fusion_lon": 0.0, "lat": 38.89230216666667, "rental_uris": {"ios": "https://dc.lft.to/lastmile_qr_scan", "android": "https://dc.lft.to/lastmile_qr_scan"}, "bike_id": "0b385fa005f0cee4d6b5fa5992aa6c42", "fusion_lat": 0.0}, {"lon": -77.0319435, "name": "44f511c893d1c61171900587b6eaf181", "is_disabled": 0, "type": "electric_scooter", "is_reserved": 0, "fusion_lon": 0.0, "lat": 38.9191755, "rental_uris": {"ios": "https://dc.lft.to/lastmile_qr_scan", "android": "https://dc.lft.to/lastmile_qr_scan"}, "bike_id": "44f511c893d1c61171900587b6eaf181", "fusion_lat": 0.0}, {"lon": -77.02942433333334, "name": "2dc658b4f465e2025e332c3142a7312c", "is_disabled": 0, "type": "electric_scooter", "is_reserved": 0, "fusion_lon": 0.0, "lat": 38.93970516666667, "rental_uris": {"ios": "https://dc.lft.to/lastmile_qr_scan", "android": "https://dc.lft.to/lastmile_qr_scan"}, "bike_id": "2dc658b4f465e2025e332c3142a7312c", "fusion_lat": 0.0}, {"lon": -77.02192033333333, "name": "052f90ea6a838e6e4b8f13673aa10a8d", "is_disabled": 0, "type": "electric_scooter", "is_reserved": 0, "fusion_lon": 0.0, "lat": 38.886124833333334, "rental_uris": {"ios": "https://dc.lft.to/lastmile_qr_scan", "android": "https://dc.lft.to/lastmile_qr_scan"}, "bike_id": "052f90ea6a838e6e4b8f13673aa10a8d", "fusion_lat": 0.0}, {"lon": -77.03170366666667, "name": "0e8974bc05bf7d67d6d6acd11188f049", "is_disabled": 0, "type": "electric_scooter", "is_reserved": 0, "fusion_lon": 0.0, "lat": 38.91564533333333, "rental_uris": {"ios": "https://dc.lft.to/lastmile_qr_scan", "android": "https://dc.lft.to/lastmile_qr_scan"}, "bike_id": "0e8974bc05bf7d67d6d6acd11188f049", "fusion_lat": 0.0}, {"lon": -77.0260165, "name": "f3162304c1d09c44c7356da770fb29e6", "is_disabled": 0, "type": "electric_scooter", "is_reserved": 0, "fusion_lon": 0.0, "lat": 38.9059815, "rental_uris": {"ios": "https://dc.lft.to/lastmile_qr_scan", "android": "https://dc.lft.to/lastmile_qr_scan"}, "bike_id": "f3162304c1d09c44c7356da770fb29e6", "fusion_lat": 0.0}, {"lon": -76.98839, "name": "3b37dc8883ded83e10b5827f1e1fe516", "is_disabled": 0, "type": "electric_scooter", "is_reserved": 0, "fusion_lon": 0.0, "lat": 38.9017995, "rental_uris": {"ios": "https://dc.lft.to/lastmile_qr_scan", "android": "https://dc.lft.to/lastmile_qr_scan"}, "bike_id": "3b37dc8883ded83e10b5827f1e1fe516", "fusion_lat": 0.0}, {"lon": -77.025582, "name": "967189471a970e978a1ade5562db3f93", "is_disabled": 0, "type": "electric_scooter", "is_reserved": 0, "fusion_lon": 0.0, "lat": 38.92105266666667, "rental_uris": {"ios": "https://dc.lft.to/lastmile_qr_scan", "android": "https://dc.lft.to/lastmile_qr_scan"}, "bike_id": "967189471a970e978a1ade5562db3f93", "fusion_lat": 0.0}, {"lon": -77.02596233333334, "name": "671d834da132fc30bda4af9e0725d725", "is_disabled": 0, "type": "electric_scooter", "is_reserved": 0, "fusion_lon": 0.0, "lat": 38.898847, "rental_uris": {"ios": "https://dc.lft.to/lastmile_qr_scan", "android": "https://dc.lft.to/lastmile_qr_scan"}, "bike_id": "671d834da132fc30bda4af9e0725d725", "fusion_lat": 0.0}, {"lon": -77.03500266666667, "name": "9bcb6c11a8bccabeda4761b52fb8caab", "is_disabled": 0, "type": "electric_scooter", "is_reserved": 0, "fusion_lon": 0.0, "lat": 38.916323, "rental_uris": {"ios": "https://dc.lft.to/lastmile_qr_scan", "android": "https://dc.lft.to/lastmile_qr_scan"}, "bike_id": "9bcb6c11a8bccabeda4761b52fb8caab", "fusion_lat": 0.0}, {"lon": -76.98366633333333, "name": "8f557dae185038b8ccce8450b7c2a063", "is_disabled": 0, "type": "electric_scooter", "is_reserved": 0, "fusion_lon": 0.0, "lat": 38.8926845, "rental_uris": {"ios": "https://dc.lft.to/lastmile_qr_scan", "android": "https://dc.lft.to/lastmile_qr_scan"}, "bike_id": "8f557dae185038b8ccce8450b7c2a063", "fusion_lat": 0.0}, {"lon": -76.997924, "name": "47e85a229f4690ff9d66bb0d81f8b12d", "is_disabled": 0, "type": "electric_scooter", "is_reserved": 0, "fusion_lon": 0.0, "lat": 38.87999083333333, "rental_uris": {"ios": "https://dc.lft.to/lastmile_qr_scan", "android": "https://dc.lft.to/lastmile_qr_scan"}, "bike_id": "47e85a229f4690ff9d66bb0d81f8b12d", "fusion_lat": 0.0}, {"lon": -77.03732666666667, "name": "5e235d996b8d2d31d4ae52f2d012ea37", "is_disabled": 0, "type": "electric_scooter", "is_reserved": 0, "fusion_lon": 0.0, "lat": 38.91119033333333, "rental_uris": {"ios": "https://dc.lft.to/lastmile_qr_scan", "android": "https://dc.lft.to/lastmile_qr_scan"}, "bike_id": "5e235d996b8d2d31d4ae52f2d012ea37", "fusion_lat": 0.0}, {"lon": -77.03647383333333, "name": "5aef73faebea9c92fcd535b81c8368d3", "is_disabled": 0, "type": "electric_scooter", "is_reserved": 0, "fusion_lon": 0.0, "lat": 38.90283516666667, "rental_uris": {"ios": "https://dc.lft.to/lastmile_qr_scan", "android": "https://dc.lft.to/lastmile_qr_scan"}, "bike_id": "5aef73faebea9c92fcd535b81c8368d3", "fusion_lat": 0.0}, {"lon": -77.03220216666666, "name": "e385ba760346dc27fb106de84020d9e3", "is_disabled": 0, "type": "electric_scooter", "is_reserved": 0, "fusion_lon": 0.0, "lat": 38.8922285, "rental_uris": {"ios": "https://dc.lft.to/lastmile_qr_scan", "android": "https://dc.lft.to/lastmile_qr_scan"}, "bike_id": "e385ba760346dc27fb106de84020d9e3", "fusion_lat": 0.0}, {"lon": -77.02888416666667, "name": "c8f24d0f24d35f6ccd0580d8ab48445a", "is_disabled": 0, "type": "electric_bike", "is_reserved": 0, "fusion_lon": 0.0, "lat": 38.940582166666665, "rental_uris": {"ios": "https://dc.lft.to/lastmile_qr_scan", "android": "https://dc.lft.to/lastmile_qr_scan"}, "bike_id": "c8f24d0f24d35f6ccd0580d8ab48445a", "fusion_lat": 0.0}, {"lon": -77.02285083333334, "name": "d08d2a398772995e36ab62dfea779afe", "is_disabled": 0, "type": "electric_scooter", "is_reserved": 0, "fusion_lon": 0.0, "lat": 38.92662116666666, "rental_uris": {"ios": "https://dc.lft.to/lastmile_qr_scan", "android": "https://dc.lft.to/lastmile_qr_scan"}, "bike_id": "d08d2a398772995e36ab62dfea779afe", "fusion_lat": 0.0}, {"lon": -77.01884716666666, "name": "694909974d1d7eba30d7aa1630232760", "is_disabled": 0, "type": "electric_scooter", "is_reserved": 0, "fusion_lon": 0.0, "lat": 38.91952033333333, "rental_uris": {"ios": "https://dc.lft.to/lastmile_qr_scan", "android": "https://dc.lft.to/lastmile_qr_scan"}, "bike_id": "694909974d1d7eba30d7aa1630232760", "fusion_lat": 0.0}, {"lon": -76.93939833333333, "name": "5ce951a0cc8ad0771c7770e169db3ce5", "is_disabled": 0, "type": "electric_scooter", "is_reserved": 0, "fusion_lon": 0.0, "lat": 38.908612, "rental_uris": {"ios": "https://dc.lft.to/lastmile_qr_scan", "android": "https://dc.lft.to/lastmile_qr_scan"}, "bike_id": "5ce951a0cc8ad0771c7770e169db3ce5", "fusion_lat": 0.0}, {"lon": -77.03691666666667, "name": "9ea15887dd5ce8f644335d1724feeb84", "is_disabled": 0, "type": "electric_scooter", "is_reserved": 0, "fusion_lon": 0.0, "lat": 38.926383666666666, "rental_uris": {"ios": "https://dc.lft.to/lastmile_qr_scan", "android": "https://dc.lft.to/lastmile_qr_scan"}, "bike_id": "9ea15887dd5ce8f644335d1724feeb84", "fusion_lat": 0.0}, {"lon": -77.03183733333333, "name": "60a1e6e00d075a280af8edc450ed03e9", "is_disabled": 0, "type": "electric_scooter", "is_reserved": 0, "fusion_lon": 0.0, "lat": 38.916167, "rental_uris": {"ios": "https://dc.lft.to/lastmile_qr_scan", "android": "https://dc.lft.to/lastmile_qr_scan"}, "bike_id": "60a1e6e00d075a280af8edc450ed03e9", "fusion_lat": 0.0}, {"lon": -76.9882295, "name": "fc9fc7aee26d5a62224729a3ca05abd1", "is_disabled": 0, "type": "electric_scooter", "is_reserved": 0, "fusion_lon": 0.0, "lat": 38.8907975, "rental_uris": {"ios": "https://dc.lft.to/lastmile_qr_scan", "android": "https://dc.lft.to/lastmile_qr_scan"}, "bike_id": "fc9fc7aee26d5a62224729a3ca05abd1", "fusion_lat": 0.0}, {"lon": -77.01884533333333, "name": "ed80ef91c71cfeaa954173a41f5eca35", "is_disabled": 0, "type": "electric_scooter", "is_reserved": 0, "fusion_lon": 0.0, "lat": 38.919393166666666, "rental_uris": {"ios": "https://dc.lft.to/lastmile_qr_scan", "android": "https://dc.lft.to/lastmile_qr_scan"}, "bike_id": "ed80ef91c71cfeaa954173a41f5eca35", "fusion_lat": 0.0}, {"lon": -77.0458455, "name": "23ed3390a0f0b2bf6b388bc61d696ee1", "is_disabled": 0, "type": "electric_scooter", "is_reserved": 0, "fusion_lon": 0.0, "lat": 38.9005915, "rental_uris": {"ios": "https://dc.lft.to/lastmile_qr_scan", "android": "https://dc.lft.to/lastmile_qr_scan"}, "bike_id": "23ed3390a0f0b2bf6b388bc61d696ee1", "fusion_lat": 0.0}, {"lon": -77.04534816666667, "name": "a88ff8d6a19a1cbc273fb522469bac7c", "is_disabled": 0, "type": "electric_scooter", "is_reserved": 0, "fusion_lon": 0.0, "lat": 38.911856, "rental_uris": {"ios": "https://dc.lft.to/lastmile_qr_scan", "android": "https://dc.lft.to/lastmile_qr_scan"}, "bike_id": "a88ff8d6a19a1cbc273fb522469bac7c", "fusion_lat": 0.0}, {"lon": -77.01871083333333, "name": "0c62b75d7a3e60cdbc4abde37dddb2ff", "is_disabled": 0, "type": "electric_scooter", "is_reserved": 0, "fusion_lon": 0.0, "lat": 38.930517333333334, "rental_uris": {"ios": "https://dc.lft.to/lastmile_qr_scan", "android": "https://dc.lft.to/lastmile_qr_scan"}, "bike_id": "0c62b75d7a3e60cdbc4abde37dddb2ff", "fusion_lat": 0.0}, {"lon": -77.02443016666666, "name": "eb47288bd7647889b38c14b6cf581246", "is_disabled": 0, "type": "electric_scooter", "is_reserved": 0, "fusion_lon": 0.0, "lat": 38.9250225, "rental_uris": {"ios": "https://dc.lft.to/lastmile_qr_scan", "android": "https://dc.lft.to/lastmile_qr_scan"}, "bike_id": "eb47288bd7647889b38c14b6cf581246", "fusion_lat": 0.0}, {"lon": -76.99121766666667, "name": "8c19bf07f55d345d119e496c4c45fbe4", "is_disabled": 0, "type": "electric_scooter", "is_reserved": 0, "fusion_lon": 0.0, "lat": 38.8633925, "rental_uris": {"ios": "https://dc.lft.to/lastmile_qr_scan", "android": "https://dc.lft.to/lastmile_qr_scan"}, "bike_id": "8c19bf07f55d345d119e496c4c45fbe4", "fusion_lat": 0.0}, {"lon": -76.98860133333334, "name": "8dd853df323270bbd0c6a086f2583de7", "is_disabled": 0, "type": "electric_scooter", "is_reserved": 0, "fusion_lon": 0.0, "lat": 38.90032933333333, "rental_uris": {"ios": "https://dc.lft.to/lastmile_qr_scan", "android": "https://dc.lft.to/lastmile_qr_scan"}, "bike_id": "8dd853df323270bbd0c6a086f2583de7", "fusion_lat": 0.0}, {"lon": -77.0127745, "name": "a6e8d1602fb2de07c1f22afafa554590", "is_disabled": 0, "type": "electric_scooter", "is_reserved": 0, "fusion_lon": 0.0, "lat": 38.909484, "rental_uris": {"ios": "https://dc.lft.to/lastmile_qr_scan", "android": "https://dc.lft.to/lastmile_qr_scan"}, "bike_id": "a6e8d1602fb2de07c1f22afafa554590", "fusion_lat": 0.0}, {"lon": -77.00211333333333, "name": "59d6a6efd1a7ad979f2d5c19dd411528", "is_disabled": 0, "type": "electric_scooter", "is_reserved": 0, "fusion_lon": 0.0, "lat": 38.90031583333333, "rental_uris": {"ios": "https://dc.lft.to/lastmile_qr_scan", "android": "https://dc.lft.to/lastmile_qr_scan"}, "bike_id": "59d6a6efd1a7ad979f2d5c19dd411528", "fusion_lat": 0.0}, {"lon": -77.04469283333333, "name": "afb9aecef99c83dc88c10778d541349f", "is_disabled": 0, "type": "electric_scooter", "is_reserved": 0, "fusion_lon": 0.0, "lat": 38.915333833333335, "rental_uris": {"ios": "https://dc.lft.to/lastmile_qr_scan", "android": "https://dc.lft.to/lastmile_qr_scan"}, "bike_id": "afb9aecef99c83dc88c10778d541349f", "fusion_lat": 0.0}, {"lon": -77.03355816666667, "name": "04d138010106eb3482547422500e3773", "is_disabled": 0, "type": "electric_scooter", "is_reserved": 0, "fusion_lon": 0.0, "lat": 38.901102333333334, "rental_uris": {"ios": "https://dc.lft.to/lastmile_qr_scan", "android": "https://dc.lft.to/lastmile_qr_scan"}, "bike_id": "04d138010106eb3482547422500e3773", "fusion_lat": 0.0}, {"lon": -76.945768, "name": "6fcf1ce40e09d0bfeea428c4fd0f3d80", "is_disabled": 0, "type": "electric_scooter", "is_reserved": 0, "fusion_lon": 0.0, "lat": 38.89921983333333, "rental_uris": {"ios": "https://dc.lft.to/lastmile_qr_scan", "android": "https://dc.lft.to/lastmile_qr_scan"}, "bike_id": "6fcf1ce40e09d0bfeea428c4fd0f3d80", "fusion_lat": 0.0}, {"lon": -77.12739216666667, "name": "d2075723fda225c64a0ce1d26ad71265", "is_disabled": 0, "type": "electric_bike", "is_reserved": 0, "fusion_lon": 0.0, "lat": 38.895655166666664, "rental_uris": {"ios": "https://dc.lft.to/lastmile_qr_scan", "android": "https://dc.lft.to/lastmile_qr_scan"}, "bike_id": "d2075723fda225c64a0ce1d26ad71265", "fusion_lat": 0.0}, {"lon": -77.034525, "name": "7ea0b88a4a2725c1ab41c62a8d116758", "is_disabled": 0, "type": "electric_scooter", "is_reserved": 0, "fusion_lon": 0.0, "lat": 38.93752833333333, "rental_uris": {"ios": "https://dc.lft.to/lastmile_qr_scan", "android": "https://dc.lft.to/lastmile_qr_scan"}, "bike_id": "7ea0b88a4a2725c1ab41c62a8d116758", "fusion_lat": 0.0}, {"lon": -76.93613466666666, "name": "0d9f99e31fd163dd7c9ed5bcd967b337", "is_disabled": 0, "type": "electric_bike", "is_reserved": 0, "fusion_lon": 0.0, "lat": 38.97044916666667, "rental_uris": {"ios": "https://dc.lft.to/lastmile_qr_scan", "android": "https://dc.lft.to/lastmile_qr_scan"}, "bike_id": "0d9f99e31fd163dd7c9ed5bcd967b337", "fusion_lat": 0.0}, {"lon": -77.0387785, "name": "03125a20ddf1dea89cc25d4421fa3cff", "is_disabled": 0, "type": "electric_bike", "is_reserved": 0, "fusion_lon": 0.0, "lat": 39.026225333333336, "rental_uris": {"ios": "https://dc.lft.to/lastmile_qr_scan", "android": "https://dc.lft.to/lastmile_qr_scan"}, "bike_id": "03125a20ddf1dea89cc25d4421fa3cff", "fusion_lat": 0.0}, {"lon": -77.01331666666667, "name": "9b6f781c561204be00f2c091b7823720", "is_disabled": 0, "type": "electric_scooter", "is_reserved": 0, "fusion_lon": 0.0, "lat": 38.900760166666664, "rental_uris": {"ios": "https://dc.lft.to/lastmile_qr_scan", "android": "https://dc.lft.to/lastmile_qr_scan"}, "bike_id": "9b6f781c561204be00f2c091b7823720", "fusion_lat": 0.0}, {"lon": -77.030706, "name": "18ff736d6170b453ce2b8ebe9eb5bd47", "is_disabled": 0, "type": "electric_scooter", "is_reserved": 0, "fusion_lon": 0.0, "lat": 38.90573233333333, "rental_uris": {"ios": "https://dc.lft.to/lastmile_qr_scan", "android": "https://dc.lft.to/lastmile_qr_scan"}, "bike_id": "18ff736d6170b453ce2b8ebe9eb5bd47", "fusion_lat": 0.0}, {"lon": -77.050919, "name": "edb2b49f201ef7ea7b6bc546e3427e76", "is_disabled": 0, "type": "electric_bike", "is_reserved": 0, "fusion_lon": 0.0, "lat": 38.81330466666667, "rental_uris": {"ios": "https://dc.lft.to/lastmile_qr_scan", "android": "https://dc.lft.to/lastmile_qr_scan"}, "bike_id": "edb2b49f201ef7ea7b6bc546e3427e76", "fusion_lat": 0.0}, {"lon": -77.05387416666667, "name": "86be73ef8ecdf9aa1b4cda8ba7f354d8", "is_disabled": 0, "type": "electric_scooter", "is_reserved": 0, "fusion_lon": 0.0, "lat": 38.902460833333336, "rental_uris": {"ios": "https://dc.lft.to/lastmile_qr_scan", "android": "https://dc.lft.to/lastmile_qr_scan"}, "bike_id": "86be73ef8ecdf9aa1b4cda8ba7f354d8", "fusion_lat": 0.0}, {"lon": -77.02187883333333, "name": "a4aee313d149859acdd7b52722939d4d", "is_disabled": 0, "type": "electric_scooter", "is_reserved": 0, "fusion_lon": 0.0, "lat": 38.90199483333333, "rental_uris": {"ios": "https://dc.lft.to/lastmile_qr_scan", "android": "https://dc.lft.to/lastmile_qr_scan"}, "bike_id": "a4aee313d149859acdd7b52722939d4d", "fusion_lat": 0.0}, {"lon": -77.023664, "name": "45904c542ec773f735e85ee86416bf73", "is_disabled": 0, "type": "electric_scooter", "is_reserved": 0, "fusion_lon": 0.0, "lat": 38.901852166666664, "rental_uris": {"ios": "https://dc.lft.to/lastmile_qr_scan", "android": "https://dc.lft.to/lastmile_qr_scan"}, "bike_id": "45904c542ec773f735e85ee86416bf73", "fusion_lat": 0.0}, {"lon": -77.060835, "name": "785db864d545901b6c541f9906a2651b", "is_disabled": 0, "type": "electric_scooter", "is_reserved": 0, "fusion_lon": 0.0, "lat": 38.911879, "rental_uris": {"ios": "https://dc.lft.to/lastmile_qr_scan", "android": "https://dc.lft.to/lastmile_qr_scan"}, "bike_id": "785db864d545901b6c541f9906a2651b", "fusion_lat": 0.0}, {"lon": -77.01887516666666, "name": "2725be440d4c6940cf858f7a89700a4b", "is_disabled": 0, "type": "electric_scooter", "is_reserved": 0, "fusion_lon": 0.0, "lat": 38.909126666666666, "rental_uris": {"ios": "https://dc.lft.to/lastmile_qr_scan", "android": "https://dc.lft.to/lastmile_qr_scan"}, "bike_id": "2725be440d4c6940cf858f7a89700a4b", "fusion_lat": 0.0}, {"lon": -77.02062416666666, "name": "74d17ce0ebb5fd0ada4b79b9fb7f75ce", "is_disabled": 0, "type": "electric_scooter", "is_reserved": 0, "fusion_lon": 0.0, "lat": 38.92249116666667, "rental_uris": {"ios": "https://dc.lft.to/lastmile_qr_scan", "android": "https://dc.lft.to/lastmile_qr_scan"}, "bike_id": "74d17ce0ebb5fd0ada4b79b9fb7f75ce", "fusion_lat": 0.0}, {"lon": -77.02346716666666, "name": "0a46f35b607debf6e998d159d537225e", "is_disabled": 0, "type": "electric_scooter", "is_reserved": 0, "fusion_lon": 0.0, "lat": 38.920632499999996, "rental_uris": {"ios": "https://dc.lft.to/lastmile_qr_scan", "android": "https://dc.lft.to/lastmile_qr_scan"}, "bike_id": "0a46f35b607debf6e998d159d537225e", "fusion_lat": 0.0}, {"lon": -76.99372366666667, "name": "931c05470691d28a1ff99e2335c3085f", "is_disabled": 0, "type": "electric_bike", "is_reserved": 0, "fusion_lon": 0.0, "lat": 38.9909525, "rental_uris": {"ios": "https://dc.lft.to/lastmile_qr_scan", "android": "https://dc.lft.to/lastmile_qr_scan"}, "bike_id": "931c05470691d28a1ff99e2335c3085f", "fusion_lat": 0.0}, {"lon": -77.04503183333334, "name": "53e1e6e64f39f6aaafb18f8a26326e60", "is_disabled": 0, "type": "electric_scooter", "is_reserved": 0, "fusion_lon": 0.0, "lat": 38.912697666666666, "rental_uris": {"ios": "https://dc.lft.to/lastmile_qr_scan", "android": "https://dc.lft.to/lastmile_qr_scan"}, "bike_id": "53e1e6e64f39f6aaafb18f8a26326e60", "fusion_lat": 0.0}, {"lon": -76.93631016666667, "name": "885db18bdea10d27480a4a5ee248b819", "is_disabled": 0, "type": "electric_scooter", "is_reserved": 0, "fusion_lon": 0.0, "lat": 38.88348716666667, "rental_uris": {"ios": "https://dc.lft.to/lastmile_qr_scan", "android": "https://dc.lft.to/lastmile_qr_scan"}, "bike_id": "885db18bdea10d27480a4a5ee248b819", "fusion_lat": 0.0}, {"lon": -76.94295933333333, "name": "aad1b7b6715cfd87b731f002a6142461", "is_disabled": 0, "type": "electric_scooter", "is_reserved": 0, "fusion_lon": 0.0, "lat": 38.898453833333335, "rental_uris": {"ios": "https://dc.lft.to/lastmile_qr_scan", "android": "https://dc.lft.to/lastmile_qr_scan"}, "bike_id": "aad1b7b6715cfd87b731f002a6142461", "fusion_lat": 0.0}, {"lon": -76.98316966666667, "name": "210ebea7e442eed20d700bf655e4aec0", "is_disabled": 0, "type": "electric_scooter", "is_reserved": 0, "fusion_lon": 0.0, "lat": 38.92250816666667, "rental_uris": {"ios": "https://dc.lft.to/lastmile_qr_scan", "android": "https://dc.lft.to/lastmile_qr_scan"}, "bike_id": "210ebea7e442eed20d700bf655e4aec0", "fusion_lat": 0.0}, {"lon": -77.043806, "name": "a621d5d72e2ad8892ee78462babdd835", "is_disabled": 0, "type": "electric_scooter", "is_reserved": 0, "fusion_lon": 0.0, "lat": 38.92230466666667, "rental_uris": {"ios": "https://dc.lft.to/lastmile_qr_scan", "android": "https://dc.lft.to/lastmile_qr_scan"}, "bike_id": "a621d5d72e2ad8892ee78462babdd835", "fusion_lat": 0.0}, {"lon": -77.03881233333334, "name": "4137162c119dde263ad4149f4967cd19", "is_disabled": 0, "type": "electric_scooter", "is_reserved": 0, "fusion_lon": 0.0, "lat": 38.91848266666667, "rental_uris": {"ios": "https://dc.lft.to/lastmile_qr_scan", "android": "https://dc.lft.to/lastmile_qr_scan"}, "bike_id": "4137162c119dde263ad4149f4967cd19", "fusion_lat": 0.0}, {"lon": -77.04457516666666, "name": "2705cca97facee8d5dd2909283398d4f", "is_disabled": 0, "type": "electric_scooter", "is_reserved": 0, "fusion_lon": 0.0, "lat": 38.919190666666665, "rental_uris": {"ios": "https://dc.lft.to/lastmile_qr_scan", "android": "https://dc.lft.to/lastmile_qr_scan"}, "bike_id": "2705cca97facee8d5dd2909283398d4f", "fusion_lat": 0.0}, {"lon": -76.9995195, "name": "5c7cab5297fe4e8b2f942fe18ae8b3ff", "is_disabled": 0, "type": "electric_scooter", "is_reserved": 0, "fusion_lon": 0.0, "lat": 38.9037935, "rental_uris": {"ios": "https://dc.lft.to/lastmile_qr_scan", "android": "https://dc.lft.to/lastmile_qr_scan"}, "bike_id": "5c7cab5297fe4e8b2f942fe18ae8b3ff", "fusion_lat": 0.0}, {"lon": -77.050002, "name": "ad23f5029f06ccfffebf960f2fb3842e", "is_disabled": 0, "type": "electric_scooter", "is_reserved": 0, "fusion_lon": 0.0, "lat": 38.892291166666666, "rental_uris": {"ios": "https://dc.lft.to/lastmile_qr_scan", "android": "https://dc.lft.to/lastmile_qr_scan"}, "bike_id": "ad23f5029f06ccfffebf960f2fb3842e", "fusion_lat": 0.0}, {"lon": -76.99594366666666, "name": "d3e21e40d0887f182722c1ad430a5750", "is_disabled": 0, "type": "electric_scooter", "is_reserved": 0, "fusion_lon": 0.0, "lat": 38.88436166666666, "rental_uris": {"ios": "https://dc.lft.to/lastmile_qr_scan", "android": "https://dc.lft.to/lastmile_qr_scan"}, "bike_id": "d3e21e40d0887f182722c1ad430a5750", "fusion_lat": 0.0}, {"lon": -77.038668, "name": "e109cc26957f50cbec55eb711e4c6626", "is_disabled": 0, "type": "electric_scooter", "is_reserved": 0, "fusion_lon": 0.0, "lat": 38.912618, "rental_uris": {"ios": "https://dc.lft.to/lastmile_qr_scan", "android": "https://dc.lft.to/lastmile_qr_scan"}, "bike_id": "e109cc26957f50cbec55eb711e4c6626", "fusion_lat": 0.0}, {"lon": -77.0252425, "name": "be555736817fd9befeb5944ff811390e", "is_disabled": 0, "type": "electric_scooter", "is_reserved": 0, "fusion_lon": 0.0, "lat": 38.92234033333333, "rental_uris": {"ios": "https://dc.lft.to/lastmile_qr_scan", "android": "https://dc.lft.to/lastmile_qr_scan"}, "bike_id": "be555736817fd9befeb5944ff811390e", "fusion_lat": 0.0}, {"lon": -77.03254033333333, "name": "c239c148f0a978825a89e30e675cbb16", "is_disabled": 0, "type": "electric_scooter", "is_reserved": 0, "fusion_lon": 0.0, "lat": 38.939679166666664, "rental_uris": {"ios": "https://dc.lft.to/lastmile_qr_scan", "android": "https://dc.lft.to/lastmile_qr_scan"}, "bike_id": "c239c148f0a978825a89e30e675cbb16", "fusion_lat": 0.0}, {"lon": -77.0952455, "name": "2563de37277419d26a271417f93c0efd", "is_disabled": 0, "type": "electric_bike", "is_reserved": 0, "fusion_lon": 0.0, "lat": 38.83812866666667, "rental_uris": {"ios": "https://dc.lft.to/lastmile_qr_scan", "android": "https://dc.lft.to/lastmile_qr_scan"}, "bike_id": "2563de37277419d26a271417f93c0efd", "fusion_lat": 0.0}, {"lon": -77.039059, "name": "ebd05693d8b21158794a17cffdb92cab", "is_disabled": 0, "type": "electric_scooter", "is_reserved": 0, "fusion_lon": 0.0, "lat": 38.918457, "rental_uris": {"ios": "https://dc.lft.to/lastmile_qr_scan", "android": "https://dc.lft.to/lastmile_qr_scan"}, "bike_id": "ebd05693d8b21158794a17cffdb92cab", "fusion_lat": 0.0}, {"lon": -77.02965066666667, "name": "43fcfc5fe81e5a95f940846f10f1a0ee", "is_disabled": 0, "type": "electric_scooter", "is_reserved": 0, "fusion_lon": 0.0, "lat": 38.90501966666667, "rental_uris": {"ios": "https://dc.lft.to/lastmile_qr_scan", "android": "https://dc.lft.to/lastmile_qr_scan"}, "bike_id": "43fcfc5fe81e5a95f940846f10f1a0ee", "fusion_lat": 0.0}, {"lon": -77.020404, "name": "ecfb6ffd4509db5a935111431a0f6ffc", "is_disabled": 0, "type": "electric_scooter", "is_reserved": 0, "fusion_lon": 0.0, "lat": 38.923677833333336, "rental_uris": {"ios": "https://dc.lft.to/lastmile_qr_scan", "android": "https://dc.lft.to/lastmile_qr_scan"}, "bike_id": "ecfb6ffd4509db5a935111431a0f6ffc", "fusion_lat": 0.0}, {"lon": -76.917167, "name": "526848655c57207424e0c2683043dc04", "is_disabled": 0, "type": "electric_bike", "is_reserved": 0, "fusion_lon": 0.0, "lat": 38.88028666666666, "rental_uris": {"ios": "https://dc.lft.to/lastmile_qr_scan", "android": "https://dc.lft.to/lastmile_qr_scan"}, "bike_id": "526848655c57207424e0c2683043dc04", "fusion_lat": 0.0}, {"lon": -77.07219683333334, "name": "740f0182f79570a08b2e7ba8335b7ecf", "is_disabled": 0, "type": "electric_scooter", "is_reserved": 0, "fusion_lon": 0.0, "lat": 38.91365166666667, "rental_uris": {"ios": "https://dc.lft.to/lastmile_qr_scan", "android": "https://dc.lft.to/lastmile_qr_scan"}, "bike_id": "740f0182f79570a08b2e7ba8335b7ecf", "fusion_lat": 0.0}, {"lon": -77.038781, "name": "fe22cdb4295f0393ed813d5b92655fe9", "is_disabled": 0, "type": "electric_scooter", "is_reserved": 0, "fusion_lon": 0.0, "lat": 38.93120183333333, "rental_uris": {"ios": "https://dc.lft.to/lastmile_qr_scan", "android": "https://dc.lft.to/lastmile_qr_scan"}, "bike_id": "fe22cdb4295f0393ed813d5b92655fe9", "fusion_lat": 0.0}, {"lon": -77.00489616666667, "name": "287062b1e9f5b73c9377cb7ac7dbfd31", "is_disabled": 0, "type": "electric_scooter", "is_reserved": 0, "fusion_lon": 0.0, "lat": 38.9169405, "rental_uris": {"ios": "https://dc.lft.to/lastmile_qr_scan", "android": "https://dc.lft.to/lastmile_qr_scan"}, "bike_id": "287062b1e9f5b73c9377cb7ac7dbfd31", "fusion_lat": 0.0}, {"lon": -77.0210085, "name": "fa2d5bb13fd2ed062ffcaaf6f3c47dbb", "is_disabled": 0, "type": "electric_bike", "is_reserved": 0, "fusion_lon": 0.0, "lat": 39.02296066666667, "rental_uris": {"ios": "https://dc.lft.to/lastmile_qr_scan", "android": "https://dc.lft.to/lastmile_qr_scan"}, "bike_id": "fa2d5bb13fd2ed062ffcaaf6f3c47dbb", "fusion_lat": 0.0}, {"lon": -77.02421533333333, "name": "d1cb4dfd441740e9e7f8644beab92baa", "is_disabled": 0, "type": "electric_scooter", "is_reserved": 0, "fusion_lon": 0.0, "lat": 38.920711833333336, "rental_uris": {"ios": "https://dc.lft.to/lastmile_qr_scan", "android": "https://dc.lft.to/lastmile_qr_scan"}, "bike_id": "d1cb4dfd441740e9e7f8644beab92baa", "fusion_lat": 0.0}, {"lon": -76.9990195, "name": "57a089114dbac93fdd46795e836873e0", "is_disabled": 0, "type": "electric_scooter", "is_reserved": 0, "fusion_lon": 0.0, "lat": 38.89096633333333, "rental_uris": {"ios": "https://dc.lft.to/lastmile_qr_scan", "android": "https://dc.lft.to/lastmile_qr_scan"}, "bike_id": "57a089114dbac93fdd46795e836873e0", "fusion_lat": 0.0}, {"lon": -77.09450666666666, "name": "ab7c24d27990ed691fbf1f39f94688b9", "is_disabled": 0, "type": "electric_bike", "is_reserved": 0, "fusion_lon": 0.0, "lat": 38.894244666666665, "rental_uris": {"ios": "https://dc.lft.to/lastmile_qr_scan", "android": "https://dc.lft.to/lastmile_qr_scan"}, "bike_id": "ab7c24d27990ed691fbf1f39f94688b9", "fusion_lat": 0.0}, {"lon": -76.98643933333334, "name": "6c608e1bd3ac8bc41defbc00570afe00", "is_disabled": 0, "type": "electric_bike", "is_reserved": 0, "fusion_lon": 0.0, "lat": 38.974735833333334, "rental_uris": {"ios": "https://dc.lft.to/lastmile_qr_scan", "android": "https://dc.lft.to/lastmile_qr_scan"}, "bike_id": "6c608e1bd3ac8bc41defbc00570afe00", "fusion_lat": 0.0}, {"lon": -77.0231795, "name": "5a3a53fc329edf402cb6e11b7b5f76b3", "is_disabled": 0, "type": "electric_scooter", "is_reserved": 0, "fusion_lon": 0.0, "lat": 38.918365333333334, "rental_uris": {"ios": "https://dc.lft.to/lastmile_qr_scan", "android": "https://dc.lft.to/lastmile_qr_scan"}, "bike_id": "5a3a53fc329edf402cb6e11b7b5f76b3", "fusion_lat": 0.0}, {"lon": -77.06050716666667, "name": "52998607fa26071e43b654ace6597f2e", "is_disabled": 0, "type": "electric_scooter", "is_reserved": 0, "fusion_lon": 0.0, "lat": 38.93929266666667, "rental_uris": {"ios": "https://dc.lft.to/lastmile_qr_scan", "android": "https://dc.lft.to/lastmile_qr_scan"}, "bike_id": "52998607fa26071e43b654ace6597f2e", "fusion_lat": 0.0}, {"lon": -77.02444833333334, "name": "9e3a18f6677867e9520a9232ae9eda73", "is_disabled": 0, "type": "electric_scooter", "is_reserved": 0, "fusion_lon": 0.0, "lat": 38.89384416666667, "rental_uris": {"ios": "https://dc.lft.to/lastmile_qr_scan", "android": "https://dc.lft.to/lastmile_qr_scan"}, "bike_id": "9e3a18f6677867e9520a9232ae9eda73", "fusion_lat": 0.0}, {"lon": -77.02063883333334, "name": "319897dfa3d7e6d3f9a88122630a5e36", "is_disabled": 0, "type": "electric_scooter", "is_reserved": 0, "fusion_lon": 0.0, "lat": 38.921377666666665, "rental_uris": {"ios": "https://dc.lft.to/lastmile_qr_scan", "android": "https://dc.lft.to/lastmile_qr_scan"}, "bike_id": "319897dfa3d7e6d3f9a88122630a5e36", "fusion_lat": 0.0}, {"lon": -76.9868675, "name": "bf56050c49159016522de2fad9a87cc5", "is_disabled": 0, "type": "electric_bike", "is_reserved": 0, "fusion_lon": 0.0, "lat": 38.944684333333335, "rental_uris": {"ios": "https://dc.lft.to/lastmile_qr_scan", "android": "https://dc.lft.to/lastmile_qr_scan"}, "bike_id": "bf56050c49159016522de2fad9a87cc5", "fusion_lat": 0.0}, {"lon": -77.02799483333334, "name": "c5cb78763f9ca491dff455b291ff4abd", "is_disabled": 0, "type": "electric_scooter", "is_reserved": 0, "fusion_lon": 0.0, "lat": 38.89863283333333, "rental_uris": {"ios": "https://dc.lft.to/lastmile_qr_scan", "android": "https://dc.lft.to/lastmile_qr_scan"}, "bike_id": "c5cb78763f9ca491dff455b291ff4abd", "fusion_lat": 0.0}, {"lon": -77.0108485, "name": "c2c16d17bb0715b12f6ddf8f301a9cff", "is_disabled": 0, "type": "electric_scooter", "is_reserved": 0, "fusion_lon": 0.0, "lat": 38.90335016666667, "rental_uris": {"ios": "https://dc.lft.to/lastmile_qr_scan", "android": "https://dc.lft.to/lastmile_qr_scan"}, "bike_id": "c2c16d17bb0715b12f6ddf8f301a9cff", "fusion_lat": 0.0}, {"lon": -76.98166866666666, "name": "11ea26c431b9f0a8ae3a9e80a5ec3d9a", "is_disabled": 0, "type": "electric_bike", "is_reserved": 0, "fusion_lon": 0.0, "lat": 38.92593766666667, "rental_uris": {"ios": "https://dc.lft.to/lastmile_qr_scan", "android": "https://dc.lft.to/lastmile_qr_scan"}, "bike_id": "11ea26c431b9f0a8ae3a9e80a5ec3d9a", "fusion_lat": 0.0}, {"lon": -77.00510066666666, "name": "9f26c79c5045fda8175bffacfe4d3217", "is_disabled": 0, "type": "electric_scooter", "is_reserved": 0, "fusion_lon": 0.0, "lat": 38.90567166666666, "rental_uris": {"ios": "https://dc.lft.to/lastmile_qr_scan", "android": "https://dc.lft.to/lastmile_qr_scan"}, "bike_id": "9f26c79c5045fda8175bffacfe4d3217", "fusion_lat": 0.0}, {"lon": -77.031867, "name": "3d362a3605772588e4bdac5b22ee197a", "is_disabled": 0, "type": "electric_scooter", "is_reserved": 0, "fusion_lon": 0.0, "lat": 38.91824833333333, "rental_uris": {"ios": "https://dc.lft.to/lastmile_qr_scan", "android": "https://dc.lft.to/lastmile_qr_scan"}, "bike_id": "3d362a3605772588e4bdac5b22ee197a", "fusion_lat": 0.0}, {"lon": -77.081668, "name": "0a0cb7de6dd0bde0e456867176175c4b", "is_disabled": 0, "type": "electric_bike", "is_reserved": 0, "fusion_lon": 0.0, "lat": 38.9077665, "rental_uris": {"ios": "https://dc.lft.to/lastmile_qr_scan", "android": "https://dc.lft.to/lastmile_qr_scan"}, "bike_id": "0a0cb7de6dd0bde0e456867176175c4b", "fusion_lat": 0.0}, {"lon": -77.03191566666666, "name": "a0a26109fac8c5e35ff23275869b0dbd", "is_disabled": 0, "type": "electric_scooter", "is_reserved": 0, "fusion_lon": 0.0, "lat": 38.9163575, "rental_uris": {"ios": "https://dc.lft.to/lastmile_qr_scan", "android": "https://dc.lft.to/lastmile_qr_scan"}, "bike_id": "a0a26109fac8c5e35ff23275869b0dbd", "fusion_lat": 0.0}, {"lon": -77.02388233333333, "name": "407968c6baadf90f6a4051b7e3220ec4", "is_disabled": 0, "type": "electric_scooter", "is_reserved": 0, "fusion_lon": 0.0, "lat": 38.926922166666664, "rental_uris": {"ios": "https://dc.lft.to/lastmile_qr_scan", "android": "https://dc.lft.to/lastmile_qr_scan"}, "bike_id": "407968c6baadf90f6a4051b7e3220ec4", "fusion_lat": 0.0}, {"lon": -77.02182, "name": "4a33c3859666e72246cfe0795fced25e", "is_disabled": 0, "type": "electric_scooter", "is_reserved": 0, "fusion_lon": 0.0, "lat": 38.914783666666665, "rental_uris": {"ios": "https://dc.lft.to/lastmile_qr_scan", "android": "https://dc.lft.to/lastmile_qr_scan"}, "bike_id": "4a33c3859666e72246cfe0795fced25e", "fusion_lat": 0.0}, {"lon": -77.02393066666667, "name": "12facd812959dbe24f774fa55b935899", "is_disabled": 0, "type": "electric_scooter", "is_reserved": 0, "fusion_lon": 0.0, "lat": 38.916434833333334, "rental_uris": {"ios": "https://dc.lft.to/lastmile_qr_scan", "android": "https://dc.lft.to/lastmile_qr_scan"}, "bike_id": "12facd812959dbe24f774fa55b935899", "fusion_lat": 0.0}, {"lon": -77.04615916666667, "name": "6fdd8cca64756fb01018b9aeb060430e", "is_disabled": 0, "type": "electric_scooter", "is_reserved": 0, "fusion_lon": 0.0, "lat": 38.92325116666667, "rental_uris": {"ios": "https://dc.lft.to/lastmile_qr_scan", "android": "https://dc.lft.to/lastmile_qr_scan"}, "bike_id": "6fdd8cca64756fb01018b9aeb060430e", "fusion_lat": 0.0}, {"lon": -77.02078316666666, "name": "d9e97e072b78265c4d6778555be1f13a", "is_disabled": 0, "type": "electric_scooter", "is_reserved": 0, "fusion_lon": 0.0, "lat": 38.927164, "rental_uris": {"ios": "https://dc.lft.to/lastmile_qr_scan", "android": "https://dc.lft.to/lastmile_qr_scan"}, "bike_id": "d9e97e072b78265c4d6778555be1f13a", "fusion_lat": 0.0}, {"lon": -77.043869, "name": "53c4432fc71f5d408f01cc8b6f63fdf4", "is_disabled": 0, "type": "electric_scooter", "is_reserved": 0, "fusion_lon": 0.0, "lat": 38.923568833333334, "rental_uris": {"ios": "https://dc.lft.to/lastmile_qr_scan", "android": "https://dc.lft.to/lastmile_qr_scan"}, "bike_id": "53c4432fc71f5d408f01cc8b6f63fdf4", "fusion_lat": 0.0}, {"lon": -77.113169, "name": "1fe23ef139e843c393bda1f8feeb6324", "is_disabled": 0, "type": "electric_bike", "is_reserved": 0, "fusion_lon": 0.0, "lat": 38.831369333333335, "rental_uris": {"ios": "https://dc.lft.to/lastmile_qr_scan", "android": "https://dc.lft.to/lastmile_qr_scan"}, "bike_id": "1fe23ef139e843c393bda1f8feeb6324", "fusion_lat": 0.0}, {"lon": -77.04511983333333, "name": "a46b103e8bd87ed70372e2ce57e67522", "is_disabled": 0, "type": "electric_scooter", "is_reserved": 0, "fusion_lon": 0.0, "lat": 38.9196445, "rental_uris": {"ios": "https://dc.lft.to/lastmile_qr_scan", "android": "https://dc.lft.to/lastmile_qr_scan"}, "bike_id": "a46b103e8bd87ed70372e2ce57e67522", "fusion_lat": 0.0}, {"lon": -77.02694216666667, "name": "c30258fb4246efd0ac04c9de0782beb0", "is_disabled": 0, "type": "electric_scooter", "is_reserved": 0, "fusion_lon": 0.0, "lat": 38.918733833333334, "rental_uris": {"ios": "https://dc.lft.to/lastmile_qr_scan", "android": "https://dc.lft.to/lastmile_qr_scan"}, "bike_id": "c30258fb4246efd0ac04c9de0782beb0", "fusion_lat": 0.0}, {"lon": -77.04894, "name": "f05ab1df666a3af0bfb4c44c8b2240f4", "is_disabled": 0, "type": "electric_scooter", "is_reserved": 0, "fusion_lon": 0.0, "lat": 38.90065466666667, "rental_uris": {"ios": "https://dc.lft.to/lastmile_qr_scan", "android": "https://dc.lft.to/lastmile_qr_scan"}, "bike_id": "f05ab1df666a3af0bfb4c44c8b2240f4", "fusion_lat": 0.0}, {"lon": -77.02696866666666, "name": "bc85009361eaed9c69184c898792cc0a", "is_disabled": 0, "type": "electric_scooter", "is_reserved": 0, "fusion_lon": 0.0, "lat": 38.9058295, "rental_uris": {"ios": "https://dc.lft.to/lastmile_qr_scan", "android": "https://dc.lft.to/lastmile_qr_scan"}, "bike_id": "bc85009361eaed9c69184c898792cc0a", "fusion_lat": 0.0}, {"lon": -77.01453966666666, "name": "f8858b9cfd52cd00567333105d01dd76", "is_disabled": 0, "type": "electric_scooter", "is_reserved": 0, "fusion_lon": 0.0, "lat": 38.9581255, "rental_uris": {"ios": "https://dc.lft.to/lastmile_qr_scan", "android": "https://dc.lft.to/lastmile_qr_scan"}, "bike_id": "f8858b9cfd52cd00567333105d01dd76", "fusion_lat": 0.0}, {"lon": -77.00206016666667, "name": "692ff3bcb02a18066cbbd4f3664d7513", "is_disabled": 0, "type": "electric_scooter", "is_reserved": 0, "fusion_lon": 0.0, "lat": 38.9002755, "rental_uris": {"ios": "https://dc.lft.to/lastmile_qr_scan", "android": "https://dc.lft.to/lastmile_qr_scan"}, "bike_id": "692ff3bcb02a18066cbbd4f3664d7513", "fusion_lat": 0.0}, {"lon": -77.0276055, "name": "20e7eb996f2afbd95bc7a4144281c004", "is_disabled": 0, "type": "electric_scooter", "is_reserved": 0, "fusion_lon": 0.0, "lat": 38.9276585, "rental_uris": {"ios": "https://dc.lft.to/lastmile_qr_scan", "android": "https://dc.lft.to/lastmile_qr_scan"}, "bike_id": "20e7eb996f2afbd95bc7a4144281c004", "fusion_lat": 0.0}, {"lon": -77.2317685, "name": "79934c37a2e9d97c553f65b93c072abc", "is_disabled": 0, "type": "electric_bike", "is_reserved": 0, "fusion_lon": 0.0, "lat": 38.928955333333334, "rental_uris": {"ios": "https://dc.lft.to/lastmile_qr_scan", "android": "https://dc.lft.to/lastmile_qr_scan"}, "bike_id": "79934c37a2e9d97c553f65b93c072abc", "fusion_lat": 0.0}, {"lon": -77.01186666666666, "name": "de8eb123593484e4ad9c7068b0be97cd", "is_disabled": 0, "type": "electric_scooter", "is_reserved": 0, "fusion_lon": 0.0, "lat": 38.91687833333334, "rental_uris": {"ios": "https://dc.lft.to/lastmile_qr_scan", "android": "https://dc.lft.to/lastmile_qr_scan"}, "bike_id": "de8eb123593484e4ad9c7068b0be97cd", "fusion_lat": 0.0}, {"lon": -77.07910183333334, "name": "c3c2364b6d3d130765d982dd5382c715", "is_disabled": 0, "type": "electric_bike", "is_reserved": 0, "fusion_lon": 0.0, "lat": 38.838284333333334, "rental_uris": {"ios": "https://dc.lft.to/lastmile_qr_scan", "android": "https://dc.lft.to/lastmile_qr_scan"}, "bike_id": "c3c2364b6d3d130765d982dd5382c715", "fusion_lat": 0.0}, {"lon": -77.02137066666667, "name": "4e5866d063db6144e8423b6321c21fc3", "is_disabled": 0, "type": "electric_scooter", "is_reserved": 0, "fusion_lon": 0.0, "lat": 38.933015, "rental_uris": {"ios": "https://dc.lft.to/lastmile_qr_scan", "android": "https://dc.lft.to/lastmile_qr_scan"}, "bike_id": "4e5866d063db6144e8423b6321c21fc3", "fusion_lat": 0.0}, {"lon": -77.01507916666667, "name": "6c15bf461e36afcaac8b6c9dcd70a818", "is_disabled": 0, "type": "electric_scooter", "is_reserved": 0, "fusion_lon": 0.0, "lat": 38.910001333333334, "rental_uris": {"ios": "https://dc.lft.to/lastmile_qr_scan", "android": "https://dc.lft.to/lastmile_qr_scan"}, "bike_id": "6c15bf461e36afcaac8b6c9dcd70a818", "fusion_lat": 0.0}, {"lon": -77.031665, "name": "da6c769ae5676b61b235b5b5901d0bc9", "is_disabled": 0, "type": "electric_scooter", "is_reserved": 0, "fusion_lon": 0.0, "lat": 38.892297666666664, "rental_uris": {"ios": "https://dc.lft.to/lastmile_qr_scan", "android": "https://dc.lft.to/lastmile_qr_scan"}, "bike_id": "da6c769ae5676b61b235b5b5901d0bc9", "fusion_lat": 0.0}, {"lon": -77.0136415, "name": "1065756f9bb6cfea6fdcae57cc59980b", "is_disabled": 0, "type": "electric_scooter", "is_reserved": 0, "fusion_lon": 0.0, "lat": 38.913298166666664, "rental_uris": {"ios": "https://dc.lft.to/lastmile_qr_scan", "android": "https://dc.lft.to/lastmile_qr_scan"}, "bike_id": "1065756f9bb6cfea6fdcae57cc59980b", "fusion_lat": 0.0}, {"lon": -76.995719, "name": "d1451ed4badce63c1993f499e9654493", "is_disabled": 0, "type": "electric_bike", "is_reserved": 0, "fusion_lon": 0.0, "lat": 38.83156833333334, "rental_uris": {"ios": "https://dc.lft.to/lastmile_qr_scan", "android": "https://dc.lft.to/lastmile_qr_scan"}, "bike_id": "d1451ed4badce63c1993f499e9654493", "fusion_lat": 0.0}, {"lon": -77.03509566666666, "name": "b50a71e965204e6ca633d8b4a7744288", "is_disabled": 0, "type": "electric_scooter", "is_reserved": 0, "fusion_lon": 0.0, "lat": 38.901445333333335, "rental_uris": {"ios": "https://dc.lft.to/lastmile_qr_scan", "android": "https://dc.lft.to/lastmile_qr_scan"}, "bike_id": "b50a71e965204e6ca633d8b4a7744288", "fusion_lat": 0.0}, {"lon": -77.032604, "name": "71105b0b58cb832ae0c1f6d9b1324dbd", "is_disabled": 0, "type": "electric_scooter", "is_reserved": 0, "fusion_lon": 0.0, "lat": 38.932476666666666, "rental_uris": {"ios": "https://dc.lft.to/lastmile_qr_scan", "android": "https://dc.lft.to/lastmile_qr_scan"}, "bike_id": "71105b0b58cb832ae0c1f6d9b1324dbd", "fusion_lat": 0.0}, {"lon": -77.00896983333334, "name": "b58b87cae2b728ec364d10dc3e9de546", "is_disabled": 0, "type": "electric_scooter", "is_reserved": 0, "fusion_lon": 0.0, "lat": 38.90082016666667, "rental_uris": {"ios": "https://dc.lft.to/lastmile_qr_scan", "android": "https://dc.lft.to/lastmile_qr_scan"}, "bike_id": "b58b87cae2b728ec364d10dc3e9de546", "fusion_lat": 0.0}, {"lon": -77.02487033333334, "name": "cf8d5f149eee42b8520d4f99248257e2", "is_disabled": 0, "type": "electric_scooter", "is_reserved": 0, "fusion_lon": 0.0, "lat": 38.918163166666666, "rental_uris": {"ios": "https://dc.lft.to/lastmile_qr_scan", "android": "https://dc.lft.to/lastmile_qr_scan"}, "bike_id": "cf8d5f149eee42b8520d4f99248257e2", "fusion_lat": 0.0}, {"lon": -77.03996133333334, "name": "e812222d499771aa475c9b44a2ebcd83", "is_disabled": 0, "type": "electric_scooter", "is_reserved": 0, "fusion_lon": 0.0, "lat": 38.91700066666667, "rental_uris": {"ios": "https://dc.lft.to/lastmile_qr_scan", "android": "https://dc.lft.to/lastmile_qr_scan"}, "bike_id": "e812222d499771aa475c9b44a2ebcd83", "fusion_lat": 0.0}, {"lon": -77.02980466666666, "name": "b50d55c4f97051ffcda072ccba5e5a45", "is_disabled": 0, "type": "electric_scooter", "is_reserved": 0, "fusion_lon": 0.0, "lat": 38.943494333333334, "rental_uris": {"ios": "https://dc.lft.to/lastmile_qr_scan", "android": "https://dc.lft.to/lastmile_qr_scan"}, "bike_id": "b50d55c4f97051ffcda072ccba5e5a45", "fusion_lat": 0.0}, {"lon": -77.002893, "name": "04363680da22bed78ef37295b6adbd1b", "is_disabled": 0, "type": "electric_scooter", "is_reserved": 0, "fusion_lon": 0.0, "lat": 38.8922815, "rental_uris": {"ios": "https://dc.lft.to/lastmile_qr_scan", "android": "https://dc.lft.to/lastmile_qr_scan"}, "bike_id": "04363680da22bed78ef37295b6adbd1b", "fusion_lat": 0.0}, {"lon": -77.02096983333334, "name": "4daed559d1a6002ebf984a7f71fdf176", "is_disabled": 0, "type": "electric_scooter", "is_reserved": 0, "fusion_lon": 0.0, "lat": 38.921474833333335, "rental_uris": {"ios": "https://dc.lft.to/lastmile_qr_scan", "android": "https://dc.lft.to/lastmile_qr_scan"}, "bike_id": "4daed559d1a6002ebf984a7f71fdf176", "fusion_lat": 0.0}, {"lon": -77.00446683333334, "name": "e80e6b3b714df01de30b9247081dae72", "is_disabled": 0, "type": "electric_scooter", "is_reserved": 0, "fusion_lon": 0.0, "lat": 38.878324166666665, "rental_uris": {"ios": "https://dc.lft.to/lastmile_qr_scan", "android": "https://dc.lft.to/lastmile_qr_scan"}, "bike_id": "e80e6b3b714df01de30b9247081dae72", "fusion_lat": 0.0}, {"lon": -76.98487516666667, "name": "93469a78c21410bb195639a26ea55f6e", "is_disabled": 0, "type": "electric_scooter", "is_reserved": 0, "fusion_lon": 0.0, "lat": 38.920302666666664, "rental_uris": {"ios": "https://dc.lft.to/lastmile_qr_scan", "android": "https://dc.lft.to/lastmile_qr_scan"}, "bike_id": "93469a78c21410bb195639a26ea55f6e", "fusion_lat": 0.0}, {"lon": -77.02208383333334, "name": "c19a78eb619c263eabdf3cca8495783e", "is_disabled": 0, "type": "electric_scooter", "is_reserved": 0, "fusion_lon": 0.0, "lat": 38.912655666666666, "rental_uris": {"ios": "https://dc.lft.to/lastmile_qr_scan", "android": "https://dc.lft.to/lastmile_qr_scan"}, "bike_id": "c19a78eb619c263eabdf3cca8495783e", "fusion_lat": 0.0}, {"lon": -77.04726283333333, "name": "e49dd437563c001b77a0dc21e7f274d0", "is_disabled": 0, "type": "electric_scooter", "is_reserved": 0, "fusion_lon": 0.0, "lat": 38.899743, "rental_uris": {"ios": "https://dc.lft.to/lastmile_qr_scan", "android": "https://dc.lft.to/lastmile_qr_scan"}, "bike_id": "e49dd437563c001b77a0dc21e7f274d0", "fusion_lat": 0.0}, {"lon": -77.00211666666667, "name": "7f7bbdc34294d69bcb8ac326e18bd66c", "is_disabled": 0, "type": "electric_scooter", "is_reserved": 0, "fusion_lon": 0.0, "lat": 38.898126833333336, "rental_uris": {"ios": "https://dc.lft.to/lastmile_qr_scan", "android": "https://dc.lft.to/lastmile_qr_scan"}, "bike_id": "7f7bbdc34294d69bcb8ac326e18bd66c", "fusion_lat": 0.0}, {"lon": -77.02521233333333, "name": "92bc6cbe1abfce4683e1f1d12ffda1ce", "is_disabled": 0, "type": "electric_scooter", "is_reserved": 0, "fusion_lon": 0.0, "lat": 38.92068733333333, "rental_uris": {"ios": "https://dc.lft.to/lastmile_qr_scan", "android": "https://dc.lft.to/lastmile_qr_scan"}, "bike_id": "92bc6cbe1abfce4683e1f1d12ffda1ce", "fusion_lat": 0.0}, {"lon": -77.0279505, "name": "b0c7789569f65b5e9677441f11c7924d", "is_disabled": 0, "type": "electric_scooter", "is_reserved": 0, "fusion_lon": 0.0, "lat": 38.930832333333335, "rental_uris": {"ios": "https://dc.lft.to/lastmile_qr_scan", "android": "https://dc.lft.to/lastmile_qr_scan"}, "bike_id": "b0c7789569f65b5e9677441f11c7924d", "fusion_lat": 0.0}, {"lon": -76.99890116666667, "name": "6e1116b859fdc180149e261c0c3cf972", "is_disabled": 0, "type": "electric_scooter", "is_reserved": 0, "fusion_lon": 0.0, "lat": 38.90898583333333, "rental_uris": {"ios": "https://dc.lft.to/lastmile_qr_scan", "android": "https://dc.lft.to/lastmile_qr_scan"}, "bike_id": "6e1116b859fdc180149e261c0c3cf972", "fusion_lat": 0.0}, {"lon": -77.0401665, "name": "15afdf2a623779d42c142e4227ce2176", "is_disabled": 0, "type": "electric_scooter", "is_reserved": 0, "fusion_lon": 0.0, "lat": 38.92170633333333, "rental_uris": {"ios": "https://dc.lft.to/lastmile_qr_scan", "android": "https://dc.lft.to/lastmile_qr_scan"}, "bike_id": "15afdf2a623779d42c142e4227ce2176", "fusion_lat": 0.0}, {"lon": -77.04158116666666, "name": "eefcda9ae93bc6490e81405fd6f3a63f", "is_disabled": 0, "type": "electric_scooter", "is_reserved": 0, "fusion_lon": 0.0, "lat": 38.9004215, "rental_uris": {"ios": "https://dc.lft.to/lastmile_qr_scan", "android": "https://dc.lft.to/lastmile_qr_scan"}, "bike_id": "eefcda9ae93bc6490e81405fd6f3a63f", "fusion_lat": 0.0}, {"lon": -76.990165, "name": "f1404c7d942fb9fa6fab19b751902b2e", "is_disabled": 0, "type": "electric_scooter", "is_reserved": 0, "fusion_lon": 0.0, "lat": 38.865155, "rental_uris": {"ios": "https://dc.lft.to/lastmile_qr_scan", "android": "https://dc.lft.to/lastmile_qr_scan"}, "bike_id": "f1404c7d942fb9fa6fab19b751902b2e", "fusion_lat": 0.0}, {"lon": -77.02747966666666, "name": "7cc1e37fbe854a0e58639f2e824c30ca", "is_disabled": 0, "type": "electric_scooter", "is_reserved": 0, "fusion_lon": 0.0, "lat": 38.96644666666667, "rental_uris": {"ios": "https://dc.lft.to/lastmile_qr_scan", "android": "https://dc.lft.to/lastmile_qr_scan"}, "bike_id": "7cc1e37fbe854a0e58639f2e824c30ca", "fusion_lat": 0.0}, {"lon": -77.03277333333334, "name": "20a385c4461d359835c2cae8d99a6a72", "is_disabled": 0, "type": "electric_scooter", "is_reserved": 0, "fusion_lon": 0.0, "lat": 38.920498, "rental_uris": {"ios": "https://dc.lft.to/lastmile_qr_scan", "android": "https://dc.lft.to/lastmile_qr_scan"}, "bike_id": "20a385c4461d359835c2cae8d99a6a72", "fusion_lat": 0.0}, {"lon": -77.008928, "name": "3903e360aaf14050047587fd3583a7e9", "is_disabled": 0, "type": "electric_scooter", "is_reserved": 0, "fusion_lon": 0.0, "lat": 38.90953566666666, "rental_uris": {"ios": "https://dc.lft.to/lastmile_qr_scan", "android": "https://dc.lft.to/lastmile_qr_scan"}, "bike_id": "3903e360aaf14050047587fd3583a7e9", "fusion_lat": 0.0}, {"lon": -77.047233, "name": "afa1c054e3f08b415d14ffd9e521f2c0", "is_disabled": 0, "type": "electric_scooter", "is_reserved": 0, "fusion_lon": 0.0, "lat": 38.89968116666667, "rental_uris": {"ios": "https://dc.lft.to/lastmile_qr_scan", "android": "https://dc.lft.to/lastmile_qr_scan"}, "bike_id": "afa1c054e3f08b415d14ffd9e521f2c0", "fusion_lat": 0.0}, {"lon": -77.02382733333333, "name": "671fe265180bc1cf307387c61f563cc1", "is_disabled": 0, "type": "electric_scooter", "is_reserved": 0, "fusion_lon": 0.0, "lat": 38.90845866666667, "rental_uris": {"ios": "https://dc.lft.to/lastmile_qr_scan", "android": "https://dc.lft.to/lastmile_qr_scan"}, "bike_id": "671fe265180bc1cf307387c61f563cc1", "fusion_lat": 0.0}, {"lon": -77.013727, "name": "6a2fbd4ce0717c9bbc10eaf6a89a3419", "is_disabled": 0, "type": "electric_scooter", "is_reserved": 0, "fusion_lon": 0.0, "lat": 38.9102945, "rental_uris": {"ios": "https://dc.lft.to/lastmile_qr_scan", "android": "https://dc.lft.to/lastmile_qr_scan"}, "bike_id": "6a2fbd4ce0717c9bbc10eaf6a89a3419", "fusion_lat": 0.0}, {"lon": -76.99005183333334, "name": "a670c47110012be47f781ec324d4d49e", "is_disabled": 0, "type": "electric_scooter", "is_reserved": 0, "fusion_lon": 0.0, "lat": 38.903929833333336, "rental_uris": {"ios": "https://dc.lft.to/lastmile_qr_scan", "android": "https://dc.lft.to/lastmile_qr_scan"}, "bike_id": "a670c47110012be47f781ec324d4d49e", "fusion_lat": 0.0},