{"data": {"bikes": [{"name": "0060de9b57fd4c0dbdb57c54a6dc55a3", "lon": -77.04401783333333, "lat": 38.921165, "type": "electric_scooter", "fusion_lon": 0.0, "is_reserved": 0, "bike_id": "0060de9b57fd4c0dbdb57c54a6dc55a3", "fusion_lat": 0.0, "is_disabled": 0, "rental_uris": {"ios": "https://dc.lft.to/lastmile_qr_scan", "android": "https://dc.lft.to/lastmile_qr_scan"}}, {"name": "ea7ed394dc38f3df24a89120340bda2f", "lon": -77.03503316666666, "lat": 38.924757166666666, "type": "electric_scooter", "fusion_lon": 0.0, "is_reserved": 0, "bike_id": "ea7ed394dc38f3df24a89120340bda2f", "fusion_lat": 0.0, "is_disabled": 0, "rental_uris": {"ios": "https://dc.lft.to/lastmile_qr_scan", "android": "https://dc.lft.to/lastmile_qr_scan"}}, {"name": "cdf9b7e42887109ebe5bb1a9ac64837d", "lon": -76.975347, "lat": 38.90327766666667, "type": "electric_bike", "fusion_lon": 0.0, "is_reserved": 0, "bike_id": "cdf9b7e42887109ebe5bb1a9ac64837d", "fusion_lat": 0.0, "is_disabled": 0, "rental_uris": {"ios": "https://dc.lft.to/lastmile_qr_scan", "android": "https://dc.lft.to/lastmile_qr_scan"}}, {"name": "e2272f85b961877e48959228dc3bdb3c", "lon": -77.02358966666667, "lat": 38.886739166666665, "type": "electric_scooter", "fusion_lon": 0.0, "is_reserved": 0, "bike_id": "e2272f85b961877e48959228dc3bdb3c", "fusion_lat": 0.0, "is_disabled": 0, "rental_uris": {"ios": "https://dc.lft.to/lastmile_qr_scan", "android": "https://dc.lft.to/lastmile_qr_scan"}}, {"name": "d83ab6e58546f36d28bd44236da40443", "lon": -77.03618266666666, "lat": 38.932531833333336, "type": "electric_scooter", "fusion_lon": 0.0, "is_reserved": 0, "bike_id": "d83ab6e58546f36d28bd44236da40443", "fusion_lat": 0.0, "is_disabled": 0, "rental_uris": {"ios": "https://dc.lft.to/lastmile_qr_scan", "android": "https://dc.lft.to/lastmile_qr_scan"}}, {"name": "29cf1fff68fe5ee10d155b764b05540f", "lon": -77.0485055, "lat": 38.9162045, "type": "electric_scooter", "fusion_lon": 0.0, "is_reserved": 0, "bike_id": "29cf1fff68fe5ee10d155b764b05540f", "fusion_lat": 0.0, "is_disabled": 0, "rental_uris": {"ios": "https://dc.lft.to/lastmile_qr_scan", "android": "https://dc.lft.to/lastmile_qr_scan"}}, {"name": "c84ef00c90e4ffec4ce8ada17ee562e9", "lon": -77.0669385, "lat": 38.83176533333334, "type": "electric_bike", "fusion_lon": 0.0, "is_reserved": 0, "bike_id": "c84ef00c90e4ffec4ce8ada17ee562e9", "fusion_lat": 0.0, "is_disabled": 0, "rental_uris": {"ios": "https://dc.lft.to/lastmile_qr_scan", "android": "https://dc.lft.to/lastmile_qr_scan"}}, {"name": "3cabdcffe3009a08debc0465a895cf9b", "lon": -76.9191135, "lat": 38.885795333333334, "type": "electric_scooter", "fusion_lon": 0.0, "is_reserved": 0, "bike_id": "3cabdcffe3009a08debc0465a895cf9b", "fusion_lat": 0.0, "is_disabled": 0, "rental_uris": {"ios": "https://dc.lft.to/lastmile_qr_scan", "android": "https://dc.lft.to/lastmile_qr_scan"}}, {"name": "a36104f73ddfdb6211015bc61c217ea3", "lon": -77.035296, "lat": 38.90672, "type": "electric_scooter", "fusion_lon": 0.0, "is_reserved": 0, "bike_id": "a36104f73ddfdb6211015bc61c217ea3", "fusion_lat": 0.0, "is_disabled": 0, "rental_uris": {"ios": "https://dc.lft.to/lastmile_qr_scan", "android": "https://dc.lft.to/lastmile_qr_scan"}}, {"name": "5474b0bec621f67ba3ef3c90e2031ae0", "lon": -77.05715133333334, "lat": 38.906162, "type": "electric_scooter", "fusion_lon": 0.0, "is_reserved": 0, "bike_id": "5474b0bec621f67ba3ef3c90e2031ae0", "fusion_lat": 0.0, "is_disabled": 0, "rental_uris": {"ios": "https://dc.lft.to/lastmile_qr_scan", "android": "https://dc.lft.to/lastmile_qr_scan"}}, {"name": "e7680062de23e715ec99bb8a122456b9", "lon": -77.00363366666667, "lat": 38.9155365, "type": "electric_scooter", "fusion_lon": 0.0, "is_reserved": 0, "bike_id": "e7680062de23e715ec99bb8a122456b9", "fusion_lat": 0.0, "is_disabled": 0, "rental_uris": {"ios": "https://dc.lft.to/lastmile_qr_scan", "android": "https://dc.lft.to/lastmile_qr_scan"}}, {"name": "9fb61f835afb4de6039031e065eb7281", "lon": -77.02326766666667, "lat": 38.927106, "type": "electric_scooter", "fusion_lon": 0.0, "is_reserved": 0, "bike_id": "9fb61f835afb4de6039031e065eb7281", "fusion_lat": 0.0, "is_disabled": 0, "rental_uris": {"ios": "https://dc.lft.to/lastmile_qr_scan", "android": "https://dc.lft.to/lastmile_qr_scan"}}, {"name": "4649409c170da075a3a0f86a8421c6fe", "lon": -77.02823216666667, "lat": 38.91403916666667, "type": "electric_scooter", "fusion_lon": 0.0, "is_reserved": 0, "bike_id": "4649409c170da075a3a0f86a8421c6fe", "fusion_lat": 0.0, "is_disabled": 0, "rental_uris": {"ios": "https://dc.lft.to/lastmile_qr_scan", "android": "https://dc.lft.to/lastmile_qr_scan"}}, {"name": "b16e4d1be7162d13b2aa553696928f3e", "lon": -77.02969683333333, "lat": 38.905705, "type": "electric_scooter", "fusion_lon": 0.0, "is_reserved": 0, "bike_id": "b16e4d1be7162d13b2aa553696928f3e", "fusion_lat": 0.0, "is_disabled": 0, "rental_uris": {"ios": "https://dc.lft.to/lastmile_qr_scan", "android": "https://dc.lft.to/lastmile_qr_scan"}}, {"name": "07f083357a727ba6ef27683b1b153ba8", "lon": -77.0363355, "lat": 38.932893, "type": "electric_bike", "fusion_lon": 0.0, "is_reserved": 0, "bike_id": "07f083357a727ba6ef27683b1b153ba8", "fusion_lat": 0.0, "is_disabled": 0, "rental_uris": {"ios": "https://dc.lft.to/lastmile_qr_scan", "android": "https://dc.lft.to/lastmile_qr_scan"}}, {"name": "2464ae34997e0d9159a90d615fcb1dc6", "lon": -77.0175095, "lat": 38.9203415, "type": "electric_scooter", "fusion_lon": 0.0, "is_reserved": 0, "bike_id": "2464ae34997e0d9159a90d615fcb1dc6", "fusion_lat": 0.0, "is_disabled": 0, "rental_uris": {"ios": "https://dc.lft.to/lastmile_qr_scan", "android": "https://dc.lft.to/lastmile_qr_scan"}}, {"name": "82c005eb71aa6385ece86ab7aa846435", "lon": -77.03861016666667, "lat": 38.91687366666667, "type": "electric_scooter", "fusion_lon": 0.0, "is_reserved": 0, "bike_id": "82c005eb71aa6385ece86ab7aa846435", "fusion_lat": 0.0, "is_disabled": 0, "rental_uris": {"ios": "https://dc.lft.to/lastmile_qr_scan", "android": "https://dc.lft.to/lastmile_qr_scan"}}, {"name": "1d44b699b33840c53a4f99d2d589fb0b", "lon": -77.06408016666667, "lat": 38.91306183333333, "type": "electric_scooter", "fusion_lon": 0.0, "is_reserved": 0, "bike_id": "1d44b699b33840c53a4f99d2d589fb0b", "fusion_lat": 0.0, "is_disabled": 0, "rental_uris": {"ios": "https://dc.lft.to/lastmile_qr_scan", "android": "https://dc.lft.to/lastmile_qr_scan"}}, {"name": "abec9e7ff93434ae1e3eaf29b5c58baa", "lon": -77.00893533333333, "lat": 38.909854833333334, "type": "electric_scooter", "fusion_lon": 0.0, "is_reserved": 0, "bike_id": "abec9e7ff93434ae1e3eaf29b5c58baa", "fusion_lat": 0.0, "is_disabled": 0, "rental_uris": {"ios": "https://dc.lft.to/lastmile_qr_scan", "android": "https://dc.lft.to/lastmile_qr_scan"}}, {"name": "3db79c65aff0ca863383f34fc12643a0", "lon": -76.9457585, "lat": 38.9374235, "type": "electric_bike", "fusion_lon": 0.0, "is_reserved": 0, "bike_id": "3db79c65aff0ca863383f34fc12643a0", "fusion_lat": 0.0, "is_disabled": 0, "rental_uris": {"ios": "https://dc.lft.to/lastmile_qr_scan", "android": "https://dc.lft.to/lastmile_qr_scan"}}, {"name": "68b596b7e25df6b758eb330d4dfac738", "lon": -77.03812633333334, "lat": 38.90680483333333, "type": "electric_scooter", "fusion_lon": 0.0, "is_reserved": 0, "bike_id": "68b596b7e25df6b758eb330d4dfac738", "fusion_lat": 0.0, "is_disabled": 0, "rental_uris": {"ios": "https://dc.lft.to/lastmile_qr_scan", "android": "https://dc.lft.to/lastmile_qr_scan"}}, {"name": "659748cd755c6709ad46150375d43dde", "lon": -77.02387166666666, "lat": 38.91664866666667, "type": "electric_scooter", "fusion_lon": 0.0, "is_reserved": 0, "bike_id": "659748cd755c6709ad46150375d43dde", "fusion_lat": 0.0, "is_disabled": 0, "rental_uris": {"ios": "https://dc.lft.to/lastmile_qr_scan", "android": "https://dc.lft.to/lastmile_qr_scan"}}, {"name": "ab6dcf3bb15057ff6dd2778923a31d44", "lon": -76.98367116666667, "lat": 38.914993, "type": "electric_scooter", "fusion_lon": 0.0, "is_reserved": 0, "bike_id": "ab6dcf3bb15057ff6dd2778923a31d44", "fusion_lat": 0.0, "is_disabled": 0, "rental_uris": {"ios": "https://dc.lft.to/lastmile_qr_scan", "android": "https://dc.lft.to/lastmile_qr_scan"}}, {"name": "130c61121aec5f36deee649266e63d2f", "lon": -77.04195766666666, "lat": 38.92622333333333, "type": "electric_scooter", "fusion_lon": 0.0, "is_reserved": 0, "bike_id": "130c61121aec5f36deee649266e63d2f", "fusion_lat": 0.0, "is_disabled": 0, "rental_uris": {"ios": "https://dc.lft.to/lastmile_qr_scan", "android": "https://dc.lft.to/lastmile_qr_scan"}}, {"name": "304a3a18e764d961509edc01ea394769", "lon": -77.03521216666667, "lat": 38.927300833333334, "type": "electric_scooter", "fusion_lon": 0.0, "is_reserved": 0, "bike_id": "304a3a18e764d961509edc01ea394769", "fusion_lat": 0.0, "is_disabled": 0, "rental_uris": {"ios": "https://dc.lft.to/lastmile_qr_scan", "android": "https://dc.lft.to/lastmile_qr_scan"}}, {"name": "806af021bfe9543ab663a3bc3492e7be", "lon": -77.05617566666666, "lat": 38.9241725, "type": "electric_scooter", "fusion_lon": 0.0, "is_reserved": 0, "bike_id": "806af021bfe9543ab663a3bc3492e7be", "fusion_lat": 0.0, "is_disabled": 0, "rental_uris": {"ios": "https://dc.lft.to/lastmile_qr_scan", "android": "https://dc.lft.to/lastmile_qr_scan"}}, {"name": "5ae21ffb6065a2724296faebe166a44d", "lon": -76.94634516666666, "lat": 38.898431, "type": "electric_scooter", "fusion_lon": 0.0, "is_reserved": 0, "bike_id": "5ae21ffb6065a2724296faebe166a44d", "fusion_lat": 0.0, "is_disabled": 0, "rental_uris": {"ios": "https://dc.lft.to/lastmile_qr_scan", "android": "https://dc.lft.to/lastmile_qr_scan"}}, {"name": "0a5d91509b614e2cff82e40019512eb0", "lon": -77.00212566666667, "lat": 38.900299, "type": "electric_scooter", "fusion_lon": 0.0, "is_reserved": 0, "bike_id": "0a5d91509b614e2cff82e40019512eb0", "fusion_lat": 0.0, "is_disabled": 0, "rental_uris": {"ios": "https://dc.lft.to/lastmile_qr_scan", "android": "https://dc.lft.to/lastmile_qr_scan"}}, {"name": "379ad3741d28b543397b5654dd0160ce", "lon": -76.9808915, "lat": 38.88131033333333, "type": "electric_bike", "fusion_lon": 0.0, "is_reserved": 0, "bike_id": "379ad3741d28b543397b5654dd0160ce", "fusion_lat": 0.0, "is_disabled": 0, "rental_uris": {"ios": "https://dc.lft.to/lastmile_qr_scan", "android": "https://dc.lft.to/lastmile_qr_scan"}}, {"name": "a52ac911a70643f96f5840cb6819dbb5", "lon": -77.01750916666667, "lat": 38.92079416666667, "type": "electric_scooter", "fusion_lon": 0.0, "is_reserved": 0, "bike_id": "a52ac911a70643f96f5840cb6819dbb5", "fusion_lat": 0.0, "is_disabled": 0, "rental_uris": {"ios": "https://dc.lft.to/lastmile_qr_scan", "android": "https://dc.lft.to/lastmile_qr_scan"}}, {"name": "f288873373d828b4df6558c2dc375648", "lon": -76.98234966666666, "lat": 38.90889266666667, "type": "electric_scooter", "fusion_lon": 0.0, "is_reserved": 0, "bike_id": "f288873373d828b4df6558c2dc375648", "fusion_lat": 0.0, "is_disabled": 0, "rental_uris": {"ios": "https://dc.lft.to/lastmile_qr_scan", "android": "https://dc.lft.to/lastmile_qr_scan"}}, {"name": "a2afdd3196f585d91c138513b78c05e0", "lon": -77.02963333333334, "lat": 38.904996833333335, "type": "electric_scooter", "fusion_lon": 0.0, "is_reserved": 0, "bike_id": "a2afdd3196f585d91c138513b78c05e0", "fusion_lat": 0.0, "is_disabled": 0, "rental_uris": {"ios": "https://dc.lft.to/lastmile_qr_scan", "android": "https://dc.lft.to/lastmile_qr_scan"}}, {"name": "36c7e5a3a0893caec5e4ea4037cbff1b", "lon": -77.02715916666666, "lat": 38.918163666666665, "type": "electric_scooter", "fusion_lon": 0.0, "is_reserved": 0, "bike_id": "36c7e5a3a0893caec5e4ea4037cbff1b", "fusion_lat": 0.0, "is_disabled": 0, "rental_uris": {"ios": "https://dc.lft.to/lastmile_qr_scan", "android": "https://dc.lft.to/lastmile_qr_scan"}}, {"name": "c2d63cb4c2d26074d8e32b24d70b1213", "lon": -77.00202366666667, "lat": 38.90022283333333, "type": "electric_scooter", "fusion_lon": 0.0, "is_reserved": 0, "bike_id": "c2d63cb4c2d26074d8e32b24d70b1213", "fusion_lat": 0.0, "is_disabled": 0, "rental_uris": {"ios": "https://dc.lft.to/lastmile_qr_scan", "android": "https://dc.lft.to/lastmile_qr_scan"}}, {"name": "ba8d3f81ded6023e5b801406c9784324", "lon": -77.0279455, "lat": 38.8983465, "type": "electric_scooter", "fusion_lon": 0.0, "is_reserved": 0, "bike_id": "ba8d3f81ded6023e5b801406c9784324", "fusion_lat": 0.0, "is_disabled": 0, "rental_uris": {"ios": "https://dc.lft.to/lastmile_qr_scan", "android": "https://dc.lft.to/lastmile_qr_scan"}}, {"name": "18418855c05dee795f1ce16c7635b856", "lon": -76.99350316666667, "lat": 38.845057, "type": "electric_scooter", "fusion_lon": 0.0, "is_reserved": 0, "bike_id": "18418855c05dee795f1ce16c7635b856", "fusion_lat": 0.0, "is_disabled": 0, "rental_uris": {"ios": "https://dc.lft.to/lastmile_qr_scan", "android": "https://dc.lft.to/lastmile_qr_scan"}}, {"name": "93ec6b65b9e6c73a77d459088922becc", "lon": -76.9113755, "lat": 38.8942615, "type": "electric_scooter", "fusion_lon": 0.0, "is_reserved": 0, "bike_id": "93ec6b65b9e6c73a77d459088922becc", "fusion_lat": 0.0, "is_disabled": 0, "rental_uris": {"ios": "https://dc.lft.to/lastmile_qr_scan", "android": "https://dc.lft.to/lastmile_qr_scan"}}, {"name": "815fb293ff155b25df295d243e9334af", "lon": -77.02298616666667, "lat": 38.928068, "type": "electric_scooter", "fusion_lon": 0.0, "is_reserved": 0, "bike_id": "815fb293ff155b25df295d243e9334af", "fusion_lat": 0.0, "is_disabled": 0, "rental_uris": {"ios": "https://dc.lft.to/lastmile_qr_scan", "android": "https://dc.lft.to/lastmile_qr_scan"}}, {"name": "f44442e7cb8b852feb3a556be0117f0f", "lon": -77.05419283333333, "lat": 38.902427333333335, "type": "electric_scooter", "fusion_lon": 0.0, "is_reserved": 0, "bike_id": "f44442e7cb8b852feb3a556be0117f0f", "fusion_lat": 0.0, "is_disabled": 0, "rental_uris": {"ios": "https://dc.lft.to/lastmile_qr_scan", "android": "https://dc.lft.to/lastmile_qr_scan"}}, {"name": "9fef433c4a2945ce405a0982517d22c2", "lon": -76.99846116666667, "lat": 38.887413333333335, "type": "electric_scooter", "fusion_lon": 0.0, "is_reserved": 0, "bike_id": "9fef433c4a2945ce405a0982517d22c2", "fusion_lat": 0.0, "is_disabled": 0, "rental_uris": {"ios": "https://dc.lft.to/lastmile_qr_scan", "android": "https://dc.lft.to/lastmile_qr_scan"}}, {"name": "27401df03ef5664464da7ac5bea1b8f2", "lon": -77.04142383333334, "lat": 38.922920500000004, "type": "electric_scooter", "fusion_lon": 0.0, "is_reserved": 0, "bike_id": "27401df03ef5664464da7ac5bea1b8f2", "fusion_lat": 0.0, "is_disabled": 0, "rental_uris": {"ios": "https://dc.lft.to/lastmile_qr_scan", "android": "https://dc.lft.to/lastmile_qr_scan"}}, {"name": "576a5c6aa89838c302acd58b8ba0d64e", "lon": -77.01891566666667, "lat": 38.901825, "type": "electric_scooter", "fusion_lon": 0.0, "is_reserved": 0, "bike_id": "576a5c6aa89838c302acd58b8ba0d64e", "fusion_lat": 0.0, "is_disabled": 0, "rental_uris": {"ios": "https://dc.lft.to/lastmile_qr_scan", "android": "https://dc.lft.to/lastmile_qr_scan"}}, {"name": "287fe4676a84f3775f3abdc8b50e3366", "lon": -77.01818016666667, "lat": 38.923673666666666, "type": "electric_scooter", "fusion_lon": 0.0, "is_reserved": 0, "bike_id": "287fe4676a84f3775f3abdc8b50e3366", "fusion_lat": 0.0, "is_disabled": 0, "rental_uris": {"ios": "https://dc.lft.to/lastmile_qr_scan", "android": "https://dc.lft.to/lastmile_qr_scan"}}, {"name": "911e0f0e2fa16b6c245d91c45fdc6622", "lon": -77.04738016666667, "lat": 38.91653266666667, "type": "electric_scooter", "fusion_lon": 0.0, "is_reserved": 0, "bike_id": "911e0f0e2fa16b6c245d91c45fdc6622", "fusion_lat": 0.0, "is_disabled": 0, "rental_uris": {"ios": "https://dc.lft.to/lastmile_qr_scan", "android": "https://dc.lft.to/lastmile_qr_scan"}}, {"name": "598f3a2b2de9af3e85753e20ef8e7abb", "lon": -77.03520566666667, "lat": 38.900573666666666, "type": "electric_scooter", "fusion_lon": 0.0, "is_reserved": 0, "bike_id": "598f3a2b2de9af3e85753e20ef8e7abb", "fusion_lat": 0.0, "is_disabled": 0, "rental_uris": {"ios": "https://dc.lft.to/lastmile_qr_scan", "android": "https://dc.lft.to/lastmile_qr_scan"}}, {"name": "fa3ad8260b07ed4f94feaaf35da7604e", "lon": -76.99036583333333, "lat": 38.898514666666664, "type": "electric_scooter", "fusion_lon": 0.0, "is_reserved": 0, "bike_id": "fa3ad8260b07ed4f94feaaf35da7604e", "fusion_lat": 0.0, "is_disabled": 0, "rental_uris": {"ios": "https://dc.lft.to/lastmile_qr_scan", "android": "https://dc.lft.to/lastmile_qr_scan"}}, {"name": "92bda3b8c5316a7a87c14b5872755cfc", "lon": -77.00761533333333, "lat": 38.898291666666665, "type": "electric_scooter", "fusion_lon": 0.0, "is_reserved": 0, "bike_id": "92bda3b8c5316a7a87c14b5872755cfc", "fusion_lat": 0.0, "is_disabled": 0, "rental_uris": {"ios": "https://dc.lft.to/lastmile_qr_scan", "android": "https://dc.lft.to/lastmile_qr_scan"}}, {"name": "3e101ae74a809733f0f13f780e12e5a8", "lon": -77.04560516666666, "lat": 38.91324316666667, "type": "electric_scooter", "fusion_lon": 0.0, "is_reserved": 0, "bike_id": "3e101ae74a809733f0f13f780e12e5a8", "fusion_lat": 0.0, "is_disabled": 0, "rental_uris": {"ios": "https://dc.lft.to/lastmile_qr_scan", "android": "https://dc.lft.to/lastmile_qr_scan"}}, {"name": "1b13934a427ad3f192d3a252136f4ec0", "lon": -77.03619133333333, "lat": 38.9285335, "type": "electric_scooter", "fusion_lon": 0.0, "is_reserved": 0, "bike_id": "1b13934a427ad3f192d3a252136f4ec0", "fusion_lat": 0.0, "is_disabled": 0, "rental_uris": {"ios": "https://dc.lft.to/lastmile_qr_scan", "android": "https://dc.lft.to/lastmile_qr_scan"}}, {"name": "e5d3a3b5a41604ce9bf9cf7a1c13bd9d", "lon": -77.041768, "lat": 38.9198195, "type": "electric_scooter", "fusion_lon": 0.0, "is_reserved": 0, "bike_id": "e5d3a3b5a41604ce9bf9cf7a1c13bd9d", "fusion_lat": 0.0, "is_disabled": 0, "rental_uris": {"ios": "https://dc.lft.to/lastmile_qr_scan", "android": "https://dc.lft.to/lastmile_qr_scan"}}, {"name": "50112bf34f0f93e623894434b6dd799f", "lon": -77.00757283333333, "lat": 38.91029833333333, "type": "electric_scooter", "fusion_lon": 0.0, "is_reserved": 0, "bike_id": "50112bf34f0f93e623894434b6dd799f", "fusion_lat": 0.0, "is_disabled": 0, "rental_uris": {"ios": "https://dc.lft.to/lastmile_qr_scan", "android": "https://dc.lft.to/lastmile_qr_scan"}}, {"name": "52d96a8afd03729d9d5edd48005fb8a3", "lon": -77.0586195, "lat": 38.9360535, "type": "electric_scooter", "fusion_lon": 0.0, "is_reserved": 0, "bike_id": "52d96a8afd03729d9d5edd48005fb8a3", "fusion_lat": 0.0, "is_disabled": 0, "rental_uris": {"ios": "https://dc.lft.to/lastmile_qr_scan", "android": "https://dc.lft.to/lastmile_qr_scan"}}, {"name": "ae1b92cd4cb0e5e99e251e69517f34e3", "lon": -77.043518, "lat": 38.913538333333335, "type": "electric_scooter", "fusion_lon": 0.0, "is_reserved": 0, "bike_id": "ae1b92cd4cb0e5e99e251e69517f34e3", "fusion_lat": 0.0, "is_disabled": 0, "rental_uris": {"ios": "https://dc.lft.to/lastmile_qr_scan", "android": "https://dc.lft.to/lastmile_qr_scan"}}, {"name": "cfc0e88e48eb72eb56115f0ec6bc4279", "lon": -77.02406316666666, "lat": 38.91734533333333, "type": "electric_scooter", "fusion_lon": 0.0, "is_reserved": 0, "bike_id": "cfc0e88e48eb72eb56115f0ec6bc4279", "fusion_lat": 0.0, "is_disabled": 0, "rental_uris": {"ios": "https://dc.lft.to/lastmile_qr_scan", "android": "https://dc.lft.to/lastmile_qr_scan"}}, {"name": "81beb009d4e6196bedbd37cee528d216", "lon": -77.00123366666666, "lat": 38.907699, "type": "electric_scooter", "fusion_lon": 0.0, "is_reserved": 0, "bike_id": "81beb009d4e6196bedbd37cee528d216", "fusion_lat": 0.0, "is_disabled": 0, "rental_uris": {"ios": "https://dc.lft.to/lastmile_qr_scan", "android": "https://dc.lft.to/lastmile_qr_scan"}}, {"name": "40571f8e5a3713536214e4841f378607", "lon": -77.04549433333334, "lat": 38.934022, "type": "electric_scooter", "fusion_lon": 0.0, "is_reserved": 0, "bike_id": "40571f8e5a3713536214e4841f378607", "fusion_lat": 0.0, "is_disabled": 0, "rental_uris": {"ios": "https://dc.lft.to/lastmile_qr_scan", "android": "https://dc.lft.to/lastmile_qr_scan"}}, {"name": "959a9e9c9a0dbea5388fa21491c33356", "lon": -77.00592866666666, "lat": 38.87546366666667, "type": "electric_scooter", "fusion_lon": 0.0, "is_reserved": 0, "bike_id": "959a9e9c9a0dbea5388fa21491c33356", "fusion_lat": 0.0, "is_disabled": 0, "rental_uris": {"ios": "https://dc.lft.to/lastmile_qr_scan", "android": "https://dc.lft.to/lastmile_qr_scan"}}, {"name": "5f9512aba7965308b338e127316b9a4f", "lon": -77.035154, "lat": 38.96199816666667, "type": "electric_bike", "fusion_lon": 0.0, "is_reserved": 0, "bike_id": "5f9512aba7965308b338e127316b9a4f", "fusion_lat": 0.0, "is_disabled": 0, "rental_uris": {"ios": "https://dc.lft.to/lastmile_qr_scan", "android": "https://dc.lft.to/lastmile_qr_scan"}}, {"name": "b84b02b91fc627845a6db400e9fc3f5f", "lon": -77.0297365, "lat": 38.924396333333334, "type": "electric_scooter", "fusion_lon": 0.0, "is_reserved": 0, "bike_id": "b84b02b91fc627845a6db400e9fc3f5f", "fusion_lat": 0.0, "is_disabled": 0, "rental_uris": {"ios": "https://dc.lft.to/lastmile_qr_scan", "android": "https://dc.lft.to/lastmile_qr_scan"}}, {"name": "0b346f55bdf9d4be0f90a51c0f49793c", "lon": -77.03668433333333, "lat": 38.92725266666667, "type": "electric_scooter", "fusion_lon": 0.0, "is_reserved": 0, "bike_id": "0b346f55bdf9d4be0f90a51c0f49793c", "fusion_lat": 0.0, "is_disabled": 0, "rental_uris": {"ios": "https://dc.lft.to/lastmile_qr_scan", "android": "https://dc.lft.to/lastmile_qr_scan"}}, {"name": "142d3ae58ff18e844b4edfd67cefdcc5", "lon": -77.07737416666667, "lat": 38.9237135, "type": "electric_scooter", "fusion_lon": 0.0, "is_reserved": 0, "bike_id": "142d3ae58ff18e844b4edfd67cefdcc5", "fusion_lat": 0.0, "is_disabled": 0, "rental_uris": {"ios": "https://dc.lft.to/lastmile_qr_scan", "android": "https://dc.lft.to/lastmile_qr_scan"}}, {"name": "c4b76f7ca3b0d7346fcff721502eb39a", "lon": -77.0234375, "lat": 38.945011, "type": "electric_scooter", "fusion_lon": 0.0, "is_reserved": 0, "bike_id": "c4b76f7ca3b0d7346fcff721502eb39a", "fusion_lat": 0.0, "is_disabled": 0, "rental_uris": {"ios": "https://dc.lft.to/lastmile_qr_scan", "android": "https://dc.lft.to/lastmile_qr_scan"}}, {"name": "4b310457a1d5859bd3cbf9255f98bf0b", "lon": -76.97701183333334, "lat": 38.9025235, "type": "electric_scooter", "fusion_lon": 0.0, "is_reserved": 0, "bike_id": "4b310457a1d5859bd3cbf9255f98bf0b", "fusion_lat": 0.0, "is_disabled": 0, "rental_uris": {"ios": "https://dc.lft.to/lastmile_qr_scan", "android": "https://dc.lft.to/lastmile_qr_scan"}}, {"name": "6bfbd624cf1431bf7504007e77227ab7", "lon": -77.04269683333334, "lat": 38.9085935, "type": "electric_scooter", "fusion_lon": 0.0, "is_reserved": 0, "bike_id": "6bfbd624cf1431bf7504007e77227ab7", "fusion_lat": 0.0, "is_disabled": 0, "rental_uris": {"ios": "https://dc.lft.to/lastmile_qr_scan", "android": "https://dc.lft.to/lastmile_qr_scan"}}, {"name": "c4223edf8e5c3a5dfd2103f553a0f1b2", "lon": -77.004318, "lat": 38.87671816666667, "type": "electric_scooter", "fusion_lon": 0.0, "is_reserved": 0, "bike_id": "c4223edf8e5c3a5dfd2103f553a0f1b2", "fusion_lat": 0.0, "is_disabled": 0, "rental_uris": {"ios": "https://dc.lft.to/lastmile_qr_scan", "android": "https://dc.lft.to/lastmile_qr_scan"}}, {"name": "6d16ba8ac749cadfcff13dc6a52cd526", "lon": -77.050014, "lat": 38.89230416666667, "type": "electric_scooter", "fusion_lon": 0.0, "is_reserved": 0, "bike_id": "6d16ba8ac749cadfcff13dc6a52cd526", "fusion_lat": 0.0, "is_disabled": 0, "rental_uris": {"ios": "https://dc.lft.to/lastmile_qr_scan", "android": "https://dc.lft.to/lastmile_qr_scan"}}, {"name": "7fc2f4d6746662c4e43badf6012eb2ac", "lon": -77.01864733333333, "lat": 38.97368066666667, "type": "electric_scooter", "fusion_lon": 0.0, "is_reserved": 0, "bike_id": "7fc2f4d6746662c4e43badf6012eb2ac", "fusion_lat": 0.0, "is_disabled": 0, "rental_uris": {"ios": "https://dc.lft.to/lastmile_qr_scan", "android": "https://dc.lft.to/lastmile_qr_scan"}}, {"name": "8dfe82cfa7edd3e7cc1e2697e0d8ec3f", "lon": -77.07333866666667, "lat": 38.9261205, "type": "electric_scooter", "fusion_lon": 0.0, "is_reserved": 0, "bike_id": "8dfe82cfa7edd3e7cc1e2697e0d8ec3f", "fusion_lat": 0.0, "is_disabled": 0, "rental_uris": {"ios": "https://dc.lft.to/lastmile_qr_scan", "android": "https://dc.lft.to/lastmile_qr_scan"}}, {"name": "4dc277e876cf14683aebda1cae8eeb0a", "lon": -77.02492166666667, "lat": 38.937613666666664, "type": "electric_scooter", "fusion_lon": 0.0, "is_reserved": 0, "bike_id": "4dc277e876cf14683aebda1cae8eeb0a", "fusion_lat": 0.0, "is_disabled": 0, "rental_uris": {"ios": "https://dc.lft.to/lastmile_qr_scan", "android": "https://dc.lft.to/lastmile_qr_scan"}}, {"name": "d5699fcc62cb4564928d9e29c84af8c9", "lon": -77.05145183333333, "lat": 38.905817166666665, "type": "electric_scooter", "fusion_lon": 0.0, "is_reserved": 0, "bike_id": "d5699fcc62cb4564928d9e29c84af8c9", "fusion_lat": 0.0, "is_disabled": 0, "rental_uris": {"ios": "https://dc.lft.to/lastmile_qr_scan", "android": "https://dc.lft.to/lastmile_qr_scan"}}, {"name": "e7fff02f5fed1a52121ecfb4060a0106", "lon": -77.03258366666667, "lat": 38.94270816666667, "type": "electric_scooter", "fusion_lon": 0.0, "is_reserved": 0, "bike_id": "e7fff02f5fed1a52121ecfb4060a0106", "fusion_lat": 0.0, "is_disabled": 0, "rental_uris": {"ios": "https://dc.lft.to/lastmile_qr_scan", "android": "https://dc.lft.to/lastmile_qr_scan"}}, {"name": "2553b3cc2ba8675a720b16a23d2ddb20", "lon": -76.993759, "lat": 38.971847, "type": "electric_bike", "fusion_lon": 0.0, "is_reserved": 0, "bike_id": "2553b3cc2ba8675a720b16a23d2ddb20", "fusion_lat": 0.0, "is_disabled": 0, "rental_uris": {"ios": "https://dc.lft.to/lastmile_qr_scan", "android": "https://dc.lft.to/lastmile_qr_scan"}}, {"name": "3ccb8f73a3427e04255549d0a0d9f494", "lon": -77.05212866666666, "lat": 38.9248165, "type": "electric_scooter", "fusion_lon": 0.0, "is_reserved": 0, "bike_id": "3ccb8f73a3427e04255549d0a0d9f494", "fusion_lat": 0.0, "is_disabled": 0, "rental_uris": {"ios": "https://dc.lft.to/lastmile_qr_scan", "android": "https://dc.lft.to/lastmile_qr_scan"}}, {"name": "6b29329d46222e14319001d48d790c22", "lon": -77.02374466666667, "lat": 38.945029, "type": "electric_bike", "fusion_lon": 0.0, "is_reserved": 0, "bike_id": "6b29329d46222e14319001d48d790c22", "fusion_lat": 0.0, "is_disabled": 0, "rental_uris": {"ios": "https://dc.lft.to/lastmile_qr_scan", "android": "https://dc.lft.to/lastmile_qr_scan"}}, {"name": "2ec1e5d710522c2385ce8986550a6621", "lon": -76.97169083333333, "lat": 38.854635333333334, "type": "electric_scooter", "fusion_lon": 0.0, "is_reserved": 0, "bike_id": "2ec1e5d710522c2385ce8986550a6621", "fusion_lat": 0.0, "is_disabled": 0, "rental_uris": {"ios": "https://dc.lft.to/lastmile_qr_scan", "android": "https://dc.lft.to/lastmile_qr_scan"}}, {"name": "6630585683ac89d3c39e7cdf2ea724e6", "lon": -77.01360766666667, "lat": 38.863697, "type": "electric_bike", "fusion_lon": 0.0, "is_reserved": 0, "bike_id": "6630585683ac89d3c39e7cdf2ea724e6", "fusion_lat": 0.0, "is_disabled": 0, "rental_uris": {"ios": "https://dc.lft.to/lastmile_qr_scan", "android": "https://dc.lft.to/lastmile_qr_scan"}}, {"name": "96a049bb31fcf78c860b384700f7a0bb", "lon": -76.93262283333334, "lat": 38.89891166666666, "type": "electric_scooter", "fusion_lon": 0.0, "is_reserved": 0, "bike_id": "96a049bb31fcf78c860b384700f7a0bb", "fusion_lat": 0.0, "is_disabled": 0, "rental_uris": {"ios": "https://dc.lft.to/lastmile_qr_scan", "android": "https://dc.lft.to/lastmile_qr_scan"}}, {"name": "523168ba67f8c9c76f3e081f300ff193", "lon": -77.04794866666667, "lat": 38.9187325, "type": "electric_scooter", "fusion_lon": 0.0, "is_reserved": 0, "bike_id": "523168ba67f8c9c76f3e081f300ff193", "fusion_lat": 0.0, "is_disabled": 0, "rental_uris": {"ios": "https://dc.lft.to/lastmile_qr_scan", "android": "https://dc.lft.to/lastmile_qr_scan"}}, {"name": "36a705dc913493858c7ca8f2edb614f7", "lon": -77.02973583333333, "lat": 38.89627433333333, "type": "electric_scooter", "fusion_lon": 0.0, "is_reserved": 0, "bike_id": "36a705dc913493858c7ca8f2edb614f7", "fusion_lat": 0.0, "is_disabled": 0, "rental_uris": {"ios": "https://dc.lft.to/lastmile_qr_scan", "android": "https://dc.lft.to/lastmile_qr_scan"}}, {"name": "f0f771fe75a0c3aa70fa9341f8499dee", "lon": -77.05765716666667, "lat": 38.924268, "type": "electric_scooter", "fusion_lon": 0.0, "is_reserved": 0, "bike_id": "f0f771fe75a0c3aa70fa9341f8499dee", "fusion_lat": 0.0, "is_disabled": 0, "rental_uris": {"ios": "https://dc.lft.to/lastmile_qr_scan", "android": "https://dc.lft.to/lastmile_qr_scan"}}, {"name": "c133ca16953dbd7ef6ad363167ddc884", "lon": -77.03043866666667, "lat": 38.8838965, "type": "electric_scooter", "fusion_lon": 0.0, "is_reserved": 0, "bike_id": "c133ca16953dbd7ef6ad363167ddc884", "fusion_lat": 0.0, "is_disabled": 0, "rental_uris": {"ios": "https://dc.lft.to/lastmile_qr_scan", "android": "https://dc.lft.to/lastmile_qr_scan"}}, {"name": "a226fe7ef842e6a91429dcd3bf9484de", "lon": -77.01369266666667, "lat": 38.8871045, "type": "electric_scooter", "fusion_lon": 0.0, "is_reserved": 0, "bike_id": "a226fe7ef842e6a91429dcd3bf9484de", "fusion_lat": 0.0, "is_disabled": 0, "rental_uris": {"ios": "https://dc.lft.to/lastmile_qr_scan", "android": "https://dc.lft.to/lastmile_qr_scan"}}, {"name": "c6c7258f56c8c09ec1bd870c66328d0f", "lon": -77.034426, "lat": 38.9089275, "type": "electric_scooter", "fusion_lon": 0.0, "is_reserved": 0, "bike_id": "c6c7258f56c8c09ec1bd870c66328d0f", "fusion_lat": 0.0, "is_disabled": 0, "rental_uris": {"ios": "https://dc.lft.to/lastmile_qr_scan", "android": "https://dc.lft.to/lastmile_qr_scan"}}, {"name": "bbb8c5e16c6152c3aa7fced0a3a7897f", "lon": -77.03210066666666, "lat": 38.9089545, "type": "electric_scooter", "fusion_lon": 0.0, "is_reserved": 0, "bike_id": "bbb8c5e16c6152c3aa7fced0a3a7897f", "fusion_lat": 0.0, "is_disabled": 0, "rental_uris": {"ios": "https://dc.lft.to/lastmile_qr_scan", "android": "https://dc.lft.to/lastmile_qr_scan"}}, {"name": "f70a4c59c412c572048b007ebfc1eafd", "lon": -77.03477266666667, "lat": 38.9253885, "type": "electric_scooter", "fusion_lon": 0.0, "is_reserved": 0, "bike_id": "f70a4c59c412c572048b007ebfc1eafd", "fusion_lat": 0.0, "is_disabled": 0, "rental_uris": {"ios": "https://dc.lft.to/lastmile_qr_scan", "android": "https://dc.lft.to/lastmile_qr_scan"}}, {"name": "d33b38158a28759f3c6d8197edfc7b47", "lon": -77.02541466666666, "lat": 38.92395916666667, "type": "electric_scooter", "fusion_lon": 0.0, "is_reserved": 0, "bike_id": "d33b38158a28759f3c6d8197edfc7b47", "fusion_lat": 0.0, "is_disabled": 0, "rental_uris": {"ios": "https://dc.lft.to/lastmile_qr_scan", "android": "https://dc.lft.to/lastmile_qr_scan"}}, {"name": "4bb69c0fe5e64a415a6d25bacedb429f", "lon": -77.06976633333333, "lat": 38.95304, "type": "electric_scooter", "fusion_lon": 0.0, "is_reserved": 0, "bike_id": "4bb69c0fe5e64a415a6d25bacedb429f", "fusion_lat": 0.0, "is_disabled": 0, "rental_uris": {"ios": "https://dc.lft.to/lastmile_qr_scan", "android": "https://dc.lft.to/lastmile_qr_scan"}}, {"name": "a8a054f78421691f61c11f75308bcfb7", "lon": -77.026783, "lat": 38.92776683333334, "type": "electric_scooter", "fusion_lon": 0.0, "is_reserved": 0, "bike_id": "a8a054f78421691f61c11f75308bcfb7", "fusion_lat": 0.0, "is_disabled": 0, "rental_uris": {"ios": "https://dc.lft.to/lastmile_qr_scan", "android": "https://dc.lft.to/lastmile_qr_scan"}}, {"name": "7e1babf57e154339d195bc8d9e42e0df", "lon": -76.93648116666667, "lat": 38.871484833333334, "type": "electric_bike", "fusion_lon": 0.0, "is_reserved": 0, "bike_id": "7e1babf57e154339d195bc8d9e42e0df", "fusion_lat": 0.0, "is_disabled": 0, "rental_uris": {"ios": "https://dc.lft.to/lastmile_qr_scan", "android": "https://dc.lft.to/lastmile_qr_scan"}}, {"name": "4da525bf04e5791720fbe2f867265029", "lon": -76.968634, "lat": 38.87091783333334, "type": "electric_scooter", "fusion_lon": 0.0, "is_reserved": 0, "bike_id": "4da525bf04e5791720fbe2f867265029", "fusion_lat": 0.0, "is_disabled": 0, "rental_uris": {"ios": "https://dc.lft.to/lastmile_qr_scan", "android": "https://dc.lft.to/lastmile_qr_scan"}}, {"name": "32eab92969870e225ffc76307b9e6196", "lon": -77.03451616666666, "lat": 38.91004683333333, "type": "electric_scooter", "fusion_lon": 0.0, "is_reserved": 0, "bike_id": "32eab92969870e225ffc76307b9e6196", "fusion_lat": 0.0, "is_disabled": 0, "rental_uris": {"ios": "https://dc.lft.to/lastmile_qr_scan", "android": "https://dc.lft.to/lastmile_qr_scan"}}, {"name": "efa9ca370a8cf6a46c05181f160c2c2a", "lon": -77.038572, "lat": 38.921681666666665, "type": "electric_scooter", "fusion_lon": 0.0, "is_reserved": 0, "bike_id": "efa9ca370a8cf6a46c05181f160c2c2a", "fusion_lat": 0.0, "is_disabled": 0, "rental_uris": {"ios": "https://dc.lft.to/lastmile_qr_scan", "android": "https://dc.lft.to/lastmile_qr_scan"}}, {"name": "9cba28dc73d45283da30670ac94dda5b", "lon": -76.98534333333333, "lat": 38.880804166666664, "type": "electric_bike", "fusion_lon": 0.0, "is_reserved": 0, "bike_id": "9cba28dc73d45283da30670ac94dda5b", "fusion_lat": 0.0, "is_disabled": 0, "rental_uris": {"ios": "https://dc.lft.to/lastmile_qr_scan", "android": "https://dc.lft.to/lastmile_qr_scan"}}, {"name": "40069e86f0583e6685df3e9b3cab1aff", "lon": -77.031229, "lat": 38.917126333333336, "type": "electric_scooter", "fusion_lon": 0.0, "is_reserved": 0, "bike_id": "40069e86f0583e6685df3e9b3cab1aff", "fusion_lat": 0.0, "is_disabled": 0, "rental_uris": {"ios": "https://dc.lft.to/lastmile_qr_scan", "android": "https://dc.lft.to/lastmile_qr_scan"}}, {"name": "32078f78b4c3a3cb50cfe923a4b9bd74", "lon": -77.02304, "lat": 38.91786333333334, "type": "electric_scooter", "fusion_lon": 0.0, "is_reserved": 0, "bike_id": "32078f78b4c3a3cb50cfe923a4b9bd74", "fusion_lat": 0.0, "is_disabled": 0, "rental_uris": {"ios": "https://dc.lft.to/lastmile_qr_scan", "android": "https://dc.lft.to/lastmile_qr_scan"}}, {"name": "fe15934858dccf20b98f1d2da5304626", "lon": -76.9600835, "lat": 38.896459, "type": "electric_scooter", "fusion_lon": 0.0, "is_reserved": 0, "bike_id": "fe15934858dccf20b98f1d2da5304626", "fusion_lat": 0.0, "is_disabled": 0, "rental_uris": {"ios": "https://dc.lft.to/lastmile_qr_scan", "android": "https://dc.lft.to/lastmile_qr_scan"}}, {"name": "3471ef919463dcf488b0bd92c8191bfa", "lon": -77.01146383333334, "lat": 38.906422166666665, "type": "electric_scooter", "fusion_lon": 0.0, "is_reserved": 0, "bike_id": "3471ef919463dcf488b0bd92c8191bfa", "fusion_lat": 0.0, "is_disabled": 0, "rental_uris": {"ios": "https://dc.lft.to/lastmile_qr_scan", "android": "https://dc.lft.to/lastmile_qr_scan"}}, {"name": "504733405a82f0d13c9ccd61e95ae0b5", "lon": -77.02436133333333, "lat": 38.90969833333333, "type": "electric_scooter", "fusion_lon": 0.0, "is_reserved": 0, "bike_id": "504733405a82f0d13c9ccd61e95ae0b5", "fusion_lat": 0.0, "is_disabled": 0, "rental_uris": {"ios": "https://dc.lft.to/lastmile_qr_scan", "android": "https://dc.lft.to/lastmile_qr_scan"}}, {"name": "1231e0ec3bdf242b6152a5402545924f", "lon": -76.99016966666667, "lat": 38.9050245, "type": "electric_scooter", "fusion_lon": 0.0, "is_reserved": 0, "bike_id": "1231e0ec3bdf242b6152a5402545924f", "fusion_lat": 0.0, "is_disabled": 0, "rental_uris": {"ios": "https://dc.lft.to/lastmile_qr_scan", "android": "https://dc.lft.to/lastmile_qr_scan"}}, {"name": "a80851d0d40f0f6a1de1e874b6fa2265", "lon": -77.01534983333333, "lat": 38.8874005, "type": "electric_scooter", "fusion_lon": 0.0, "is_reserved": 0, "bike_id": "a80851d0d40f0f6a1de1e874b6fa2265", "fusion_lat": 0.0, "is_disabled": 0, "rental_uris": {"ios": "https://dc.lft.to/lastmile_qr_scan", "android": "https://dc.lft.to/lastmile_qr_scan"}}, {"name": "a1545494f1385bb98087249474e4d98c", "lon": -76.98092433333333, "lat": 38.95354916666667, "type": "electric_bike", "fusion_lon": 0.0, "is_reserved": 0, "bike_id": "a1545494f1385bb98087249474e4d98c", "fusion_lat": 0.0, "is_disabled": 0, "rental_uris": {"ios": "https://dc.lft.to/lastmile_qr_scan", "android": "https://dc.lft.to/lastmile_qr_scan"}}, {"name": "536ecfdc88c1af7b4471d1521ba7cf30", "lon": -77.04468866666667, "lat": 38.918856166666664, "type": "electric_scooter", "fusion_lon": 0.0, "is_reserved": 0, "bike_id": "536ecfdc88c1af7b4471d1521ba7cf30", "fusion_lat": 0.0, "is_disabled": 0, "rental_uris": {"ios": "https://dc.lft.to/lastmile_qr_scan", "android": "https://dc.lft.to/lastmile_qr_scan"}}, {"name": "04d010ec9ca3a27117f37c4f0a706412", "lon": -77.00202966666667, "lat": 38.90016683333333, "type": "electric_scooter", "fusion_lon": 0.0, "is_reserved": 0, "bike_id": "04d010ec9ca3a27117f37c4f0a706412", "fusion_lat": 0.0, "is_disabled": 0, "rental_uris": {"ios": "https://dc.lft.to/lastmile_qr_scan", "android": "https://dc.lft.to/lastmile_qr_scan"}}, {"name": "0b3af3d9e40527755f45fff555d3989f", "lon": -77.05918133333333, "lat": 38.90096833333333, "type": "electric_scooter", "fusion_lon": 0.0, "is_reserved": 0, "bike_id": "0b3af3d9e40527755f45fff555d3989f", "fusion_lat": 0.0, "is_disabled": 0, "rental_uris": {"ios": "https://dc.lft.to/lastmile_qr_scan", "android": "https://dc.lft.to/lastmile_qr_scan"}}, {"name": "0a1c4484a95fced7e9eef347e4d43da4", "lon": -76.96607916666666, "lat": 38.873811333333336, "type": "electric_scooter", "fusion_lon": 0.0, "is_reserved": 0, "bike_id": "0a1c4484a95fced7e9eef347e4d43da4", "fusion_lat": 0.0, "is_disabled": 0, "rental_uris": {"ios": "https://dc.lft.to/lastmile_qr_scan", "android": "https://dc.lft.to/lastmile_qr_scan"}}, {"name": "a7b25c287540d7bbe9496bfacd31ae50", "lon": -77.04701833333333, "lat": 38.89737016666667, "type": "electric_scooter", "fusion_lon": 0.0, "is_reserved": 0, "bike_id": "a7b25c287540d7bbe9496bfacd31ae50", "fusion_lat": 0.0, "is_disabled": 0, "rental_uris": {"ios": "https://dc.lft.to/lastmile_qr_scan", "android": "https://dc.lft.to/lastmile_qr_scan"}}, {"name": "c75ae087d85409e319f3bb555151519e", "lon": -77.01745516666666, "lat": 38.887369166666666, "type": "electric_scooter", "fusion_lon": 0.0, "is_reserved": 0, "bike_id": "c75ae087d85409e319f3bb555151519e", "fusion_lat": 0.0, "is_disabled": 0, "rental_uris": {"ios": "https://dc.lft.to/lastmile_qr_scan", "android": "https://dc.lft.to/lastmile_qr_scan"}}, {"name": "2f9c1d3fba719274bbf3da8ade05e523", "lon": -77.046972, "lat": 38.921716, "type": "electric_scooter", "fusion_lon": 0.0, "is_reserved": 0, "bike_id": "2f9c1d3fba719274bbf3da8ade05e523", "fusion_lat": 0.0, "is_disabled": 0, "rental_uris": {"ios": "https://dc.lft.to/lastmile_qr_scan", "android": "https://dc.lft.to/lastmile_qr_scan"}}, {"name": "c9d7c5fd783784a65c4c874a415f5063", "lon": -77.01197483333333, "lat": 38.917080166666665, "type": "electric_scooter", "fusion_lon": 0.0, "is_reserved": 0, "bike_id": "c9d7c5fd783784a65c4c874a415f5063", "fusion_lat": 0.0, "is_disabled": 0, "rental_uris": {"ios": "https://dc.lft.to/lastmile_qr_scan", "android": "https://dc.lft.to/lastmile_qr_scan"}}, {"name": "f57049242d9070ff3fb2da74afa06c37", "lon": -77.05146166666667, "lat": 38.904424166666665, "type": "electric_scooter", "fusion_lon": 0.0, "is_reserved": 0, "bike_id": "f57049242d9070ff3fb2da74afa06c37", "fusion_lat": 0.0, "is_disabled": 0, "rental_uris": {"ios": "https://dc.lft.to/lastmile_qr_scan", "android": "https://dc.lft.to/lastmile_qr_scan"}}, {"name": "773e408a46037159dd8b32a098af556b", "lon": -77.007121, "lat": 38.88491333333333, "type": "electric_scooter", "fusion_lon": 0.0, "is_reserved": 0, "bike_id": "773e408a46037159dd8b32a098af556b", "fusion_lat": 0.0, "is_disabled": 0, "rental_uris": {"ios": "https://dc.lft.to/lastmile_qr_scan", "android": "https://dc.lft.to/lastmile_qr_scan"}}, {"name": "b76dcf9f9377c22439ac55f15716e06c", "lon": -76.9993835, "lat": 38.90020666666667, "type": "electric_scooter", "fusion_lon": 0.0, "is_reserved": 0, "bike_id": "b76dcf9f9377c22439ac55f15716e06c", "fusion_lat": 0.0, "is_disabled": 0, "rental_uris": {"ios": "https://dc.lft.to/lastmile_qr_scan", "android": "https://dc.lft.to/lastmile_qr_scan"}}, {"name": "1c9504bb6f1b805cfcb89ce1149872ef", "lon": -77.02719983333333, "lat": 38.9012225, "type": "electric_scooter", "fusion_lon": 0.0, "is_reserved": 0, "bike_id": "1c9504bb6f1b805cfcb89ce1149872ef", "fusion_lat": 0.0, "is_disabled": 0, "rental_uris": {"ios": "https://dc.lft.to/lastmile_qr_scan", "android": "https://dc.lft.to/lastmile_qr_scan"}}, {"name": "f71a372e7cea47f4e4fbae220438d181", "lon": -76.96528733333334, "lat": 38.876263, "type": "electric_scooter", "fusion_lon": 0.0, "is_reserved": 0, "bike_id": "f71a372e7cea47f4e4fbae220438d181", "fusion_lat": 0.0, "is_disabled": 0, "rental_uris": {"ios": "https://dc.lft.to/lastmile_qr_scan", "android": "https://dc.lft.to/lastmile_qr_scan"}}, {"name": "4875187058d3bb780309e4391e6f3e9d", "lon": -77.0112455, "lat": 38.915847166666666, "type": "electric_scooter", "fusion_lon": 0.0, "is_reserved": 0, "bike_id": "4875187058d3bb780309e4391e6f3e9d", "fusion_lat": 0.0, "is_disabled": 0, "rental_uris": {"ios": "https://dc.lft.to/lastmile_qr_scan", "android": "https://dc.lft.to/lastmile_qr_scan"}}, {"name": "9878d77e78401e8e710d8f2f6f633339", "lon": -76.99406833333333, "lat": 38.9392335, "type": "electric_bike", "fusion_lon": 0.0, "is_reserved": 0, "bike_id": "9878d77e78401e8e710d8f2f6f633339", "fusion_lat": 0.0, "is_disabled": 0, "rental_uris": {"ios": "https://dc.lft.to/lastmile_qr_scan", "android": "https://dc.lft.to/lastmile_qr_scan"}}, {"name": "8636ae17e81c6392150d59e40bf53e15", "lon": -76.96529133333334, "lat": 38.876285833333334, "type": "electric_scooter", "fusion_lon": 0.0, "is_reserved": 0, "bike_id": "8636ae17e81c6392150d59e40bf53e15", "fusion_lat": 0.0, "is_disabled": 0, "rental_uris": {"ios": "https://dc.lft.to/lastmile_qr_scan", "android": "https://dc.lft.to/lastmile_qr_scan"}}, {"name": "91ea79a548f44c3e09f57ead2aa46170", "lon": -77.04057033333333, "lat": 38.911133166666666, "type": "electric_scooter", "fusion_lon": 0.0, "is_reserved": 0, "bike_id": "91ea79a548f44c3e09f57ead2aa46170", "fusion_lat": 0.0, "is_disabled": 0, "rental_uris": {"ios": "https://dc.lft.to/lastmile_qr_scan", "android": "https://dc.lft.to/lastmile_qr_scan"}}, {"name": "5085199f53e4a4b4b2b155336eb3979c", "lon": -76.97010483333334, "lat": 38.863678666666665, "type": "electric_bike", "fusion_lon": 0.0, "is_reserved": 0, "bike_id": "5085199f53e4a4b4b2b155336eb3979c", "fusion_lat": 0.0, "is_disabled": 0, "rental_uris": {"ios": "https://dc.lft.to/lastmile_qr_scan", "android": "https://dc.lft.to/lastmile_qr_scan"}}, {"name": "3f947a19471afff3b2883602c1e5b279", "lon": -77.117994, "lat": 38.8737555, "type": "electric_bike", "fusion_lon": 0.0, "is_reserved": 0, "bike_id": "3f947a19471afff3b2883602c1e5b279", "fusion_lat": 0.0, "is_disabled": 0, "rental_uris": {"ios": "https://dc.lft.to/lastmile_qr_scan", "android": "https://dc.lft.to/lastmile_qr_scan"}}, {"name": "de2b635b9056a0e809ad4414b7e407e8", "lon": -76.93732783333333, "lat": 38.89017183333333, "type": "electric_scooter", "fusion_lon": 0.0, "is_reserved": 0, "bike_id": "de2b635b9056a0e809ad4414b7e407e8", "fusion_lat": 0.0, "is_disabled": 0, "rental_uris": {"ios": "https://dc.lft.to/lastmile_qr_scan", "android": "https://dc.lft.to/lastmile_qr_scan"}}, {"name": "872ef42f288ad2fec489ccbc2f75a4c3", "lon": -77.00215833333333, "lat": 38.91102866666667, "type": "electric_scooter", "fusion_lon": 0.0, "is_reserved": 0, "bike_id": "872ef42f288ad2fec489ccbc2f75a4c3", "fusion_lat": 0.0, "is_disabled": 0, "rental_uris": {"ios": "https://dc.lft.to/lastmile_qr_scan", "android": "https://dc.lft.to/lastmile_qr_scan"}}, {"name": "b8b5086c4b39e2bf941859a71b5f0745", "lon": -77.03359083333334, "lat": 38.92887366666667, "type": "electric_scooter", "fusion_lon": 0.0, "is_reserved": 0, "bike_id": "b8b5086c4b39e2bf941859a71b5f0745", "fusion_lat": 0.0, "is_disabled": 0, "rental_uris": {"ios": "https://dc.lft.to/lastmile_qr_scan", "android": "https://dc.lft.to/lastmile_qr_scan"}}, {"name": "c70917e72f991ab0859a0a86452ded01", "lon": -77.04723083333333, "lat": 38.9024375, "type": "electric_scooter", "fusion_lon": 0.0, "is_reserved": 0, "bike_id": "c70917e72f991ab0859a0a86452ded01", "fusion_lat": 0.0, "is_disabled": 0, "rental_uris": {"ios": "https://dc.lft.to/lastmile_qr_scan", "android": "https://dc.lft.to/lastmile_qr_scan"}}, {"name": "bbd4b3441b9ee8bd117fe0182f93f65a", "lon": -76.9987405, "lat": 38.900195, "type": "electric_scooter", "fusion_lon": 0.0, "is_reserved": 0, "bike_id": "bbd4b3441b9ee8bd117fe0182f93f65a", "fusion_lat": 0.0, "is_disabled": 0, "rental_uris": {"ios": "https://dc.lft.to/lastmile_qr_scan", "android": "https://dc.lft.to/lastmile_qr_scan"}}, {"name": "f738c762efd58f1cd7dc148f862e896d", "lon": -77.02404383333334, "lat": 38.917406, "type": "electric_scooter", "fusion_lon": 0.0, "is_reserved": 0, "bike_id": "f738c762efd58f1cd7dc148f862e896d", "fusion_lat": 0.0, "is_disabled": 0, "rental_uris": {"ios": "https://dc.lft.to/lastmile_qr_scan", "android": "https://dc.lft.to/lastmile_qr_scan"}}, {"name": "297c943c11ee0f741a936b14fc14aff5", "lon": -77.05132666666667, "lat": 38.90709916666667, "type": "electric_scooter", "fusion_lon": 0.0, "is_reserved": 0, "bike_id": "297c943c11ee0f741a936b14fc14aff5", "fusion_lat": 0.0, "is_disabled": 0, "rental_uris": {"ios": "https://dc.lft.to/lastmile_qr_scan", "android": "https://dc.lft.to/lastmile_qr_scan"}}, {"name": "a820beec9dad7ab47a9c23ad782cd82b", "lon": -77.0077345, "lat": 38.926702, "type": "electric_scooter", "fusion_lon": 0.0, "is_reserved": 0, "bike_id": "a820beec9dad7ab47a9c23ad782cd82b", "fusion_lat": 0.0, "is_disabled": 0, "rental_uris": {"ios": "https://dc.lft.to/lastmile_qr_scan", "android": "https://dc.lft.to/lastmile_qr_scan"}}, {"name": "31d0c6d0fa73b9e7cdec740d944edd9d", "lon": -77.02345766666667, "lat": 38.946112666666664, "type": "electric_scooter", "fusion_lon": 0.0, "is_reserved": 0, "bike_id": "31d0c6d0fa73b9e7cdec740d944edd9d", "fusion_lat": 0.0, "is_disabled": 0, "rental_uris": {"ios": "https://dc.lft.to/lastmile_qr_scan", "android": "https://dc.lft.to/lastmile_qr_scan"}}, {"name": "07d8c1d7011e19caad8629c76b827a55", "lon": -77.028095, "lat": 38.93300983333334, "type": "electric_scooter", "fusion_lon": 0.0, "is_reserved": 0, "bike_id": "07d8c1d7011e19caad8629c76b827a55", "fusion_lat": 0.0, "is_disabled": 0, "rental_uris": {"ios": "https://dc.lft.to/lastmile_qr_scan", "android": "https://dc.lft.to/lastmile_qr_scan"}}, {"name": "f4778d585e0330012f3a1cdb154d67ac", "lon": -77.0026955, "lat": 38.887171, "type": "electric_scooter", "fusion_lon": 0.0, "is_reserved": 0, "bike_id": "f4778d585e0330012f3a1cdb154d67ac", "fusion_lat": 0.0, "is_disabled": 0, "rental_uris": {"ios": "https://dc.lft.to/lastmile_qr_scan", "android": "https://dc.lft.to/lastmile_qr_scan"}}, {"name": "cb2a9fcd6046c2e5f6a9289a387c58e8", "lon": -76.96711766666667, "lat": 38.84797, "type": "electric_scooter", "fusion_lon": 0.0, "is_reserved": 0, "bike_id": "cb2a9fcd6046c2e5f6a9289a387c58e8", "fusion_lat": 0.0, "is_disabled": 0, "rental_uris": {"ios": "https://dc.lft.to/lastmile_qr_scan", "android": "https://dc.lft.to/lastmile_qr_scan"}}, {"name": "51ed9522996ea06b781fdde31b452899", "lon": -77.042397, "lat": 38.91344266666667, "type": "electric_scooter", "fusion_lon": 0.0, "is_reserved": 0, "bike_id": "51ed9522996ea06b781fdde31b452899", "fusion_lat": 0.0, "is_disabled": 0, "rental_uris": {"ios": "https://dc.lft.to/lastmile_qr_scan", "android": "https://dc.lft.to/lastmile_qr_scan"}}, {"name": "d79a5b09d48bbbf77eb0ddd9fdf00891", "lon": -77.0519275, "lat": 38.9038295, "type": "electric_scooter", "fusion_lon": 0.0, "is_reserved": 0, "bike_id": "d79a5b09d48bbbf77eb0ddd9fdf00891", "fusion_lat": 0.0, "is_disabled": 0, "rental_uris": {"ios": "https://dc.lft.to/lastmile_qr_scan", "android": "https://dc.lft.to/lastmile_qr_scan"}}, {"name": "7a6526e06bfe59d4345a14edc4050afd", "lon": -76.9442155, "lat": 38.96617466666667, "type": "electric_bike", "fusion_lon": 0.0, "is_reserved": 0, "bike_id": "7a6526e06bfe59d4345a14edc4050afd", "fusion_lat": 0.0, "is_disabled": 0, "rental_uris": {"ios": "https://dc.lft.to/lastmile_qr_scan", "android": "https://dc.lft.to/lastmile_qr_scan"}}, {"name": "abcdaa735f46cfec6ac62da399dafa29", "lon": -77.02894033333334, "lat": 38.9042835, "type": "electric_scooter", "fusion_lon": 0.0, "is_reserved": 0, "bike_id": "abcdaa735f46cfec6ac62da399dafa29", "fusion_lat": 0.0, "is_disabled": 0, "rental_uris": {"ios": "https://dc.lft.to/lastmile_qr_scan", "android": "https://dc.lft.to/lastmile_qr_scan"}}, {"name": "d6a7e4978c9862d01cb895329e6dc605", "lon": -76.923295, "lat": 38.871087833333334, "type": "electric_bike", "fusion_lon": 0.0, "is_reserved": 0, "bike_id": "d6a7e4978c9862d01cb895329e6dc605", "fusion_lat": 0.0, "is_disabled": 0, "rental_uris": {"ios": "https://dc.lft.to/lastmile_qr_scan", "android": "https://dc.lft.to/lastmile_qr_scan"}}, {"name": "c2b13b7534f2615b0bf7f7e23ae5d2d7", "lon": -77.00064583333334, "lat": 38.87671433333333, "type": "electric_scooter", "fusion_lon": 0.0, "is_reserved": 0, "bike_id": "c2b13b7534f2615b0bf7f7e23ae5d2d7", "fusion_lat": 0.0, "is_disabled": 0, "rental_uris": {"ios": "https://dc.lft.to/lastmile_qr_scan", "android": "https://dc.lft.to/lastmile_qr_scan"}}, {"name": "aab1e2ca66d2e790f7aeafcc7d2be4d8", "lon": -77.07187166666667, "lat": 38.959530666666666, "type": "electric_scooter", "fusion_lon": 0.0, "is_reserved": 0, "bike_id": "aab1e2ca66d2e790f7aeafcc7d2be4d8", "fusion_lat": 0.0, "is_disabled": 0, "rental_uris": {"ios": "https://dc.lft.to/lastmile_qr_scan", "android": "https://dc.lft.to/lastmile_qr_scan"}}, {"name": "ebbc6b197f2783f323899eeac8f640ab", "lon": -76.9494105, "lat": 38.895064833333336, "type": "electric_scooter", "fusion_lon": 0.0, "is_reserved": 0, "bike_id": "ebbc6b197f2783f323899eeac8f640ab", "fusion_lat": 0.0, "is_disabled": 0, "rental_uris": {"ios": "https://dc.lft.to/lastmile_qr_scan", "android": "https://dc.lft.to/lastmile_qr_scan"}}, {"name": "a273d18bf8200e6322cb369b164540aa", "lon": -77.01514466666667, "lat": 38.910442333333336, "type": "electric_scooter", "fusion_lon": 0.0, "is_reserved": 0, "bike_id": "a273d18bf8200e6322cb369b164540aa", "fusion_lat": 0.0, "is_disabled": 0, "rental_uris": {"ios": "https://dc.lft.to/lastmile_qr_scan", "android": "https://dc.lft.to/lastmile_qr_scan"}}, {"name": "d731321f65f876f6588f99caabefd680", "lon": -77.03859033333333, "lat": 38.91700783333334, "type": "electric_scooter", "fusion_lon": 0.0, "is_reserved": 0, "bike_id": "d731321f65f876f6588f99caabefd680", "fusion_lat": 0.0, "is_disabled": 0, "rental_uris": {"ios": "https://dc.lft.to/lastmile_qr_scan", "android": "https://dc.lft.to/lastmile_qr_scan"}}, {"name": "4d3323eb2d91cff8a30e9bc712efbeea", "lon": -77.04133316666666, "lat": 38.92265716666667, "type": "electric_scooter", "fusion_lon": 0.0, "is_reserved": 0, "bike_id": "4d3323eb2d91cff8a30e9bc712efbeea", "fusion_lat": 0.0, "is_disabled": 0, "rental_uris": {"ios": "https://dc.lft.to/lastmile_qr_scan", "android": "https://dc.lft.to/lastmile_qr_scan"}}, {"name": "2a2f9cdaa9d576b456309a73e8f1d831", "lon": -77.0261515, "lat": 38.90561366666667, "type": "electric_scooter", "fusion_lon": 0.0, "is_reserved": 0, "bike_id": "2a2f9cdaa9d576b456309a73e8f1d831", "fusion_lat": 0.0, "is_disabled": 0, "rental_uris": {"ios": "https://dc.lft.to/lastmile_qr_scan", "android": "https://dc.lft.to/lastmile_qr_scan"}}, {"name": "e65d1d552f8e2fae3b29b48a7d26ab8b", "lon": -76.9598325, "lat": 38.869913333333336, "type": "electric_bike", "fusion_lon": 0.0, "is_reserved": 0, "bike_id": "e65d1d552f8e2fae3b29b48a7d26ab8b", "fusion_lat": 0.0, "is_disabled": 0, "rental_uris": {"ios": "https://dc.lft.to/lastmile_qr_scan", "android": "https://dc.lft.to/lastmile_qr_scan"}}, {"name": "ed9050c155282caf092c29da1320d187", "lon": -77.0089365, "lat": 38.90349233333333, "type": "electric_scooter", "fusion_lon": 0.0, "is_reserved": 0, "bike_id": "ed9050c155282caf092c29da1320d187", "fusion_lat": 0.0, "is_disabled": 0, "rental_uris": {"ios": "https://dc.lft.to/lastmile_qr_scan", "android": "https://dc.lft.to/lastmile_qr_scan"}}, {"name": "1998e27f60ed5d0623da92a462e46f20", "lon": -77.039007, "lat": 38.908252833333336, "type": "electric_scooter", "fusion_lon": 0.0, "is_reserved": 0, "bike_id": "1998e27f60ed5d0623da92a462e46f20", "fusion_lat": 0.0, "is_disabled": 0, "rental_uris": {"ios": "https://dc.lft.to/lastmile_qr_scan", "android": "https://dc.lft.to/lastmile_qr_scan"}}, {"name": "5ca0ad0aef2c90ffff2642bfe6b2df22", "lon": -76.99603983333333, "lat": 38.856878, "type": "electric_scooter", "fusion_lon": 0.0, "is_reserved": 0, "bike_id": "5ca0ad0aef2c90ffff2642bfe6b2df22", "fusion_lat": 0.0, "is_disabled": 0, "rental_uris": {"ios": "https://dc.lft.to/lastmile_qr_scan", "android": "https://dc.lft.to/lastmile_qr_scan"}}, {"name": "1480a22ba4614759b77856e22dff05a0", "lon": -77.00831466666666, "lat": 38.829088, "type": "electric_bike", "fusion_lon": 0.0, "is_reserved": 0, "bike_id": "1480a22ba4614759b77856e22dff05a0", "fusion_lat": 0.0, "is_disabled": 0, "rental_uris": {"ios": "https://dc.lft.to/lastmile_qr_scan", "android": "https://dc.lft.to/lastmile_qr_scan"}}, {"name": "8f6ebc1b84d6d15f19514eccbea5b33d", "lon": -77.03184866666666, "lat": 38.91350966666667, "type": "electric_scooter", "fusion_lon": 0.0, "is_reserved": 0, "bike_id": "8f6ebc1b84d6d15f19514eccbea5b33d", "fusion_lat": 0.0, "is_disabled": 0, "rental_uris": {"ios": "https://dc.lft.to/lastmile_qr_scan", "android": "https://dc.lft.to/lastmile_qr_scan"}}, {"name": "1ab64bc77a71efa5c18be664623a6705", "lon": -77.03437816666667, "lat": 38.90971733333333, "type": "electric_scooter", "fusion_lon": 0.0, "is_reserved": 0, "bike_id": "1ab64bc77a71efa5c18be664623a6705", "fusion_lat": 0.0, "is_disabled": 0, "rental_uris": {"ios": "https://dc.lft.to/lastmile_qr_scan", "android": "https://dc.lft.to/lastmile_qr_scan"}}, {"name": "8d615b22522f15da039b0bfe56e50db7", "lon": -77.03793616666667, "lat": 38.915439166666665, "type": "electric_scooter", "fusion_lon": 0.0, "is_reserved": 0, "bike_id": "8d615b22522f15da039b0bfe56e50db7", "fusion_lat": 0.0, "is_disabled": 0, "rental_uris": {"ios": "https://dc.lft.to/lastmile_qr_scan", "android": "https://dc.lft.to/lastmile_qr_scan"}}, {"name": "0dfc4eb5667c3660c0d7a3f2c3b6122c", "lon": -77.0342225, "lat": 38.91919583333333, "type": "electric_scooter", "fusion_lon": 0.0, "is_reserved": 0, "bike_id": "0dfc4eb5667c3660c0d7a3f2c3b6122c", "fusion_lat": 0.0, "is_disabled": 0, "rental_uris": {"ios": "https://dc.lft.to/lastmile_qr_scan", "android": "https://dc.lft.to/lastmile_qr_scan"}}, {"name": "b309338d3bca0d9690135f34b676271d", "lon": -77.03462283333333, "lat": 38.907948, "type": "electric_scooter", "fusion_lon": 0.0, "is_reserved": 0, "bike_id": "b309338d3bca0d9690135f34b676271d", "fusion_lat": 0.0, "is_disabled": 0, "rental_uris": {"ios": "https://dc.lft.to/lastmile_qr_scan", "android": "https://dc.lft.to/lastmile_qr_scan"}}, {"name": "45570742ce0d89a3ad8ecb008ae2a62a", "lon": -76.99147016666667, "lat": 38.910371833333336, "type": "electric_scooter", "fusion_lon": 0.0, "is_reserved": 0, "bike_id": "45570742ce0d89a3ad8ecb008ae2a62a", "fusion_lat": 0.0, "is_disabled": 0, "rental_uris": {"ios": "https://dc.lft.to/lastmile_qr_scan", "android": "https://dc.lft.to/lastmile_qr_scan"}}, {"name": "b1e1df67b28cd650247b6c1ca4105f00", "lon": -77.04399583333333, "lat": 38.91424416666667, "type": "electric_scooter", "fusion_lon": 0.0, "is_reserved": 0, "bike_id": "b1e1df67b28cd650247b6c1ca4105f00", "fusion_lat": 0.0, "is_disabled": 0, "rental_uris": {"ios": "https://dc.lft.to/lastmile_qr_scan", "android": "https://dc.lft.to/lastmile_qr_scan"}}, {"name": "f51236de73c269a97163edfe5e5301f7", "lon": -77.021944, "lat": 38.905752166666666, "type": "electric_scooter", "fusion_lon": 0.0, "is_reserved": 0, "bike_id": "f51236de73c269a97163edfe5e5301f7", "fusion_lat": 0.0, "is_disabled": 0, "rental_uris": {"ios": "https://dc.lft.to/lastmile_qr_scan", "android": "https://dc.lft.to/lastmile_qr_scan"}}, {"name": "2be2e5c9dfbd480c0d8cd0bea619ca22", "lon": -77.02297466666667, "lat": 38.92086916666667, "type": "electric_scooter", "fusion_lon": 0.0, "is_reserved": 0, "bike_id": "2be2e5c9dfbd480c0d8cd0bea619ca22", "fusion_lat": 0.0, "is_disabled": 0, "rental_uris": {"ios": "https://dc.lft.to/lastmile_qr_scan", "android": "https://dc.lft.to/lastmile_qr_scan"}}, {"name": "a28abb2d0920d361cefc4e0712a27e2a", "lon": -77.04337583333333, "lat": 38.90572816666667, "type": "electric_scooter", "fusion_lon": 0.0, "is_reserved": 0, "bike_id": "a28abb2d0920d361cefc4e0712a27e2a", "fusion_lat": 0.0, "is_disabled": 0, "rental_uris": {"ios": "https://dc.lft.to/lastmile_qr_scan", "android": "https://dc.lft.to/lastmile_qr_scan"}}, {"name": "a3e934b43a75b04f5fbd124751610546", "lon": -77.02335483333333, "lat": 38.878871333333336, "type": "electric_scooter", "fusion_lon": 0.0, "is_reserved": 0, "bike_id": "a3e934b43a75b04f5fbd124751610546", "fusion_lat": 0.0, "is_disabled": 0, "rental_uris": {"ios": "https://dc.lft.to/lastmile_qr_scan", "android": "https://dc.lft.to/lastmile_qr_scan"}}, {"name": "6fbeb67c13ba0fd06c887fddabebc57f", "lon": -76.98233216666667, "lat": 38.864686, "type": "electric_scooter", "fusion_lon": 0.0, "is_reserved": 0, "bike_id": "6fbeb67c13ba0fd06c887fddabebc57f", "fusion_lat": 0.0, "is_disabled": 0, "rental_uris": {"ios": "https://dc.lft.to/lastmile_qr_scan", "android": "https://dc.lft.to/lastmile_qr_scan"}}, {"name": "a05aa85d0fef6e29ced3de6265d04890", "lon": -77.04955083333333, "lat": 38.905266833333336, "type": "electric_scooter", "fusion_lon": 0.0, "is_reserved": 0, "bike_id": "a05aa85d0fef6e29ced3de6265d04890", "fusion_lat": 0.0, "is_disabled": 0, "rental_uris": {"ios": "https://dc.lft.to/lastmile_qr_scan", "android": "https://dc.lft.to/lastmile_qr_scan"}}, {"name": "73f151328dcd6f4692f6cda577267fbc", "lon": -77.02188966666667, "lat": 38.91288616666667, "type": "electric_scooter", "fusion_lon": 0.0, "is_reserved": 0, "bike_id": "73f151328dcd6f4692f6cda577267fbc", "fusion_lat": 0.0, "is_disabled": 0, "rental_uris": {"ios": "https://dc.lft.to/lastmile_qr_scan", "android": "https://dc.lft.to/lastmile_qr_scan"}}, {"name": "1e5c31c2c6b587b68eb925c35b9e8dca", "lon": -77.06103683333333, "lat": 38.939933833333335, "type": "electric_scooter", "fusion_lon": 0.0, "is_reserved": 0, "bike_id": "1e5c31c2c6b587b68eb925c35b9e8dca", "fusion_lat": 0.0, "is_disabled": 0, "rental_uris": {"ios": "https://dc.lft.to/lastmile_qr_scan", "android": "https://dc.lft.to/lastmile_qr_scan"}}, {"name": "64df67ba6c25c5843e9d1f6586176af0", "lon": -77.029604, "lat": 38.91673683333333, "type": "electric_scooter", "fusion_lon": 0.0, "is_reserved": 0, "bike_id": "64df67ba6c25c5843e9d1f6586176af0", "fusion_lat": 0.0, "is_disabled": 0, "rental_uris": {"ios": "https://dc.lft.to/lastmile_qr_scan", "android": "https://dc.lft.to/lastmile_qr_scan"}}, {"name": "491ad0d9d5f2ead5a527889c80e4b34b", "lon": -77.025836, "lat": 38.92099116666667, "type": "electric_scooter", "fusion_lon": 0.0, "is_reserved": 0, "bike_id": "491ad0d9d5f2ead5a527889c80e4b34b", "fusion_lat": 0.0, "is_disabled": 0, "rental_uris": {"ios": "https://dc.lft.to/lastmile_qr_scan", "android": "https://dc.lft.to/lastmile_qr_scan"}}, {"name": "300c655396bbadb926a92decba019cc5", "lon": -77.02532233333334, "lat": 38.942594666666665, "type": "electric_scooter", "fusion_lon": 0.0, "is_reserved": 0, "bike_id": "300c655396bbadb926a92decba019cc5", "fusion_lat": 0.0, "is_disabled": 0, "rental_uris": {"ios": "https://dc.lft.to/lastmile_qr_scan", "android": "https://dc.lft.to/lastmile_qr_scan"}}, {"name": "e75839dd034a92d75dd9579cf5033ae7", "lon": -77.032741, "lat": 38.927482833333336, "type": "electric_scooter", "fusion_lon": 0.0, "is_reserved": 0, "bike_id": "e75839dd034a92d75dd9579cf5033ae7", "fusion_lat": 0.0, "is_disabled": 0, "rental_uris": {"ios": "https://dc.lft.to/lastmile_qr_scan", "android": "https://dc.lft.to/lastmile_qr_scan"}}, {"name": "5ccf9a2c9812cfd80de18e4950b9fd67", "lon": -77.03207833333333, "lat": 38.915682333333336, "type": "electric_scooter", "fusion_lon": 0.0, "is_reserved": 0, "bike_id": "5ccf9a2c9812cfd80de18e4950b9fd67", "fusion_lat": 0.0, "is_disabled": 0, "rental_uris": {"ios": "https://dc.lft.to/lastmile_qr_scan", "android": "https://dc.lft.to/lastmile_qr_scan"}}, {"name": "796c62adf4659a265b41e0d92930d2b7", "lon": -77.015283, "lat": 38.8866665, "type": "electric_scooter", "fusion_lon": 0.0, "is_reserved": 0, "bike_id": "796c62adf4659a265b41e0d92930d2b7", "fusion_lat": 0.0, "is_disabled": 0, "rental_uris": {"ios": "https://dc.lft.to/lastmile_qr_scan", "android": "https://dc.lft.to/lastmile_qr_scan"}}, {"name": "c9e82b24b5e3a59ca731b7f2c5f3ea0f", "lon": -76.98652, "lat": 38.900156833333334, "type": "electric_scooter", "fusion_lon": 0.0, "is_reserved": 0, "bike_id": "c9e82b24b5e3a59ca731b7f2c5f3ea0f", "fusion_lat": 0.0, "is_disabled": 0, "rental_uris": {"ios": "https://dc.lft.to/lastmile_qr_scan", "android": "https://dc.lft.to/lastmile_qr_scan"}}, {"name": "23bc226768d8e8c014517ac119e9ba67", "lon": -77.023832, "lat": 38.908442666666666, "type": "electric_scooter", "fusion_lon": 0.0, "is_reserved": 0, "bike_id": "23bc226768d8e8c014517ac119e9ba67", "fusion_lat": 0.0, "is_disabled": 0, "rental_uris": {"ios": "https://dc.lft.to/lastmile_qr_scan", "android": "https://dc.lft.to/lastmile_qr_scan"}}, {"name": "bce305c75c43b21f7ebfa86c7a9bb155", "lon": -77.03084016666666, "lat": 38.9043485, "type": "electric_scooter", "fusion_lon": 0.0, "is_reserved": 0, "bike_id": "bce305c75c43b21f7ebfa86c7a9bb155", "fusion_lat": 0.0, "is_disabled": 0, "rental_uris": {"ios": "https://dc.lft.to/lastmile_qr_scan", "android": "https://dc.lft.to/lastmile_qr_scan"}}, {"name": "2a3a31198cfa264529b107833a0a14e9", "lon": -77.0321275, "lat": 38.90760266666667, "type": "electric_scooter", "fusion_lon": 0.0, "is_reserved": 0, "bike_id": "2a3a31198cfa264529b107833a0a14e9", "fusion_lat": 0.0, "is_disabled": 0, "rental_uris": {"ios": "https://dc.lft.to/lastmile_qr_scan", "android": "https://dc.lft.to/lastmile_qr_scan"}}, {"name": "b7eec7fcfeb799a31f96dfaaa64a9768", "lon": -76.99870233333333, "lat": 38.9003055, "type": "electric_scooter", "fusion_lon": 0.0, "is_reserved": 0, "bike_id": "b7eec7fcfeb799a31f96dfaaa64a9768", "fusion_lat": 0.0, "is_disabled": 0, "rental_uris": {"ios": "https://dc.lft.to/lastmile_qr_scan", "android": "https://dc.lft.to/lastmile_qr_scan"}}, {"name": "b3879cdf7357e84d2778d9ccf22b6a8e", "lon": -76.98555733333333, "lat": 38.89943266666667, "type": "electric_scooter", "fusion_lon": 0.0, "is_reserved": 0, "bike_id": "b3879cdf7357e84d2778d9ccf22b6a8e", "fusion_lat": 0.0, "is_disabled": 0, "rental_uris": {"ios": "https://dc.lft.to/lastmile_qr_scan", "android": "https://dc.lft.to/lastmile_qr_scan"}}, {"name": "bdc5a7788fcc3693de1564bfc90abf6e", "lon": -77.02439666666666, "lat": 38.9028005, "type": "electric_scooter", "fusion_lon": 0.0, "is_reserved": 0, "bike_id": "bdc5a7788fcc3693de1564bfc90abf6e", "fusion_lat": 0.0, "is_disabled": 0, "rental_uris": {"ios": "https://dc.lft.to/lastmile_qr_scan", "android": "https://dc.lft.to/lastmile_qr_scan"}}, {"name": "3dab4b941f90c14b033ded3c3cc14b75", "lon": -77.03252533333334, "lat": 38.9059125, "type": "electric_scooter", "fusion_lon": 0.0, "is_reserved": 0, "bike_id": "3dab4b941f90c14b033ded3c3cc14b75", "fusion_lat": 0.0, "is_disabled": 0, "rental_uris": {"ios": "https://dc.lft.to/lastmile_qr_scan", "android": "https://dc.lft.to/lastmile_qr_scan"}}, {"name": "ff89fb762219050511a438bcc5886655", "lon": -77.03208416666666, "lat": 38.895917, "type": "electric_scooter", "fusion_lon": 0.0, "is_reserved": 0, "bike_id": "ff89fb762219050511a438bcc5886655", "fusion_lat": 0.0, "is_disabled": 0, "rental_uris": {"ios": "https://dc.lft.to/lastmile_qr_scan", "android": "https://dc.lft.to/lastmile_qr_scan"}}, {"name": "9a2cde284d0bcd25d64e2a48af4acba6", "lon": -77.05856366666667, "lat": 38.9360825, "type": "electric_scooter", "fusion_lon": 0.0, "is_reserved": 0, "bike_id": "9a2cde284d0bcd25d64e2a48af4acba6", "fusion_lat": 0.0, "is_disabled": 0, "rental_uris": {"ios": "https://dc.lft.to/lastmile_qr_scan", "android": "https://dc.lft.to/lastmile_qr_scan"}}, {"name": "c4065edd1b0544454c271410b7c17c95", "lon": -77.01284933333334, "lat": 38.900869666666665, "type": "electric_scooter", "fusion_lon": 0.0, "is_reserved": 0, "bike_id": "c4065edd1b0544454c271410b7c17c95", "fusion_lat": 0.0, "is_disabled": 0, "rental_uris": {"ios": "https://dc.lft.to/lastmile_qr_scan", "android": "https://dc.lft.to/lastmile_qr_scan"}}, {"name": "eaeb91fc8b2bd67825e10c37914ebc42", "lon": -77.00580433333333, "lat": 38.87530483333333, "type": "electric_scooter", "fusion_lon": 0.0, "is_reserved": 0, "bike_id": "eaeb91fc8b2bd67825e10c37914ebc42", "fusion_lat": 0.0, "is_disabled": 0, "rental_uris": {"ios": "https://dc.lft.to/lastmile_qr_scan", "android": "https://dc.lft.to/lastmile_qr_scan"}}, {"name": "27e3c12f1e09f4bae5ecf6ebb9976c4c", "lon": -76.99350966666667, "lat": 38.914815, "type": "electric_scooter", "fusion_lon": 0.0, "is_reserved": 0, "bike_id": "27e3c12f1e09f4bae5ecf6ebb9976c4c", "fusion_lat": 0.0, "is_disabled": 0, "rental_uris": {"ios": "https://dc.lft.to/lastmile_qr_scan", "android": "https://dc.lft.to/lastmile_qr_scan"}}, {"name": "00ec3214746da0e6ac2d18676bf08bdf", "lon": -77.03262733333334, "lat": 38.938787166666664, "type": "electric_scooter", "fusion_lon": 0.0, "is_reserved": 0, "bike_id": "00ec3214746da0e6ac2d18676bf08bdf", "fusion_lat": 0.0, "is_disabled": 0, "rental_uris": {"ios": "https://dc.lft.to/lastmile_qr_scan", "android": "https://dc.lft.to/lastmile_qr_scan"}}, {"name": "b8f4e0cc7218fbb240770a4b14005da7", "lon": -77.05252083333333, "lat": 38.923754833333334, "type": "electric_scooter", "fusion_lon": 0.0, "is_reserved": 0, "bike_id": "b8f4e0cc7218fbb240770a4b14005da7", "fusion_lat": 0.0, "is_disabled": 0, "rental_uris": {"ios": "https://dc.lft.to/lastmile_qr_scan", "android": "https://dc.lft.to/lastmile_qr_scan"}}, {"name": "5104a2a21712039c1ae738f3d9aa05a4", "lon": -77.04600533333333, "lat": 38.9192325, "type": "electric_scooter", "fusion_lon": 0.0, "is_reserved": 0, "bike_id": "5104a2a21712039c1ae738f3d9aa05a4", "fusion_lat": 0.0, "is_disabled": 0, "rental_uris": {"ios": "https://dc.lft.to/lastmile_qr_scan", "android": "https://dc.lft.to/lastmile_qr_scan"}}, {"name": "0add780d9fe225ac4633c21257cee350", "lon": -76.9810565, "lat": 38.87730783333333, "type": "electric_bike", "fusion_lon": 0.0, "is_reserved": 0, "bike_id": "0add780d9fe225ac4633c21257cee350", "fusion_lat": 0.0, "is_disabled": 0, "rental_uris": {"ios": "https://dc.lft.to/lastmile_qr_scan", "android": "https://dc.lft.to/lastmile_qr_scan"}}, {"name": "417880a9e7a609492e47804828bf2ea5", "lon": -77.041195, "lat": 38.916288333333334, "type": "electric_scooter", "fusion_lon": 0.0, "is_reserved": 0, "bike_id": "417880a9e7a609492e47804828bf2ea5", "fusion_lat": 0.0, "is_disabled": 0, "rental_uris": {"ios": "https://dc.lft.to/lastmile_qr_scan", "android": "https://dc.lft.to/lastmile_qr_scan"}}, {"name": "8c1ce8f21df60d1d7e866af3bf6745bc", "lon": -77.03705183333334, "lat": 38.9277425, "type": "electric_scooter", "fusion_lon": 0.0, "is_reserved": 0, "bike_id": "8c1ce8f21df60d1d7e866af3bf6745bc", "fusion_lat": 0.0, "is_disabled": 0, "rental_uris": {"ios": "https://dc.lft.to/lastmile_qr_scan", "android": "https://dc.lft.to/lastmile_qr_scan"}}, {"name": "0639ebc6fc300c7d20154e5c6c166961", "lon": -77.07580666666667, "lat": 38.938627, "type": "electric_scooter", "fusion_lon": 0.0, "is_reserved": 0, "bike_id": "0639ebc6fc300c7d20154e5c6c166961", "fusion_lat": 0.0, "is_disabled": 0, "rental_uris": {"ios": "https://dc.lft.to/lastmile_qr_scan", "android": "https://dc.lft.to/lastmile_qr_scan"}}, {"name": "b5f7e52537b097949fa133c5d83b5dba", "lon": -77.02721316666667, "lat": 38.94957, "type": "electric_scooter", "fusion_lon": 0.0, "is_reserved": 0, "bike_id": "b5f7e52537b097949fa133c5d83b5dba", "fusion_lat": 0.0, "is_disabled": 0, "rental_uris": {"ios": "https://dc.lft.to/lastmile_qr_scan", "android": "https://dc.lft.to/lastmile_qr_scan"}}, {"name": "7f4c37e1e0242f20d1e4956b5a2be503", "lon": -76.98894716666666, "lat": 38.904684, "type": "electric_scooter", "fusion_lon": 0.0, "is_reserved": 0, "bike_id": "7f4c37e1e0242f20d1e4956b5a2be503", "fusion_lat": 0.0, "is_disabled": 0, "rental_uris": {"ios": "https://dc.lft.to/lastmile_qr_scan", "android": "https://dc.lft.to/lastmile_qr_scan"}}, {"name": "fa19051b4b0098e82c405b08c4119743", "lon": -77.0159645, "lat": 38.949354166666666, "type": "electric_scooter", "fusion_lon": 0.0, "is_reserved": 0, "bike_id": "fa19051b4b0098e82c405b08c4119743", "fusion_lat": 0.0, "is_disabled": 0, "rental_uris": {"ios": "https://dc.lft.to/lastmile_qr_scan", "android": "https://dc.lft.to/lastmile_qr_scan"}}, {"name": "b85dd8d97585b96bb2d3490a97076bb7", "lon": -77.038414, "lat": 38.907228833333335, "type": "electric_scooter", "fusion_lon": 0.0, "is_reserved": 0, "bike_id": "b85dd8d97585b96bb2d3490a97076bb7", "fusion_lat": 0.0, "is_disabled": 0, "rental_uris": {"ios": "https://dc.lft.to/lastmile_qr_scan", "android": "https://dc.lft.to/lastmile_qr_scan"}}, {"name": "5ed1a926f1b1aab2e9c560ce58fbcfeb", "lon": -77.033323, "lat": 38.898342, "type": "electric_scooter", "fusion_lon": 0.0, "is_reserved": 0, "bike_id": "5ed1a926f1b1aab2e9c560ce58fbcfeb", "fusion_lat": 0.0, "is_disabled": 0, "rental_uris": {"ios": "https://dc.lft.to/lastmile_qr_scan", "android": "https://dc.lft.to/lastmile_qr_scan"}}, {"name": "a122b2b8fe2502a450a9cf481d7d79f9", "lon": -77.02329233333333, "lat": 38.926166, "type": "electric_scooter", "fusion_lon": 0.0, "is_reserved": 0, "bike_id": "a122b2b8fe2502a450a9cf481d7d79f9", "fusion_lat": 0.0, "is_disabled": 0, "rental_uris": {"ios": "https://dc.lft.to/lastmile_qr_scan", "android": "https://dc.lft.to/lastmile_qr_scan"}}, {"name": "ee16f7f0f7321bda9ef2bbf0531ff62b", "lon": -77.01742266666666, "lat": 38.882794833333335, "type": "electric_scooter", "fusion_lon": 0.0, "is_reserved": 0, "bike_id": "ee16f7f0f7321bda9ef2bbf0531ff62b", "fusion_lat": 0.0, "is_disabled": 0, "rental_uris": {"ios": "https://dc.lft.to/lastmile_qr_scan", "android": "https://dc.lft.to/lastmile_qr_scan"}}, {"name": "a6ed31cfa9ff8ca8bc291f53c8c35c1c", "lon": -77.06103383333334, "lat": 38.9370345, "type": "electric_scooter", "fusion_lon": 0.0, "is_reserved": 0, "bike_id": "a6ed31cfa9ff8ca8bc291f53c8c35c1c", "fusion_lat": 0.0, "is_disabled": 0, "rental_uris": {"ios": "https://dc.lft.to/lastmile_qr_scan", "android": "https://dc.lft.to/lastmile_qr_scan"}}, {"name": "d893e9777264fe607f9d21b418571625", "lon": -76.98476266666667, "lat": 38.910948166666664, "type": "electric_bike", "fusion_lon": 0.0, "is_reserved": 0, "bike_id": "d893e9777264fe607f9d21b418571625", "fusion_lat": 0.0, "is_disabled": 0, "rental_uris": {"ios": "https://dc.lft.to/lastmile_qr_scan", "android": "https://dc.lft.to/lastmile_qr_scan"}}, {"name": "07283cbfed4c44b82bb1def95cc8f96f", "lon": -76.988485, "lat": 38.90194116666667, "type": "electric_scooter", "fusion_lon": 0.0, "is_reserved": 0, "bike_id": "07283cbfed4c44b82bb1def95cc8f96f", "fusion_lat": 0.0, "is_disabled": 0, "rental_uris": {"ios": "https://dc.lft.to/lastmile_qr_scan", "android": "https://dc.lft.to/lastmile_qr_scan"}}, {"name": "3a3293ddd2866d13a45c4f1ccd11b72c", "lon": -77.04265083333334, "lat": 38.90560716666667, "type": "electric_scooter", "fusion_lon": 0.0, "is_reserved": 0, "bike_id": "3a3293ddd2866d13a45c4f1ccd11b72c", "fusion_lat": 0.0, "is_disabled": 0, "rental_uris": {"ios": "https://dc.lft.to/lastmile_qr_scan", "android": "https://dc.lft.to/lastmile_qr_scan"}}, {"name": "a8d16ef6d32b9085d41b34a15358acf2", "lon": -77.02598666666667, "lat": 38.916936, "type": "electric_scooter", "fusion_lon": 0.0, "is_reserved": 0, "bike_id": "a8d16ef6d32b9085d41b34a15358acf2", "fusion_lat": 0.0, "is_disabled": 0, "rental_uris": {"ios": "https://dc.lft.to/lastmile_qr_scan", "android": "https://dc.lft.to/lastmile_qr_scan"}}, {"name": "401e95f99de6693a1e25320717c34711", "lon": -77.02440066666666, "lat": 38.909713333333336, "type": "electric_scooter", "fusion_lon": 0.0, "is_reserved": 0, "bike_id": "401e95f99de6693a1e25320717c34711", "fusion_lat": 0.0, "is_disabled": 0, "rental_uris": {"ios": "https://dc.lft.to/lastmile_qr_scan", "android": "https://dc.lft.to/lastmile_qr_scan"}}, {"name": "829bdaa31e89a003b1c8395f085e7ed0", "lon": -77.03295, "lat": 38.92065433333333, "type": "electric_scooter", "fusion_lon": 0.0, "is_reserved": 0, "bike_id": "829bdaa31e89a003b1c8395f085e7ed0", "fusion_lat": 0.0, "is_disabled": 0, "rental_uris": {"ios": "https://dc.lft.to/lastmile_qr_scan", "android": "https://dc.lft.to/lastmile_qr_scan"}}, {"name": "4c857baf3467203fab64161e50065dd0", "lon": -77.03375516666667, "lat": 38.903815, "type": "electric_scooter", "fusion_lon": 0.0, "is_reserved": 0, "bike_id": "4c857baf3467203fab64161e50065dd0", "fusion_lat": 0.0, "is_disabled": 0, "rental_uris": {"ios": "https://dc.lft.to/lastmile_qr_scan", "android": "https://dc.lft.to/lastmile_qr_scan"}}, {"name": "b64d3ba80626ec02846b5ebdbd4f274c", "lon": -77.030456, "lat": 38.91329416666667, "type": "electric_scooter", "fusion_lon": 0.0, "is_reserved": 0, "bike_id": "b64d3ba80626ec02846b5ebdbd4f274c", "fusion_lat": 0.0, "is_disabled": 0, "rental_uris": {"ios": "https://dc.lft.to/lastmile_qr_scan", "android": "https://dc.lft.to/lastmile_qr_scan"}}, {"name": "133257ab745ea5898949e432302fa02c", "lon": -77.02453, "lat": 38.924070666666665, "type": "electric_scooter", "fusion_lon": 0.0, "is_reserved": 0, "bike_id": "133257ab745ea5898949e432302fa02c", "fusion_lat": 0.0, "is_disabled": 0, "rental_uris": {"ios": "https://dc.lft.to/lastmile_qr_scan", "android": "https://dc.lft.to/lastmile_qr_scan"}}, {"name": "42c5908cb9bb7c893a7bdda12b6d2f90", "lon": -76.9860415, "lat": 38.9062665, "type": "electric_bike", "fusion_lon": 0.0, "is_reserved": 0, "bike_id": "42c5908cb9bb7c893a7bdda12b6d2f90", "fusion_lat": 0.0, "is_disabled": 0, "rental_uris": {"ios": "https://dc.lft.to/lastmile_qr_scan", "android": "https://dc.lft.to/lastmile_qr_scan"}}, {"name": "b47c578e5d00b4a69bd03f10414cb7d4", "lon": -77.02774233333334, "lat": 38.93959666666667, "type": "electric_scooter", "fusion_lon": 0.0, "is_reserved": 0, "bike_id": "b47c578e5d00b4a69bd03f10414cb7d4", "fusion_lat": 0.0, "is_disabled": 0, "rental_uris": {"ios": "https://dc.lft.to/lastmile_qr_scan", "android": "https://dc.lft.to/lastmile_qr_scan"}}, {"name": "64f1557cf63b6d623464ecadc80974e9", "lon": -76.9827255, "lat": 38.88525083333333, "type": "electric_scooter", "fusion_lon": 0.0, "is_reserved": 0, "bike_id": "64f1557cf63b6d623464ecadc80974e9", "fusion_lat": 0.0, "is_disabled": 0, "rental_uris": {"ios": "https://dc.lft.to/lastmile_qr_scan", "android": "https://dc.lft.to/lastmile_qr_scan"}}, {"name": "b9caa748059739abfbf861385fcc2be7", "lon": -76.998419, "lat": 38.89080933333334, "type": "electric_scooter", "fusion_lon": 0.0, "is_reserved": 0, "bike_id": "b9caa748059739abfbf861385fcc2be7", "fusion_lat": 0.0, "is_disabled": 0, "rental_uris": {"ios": "https://dc.lft.to/lastmile_qr_scan", "android": "https://dc.lft.to/lastmile_qr_scan"}}, {"name": "9ca81acbec12905ec5f8c91c44a2c52b", "lon": -77.04565333333333, "lat": 38.94104, "type": "electric_scooter", "fusion_lon": 0.0, "is_reserved": 0, "bike_id": "9ca81acbec12905ec5f8c91c44a2c52b", "fusion_lat": 0.0, "is_disabled": 0, "rental_uris": {"ios": "https://dc.lft.to/lastmile_qr_scan", "android": "https://dc.lft.to/lastmile_qr_scan"}}, {"name": "f4947577deb6d4b49661fa3b7085455a", "lon": -77.046329, "lat": 38.919291666666666, "type": "electric_scooter", "fusion_lon": 0.0, "is_reserved": 0, "bike_id": "f4947577deb6d4b49661fa3b7085455a", "fusion_lat": 0.0, "is_disabled": 0, "rental_uris": {"ios": "https://dc.lft.to/lastmile_qr_scan", "android": "https://dc.lft.to/lastmile_qr_scan"}}, {"name": "7bd9f40158266905eb2ef6fc33c79c59", "lon": -77.04476116666666, "lat": 38.921444, "type": "electric_scooter", "fusion_lon": 0.0, "is_reserved": 0, "bike_id": "7bd9f40158266905eb2ef6fc33c79c59", "fusion_lat": 0.0, "is_disabled": 0, "rental_uris": {"ios": "https://dc.lft.to/lastmile_qr_scan", "android": "https://dc.lft.to/lastmile_qr_scan"}}, {"name": "ba511b839c75f73ae970bdffdb2baef0", "lon": -77.03631966666667, "lat": 38.924598, "type": "electric_scooter", "fusion_lon": 0.0, "is_reserved": 0, "bike_id": "ba511b839c75f73ae970bdffdb2baef0", "fusion_lat": 0.0, "is_disabled": 0, "rental_uris": {"ios": "https://dc.lft.to/lastmile_qr_scan", "android": "https://dc.lft.to/lastmile_qr_scan"}}, {"name": "4335b0bf3d4d2fe372327751d9f71794", "lon": -77.03239233333333, "lat": 38.91408633333333, "type": "electric_scooter", "fusion_lon": 0.0, "is_reserved": 0, "bike_id": "4335b0bf3d4d2fe372327751d9f71794", "fusion_lat": 0.0, "is_disabled": 0, "rental_uris": {"ios": "https://dc.lft.to/lastmile_qr_scan", "android": "https://dc.lft.to/lastmile_qr_scan"}}, {"name": "441711f7bb88cced4ec52f4e6fcb6350", "lon": -77.039646, "lat": 38.93146516666667, "type": "electric_scooter", "fusion_lon": 0.0, "is_reserved": 0, "bike_id": "441711f7bb88cced4ec52f4e6fcb6350", "fusion_lat": 0.0, "is_disabled": 0, "rental_uris": {"ios": "https://dc.lft.to/lastmile_qr_scan", "android": "https://dc.lft.to/lastmile_qr_scan"}}, {"name": "ed31ca745912ffa8b54e7c7888c33563", "lon": -76.99939416666666, "lat": 38.90568416666667, "type": "electric_scooter", "fusion_lon": 0.0, "is_reserved": 0, "bike_id": "ed31ca745912ffa8b54e7c7888c33563", "fusion_lat": 0.0, "is_disabled": 0, "rental_uris": {"ios": "https://dc.lft.to/lastmile_qr_scan", "android": "https://dc.lft.to/lastmile_qr_scan"}}, {"name": "975944752825883d17b3ae419a09625b", "lon": -77.01188583333334, "lat": 38.917075, "type": "electric_scooter", "fusion_lon": 0.0, "is_reserved": 0, "bike_id": "975944752825883d17b3ae419a09625b", "fusion_lat": 0.0, "is_disabled": 0, "rental_uris": {"ios": "https://dc.lft.to/lastmile_qr_scan", "android": "https://dc.lft.to/lastmile_qr_scan"}}, {"name": "a3cf0fbc1e02ec67b0b50a2f667fa973", "lon": -77.00744933333333, "lat": 38.870934166666665, "type": "electric_scooter", "fusion_lon": 0.0, "is_reserved": 0, "bike_id": "a3cf0fbc1e02ec67b0b50a2f667fa973", "fusion_lat": 0.0, "is_disabled": 0, "rental_uris": {"ios": "https://dc.lft.to/lastmile_qr_scan", "android": "https://dc.lft.to/lastmile_qr_scan"}}, {"name": "d14e938bc71ffd15aa56619e8a5ac512", "lon": -76.96493533333333, "lat": 38.875494, "type": "electric_bike", "fusion_lon": 0.0, "is_reserved": 0, "bike_id": "d14e938bc71ffd15aa56619e8a5ac512", "fusion_lat": 0.0, "is_disabled": 0, "rental_uris": {"ios": "https://dc.lft.to/lastmile_qr_scan", "android": "https://dc.lft.to/lastmile_qr_scan"}}, {"name": "1b9cc147d2d0c0a4d90182635514bdd9", "lon": -77.0269215, "lat": 38.91135633333333, "type": "electric_scooter", "fusion_lon": 0.0, "is_reserved": 0, "bike_id": "1b9cc147d2d0c0a4d90182635514bdd9", "fusion_lat": 0.0, "is_disabled": 0, "rental_uris": {"ios": "https://dc.lft.to/lastmile_qr_scan", "android": "https://dc.lft.to/lastmile_qr_scan"}}, {"name": "8b6f21e8f437c93b89cc44e4346779a5", "lon": -77.04197833333333, "lat": 38.918724, "type": "electric_scooter", "fusion_lon": 0.0, "is_reserved": 0, "bike_id": "8b6f21e8f437c93b89cc44e4346779a5", "fusion_lat": 0.0, "is_disabled": 0, "rental_uris": {"ios": "https://dc.lft.to/lastmile_qr_scan", "android": "https://dc.lft.to/lastmile_qr_scan"}}, {"name": "e8b310f38addd0b02b6f9b491712bbeb", "lon": -77.00439683333333, "lat": 38.87662483333333, "type": "electric_scooter", "fusion_lon": 0.0, "is_reserved": 0, "bike_id": "e8b310f38addd0b02b6f9b491712bbeb", "fusion_lat": 0.0, "is_disabled": 0, "rental_uris": {"ios": "https://dc.lft.to/lastmile_qr_scan", "android": "https://dc.lft.to/lastmile_qr_scan"}}, {"name": "01c9f53b1e01dbdeaa58d4c790cfe0a5", "lon": -77.03518016666666, "lat": 38.921542333333335, "type": "electric_scooter", "fusion_lon": 0.0, "is_reserved": 0, "bike_id": "01c9f53b1e01dbdeaa58d4c790cfe0a5", "fusion_lat": 0.0, "is_disabled": 0, "rental_uris": {"ios": "https://dc.lft.to/lastmile_qr_scan", "android": "https://dc.lft.to/lastmile_qr_scan"}}, {"name": "9182ae261cd235cba96f74e4cd50a537", "lon": -76.98765016666667, "lat": 38.85763133333333, "type": "electric_bike", "fusion_lon": 0.0, "is_reserved": 0, "bike_id": "9182ae261cd235cba96f74e4cd50a537", "fusion_lat": 0.0, "is_disabled": 0, "rental_uris": {"ios": "https://dc.lft.to/lastmile_qr_scan", "android": "https://dc.lft.to/lastmile_qr_scan"}}, {"name": "21ef36fdd20a9f89866b3a998aaed267", "lon": -77.0123005, "lat": 38.93106783333333, "type": "electric_scooter", "fusion_lon": 0.0, "is_reserved": 0, "bike_id": "21ef36fdd20a9f89866b3a998aaed267", "fusion_lat": 0.0, "is_disabled": 0, "rental_uris": {"ios": "https://dc.lft.to/lastmile_qr_scan", "android": "https://dc.lft.to/lastmile_qr_scan"}}, {"name": "8bd799875b2f0fc3a6a3aa767669f1ed", "lon": -76.9977565, "lat": 38.84429433333333, "type": "electric_scooter", "fusion_lon": 0.0, "is_reserved": 0, "bike_id": "8bd799875b2f0fc3a6a3aa767669f1ed", "fusion_lat": 0.0, "is_disabled": 0, "rental_uris": {"ios": "https://dc.lft.to/lastmile_qr_scan", "android": "https://dc.lft.to/lastmile_qr_scan"}}, {"name": "fab5c94c2ad0facce755e16884980c4c", "lon": -77.0209315, "lat": 38.921390833333334, "type": "electric_scooter", "fusion_lon": 0.0, "is_reserved": 0, "bike_id": "fab5c94c2ad0facce755e16884980c4c", "fusion_lat": 0.0, "is_disabled": 0, "rental_uris": {"ios": "https://dc.lft.to/lastmile_qr_scan", "android": "https://dc.lft.to/lastmile_qr_scan"}}, {"name": "21e351d3a7349895d801122b25319768", "lon": -76.94384116666667, "lat": 38.89322333333333, "type": "electric_scooter", "fusion_lon": 0.0, "is_reserved": 0, "bike_id": "21e351d3a7349895d801122b25319768", "fusion_lat": 0.0, "is_disabled": 0, "rental_uris": {"ios": "https://dc.lft.to/lastmile_qr_scan", "android": "https://dc.lft.to/lastmile_qr_scan"}}, {"name": "0054ecafea6eecd6c7bf042b44ed73bb", "lon": -77.07308483333334, "lat": 38.86485716666667, "type": "electric_bike", "fusion_lon": 0.0, "is_reserved": 0, "bike_id": "0054ecafea6eecd6c7bf042b44ed73bb", "fusion_lat": 0.0, "is_disabled": 0, "rental_uris": {"ios": "https://dc.lft.to/lastmile_qr_scan", "android": "https://dc.lft.to/lastmile_qr_scan"}}, {"name": "4cc6207e25589a932bf3b6085fb84dff", "lon": -77.03732433333333, "lat": 38.92918866666667, "type": "electric_scooter", "fusion_lon": 0.0, "is_reserved": 0, "bike_id": "4cc6207e25589a932bf3b6085fb84dff", "fusion_lat": 0.0, "is_disabled": 0, "rental_uris": {"ios": "https://dc.lft.to/lastmile_qr_scan", "android": "https://dc.lft.to/lastmile_qr_scan"}}, {"name": "067bde478237f31deebb5b2e06a246c2", "lon": -76.974489, "lat": 38.90443116666667, "type": "electric_scooter", "fusion_lon": 0.0, "is_reserved": 0, "bike_id": "067bde478237f31deebb5b2e06a246c2", "fusion_lat": 0.0, "is_disabled": 0, "rental_uris": {"ios": "https://dc.lft.to/lastmile_qr_scan", "android": "https://dc.lft.to/lastmile_qr_scan"}}, {"name": "24d6889037602ce32dd9bcd9d35fdbc6", "lon": -76.97825483333334, "lat": 38.84370283333333, "type": "electric_bike", "fusion_lon": 0.0, "is_reserved": 0, "bike_id": "24d6889037602ce32dd9bcd9d35fdbc6", "fusion_lat": 0.0, "is_disabled": 0, "rental_uris": {"ios": "https://dc.lft.to/lastmile_qr_scan", "android": "https://dc.lft.to/lastmile_qr_scan"}}, {"name": "7d01d96b570012ef8af9455cef101ecf", "lon": -76.94958166666666, "lat": 38.89435666666667, "type": "electric_scooter", "fusion_lon": 0.0, "is_reserved": 0, "bike_id": "7d01d96b570012ef8af9455cef101ecf", "fusion_lat": 0.0, "is_disabled": 0, "rental_uris": {"ios": "https://dc.lft.to/lastmile_qr_scan", "android": "https://dc.lft.to/lastmile_qr_scan"}}, {"name": "7ca218161cb8be6445dce55c3fb43a37", "lon": -76.93752883333333, "lat": 38.89044333333333, "type": "electric_scooter", "fusion_lon": 0.0, "is_reserved": 0, "bike_id": "7ca218161cb8be6445dce55c3fb43a37", "fusion_lat": 0.0, "is_disabled": 0, "rental_uris": {"ios": "https://dc.lft.to/lastmile_qr_scan", "android": "https://dc.lft.to/lastmile_qr_scan"}}, {"name": "d02d606e269ca8479721bce9a8c11df9", "lon": -77.03234266666666, "lat": 38.896716166666664, "type": "electric_scooter", "fusion_lon": 0.0, "is_reserved": 0, "bike_id": "d02d606e269ca8479721bce9a8c11df9", "fusion_lat": 0.0, "is_disabled": 0, "rental_uris": {"ios": "https://dc.lft.to/lastmile_qr_scan", "android": "https://dc.lft.to/lastmile_qr_scan"}}, {"name": "774880cb3eb5a9b77d5a44e6749f784c", "lon": -77.00793333333333, "lat": 38.90735033333333, "type": "electric_scooter", "fusion_lon": 0.0, "is_reserved": 0, "bike_id": "774880cb3eb5a9b77d5a44e6749f784c", "fusion_lat": 0.0, "is_disabled": 0, "rental_uris": {"ios": "https://dc.lft.to/lastmile_qr_scan", "android": "https://dc.lft.to/lastmile_qr_scan"}}, {"name": "687680a97348020b97df35a67451fd1b", "lon": -77.04337883333334, "lat": 38.917840166666664, "type": "electric_scooter", "fusion_lon": 0.0, "is_reserved": 0, "bike_id": "687680a97348020b97df35a67451fd1b", "fusion_lat": 0.0, "is_disabled": 0, "rental_uris": {"ios": "https://dc.lft.to/lastmile_qr_scan", "android": "https://dc.lft.to/lastmile_qr_scan"}}, {"name": "6835fe201b522a770399cc557ce7e9c7", "lon": -77.02187766666667, "lat": 38.9150565, "type": "electric_scooter", "fusion_lon": 0.0, "is_reserved": 0, "bike_id": "6835fe201b522a770399cc557ce7e9c7", "fusion_lat": 0.0, "is_disabled": 0, "rental_uris": {"ios": "https://dc.lft.to/lastmile_qr_scan", "android": "https://dc.lft.to/lastmile_qr_scan"}}, {"name": "8507ad56cb1bff45f51dba5d2a576ace", "lon": -77.03259266666667, "lat": 38.9372405, "type": "electric_scooter", "fusion_lon": 0.0, "is_reserved": 0, "bike_id": "8507ad56cb1bff45f51dba5d2a576ace", "fusion_lat": 0.0, "is_disabled": 0, "rental_uris": {"ios": "https://dc.lft.to/lastmile_qr_scan", "android": "https://dc.lft.to/lastmile_qr_scan"}}, {"name": "3bb93c0e0e81dc288623b10828d81ee2", "lon": -77.0332925, "lat": 38.958283333333334, "type": "electric_scooter", "fusion_lon": 0.0, "is_reserved": 0, "bike_id": "3bb93c0e0e81dc288623b10828d81ee2", "fusion_lat": 0.0, "is_disabled": 0, "rental_uris": {"ios": "https://dc.lft.to/lastmile_qr_scan", "android": "https://dc.lft.to/lastmile_qr_scan"}}, {"name": "124b61ccfeee22b1c86f63784211a117", "lon": -77.00196633333333, "lat": 38.90238733333333, "type": "electric_scooter", "fusion_lon": 0.0, "is_reserved": 0, "bike_id": "124b61ccfeee22b1c86f63784211a117", "fusion_lat": 0.0, "is_disabled": 0, "rental_uris": {"ios": "https://dc.lft.to/lastmile_qr_scan", "android": "https://dc.lft.to/lastmile_qr_scan"}}, {"name": "0d4f24191bf84c652fa080e490aef405", "lon": -76.98660766666667, "lat": 38.86726616666667, "type": "electric_scooter", "fusion_lon": 0.0, "is_reserved": 0, "bike_id": "0d4f24191bf84c652fa080e490aef405", "fusion_lat": 0.0, "is_disabled": 0, "rental_uris": {"ios": "https://dc.lft.to/lastmile_qr_scan", "android": "https://dc.lft.to/lastmile_qr_scan"}}, {"name": "9aa028842d332a458d870c7109f16e3d", "lon": -76.990095, "lat": 38.858821, "type": "electric_scooter", "fusion_lon": 0.0, "is_reserved": 0, "bike_id": "9aa028842d332a458d870c7109f16e3d", "fusion_lat": 0.0, "is_disabled": 0, "rental_uris": {"ios": "https://dc.lft.to/lastmile_qr_scan", "android": "https://dc.lft.to/lastmile_qr_scan"}}, {"name": "c559838b2d7611bb2eaa23d292f8f08f", "lon": -76.954753, "lat": 38.886335833333334, "type": "electric_scooter", "fusion_lon": 0.0, "is_reserved": 0, "bike_id": "c559838b2d7611bb2eaa23d292f8f08f", "fusion_lat": 0.0, "is_disabled": 0, "rental_uris": {"ios": "https://dc.lft.to/lastmile_qr_scan", "android": "https://dc.lft.to/lastmile_qr_scan"}}, {"name": "23b00b997230f360d05f7ce155505e97", "lon": -77.011706, "lat": 38.91562066666667, "type": "electric_scooter", "fusion_lon": 0.0, "is_reserved": 0, "bike_id": "23b00b997230f360d05f7ce155505e97", "fusion_lat": 0.0, "is_disabled": 0, "rental_uris": {"ios": "https://dc.lft.to/lastmile_qr_scan", "android": "https://dc.lft.to/lastmile_qr_scan"}}, {"name": "72d58d5b49be6de8ca2a5eeb6fb056da", "lon": -77.1830155, "lat": 38.89091916666667, "type": "electric_bike", "fusion_lon": 0.0, "is_reserved": 0, "bike_id": "72d58d5b49be6de8ca2a5eeb6fb056da", "fusion_lat": 0.0, "is_disabled": 0, "rental_uris": {"ios": "https://dc.lft.to/lastmile_qr_scan", "android": "https://dc.lft.to/lastmile_qr_scan"}}, {"name": "db41eb8d0e56e2f446056770096f7de6", "lon": -77.03650466666667, "lat": 38.916104833333335, "type": "electric_scooter", "fusion_lon": 0.0, "is_reserved": 0, "bike_id": "db41eb8d0e56e2f446056770096f7de6", "fusion_lat": 0.0, "is_disabled": 0, "rental_uris": {"ios": "https://dc.lft.to/lastmile_qr_scan", "android": "https://dc.lft.to/lastmile_qr_scan"}}, {"name": "8a3d3da95c9229e39ea886f372c42b0b", "lon": -76.98492466666667, "lat": 38.903899833333334, "type": "electric_scooter", "fusion_lon": 0.0, "is_reserved": 0, "bike_id": "8a3d3da95c9229e39ea886f372c42b0b", "fusion_lat": 0.0, "is_disabled": 0, "rental_uris": {"ios": "https://dc.lft.to/lastmile_qr_scan", "android": "https://dc.lft.to/lastmile_qr_scan"}}, {"name": "a9624e5b114a330220419c4b7503b23e", "lon": -77.04611133333333, "lat": 38.91677966666666, "type": "electric_scooter", "fusion_lon": 0.0, "is_reserved": 0, "bike_id": "a9624e5b114a330220419c4b7503b23e", "fusion_lat": 0.0, "is_disabled": 0, "rental_uris": {"ios": "https://dc.lft.to/lastmile_qr_scan", "android": "https://dc.lft.to/lastmile_qr_scan"}}, {"name": "f19353a1ab384f83c8cc55d074ced3d9", "lon": -77.0233055, "lat": 38.93602383333333, "type": "electric_scooter", "fusion_lon": 0.0, "is_reserved": 0, "bike_id": "f19353a1ab384f83c8cc55d074ced3d9", "fusion_lat": 0.0, "is_disabled": 0, "rental_uris": {"ios": "https://dc.lft.to/lastmile_qr_scan", "android": "https://dc.lft.to/lastmile_qr_scan"}}, {"name": "865d60ab3878822cc0cc75aabdbaa65f", "lon": -77.03660066666667, "lat": 38.922856833333334, "type": "electric_bike", "fusion_lon": 0.0, "is_reserved": 0, "bike_id": "865d60ab3878822cc0cc75aabdbaa65f", "fusion_lat": 0.0, "is_disabled": 0, "rental_uris": {"ios": "https://dc.lft.to/lastmile_qr_scan", "android": "https://dc.lft.to/lastmile_qr_scan"}}, {"name": "77c46060de2d1aa428ad581e3fd30992", "lon": -77.03418966666666, "lat": 38.919223833333334, "type": "electric_scooter", "fusion_lon": 0.0, "is_reserved": 0, "bike_id": "77c46060de2d1aa428ad581e3fd30992", "fusion_lat": 0.0, "is_disabled": 0, "rental_uris": {"ios": "https://dc.lft.to/lastmile_qr_scan", "android": "https://dc.lft.to/lastmile_qr_scan"}}, {"name": "6b6e22ceaf1bbd446942875008a50d5c", "lon": -76.93994716666667, "lat": 38.89978633333333, "type": "electric_scooter", "fusion_lon": 0.0, "is_reserved": 0, "bike_id": "6b6e22ceaf1bbd446942875008a50d5c", "fusion_lat": 0.0, "is_disabled": 0, "rental_uris": {"ios": "https://dc.lft.to/lastmile_qr_scan", "android": "https://dc.lft.to/lastmile_qr_scan"}}, {"name": "7ed59d103e7e66532b2da2dd693d4efa", "lon": -76.99727316666667, "lat": 38.90126866666667, "type": "electric_scooter", "fusion_lon": 0.0, "is_reserved": 0, "bike_id": "7ed59d103e7e66532b2da2dd693d4efa", "fusion_lat": 0.0, "is_disabled": 0, "rental_uris": {"ios": "https://dc.lft.to/lastmile_qr_scan", "android": "https://dc.lft.to/lastmile_qr_scan"}}, {"name": "cbf953a4e1dbdb9ddfcf34e96925da1f", "lon": -77.0629475, "lat": 38.90395816666667, "type": "electric_scooter", "fusion_lon": 0.0, "is_reserved": 0, "bike_id": "cbf953a4e1dbdb9ddfcf34e96925da1f", "fusion_lat": 0.0, "is_disabled": 0, "rental_uris": {"ios": "https://dc.lft.to/lastmile_qr_scan", "android": "https://dc.lft.to/lastmile_qr_scan"}}, {"name": "e952bfa00f7d0e711c8e5b4f97b88382", "lon": -76.98699866666666, "lat": 38.86254783333333, "type": "electric_scooter", "fusion_lon": 0.0, "is_reserved": 0, "bike_id": "e952bfa00f7d0e711c8e5b4f97b88382", "fusion_lat": 0.0, "is_disabled": 0, "rental_uris": {"ios": "https://dc.lft.to/lastmile_qr_scan", "android": "https://dc.lft.to/lastmile_qr_scan"}}, {"name": "73969421bd8bf7fc7149d0dd37b286d0", "lon": -77.027257, "lat": 38.934179, "type": "electric_scooter", "fusion_lon": 0.0, "is_reserved": 0, "bike_id": "73969421bd8bf7fc7149d0dd37b286d0", "fusion_lat": 0.0, "is_disabled": 0, "rental_uris": {"ios": "https://dc.lft.to/lastmile_qr_scan", "android": "https://dc.lft.to/lastmile_qr_scan"}}, {"name": "81f5cedf33a9a6b75225f415772c2971", "lon": -77.02640933333333, "lat": 38.89190933333333, "type": "electric_scooter", "fusion_lon": 0.0, "is_reserved": 0, "bike_id": "81f5cedf33a9a6b75225f415772c2971", "fusion_lat": 0.0, "is_disabled": 0, "rental_uris": {"ios": "https://dc.lft.to/lastmile_qr_scan", "android": "https://dc.lft.to/lastmile_qr_scan"}}, {"name": "9e98f08d8718c77ea8430e836d687327", "lon": -77.00842983333334, "lat": 38.912547333333336, "type": "electric_scooter", "fusion_lon": 0.0, "is_reserved": 0, "bike_id": "9e98f08d8718c77ea8430e836d687327", "fusion_lat": 0.0, "is_disabled": 0, "rental_uris": {"ios": "https://dc.lft.to/lastmile_qr_scan", "android": "https://dc.lft.to/lastmile_qr_scan"}}, {"name": "2c854f7bf48bbe8f743a009e5518e85e", "lon": -77.01439983333333, "lat": 38.91965316666667, "type": "electric_scooter", "fusion_lon": 0.0, "is_reserved": 0, "bike_id": "2c854f7bf48bbe8f743a009e5518e85e", "fusion_lat": 0.0, "is_disabled": 0, "rental_uris": {"ios": "https://dc.lft.to/lastmile_qr_scan", "android": "https://dc.lft.to/lastmile_qr_scan"}}, {"name": "e1244e5bd6307024edc9c4a6d447d768", "lon": -77.0327725, "lat": 38.936768666666666, "type": "electric_scooter", "fusion_lon": 0.0, "is_reserved": 0, "bike_id": "e1244e5bd6307024edc9c4a6d447d768", "fusion_lat": 0.0, "is_disabled": 0, "rental_uris": {"ios": "https://dc.lft.to/lastmile_qr_scan", "android": "https://dc.lft.to/lastmile_qr_scan"}}, {"name": "cd72112df3e8ab67732ff4dee8634427", "lon": -77.0276865, "lat": 38.954196833333334, "type": "electric_scooter", "fusion_lon": 0.0, "is_reserved": 0, "bike_id": "cd72112df3e8ab67732ff4dee8634427", "fusion_lat": 0.0, "is_disabled": 0, "rental_uris": {"ios": "https://dc.lft.to/lastmile_qr_scan", "android": "https://dc.lft.to/lastmile_qr_scan"}}, {"name": "2cf743589f074de3a8611b7bf359afd8", "lon": -77.053434, "lat": 38.92347316666667, "type": "electric_scooter", "fusion_lon": 0.0, "is_reserved": 0, "bike_id": "2cf743589f074de3a8611b7bf359afd8", "fusion_lat": 0.0, "is_disabled": 0, "rental_uris": {"ios": "https://dc.lft.to/lastmile_qr_scan", "android": "https://dc.lft.to/lastmile_qr_scan"}}, {"name": "15733040e038df7f0982ea91f8a92e95", "lon": -77.030653, "lat": 38.9224675, "type": "electric_scooter", "fusion_lon": 0.0, "is_reserved": 0, "bike_id": "15733040e038df7f0982ea91f8a92e95", "fusion_lat": 0.0, "is_disabled": 0, "rental_uris": {"ios": "https://dc.lft.to/lastmile_qr_scan", "android": "https://dc.lft.to/lastmile_qr_scan"}}, {"name": "d16126750fcf0b84fb490782f8131c74", "lon": -77.0220605, "lat": 38.901966, "type": "electric_scooter", "fusion_lon": 0.0, "is_reserved": 0, "bike_id": "d16126750fcf0b84fb490782f8131c74", "fusion_lat": 0.0, "is_disabled": 0, "rental_uris": {"ios": "https://dc.lft.to/lastmile_qr_scan", "android": "https://dc.lft.to/lastmile_qr_scan"}}, {"name": "35194f907d8ddc8a804b63c93150b5ec", "lon": -77.06327066666667, "lat": 38.9076055, "type": "electric_scooter", "fusion_lon": 0.0, "is_reserved": 0, "bike_id": "35194f907d8ddc8a804b63c93150b5ec", "fusion_lat": 0.0, "is_disabled": 0, "rental_uris": {"ios": "https://dc.lft.to/lastmile_qr_scan", "android": "https://dc.lft.to/lastmile_qr_scan"}}, {"name": "7be99c9b23840e95ba10cc10da51f54c", "lon": -77.03118083333334, "lat": 38.894768166666665, "type": "electric_scooter", "fusion_lon": 0.0, "is_reserved": 0, "bike_id": "7be99c9b23840e95ba10cc10da51f54c", "fusion_lat": 0.0, "is_disabled": 0, "rental_uris": {"ios": "https://dc.lft.to/lastmile_qr_scan", "android": "https://dc.lft.to/lastmile_qr_scan"}}, {"name": "57aa167aa5645ac58d65f97fda0b79c8", "lon": -77.01134183333333, "lat": 38.885257, "type": "electric_scooter", "fusion_lon": 0.0, "is_reserved": 0, "bike_id": "57aa167aa5645ac58d65f97fda0b79c8", "fusion_lat": 0.0, "is_disabled": 0, "rental_uris": {"ios": "https://dc.lft.to/lastmile_qr_scan", "android": "https://dc.lft.to/lastmile_qr_scan"}}, {"name": "0b8e076f57d217e7edd51d83473de2d7", "lon": -77.045082, "lat": 38.90374533333333, "type": "electric_scooter", "fusion_lon": 0.0, "is_reserved": 0, "bike_id": "0b8e076f57d217e7edd51d83473de2d7", "fusion_lat": 0.0, "is_disabled": 0, "rental_uris": {"ios": "https://dc.lft.to/lastmile_qr_scan", "android": "https://dc.lft.to/lastmile_qr_scan"}}, {"name": "8233990b98823c4294b50ba0d7f0a1e7", "lon": -77.02616666666667, "lat": 38.91712116666667, "type": "electric_scooter", "fusion_lon": 0.0, "is_reserved": 0, "bike_id": "8233990b98823c4294b50ba0d7f0a1e7", "fusion_lat": 0.0, "is_disabled": 0, "rental_uris": {"ios": "https://dc.lft.to/lastmile_qr_scan", "android": "https://dc.lft.to/lastmile_qr_scan"}}, {"name": "b32411ea3e4b1dc156ae879c1b21e73f", "lon": -76.99613266666667, "lat": 38.8848995, "type": "electric_scooter", "fusion_lon": 0.0, "is_reserved": 0, "bike_id": "b32411ea3e4b1dc156ae879c1b21e73f", "fusion_lat": 0.0, "is_disabled": 0, "rental_uris": {"ios": "https://dc.lft.to/lastmile_qr_scan", "android": "https://dc.lft.to/lastmile_qr_scan"}}, {"name": "e2113acaf8d6e92d7774f87da5b79076", "lon": -77.1176445, "lat": 39.049076666666664, "type": "electric_bike", "fusion_lon": 0.0, "is_reserved": 0, "bike_id": "e2113acaf8d6e92d7774f87da5b79076", "fusion_lat": 0.0, "is_disabled": 0, "rental_uris": {"ios": "https://dc.lft.to/lastmile_qr_scan", "android": "https://dc.lft.to/lastmile_qr_scan"}}, {"name": "c483cd44b8523aa7f48e2dfedf545aa8", "lon": -77.0485655, "lat": 38.90650933333333, "type": "electric_scooter", "fusion_lon": 0.0, "is_reserved": 0, "bike_id": "c483cd44b8523aa7f48e2dfedf545aa8", "fusion_lat": 0.0, "is_disabled": 0, "rental_uris": {"ios": "https://dc.lft.to/lastmile_qr_scan", "android": "https://dc.lft.to/lastmile_qr_scan"}}, {"name": "87c3c511d68f7979b387e22f5bced1a2", "lon": -77.0217265, "lat": 38.9429265, "type": "electric_scooter", "fusion_lon": 0.0, "is_reserved": 0, "bike_id": "87c3c511d68f7979b387e22f5bced1a2", "fusion_lat": 0.0, "is_disabled": 0, "rental_uris": {"ios": "https://dc.lft.to/lastmile_qr_scan", "android": "https://dc.lft.to/lastmile_qr_scan"}}, {"name": "2a98847e4ff76dd118ec6288b8f1190e", "lon": -77.131455, "lat": 38.861661833333336, "type": "electric_bike", "fusion_lon": 0.0, "is_reserved": 0, "bike_id": "2a98847e4ff76dd118ec6288b8f1190e", "fusion_lat": 0.0, "is_disabled": 0, "rental_uris": {"ios": "https://dc.lft.to/lastmile_qr_scan", "android": "https://dc.lft.to/lastmile_qr_scan"}}, {"name": "1585e95dc54de2f4bad198f593d57ef4", "lon": -77.01916783333333, "lat": 38.92361616666667, "type": "electric_scooter", "fusion_lon": 0.0, "is_reserved": 0, "bike_id": "1585e95dc54de2f4bad198f593d57ef4", "fusion_lat": 0.0, "is_disabled": 0, "rental_uris": {"ios": "https://dc.lft.to/lastmile_qr_scan", "android": "https://dc.lft.to/lastmile_qr_scan"}}, {"name": "c15f16863e782bc40d48febabc13cb1e", "lon": -77.0277635, "lat": 38.93958666666666, "type": "electric_bike", "fusion_lon": 0.0, "is_reserved": 0, "bike_id": "c15f16863e782bc40d48febabc13cb1e", "fusion_lat": 0.0, "is_disabled": 0, "rental_uris": {"ios": "https://dc.lft.to/lastmile_qr_scan", "android": "https://dc.lft.to/lastmile_qr_scan"}}, {"name": "9eba47990e9b3194839f60d75762b271", "lon": -77.05131616666667, "lat": 38.90374766666667, "type": "electric_scooter", "fusion_lon": 0.0, "is_reserved": 0, "bike_id": "9eba47990e9b3194839f60d75762b271", "fusion_lat": 0.0, "is_disabled": 0, "rental_uris": {"ios": "https://dc.lft.to/lastmile_qr_scan", "android": "https://dc.lft.to/lastmile_qr_scan"}}, {"name": "93915c9d4d77d7c1a2daace62318c468", "lon": -77.04903666666667, "lat": 38.905855333333335, "type": "electric_scooter", "fusion_lon": 0.0, "is_reserved": 0, "bike_id": "93915c9d4d77d7c1a2daace62318c468", "fusion_lat": 0.0, "is_disabled": 0, "rental_uris": {"ios": "https://dc.lft.to/lastmile_qr_scan", "android": "https://dc.lft.to/lastmile_qr_scan"}}, {"name": "a30a465bba1268e66b490dbf479b7e6e", "lon": -76.99912516666667, "lat": 38.924534333333334, "type": "electric_scooter", "fusion_lon": 0.0, "is_reserved": 0, "bike_id": "a30a465bba1268e66b490dbf479b7e6e", "fusion_lat": 0.0, "is_disabled": 0, "rental_uris": {"ios": "https://dc.lft.to/lastmile_qr_scan", "android": "https://dc.lft.to/lastmile_qr_scan"}},