{"data": {"bikes": [{"bike_id": "1e918b4a5f9b94a9c6fa6bade37562b5", "type": "electric_scooter", "is_disabled": 0, "lat": 38.9337305, "rental_uris": {"ios": "https://dc.lft.to/lastmile_qr_scan", "android": "https://dc.lft.to/lastmile_qr_scan"}, "is_reserved": 0, "fusion_lon": 0.0, "fusion_lat": 0.0, "lon": -77.05736133333333, "name": "1e918b4a5f9b94a9c6fa6bade37562b5"}, {"bike_id": "da93a5dd084ceb123ba4b4cea9f9374c", "type": "electric_scooter", "is_disabled": 0, "lat": 38.9081075, "rental_uris": {"ios": "https://dc.lft.to/lastmile_qr_scan", "android": "https://dc.lft.to/lastmile_qr_scan"}, "is_reserved": 0, "fusion_lon": 0.0, "fusion_lat": 0.0, "lon": -77.0636775, "name": "da93a5dd084ceb123ba4b4cea9f9374c"}, {"bike_id": "defc6bba5ba5e4abf8e14688b98cdc3e", "type": "electric_scooter", "is_disabled": 0, "lat": 38.92581533333333, "rental_uris": {"ios": "https://dc.lft.to/lastmile_qr_scan", "android": "https://dc.lft.to/lastmile_qr_scan"}, "is_reserved": 0, "fusion_lon": 0.0, "fusion_lat": 0.0, "lon": -77.03056983333333, "name": "defc6bba5ba5e4abf8e14688b98cdc3e"}, {"bike_id": "e3ccb7a423274ceff900ac9309c0ae75", "type": "electric_bike", "is_disabled": 0, "lat": 38.8089855, "rental_uris": {"ios": "https://dc.lft.to/lastmile_qr_scan", "android": "https://dc.lft.to/lastmile_qr_scan"}, "is_reserved": 0, "fusion_lon": 0.0, "fusion_lat": 0.0, "lon": -77.08664433333334, "name": "e3ccb7a423274ceff900ac9309c0ae75"}, {"bike_id": "6de279ac1d609d887bbfbb1f7610d89a", "type": "electric_scooter", "is_disabled": 0, "lat": 38.9068055, "rental_uris": {"ios": "https://dc.lft.to/lastmile_qr_scan", "android": "https://dc.lft.to/lastmile_qr_scan"}, "is_reserved": 0, "fusion_lon": 0.0, "fusion_lat": 0.0, "lon": -77.05334283333333, "name": "6de279ac1d609d887bbfbb1f7610d89a"}, {"bike_id": "8869a3a1f8a375ea61728961755d5076", "type": "electric_scooter", "is_disabled": 0, "lat": 38.92080266666667, "rental_uris": {"ios": "https://dc.lft.to/lastmile_qr_scan", "android": "https://dc.lft.to/lastmile_qr_scan"}, "is_reserved": 0, "fusion_lon": 0.0, "fusion_lat": 0.0, "lon": -77.02539833333333, "name": "8869a3a1f8a375ea61728961755d5076"}, {"bike_id": "50b428c5e5ca9e9b8dd60099197f9928", "type": "electric_scooter", "is_disabled": 0, "lat": 38.9241885, "rental_uris": {"ios": "https://dc.lft.to/lastmile_qr_scan", "android": "https://dc.lft.to/lastmile_qr_scan"}, "is_reserved": 0, "fusion_lon": 0.0, "fusion_lat": 0.0, "lon": -77.02973283333333, "name": "50b428c5e5ca9e9b8dd60099197f9928"}, {"bike_id": "f9e0b8fa09c7a4ecfe40af1a5c9235b9", "type": "electric_scooter", "is_disabled": 0, "lat": 38.9050005, "rental_uris": {"ios": "https://dc.lft.to/lastmile_qr_scan", "android": "https://dc.lft.to/lastmile_qr_scan"}, "is_reserved": 0, "fusion_lon": 0.0, "fusion_lat": 0.0, "lon": -77.028096, "name": "f9e0b8fa09c7a4ecfe40af1a5c9235b9"}, {"bike_id": "055e73a702b4731a0a82dab15cdfb79b", "type": "electric_scooter", "is_disabled": 0, "lat": 38.91676366666667, "rental_uris": {"ios": "https://dc.lft.to/lastmile_qr_scan", "android": "https://dc.lft.to/lastmile_qr_scan"}, "is_reserved": 0, "fusion_lon": 0.0, "fusion_lat": 0.0, "lon": -77.029767, "name": "055e73a702b4731a0a82dab15cdfb79b"}, {"bike_id": "83b87190929a5dd39af052c8aefeec52", "type": "electric_scooter", "is_disabled": 0, "lat": 38.902798833333335, "rental_uris": {"ios": "https://dc.lft.to/lastmile_qr_scan", "android": "https://dc.lft.to/lastmile_qr_scan"}, "is_reserved": 0, "fusion_lon": 0.0, "fusion_lat": 0.0, "lon": -77.00340316666667, "name": "83b87190929a5dd39af052c8aefeec52"}, {"bike_id": "5e743055129f5153a14ab4212c573fdc", "type": "electric_scooter", "is_disabled": 0, "lat": 38.898841, "rental_uris": {"ios": "https://dc.lft.to/lastmile_qr_scan", "android": "https://dc.lft.to/lastmile_qr_scan"}, "is_reserved": 0, "fusion_lon": 0.0, "fusion_lat": 0.0, "lon": -76.93179033333334, "name": "5e743055129f5153a14ab4212c573fdc"}, {"bike_id": "af9a0a79fa22f54c32aaca184a735ea9", "type": "electric_scooter", "is_disabled": 0, "lat": 38.907162166666666, "rental_uris": {"ios": "https://dc.lft.to/lastmile_qr_scan", "android": "https://dc.lft.to/lastmile_qr_scan"}, "is_reserved": 0, "fusion_lon": 0.0, "fusion_lat": 0.0, "lon": -77.044937, "name": "af9a0a79fa22f54c32aaca184a735ea9"}, {"bike_id": "906131878249ca15c1b7b9e4f09a41c5", "type": "electric_scooter", "is_disabled": 0, "lat": 38.91576666666667, "rental_uris": {"ios": "https://dc.lft.to/lastmile_qr_scan", "android": "https://dc.lft.to/lastmile_qr_scan"}, "is_reserved": 0, "fusion_lon": 0.0, "fusion_lat": 0.0, "lon": -77.0206275, "name": "906131878249ca15c1b7b9e4f09a41c5"}, {"bike_id": "cb9a8a936b5b523029983845ab90e00c", "type": "electric_scooter", "is_disabled": 0, "lat": 38.892279333333335, "rental_uris": {"ios": "https://dc.lft.to/lastmile_qr_scan", "android": "https://dc.lft.to/lastmile_qr_scan"}, "is_reserved": 0, "fusion_lon": 0.0, "fusion_lat": 0.0, "lon": -77.0500215, "name": "cb9a8a936b5b523029983845ab90e00c"}, {"bike_id": "b84f63e40e5dc48aef26ec24dd28fa46", "type": "electric_scooter", "is_disabled": 0, "lat": 38.90844283333333, "rental_uris": {"ios": "https://dc.lft.to/lastmile_qr_scan", "android": "https://dc.lft.to/lastmile_qr_scan"}, "is_reserved": 0, "fusion_lon": 0.0, "fusion_lat": 0.0, "lon": -76.99952083333334, "name": "b84f63e40e5dc48aef26ec24dd28fa46"}, {"bike_id": "e60f3168354cd7a3eaa3bca1e8ea62ac", "type": "electric_bike", "is_disabled": 0, "lat": 38.86260866666667, "rental_uris": {"ios": "https://dc.lft.to/lastmile_qr_scan", "android": "https://dc.lft.to/lastmile_qr_scan"}, "is_reserved": 0, "fusion_lon": 0.0, "fusion_lat": 0.0, "lon": -76.98351683333334, "name": "e60f3168354cd7a3eaa3bca1e8ea62ac"}, {"bike_id": "bc43a1463d5504dff0cb25412c7cee22", "type": "electric_scooter", "is_disabled": 0, "lat": 38.9324865, "rental_uris": {"ios": "https://dc.lft.to/lastmile_qr_scan", "android": "https://dc.lft.to/lastmile_qr_scan"}, "is_reserved": 0, "fusion_lon": 0.0, "fusion_lat": 0.0, "lon": -77.0327165, "name": "bc43a1463d5504dff0cb25412c7cee22"}, {"bike_id": "4342524bc1e38203f7ba0dccec746e69", "type": "electric_scooter", "is_disabled": 0, "lat": 38.90074666666667, "rental_uris": {"ios": "https://dc.lft.to/lastmile_qr_scan", "android": "https://dc.lft.to/lastmile_qr_scan"}, "is_reserved": 0, "fusion_lon": 0.0, "fusion_lat": 0.0, "lon": -77.0129115, "name": "4342524bc1e38203f7ba0dccec746e69"}, {"bike_id": "8eb09d416a0ddc6c27b90db117f13f52", "type": "electric_scooter", "is_disabled": 0, "lat": 38.91766533333333, "rental_uris": {"ios": "https://dc.lft.to/lastmile_qr_scan", "android": "https://dc.lft.to/lastmile_qr_scan"}, "is_reserved": 0, "fusion_lon": 0.0, "fusion_lat": 0.0, "lon": -77.04767583333333, "name": "8eb09d416a0ddc6c27b90db117f13f52"}, {"bike_id": "990a856c91308c253c711335bc88d4bb", "type": "electric_scooter", "is_disabled": 0, "lat": 38.916091333333334, "rental_uris": {"ios": "https://dc.lft.to/lastmile_qr_scan", "android": "https://dc.lft.to/lastmile_qr_scan"}, "is_reserved": 0, "fusion_lon": 0.0, "fusion_lat": 0.0, "lon": -77.02170466666666, "name": "990a856c91308c253c711335bc88d4bb"}, {"bike_id": "0e74b79d36e841658697a91e60fd6291", "type": "electric_scooter", "is_disabled": 0, "lat": 38.913525666666665, "rental_uris": {"ios": "https://dc.lft.to/lastmile_qr_scan", "android": "https://dc.lft.to/lastmile_qr_scan"}, "is_reserved": 0, "fusion_lon": 0.0, "fusion_lat": 0.0, "lon": -77.025741, "name": "0e74b79d36e841658697a91e60fd6291"}, {"bike_id": "6b8ff3068b113d4908c8cf9e5ebcfdf7", "type": "electric_scooter", "is_disabled": 0, "lat": 38.90150333333333, "rental_uris": {"ios": "https://dc.lft.to/lastmile_qr_scan", "android": "https://dc.lft.to/lastmile_qr_scan"}, "is_reserved": 0, "fusion_lon": 0.0, "fusion_lat": 0.0, "lon": -77.0219445, "name": "6b8ff3068b113d4908c8cf9e5ebcfdf7"}, {"bike_id": "6971e77c5d3acf1649913f97ae69b9e9", "type": "electric_scooter", "is_disabled": 0, "lat": 38.91484066666666, "rental_uris": {"ios": "https://dc.lft.to/lastmile_qr_scan", "android": "https://dc.lft.to/lastmile_qr_scan"}, "is_reserved": 0, "fusion_lon": 0.0, "fusion_lat": 0.0, "lon": -77.04564316666666, "name": "6971e77c5d3acf1649913f97ae69b9e9"}, {"bike_id": "5f6996af63659b4d7a5fb47ec16423f5", "type": "electric_scooter", "is_disabled": 0, "lat": 38.907420333333334, "rental_uris": {"ios": "https://dc.lft.to/lastmile_qr_scan", "android": "https://dc.lft.to/lastmile_qr_scan"}, "is_reserved": 0, "fusion_lon": 0.0, "fusion_lat": 0.0, "lon": -77.00083466666666, "name": "5f6996af63659b4d7a5fb47ec16423f5"}, {"bike_id": "dcb67641f823ee7fc49ee23a72896f9b", "type": "electric_scooter", "is_disabled": 0, "lat": 38.866819, "rental_uris": {"ios": "https://dc.lft.to/lastmile_qr_scan", "android": "https://dc.lft.to/lastmile_qr_scan"}, "is_reserved": 0, "fusion_lon": 0.0, "fusion_lat": 0.0, "lon": -76.985778, "name": "dcb67641f823ee7fc49ee23a72896f9b"}, {"bike_id": "20fe038dfc02699734efd29b402c97be", "type": "electric_scooter", "is_disabled": 0, "lat": 38.9107105, "rental_uris": {"ios": "https://dc.lft.to/lastmile_qr_scan", "android": "https://dc.lft.to/lastmile_qr_scan"}, "is_reserved": 0, "fusion_lon": 0.0, "fusion_lat": 0.0, "lon": -77.03853083333334, "name": "20fe038dfc02699734efd29b402c97be"}, {"bike_id": "59ec7d83ab37dae482cf360c130aafd2", "type": "electric_scooter", "is_disabled": 0, "lat": 38.9247365, "rental_uris": {"ios": "https://dc.lft.to/lastmile_qr_scan", "android": "https://dc.lft.to/lastmile_qr_scan"}, "is_reserved": 0, "fusion_lon": 0.0, "fusion_lat": 0.0, "lon": -77.0520895, "name": "59ec7d83ab37dae482cf360c130aafd2"}, {"bike_id": "b2765c624dea0790016ca43a69f605ad", "type": "electric_scooter", "is_disabled": 0, "lat": 38.916941333333334, "rental_uris": {"ios": "https://dc.lft.to/lastmile_qr_scan", "android": "https://dc.lft.to/lastmile_qr_scan"}, "is_reserved": 0, "fusion_lon": 0.0, "fusion_lat": 0.0, "lon": -77.03157983333334, "name": "b2765c624dea0790016ca43a69f605ad"}, {"bike_id": "23df3e45c54173a57826988f44d6279c", "type": "electric_scooter", "is_disabled": 0, "lat": 38.87382133333333, "rental_uris": {"ios": "https://dc.lft.to/lastmile_qr_scan", "android": "https://dc.lft.to/lastmile_qr_scan"}, "is_reserved": 0, "fusion_lon": 0.0, "fusion_lat": 0.0, "lon": -77.04343183333333, "name": "23df3e45c54173a57826988f44d6279c"}, {"bike_id": "2dacc882be70ded0aaa4b013f43bcf36", "type": "electric_scooter", "is_disabled": 0, "lat": 38.900331666666666, "rental_uris": {"ios": "https://dc.lft.to/lastmile_qr_scan", "android": "https://dc.lft.to/lastmile_qr_scan"}, "is_reserved": 0, "fusion_lon": 0.0, "fusion_lat": 0.0, "lon": -77.0366025, "name": "2dacc882be70ded0aaa4b013f43bcf36"}, {"bike_id": "46ce384a283b07671fd625e7a078cfee", "type": "electric_scooter", "is_disabled": 0, "lat": 38.9072535, "rental_uris": {"ios": "https://dc.lft.to/lastmile_qr_scan", "android": "https://dc.lft.to/lastmile_qr_scan"}, "is_reserved": 0, "fusion_lon": 0.0, "fusion_lat": 0.0, "lon": -77.03209383333333, "name": "46ce384a283b07671fd625e7a078cfee"}, {"bike_id": "ac0a0a4ff6ab67d18e258b38f7e3048e", "type": "electric_scooter", "is_disabled": 0, "lat": 38.884898166666666, "rental_uris": {"ios": "https://dc.lft.to/lastmile_qr_scan", "android": "https://dc.lft.to/lastmile_qr_scan"}, "is_reserved": 0, "fusion_lon": 0.0, "fusion_lat": 0.0, "lon": -77.01585383333334, "name": "ac0a0a4ff6ab67d18e258b38f7e3048e"}, {"bike_id": "f40f38614a8374c0e87709957b94fc01", "type": "electric_scooter", "is_disabled": 0, "lat": 38.924655, "rental_uris": {"ios": "https://dc.lft.to/lastmile_qr_scan", "android": "https://dc.lft.to/lastmile_qr_scan"}, "is_reserved": 0, "fusion_lon": 0.0, "fusion_lat": 0.0, "lon": -77.02837883333333, "name": "f40f38614a8374c0e87709957b94fc01"}, {"bike_id": "ce9ae28b16273bc337a2a8db1fcf387a", "type": "electric_scooter", "is_disabled": 0, "lat": 38.91920983333333, "rental_uris": {"ios": "https://dc.lft.to/lastmile_qr_scan", "android": "https://dc.lft.to/lastmile_qr_scan"}, "is_reserved": 0, "fusion_lon": 0.0, "fusion_lat": 0.0, "lon": -77.04245416666667, "name": "ce9ae28b16273bc337a2a8db1fcf387a"}, {"bike_id": "5f89a5cdc76b78c97ceaa9e1aea79adb", "type": "electric_scooter", "is_disabled": 0, "lat": 38.898399833333336, "rental_uris": {"ios": "https://dc.lft.to/lastmile_qr_scan", "android": "https://dc.lft.to/lastmile_qr_scan"}, "is_reserved": 0, "fusion_lon": 0.0, "fusion_lat": 0.0, "lon": -76.946357, "name": "5f89a5cdc76b78c97ceaa9e1aea79adb"}, {"bike_id": "43c8c532516719e9ad951fad42c36d6a", "type": "electric_scooter", "is_disabled": 0, "lat": 38.903478666666665, "rental_uris": {"ios": "https://dc.lft.to/lastmile_qr_scan", "android": "https://dc.lft.to/lastmile_qr_scan"}, "is_reserved": 0, "fusion_lon": 0.0, "fusion_lat": 0.0, "lon": -77.06022516666667, "name": "43c8c532516719e9ad951fad42c36d6a"}, {"bike_id": "aca652ff5554131fce6399ce7713722d", "type": "electric_scooter", "is_disabled": 0, "lat": 38.914179, "rental_uris": {"ios": "https://dc.lft.to/lastmile_qr_scan", "android": "https://dc.lft.to/lastmile_qr_scan"}, "is_reserved": 0, "fusion_lon": 0.0, "fusion_lat": 0.0, "lon": -77.0218535, "name": "aca652ff5554131fce6399ce7713722d"}, {"bike_id": "ebefd9a859a56fb0890ee46575473c91", "type": "electric_scooter", "is_disabled": 0, "lat": 38.8636815, "rental_uris": {"ios": "https://dc.lft.to/lastmile_qr_scan", "android": "https://dc.lft.to/lastmile_qr_scan"}, "is_reserved": 0, "fusion_lon": 0.0, "fusion_lat": 0.0, "lon": -76.99062433333333, "name": "ebefd9a859a56fb0890ee46575473c91"}, {"bike_id": "afc1023498c261ba23739b3c91492529", "type": "electric_scooter", "is_disabled": 0, "lat": 38.866872666666666, "rental_uris": {"ios": "https://dc.lft.to/lastmile_qr_scan", "android": "https://dc.lft.to/lastmile_qr_scan"}, "is_reserved": 0, "fusion_lon": 0.0, "fusion_lat": 0.0, "lon": -76.98558133333333, "name": "afc1023498c261ba23739b3c91492529"}, {"bike_id": "6dc1bd77085a97d33a84c1582f1d6553", "type": "electric_scooter", "is_disabled": 0, "lat": 38.87864716666667, "rental_uris": {"ios": "https://dc.lft.to/lastmile_qr_scan", "android": "https://dc.lft.to/lastmile_qr_scan"}, "is_reserved": 0, "fusion_lon": 0.0, "fusion_lat": 0.0, "lon": -77.00590633333333, "name": "6dc1bd77085a97d33a84c1582f1d6553"}, {"bike_id": "1137bfd04a26eb9bc8c4f59e58e9a922", "type": "electric_scooter", "is_disabled": 0, "lat": 38.87925383333334, "rental_uris": {"ios": "https://dc.lft.to/lastmile_qr_scan", "android": "https://dc.lft.to/lastmile_qr_scan"}, "is_reserved": 0, "fusion_lon": 0.0, "fusion_lat": 0.0, "lon": -77.02348683333334, "name": "1137bfd04a26eb9bc8c4f59e58e9a922"}, {"bike_id": "90f94adecbb3190ae664ff9496258369", "type": "electric_scooter", "is_disabled": 0, "lat": 38.9212295, "rental_uris": {"ios": "https://dc.lft.to/lastmile_qr_scan", "android": "https://dc.lft.to/lastmile_qr_scan"}, "is_reserved": 0, "fusion_lon": 0.0, "fusion_lat": 0.0, "lon": -77.04135316666667, "name": "90f94adecbb3190ae664ff9496258369"}, {"bike_id": "8d9d709ae30334acba93523ceb9d9c4d", "type": "electric_scooter", "is_disabled": 0, "lat": 38.93476416666667, "rental_uris": {"ios": "https://dc.lft.to/lastmile_qr_scan", "android": "https://dc.lft.to/lastmile_qr_scan"}, "is_reserved": 0, "fusion_lon": 0.0, "fusion_lat": 0.0, "lon": -77.0728075, "name": "8d9d709ae30334acba93523ceb9d9c4d"}, {"bike_id": "c03538c2dc7c024366a35809a4d0a929", "type": "electric_bike", "is_disabled": 0, "lat": 38.9086355, "rental_uris": {"ios": "https://dc.lft.to/lastmile_qr_scan", "android": "https://dc.lft.to/lastmile_qr_scan"}, "is_reserved": 0, "fusion_lon": 0.0, "fusion_lat": 0.0, "lon": -76.9913275, "name": "c03538c2dc7c024366a35809a4d0a929"}, {"bike_id": "dd52c0cbbe6175f793452897b35d3f3d", "type": "electric_scooter", "is_disabled": 0, "lat": 38.9124685, "rental_uris": {"ios": "https://dc.lft.to/lastmile_qr_scan", "android": "https://dc.lft.to/lastmile_qr_scan"}, "is_reserved": 0, "fusion_lon": 0.0, "fusion_lat": 0.0, "lon": -77.00920033333334, "name": "dd52c0cbbe6175f793452897b35d3f3d"}, {"bike_id": "6484e6a792811bcc34647eb66367e332", "type": "electric_scooter", "is_disabled": 0, "lat": 38.898491666666665, "rental_uris": {"ios": "https://dc.lft.to/lastmile_qr_scan", "android": "https://dc.lft.to/lastmile_qr_scan"}, "is_reserved": 0, "fusion_lon": 0.0, "fusion_lat": 0.0, "lon": -77.02222383333333, "name": "6484e6a792811bcc34647eb66367e332"}, {"bike_id": "f52617a572eee01f281d9fd4c11a1b62", "type": "electric_scooter", "is_disabled": 0, "lat": 38.911021166666664, "rental_uris": {"ios": "https://dc.lft.to/lastmile_qr_scan", "android": "https://dc.lft.to/lastmile_qr_scan"}, "is_reserved": 0, "fusion_lon": 0.0, "fusion_lat": 0.0, "lon": -77.03840616666666, "name": "f52617a572eee01f281d9fd4c11a1b62"}, {"bike_id": "702e3cf51ad0086733d5bdffcf610195", "type": "electric_scooter", "is_disabled": 0, "lat": 38.911022, "rental_uris": {"ios": "https://dc.lft.to/lastmile_qr_scan", "android": "https://dc.lft.to/lastmile_qr_scan"}, "is_reserved": 0, "fusion_lon": 0.0, "fusion_lat": 0.0, "lon": -77.00220666666667, "name": "702e3cf51ad0086733d5bdffcf610195"}, {"bike_id": "6642b00a705ac2a4c90a3d47c6577382", "type": "electric_scooter", "is_disabled": 0, "lat": 38.89620033333333, "rental_uris": {"ios": "https://dc.lft.to/lastmile_qr_scan", "android": "https://dc.lft.to/lastmile_qr_scan"}, "is_reserved": 0, "fusion_lon": 0.0, "fusion_lat": 0.0, "lon": -77.026603, "name": "6642b00a705ac2a4c90a3d47c6577382"}, {"bike_id": "ea17f8e47258cd0863c4e852a0f28dc6", "type": "electric_scooter", "is_disabled": 0, "lat": 38.87648733333333, "rental_uris": {"ios": "https://dc.lft.to/lastmile_qr_scan", "android": "https://dc.lft.to/lastmile_qr_scan"}, "is_reserved": 0, "fusion_lon": 0.0, "fusion_lat": 0.0, "lon": -76.96509366666666, "name": "ea17f8e47258cd0863c4e852a0f28dc6"}, {"bike_id": "c969a94c29d4e625bc7f99124b86a7fe", "type": "electric_scooter", "is_disabled": 0, "lat": 38.92479, "rental_uris": {"ios": "https://dc.lft.to/lastmile_qr_scan", "android": "https://dc.lft.to/lastmile_qr_scan"}, "is_reserved": 0, "fusion_lon": 0.0, "fusion_lat": 0.0, "lon": -77.02721883333334, "name": "c969a94c29d4e625bc7f99124b86a7fe"}, {"bike_id": "e2df51d8eb479f6d72b2ef3dd59e3ae0", "type": "electric_scooter", "is_disabled": 0, "lat": 38.905102, "rental_uris": {"ios": "https://dc.lft.to/lastmile_qr_scan", "android": "https://dc.lft.to/lastmile_qr_scan"}, "is_reserved": 0, "fusion_lon": 0.0, "fusion_lat": 0.0, "lon": -77.06875483333333, "name": "e2df51d8eb479f6d72b2ef3dd59e3ae0"}, {"bike_id": "5bf774c39419a5d208e8b034ab62091a", "type": "electric_scooter", "is_disabled": 0, "lat": 38.912773333333334, "rental_uris": {"ios": "https://dc.lft.to/lastmile_qr_scan", "android": "https://dc.lft.to/lastmile_qr_scan"}, "is_reserved": 0, "fusion_lon": 0.0, "fusion_lat": 0.0, "lon": -77.022482, "name": "5bf774c39419a5d208e8b034ab62091a"}, {"bike_id": "ff9370b7777a0a8321aba1c5ab6369fa", "type": "electric_scooter", "is_disabled": 0, "lat": 38.902592, "rental_uris": {"ios": "https://dc.lft.to/lastmile_qr_scan", "android": "https://dc.lft.to/lastmile_qr_scan"}, "is_reserved": 0, "fusion_lon": 0.0, "fusion_lat": 0.0, "lon": -77.0175735, "name": "ff9370b7777a0a8321aba1c5ab6369fa"}, {"bike_id": "e0ed9ef6e8c96a6e1b3dbfb28f1c2c14", "type": "electric_scooter", "is_disabled": 0, "lat": 38.94210433333333, "rental_uris": {"ios": "https://dc.lft.to/lastmile_qr_scan", "android": "https://dc.lft.to/lastmile_qr_scan"}, "is_reserved": 0, "fusion_lon": 0.0, "fusion_lat": 0.0, "lon": -77.02582883333334, "name": "e0ed9ef6e8c96a6e1b3dbfb28f1c2c14"}, {"bike_id": "54921dc7f3dc961080c059554361631c", "type": "electric_scooter", "is_disabled": 0, "lat": 38.93065216666667, "rental_uris": {"ios": "https://dc.lft.to/lastmile_qr_scan", "android": "https://dc.lft.to/lastmile_qr_scan"}, "is_reserved": 0, "fusion_lon": 0.0, "fusion_lat": 0.0, "lon": -77.01991616666666, "name": "54921dc7f3dc961080c059554361631c"}, {"bike_id": "64000b503054bfa1929a0a95df38273d", "type": "electric_scooter", "is_disabled": 0, "lat": 38.90550616666667, "rental_uris": {"ios": "https://dc.lft.to/lastmile_qr_scan", "android": "https://dc.lft.to/lastmile_qr_scan"}, "is_reserved": 0, "fusion_lon": 0.0, "fusion_lat": 0.0, "lon": -77.044438, "name": "64000b503054bfa1929a0a95df38273d"}, {"bike_id": "c7dff3e44b6f69b5c75b7792073c0f05", "type": "electric_scooter", "is_disabled": 0, "lat": 38.915016333333334, "rental_uris": {"ios": "https://dc.lft.to/lastmile_qr_scan", "android": "https://dc.lft.to/lastmile_qr_scan"}, "is_reserved": 0, "fusion_lon": 0.0, "fusion_lat": 0.0, "lon": -77.0177765, "name": "c7dff3e44b6f69b5c75b7792073c0f05"}, {"bike_id": "8fe9f5aa401a8b50044771f8351f37d5", "type": "electric_scooter", "is_disabled": 0, "lat": 38.9181895, "rental_uris": {"ios": "https://dc.lft.to/lastmile_qr_scan", "android": "https://dc.lft.to/lastmile_qr_scan"}, "is_reserved": 0, "fusion_lon": 0.0, "fusion_lat": 0.0, "lon": -77.03184633333333, "name": "8fe9f5aa401a8b50044771f8351f37d5"}, {"bike_id": "7089411f0a4885fbc0f1c42b064331e0", "type": "electric_scooter", "is_disabled": 0, "lat": 38.921527166666664, "rental_uris": {"ios": "https://dc.lft.to/lastmile_qr_scan", "android": "https://dc.lft.to/lastmile_qr_scan"}, "is_reserved": 0, "fusion_lon": 0.0, "fusion_lat": 0.0, "lon": -77.03387916666667, "name": "7089411f0a4885fbc0f1c42b064331e0"}, {"bike_id": "4bdafb0fcb99ffb76734df7ddc2808bc", "type": "electric_scooter", "is_disabled": 0, "lat": 38.91170566666667, "rental_uris": {"ios": "https://dc.lft.to/lastmile_qr_scan", "android": "https://dc.lft.to/lastmile_qr_scan"}, "is_reserved": 0, "fusion_lon": 0.0, "fusion_lat": 0.0, "lon": -77.02963066666666, "name": "4bdafb0fcb99ffb76734df7ddc2808bc"}, {"bike_id": "b766a1621d6c43b7e7d3ed5366811c96", "type": "electric_scooter", "is_disabled": 0, "lat": 38.871762833333335, "rental_uris": {"ios": "https://dc.lft.to/lastmile_qr_scan", "android": "https://dc.lft.to/lastmile_qr_scan"}, "is_reserved": 0, "fusion_lon": 0.0, "fusion_lat": 0.0, "lon": -77.00610766666667, "name": "b766a1621d6c43b7e7d3ed5366811c96"}, {"bike_id": "a900d8b85ac5ff1ea0ce40cde0cc46c6", "type": "electric_scooter", "is_disabled": 0, "lat": 38.918139833333335, "rental_uris": {"ios": "https://dc.lft.to/lastmile_qr_scan", "android": "https://dc.lft.to/lastmile_qr_scan"}, "is_reserved": 0, "fusion_lon": 0.0, "fusion_lat": 0.0, "lon": -77.03180733333333, "name": "a900d8b85ac5ff1ea0ce40cde0cc46c6"}, {"bike_id": "d18d9bfd30c91e6ea5cb3cb287b799e4", "type": "electric_scooter", "is_disabled": 0, "lat": 38.882670833333336, "rental_uris": {"ios": "https://dc.lft.to/lastmile_qr_scan", "android": "https://dc.lft.to/lastmile_qr_scan"}, "is_reserved": 0, "fusion_lon": 0.0, "fusion_lat": 0.0, "lon": -76.99361133333333, "name": "d18d9bfd30c91e6ea5cb3cb287b799e4"}, {"bike_id": "2daac37fdb28f5057f00a1e314792fa2", "type": "electric_scooter", "is_disabled": 0, "lat": 38.90444983333333, "rental_uris": {"ios": "https://dc.lft.to/lastmile_qr_scan", "android": "https://dc.lft.to/lastmile_qr_scan"}, "is_reserved": 0, "fusion_lon": 0.0, "fusion_lat": 0.0, "lon": -77.018325, "name": "2daac37fdb28f5057f00a1e314792fa2"}, {"bike_id": "b5f7248036076251e6cac3c1f79e1152", "type": "electric_bike", "is_disabled": 0, "lat": 39.037014166666665, "rental_uris": {"ios": "https://dc.lft.to/lastmile_qr_scan", "android": "https://dc.lft.to/lastmile_qr_scan"}, "is_reserved": 0, "fusion_lon": 0.0, "fusion_lat": 0.0, "lon": -77.02855383333333, "name": "b5f7248036076251e6cac3c1f79e1152"}, {"bike_id": "f1ead4c18ed832031775aa56a65a7dde", "type": "electric_scooter", "is_disabled": 0, "lat": 38.945099666666664, "rental_uris": {"ios": "https://dc.lft.to/lastmile_qr_scan", "android": "https://dc.lft.to/lastmile_qr_scan"}, "is_reserved": 0, "fusion_lon": 0.0, "fusion_lat": 0.0, "lon": -77.02176833333333, "name": "f1ead4c18ed832031775aa56a65a7dde"}, {"bike_id": "69fc7944a8c6ea38172c4a4460995ad2", "type": "electric_scooter", "is_disabled": 0, "lat": 38.919810166666664, "rental_uris": {"ios": "https://dc.lft.to/lastmile_qr_scan", "android": "https://dc.lft.to/lastmile_qr_scan"}, "is_reserved": 0, "fusion_lon": 0.0, "fusion_lat": 0.0, "lon": -77.0241095, "name": "69fc7944a8c6ea38172c4a4460995ad2"}, {"bike_id": "59b2aff4904ed407dc7f63785fafd36c", "type": "electric_scooter", "is_disabled": 0, "lat": 38.923720333333335, "rental_uris": {"ios": "https://dc.lft.to/lastmile_qr_scan", "android": "https://dc.lft.to/lastmile_qr_scan"}, "is_reserved": 0, "fusion_lon": 0.0, "fusion_lat": 0.0, "lon": -77.03022083333333, "name": "59b2aff4904ed407dc7f63785fafd36c"}, {"bike_id": "2c4a6239c45a3c1b3cddbf691ceeb1c6", "type": "electric_scooter", "is_disabled": 0, "lat": 38.875603166666664, "rental_uris": {"ios": "https://dc.lft.to/lastmile_qr_scan", "android": "https://dc.lft.to/lastmile_qr_scan"}, "is_reserved": 0, "fusion_lon": 0.0, "fusion_lat": 0.0, "lon": -76.95869233333333, "name": "2c4a6239c45a3c1b3cddbf691ceeb1c6"}, {"bike_id": "e993d095e39e0d5e2ad1619de469f611", "type": "electric_scooter", "is_disabled": 0, "lat": 38.931513833333334, "rental_uris": {"ios": "https://dc.lft.to/lastmile_qr_scan", "android": "https://dc.lft.to/lastmile_qr_scan"}, "is_reserved": 0, "fusion_lon": 0.0, "fusion_lat": 0.0, "lon": -77.04543183333334, "name": "e993d095e39e0d5e2ad1619de469f611"}, {"bike_id": "3db89f03c0460c064505d5c8718cd8c6", "type": "electric_scooter", "is_disabled": 0, "lat": 38.906228666666664, "rental_uris": {"ios": "https://dc.lft.to/lastmile_qr_scan", "android": "https://dc.lft.to/lastmile_qr_scan"}, "is_reserved": 0, "fusion_lon": 0.0, "fusion_lat": 0.0, "lon": -77.05146166666667, "name": "3db89f03c0460c064505d5c8718cd8c6"}, {"bike_id": "736147635764adf0ed13ba31b390327d", "type": "electric_scooter", "is_disabled": 0, "lat": 38.8891555, "rental_uris": {"ios": "https://dc.lft.to/lastmile_qr_scan", "android": "https://dc.lft.to/lastmile_qr_scan"}, "is_reserved": 0, "fusion_lon": 0.0, "fusion_lat": 0.0, "lon": -76.98951333333333, "name": "736147635764adf0ed13ba31b390327d"}, {"bike_id": "d6d98c1a8707b86093f79652fc96acc3", "type": "electric_bike", "is_disabled": 0, "lat": 38.95498716666667, "rental_uris": {"ios": "https://dc.lft.to/lastmile_qr_scan", "android": "https://dc.lft.to/lastmile_qr_scan"}, "is_reserved": 0, "fusion_lon": 0.0, "fusion_lat": 0.0, "lon": -76.99355066666666, "name": "d6d98c1a8707b86093f79652fc96acc3"}, {"bike_id": "55e4455c42b5dab95e344aea3c4a92e3", "type": "electric_scooter", "is_disabled": 0, "lat": 38.95930583333333, "rental_uris": {"ios": "https://dc.lft.to/lastmile_qr_scan", "android": "https://dc.lft.to/lastmile_qr_scan"}, "is_reserved": 0, "fusion_lon": 0.0, "fusion_lat": 0.0, "lon": -77.031346, "name": "55e4455c42b5dab95e344aea3c4a92e3"}, {"bike_id": "d9a9f4446f45b229507a09c1613fcc2b", "type": "electric_scooter", "is_disabled": 0, "lat": 38.87474366666667, "rental_uris": {"ios": "https://dc.lft.to/lastmile_qr_scan", "android": "https://dc.lft.to/lastmile_qr_scan"}, "is_reserved": 0, "fusion_lon": 0.0, "fusion_lat": 0.0, "lon": -76.99982933333334, "name": "d9a9f4446f45b229507a09c1613fcc2b"}, {"bike_id": "55fe46eedde21996ad611c8fb62ee9cd", "type": "electric_scooter", "is_disabled": 0, "lat": 38.90553516666667, "rental_uris": {"ios": "https://dc.lft.to/lastmile_qr_scan", "android": "https://dc.lft.to/lastmile_qr_scan"}, "is_reserved": 0, "fusion_lon": 0.0, "fusion_lat": 0.0, "lon": -77.038151, "name": "55fe46eedde21996ad611c8fb62ee9cd"}, {"bike_id": "3500b604e4f472356ccd012ba7e4db54", "type": "electric_scooter", "is_disabled": 0, "lat": 38.922127833333334, "rental_uris": {"ios": "https://dc.lft.to/lastmile_qr_scan", "android": "https://dc.lft.to/lastmile_qr_scan"}, "is_reserved": 0, "fusion_lon": 0.0, "fusion_lat": 0.0, "lon": -77.032937, "name": "3500b604e4f472356ccd012ba7e4db54"}, {"bike_id": "75666c63c7f1db48bdcc67f9466197e5", "type": "electric_scooter", "is_disabled": 0, "lat": 38.89752633333333, "rental_uris": {"ios": "https://dc.lft.to/lastmile_qr_scan", "android": "https://dc.lft.to/lastmile_qr_scan"}, "is_reserved": 0, "fusion_lon": 0.0, "fusion_lat": 0.0, "lon": -77.0268405, "name": "75666c63c7f1db48bdcc67f9466197e5"}, {"bike_id": "cc910bc5732e365ea6bdb99917e2a64e", "type": "electric_scooter", "is_disabled": 0, "lat": 38.919184333333334, "rental_uris": {"ios": "https://dc.lft.to/lastmile_qr_scan", "android": "https://dc.lft.to/lastmile_qr_scan"}, "is_reserved": 0, "fusion_lon": 0.0, "fusion_lat": 0.0, "lon": -77.03363433333334, "name": "cc910bc5732e365ea6bdb99917e2a64e"}, {"bike_id": "f7e6b0f876f424b121bf3271407be562", "type": "electric_scooter", "is_disabled": 0, "lat": 38.918215000000004, "rental_uris": {"ios": "https://dc.lft.to/lastmile_qr_scan", "android": "https://dc.lft.to/lastmile_qr_scan"}, "is_reserved": 0, "fusion_lon": 0.0, "fusion_lat": 0.0, "lon": -77.0494575, "name": "f7e6b0f876f424b121bf3271407be562"}, {"bike_id": "391de618f5cacb09429f0c7b19420fa4", "type": "electric_scooter", "is_disabled": 0, "lat": 38.91401533333333, "rental_uris": {"ios": "https://dc.lft.to/lastmile_qr_scan", "android": "https://dc.lft.to/lastmile_qr_scan"}, "is_reserved": 0, "fusion_lon": 0.0, "fusion_lat": 0.0, "lon": -77.03174333333334, "name": "391de618f5cacb09429f0c7b19420fa4"}, {"bike_id": "bc0d0f9f8a9cf48856d9e018bad41b96", "type": "electric_scooter", "is_disabled": 0, "lat": 38.92075466666667, "rental_uris": {"ios": "https://dc.lft.to/lastmile_qr_scan", "android": "https://dc.lft.to/lastmile_qr_scan"}, "is_reserved": 0, "fusion_lon": 0.0, "fusion_lat": 0.0, "lon": -77.02383083333334, "name": "bc0d0f9f8a9cf48856d9e018bad41b96"}, {"bike_id": "8ceb6c7d2b1d14933a3361196780f88e", "type": "electric_scooter", "is_disabled": 0, "lat": 38.964119333333336, "rental_uris": {"ios": "https://dc.lft.to/lastmile_qr_scan", "android": "https://dc.lft.to/lastmile_qr_scan"}, "is_reserved": 0, "fusion_lon": 0.0, "fusion_lat": 0.0, "lon": -77.024271, "name": "8ceb6c7d2b1d14933a3361196780f88e"}, {"bike_id": "507a801f19ca99fbb6e20a1d7db2b86e", "type": "electric_scooter", "is_disabled": 0, "lat": 38.9068825, "rental_uris": {"ios": "https://dc.lft.to/lastmile_qr_scan", "android": "https://dc.lft.to/lastmile_qr_scan"}, "is_reserved": 0, "fusion_lon": 0.0, "fusion_lat": 0.0, "lon": -77.03677533333334, "name": "507a801f19ca99fbb6e20a1d7db2b86e"}, {"bike_id": "0c0b26293cae6041297ed190f779d792", "type": "electric_scooter", "is_disabled": 0, "lat": 38.915186, "rental_uris": {"ios": "https://dc.lft.to/lastmile_qr_scan", "android": "https://dc.lft.to/lastmile_qr_scan"}, "is_reserved": 0, "fusion_lon": 0.0, "fusion_lat": 0.0, "lon": -77.0121935, "name": "0c0b26293cae6041297ed190f779d792"}, {"bike_id": "ce82e4a00691faf5ba270fe9bc8b1f31", "type": "electric_scooter", "is_disabled": 0, "lat": 38.9244065, "rental_uris": {"ios": "https://dc.lft.to/lastmile_qr_scan", "android": "https://dc.lft.to/lastmile_qr_scan"}, "is_reserved": 0, "fusion_lon": 0.0, "fusion_lat": 0.0, "lon": -77.0419755, "name": "ce82e4a00691faf5ba270fe9bc8b1f31"}, {"bike_id": "fdc5190eacc0eb5b2da399b3c3a0a888", "type": "electric_scooter", "is_disabled": 0, "lat": 38.90990583333333, "rental_uris": {"ios": "https://dc.lft.to/lastmile_qr_scan", "android": "https://dc.lft.to/lastmile_qr_scan"}, "is_reserved": 0, "fusion_lon": 0.0, "fusion_lat": 0.0, "lon": -77.04265283333334, "name": "fdc5190eacc0eb5b2da399b3c3a0a888"}, {"bike_id": "eaf720a91e252b2fcf486380cb66ac36", "type": "electric_scooter", "is_disabled": 0, "lat": 38.91923033333333, "rental_uris": {"ios": "https://dc.lft.to/lastmile_qr_scan", "android": "https://dc.lft.to/lastmile_qr_scan"}, "is_reserved": 0, "fusion_lon": 0.0, "fusion_lat": 0.0, "lon": -77.0462425, "name": "eaf720a91e252b2fcf486380cb66ac36"}, {"bike_id": "f0cf8e14758a55c797da35473c5251c2", "type": "electric_bike", "is_disabled": 0, "lat": 38.89739983333333, "rental_uris": {"ios": "https://dc.lft.to/lastmile_qr_scan", "android": "https://dc.lft.to/lastmile_qr_scan"}, "is_reserved": 0, "fusion_lon": 0.0, "fusion_lat": 0.0, "lon": -76.92049, "name": "f0cf8e14758a55c797da35473c5251c2"}, {"bike_id": "8aaf97c7640b5d09c52960d8de179827", "type": "electric_scooter", "is_disabled": 0, "lat": 38.90835366666667, "rental_uris": {"ios": "https://dc.lft.to/lastmile_qr_scan", "android": "https://dc.lft.to/lastmile_qr_scan"}, "is_reserved": 0, "fusion_lon": 0.0, "fusion_lat": 0.0, "lon": -77.02183916666667, "name": "8aaf97c7640b5d09c52960d8de179827"}, {"bike_id": "4224d945c664c1a087289643709ce500", "type": "electric_bike", "is_disabled": 0, "lat": 39.0549055, "rental_uris": {"ios": "https://dc.lft.to/lastmile_qr_scan", "android": "https://dc.lft.to/lastmile_qr_scan"}, "is_reserved": 0, "fusion_lon": 0.0, "fusion_lat": 0.0, "lon": -77.1179365, "name": "4224d945c664c1a087289643709ce500"}, {"bike_id": "3caf59181d5571687d98ef103bc3da58", "type": "electric_scooter", "is_disabled": 0, "lat": 38.88643283333333, "rental_uris": {"ios": "https://dc.lft.to/lastmile_qr_scan", "android": "https://dc.lft.to/lastmile_qr_scan"}, "is_reserved": 0, "fusion_lon": 0.0, "fusion_lat": 0.0, "lon": -77.00001916666666, "name": "3caf59181d5571687d98ef103bc3da58"}, {"bike_id": "825d027da7d6d0c9f80af52e7556ed60", "type": "electric_bike", "is_disabled": 0, "lat": 38.90825516666666, "rental_uris": {"ios": "https://dc.lft.to/lastmile_qr_scan", "android": "https://dc.lft.to/lastmile_qr_scan"}, "is_reserved": 0, "fusion_lon": 0.0, "fusion_lat": 0.0, "lon": -76.94158616666667, "name": "825d027da7d6d0c9f80af52e7556ed60"}, {"bike_id": "7d86414115b9e7b404374e93d810dcfa", "type": "electric_scooter", "is_disabled": 0, "lat": 38.90535366666667, "rental_uris": {"ios": "https://dc.lft.to/lastmile_qr_scan", "android": "https://dc.lft.to/lastmile_qr_scan"}, "is_reserved": 0, "fusion_lon": 0.0, "fusion_lat": 0.0, "lon": -77.06907166666667, "name": "7d86414115b9e7b404374e93d810dcfa"}, {"bike_id": "cdb1cdbeb7a6ea325dd8baf7f0fe3131", "type": "electric_scooter", "is_disabled": 0, "lat": 38.8774425, "rental_uris": {"ios": "https://dc.lft.to/lastmile_qr_scan", "android": "https://dc.lft.to/lastmile_qr_scan"}, "is_reserved": 0, "fusion_lon": 0.0, "fusion_lat": 0.0, "lon": -76.99724933333333, "name": "cdb1cdbeb7a6ea325dd8baf7f0fe3131"}, {"bike_id": "c8d703eb79b133a79a62be5d4809f7b7", "type": "electric_bike", "is_disabled": 0, "lat": 39.03736516666667, "rental_uris": {"ios": "https://dc.lft.to/lastmile_qr_scan", "android": "https://dc.lft.to/lastmile_qr_scan"}, "is_reserved": 0, "fusion_lon": 0.0, "fusion_lat": 0.0, "lon": -77.0548635, "name": "c8d703eb79b133a79a62be5d4809f7b7"}, {"bike_id": "8db4533a08ed0da9b1d362e3118f386e", "type": "electric_scooter", "is_disabled": 0, "lat": 38.91273733333333, "rental_uris": {"ios": "https://dc.lft.to/lastmile_qr_scan", "android": "https://dc.lft.to/lastmile_qr_scan"}, "is_reserved": 0, "fusion_lon": 0.0, "fusion_lat": 0.0, "lon": -77.01458883333333, "name": "8db4533a08ed0da9b1d362e3118f386e"}, {"bike_id": "9db742e5b8800b44aa2ab124fc1522b6", "type": "electric_scooter", "is_disabled": 0, "lat": 38.942117833333334, "rental_uris": {"ios": "https://dc.lft.to/lastmile_qr_scan", "android": "https://dc.lft.to/lastmile_qr_scan"}, "is_reserved": 0, "fusion_lon": 0.0, "fusion_lat": 0.0, "lon": -77.02584816666666, "name": "9db742e5b8800b44aa2ab124fc1522b6"}, {"bike_id": "b8fc97a4dab0f646ea9d6ac92535ff61", "type": "electric_scooter", "is_disabled": 0, "lat": 38.91172783333333, "rental_uris": {"ios": "https://dc.lft.to/lastmile_qr_scan", "android": "https://dc.lft.to/lastmile_qr_scan"}, "is_reserved": 0, "fusion_lon": 0.0, "fusion_lat": 0.0, "lon": -77.03193066666667, "name": "b8fc97a4dab0f646ea9d6ac92535ff61"}, {"bike_id": "62bd306fd30cad2ca08bb1359559f723", "type": "electric_scooter", "is_disabled": 0, "lat": 38.924802166666666, "rental_uris": {"ios": "https://dc.lft.to/lastmile_qr_scan", "android": "https://dc.lft.to/lastmile_qr_scan"}, "is_reserved": 0, "fusion_lon": 0.0, "fusion_lat": 0.0, "lon": -77.02722316666667, "name": "62bd306fd30cad2ca08bb1359559f723"}, {"bike_id": "33afa8f8a104904e40ed0cdf27590f1b", "type": "electric_scooter", "is_disabled": 0, "lat": 38.91713033333333, "rental_uris": {"ios": "https://dc.lft.to/lastmile_qr_scan", "android": "https://dc.lft.to/lastmile_qr_scan"}, "is_reserved": 0, "fusion_lon": 0.0, "fusion_lat": 0.0, "lon": -77.024026, "name": "33afa8f8a104904e40ed0cdf27590f1b"}, {"bike_id": "156038b1cc596733240dd08d1cad7482", "type": "electric_scooter", "is_disabled": 0, "lat": 38.9163855, "rental_uris": {"ios": "https://dc.lft.to/lastmile_qr_scan", "android": "https://dc.lft.to/lastmile_qr_scan"}, "is_reserved": 0, "fusion_lon": 0.0, "fusion_lat": 0.0, "lon": -77.0228005, "name": "156038b1cc596733240dd08d1cad7482"}, {"bike_id": "11fe7d71ec2f3ff6b3544e071de1c196", "type": "electric_scooter", "is_disabled": 0, "lat": 38.92485633333333, "rental_uris": {"ios": "https://dc.lft.to/lastmile_qr_scan", "android": "https://dc.lft.to/lastmile_qr_scan"}, "is_reserved": 0, "fusion_lon": 0.0, "fusion_lat": 0.0, "lon": -77.05748666666666, "name": "11fe7d71ec2f3ff6b3544e071de1c196"}, {"bike_id": "c0b0a4123762689dd2c58d70ec8a0f07", "type": "electric_scooter", "is_disabled": 0, "lat": 38.90522983333334, "rental_uris": {"ios": "https://dc.lft.to/lastmile_qr_scan", "android": "https://dc.lft.to/lastmile_qr_scan"}, "is_reserved": 0, "fusion_lon": 0.0, "fusion_lat": 0.0, "lon": -77.064506, "name": "c0b0a4123762689dd2c58d70ec8a0f07"}, {"bike_id": "18acf52a18d57f7c27cfa0d783223b90", "type": "electric_scooter", "is_disabled": 0, "lat": 38.936363666666665, "rental_uris": {"ios": "https://dc.lft.to/lastmile_qr_scan", "android": "https://dc.lft.to/lastmile_qr_scan"}, "is_reserved": 0, "fusion_lon": 0.0, "fusion_lat": 0.0, "lon": -77.0588525, "name": "18acf52a18d57f7c27cfa0d783223b90"}, {"bike_id": "77162a31afd8a5823176c5208a8bc711", "type": "electric_scooter", "is_disabled": 0, "lat": 38.91405183333333, "rental_uris": {"ios": "https://dc.lft.to/lastmile_qr_scan", "android": "https://dc.lft.to/lastmile_qr_scan"}, "is_reserved": 0, "fusion_lon": 0.0, "fusion_lat": 0.0, "lon": -77.03265333333333, "name": "77162a31afd8a5823176c5208a8bc711"}, {"bike_id": "0fc1fd39fb06ab8356d8a2cecc9965de", "type": "electric_scooter", "is_disabled": 0, "lat": 38.92971083333333, "rental_uris": {"ios": "https://dc.lft.to/lastmile_qr_scan", "android": "https://dc.lft.to/lastmile_qr_scan"}, "is_reserved": 0, "fusion_lon": 0.0, "fusion_lat": 0.0, "lon": -77.03249033333333, "name": "0fc1fd39fb06ab8356d8a2cecc9965de"}, {"bike_id": "71483687773cb4b2672ee0e53e04d0e0", "type": "electric_scooter", "is_disabled": 0, "lat": 38.933749166666665, "rental_uris": {"ios": "https://dc.lft.to/lastmile_qr_scan", "android": "https://dc.lft.to/lastmile_qr_scan"}, "is_reserved": 0, "fusion_lon": 0.0, "fusion_lat": 0.0, "lon": -77.05735283333334, "name": "71483687773cb4b2672ee0e53e04d0e0"}, {"bike_id": "5a16c64a04f5a43404959048cb60ee15", "type": "electric_scooter", "is_disabled": 0, "lat": 38.908206666666665, "rental_uris": {"ios": "https://dc.lft.to/lastmile_qr_scan", "android": "https://dc.lft.to/lastmile_qr_scan"}, "is_reserved": 0, "fusion_lon": 0.0, "fusion_lat": 0.0, "lon": -77.012854, "name": "5a16c64a04f5a43404959048cb60ee15"}, {"bike_id": "761d52e979864d236ee3f3b097fdf33d", "type": "electric_scooter", "is_disabled": 0, "lat": 38.86685, "rental_uris": {"ios": "https://dc.lft.to/lastmile_qr_scan", "android": "https://dc.lft.to/lastmile_qr_scan"}, "is_reserved": 0, "fusion_lon": 0.0, "fusion_lat": 0.0, "lon": -76.98580166666666, "name": "761d52e979864d236ee3f3b097fdf33d"}, {"bike_id": "458a8d18e2c6912cae57d4463263efa5", "type": "electric_scooter", "is_disabled": 0, "lat": 38.91812066666667, "rental_uris": {"ios": "https://dc.lft.to/lastmile_qr_scan", "android": "https://dc.lft.to/lastmile_qr_scan"}, "is_reserved": 0, "fusion_lon": 0.0, "fusion_lat": 0.0, "lon": -77.02482533333334, "name": "458a8d18e2c6912cae57d4463263efa5"}, {"bike_id": "cb460f54bb4a32e8ae00c81c311dc3ea", "type": "electric_scooter", "is_disabled": 0, "lat": 38.89904766666667, "rental_uris": {"ios": "https://dc.lft.to/lastmile_qr_scan", "android": "https://dc.lft.to/lastmile_qr_scan"}, "is_reserved": 0, "fusion_lon": 0.0, "fusion_lat": 0.0, "lon": -76.98177583333333, "name": "cb460f54bb4a32e8ae00c81c311dc3ea"}, {"bike_id": "bac92edf21d4d08dfc17a294eb4fc097", "type": "electric_scooter", "is_disabled": 0, "lat": 38.917561, "rental_uris": {"ios": "https://dc.lft.to/lastmile_qr_scan", "android": "https://dc.lft.to/lastmile_qr_scan"}, "is_reserved": 0, "fusion_lon": 0.0, "fusion_lat": 0.0, "lon": -77.04580016666667, "name": "bac92edf21d4d08dfc17a294eb4fc097"}, {"bike_id": "77e00c98f25aa546f0f6b8553f73d63d", "type": "electric_scooter", "is_disabled": 0, "lat": 38.9140485, "rental_uris": {"ios": "https://dc.lft.to/lastmile_qr_scan", "android": "https://dc.lft.to/lastmile_qr_scan"}, "is_reserved": 0, "fusion_lon": 0.0, "fusion_lat": 0.0, "lon": -77.0137925, "name": "77e00c98f25aa546f0f6b8553f73d63d"}, {"bike_id": "3ee285873c19595e3e9e9fa679d45382", "type": "electric_scooter", "is_disabled": 0, "lat": 38.919126166666665, "rental_uris": {"ios": "https://dc.lft.to/lastmile_qr_scan", "android": "https://dc.lft.to/lastmile_qr_scan"}, "is_reserved": 0, "fusion_lon": 0.0, "fusion_lat": 0.0, "lon": -77.032206, "name": "3ee285873c19595e3e9e9fa679d45382"}, {"bike_id": "7bd0015cd27558315258e91caa6163f2", "type": "electric_scooter", "is_disabled": 0, "lat": 38.917741166666666, "rental_uris": {"ios": "https://dc.lft.to/lastmile_qr_scan", "android": "https://dc.lft.to/lastmile_qr_scan"}, "is_reserved": 0, "fusion_lon": 0.0, "fusion_lat": 0.0, "lon": -77.02304666666667, "name": "7bd0015cd27558315258e91caa6163f2"}, {"bike_id": "13ffc301efa8d0821c7acb3083dfef35", "type": "electric_scooter", "is_disabled": 0, "lat": 38.866829, "rental_uris": {"ios": "https://dc.lft.to/lastmile_qr_scan", "android": "https://dc.lft.to/lastmile_qr_scan"}, "is_reserved": 0, "fusion_lon": 0.0, "fusion_lat": 0.0, "lon": -76.98575016666666, "name": "13ffc301efa8d0821c7acb3083dfef35"}, {"bike_id": "8bf594116c2e0176ba543708cc09dd0b", "type": "electric_scooter", "is_disabled": 0, "lat": 38.9560195, "rental_uris": {"ios": "https://dc.lft.to/lastmile_qr_scan", "android": "https://dc.lft.to/lastmile_qr_scan"}, "is_reserved": 0, "fusion_lon": 0.0, "fusion_lat": 0.0, "lon": -77.00098416666667, "name": "8bf594116c2e0176ba543708cc09dd0b"}, {"bike_id": "080872566f5268b76ebf7502969a7cb9", "type": "electric_scooter", "is_disabled": 0, "lat": 38.90688516666667, "rental_uris": {"ios": "https://dc.lft.to/lastmile_qr_scan", "android": "https://dc.lft.to/lastmile_qr_scan"}, "is_reserved": 0, "fusion_lon": 0.0, "fusion_lat": 0.0, "lon": -77.0651715, "name": "080872566f5268b76ebf7502969a7cb9"}, {"bike_id": "76c95dd65ff9cb3a93d35edfaf61bc87", "type": "electric_bike", "is_disabled": 0, "lat": 38.9065545, "rental_uris": {"ios": "https://dc.lft.to/lastmile_qr_scan", "android": "https://dc.lft.to/lastmile_qr_scan"}, "is_reserved": 0, "fusion_lon": 0.0, "fusion_lat": 0.0, "lon": -77.0090225, "name": "76c95dd65ff9cb3a93d35edfaf61bc87"}, {"bike_id": "0bf997ca21b9b71133be54e7d0628ba0", "type": "electric_scooter", "is_disabled": 0, "lat": 38.92003483333333, "rental_uris": {"ios": "https://dc.lft.to/lastmile_qr_scan", "android": "https://dc.lft.to/lastmile_qr_scan"}, "is_reserved": 0, "fusion_lon": 0.0, "fusion_lat": 0.0, "lon": -77.0280905, "name": "0bf997ca21b9b71133be54e7d0628ba0"}, {"bike_id": "68590c2a049f2702bc6b1b77cff142df", "type": "electric_scooter", "is_disabled": 0, "lat": 38.8624455, "rental_uris": {"ios": "https://dc.lft.to/lastmile_qr_scan", "android": "https://dc.lft.to/lastmile_qr_scan"}, "is_reserved": 0, "fusion_lon": 0.0, "fusion_lat": 0.0, "lon": -76.99502683333333, "name": "68590c2a049f2702bc6b1b77cff142df"}, {"bike_id": "0e0246cddc1c0bf6cc810bd2fb91056e", "type": "electric_scooter", "is_disabled": 0, "lat": 38.920144, "rental_uris": {"ios": "https://dc.lft.to/lastmile_qr_scan", "android": "https://dc.lft.to/lastmile_qr_scan"}, "is_reserved": 0, "fusion_lon": 0.0, "fusion_lat": 0.0, "lon": -76.99573166666667, "name": "0e0246cddc1c0bf6cc810bd2fb91056e"}, {"bike_id": "9bb13ae81b209d64aa975775469919fc", "type": "electric_scooter", "is_disabled": 0, "lat": 38.9177675, "rental_uris": {"ios": "https://dc.lft.to/lastmile_qr_scan", "android": "https://dc.lft.to/lastmile_qr_scan"}, "is_reserved": 0, "fusion_lon": 0.0, "fusion_lat": 0.0, "lon": -77.02402833333333, "name": "9bb13ae81b209d64aa975775469919fc"}, {"bike_id": "26d1bb6718185c25d910786b536a7ab3", "type": "electric_scooter", "is_disabled": 0, "lat": 38.917299666666665, "rental_uris": {"ios": "https://dc.lft.to/lastmile_qr_scan", "android": "https://dc.lft.to/lastmile_qr_scan"}, "is_reserved": 0, "fusion_lon": 0.0, "fusion_lat": 0.0, "lon": -77.04174266666666, "name": "26d1bb6718185c25d910786b536a7ab3"}, {"bike_id": "a469aab1ea08252b06912b943d5ad0bb", "type": "electric_scooter", "is_disabled": 0, "lat": 38.921338, "rental_uris": {"ios": "https://dc.lft.to/lastmile_qr_scan", "android": "https://dc.lft.to/lastmile_qr_scan"}, "is_reserved": 0, "fusion_lon": 0.0, "fusion_lat": 0.0, "lon": -77.01809466666667, "name": "a469aab1ea08252b06912b943d5ad0bb"}, {"bike_id": "e3afa7f638125dd7fa16f64bb43ee42b", "type": "electric_scooter", "is_disabled": 0, "lat": 38.880593166666664, "rental_uris": {"ios": "https://dc.lft.to/lastmile_qr_scan", "android": "https://dc.lft.to/lastmile_qr_scan"}, "is_reserved": 0, "fusion_lon": 0.0, "fusion_lat": 0.0, "lon": -76.93214366666666, "name": "e3afa7f638125dd7fa16f64bb43ee42b"}, {"bike_id": "0e984ff0a3f5dcf4b20de43ed8bd8990", "type": "electric_scooter", "is_disabled": 0, "lat": 38.905922, "rental_uris": {"ios": "https://dc.lft.to/lastmile_qr_scan", "android": "https://dc.lft.to/lastmile_qr_scan"}, "is_reserved": 0, "fusion_lon": 0.0, "fusion_lat": 0.0, "lon": -77.07005383333333, "name": "0e984ff0a3f5dcf4b20de43ed8bd8990"}, {"bike_id": "2df382f079d2f33856ebc69feee0cae7", "type": "electric_scooter", "is_disabled": 0, "lat": 38.90685883333333, "rental_uris": {"ios": "https://dc.lft.to/lastmile_qr_scan", "android": "https://dc.lft.to/lastmile_qr_scan"}, "is_reserved": 0, "fusion_lon": 0.0, "fusion_lat": 0.0, "lon": -77.0367395, "name": "2df382f079d2f33856ebc69feee0cae7"}, {"bike_id": "daf49657e71022dc36d7c989b702e161", "type": "electric_scooter", "is_disabled": 0, "lat": 38.93222333333333, "rental_uris": {"ios": "https://dc.lft.to/lastmile_qr_scan", "android": "https://dc.lft.to/lastmile_qr_scan"}, "is_reserved": 0, "fusion_lon": 0.0, "fusion_lat": 0.0, "lon": -77.0304515, "name": "daf49657e71022dc36d7c989b702e161"}, {"bike_id": "5d697086ee706047b8af85494a64a86f", "type": "electric_scooter", "is_disabled": 0, "lat": 38.90495583333333, "rental_uris": {"ios": "https://dc.lft.to/lastmile_qr_scan", "android": "https://dc.lft.to/lastmile_qr_scan"}, "is_reserved": 0, "fusion_lon": 0.0, "fusion_lat": 0.0, "lon": -76.98979783333333, "name": "5d697086ee706047b8af85494a64a86f"}, {"bike_id": "5948b319c3af26a9fe795f659e8e4410", "type": "electric_scooter", "is_disabled": 0, "lat": 38.874707, "rental_uris": {"ios": "https://dc.lft.to/lastmile_qr_scan", "android": "https://dc.lft.to/lastmile_qr_scan"}, "is_reserved": 0, "fusion_lon": 0.0, "fusion_lat": 0.0, "lon": -76.99976383333333, "name": "5948b319c3af26a9fe795f659e8e4410"}, {"bike_id": "a199fcddd252c8dd6bf006427d03d3f5", "type": "electric_bike", "is_disabled": 0, "lat": 38.95787383333333, "rental_uris": {"ios": "https://dc.lft.to/lastmile_qr_scan", "android": "https://dc.lft.to/lastmile_qr_scan"}, "is_reserved": 0, "fusion_lon": 0.0, "fusion_lat": 0.0, "lon": -77.0200435, "name": "a199fcddd252c8dd6bf006427d03d3f5"}, {"bike_id": "a917ce6d893e6e0c0f6c9ed6d8da4ff2", "type": "electric_scooter", "is_disabled": 0, "lat": 38.919093833333335, "rental_uris": {"ios": "https://dc.lft.to/lastmile_qr_scan", "android": "https://dc.lft.to/lastmile_qr_scan"}, "is_reserved": 0, "fusion_lon": 0.0, "fusion_lat": 0.0, "lon": -77.041658, "name": "a917ce6d893e6e0c0f6c9ed6d8da4ff2"}, {"bike_id": "78110f2e5d9e6e9d6ff7af6b40b3f7e0", "type": "electric_scooter", "is_disabled": 0, "lat": 38.90227466666666, "rental_uris": {"ios": "https://dc.lft.to/lastmile_qr_scan", "android": "https://dc.lft.to/lastmile_qr_scan"}, "is_reserved": 0, "fusion_lon": 0.0, "fusion_lat": 0.0, "lon": -77.0019975, "name": "78110f2e5d9e6e9d6ff7af6b40b3f7e0"}, {"bike_id": "ae72e1da93a609a0aa244b20e76c9bdf", "type": "electric_scooter", "is_disabled": 0, "lat": 38.945562333333335, "rental_uris": {"ios": "https://dc.lft.to/lastmile_qr_scan", "android": "https://dc.lft.to/lastmile_qr_scan"}, "is_reserved": 0, "fusion_lon": 0.0, "fusion_lat": 0.0, "lon": -77.0712575, "name": "ae72e1da93a609a0aa244b20e76c9bdf"}, {"bike_id": "1c6fbb621e58e38600f4eb8701104125", "type": "electric_scooter", "is_disabled": 0, "lat": 38.884494, "rental_uris": {"ios": "https://dc.lft.to/lastmile_qr_scan", "android": "https://dc.lft.to/lastmile_qr_scan"}, "is_reserved": 0, "fusion_lon": 0.0, "fusion_lat": 0.0, "lon": -76.95098866666666, "name": "1c6fbb621e58e38600f4eb8701104125"}, {"bike_id": "b1153405c3f0e99c50ea14b7636970fc", "type": "electric_bike", "is_disabled": 0, "lat": 38.8709985, "rental_uris": {"ios": "https://dc.lft.to/lastmile_qr_scan", "android": "https://dc.lft.to/lastmile_qr_scan"}, "is_reserved": 0, "fusion_lon": 0.0, "fusion_lat": 0.0, "lon": -77.01214483333334, "name": "b1153405c3f0e99c50ea14b7636970fc"}, {"bike_id": "665ad2e983ebe10aa2a966275befca27", "type": "electric_scooter", "is_disabled": 0, "lat": 38.905646833333336, "rental_uris": {"ios": "https://dc.lft.to/lastmile_qr_scan", "android": "https://dc.lft.to/lastmile_qr_scan"}, "is_reserved": 0, "fusion_lon": 0.0, "fusion_lat": 0.0, "lon": -77.006282, "name": "665ad2e983ebe10aa2a966275befca27"}, {"bike_id": "d956a879f596ca5af5d56899437662cb", "type": "electric_scooter", "is_disabled": 0, "lat": 38.90671283333333, "rental_uris": {"ios": "https://dc.lft.to/lastmile_qr_scan", "android": "https://dc.lft.to/lastmile_qr_scan"}, "is_reserved": 0, "fusion_lon": 0.0, "fusion_lat": 0.0, "lon": -77.0381015, "name": "d956a879f596ca5af5d56899437662cb"}, {"bike_id": "c6a831e798f93d2d57e5179e9d03ac0e", "type": "electric_scooter", "is_disabled": 0, "lat": 38.919216166666665, "rental_uris": {"ios": "https://dc.lft.to/lastmile_qr_scan", "android": "https://dc.lft.to/lastmile_qr_scan"}, "is_reserved": 0, "fusion_lon": 0.0, "fusion_lat": 0.0, "lon": -77.0417555, "name": "c6a831e798f93d2d57e5179e9d03ac0e"}, {"bike_id": "8741470396b6e3f3ef7661da990fb72b", "type": "electric_scooter", "is_disabled": 0, "lat": 38.899676166666666, "rental_uris": {"ios": "https://dc.lft.to/lastmile_qr_scan", "android": "https://dc.lft.to/lastmile_qr_scan"}, "is_reserved": 0, "fusion_lon": 0.0, "fusion_lat": 0.0, "lon": -76.9829975, "name": "8741470396b6e3f3ef7661da990fb72b"}, {"bike_id": "2111b7a39ae263890879e50dc8de0dc2", "type": "electric_scooter", "is_disabled": 0, "lat": 38.915328833333334, "rental_uris": {"ios": "https://dc.lft.to/lastmile_qr_scan", "android": "https://dc.lft.to/lastmile_qr_scan"}, "is_reserved": 0, "fusion_lon": 0.0, "fusion_lat": 0.0, "lon": -77.032007, "name": "2111b7a39ae263890879e50dc8de0dc2"}, {"bike_id": "fabe11ede8ac95f936f37948d7f4762b", "type": "electric_bike", "is_disabled": 0, "lat": 38.85893083333333, "rental_uris": {"ios": "https://dc.lft.to/lastmile_qr_scan", "android": "https://dc.lft.to/lastmile_qr_scan"}, "is_reserved": 0, "fusion_lon": 0.0, "fusion_lat": 0.0, "lon": -77.11865916666666, "name": "fabe11ede8ac95f936f37948d7f4762b"}, {"bike_id": "0357704e8eb97b71881e679a6e309a33", "type": "electric_scooter", "is_disabled": 0, "lat": 38.892176666666664, "rental_uris": {"ios": "https://dc.lft.to/lastmile_qr_scan", "android": "https://dc.lft.to/lastmile_qr_scan"}, "is_reserved": 0, "fusion_lon": 0.0, "fusion_lat": 0.0, "lon": -77.04661983333334, "name": "0357704e8eb97b71881e679a6e309a33"}, {"bike_id": "e71fa242da04a233a3e83891c26200ec", "type": "electric_scooter", "is_disabled": 0, "lat": 38.9073125, "rental_uris": {"ios": "https://dc.lft.to/lastmile_qr_scan", "android": "https://dc.lft.to/lastmile_qr_scan"}, "is_reserved": 0, "fusion_lon": 0.0, "fusion_lat": 0.0, "lon": -77.00064683333333, "name": "e71fa242da04a233a3e83891c26200ec"}, {"bike_id": "4433e42ce035d04f1871895900b0ebc5", "type": "electric_scooter", "is_disabled": 0, "lat": 38.876427666666665, "rental_uris": {"ios": "https://dc.lft.to/lastmile_qr_scan", "android": "https://dc.lft.to/lastmile_qr_scan"}, "is_reserved": 0, "fusion_lon": 0.0, "fusion_lat": 0.0, "lon": -77.00430333333334, "name": "4433e42ce035d04f1871895900b0ebc5"}, {"bike_id": "ede999aeebacccb1624579d82385bd21", "type": "electric_bike", "is_disabled": 0, "lat": 39.01476566666667, "rental_uris": {"ios": "https://dc.lft.to/lastmile_qr_scan", "android": "https://dc.lft.to/lastmile_qr_scan"}, "is_reserved": 0, "fusion_lon": 0.0, "fusion_lat": 0.0, "lon": -77.054987, "name": "ede999aeebacccb1624579d82385bd21"}, {"bike_id": "6f22ac2b6fe6125fe7cb3f2dbc997cd3", "type": "electric_scooter", "is_disabled": 0, "lat": 38.91958366666667, "rental_uris": {"ios": "https://dc.lft.to/lastmile_qr_scan", "android": "https://dc.lft.to/lastmile_qr_scan"}, "is_reserved": 0, "fusion_lon": 0.0, "fusion_lat": 0.0, "lon": -77.01440283333334, "name": "6f22ac2b6fe6125fe7cb3f2dbc997cd3"}, {"bike_id": "f7f41b0f344028c90bec3e4fe68cb744", "type": "electric_scooter", "is_disabled": 0, "lat": 38.910768166666664, "rental_uris": {"ios": "https://dc.lft.to/lastmile_qr_scan", "android": "https://dc.lft.to/lastmile_qr_scan"}, "is_reserved": 0, "fusion_lon": 0.0, "fusion_lat": 0.0, "lon": -77.00454116666667, "name": "f7f41b0f344028c90bec3e4fe68cb744"}, {"bike_id": "245d76dff3cc7c42a4e3029f24c6a347", "type": "electric_scooter", "is_disabled": 0, "lat": 38.90851683333333, "rental_uris": {"ios": "https://dc.lft.to/lastmile_qr_scan", "android": "https://dc.lft.to/lastmile_qr_scan"}, "is_reserved": 0, "fusion_lon": 0.0, "fusion_lat": 0.0, "lon": -77.02507516666667, "name": "245d76dff3cc7c42a4e3029f24c6a347"}, {"bike_id": "578a737b01728219920faa42830b5668", "type": "electric_scooter", "is_disabled": 0, "lat": 38.90166766666667, "rental_uris": {"ios": "https://dc.lft.to/lastmile_qr_scan", "android": "https://dc.lft.to/lastmile_qr_scan"}, "is_reserved": 0, "fusion_lon": 0.0, "fusion_lat": 0.0, "lon": -76.93023766666667, "name": "578a737b01728219920faa42830b5668"}, {"bike_id": "342d7baec06df419dc0261b2a6dda978", "type": "electric_scooter", "is_disabled": 0, "lat": 38.92404783333333, "rental_uris": {"ios": "https://dc.lft.to/lastmile_qr_scan", "android": "https://dc.lft.to/lastmile_qr_scan"}, "is_reserved": 0, "fusion_lon": 0.0, "fusion_lat": 0.0, "lon": -77.05059966666667, "name": "342d7baec06df419dc0261b2a6dda978"}, {"bike_id": "ca3727882f25a29b1c26d80a0875eca1", "type": "electric_scooter", "is_disabled": 0, "lat": 38.956223333333334, "rental_uris": {"ios": "https://dc.lft.to/lastmile_qr_scan", "android": "https://dc.lft.to/lastmile_qr_scan"}, "is_reserved": 0, "fusion_lon": 0.0, "fusion_lat": 0.0, "lon": -77.01165016666667, "name": "ca3727882f25a29b1c26d80a0875eca1"}, {"bike_id": "294956c4db803241c621affe655f640a", "type": "electric_scooter", "is_disabled": 0, "lat": 38.896769, "rental_uris": {"ios": "https://dc.lft.to/lastmile_qr_scan", "android": "https://dc.lft.to/lastmile_qr_scan"}, "is_reserved": 0, "fusion_lon": 0.0, "fusion_lat": 0.0, "lon": -77.03359616666667, "name": "294956c4db803241c621affe655f640a"}, {"bike_id": "2918613ef037e43a8537eab484f73442", "type": "electric_scooter", "is_disabled": 0, "lat": 38.956508166666666, "rental_uris": {"ios": "https://dc.lft.to/lastmile_qr_scan", "android": "https://dc.lft.to/lastmile_qr_scan"}, "is_reserved": 0, "fusion_lon": 0.0, "fusion_lat": 0.0, "lon": -77.01004333333333, "name": "2918613ef037e43a8537eab484f73442"}, {"bike_id": "9c1c839cd61bb15a6b9d27aeb9132058", "type": "electric_scooter", "is_disabled": 0, "lat": 38.89521233333333, "rental_uris": {"ios": "https://dc.lft.to/lastmile_qr_scan", "android": "https://dc.lft.to/lastmile_qr_scan"}, "is_reserved": 0, "fusion_lon": 0.0, "fusion_lat": 0.0, "lon": -77.01098683333333, "name": "9c1c839cd61bb15a6b9d27aeb9132058"}, {"bike_id": "58d16eb3c75f742999889e715262030b", "type": "electric_scooter", "is_disabled": 0, "lat": 38.900573666666666, "rental_uris": {"ios": "https://dc.lft.to/lastmile_qr_scan", "android": "https://dc.lft.to/lastmile_qr_scan"}, "is_reserved": 0, "fusion_lon": 0.0, "fusion_lat": 0.0, "lon": -77.04895083333334, "name": "58d16eb3c75f742999889e715262030b"}, {"bike_id": "8b36c92aa49c655f45a1773ba9118873", "type": "electric_bike", "is_disabled": 0, "lat": 38.87472016666667, "rental_uris": {"ios": "https://dc.lft.to/lastmile_qr_scan", "android": "https://dc.lft.to/lastmile_qr_scan"}, "is_reserved": 0, "fusion_lon": 0.0, "fusion_lat": 0.0, "lon": -76.965272, "name": "8b36c92aa49c655f45a1773ba9118873"}, {"bike_id": "068b5b8aa6a1fd092284e6f17b7790b6", "type": "electric_scooter", "is_disabled": 0, "lat": 38.8873455, "rental_uris": {"ios": "https://dc.lft.to/lastmile_qr_scan", "android": "https://dc.lft.to/lastmile_qr_scan"}, "is_reserved": 0, "fusion_lon": 0.0, "fusion_lat": 0.0, "lon": -77.01532966666667, "name": "068b5b8aa6a1fd092284e6f17b7790b6"}, {"bike_id": "3bbfbfb8f64396195d32466eaa1fea4a", "type": "electric_bike", "is_disabled": 0, "lat": 38.81305, "rental_uris": {"ios": "https://dc.lft.to/lastmile_qr_scan", "android": "https://dc.lft.to/lastmile_qr_scan"}, "is_reserved": 0, "fusion_lon": 0.0, "fusion_lat": 0.0, "lon": -77.10967666666667, "name": "3bbfbfb8f64396195d32466eaa1fea4a"}, {"bike_id": "af1781fc77e823dd2a62821d477be17a", "type": "electric_scooter", "is_disabled": 0, "lat": 38.90835233333333, "rental_uris": {"ios": "https://dc.lft.to/lastmile_qr_scan", "android": "https://dc.lft.to/lastmile_qr_scan"}, "is_reserved": 0, "fusion_lon": 0.0, "fusion_lat": 0.0, "lon": -77.02970166666667, "name": "af1781fc77e823dd2a62821d477be17a"}, {"bike_id": "cf8521b03ac443a47616c1a296430b24", "type": "electric_scooter", "is_disabled": 0, "lat": 38.90673, "rental_uris": {"ios": "https://dc.lft.to/lastmile_qr_scan", "android": "https://dc.lft.to/lastmile_qr_scan"}, "is_reserved": 0, "fusion_lon": 0.0, "fusion_lat": 0.0, "lon": -77.06267516666666, "name": "cf8521b03ac443a47616c1a296430b24"}, {"bike_id": "ab37aecc87f3e05606bf3587f3a15d27", "type": "electric_scooter", "is_disabled": 0, "lat": 38.9086975, "rental_uris": {"ios": "https://dc.lft.to/lastmile_qr_scan", "android": "https://dc.lft.to/lastmile_qr_scan"}, "is_reserved": 0, "fusion_lon": 0.0, "fusion_lat": 0.0, "lon": -77.002271, "name": "ab37aecc87f3e05606bf3587f3a15d27"}, {"bike_id": "635f05fbb1a5fd527eecdb186d32d586", "type": "electric_scooter", "is_disabled": 0, "lat": 38.93388216666666, "rental_uris": {"ios": "https://dc.lft.to/lastmile_qr_scan", "android": "https://dc.lft.to/lastmile_qr_scan"}, "is_reserved": 0, "fusion_lon": 0.0, "fusion_lat": 0.0, "lon": -77.04550583333334, "name": "635f05fbb1a5fd527eecdb186d32d586"}, {"bike_id": "a7ebb6914602b806256571d0f41d25d3", "type": "electric_scooter", "is_disabled": 0, "lat": 38.88696083333333, "rental_uris": {"ios": "https://dc.lft.to/lastmile_qr_scan", "android": "https://dc.lft.to/lastmile_qr_scan"}, "is_reserved": 0, "fusion_lon": 0.0, "fusion_lat": 0.0, "lon": -76.996185, "name": "a7ebb6914602b806256571d0f41d25d3"}, {"bike_id": "a8caad23ffc809e970174e0bb55f3090", "type": "electric_scooter", "is_disabled": 0, "lat": 38.908853, "rental_uris": {"ios": "https://dc.lft.to/lastmile_qr_scan", "android": "https://dc.lft.to/lastmile_qr_scan"}, "is_reserved": 0, "fusion_lon": 0.0, "fusion_lat": 0.0, "lon": -76.99831866666666, "name": "a8caad23ffc809e970174e0bb55f3090"}, {"bike_id": "3959845774bd37ca608aeb66970f46fe", "type": "electric_scooter", "is_disabled": 0, "lat": 38.90519283333333, "rental_uris": {"ios": "https://dc.lft.to/lastmile_qr_scan", "android": "https://dc.lft.to/lastmile_qr_scan"}, "is_reserved": 0, "fusion_lon": 0.0, "fusion_lat": 0.0, "lon": -77.06225383333333, "name": "3959845774bd37ca608aeb66970f46fe"}, {"bike_id": "bb93ca3fd4ae5b8eeef4b4a6c466f8cf", "type": "electric_scooter", "is_disabled": 0, "lat": 38.90803066666667, "rental_uris": {"ios": "https://dc.lft.to/lastmile_qr_scan", "android": "https://dc.lft.to/lastmile_qr_scan"}, "is_reserved": 0, "fusion_lon": 0.0, "fusion_lat": 0.0, "lon": -77.0304865, "name": "bb93ca3fd4ae5b8eeef4b4a6c466f8cf"}, {"bike_id": "385f94bbc9225559c27a01c02d0311aa", "type": "electric_scooter", "is_disabled": 0, "lat": 38.929658833333335, "rental_uris": {"ios": "https://dc.lft.to/lastmile_qr_scan", "android": "https://dc.lft.to/lastmile_qr_scan"}, "is_reserved": 0, "fusion_lon": 0.0, "fusion_lat": 0.0, "lon": -77.03251716666666, "name": "385f94bbc9225559c27a01c02d0311aa"}, {"bike_id": "911229fc8b516bd38e83db6961c63eac", "type": "electric_scooter", "is_disabled": 0, "lat": 38.926650333333335, "rental_uris": {"ios": "https://dc.lft.to/lastmile_qr_scan", "android": "https://dc.lft.to/lastmile_qr_scan"}, "is_reserved": 0, "fusion_lon": 0.0, "fusion_lat": 0.0, "lon": -77.014729, "name": "911229fc8b516bd38e83db6961c63eac"}, {"bike_id": "570847b4a1bd3be2433f532740f8ac6e", "type": "electric_scooter", "is_disabled": 0, "lat": 38.90049883333333, "rental_uris": {"ios": "https://dc.lft.to/lastmile_qr_scan", "android": "https://dc.lft.to/lastmile_qr_scan"}, "is_reserved": 0, "fusion_lon": 0.0, "fusion_lat": 0.0, "lon": -77.03657366666667, "name": "570847b4a1bd3be2433f532740f8ac6e"}, {"bike_id": "e1ccb06862b86b71086c95d6e6af8251", "type": "electric_scooter", "is_disabled": 0, "lat": 38.91401066666667, "rental_uris": {"ios": "https://dc.lft.to/lastmile_qr_scan", "android": "https://dc.lft.to/lastmile_qr_scan"}, "is_reserved": 0, "fusion_lon": 0.0, "fusion_lat": 0.0, "lon": -77.02117216666667, "name": "e1ccb06862b86b71086c95d6e6af8251"}, {"bike_id": "576ebcb2ad1d8c44c5bdafa374f40b73", "type": "electric_bike", "is_disabled": 0, "lat": 38.857684, "rental_uris": {"ios": "https://dc.lft.to/lastmile_qr_scan", "android": "https://dc.lft.to/lastmile_qr_scan"}, "is_reserved": 0, "fusion_lon": 0.0, "fusion_lat": 0.0, "lon": -76.98769183333333, "name": "576ebcb2ad1d8c44c5bdafa374f40b73"}, {"bike_id": "03c0b9a3d3bcbd8882ca842607146ef4", "type": "electric_scooter", "is_disabled": 0, "lat": 38.933534333333334, "rental_uris": {"ios": "https://dc.lft.to/lastmile_qr_scan", "android": "https://dc.lft.to/lastmile_qr_scan"}, "is_reserved": 0, "fusion_lon": 0.0, "fusion_lat": 0.0, "lon": -77.07312733333333, "name": "03c0b9a3d3bcbd8882ca842607146ef4"}, {"bike_id": "d7ebd8d44d28c351f1fe2100e301fb0f", "type": "electric_scooter", "is_disabled": 0, "lat": 38.843127333333335, "rental_uris": {"ios": "https://dc.lft.to/lastmile_qr_scan", "android": "https://dc.lft.to/lastmile_qr_scan"}, "is_reserved": 0, "fusion_lon": 0.0, "fusion_lat": 0.0, "lon": -76.999222, "name": "d7ebd8d44d28c351f1fe2100e301fb0f"}, {"bike_id": "ddc5f96e80d2a104d1a6349f93ed8448", "type": "electric_scooter", "is_disabled": 0, "lat": 38.92817516666667, "rental_uris": {"ios": "https://dc.lft.to/lastmile_qr_scan", "android": "https://dc.lft.to/lastmile_qr_scan"}, "is_reserved": 0, "fusion_lon": 0.0, "fusion_lat": 0.0, "lon": -77.02253266666666, "name": "ddc5f96e80d2a104d1a6349f93ed8448"}, {"bike_id": "8fb6159601ad516f0528f051dca5c60e", "type": "electric_scooter", "is_disabled": 0, "lat": 38.914035, "rental_uris": {"ios": "https://dc.lft.to/lastmile_qr_scan", "android": "https://dc.lft.to/lastmile_qr_scan"}, "is_reserved": 0, "fusion_lon": 0.0, "fusion_lat": 0.0, "lon": -77.0359175, "name": "8fb6159601ad516f0528f051dca5c60e"}, {"bike_id": "ae51273c1176f715584a68631097bc7a", "type": "electric_scooter", "is_disabled": 0, "lat": 38.9287145, "rental_uris": {"ios": "https://dc.lft.to/lastmile_qr_scan", "android": "https://dc.lft.to/lastmile_qr_scan"}, "is_reserved": 0, "fusion_lon": 0.0, "fusion_lat": 0.0, "lon": -77.03434416666667, "name": "ae51273c1176f715584a68631097bc7a"}, {"bike_id": "72fa7c1d2584bd16ff94c2f9b752c5af", "type": "electric_scooter", "is_disabled": 0, "lat": 38.9018085, "rental_uris": {"ios": "https://dc.lft.to/lastmile_qr_scan", "android": "https://dc.lft.to/lastmile_qr_scan"}, "is_reserved": 0, "fusion_lon": 0.0, "fusion_lat": 0.0, "lon": -77.03954083333333, "name": "72fa7c1d2584bd16ff94c2f9b752c5af"}, {"bike_id": "5a3f1ca8dc6867fe49d9a25c0c8f772b", "type": "electric_scooter", "is_disabled": 0, "lat": 38.92671, "rental_uris": {"ios": "https://dc.lft.to/lastmile_qr_scan", "android": "https://dc.lft.to/lastmile_qr_scan"}, "is_reserved": 0, "fusion_lon": 0.0, "fusion_lat": 0.0, "lon": -77.01513766666666, "name": "5a3f1ca8dc6867fe49d9a25c0c8f772b"}, {"bike_id": "3dcfaccceed36a90848ec054668980af", "type": "electric_scooter", "is_disabled": 0, "lat": 38.920651666666664, "rental_uris": {"ios": "https://dc.lft.to/lastmile_qr_scan", "android": "https://dc.lft.to/lastmile_qr_scan"}, "is_reserved": 0, "fusion_lon": 0.0, "fusion_lat": 0.0, "lon": -77.00451683333333, "name": "3dcfaccceed36a90848ec054668980af"}, {"bike_id": "c0a54f385c5145f1bc1dcfb002577c77", "type": "electric_scooter", "is_disabled": 0, "lat": 38.92865466666667, "rental_uris": {"ios": "https://dc.lft.to/lastmile_qr_scan", "android": "https://dc.lft.to/lastmile_qr_scan"}, "is_reserved": 0, "fusion_lon": 0.0, "fusion_lat": 0.0, "lon": -77.02176966666667, "name": "c0a54f385c5145f1bc1dcfb002577c77"}, {"bike_id": "959039cfe9742fe650a4b49d9068b686", "type": "electric_scooter", "is_disabled": 0, "lat": 38.95222066666667, "rental_uris": {"ios": "https://dc.lft.to/lastmile_qr_scan", "android": "https://dc.lft.to/lastmile_qr_scan"}, "is_reserved": 0, "fusion_lon": 0.0, "fusion_lat": 0.0, "lon": -77.07070866666666, "name": "959039cfe9742fe650a4b49d9068b686"}, {"bike_id": "af5399550ba678d0b7a49200d93d09dd", "type": "electric_bike", "is_disabled": 0, "lat": 38.854352666666664, "rental_uris": {"ios": "https://dc.lft.to/lastmile_qr_scan", "android": "https://dc.lft.to/lastmile_qr_scan"}, "is_reserved": 0, "fusion_lon": 0.0, "fusion_lat": 0.0, "lon": -77.08308433333333, "name": "af5399550ba678d0b7a49200d93d09dd"}, {"bike_id": "9d84a0549aa5b382ba58be5d0684fc4e", "type": "electric_scooter", "is_disabled": 0, "lat": 38.91955033333333, "rental_uris": {"ios": "https://dc.lft.to/lastmile_qr_scan", "android": "https://dc.lft.to/lastmile_qr_scan"}, "is_reserved": 0, "fusion_lon": 0.0, "fusion_lat": 0.0, "lon": -77.04884116666666, "name": "9d84a0549aa5b382ba58be5d0684fc4e"}, {"bike_id": "36b6f2a38170a9f538b90313192ff8e4", "type": "electric_scooter", "is_disabled": 0, "lat": 38.923675, "rental_uris": {"ios": "https://dc.lft.to/lastmile_qr_scan", "android": "https://dc.lft.to/lastmile_qr_scan"}, "is_reserved": 0, "fusion_lon": 0.0, "fusion_lat": 0.0, "lon": -77.02949666666666, "name": "36b6f2a38170a9f538b90313192ff8e4"}, {"bike_id": "732dc552e5552c98a21c22c4d90b950c", "type": "electric_scooter", "is_disabled": 0, "lat": 38.929797, "rental_uris": {"ios": "https://dc.lft.to/lastmile_qr_scan", "android": "https://dc.lft.to/lastmile_qr_scan"}, "is_reserved": 0, "fusion_lon": 0.0, "fusion_lat": 0.0, "lon": -77.037765, "name": "732dc552e5552c98a21c22c4d90b950c"}, {"bike_id": "1e67cd3ea0ef52fd25c544e28571610c", "type": "electric_scooter", "is_disabled": 0, "lat": 38.90950816666667, "rental_uris": {"ios": "https://dc.lft.to/lastmile_qr_scan", "android": "https://dc.lft.to/lastmile_qr_scan"}, "is_reserved": 0, "fusion_lon": 0.0, "fusion_lat": 0.0, "lon": -77.022221, "name": "1e67cd3ea0ef52fd25c544e28571610c"}, {"bike_id": "be211e309976e40ae2f2f78db4c2fda4", "type": "electric_scooter", "is_disabled": 0, "lat": 38.92465766666667, "rental_uris": {"ios": "https://dc.lft.to/lastmile_qr_scan", "android": "https://dc.lft.to/lastmile_qr_scan"}, "is_reserved": 0, "fusion_lon": 0.0, "fusion_lat": 0.0, "lon": -77.03556233333333, "name": "be211e309976e40ae2f2f78db4c2fda4"}, {"bike_id": "6463d5c4646030154a17346f8f891004", "type": "electric_bike", "is_disabled": 0, "lat": 38.9646885, "rental_uris": {"ios": "https://dc.lft.to/lastmile_qr_scan", "android": "https://dc.lft.to/lastmile_qr_scan"}, "is_reserved": 0, "fusion_lon": 0.0, "fusion_lat": 0.0, "lon": -77.03564433333334, "name": "6463d5c4646030154a17346f8f891004"}, {"bike_id": "f4cc71e995f7d181cfd9119ce8ba0ab4", "type": "electric_scooter", "is_disabled": 0, "lat": 38.912552833333336, "rental_uris": {"ios": "https://dc.lft.to/lastmile_qr_scan", "android": "https://dc.lft.to/lastmile_qr_scan"}, "is_reserved": 0, "fusion_lon": 0.0, "fusion_lat": 0.0, "lon": -77.03262083333334, "name": "f4cc71e995f7d181cfd9119ce8ba0ab4"}, {"bike_id": "c5b1c34f88727050a39227a8e95a2ba7", "type": "electric_scooter", "is_disabled": 0, "lat": 38.912402166666666, "rental_uris": {"ios": "https://dc.lft.to/lastmile_qr_scan", "android": "https://dc.lft.to/lastmile_qr_scan"}, "is_reserved": 0, "fusion_lon": 0.0, "fusion_lat": 0.0, "lon": -77.0222495, "name": "c5b1c34f88727050a39227a8e95a2ba7"}, {"bike_id": "1fde5e76c8eb251d0a6d437b846168a7", "type": "electric_scooter", "is_disabled": 0, "lat": 38.942870166666665, "rental_uris": {"ios": "https://dc.lft.to/lastmile_qr_scan", "android": "https://dc.lft.to/lastmile_qr_scan"}, "is_reserved": 0, "fusion_lon": 0.0, "fusion_lat": 0.0, "lon": -77.0217315, "name": "1fde5e76c8eb251d0a6d437b846168a7"}, {"bike_id": "9fbc569d990c73899987acdb9ffd7a6c", "type": "electric_scooter", "is_disabled": 0, "lat": 38.91373683333333, "rental_uris": {"ios": "https://dc.lft.to/lastmile_qr_scan", "android": "https://dc.lft.to/lastmile_qr_scan"}, "is_reserved": 0, "fusion_lon": 0.0, "fusion_lat": 0.0, "lon": -77.0414025, "name": "9fbc569d990c73899987acdb9ffd7a6c"}, {"bike_id": "1ffa79a5e240d4b7765d4b14bf398c33", "type": "electric_scooter", "is_disabled": 0, "lat": 38.90971283333333, "rental_uris": {"ios": "https://dc.lft.to/lastmile_qr_scan", "android": "https://dc.lft.to/lastmile_qr_scan"}, "is_reserved": 0, "fusion_lon": 0.0, "fusion_lat": 0.0, "lon": -77.04878716666667, "name": "1ffa79a5e240d4b7765d4b14bf398c33"}, {"bike_id": "1723a4c7c0429eba7d4a1305491dabcd", "type": "electric_scooter", "is_disabled": 0, "lat": 38.9190845, "rental_uris": {"ios": "https://dc.lft.to/lastmile_qr_scan", "android": "https://dc.lft.to/lastmile_qr_scan"}, "is_reserved": 0, "fusion_lon": 0.0, "fusion_lat": 0.0, "lon": -77.04176616666666, "name": "1723a4c7c0429eba7d4a1305491dabcd"}, {"bike_id": "622d7bae541f21fce039757d27d04024", "type": "electric_scooter", "is_disabled": 0, "lat": 38.93675833333333, "rental_uris": {"ios": "https://dc.lft.to/lastmile_qr_scan", "android": "https://dc.lft.to/lastmile_qr_scan"}, "is_reserved": 0, "fusion_lon": 0.0, "fusion_lat": 0.0, "lon": -77.03592533333334, "name": "622d7bae541f21fce039757d27d04024"}, {"bike_id": "e69da1daeaadafe284dd8b4eefae214b", "type": "electric_scooter", "is_disabled": 0, "lat": 38.885637833333334, "rental_uris": {"ios": "https://dc.lft.to/lastmile_qr_scan", "android": "https://dc.lft.to/lastmile_qr_scan"}, "is_reserved": 0, "fusion_lon": 0.0, "fusion_lat": 0.0, "lon": -77.0020585, "name": "e69da1daeaadafe284dd8b4eefae214b"}, {"bike_id": "10f3168dc3212d440fec1f3b522bf2a9", "type": "electric_scooter", "is_disabled": 0, "lat": 38.9547545, "rental_uris": {"ios": "https://dc.lft.to/lastmile_qr_scan", "android": "https://dc.lft.to/lastmile_qr_scan"}, "is_reserved": 0, "fusion_lon": 0.0, "fusion_lat": 0.0, "lon": -77.08217716666667, "name": "10f3168dc3212d440fec1f3b522bf2a9"}, {"bike_id": "f15415e402e06a3ed546804be7205d9b", "type": "electric_scooter", "is_disabled": 0, "lat": 38.8668415, "rental_uris": {"ios": "https://dc.lft.to/lastmile_qr_scan", "android": "https://dc.lft.to/lastmile_qr_scan"}, "is_reserved": 0, "fusion_lon": 0.0, "fusion_lat": 0.0, "lon": -76.98587233333333, "name": "f15415e402e06a3ed546804be7205d9b"}, {"bike_id": "63dc645adb129677cf8c8fac0e2535d4", "type": "electric_scooter", "is_disabled": 0, "lat": 38.942699166666664, "rental_uris": {"ios": "https://dc.lft.to/lastmile_qr_scan", "android": "https://dc.lft.to/lastmile_qr_scan"}, "is_reserved": 0, "fusion_lon": 0.0, "fusion_lat": 0.0, "lon": -77.032606, "name": "63dc645adb129677cf8c8fac0e2535d4"}, {"bike_id": "a6d1d17f74940dbf0d2835b923a549d4", "type": "electric_scooter", "is_disabled": 0, "lat": 38.853182, "rental_uris": {"ios": "https://dc.lft.to/lastmile_qr_scan", "android": "https://dc.lft.to/lastmile_qr_scan"}, "is_reserved": 0, "fusion_lon": 0.0, "fusion_lat": 0.0, "lon": -76.980053, "name": "a6d1d17f74940dbf0d2835b923a549d4"}, {"bike_id": "3551b3c1cee67f932a43996ca18d9deb", "type": "electric_scooter", "is_disabled": 0, "lat": 38.89214316666666, "rental_uris": {"ios": "https://dc.lft.to/lastmile_qr_scan", "android": "https://dc.lft.to/lastmile_qr_scan"}, "is_reserved": 0, "fusion_lon": 0.0, "fusion_lat": 0.0, "lon": -77.04664466666667, "name": "3551b3c1cee67f932a43996ca18d9deb"}, {"bike_id": "4da29604f71162c56ac849a46e13983e", "type": "electric_scooter", "is_disabled": 0, "lat": 38.89007016666667, "rental_uris": {"ios": "https://dc.lft.to/lastmile_qr_scan", "android": "https://dc.lft.to/lastmile_qr_scan"}, "is_reserved": 0, "fusion_lon": 0.0, "fusion_lat": 0.0, "lon": -76.93748033333334, "name": "4da29604f71162c56ac849a46e13983e"}, {"bike_id": "d2d756ad1ee74e092506da4c67a24501", "type": "electric_scooter", "is_disabled": 0, "lat": 38.92472816666667, "rental_uris": {"ios": "https://dc.lft.to/lastmile_qr_scan", "android": "https://dc.lft.to/lastmile_qr_scan"}, "is_reserved": 0, "fusion_lon": 0.0, "fusion_lat": 0.0, "lon": -77.02833183333334, "name": "d2d756ad1ee74e092506da4c67a24501"}, {"bike_id": "49cfd6becd7b8dfd32d9ac5e593e90a5", "type": "electric_scooter", "is_disabled": 0, "lat": 38.87416966666667, "rental_uris": {"ios": "https://dc.lft.to/lastmile_qr_scan", "android": "https://dc.lft.to/lastmile_qr_scan"}, "is_reserved": 0, "fusion_lon": 0.0, "fusion_lat": 0.0, "lon": -76.96912483333334, "name": "49cfd6becd7b8dfd32d9ac5e593e90a5"}, {"bike_id": "2fa1287e4168c6bc4b16cb1c98e9104b", "type": "electric_scooter", "is_disabled": 0, "lat": 38.87863516666667, "rental_uris": {"ios": "https://dc.lft.to/lastmile_qr_scan", "android": "https://dc.lft.to/lastmile_qr_scan"}, "is_reserved": 0, "fusion_lon": 0.0, "fusion_lat": 0.0, "lon": -76.969863, "name": "2fa1287e4168c6bc4b16cb1c98e9104b"}, {"bike_id": "7ee0258eb7eebb47abe6900b1cecbb33", "type": "electric_scooter", "is_disabled": 0, "lat": 38.90861066666667, "rental_uris": {"ios": "https://dc.lft.to/lastmile_qr_scan", "android": "https://dc.lft.to/lastmile_qr_scan"}, "is_reserved": 0, "fusion_lon": 0.0, "fusion_lat": 0.0, "lon": -76.999581, "name": "7ee0258eb7eebb47abe6900b1cecbb33"}, {"bike_id": "f478c20e3784eee8b3f0d62489c9f2e8", "type": "electric_scooter", "is_disabled": 0, "lat": 38.9139965, "rental_uris": {"ios": "https://dc.lft.to/lastmile_qr_scan", "android": "https://dc.lft.to/lastmile_qr_scan"}, "is_reserved": 0, "fusion_lon": 0.0, "fusion_lat": 0.0, "lon": -77.032627, "name": "f478c20e3784eee8b3f0d62489c9f2e8"}, {"bike_id": "3e1e094b8e055c8edc375c8dea8b2f85", "type": "electric_scooter", "is_disabled": 0, "lat": 38.91775466666667, "rental_uris": {"ios": "https://dc.lft.to/lastmile_qr_scan", "android": "https://dc.lft.to/lastmile_qr_scan"}, "is_reserved": 0, "fusion_lon": 0.0, "fusion_lat": 0.0, "lon": -77.023093, "name": "3e1e094b8e055c8edc375c8dea8b2f85"}, {"bike_id": "5afa01b1f720c0f5b6f33a3976c458bb", "type": "electric_scooter", "is_disabled": 0, "lat": 38.91566533333334, "rental_uris": {"ios": "https://dc.lft.to/lastmile_qr_scan", "android": "https://dc.lft.to/lastmile_qr_scan"}, "is_reserved": 0, "fusion_lon": 0.0, "fusion_lat": 0.0, "lon": -77.02064266666666, "name": "5afa01b1f720c0f5b6f33a3976c458bb"}, {"bike_id": "0d1b45a351f38df827e7df4a2b52fe26", "type": "electric_scooter", "is_disabled": 0, "lat": 38.87638066666667, "rental_uris": {"ios": "https://dc.lft.to/lastmile_qr_scan", "android": "https://dc.lft.to/lastmile_qr_scan"}, "is_reserved": 0, "fusion_lon": 0.0, "fusion_lat": 0.0, "lon": -77.004361, "name": "0d1b45a351f38df827e7df4a2b52fe26"}, {"bike_id": "8341abb37bbf6fcffbbec4b83d650532", "type": "electric_bike", "is_disabled": 0, "lat": 38.884109333333335, "rental_uris": {"ios": "https://dc.lft.to/lastmile_qr_scan", "android": "https://dc.lft.to/lastmile_qr_scan"}, "is_reserved": 0, "fusion_lon": 0.0, "fusion_lat": 0.0, "lon": -76.99536266666667, "name": "8341abb37bbf6fcffbbec4b83d650532"}, {"bike_id": "c4530382d5c468b2f05589f1c94ead1d", "type": "electric_scooter", "is_disabled": 0, "lat": 38.922584666666665, "rental_uris": {"ios": "https://dc.lft.to/lastmile_qr_scan", "android": "https://dc.lft.to/lastmile_qr_scan"}, "is_reserved": 0, "fusion_lon": 0.0, "fusion_lat": 0.0, "lon": -77.01881616666667, "name": "c4530382d5c468b2f05589f1c94ead1d"}, {"bike_id": "a098634d512810a7196a1accb97531d3", "type": "electric_scooter", "is_disabled": 0, "lat": 38.9008975, "rental_uris": {"ios": "https://dc.lft.to/lastmile_qr_scan", "android": "https://dc.lft.to/lastmile_qr_scan"}, "is_reserved": 0, "fusion_lon": 0.0, "fusion_lat": 0.0, "lon": -77.03845933333334, "name": "a098634d512810a7196a1accb97531d3"}, {"bike_id": "30907f0c82e9fcd3ae160207f58b31aa", "type": "electric_scooter", "is_disabled": 0, "lat": 38.84312583333333, "rental_uris": {"ios": "https://dc.lft.to/lastmile_qr_scan", "android": "https://dc.lft.to/lastmile_qr_scan"}, "is_reserved": 0, "fusion_lon": 0.0, "fusion_lat": 0.0, "lon": -76.999331, "name": "30907f0c82e9fcd3ae160207f58b31aa"}, {"bike_id": "264c0c7dbfdeaa45ca8cfab4896ead44", "type": "electric_scooter", "is_disabled": 0, "lat": 38.86480783333333, "rental_uris": {"ios": "https://dc.lft.to/lastmile_qr_scan", "android": "https://dc.lft.to/lastmile_qr_scan"}, "is_reserved": 0, "fusion_lon": 0.0, "fusion_lat": 0.0, "lon": -77.00033666666667, "name": "264c0c7dbfdeaa45ca8cfab4896ead44"}, {"bike_id": "d7531da19836e391e9a6bc185ecc7cda", "type": "electric_scooter", "is_disabled": 0, "lat": 38.918872, "rental_uris": {"ios": "https://dc.lft.to/lastmile_qr_scan", "android": "https://dc.lft.to/lastmile_qr_scan"}, "is_reserved": 0, "fusion_lon": 0.0, "fusion_lat": 0.0, "lon": -77.046239, "name": "d7531da19836e391e9a6bc185ecc7cda"}, {"bike_id": "5f0794974950b59f069b43a2be1ae798", "type": "electric_scooter", "is_disabled": 0, "lat": 38.8911185, "rental_uris": {"ios": "https://dc.lft.to/lastmile_qr_scan", "android": "https://dc.lft.to/lastmile_qr_scan"}, "is_reserved": 0, "fusion_lon": 0.0, "fusion_lat": 0.0, "lon": -76.9915865, "name": "5f0794974950b59f069b43a2be1ae798"}, {"bike_id": "aa161d883207b0ba53bd8ccedc76e08f", "type": "electric_scooter", "is_disabled": 0, "lat": 38.912594666666664, "rental_uris": {"ios": "https://dc.lft.to/lastmile_qr_scan", "android": "https://dc.lft.to/lastmile_qr_scan"}, "is_reserved": 0, "fusion_lon": 0.0, "fusion_lat": 0.0, "lon": -77.06792216666666, "name": "aa161d883207b0ba53bd8ccedc76e08f"}, {"bike_id": "5b0f741257ba8c51dc111dbf19c53d77", "type": "electric_scooter", "is_disabled": 0, "lat": 38.862156166666665, "rental_uris": {"ios": "https://dc.lft.to/lastmile_qr_scan", "android": "https://dc.lft.to/lastmile_qr_scan"}, "is_reserved": 0, "fusion_lon": 0.0, "fusion_lat": 0.0, "lon": -76.99487666666667, "name": "5b0f741257ba8c51dc111dbf19c53d77"}, {"bike_id": "506e9571c22a05b049200db14c6bce4e", "type": "electric_scooter", "is_disabled": 0, "lat": 38.908485166666665, "rental_uris": {"ios": "https://dc.lft.to/lastmile_qr_scan", "android": "https://dc.lft.to/lastmile_qr_scan"}, "is_reserved": 0, "fusion_lon": 0.0, "fusion_lat": 0.0, "lon": -76.99958133333334, "name": "506e9571c22a05b049200db14c6bce4e"}, {"bike_id": "da392ff1a4c819dfd11fdc31fef12710", "type": "electric_scooter", "is_disabled": 0, "lat": 38.914778166666665, "rental_uris": {"ios": "https://dc.lft.to/lastmile_qr_scan", "android": "https://dc.lft.to/lastmile_qr_scan"}, "is_reserved": 0, "fusion_lon": 0.0, "fusion_lat": 0.0, "lon": -77.002859, "name": "da392ff1a4c819dfd11fdc31fef12710"}, {"bike_id": "d01bbac2a4e74cce4daabd0025585f30", "type": "electric_scooter", "is_disabled": 0, "lat": 38.9394615, "rental_uris": {"ios": "https://dc.lft.to/lastmile_qr_scan", "android": "https://dc.lft.to/lastmile_qr_scan"}, "is_reserved": 0, "fusion_lon": 0.0, "fusion_lat": 0.0, "lon": -77.0724385, "name": "d01bbac2a4e74cce4daabd0025585f30"}, {"bike_id": "0695607a1e51fa3b0d01c427ee8f1bff", "type": "electric_scooter", "is_disabled": 0, "lat": 38.903303, "rental_uris": {"ios": "https://dc.lft.to/lastmile_qr_scan", "android": "https://dc.lft.to/lastmile_qr_scan"}, "is_reserved": 0, "fusion_lon": 0.0, "fusion_lat": 0.0, "lon": -77.06930016666666, "name": "0695607a1e51fa3b0d01c427ee8f1bff"}, {"bike_id": "620732ccfafc0f28dd32849af2f8921d", "type": "electric_scooter", "is_disabled": 0, "lat": 38.862429666666664, "rental_uris": {"ios": "https://dc.lft.to/lastmile_qr_scan", "android": "https://dc.lft.to/lastmile_qr_scan"}, "is_reserved": 0, "fusion_lon": 0.0, "fusion_lat": 0.0, "lon": -76.9950205, "name": "620732ccfafc0f28dd32849af2f8921d"}, {"bike_id": "334d0481917d644c8f7133b4d1352293", "type": "electric_scooter", "is_disabled": 0, "lat": 38.87644516666667, "rental_uris": {"ios": "https://dc.lft.to/lastmile_qr_scan", "android": "https://dc.lft.to/lastmile_qr_scan"}, "is_reserved": 0, "fusion_lon": 0.0, "fusion_lat": 0.0, "lon": -76.96504233333333, "name": "334d0481917d644c8f7133b4d1352293"}, {"bike_id": "ab2cbe9232c4c8bad13215da30a139b8", "type": "electric_scooter", "is_disabled": 0, "lat": 38.92743083333333, "rental_uris": {"ios": "https://dc.lft.to/lastmile_qr_scan", "android": "https://dc.lft.to/lastmile_qr_scan"}, "is_reserved": 0, "fusion_lon": 0.0, "fusion_lat": 0.0, "lon": -77.0059235, "name": "ab2cbe9232c4c8bad13215da30a139b8"}, {"bike_id": "60038e5d7b4a336951a160e6ae76f030", "type": "electric_scooter", "is_disabled": 0, "lat": 38.9066455, "rental_uris": {"ios": "https://dc.lft.to/lastmile_qr_scan", "android": "https://dc.lft.to/lastmile_qr_scan"}, "is_reserved": 0, "fusion_lon": 0.0, "fusion_lat": 0.0, "lon": -77.07165866666666, "name": "60038e5d7b4a336951a160e6ae76f030"}, {"bike_id": "d23f74d7ed9474505f293f7c31fb1062", "type": "electric_scooter", "is_disabled": 0, "lat": 38.9073125, "rental_uris": {"ios": "https://dc.lft.to/lastmile_qr_scan", "android": "https://dc.lft.to/lastmile_qr_scan"}, "is_reserved": 0, "fusion_lon": 0.0, "fusion_lat": 0.0, "lon": -77.02948366666666, "name": "d23f74d7ed9474505f293f7c31fb1062"}, {"bike_id": "9edbd5cf4c0130c2c8c830cafbc02e00", "type": "electric_scooter", "is_disabled": 0, "lat": 38.9006515, "rental_uris": {"ios": "https://dc.lft.to/lastmile_qr_scan", "android": "https://dc.lft.to/lastmile_qr_scan"}, "is_reserved": 0, "fusion_lon": 0.0, "fusion_lat": 0.0, "lon": -77.018272, "name": "9edbd5cf4c0130c2c8c830cafbc02e00"}, {"bike_id": "d40ba5ad7a3be0cbff5ad3f822fa9788", "type": "electric_scooter", "is_disabled": 0, "lat": 38.98426933333333, "rental_uris": {"ios": "https://dc.lft.to/lastmile_qr_scan", "android": "https://dc.lft.to/lastmile_qr_scan"}, "is_reserved": 0, "fusion_lon": 0.0, "fusion_lat": 0.0, "lon": -77.02670683333334, "name": "d40ba5ad7a3be0cbff5ad3f822fa9788"}, {"bike_id": "c4c87821029e3f839c990df723148605", "type": "electric_scooter", "is_disabled": 0, "lat": 38.9257695, "rental_uris": {"ios": "https://dc.lft.to/lastmile_qr_scan", "android": "https://dc.lft.to/lastmile_qr_scan"}, "is_reserved": 0, "fusion_lon": 0.0, "fusion_lat": 0.0, "lon": -77.03743966666667, "name": "c4c87821029e3f839c990df723148605"}, {"bike_id": "27606fdce504fabd9f7680377369aeec", "type": "electric_scooter", "is_disabled": 0, "lat": 38.90649283333333, "rental_uris": {"ios": "https://dc.lft.to/lastmile_qr_scan", "android": "https://dc.lft.to/lastmile_qr_scan"}, "is_reserved": 0, "fusion_lon": 0.0, "fusion_lat": 0.0, "lon": -77.01460366666667, "name": "27606fdce504fabd9f7680377369aeec"}, {"bike_id": "5a54c6be3e52ab51d50be1f12fdf2022", "type": "electric_scooter", "is_disabled": 0, "lat": 38.96564216666667, "rental_uris": {"ios": "https://dc.lft.to/lastmile_qr_scan", "android": "https://dc.lft.to/lastmile_qr_scan"}, "is_reserved": 0, "fusion_lon": 0.0, "fusion_lat": 0.0, "lon": -77.027723, "name": "5a54c6be3e52ab51d50be1f12fdf2022"}, {"bike_id": "17eefc92f77ec99bffbf01cefe23a464", "type": "electric_scooter", "is_disabled": 0, "lat": 38.90284616666667, "rental_uris": {"ios": "https://dc.lft.to/lastmile_qr_scan", "android": "https://dc.lft.to/lastmile_qr_scan"}, "is_reserved": 0, "fusion_lon": 0.0, "fusion_lat": 0.0, "lon": -77.0033555, "name": "17eefc92f77ec99bffbf01cefe23a464"}, {"bike_id": "18e4ac49cf0cce5319881d0a67ab3a43", "type": "electric_scooter", "is_disabled": 0, "lat": 38.919906, "rental_uris": {"ios": "https://dc.lft.to/lastmile_qr_scan", "android": "https://dc.lft.to/lastmile_qr_scan"}, "is_reserved": 0, "fusion_lon": 0.0, "fusion_lat": 0.0, "lon": -76.97306766666667, "name": "18e4ac49cf0cce5319881d0a67ab3a43"}, {"bike_id": "f0f6398d35618772421244e209a3998d", "type": "electric_bike", "is_disabled": 0, "lat": 38.872926, "rental_uris": {"ios": "https://dc.lft.to/lastmile_qr_scan", "android": "https://dc.lft.to/lastmile_qr_scan"}, "is_reserved": 0, "fusion_lon": 0.0, "fusion_lat": 0.0, "lon": -76.96979066666667, "name": "f0f6398d35618772421244e209a3998d"}, {"bike_id": "2c31adf9fd368268c6ec41ed9ea81c81", "type": "electric_scooter", "is_disabled": 0, "lat": 38.90406616666667, "rental_uris": {"ios": "https://dc.lft.to/lastmile_qr_scan", "android": "https://dc.lft.to/lastmile_qr_scan"}, "is_reserved": 0, "fusion_lon": 0.0, "fusion_lat": 0.0, "lon": -76.97333783333333, "name": "2c31adf9fd368268c6ec41ed9ea81c81"}, {"bike_id": "592872ce8e85e8e64f5f33ec6c2dbed4", "type": "electric_scooter", "is_disabled": 0, "lat": 38.947789, "rental_uris": {"ios": "https://dc.lft.to/lastmile_qr_scan", "android": "https://dc.lft.to/lastmile_qr_scan"}, "is_reserved": 0, "fusion_lon": 0.0, "fusion_lat": 0.0, "lon": -77.07934883333333, "name": "592872ce8e85e8e64f5f33ec6c2dbed4"}, {"bike_id": "9c1f5fd9e297f23c8c0d4185fe526337", "type": "electric_scooter", "is_disabled": 0, "lat": 38.91056616666667, "rental_uris": {"ios": "https://dc.lft.to/lastmile_qr_scan", "android": "https://dc.lft.to/lastmile_qr_scan"}, "is_reserved": 0, "fusion_lon": 0.0, "fusion_lat": 0.0, "lon": -77.03661216666667, "name": "9c1f5fd9e297f23c8c0d4185fe526337"}, {"bike_id": "1de85dfaf54febd380f8158cbfa3b03a", "type": "electric_scooter", "is_disabled": 0, "lat": 38.923363, "rental_uris": {"ios": "https://dc.lft.to/lastmile_qr_scan", "android": "https://dc.lft.to/lastmile_qr_scan"}, "is_reserved": 0, "fusion_lon": 0.0, "fusion_lat": 0.0, "lon": -77.03537016666667, "name": "1de85dfaf54febd380f8158cbfa3b03a"}, {"bike_id": "3265514312ebed0467880189298e897b", "type": "electric_scooter", "is_disabled": 0, "lat": 38.915498, "rental_uris": {"ios": "https://dc.lft.to/lastmile_qr_scan", "android": "https://dc.lft.to/lastmile_qr_scan"}, "is_reserved": 0, "fusion_lon": 0.0, "fusion_lat": 0.0, "lon": -77.02154933333334, "name": "3265514312ebed0467880189298e897b"}, {"bike_id": "d710fdfa0c0197e661beb2b91938b6c0", "type": "electric_bike", "is_disabled": 0, "lat": 38.96129333333333, "rental_uris": {"ios": "https://dc.lft.to/lastmile_qr_scan", "android": "https://dc.lft.to/lastmile_qr_scan"}, "is_reserved": 0, "fusion_lon": 0.0, "fusion_lat": 0.0, "lon": -77.03337283333333, "name": "d710fdfa0c0197e661beb2b91938b6c0"}, {"bike_id": "dad34d5da48d03bfbc0cae64ef1ce09b", "type": "electric_scooter", "is_disabled": 0, "lat": 38.94982983333333, "rental_uris": {"ios": "https://dc.lft.to/lastmile_qr_scan", "android": "https://dc.lft.to/lastmile_qr_scan"}, "is_reserved": 0, "fusion_lon": 0.0, "fusion_lat": 0.0, "lon": -77.02712016666666, "name": "dad34d5da48d03bfbc0cae64ef1ce09b"}, {"bike_id": "95f31efdaa9f23b18de2e555a714f552", "type": "electric_scooter", "is_disabled": 0, "lat": 38.906794833333336, "rental_uris": {"ios": "https://dc.lft.to/lastmile_qr_scan", "android": "https://dc.lft.to/lastmile_qr_scan"}, "is_reserved": 0, "fusion_lon": 0.0, "fusion_lat": 0.0, "lon": -77.05336483333333, "name": "95f31efdaa9f23b18de2e555a714f552"}, {"bike_id": "ee0f882115797733509a5756389ee654", "type": "electric_scooter", "is_disabled": 0, "lat": 38.888427, "rental_uris": {"ios": "https://dc.lft.to/lastmile_qr_scan", "android": "https://dc.lft.to/lastmile_qr_scan"}, "is_reserved": 0, "fusion_lon": 0.0, "fusion_lat": 0.0, "lon": -76.98919233333334, "name": "ee0f882115797733509a5756389ee654"}, {"bike_id": "7aa9c3d01e5960cbe63df275c8f5e053", "type": "electric_bike", "is_disabled": 0, "lat": 38.877022333333336, "rental_uris": {"ios": "https://dc.lft.to/lastmile_qr_scan", "android": "https://dc.lft.to/lastmile_qr_scan"}, "is_reserved": 0, "fusion_lon": 0.0, "fusion_lat": 0.0, "lon": -77.10951716666666, "name": "7aa9c3d01e5960cbe63df275c8f5e053"}, {"bike_id": "1bbc02be932a460cb542eb7bf10acfda", "type": "electric_bike", "is_disabled": 0, "lat": 38.90827016666667, "rental_uris": {"ios": "https://dc.lft.to/lastmile_qr_scan", "android": "https://dc.lft.to/lastmile_qr_scan"}, "is_reserved": 0, "fusion_lon": 0.0, "fusion_lat": 0.0, "lon": -76.94159833333333, "name": "1bbc02be932a460cb542eb7bf10acfda"}, {"bike_id": "0f1d86ab6315a472c40ee1517ab8ac74", "type": "electric_scooter", "is_disabled": 0, "lat": 38.906667166666665, "rental_uris": {"ios": "https://dc.lft.to/lastmile_qr_scan", "android": "https://dc.lft.to/lastmile_qr_scan"}, "is_reserved": 0, "fusion_lon": 0.0, "fusion_lat": 0.0, "lon": -77.01052716666666, "name": "0f1d86ab6315a472c40ee1517ab8ac74"}, {"bike_id": "62db7ec36eb5833d0d35da4d1c7a9b61", "type": "electric_scooter", "is_disabled": 0, "lat": 38.863719333333336, "rental_uris": {"ios": "https://dc.lft.to/lastmile_qr_scan", "android": "https://dc.lft.to/lastmile_qr_scan"}, "is_reserved": 0, "fusion_lon": 0.0, "fusion_lat": 0.0, "lon": -76.99061966666666, "name": "62db7ec36eb5833d0d35da4d1c7a9b61"}, {"bike_id": "720dc08cfb1539624159360d59bc8fe8", "type": "electric_scooter", "is_disabled": 0, "lat": 38.9256035, "rental_uris": {"ios": "https://dc.lft.to/lastmile_qr_scan", "android": "https://dc.lft.to/lastmile_qr_scan"}, "is_reserved": 0, "fusion_lon": 0.0, "fusion_lat": 0.0, "lon": -77.022854, "name": "720dc08cfb1539624159360d59bc8fe8"}, {"bike_id": "50a97d5b203e98cd6f83ec7b7d9d618c", "type": "electric_scooter", "is_disabled": 0, "lat": 38.9168775, "rental_uris": {"ios": "https://dc.lft.to/lastmile_qr_scan", "android": "https://dc.lft.to/lastmile_qr_scan"}, "is_reserved": 0, "fusion_lon": 0.0, "fusion_lat": 0.0, "lon": -77.0288015, "name": "50a97d5b203e98cd6f83ec7b7d9d618c"}, {"bike_id": "689d451dcb8ba8d13a8db804f0ac22f6", "type": "electric_scooter", "is_disabled": 0, "lat": 38.87939933333333, "rental_uris": {"ios": "https://dc.lft.to/lastmile_qr_scan", "android": "https://dc.lft.to/lastmile_qr_scan"}, "is_reserved": 0, "fusion_lon": 0.0, "fusion_lat": 0.0, "lon": -77.00385216666666, "name": "689d451dcb8ba8d13a8db804f0ac22f6"}, {"bike_id": "51022340afaefd79f3a068ce099b3647", "type": "electric_scooter", "is_disabled": 0, "lat": 38.91288483333334, "rental_uris": {"ios": "https://dc.lft.to/lastmile_qr_scan", "android": "https://dc.lft.to/lastmile_qr_scan"}, "is_reserved": 0, "fusion_lon": 0.0, "fusion_lat": 0.0, "lon": -77.01974966666667, "name": "51022340afaefd79f3a068ce099b3647"}, {"bike_id": "c4821ab893b4af2e127d4d51d7d8f890", "type": "electric_scooter", "is_disabled": 0, "lat": 38.9080445, "rental_uris": {"ios": "https://dc.lft.to/lastmile_qr_scan", "android": "https://dc.lft.to/lastmile_qr_scan"}, "is_reserved": 0, "fusion_lon": 0.0, "fusion_lat": 0.0, "lon": -77.02042566666667, "name": "c4821ab893b4af2e127d4d51d7d8f890"}, {"bike_id": "8031b6eee173c1c9150e17752e1aadbc", "type": "electric_scooter", "is_disabled": 0, "lat": 38.917009166666666, "rental_uris": {"ios": "https://dc.lft.to/lastmile_qr_scan", "android": "https://dc.lft.to/lastmile_qr_scan"}, "is_reserved": 0, "fusion_lon": 0.0, "fusion_lat": 0.0, "lon": -77.010732, "name": "8031b6eee173c1c9150e17752e1aadbc"}, {"bike_id": "d139629322225eb41d511242be0f9dc4", "type": "electric_scooter", "is_disabled": 0, "lat": 38.9329385, "rental_uris": {"ios": "https://dc.lft.to/lastmile_qr_scan", "android": "https://dc.lft.to/lastmile_qr_scan"}, "is_reserved": 0, "fusion_lon": 0.0, "fusion_lat": 0.0, "lon": -77.040327, "name": "d139629322225eb41d511242be0f9dc4"}, {"bike_id": "48ff5637733dae6c97052ad9556fac7e", "type": "electric_scooter", "is_disabled": 0, "lat": 38.92140283333333, "rental_uris": {"ios": "https://dc.lft.to/lastmile_qr_scan", "android": "https://dc.lft.to/lastmile_qr_scan"}, "is_reserved": 0, "fusion_lon": 0.0, "fusion_lat": 0.0, "lon": -77.01806366666666, "name": "48ff5637733dae6c97052ad9556fac7e"}, {"bike_id": "eda02df9c5f0072765975467302d1f73", "type": "electric_scooter", "is_disabled": 0, "lat": 38.934345666666665, "rental_uris": {"ios": "https://dc.lft.to/lastmile_qr_scan", "android": "https://dc.lft.to/lastmile_qr_scan"}, "is_reserved": 0, "fusion_lon": 0.0, "fusion_lat": 0.0, "lon": -77.07256683333334, "name": "eda02df9c5f0072765975467302d1f73"}, {"bike_id": "4fe5dc342c2cdc190544bc3d166705df", "type": "electric_scooter", "is_disabled": 0, "lat": 38.866538166666665, "rental_uris": {"ios": "https://dc.lft.to/lastmile_qr_scan", "android": "https://dc.lft.to/lastmile_qr_scan"}, "is_reserved": 0, "fusion_lon": 0.0, "fusion_lat": 0.0, "lon": -76.98885883333334, "name": "4fe5dc342c2cdc190544bc3d166705df"}, {"bike_id": "40f0987046c79b87b447254f285584e1", "type": "electric_scooter", "is_disabled": 0, "lat": 38.91268783333334, "rental_uris": {"ios": "https://dc.lft.to/lastmile_qr_scan", "android": "https://dc.lft.to/lastmile_qr_scan"}, "is_reserved": 0, "fusion_lon": 0.0, "fusion_lat": 0.0, "lon": -77.03932833333333, "name": "40f0987046c79b87b447254f285584e1"}, {"bike_id": "5259d55afefe555e6861b5787a18e030", "type": "electric_scooter", "is_disabled": 0, "lat": 38.923353166666665, "rental_uris": {"ios": "https://dc.lft.to/lastmile_qr_scan", "android": "https://dc.lft.to/lastmile_qr_scan"}, "is_reserved": 0, "fusion_lon": 0.0, "fusion_lat": 0.0, "lon": -77.03619766666667, "name": "5259d55afefe555e6861b5787a18e030"}, {"bike_id": "cf4adf90365a4d855182608dd709d9f5", "type": "electric_scooter", "is_disabled": 0, "lat": 38.913628, "rental_uris": {"ios": "https://dc.lft.to/lastmile_qr_scan", "android": "https://dc.lft.to/lastmile_qr_scan"}, "is_reserved": 0, "fusion_lon": 0.0, "fusion_lat": 0.0, "lon": -77.045718, "name": "cf4adf90365a4d855182608dd709d9f5"}, {"bike_id": "a07e62072d88ef6697fcff915f7d200e", "type": "electric_scooter", "is_disabled": 0, "lat": 38.928489666666664, "rental_uris": {"ios": "https://dc.lft.to/lastmile_qr_scan", "android": "https://dc.lft.to/lastmile_qr_scan"}, "is_reserved": 0, "fusion_lon": 0.0, "fusion_lat": 0.0, "lon": -77.0545105, "name": "a07e62072d88ef6697fcff915f7d200e"}, {"bike_id": "a5e76725072fbb24c77911fdf488ed4b", "type": "electric_scooter", "is_disabled": 0, "lat": 38.904135333333336, "rental_uris": {"ios": "https://dc.lft.to/lastmile_qr_scan", "android": "https://dc.lft.to/lastmile_qr_scan"}, "is_reserved": 0, "fusion_lon": 0.0, "fusion_lat": 0.0, "lon": -77.068761, "name": "a5e76725072fbb24c77911fdf488ed4b"}, {"bike_id": "0c585be5b655661ebdf304fd7bebc30c", "type": "electric_scooter", "is_disabled": 0, "lat": 38.91027866666667, "rental_uris": {"ios": "https://dc.lft.to/lastmile_qr_scan", "android": "https://dc.lft.to/lastmile_qr_scan"}, "is_reserved": 0, "fusion_lon": 0.0, "fusion_lat": 0.0, "lon": -76.9866915, "name": "0c585be5b655661ebdf304fd7bebc30c"}, {"bike_id": "1fae376426f37f70f8ec0d33f675de72", "type": "electric_bike", "is_disabled": 0, "lat": 38.944692833333335, "rental_uris": {"ios": "https://dc.lft.to/lastmile_qr_scan", "android": "https://dc.lft.to/lastmile_qr_scan"}, "is_reserved": 0, "fusion_lon": 0.0, "fusion_lat": 0.0, "lon": -76.98692366666667, "name": "1fae376426f37f70f8ec0d33f675de72"}, {"bike_id": "14113b058beefb35f4b3e1b357409c62", "type": "electric_scooter", "is_disabled": 0, "lat": 38.92774983333334, "rental_uris": {"ios": "https://dc.lft.to/lastmile_qr_scan", "android": "https://dc.lft.to/lastmile_qr_scan"}, "is_reserved": 0, "fusion_lon": 0.0, "fusion_lat": 0.0, "lon": -76.9876075, "name": "14113b058beefb35f4b3e1b357409c62"}, {"bike_id": "a20d3d51dba2e5e7862dc8f47427cbbd", "type": "electric_scooter", "is_disabled": 0, "lat": 38.9120395, "rental_uris": {"ios": "https://dc.lft.to/lastmile_qr_scan", "android": "https://dc.lft.to/lastmile_qr_scan"}, "is_reserved": 0, "fusion_lon": 0.0, "fusion_lat": 0.0, "lon": -77.03206866666666, "name": "a20d3d51dba2e5e7862dc8f47427cbbd"}, {"bike_id": "0c5592ed1bcd2a4fdc2883f11bbccd9f", "type": "electric_scooter", "is_disabled": 0, "lat": 38.905565833333334, "rental_uris": {"ios": "https://dc.lft.to/lastmile_qr_scan", "android": "https://dc.lft.to/lastmile_qr_scan"}, "is_reserved": 0, "fusion_lon": 0.0, "fusion_lat": 0.0, "lon": -76.99795016666667, "name": "0c5592ed1bcd2a4fdc2883f11bbccd9f"}, {"bike_id": "ae0328ef47a15b7404255c6c95dd9326", "type": "electric_scooter", "is_disabled": 0, "lat": 38.93529016666667, "rental_uris": {"ios": "https://dc.lft.to/lastmile_qr_scan", "android": "https://dc.lft.to/lastmile_qr_scan"}, "is_reserved": 0, "fusion_lon": 0.0, "fusion_lat": 0.0, "lon": -77.02348233333333, "name": "ae0328ef47a15b7404255c6c95dd9326"}, {"bike_id": "ccbfd70ddcd8f3aedca8ccf951787298", "type": "electric_scooter", "is_disabled": 0, "lat": 38.8947655, "rental_uris": {"ios": "https://dc.lft.to/lastmile_qr_scan", "android": "https://dc.lft.to/lastmile_qr_scan"}, "is_reserved": 0, "fusion_lon": 0.0, "fusion_lat": 0.0, "lon": -76.94859633333333, "name": "ccbfd70ddcd8f3aedca8ccf951787298"}, {"bike_id": "7c22ed0e84f90fca2ec43e262c578a8e", "type": "electric_scooter", "is_disabled": 0, "lat": 38.92018383333333, "rental_uris": {"ios": "https://dc.lft.to/lastmile_qr_scan", "android": "https://dc.lft.to/lastmile_qr_scan"}, "is_reserved": 0, "fusion_lon": 0.0, "fusion_lat": 0.0, "lon": -77.03126, "name": "7c22ed0e84f90fca2ec43e262c578a8e"}, {"bike_id": "d6676d5e183e7a45ab3c611d76b841f3", "type": "electric_scooter", "is_disabled": 0, "lat": 38.92442, "rental_uris": {"ios": "https://dc.lft.to/lastmile_qr_scan", "android": "https://dc.lft.to/lastmile_qr_scan"}, "is_reserved": 0, "fusion_lon": 0.0, "fusion_lat": 0.0, "lon": -77.029749, "name": "d6676d5e183e7a45ab3c611d76b841f3"}, {"bike_id": "f3a54498095418570bb86ef0479f0dfd", "type": "electric_scooter", "is_disabled": 0, "lat": 38.937358833333334, "rental_uris": {"ios": "https://dc.lft.to/lastmile_qr_scan", "android": "https://dc.lft.to/lastmile_qr_scan"}, "is_reserved": 0, "fusion_lon": 0.0, "fusion_lat": 0.0, "lon": -77.02444133333333, "name": "f3a54498095418570bb86ef0479f0dfd"}, {"bike_id": "9e43cfd9895a37e08e023af93ba27f5a", "type": "electric_bike", "is_disabled": 0, "lat": 38.978792166666665, "rental_uris": {"ios": "https://dc.lft.to/lastmile_qr_scan", "android": "https://dc.lft.to/lastmile_qr_scan"}, "is_reserved": 0, "fusion_lon": 0.0, "fusion_lat": 0.0, "lon": -77.06028183333333, "name": "9e43cfd9895a37e08e023af93ba27f5a"}, {"bike_id": "8b708eab5cf02c5d57169d9e02607f36", "type": "electric_scooter", "is_disabled": 0, "lat": 38.9249565, "rental_uris": {"ios": "https://dc.lft.to/lastmile_qr_scan", "android": "https://dc.lft.to/lastmile_qr_scan"}, "is_reserved": 0, "fusion_lon": 0.0, "fusion_lat": 0.0, "lon": -77.02162366666667, "name": "8b708eab5cf02c5d57169d9e02607f36"}, {"bike_id": "f926e1a15b497f418711ce444f7946ac", "type": "electric_scooter", "is_disabled": 0, "lat": 38.901892, "rental_uris": {"ios": "https://dc.lft.to/lastmile_qr_scan", "android": "https://dc.lft.to/lastmile_qr_scan"}, "is_reserved": 0, "fusion_lon": 0.0, "fusion_lat": 0.0, "lon": -76.988463, "name": "f926e1a15b497f418711ce444f7946ac"}, {"bike_id": "8afdc3aa542d1cb1c2cd088634e4119d", "type": "electric_scooter", "is_disabled": 0, "lat": 38.902126, "rental_uris": {"ios": "https://dc.lft.to/lastmile_qr_scan", "android": "https://dc.lft.to/lastmile_qr_scan"}, "is_reserved": 0, "fusion_lon": 0.0, "fusion_lat": 0.0, "lon": -77.03377683333333, "name": "8afdc3aa542d1cb1c2cd088634e4119d"},