{"data": {"bikes": [{"fusion_lat": 0.0, "type": "electric_scooter", "name": "97e1e614b4fdec0ca4902656282fa481", "fusion_lon": 0.0, "bike_id": "97e1e614b4fdec0ca4902656282fa481", "is_reserved": 0, "rental_uris": {"android": "https://dc.lft.to/lastmile_qr_scan", "ios": "https://dc.lft.to/lastmile_qr_scan"}, "lat": 38.885312, "is_disabled": 0, "lon": -77.00577183333333}, {"fusion_lat": 0.0, "type": "electric_scooter", "name": "615b1b9d360203cef42a67efdee1b4bb", "fusion_lon": 0.0, "bike_id": "615b1b9d360203cef42a67efdee1b4bb", "is_reserved": 0, "rental_uris": {"android": "https://dc.lft.to/lastmile_qr_scan", "ios": "https://dc.lft.to/lastmile_qr_scan"}, "lat": 38.9057425, "is_disabled": 0, "lon": -77.00263266666667}, {"fusion_lat": 0.0, "type": "electric_scooter", "name": "dc192c6966c4dfcc1d30b1b403ee90d5", "fusion_lon": 0.0, "bike_id": "dc192c6966c4dfcc1d30b1b403ee90d5", "is_reserved": 0, "rental_uris": {"android": "https://dc.lft.to/lastmile_qr_scan", "ios": "https://dc.lft.to/lastmile_qr_scan"}, "lat": 38.9071775, "is_disabled": 0, "lon": -77.07430366666667}, {"fusion_lat": 0.0, "type": "electric_scooter", "name": "fe888661fa0f63a2c12f4b75eaf61ed4", "fusion_lon": 0.0, "bike_id": "fe888661fa0f63a2c12f4b75eaf61ed4", "is_reserved": 0, "rental_uris": {"android": "https://dc.lft.to/lastmile_qr_scan", "ios": "https://dc.lft.to/lastmile_qr_scan"}, "lat": 38.899500333333336, "is_disabled": 0, "lon": -77.045208}, {"fusion_lat": 0.0, "type": "electric_scooter", "name": "5c59ddb0300945111ee0411de2e75a69", "fusion_lon": 0.0, "bike_id": "5c59ddb0300945111ee0411de2e75a69", "is_reserved": 0, "rental_uris": {"android": "https://dc.lft.to/lastmile_qr_scan", "ios": "https://dc.lft.to/lastmile_qr_scan"}, "lat": 38.95736683333333, "is_disabled": 0, "lon": -77.02402683333334}, {"fusion_lat": 0.0, "type": "electric_scooter", "name": "980185aa2ab2f47fbaf1ef54108ef953", "fusion_lon": 0.0, "bike_id": "980185aa2ab2f47fbaf1ef54108ef953", "is_reserved": 0, "rental_uris": {"android": "https://dc.lft.to/lastmile_qr_scan", "ios": "https://dc.lft.to/lastmile_qr_scan"}, "lat": 38.911184166666665, "is_disabled": 0, "lon": -77.020787}, {"fusion_lat": 0.0, "type": "electric_scooter", "name": "4e1fe9fd7969b2b19bf9ae714a62bc74", "fusion_lon": 0.0, "bike_id": "4e1fe9fd7969b2b19bf9ae714a62bc74", "is_reserved": 0, "rental_uris": {"android": "https://dc.lft.to/lastmile_qr_scan", "ios": "https://dc.lft.to/lastmile_qr_scan"}, "lat": 38.892750166666666, "is_disabled": 0, "lon": -77.04869666666667}, {"fusion_lat": 0.0, "type": "electric_scooter", "name": "d79b90461beabd88551246949167be92", "fusion_lon": 0.0, "bike_id": "d79b90461beabd88551246949167be92", "is_reserved": 0, "rental_uris": {"android": "https://dc.lft.to/lastmile_qr_scan", "ios": "https://dc.lft.to/lastmile_qr_scan"}, "lat": 38.926160333333335, "is_disabled": 0, "lon": -77.04323466666666}, {"fusion_lat": 0.0, "type": "electric_scooter", "name": "012320b561049e35e7c24d603bd6b361", "fusion_lon": 0.0, "bike_id": "012320b561049e35e7c24d603bd6b361", "is_reserved": 0, "rental_uris": {"android": "https://dc.lft.to/lastmile_qr_scan", "ios": "https://dc.lft.to/lastmile_qr_scan"}, "lat": 38.915592, "is_disabled": 0, "lon": -77.0242195}, {"fusion_lat": 0.0, "type": "electric_scooter", "name": "265843007834549c192fc7e4e6d0dddb", "fusion_lon": 0.0, "bike_id": "265843007834549c192fc7e4e6d0dddb", "is_reserved": 0, "rental_uris": {"android": "https://dc.lft.to/lastmile_qr_scan", "ios": "https://dc.lft.to/lastmile_qr_scan"}, "lat": 38.90204216666667, "is_disabled": 0, "lon": -77.032001}, {"fusion_lat": 0.0, "type": "electric_scooter", "name": "1059f4f2558759a9dcec5ecb54911dd2", "fusion_lon": 0.0, "bike_id": "1059f4f2558759a9dcec5ecb54911dd2", "is_reserved": 0, "rental_uris": {"android": "https://dc.lft.to/lastmile_qr_scan", "ios": "https://dc.lft.to/lastmile_qr_scan"}, "lat": 38.903449333333334, "is_disabled": 0, "lon": -76.98269683333334}, {"fusion_lat": 0.0, "type": "electric_scooter", "name": "fb9741fc2643513a49f9d009b6fd6cce", "fusion_lon": 0.0, "bike_id": "fb9741fc2643513a49f9d009b6fd6cce", "is_reserved": 0, "rental_uris": {"android": "https://dc.lft.to/lastmile_qr_scan", "ios": "https://dc.lft.to/lastmile_qr_scan"}, "lat": 38.900234833333336, "is_disabled": 0, "lon": -77.04875633333333}, {"fusion_lat": 0.0, "type": "electric_scooter", "name": "aa097720b86145bde125fa764bff42e5", "fusion_lon": 0.0, "bike_id": "aa097720b86145bde125fa764bff42e5", "is_reserved": 0, "rental_uris": {"android": "https://dc.lft.to/lastmile_qr_scan", "ios": "https://dc.lft.to/lastmile_qr_scan"}, "lat": 38.889207, "is_disabled": 0, "lon": -76.99131216666666}, {"fusion_lat": 0.0, "type": "electric_scooter", "name": "83b718daccab1f2ae185ab78995aba97", "fusion_lon": 0.0, "bike_id": "83b718daccab1f2ae185ab78995aba97", "is_reserved": 0, "rental_uris": {"android": "https://dc.lft.to/lastmile_qr_scan", "ios": "https://dc.lft.to/lastmile_qr_scan"}, "lat": 38.908025333333335, "is_disabled": 0, "lon": -76.98735066666667}, {"fusion_lat": 0.0, "type": "electric_scooter", "name": "0e97edc15a4a596675a0fa997d48babd", "fusion_lon": 0.0, "bike_id": "0e97edc15a4a596675a0fa997d48babd", "is_reserved": 0, "rental_uris": {"android": "https://dc.lft.to/lastmile_qr_scan", "ios": "https://dc.lft.to/lastmile_qr_scan"}, "lat": 38.90644, "is_disabled": 0, "lon": -77.05125966666667}, {"fusion_lat": 0.0, "type": "electric_scooter", "name": "9371dd93f549ed735b24377688f12b93", "fusion_lon": 0.0, "bike_id": "9371dd93f549ed735b24377688f12b93", "is_reserved": 0, "rental_uris": {"android": "https://dc.lft.to/lastmile_qr_scan", "ios": "https://dc.lft.to/lastmile_qr_scan"}, "lat": 38.928521833333335, "is_disabled": 0, "lon": -77.01405966666667}, {"fusion_lat": 0.0, "type": "electric_scooter", "name": "8d7f87aba4f126954ea141c19a716267", "fusion_lon": 0.0, "bike_id": "8d7f87aba4f126954ea141c19a716267", "is_reserved": 0, "rental_uris": {"android": "https://dc.lft.to/lastmile_qr_scan", "ios": "https://dc.lft.to/lastmile_qr_scan"}, "lat": 38.899471166666665, "is_disabled": 0, "lon": -77.04213533333333}, {"fusion_lat": 0.0, "type": "electric_scooter", "name": "2549dd50336921f7e948eafe4a98d6cf", "fusion_lon": 0.0, "bike_id": "2549dd50336921f7e948eafe4a98d6cf", "is_reserved": 0, "rental_uris": {"android": "https://dc.lft.to/lastmile_qr_scan", "ios": "https://dc.lft.to/lastmile_qr_scan"}, "lat": 38.90727666666667, "is_disabled": 0, "lon": -76.93222}, {"fusion_lat": 0.0, "type": "electric_scooter", "name": "8246228970418f4529c8de4228284ac3", "fusion_lon": 0.0, "bike_id": "8246228970418f4529c8de4228284ac3", "is_reserved": 0, "rental_uris": {"android": "https://dc.lft.to/lastmile_qr_scan", "ios": "https://dc.lft.to/lastmile_qr_scan"}, "lat": 38.9155385, "is_disabled": 0, "lon": -77.03171883333333}, {"fusion_lat": 0.0, "type": "electric_bike", "name": "f2cf625ffed1f61923356b21dae92d9c", "fusion_lon": 0.0, "bike_id": "f2cf625ffed1f61923356b21dae92d9c", "is_reserved": 0, "rental_uris": {"android": "https://dc.lft.to/lastmile_qr_scan", "ios": "https://dc.lft.to/lastmile_qr_scan"}, "lat": 38.97398466666667, "is_disabled": 0, "lon": -77.06450466666666}, {"fusion_lat": 0.0, "type": "electric_scooter", "name": "9f9f0c34b547f9cda79d6c61a132c9da", "fusion_lon": 0.0, "bike_id": "9f9f0c34b547f9cda79d6c61a132c9da", "is_reserved": 0, "rental_uris": {"android": "https://dc.lft.to/lastmile_qr_scan", "ios": "https://dc.lft.to/lastmile_qr_scan"}, "lat": 38.924217666666664, "is_disabled": 0, "lon": -77.01943216666666}, {"fusion_lat": 0.0, "type": "electric_scooter", "name": "8deee0ab1b7123e88048da34e7549db4", "fusion_lon": 0.0, "bike_id": "8deee0ab1b7123e88048da34e7549db4", "is_reserved": 0, "rental_uris": {"android": "https://dc.lft.to/lastmile_qr_scan", "ios": "https://dc.lft.to/lastmile_qr_scan"}, "lat": 38.926795166666665, "is_disabled": 0, "lon": -77.02860233333334}, {"fusion_lat": 0.0, "type": "electric_scooter", "name": "2e1173f2bf4a773c359e9711d528bffd", "fusion_lon": 0.0, "bike_id": "2e1173f2bf4a773c359e9711d528bffd", "is_reserved": 0, "rental_uris": {"android": "https://dc.lft.to/lastmile_qr_scan", "ios": "https://dc.lft.to/lastmile_qr_scan"}, "lat": 38.90348616666667, "is_disabled": 0, "lon": -77.046361}, {"fusion_lat": 0.0, "type": "electric_scooter", "name": "6f0eee63a2a4c3a1a4ffe556e8cd18bb", "fusion_lon": 0.0, "bike_id": "6f0eee63a2a4c3a1a4ffe556e8cd18bb", "is_reserved": 0, "rental_uris": {"android": "https://dc.lft.to/lastmile_qr_scan", "ios": "https://dc.lft.to/lastmile_qr_scan"}, "lat": 38.8923235, "is_disabled": 0, "lon": -77.0238045}, {"fusion_lat": 0.0, "type": "electric_scooter", "name": "fe79be6247db6522de12ebee5f1a757f", "fusion_lon": 0.0, "bike_id": "fe79be6247db6522de12ebee5f1a757f", "is_reserved": 0, "rental_uris": {"android": "https://dc.lft.to/lastmile_qr_scan", "ios": "https://dc.lft.to/lastmile_qr_scan"}, "lat": 38.92383533333334, "is_disabled": 0, "lon": -77.03097033333333}, {"fusion_lat": 0.0, "type": "electric_scooter", "name": "a07de6fb80a78c5e726abf224866167f", "fusion_lon": 0.0, "bike_id": "a07de6fb80a78c5e726abf224866167f", "is_reserved": 0, "rental_uris": {"android": "https://dc.lft.to/lastmile_qr_scan", "ios": "https://dc.lft.to/lastmile_qr_scan"}, "lat": 38.898901, "is_disabled": 0, "lon": -77.05299666666667}, {"fusion_lat": 0.0, "type": "electric_scooter", "name": "55957e22ff0e1a2e30066ab8c73e26c7", "fusion_lon": 0.0, "bike_id": "55957e22ff0e1a2e30066ab8c73e26c7", "is_reserved": 0, "rental_uris": {"android": "https://dc.lft.to/lastmile_qr_scan", "ios": "https://dc.lft.to/lastmile_qr_scan"}, "lat": 38.914824833333334, "is_disabled": 0, "lon": -77.02575683333333}, {"fusion_lat": 0.0, "type": "electric_scooter", "name": "4df9aa00104f80d3aa93b1202117c5b9", "fusion_lon": 0.0, "bike_id": "4df9aa00104f80d3aa93b1202117c5b9", "is_reserved": 0, "rental_uris": {"android": "https://dc.lft.to/lastmile_qr_scan", "ios": "https://dc.lft.to/lastmile_qr_scan"}, "lat": 38.89226566666667, "is_disabled": 0, "lon": -77.04334383333334}, {"fusion_lat": 0.0, "type": "electric_scooter", "name": "7bb923e3f3b2b11a92f05dfb79f4e029", "fusion_lon": 0.0, "bike_id": "7bb923e3f3b2b11a92f05dfb79f4e029", "is_reserved": 0, "rental_uris": {"android": "https://dc.lft.to/lastmile_qr_scan", "ios": "https://dc.lft.to/lastmile_qr_scan"}, "lat": 38.9197165, "is_disabled": 0, "lon": -77.06401266666667}, {"fusion_lat": 0.0, "type": "electric_scooter", "name": "d5b9e2c55e930b76531804a866a2e4e9", "fusion_lon": 0.0, "bike_id": "d5b9e2c55e930b76531804a866a2e4e9", "is_reserved": 0, "rental_uris": {"android": "https://dc.lft.to/lastmile_qr_scan", "ios": "https://dc.lft.to/lastmile_qr_scan"}, "lat": 38.909762666666666, "is_disabled": 0, "lon": -77.042514}, {"fusion_lat": 0.0, "type": "electric_scooter", "name": "4c8d127fee297df921cb9715ea8519eb", "fusion_lon": 0.0, "bike_id": "4c8d127fee297df921cb9715ea8519eb", "is_reserved": 0, "rental_uris": {"android": "https://dc.lft.to/lastmile_qr_scan", "ios": "https://dc.lft.to/lastmile_qr_scan"}, "lat": 38.91278166666667, "is_disabled": 0, "lon": -77.02242333333334}, {"fusion_lat": 0.0, "type": "electric_scooter", "name": "85c2169c95dd559ac21833281b01cc8b", "fusion_lon": 0.0, "bike_id": "85c2169c95dd559ac21833281b01cc8b", "is_reserved": 0, "rental_uris": {"android": "https://dc.lft.to/lastmile_qr_scan", "ios": "https://dc.lft.to/lastmile_qr_scan"}, "lat": 38.90611766666667, "is_disabled": 0, "lon": -77.039822}, {"fusion_lat": 0.0, "type": "electric_scooter", "name": "62fff41086deb890e29261e68b3ccdd8", "fusion_lon": 0.0, "bike_id": "62fff41086deb890e29261e68b3ccdd8", "is_reserved": 0, "rental_uris": {"android": "https://dc.lft.to/lastmile_qr_scan", "ios": "https://dc.lft.to/lastmile_qr_scan"}, "lat": 38.8922115, "is_disabled": 0, "lon": -77.04376366666666}, {"fusion_lat": 0.0, "type": "electric_scooter", "name": "01040f10988a8f0b450d15a9e144fae3", "fusion_lon": 0.0, "bike_id": "01040f10988a8f0b450d15a9e144fae3", "is_reserved": 0, "rental_uris": {"android": "https://dc.lft.to/lastmile_qr_scan", "ios": "https://dc.lft.to/lastmile_qr_scan"}, "lat": 38.942023666666664, "is_disabled": 0, "lon": -77.02501366666667}, {"fusion_lat": 0.0, "type": "electric_scooter", "name": "8916c71ef5f6bb7ec322d6d7ecbda5c3", "fusion_lon": 0.0, "bike_id": "8916c71ef5f6bb7ec322d6d7ecbda5c3", "is_reserved": 0, "rental_uris": {"android": "https://dc.lft.to/lastmile_qr_scan", "ios": "https://dc.lft.to/lastmile_qr_scan"}, "lat": 38.93277166666667, "is_disabled": 0, "lon": -77.032778}, {"fusion_lat": 0.0, "type": "electric_scooter", "name": "7f844c7c4afc32f7fe13d4babd3c344f", "fusion_lon": 0.0, "bike_id": "7f844c7c4afc32f7fe13d4babd3c344f", "is_reserved": 0, "rental_uris": {"android": "https://dc.lft.to/lastmile_qr_scan", "ios": "https://dc.lft.to/lastmile_qr_scan"}, "lat": 38.9012265, "is_disabled": 0, "lon": -77.03973733333333}, {"fusion_lat": 0.0, "type": "electric_bike", "name": "e3802406d54fbe760d393a3fb10732d9", "fusion_lon": 0.0, "bike_id": "e3802406d54fbe760d393a3fb10732d9", "is_reserved": 0, "rental_uris": {"android": "https://dc.lft.to/lastmile_qr_scan", "ios": "https://dc.lft.to/lastmile_qr_scan"}, "lat": 38.962218666666665, "is_disabled": 0, "lon": -76.93491416666667}, {"fusion_lat": 0.0, "type": "electric_scooter", "name": "c4ad246c284a86db10348d6589974655", "fusion_lon": 0.0, "bike_id": "c4ad246c284a86db10348d6589974655", "is_reserved": 0, "rental_uris": {"android": "https://dc.lft.to/lastmile_qr_scan", "ios": "https://dc.lft.to/lastmile_qr_scan"}, "lat": 38.92921916666667, "is_disabled": 0, "lon": -77.03743816666666}, {"fusion_lat": 0.0, "type": "electric_scooter", "name": "0857fbeb631460a9b740ec47f3775b5d", "fusion_lon": 0.0, "bike_id": "0857fbeb631460a9b740ec47f3775b5d", "is_reserved": 0, "rental_uris": {"android": "https://dc.lft.to/lastmile_qr_scan", "ios": "https://dc.lft.to/lastmile_qr_scan"}, "lat": 38.90731316666667, "is_disabled": 0, "lon": -77.04236133333333}, {"fusion_lat": 0.0, "type": "electric_scooter", "name": "26d5fe2a176c0d5a870b555c2a15e17c", "fusion_lon": 0.0, "bike_id": "26d5fe2a176c0d5a870b555c2a15e17c", "is_reserved": 0, "rental_uris": {"android": "https://dc.lft.to/lastmile_qr_scan", "ios": "https://dc.lft.to/lastmile_qr_scan"}, "lat": 38.9054475, "is_disabled": 0, "lon": -77.046287}, {"fusion_lat": 0.0, "type": "electric_scooter", "name": "536c7657713b16c6b6787b9b1349f9d2", "fusion_lon": 0.0, "bike_id": "536c7657713b16c6b6787b9b1349f9d2", "is_reserved": 0, "rental_uris": {"android": "https://dc.lft.to/lastmile_qr_scan", "ios": "https://dc.lft.to/lastmile_qr_scan"}, "lat": 38.96032183333333, "is_disabled": 0, "lon": -77.0855155}, {"fusion_lat": 0.0, "type": "electric_scooter", "name": "8cbddc2e1ff0171a29b8bcc1cb36b254", "fusion_lon": 0.0, "bike_id": "8cbddc2e1ff0171a29b8bcc1cb36b254", "is_reserved": 0, "rental_uris": {"android": "https://dc.lft.to/lastmile_qr_scan", "ios": "https://dc.lft.to/lastmile_qr_scan"}, "lat": 38.90901183333333, "is_disabled": 0, "lon": -77.0188695}, {"fusion_lat": 0.0, "type": "electric_scooter", "name": "717fd689bc0fc3194099758fec6ee9e0", "fusion_lon": 0.0, "bike_id": "717fd689bc0fc3194099758fec6ee9e0", "is_reserved": 0, "rental_uris": {"android": "https://dc.lft.to/lastmile_qr_scan", "ios": "https://dc.lft.to/lastmile_qr_scan"}, "lat": 38.93865816666667, "is_disabled": 0, "lon": -77.026497}, {"fusion_lat": 0.0, "type": "electric_scooter", "name": "21ceb7654dbdfe6b6ca9eb6c8f395a7b", "fusion_lon": 0.0, "bike_id": "21ceb7654dbdfe6b6ca9eb6c8f395a7b", "is_reserved": 0, "rental_uris": {"android": "https://dc.lft.to/lastmile_qr_scan", "ios": "https://dc.lft.to/lastmile_qr_scan"}, "lat": 38.90278083333333, "is_disabled": 0, "lon": -77.05335783333334}, {"fusion_lat": 0.0, "type": "electric_scooter", "name": "7b14a3b3bee3165640834f81c1bd1d9b", "fusion_lon": 0.0, "bike_id": "7b14a3b3bee3165640834f81c1bd1d9b", "is_reserved": 0, "rental_uris": {"android": "https://dc.lft.to/lastmile_qr_scan", "ios": "https://dc.lft.to/lastmile_qr_scan"}, "lat": 38.92258133333333, "is_disabled": 0, "lon": -77.042955}, {"fusion_lat": 0.0, "type": "electric_bike", "name": "c93670aeb9571b3ad5fd37c5726586d2", "fusion_lon": 0.0, "bike_id": "c93670aeb9571b3ad5fd37c5726586d2", "is_reserved": 0, "rental_uris": {"android": "https://dc.lft.to/lastmile_qr_scan", "ios": "https://dc.lft.to/lastmile_qr_scan"}, "lat": 38.86515416666667, "is_disabled": 0, "lon": -76.9733105}, {"fusion_lat": 0.0, "type": "electric_bike", "name": "d10b5b483de703afc7fc4845d1bcdfbc", "fusion_lon": 0.0, "bike_id": "d10b5b483de703afc7fc4845d1bcdfbc", "is_reserved": 0, "rental_uris": {"android": "https://dc.lft.to/lastmile_qr_scan", "ios": "https://dc.lft.to/lastmile_qr_scan"}, "lat": 38.86583366666667, "is_disabled": 0, "lon": -77.04761016666667}, {"fusion_lat": 0.0, "type": "electric_scooter", "name": "8b760de754d523563acbfa3c86afafef", "fusion_lon": 0.0, "bike_id": "8b760de754d523563acbfa3c86afafef", "is_reserved": 0, "rental_uris": {"android": "https://dc.lft.to/lastmile_qr_scan", "ios": "https://dc.lft.to/lastmile_qr_scan"}, "lat": 38.939485, "is_disabled": 0, "lon": -77.0725825}, {"fusion_lat": 0.0, "type": "electric_scooter", "name": "8bb56268d04fd02639bbad450f207fa4", "fusion_lon": 0.0, "bike_id": "8bb56268d04fd02639bbad450f207fa4", "is_reserved": 0, "rental_uris": {"android": "https://dc.lft.to/lastmile_qr_scan", "ios": "https://dc.lft.to/lastmile_qr_scan"}, "lat": 38.874765, "is_disabled": 0, "lon": -77.00861533333334}, {"fusion_lat": 0.0, "type": "electric_scooter", "name": "b5db605b73fa19f0fafec8360e15d364", "fusion_lon": 0.0, "bike_id": "b5db605b73fa19f0fafec8360e15d364", "is_reserved": 0, "rental_uris": {"android": "https://dc.lft.to/lastmile_qr_scan", "ios": "https://dc.lft.to/lastmile_qr_scan"}, "lat": 38.865039333333335, "is_disabled": 0, "lon": -76.98997283333334}, {"fusion_lat": 0.0, "type": "electric_scooter", "name": "136223f0351e388837f78e0a3df55e10", "fusion_lon": 0.0, "bike_id": "136223f0351e388837f78e0a3df55e10", "is_reserved": 0, "rental_uris": {"android": "https://dc.lft.to/lastmile_qr_scan", "ios": "https://dc.lft.to/lastmile_qr_scan"}, "lat": 38.939234, "is_disabled": 0, "lon": -77.024619}, {"fusion_lat": 0.0, "type": "electric_scooter", "name": "a2035def71895adcfd107ac32c393a36", "fusion_lon": 0.0, "bike_id": "a2035def71895adcfd107ac32c393a36", "is_reserved": 0, "rental_uris": {"android": "https://dc.lft.to/lastmile_qr_scan", "ios": "https://dc.lft.to/lastmile_qr_scan"}, "lat": 38.887451166666665, "is_disabled": 0, "lon": -77.02731533333333}, {"fusion_lat": 0.0, "type": "electric_scooter", "name": "407f9b5c56cd15c3706c1be7b64e75b1", "fusion_lon": 0.0, "bike_id": "407f9b5c56cd15c3706c1be7b64e75b1", "is_reserved": 0, "rental_uris": {"android": "https://dc.lft.to/lastmile_qr_scan", "ios": "https://dc.lft.to/lastmile_qr_scan"}, "lat": 38.893646, "is_disabled": 0, "lon": -77.0478445}, {"fusion_lat": 0.0, "type": "electric_scooter", "name": "90960bbd427465cb7d9ce78ddd2e4eda", "fusion_lon": 0.0, "bike_id": "90960bbd427465cb7d9ce78ddd2e4eda", "is_reserved": 0, "rental_uris": {"android": "https://dc.lft.to/lastmile_qr_scan", "ios": "https://dc.lft.to/lastmile_qr_scan"}, "lat": 38.865707666666665, "is_disabled": 0, "lon": -76.99033266666666}, {"fusion_lat": 0.0, "type": "electric_scooter", "name": "adddfa7ec8b1f06ea488a20ccc259a8b", "fusion_lon": 0.0, "bike_id": "adddfa7ec8b1f06ea488a20ccc259a8b", "is_reserved": 0, "rental_uris": {"android": "https://dc.lft.to/lastmile_qr_scan", "ios": "https://dc.lft.to/lastmile_qr_scan"}, "lat": 38.884750333333336, "is_disabled": 0, "lon": -77.0236675}, {"fusion_lat": 0.0, "type": "electric_scooter", "name": "b92865e9bafea7017de3eec75371ec24", "fusion_lon": 0.0, "bike_id": "b92865e9bafea7017de3eec75371ec24", "is_reserved": 0, "rental_uris": {"android": "https://dc.lft.to/lastmile_qr_scan", "ios": "https://dc.lft.to/lastmile_qr_scan"}, "lat": 38.924165333333335, "is_disabled": 0, "lon": -77.01940533333334}, {"fusion_lat": 0.0, "type": "electric_scooter", "name": "e9c3c8215844fbf61410f7a40aa03bc5", "fusion_lon": 0.0, "bike_id": "e9c3c8215844fbf61410f7a40aa03bc5", "is_reserved": 0, "rental_uris": {"android": "https://dc.lft.to/lastmile_qr_scan", "ios": "https://dc.lft.to/lastmile_qr_scan"}, "lat": 38.90015233333333, "is_disabled": 0, "lon": -77.01859383333333}, {"fusion_lat": 0.0, "type": "electric_scooter", "name": "3669b7835b42c973c254b0645969a0e0", "fusion_lon": 0.0, "bike_id": "3669b7835b42c973c254b0645969a0e0", "is_reserved": 0, "rental_uris": {"android": "https://dc.lft.to/lastmile_qr_scan", "ios": "https://dc.lft.to/lastmile_qr_scan"}, "lat": 38.874774, "is_disabled": 0, "lon": -77.01068766666667}, {"fusion_lat": 0.0, "type": "electric_scooter", "name": "eb93232e9ee86307e23ad0f8106edcc5", "fusion_lon": 0.0, "bike_id": "eb93232e9ee86307e23ad0f8106edcc5", "is_reserved": 0, "rental_uris": {"android": "https://dc.lft.to/lastmile_qr_scan", "ios": "https://dc.lft.to/lastmile_qr_scan"}, "lat": 38.95710233333333, "is_disabled": 0, "lon": -77.0028355}, {"fusion_lat": 0.0, "type": "electric_scooter", "name": "36660994b32030be09a56c228d65336c", "fusion_lon": 0.0, "bike_id": "36660994b32030be09a56c228d65336c", "is_reserved": 0, "rental_uris": {"android": "https://dc.lft.to/lastmile_qr_scan", "ios": "https://dc.lft.to/lastmile_qr_scan"}, "lat": 38.898432166666666, "is_disabled": 0, "lon": -77.03308733333333}, {"fusion_lat": 0.0, "type": "electric_scooter", "name": "7b817ca51d1de1a0e9e39d56fc30b31f", "fusion_lon": 0.0, "bike_id": "7b817ca51d1de1a0e9e39d56fc30b31f", "is_reserved": 0, "rental_uris": {"android": "https://dc.lft.to/lastmile_qr_scan", "ios": "https://dc.lft.to/lastmile_qr_scan"}, "lat": 38.9154115, "is_disabled": 0, "lon": -77.04610783333334}, {"fusion_lat": 0.0, "type": "electric_scooter", "name": "52e873d3c928f7592306f00c1328f858", "fusion_lon": 0.0, "bike_id": "52e873d3c928f7592306f00c1328f858", "is_reserved": 0, "rental_uris": {"android": "https://dc.lft.to/lastmile_qr_scan", "ios": "https://dc.lft.to/lastmile_qr_scan"}, "lat": 38.9111975, "is_disabled": 0, "lon": -77.0436475}, {"fusion_lat": 0.0, "type": "electric_scooter", "name": "96289aae8692b676f389330b4fdae0f8", "fusion_lon": 0.0, "bike_id": "96289aae8692b676f389330b4fdae0f8", "is_reserved": 0, "rental_uris": {"android": "https://dc.lft.to/lastmile_qr_scan", "ios": "https://dc.lft.to/lastmile_qr_scan"}, "lat": 38.892223666666666, "is_disabled": 0, "lon": -77.02221016666667}, {"fusion_lat": 0.0, "type": "electric_scooter", "name": "fd0d2f3477acc1d729fc92e1b36e305b", "fusion_lon": 0.0, "bike_id": "fd0d2f3477acc1d729fc92e1b36e305b", "is_reserved": 0, "rental_uris": {"android": "https://dc.lft.to/lastmile_qr_scan", "ios": "https://dc.lft.to/lastmile_qr_scan"}, "lat": 38.924741166666664, "is_disabled": 0, "lon": -77.02276433333333}, {"fusion_lat": 0.0, "type": "electric_scooter", "name": "7bd53cb90b937f0c89a56d6de41c504e", "fusion_lon": 0.0, "bike_id": "7bd53cb90b937f0c89a56d6de41c504e", "is_reserved": 0, "rental_uris": {"android": "https://dc.lft.to/lastmile_qr_scan", "ios": "https://dc.lft.to/lastmile_qr_scan"}, "lat": 38.918789333333336, "is_disabled": 0, "lon": -77.0375575}, {"fusion_lat": 0.0, "type": "electric_scooter", "name": "29a922072e31fffff3126540580f6bec", "fusion_lon": 0.0, "bike_id": "29a922072e31fffff3126540580f6bec", "is_reserved": 0, "rental_uris": {"android": "https://dc.lft.to/lastmile_qr_scan", "ios": "https://dc.lft.to/lastmile_qr_scan"}, "lat": 38.892193, "is_disabled": 0, "lon": -77.02348683333334}, {"fusion_lat": 0.0, "type": "electric_scooter", "name": "75b9c2f63566cb49518d9ae1e9080689", "fusion_lon": 0.0, "bike_id": "75b9c2f63566cb49518d9ae1e9080689", "is_reserved": 0, "rental_uris": {"android": "https://dc.lft.to/lastmile_qr_scan", "ios": "https://dc.lft.to/lastmile_qr_scan"}, "lat": 38.87683533333333, "is_disabled": 0, "lon": -77.00431}, {"fusion_lat": 0.0, "type": "electric_scooter", "name": "46cda5c6dffe1023d7cab4bf15560b62", "fusion_lon": 0.0, "bike_id": "46cda5c6dffe1023d7cab4bf15560b62", "is_reserved": 0, "rental_uris": {"android": "https://dc.lft.to/lastmile_qr_scan", "ios": "https://dc.lft.to/lastmile_qr_scan"}, "lat": 38.903656, "is_disabled": 0, "lon": -77.04336766666667}, {"fusion_lat": 0.0, "type": "electric_scooter", "name": "b8e47bac459a03bae9330232d2d81635", "fusion_lon": 0.0, "bike_id": "b8e47bac459a03bae9330232d2d81635", "is_reserved": 0, "rental_uris": {"android": "https://dc.lft.to/lastmile_qr_scan", "ios": "https://dc.lft.to/lastmile_qr_scan"}, "lat": 38.903778333333335, "is_disabled": 0, "lon": -77.006599}, {"fusion_lat": 0.0, "type": "electric_scooter", "name": "353fb7601566282e3380597a73c0a7cd", "fusion_lon": 0.0, "bike_id": "353fb7601566282e3380597a73c0a7cd", "is_reserved": 0, "rental_uris": {"android": "https://dc.lft.to/lastmile_qr_scan", "ios": "https://dc.lft.to/lastmile_qr_scan"}, "lat": 38.90979883333333, "is_disabled": 0, "lon": -77.0330325}, {"fusion_lat": 0.0, "type": "electric_scooter", "name": "4ca8eea97e13fd1b7ef4c2b43297057e", "fusion_lon": 0.0, "bike_id": "4ca8eea97e13fd1b7ef4c2b43297057e", "is_reserved": 0, "rental_uris": {"android": "https://dc.lft.to/lastmile_qr_scan", "ios": "https://dc.lft.to/lastmile_qr_scan"}, "lat": 38.870828833333334, "is_disabled": 0, "lon": -76.98888933333333}, {"fusion_lat": 0.0, "type": "electric_scooter", "name": "f7fca9dd2740fa76829b469e1c21ce30", "fusion_lon": 0.0, "bike_id": "f7fca9dd2740fa76829b469e1c21ce30", "is_reserved": 0, "rental_uris": {"android": "https://dc.lft.to/lastmile_qr_scan", "ios": "https://dc.lft.to/lastmile_qr_scan"}, "lat": 38.908307, "is_disabled": 0, "lon": -77.04347766666666}, {"fusion_lat": 0.0, "type": "electric_scooter", "name": "eda332ad4d9eb2a001e4463668d9cb5d", "fusion_lon": 0.0, "bike_id": "eda332ad4d9eb2a001e4463668d9cb5d", "is_reserved": 0, "rental_uris": {"android": "https://dc.lft.to/lastmile_qr_scan", "ios": "https://dc.lft.to/lastmile_qr_scan"}, "lat": 38.920300166666664, "is_disabled": 0, "lon": -77.01118633333333}, {"fusion_lat": 0.0, "type": "electric_bike", "name": "1fada3dd6283780ce0d234dc881685d8", "fusion_lon": 0.0, "bike_id": "1fada3dd6283780ce0d234dc881685d8", "is_reserved": 0, "rental_uris": {"android": "https://dc.lft.to/lastmile_qr_scan", "ios": "https://dc.lft.to/lastmile_qr_scan"}, "lat": 38.936418, "is_disabled": 0, "lon": -77.05776266666666}, {"fusion_lat": 0.0, "type": "electric_scooter", "name": "b18d6976008d40d9b499330dc989504c", "fusion_lon": 0.0, "bike_id": "b18d6976008d40d9b499330dc989504c", "is_reserved": 0, "rental_uris": {"android": "https://dc.lft.to/lastmile_qr_scan", "ios": "https://dc.lft.to/lastmile_qr_scan"}, "lat": 38.89226983333333, "is_disabled": 0, "lon": -77.02800733333333}, {"fusion_lat": 0.0, "type": "electric_scooter", "name": "b480b230d27c4e4dae0573e56e9d89db", "fusion_lon": 0.0, "bike_id": "b480b230d27c4e4dae0573e56e9d89db", "is_reserved": 0, "rental_uris": {"android": "https://dc.lft.to/lastmile_qr_scan", "ios": "https://dc.lft.to/lastmile_qr_scan"}, "lat": 38.92907233333333, "is_disabled": 0, "lon": -77.0626105}, {"fusion_lat": 0.0, "type": "electric_scooter", "name": "16be45b53735b6114659257c82649ca8", "fusion_lon": 0.0, "bike_id": "16be45b53735b6114659257c82649ca8", "is_reserved": 0, "rental_uris": {"android": "https://dc.lft.to/lastmile_qr_scan", "ios": "https://dc.lft.to/lastmile_qr_scan"}, "lat": 38.90402616666667, "is_disabled": 0, "lon": -77.04361733333333}, {"fusion_lat": 0.0, "type": "electric_scooter", "name": "517ef4b5b381b6312099ce030d9b507b", "fusion_lon": 0.0, "bike_id": "517ef4b5b381b6312099ce030d9b507b", "is_reserved": 0, "rental_uris": {"android": "https://dc.lft.to/lastmile_qr_scan", "ios": "https://dc.lft.to/lastmile_qr_scan"}, "lat": 38.917032666666664, "is_disabled": 0, "lon": -77.032252}, {"fusion_lat": 0.0, "type": "electric_scooter", "name": "3a3d8b0441ddcd46da8d5104ea975504", "fusion_lon": 0.0, "bike_id": "3a3d8b0441ddcd46da8d5104ea975504", "is_reserved": 0, "rental_uris": {"android": "https://dc.lft.to/lastmile_qr_scan", "ios": "https://dc.lft.to/lastmile_qr_scan"}, "lat": 38.92799483333334, "is_disabled": 0, "lon": -77.02474916666667}, {"fusion_lat": 0.0, "type": "electric_scooter", "name": "78897cc6d1f4160bb8a3f196318bbfc5", "fusion_lon": 0.0, "bike_id": "78897cc6d1f4160bb8a3f196318bbfc5", "is_reserved": 0, "rental_uris": {"android": "https://dc.lft.to/lastmile_qr_scan", "ios": "https://dc.lft.to/lastmile_qr_scan"}, "lat": 38.91481866666667, "is_disabled": 0, "lon": -77.025781}, {"fusion_lat": 0.0, "type": "electric_scooter", "name": "f5720e9350021c527da855f98e55ffd1", "fusion_lon": 0.0, "bike_id": "f5720e9350021c527da855f98e55ffd1", "is_reserved": 0, "rental_uris": {"android": "https://dc.lft.to/lastmile_qr_scan", "ios": "https://dc.lft.to/lastmile_qr_scan"}, "lat": 38.935878833333334, "is_disabled": 0, "lon": -77.058528}, {"fusion_lat": 0.0, "type": "electric_scooter", "name": "0f04fc40bd02fc870f5152561543553c", "fusion_lon": 0.0, "bike_id": "0f04fc40bd02fc870f5152561543553c", "is_reserved": 0, "rental_uris": {"android": "https://dc.lft.to/lastmile_qr_scan", "ios": "https://dc.lft.to/lastmile_qr_scan"}, "lat": 38.908100833333336, "is_disabled": 0, "lon": -77.038478}, {"fusion_lat": 0.0, "type": "electric_scooter", "name": "3b5754e56b5f3b2ff0bd86c5a347b279", "fusion_lon": 0.0, "bike_id": "3b5754e56b5f3b2ff0bd86c5a347b279", "is_reserved": 0, "rental_uris": {"android": "https://dc.lft.to/lastmile_qr_scan", "ios": "https://dc.lft.to/lastmile_qr_scan"}, "lat": 38.88311183333333, "is_disabled": 0, "lon": -77.01751183333333}, {"fusion_lat": 0.0, "type": "electric_scooter", "name": "dd4688128db1409da963d1a0792f732b", "fusion_lon": 0.0, "bike_id": "dd4688128db1409da963d1a0792f732b", "is_reserved": 0, "rental_uris": {"android": "https://dc.lft.to/lastmile_qr_scan", "ios": "https://dc.lft.to/lastmile_qr_scan"}, "lat": 38.89873516666667, "is_disabled": 0, "lon": -77.01386533333333}, {"fusion_lat": 0.0, "type": "electric_scooter", "name": "cb0b82002e603a18fcc4e73de4ad8139", "fusion_lon": 0.0, "bike_id": "cb0b82002e603a18fcc4e73de4ad8139", "is_reserved": 0, "rental_uris": {"android": "https://dc.lft.to/lastmile_qr_scan", "ios": "https://dc.lft.to/lastmile_qr_scan"}, "lat": 38.87156383333333, "is_disabled": 0, "lon": -76.97738266666667}, {"fusion_lat": 0.0, "type": "electric_scooter", "name": "2e02f9f3e449670711600cb464a7fd0f", "fusion_lon": 0.0, "bike_id": "2e02f9f3e449670711600cb464a7fd0f", "is_reserved": 0, "rental_uris": {"android": "https://dc.lft.to/lastmile_qr_scan", "ios": "https://dc.lft.to/lastmile_qr_scan"}, "lat": 38.91634716666667, "is_disabled": 0, "lon": -77.0107615}, {"fusion_lat": 0.0, "type": "electric_scooter", "name": "6594e85428b056c79fc983afbd2d94f7", "fusion_lon": 0.0, "bike_id": "6594e85428b056c79fc983afbd2d94f7", "is_reserved": 0, "rental_uris": {"android": "https://dc.lft.to/lastmile_qr_scan", "ios": "https://dc.lft.to/lastmile_qr_scan"}, "lat": 38.955595333333335, "is_disabled": 0, "lon": -77.070011}, {"fusion_lat": 0.0, "type": "electric_scooter", "name": "27e36436dc924287ffe4b1d5aeff51b4", "fusion_lon": 0.0, "bike_id": "27e36436dc924287ffe4b1d5aeff51b4", "is_reserved": 0, "rental_uris": {"android": "https://dc.lft.to/lastmile_qr_scan", "ios": "https://dc.lft.to/lastmile_qr_scan"}, "lat": 38.917174833333334, "is_disabled": 0, "lon": -77.03369116666667}, {"fusion_lat": 0.0, "type": "electric_scooter", "name": "daae59ab4d7b6cdd7dbfadd491c9e001", "fusion_lon": 0.0, "bike_id": "daae59ab4d7b6cdd7dbfadd491c9e001", "is_reserved": 0, "rental_uris": {"android": "https://dc.lft.to/lastmile_qr_scan", "ios": "https://dc.lft.to/lastmile_qr_scan"}, "lat": 38.9003135, "is_disabled": 0, "lon": -77.01198433333333}, {"fusion_lat": 0.0, "type": "electric_scooter", "name": "c56da07574588b5b8ac495a4205fc81b", "fusion_lon": 0.0, "bike_id": "c56da07574588b5b8ac495a4205fc81b", "is_reserved": 0, "rental_uris": {"android": "https://dc.lft.to/lastmile_qr_scan", "ios": "https://dc.lft.to/lastmile_qr_scan"}, "lat": 38.90650733333333, "is_disabled": 0, "lon": -77.0058445}, {"fusion_lat": 0.0, "type": "electric_scooter", "name": "40259ca0f0134b91c7bffbc995d886fe", "fusion_lon": 0.0, "bike_id": "40259ca0f0134b91c7bffbc995d886fe", "is_reserved": 0, "rental_uris": {"android": "https://dc.lft.to/lastmile_qr_scan", "ios": "https://dc.lft.to/lastmile_qr_scan"}, "lat": 38.913925, "is_disabled": 0, "lon": -77.03325416666667}, {"fusion_lat": 0.0, "type": "electric_scooter", "name": "e82497c65a83a52614bc05c6fa42da01", "fusion_lon": 0.0, "bike_id": "e82497c65a83a52614bc05c6fa42da01", "is_reserved": 0, "rental_uris": {"android": "https://dc.lft.to/lastmile_qr_scan", "ios": "https://dc.lft.to/lastmile_qr_scan"}, "lat": 38.9366815, "is_disabled": 0, "lon": -77.03418216666667}, {"fusion_lat": 0.0, "type": "electric_scooter", "name": "54ce542b7440df44a6190b351f4c3aab", "fusion_lon": 0.0, "bike_id": "54ce542b7440df44a6190b351f4c3aab", "is_reserved": 0, "rental_uris": {"android": "https://dc.lft.to/lastmile_qr_scan", "ios": "https://dc.lft.to/lastmile_qr_scan"}, "lat": 38.899982, "is_disabled": 0, "lon": -77.03168183333334}, {"fusion_lat": 0.0, "type": "electric_scooter", "name": "e431e87694e9174707976576338a6cfa", "fusion_lon": 0.0, "bike_id": "e431e87694e9174707976576338a6cfa", "is_reserved": 0, "rental_uris": {"android": "https://dc.lft.to/lastmile_qr_scan", "ios": "https://dc.lft.to/lastmile_qr_scan"}, "lat": 38.89579366666667, "is_disabled": 0, "lon": -77.01586483333334}, {"fusion_lat": 0.0, "type": "electric_scooter", "name": "e93173cb60052661dd49bed1c9a24ee4", "fusion_lon": 0.0, "bike_id": "e93173cb60052661dd49bed1c9a24ee4", "is_reserved": 0, "rental_uris": {"android": "https://dc.lft.to/lastmile_qr_scan", "ios": "https://dc.lft.to/lastmile_qr_scan"}, "lat": 38.906574666666664, "is_disabled": 0, "lon": -77.04509566666667}, {"fusion_lat": 0.0, "type": "electric_bike", "name": "3c936dc6919edc3a1adfef51d840aefc", "fusion_lon": 0.0, "bike_id": "3c936dc6919edc3a1adfef51d840aefc", "is_reserved": 0, "rental_uris": {"android": "https://dc.lft.to/lastmile_qr_scan", "ios": "https://dc.lft.to/lastmile_qr_scan"}, "lat": 38.906922333333334, "is_disabled": 0, "lon": -76.9525105}, {"fusion_lat": 0.0, "type": "electric_scooter", "name": "16e42d2d0982a90d862836850ac24bb2", "fusion_lon": 0.0, "bike_id": "16e42d2d0982a90d862836850ac24bb2", "is_reserved": 0, "rental_uris": {"android": "https://dc.lft.to/lastmile_qr_scan", "ios": "https://dc.lft.to/lastmile_qr_scan"}, "lat": 38.94870866666667, "is_disabled": 0, "lon": -77.03887983333334}, {"fusion_lat": 0.0, "type": "electric_scooter", "name": "859838094f746b4c38bd4b51addac4f8", "fusion_lon": 0.0, "bike_id": "859838094f746b4c38bd4b51addac4f8", "is_reserved": 0, "rental_uris": {"android": "https://dc.lft.to/lastmile_qr_scan", "ios": "https://dc.lft.to/lastmile_qr_scan"}, "lat": 38.8952055, "is_disabled": 0, "lon": -77.02847216666666}, {"fusion_lat": 0.0, "type": "electric_scooter", "name": "84c853aef917617a3ef46cb47f1c7a91", "fusion_lon": 0.0, "bike_id": "84c853aef917617a3ef46cb47f1c7a91", "is_reserved": 0, "rental_uris": {"android": "https://dc.lft.to/lastmile_qr_scan", "ios": "https://dc.lft.to/lastmile_qr_scan"}, "lat": 38.890374, "is_disabled": 0, "lon": -77.02977616666666}, {"fusion_lat": 0.0, "type": "electric_scooter", "name": "f928becc357834e93ce58bdbd948f071", "fusion_lon": 0.0, "bike_id": "f928becc357834e93ce58bdbd948f071", "is_reserved": 0, "rental_uris": {"android": "https://dc.lft.to/lastmile_qr_scan", "ios": "https://dc.lft.to/lastmile_qr_scan"}, "lat": 38.90739933333333, "is_disabled": 0, "lon": -77.04218}, {"fusion_lat": 0.0, "type": "electric_scooter", "name": "e3e8833e1b990f6db94829eca2ec4a9a", "fusion_lon": 0.0, "bike_id": "e3e8833e1b990f6db94829eca2ec4a9a", "is_reserved": 0, "rental_uris": {"android": "https://dc.lft.to/lastmile_qr_scan", "ios": "https://dc.lft.to/lastmile_qr_scan"}, "lat": 38.897531666666666, "is_disabled": 0, "lon": -77.03306766666667}, {"fusion_lat": 0.0, "type": "electric_scooter", "name": "91bafb11ae6375f748f8d4f88a82c406", "fusion_lon": 0.0, "bike_id": "91bafb11ae6375f748f8d4f88a82c406", "is_reserved": 0, "rental_uris": {"android": "https://dc.lft.to/lastmile_qr_scan", "ios": "https://dc.lft.to/lastmile_qr_scan"}, "lat": 38.925205166666665, "is_disabled": 0, "lon": -77.05040183333334}, {"fusion_lat": 0.0, "type": "electric_scooter", "name": "e1eff52adad1837df7a94b823db7fbbc", "fusion_lon": 0.0, "bike_id": "e1eff52adad1837df7a94b823db7fbbc", "is_reserved": 0, "rental_uris": {"android": "https://dc.lft.to/lastmile_qr_scan", "ios": "https://dc.lft.to/lastmile_qr_scan"}, "lat": 38.95121433333333, "is_disabled": 0, "lon": -76.9866745}, {"fusion_lat": 0.0, "type": "electric_scooter", "name": "edc1edaf27fa258b8801f175a35ec3ea", "fusion_lon": 0.0, "bike_id": "edc1edaf27fa258b8801f175a35ec3ea", "is_reserved": 0, "rental_uris": {"android": "https://dc.lft.to/lastmile_qr_scan", "ios": "https://dc.lft.to/lastmile_qr_scan"}, "lat": 38.892293, "is_disabled": 0, "lon": -77.02803183333333}, {"fusion_lat": 0.0, "type": "electric_scooter", "name": "40443acc87aa34de2fc1a10b624b0f35", "fusion_lon": 0.0, "bike_id": "40443acc87aa34de2fc1a10b624b0f35", "is_reserved": 0, "rental_uris": {"android": "https://dc.lft.to/lastmile_qr_scan", "ios": "https://dc.lft.to/lastmile_qr_scan"}, "lat": 38.909817333333336, "is_disabled": 0, "lon": -77.03401616666666}, {"fusion_lat": 0.0, "type": "electric_scooter", "name": "8ed4b0917c1f080684df8244a923aafe", "fusion_lon": 0.0, "bike_id": "8ed4b0917c1f080684df8244a923aafe", "is_reserved": 0, "rental_uris": {"android": "https://dc.lft.to/lastmile_qr_scan", "ios": "https://dc.lft.to/lastmile_qr_scan"}, "lat": 38.89725766666667, "is_disabled": 0, "lon": -77.02454766666666}, {"fusion_lat": 0.0, "type": "electric_scooter", "name": "5b196c5ca57546420d0c934358facbd8", "fusion_lon": 0.0, "bike_id": "5b196c5ca57546420d0c934358facbd8", "is_reserved": 0, "rental_uris": {"android": "https://dc.lft.to/lastmile_qr_scan", "ios": "https://dc.lft.to/lastmile_qr_scan"}, "lat": 38.892419, "is_disabled": 0, "lon": -77.04161983333333}, {"fusion_lat": 0.0, "type": "electric_scooter", "name": "c569314a21ed4f5030483ff97bd5f8ef", "fusion_lon": 0.0, "bike_id": "c569314a21ed4f5030483ff97bd5f8ef", "is_reserved": 0, "rental_uris": {"android": "https://dc.lft.to/lastmile_qr_scan", "ios": "https://dc.lft.to/lastmile_qr_scan"}, "lat": 38.902817166666665, "is_disabled": 0, "lon": -77.03444633333334}, {"fusion_lat": 0.0, "type": "electric_scooter", "name": "424a232e09bdddc3e3175e30b8e036ed", "fusion_lon": 0.0, "bike_id": "424a232e09bdddc3e3175e30b8e036ed", "is_reserved": 0, "rental_uris": {"android": "https://dc.lft.to/lastmile_qr_scan", "ios": "https://dc.lft.to/lastmile_qr_scan"}, "lat": 38.851769, "is_disabled": 0, "lon": -76.99580266666666}, {"fusion_lat": 0.0, "type": "electric_scooter", "name": "4ad9399204ebf8ed19ebf08506f9f437", "fusion_lon": 0.0, "bike_id": "4ad9399204ebf8ed19ebf08506f9f437", "is_reserved": 0, "rental_uris": {"android": "https://dc.lft.to/lastmile_qr_scan", "ios": "https://dc.lft.to/lastmile_qr_scan"}, "lat": 38.903839, "is_disabled": 0, "lon": -77.03844266666667}, {"fusion_lat": 0.0, "type": "electric_scooter", "name": "00aecafb3ce4252a72b507ce42e9c9d1", "fusion_lon": 0.0, "bike_id": "00aecafb3ce4252a72b507ce42e9c9d1", "is_reserved": 0, "rental_uris": {"android": "https://dc.lft.to/lastmile_qr_scan", "ios": "https://dc.lft.to/lastmile_qr_scan"}, "lat": 38.892232166666666, "is_disabled": 0, "lon": -77.03219133333333}, {"fusion_lat": 0.0, "type": "electric_scooter", "name": "49dd34a7be986eb562ddd029b4a53d5c", "fusion_lon": 0.0, "bike_id": "49dd34a7be986eb562ddd029b4a53d5c", "is_reserved": 0, "rental_uris": {"android": "https://dc.lft.to/lastmile_qr_scan", "ios": "https://dc.lft.to/lastmile_qr_scan"}, "lat": 38.90381433333334, "is_disabled": 0, "lon": -77.0445595}, {"fusion_lat": 0.0, "type": "electric_scooter", "name": "0ee70eaa9a52a998155da9f57e72e247", "fusion_lon": 0.0, "bike_id": "0ee70eaa9a52a998155da9f57e72e247", "is_reserved": 0, "rental_uris": {"android": "https://dc.lft.to/lastmile_qr_scan", "ios": "https://dc.lft.to/lastmile_qr_scan"}, "lat": 38.9133235, "is_disabled": 0, "lon": -77.04579566666666}, {"fusion_lat": 0.0, "type": "electric_scooter", "name": "4c2f3ef550b0124eeb4e982f50403932", "fusion_lon": 0.0, "bike_id": "4c2f3ef550b0124eeb4e982f50403932", "is_reserved": 0, "rental_uris": {"android": "https://dc.lft.to/lastmile_qr_scan", "ios": "https://dc.lft.to/lastmile_qr_scan"}, "lat": 38.892388833333335, "is_disabled": 0, "lon": -77.03209033333333}, {"fusion_lat": 0.0, "type": "electric_scooter", "name": "1ab8dfe3725d452571f17152988445ff", "fusion_lon": 0.0, "bike_id": "1ab8dfe3725d452571f17152988445ff", "is_reserved": 0, "rental_uris": {"android": "https://dc.lft.to/lastmile_qr_scan", "ios": "https://dc.lft.to/lastmile_qr_scan"}, "lat": 38.9072275, "is_disabled": 0, "lon": -77.04751216666666}, {"fusion_lat": 0.0, "type": "electric_scooter", "name": "d0b31569ab6950cd901f1fc2c7393440", "fusion_lon": 0.0, "bike_id": "d0b31569ab6950cd901f1fc2c7393440", "is_reserved": 0, "rental_uris": {"android": "https://dc.lft.to/lastmile_qr_scan", "ios": "https://dc.lft.to/lastmile_qr_scan"}, "lat": 38.96779816666667, "is_disabled": 0, "lon": -77.01510133333333}, {"fusion_lat": 0.0, "type": "electric_scooter", "name": "868c10753fdf853be7e5e3fc456076fa", "fusion_lon": 0.0, "bike_id": "868c10753fdf853be7e5e3fc456076fa", "is_reserved": 0, "rental_uris": {"android": "https://dc.lft.to/lastmile_qr_scan", "ios": "https://dc.lft.to/lastmile_qr_scan"}, "lat": 38.895055166666666, "is_disabled": 0, "lon": -77.046612}, {"fusion_lat": 0.0, "type": "electric_scooter", "name": "0ce9fc67afa70e4c5e505857d70d7acd", "fusion_lon": 0.0, "bike_id": "0ce9fc67afa70e4c5e505857d70d7acd", "is_reserved": 0, "rental_uris": {"android": "https://dc.lft.to/lastmile_qr_scan", "ios": "https://dc.lft.to/lastmile_qr_scan"}, "lat": 38.920781166666664, "is_disabled": 0, "lon": -77.023905}, {"fusion_lat": 0.0, "type": "electric_scooter", "name": "d706700210f221ceaca651e95972d432", "fusion_lon": 0.0, "bike_id": "d706700210f221ceaca651e95972d432", "is_reserved": 0, "rental_uris": {"android": "https://dc.lft.to/lastmile_qr_scan", "ios": "https://dc.lft.to/lastmile_qr_scan"}, "lat": 38.91566183333333, "is_disabled": 0, "lon": -77.0319455}, {"fusion_lat": 0.0, "type": "electric_bike", "name": "2cf4108c60628b9dcad7fb789bfeb6cb", "fusion_lon": 0.0, "bike_id": "2cf4108c60628b9dcad7fb789bfeb6cb", "is_reserved": 0, "rental_uris": {"android": "https://dc.lft.to/lastmile_qr_scan", "ios": "https://dc.lft.to/lastmile_qr_scan"}, "lat": 38.95328, "is_disabled": 0, "lon": -76.95432766666667}, {"fusion_lat": 0.0, "type": "electric_scooter", "name": "561ef866e3007380071806b17428cee3", "fusion_lon": 0.0, "bike_id": "561ef866e3007380071806b17428cee3", "is_reserved": 0, "rental_uris": {"android": "https://dc.lft.to/lastmile_qr_scan", "ios": "https://dc.lft.to/lastmile_qr_scan"}, "lat": 38.90262466666667, "is_disabled": 0, "lon": -77.00738383333334}, {"fusion_lat": 0.0, "type": "electric_scooter", "name": "b1271739570fc16f2a08d871c9a512b2", "fusion_lon": 0.0, "bike_id": "b1271739570fc16f2a08d871c9a512b2", "is_reserved": 0, "rental_uris": {"android": "https://dc.lft.to/lastmile_qr_scan", "ios": "https://dc.lft.to/lastmile_qr_scan"}, "lat": 38.92416033333333, "is_disabled": 0, "lon": -77.01946666666667}, {"fusion_lat": 0.0, "type": "electric_scooter", "name": "0b248caa4ea01608c3ba4708da586760", "fusion_lon": 0.0, "bike_id": "0b248caa4ea01608c3ba4708da586760", "is_reserved": 0, "rental_uris": {"android": "https://dc.lft.to/lastmile_qr_scan", "ios": "https://dc.lft.to/lastmile_qr_scan"}, "lat": 38.90956533333333, "is_disabled": 0, "lon": -77.04747016666667}, {"fusion_lat": 0.0, "type": "electric_scooter", "name": "1fb2cb4382d34016acab67ca9b57255f", "fusion_lon": 0.0, "bike_id": "1fb2cb4382d34016acab67ca9b57255f", "is_reserved": 0, "rental_uris": {"android": "https://dc.lft.to/lastmile_qr_scan", "ios": "https://dc.lft.to/lastmile_qr_scan"}, "lat": 38.898387166666666, "is_disabled": 0, "lon": -77.02985116666666}, {"fusion_lat": 0.0, "type": "electric_scooter", "name": "84e38dbef0f0aad6556e658e68658d98", "fusion_lon": 0.0, "bike_id": "84e38dbef0f0aad6556e658e68658d98", "is_reserved": 0, "rental_uris": {"android": "https://dc.lft.to/lastmile_qr_scan", "ios": "https://dc.lft.to/lastmile_qr_scan"}, "lat": 38.898345666666664, "is_disabled": 0, "lon": -77.0326495}, {"fusion_lat": 0.0, "type": "electric_scooter", "name": "04d0de11bbaf0fdc5d1c37b8f23895bb", "fusion_lon": 0.0, "bike_id": "04d0de11bbaf0fdc5d1c37b8f23895bb", "is_reserved": 0, "rental_uris": {"android": "https://dc.lft.to/lastmile_qr_scan", "ios": "https://dc.lft.to/lastmile_qr_scan"}, "lat": 38.89295833333333, "is_disabled": 0, "lon": -77.0123255}, {"fusion_lat": 0.0, "type": "electric_scooter", "name": "1b61b723dbe734e626f005d766ecfe58", "fusion_lon": 0.0, "bike_id": "1b61b723dbe734e626f005d766ecfe58", "is_reserved": 0, "rental_uris": {"android": "https://dc.lft.to/lastmile_qr_scan", "ios": "https://dc.lft.to/lastmile_qr_scan"}, "lat": 38.9611275, "is_disabled": 0, "lon": -77.0094395}, {"fusion_lat": 0.0, "type": "electric_scooter", "name": "886af98807b1782c835a7d90f4ef4db5", "fusion_lon": 0.0, "bike_id": "886af98807b1782c835a7d90f4ef4db5", "is_reserved": 0, "rental_uris": {"android": "https://dc.lft.to/lastmile_qr_scan", "ios": "https://dc.lft.to/lastmile_qr_scan"}, "lat": 38.90814233333333, "is_disabled": 0, "lon": -77.03939933333334}, {"fusion_lat": 0.0, "type": "electric_bike", "name": "7fe10cf5b7bb750c828044d7e4b64c31", "fusion_lon": 0.0, "bike_id": "7fe10cf5b7bb750c828044d7e4b64c31", "is_reserved": 0, "rental_uris": {"android": "https://dc.lft.to/lastmile_qr_scan", "ios": "https://dc.lft.to/lastmile_qr_scan"}, "lat": 38.92877583333333, "is_disabled": 0, "lon": -77.0123775}, {"fusion_lat": 0.0, "type": "electric_scooter", "name": "7439ba0144175aec35229e9731775957", "fusion_lon": 0.0, "bike_id": "7439ba0144175aec35229e9731775957", "is_reserved": 0, "rental_uris": {"android": "https://dc.lft.to/lastmile_qr_scan", "ios": "https://dc.lft.to/lastmile_qr_scan"}, "lat": 38.91561516666667, "is_disabled": 0, "lon": -77.04004116666667}, {"fusion_lat": 0.0, "type": "electric_scooter", "name": "3fc4a9105d94f22dc916180374c0353e", "fusion_lon": 0.0, "bike_id": "3fc4a9105d94f22dc916180374c0353e", "is_reserved": 0, "rental_uris": {"android": "https://dc.lft.to/lastmile_qr_scan", "ios": "https://dc.lft.to/lastmile_qr_scan"}, "lat": 38.92025983333333, "is_disabled": 0, "lon": -76.9957045}, {"fusion_lat": 0.0, "type": "electric_scooter", "name": "8d3fe1140a9fb7d425db3aa9389422e8", "fusion_lon": 0.0, "bike_id": "8d3fe1140a9fb7d425db3aa9389422e8", "is_reserved": 0, "rental_uris": {"android": "https://dc.lft.to/lastmile_qr_scan", "ios": "https://dc.lft.to/lastmile_qr_scan"}, "lat": 38.91422716666667, "is_disabled": 0, "lon": -77.025964}, {"fusion_lat": 0.0, "type": "electric_scooter", "name": "5fd10931768f97e0d5e47a4f8e06e715", "fusion_lon": 0.0, "bike_id": "5fd10931768f97e0d5e47a4f8e06e715", "is_reserved": 0, "rental_uris": {"android": "https://dc.lft.to/lastmile_qr_scan", "ios": "https://dc.lft.to/lastmile_qr_scan"}, "lat": 38.883092500000004, "is_disabled": 0, "lon": -77.01769816666666}, {"fusion_lat": 0.0, "type": "electric_scooter", "name": "0fdf66f3abe15d40cd6a593827dc1b9a", "fusion_lon": 0.0, "bike_id": "0fdf66f3abe15d40cd6a593827dc1b9a", "is_reserved": 0, "rental_uris": {"android": "https://dc.lft.to/lastmile_qr_scan", "ios": "https://dc.lft.to/lastmile_qr_scan"}, "lat": 38.906149, "is_disabled": 0, "lon": -77.04120883333333}, {"fusion_lat": 0.0, "type": "electric_scooter", "name": "01dbd39a3896a6d27af260c1abaf071a", "fusion_lon": 0.0, "bike_id": "01dbd39a3896a6d27af260c1abaf071a", "is_reserved": 0, "rental_uris": {"android": "https://dc.lft.to/lastmile_qr_scan", "ios": "https://dc.lft.to/lastmile_qr_scan"}, "lat": 38.91890816666667, "is_disabled": 0, "lon": -77.0482435}, {"fusion_lat": 0.0, "type": "electric_scooter", "name": "ad36fd8bec6460924070c023023e718d", "fusion_lon": 0.0, "bike_id": "ad36fd8bec6460924070c023023e718d", "is_reserved": 0, "rental_uris": {"android": "https://dc.lft.to/lastmile_qr_scan", "ios": "https://dc.lft.to/lastmile_qr_scan"}, "lat": 38.886185166666664, "is_disabled": 0, "lon": -77.00062066666666}, {"fusion_lat": 0.0, "type": "electric_scooter", "name": "020f8300972fbac063086dc4ebb2590a", "fusion_lon": 0.0, "bike_id": "020f8300972fbac063086dc4ebb2590a", "is_reserved": 0, "rental_uris": {"android": "https://dc.lft.to/lastmile_qr_scan", "ios": "https://dc.lft.to/lastmile_qr_scan"}, "lat": 38.9579185, "is_disabled": 0, "lon": -77.02002583333334}, {"fusion_lat": 0.0, "type": "electric_scooter", "name": "c6e0b2c3fea5800b1b3cdadfc1fba489", "fusion_lon": 0.0, "bike_id": "c6e0b2c3fea5800b1b3cdadfc1fba489", "is_reserved": 0, "rental_uris": {"android": "https://dc.lft.to/lastmile_qr_scan", "ios": "https://dc.lft.to/lastmile_qr_scan"}, "lat": 38.905012, "is_disabled": 0, "lon": -77.06858666666666}, {"fusion_lat": 0.0, "type": "electric_scooter", "name": "191c205546023b7075d750343904d7c9", "fusion_lon": 0.0, "bike_id": "191c205546023b7075d750343904d7c9", "is_reserved": 0, "rental_uris": {"android": "https://dc.lft.to/lastmile_qr_scan", "ios": "https://dc.lft.to/lastmile_qr_scan"}, "lat": 38.903747833333334, "is_disabled": 0, "lon": -77.04512366666667}, {"fusion_lat": 0.0, "type": "electric_scooter", "name": "0382009cf248f47487a4a58af8a28faf", "fusion_lon": 0.0, "bike_id": "0382009cf248f47487a4a58af8a28faf", "is_reserved": 0, "rental_uris": {"android": "https://dc.lft.to/lastmile_qr_scan", "ios": "https://dc.lft.to/lastmile_qr_scan"}, "lat": 38.893096166666666, "is_disabled": 0, "lon": -77.02166266666667}, {"fusion_lat": 0.0, "type": "electric_bike", "name": "130586e013f2341f4e4b10649c250e1f", "fusion_lon": 0.0, "bike_id": "130586e013f2341f4e4b10649c250e1f", "is_reserved": 0, "rental_uris": {"android": "https://dc.lft.to/lastmile_qr_scan", "ios": "https://dc.lft.to/lastmile_qr_scan"}, "lat": 38.87944483333333, "is_disabled": 0, "lon": -76.9161735}, {"fusion_lat": 0.0, "type": "electric_scooter", "name": "e345a13b9036b88792b3c76a4885c6db", "fusion_lon": 0.0, "bike_id": "e345a13b9036b88792b3c76a4885c6db", "is_reserved": 0, "rental_uris": {"android": "https://dc.lft.to/lastmile_qr_scan", "ios": "https://dc.lft.to/lastmile_qr_scan"}, "lat": 38.90089416666667, "is_disabled": 0, "lon": -77.02533666666666}, {"fusion_lat": 0.0, "type": "electric_scooter", "name": "517e01b0280fe9aeabdc48c383da8823", "fusion_lon": 0.0, "bike_id": "517e01b0280fe9aeabdc48c383da8823", "is_reserved": 0, "rental_uris": {"android": "https://dc.lft.to/lastmile_qr_scan", "ios": "https://dc.lft.to/lastmile_qr_scan"}, "lat": 38.901455, "is_disabled": 0, "lon": -77.0435325}, {"fusion_lat": 0.0, "type": "electric_scooter", "name": "0c8516bd08fcfd8759ea2300136990d0", "fusion_lon": 0.0, "bike_id": "0c8516bd08fcfd8759ea2300136990d0", "is_reserved": 0, "rental_uris": {"android": "https://dc.lft.to/lastmile_qr_scan", "ios": "https://dc.lft.to/lastmile_qr_scan"}, "lat": 38.89911516666667, "is_disabled": 0, "lon": -77.025918}, {"fusion_lat": 0.0, "type": "electric_scooter", "name": "13a5f860f0a1c42f0876d465a7005c14", "fusion_lon": 0.0, "bike_id": "13a5f860f0a1c42f0876d465a7005c14", "is_reserved": 0, "rental_uris": {"android": "https://dc.lft.to/lastmile_qr_scan", "ios": "https://dc.lft.to/lastmile_qr_scan"}, "lat": 38.915648, "is_disabled": 0, "lon": -77.03370433333333}, {"fusion_lat": 0.0, "type": "electric_scooter", "name": "16c145c67978c9b506c36f8d977e1be3", "fusion_lon": 0.0, "bike_id": "16c145c67978c9b506c36f8d977e1be3", "is_reserved": 0, "rental_uris": {"android": "https://dc.lft.to/lastmile_qr_scan", "ios": "https://dc.lft.to/lastmile_qr_scan"}, "lat": 38.874723333333336, "is_disabled": 0, "lon": -77.00514133333333}, {"fusion_lat": 0.0, "type": "electric_scooter", "name": "5a8cecb590dae7b3c5faf61efc77a527", "fusion_lon": 0.0, "bike_id": "5a8cecb590dae7b3c5faf61efc77a527", "is_reserved": 0, "rental_uris": {"android": "https://dc.lft.to/lastmile_qr_scan", "ios": "https://dc.lft.to/lastmile_qr_scan"}, "lat": 38.930962, "is_disabled": 0, "lon": -77.036339}, {"fusion_lat": 0.0, "type": "electric_scooter", "name": "bc554e979913b9677afba0a339a7ca43", "fusion_lon": 0.0, "bike_id": "bc554e979913b9677afba0a339a7ca43", "is_reserved": 0, "rental_uris": {"android": "https://dc.lft.to/lastmile_qr_scan", "ios": "https://dc.lft.to/lastmile_qr_scan"}, "lat": 38.89221116666667, "is_disabled": 0, "lon": -77.02216416666667}, {"fusion_lat": 0.0, "type": "electric_scooter", "name": "5629642ea4f13797ba5302363fe273f0", "fusion_lon": 0.0, "bike_id": "5629642ea4f13797ba5302363fe273f0", "is_reserved": 0, "rental_uris": {"android": "https://dc.lft.to/lastmile_qr_scan", "ios": "https://dc.lft.to/lastmile_qr_scan"}, "lat": 38.91936, "is_disabled": 0, "lon": -77.04170066666667}, {"fusion_lat": 0.0, "type": "electric_scooter", "name": "6bd7a7c35f9495c1b42248fadf6e3f86", "fusion_lon": 0.0, "bike_id": "6bd7a7c35f9495c1b42248fadf6e3f86", "is_reserved": 0, "rental_uris": {"android": "https://dc.lft.to/lastmile_qr_scan", "ios": "https://dc.lft.to/lastmile_qr_scan"}, "lat": 38.863592, "is_disabled": 0, "lon": -76.99065433333334}, {"fusion_lat": 0.0, "type": "electric_bike", "name": "315b1552d4aff44f1bbed6d6cb11231c", "fusion_lon": 0.0, "bike_id": "315b1552d4aff44f1bbed6d6cb11231c", "is_reserved": 0, "rental_uris": {"android": "https://dc.lft.to/lastmile_qr_scan", "ios": "https://dc.lft.to/lastmile_qr_scan"}, "lat": 38.855214833333335, "is_disabled": 0, "lon": -76.98432183333334}, {"fusion_lat": 0.0, "type": "electric_scooter", "name": "fa278711d79e25e389b8381505360e28", "fusion_lon": 0.0, "bike_id": "fa278711d79e25e389b8381505360e28", "is_reserved": 0, "rental_uris": {"android": "https://dc.lft.to/lastmile_qr_scan", "ios": "https://dc.lft.to/lastmile_qr_scan"}, "lat": 38.9031465, "is_disabled": 0, "lon": -77.04180266666667}, {"fusion_lat": 0.0, "type": "electric_scooter", "name": "57133f52759e366c8405ff4afa9a1fde", "fusion_lon": 0.0, "bike_id": "57133f52759e366c8405ff4afa9a1fde", "is_reserved": 0, "rental_uris": {"android": "https://dc.lft.to/lastmile_qr_scan", "ios": "https://dc.lft.to/lastmile_qr_scan"}, "lat": 38.9217375, "is_disabled": 0, "lon": -77.04230083333333}, {"fusion_lat": 0.0, "type": "electric_scooter", "name": "8d2bc3c70f0d60d4867ce30acaa9f253", "fusion_lon": 0.0, "bike_id": "8d2bc3c70f0d60d4867ce30acaa9f253", "is_reserved": 0, "rental_uris": {"android": "https://dc.lft.to/lastmile_qr_scan", "ios": "https://dc.lft.to/lastmile_qr_scan"}, "lat": 38.90561866666667, "is_disabled": 0, "lon": -77.04493933333333}, {"fusion_lat": 0.0, "type": "electric_scooter", "name": "2a13c1409b29783c34f850362d141fc9", "fusion_lon": 0.0, "bike_id": "2a13c1409b29783c34f850362d141fc9", "is_reserved": 0, "rental_uris": {"android": "https://dc.lft.to/lastmile_qr_scan", "ios": "https://dc.lft.to/lastmile_qr_scan"}, "lat": 38.91211833333333, "is_disabled": 0, "lon": -77.03451533333333}, {"fusion_lat": 0.0, "type": "electric_scooter", "name": "67830118dac06982bbd91fa4116394b5", "fusion_lon": 0.0, "bike_id": "67830118dac06982bbd91fa4116394b5", "is_reserved": 0, "rental_uris": {"android": "https://dc.lft.to/lastmile_qr_scan", "ios": "https://dc.lft.to/lastmile_qr_scan"}, "lat": 38.92700633333333, "is_disabled": 0, "lon": -77.04111983333334}, {"fusion_lat": 0.0, "type": "electric_bike", "name": "c5f5148a408d255bc312045b7dbe8dc9", "fusion_lon": 0.0, "bike_id": "c5f5148a408d255bc312045b7dbe8dc9", "is_reserved": 0, "rental_uris": {"android": "https://dc.lft.to/lastmile_qr_scan", "ios": "https://dc.lft.to/lastmile_qr_scan"}, "lat": 38.993481833333334, "is_disabled": 0, "lon": -77.11573333333334}, {"fusion_lat": 0.0, "type": "electric_scooter", "name": "0e60618ce3e8bc2de00c8d07e92f4022", "fusion_lon": 0.0, "bike_id": "0e60618ce3e8bc2de00c8d07e92f4022", "is_reserved": 0, "rental_uris": {"android": "https://dc.lft.to/lastmile_qr_scan", "ios": "https://dc.lft.to/lastmile_qr_scan"}, "lat": 38.866568, "is_disabled": 0, "lon": -76.98519916666666}, {"fusion_lat": 0.0, "type": "electric_scooter", "name": "a860e98a226bd500137f49ed77014f59", "fusion_lon": 0.0, "bike_id": "a860e98a226bd500137f49ed77014f59", "is_reserved": 0, "rental_uris": {"android": "https://dc.lft.to/lastmile_qr_scan", "ios": "https://dc.lft.to/lastmile_qr_scan"}, "lat": 38.901442833333334, "is_disabled": 0, "lon": -77.04404133333334}, {"fusion_lat": 0.0, "type": "electric_scooter", "name": "65f817eeace0d98c2c762ef093d21a1d", "fusion_lon": 0.0, "bike_id": "65f817eeace0d98c2c762ef093d21a1d", "is_reserved": 0, "rental_uris": {"android": "https://dc.lft.to/lastmile_qr_scan", "ios": "https://dc.lft.to/lastmile_qr_scan"}, "lat": 38.866605, "is_disabled": 0, "lon": -76.988807}, {"fusion_lat": 0.0, "type": "electric_scooter", "name": "a8870bbcf0e10050405f42bf2f5cee30", "fusion_lon": 0.0, "bike_id": "a8870bbcf0e10050405f42bf2f5cee30", "is_reserved": 0, "rental_uris": {"android": "https://dc.lft.to/lastmile_qr_scan", "ios": "https://dc.lft.to/lastmile_qr_scan"}, "lat": 38.899008, "is_disabled": 0, "lon": -77.03284533333333}, {"fusion_lat": 0.0, "type": "electric_scooter", "name": "7bbbab656b7d12ef73b8b4296d1a1bce", "fusion_lon": 0.0, "bike_id": "7bbbab656b7d12ef73b8b4296d1a1bce", "is_reserved": 0, "rental_uris": {"android": "https://dc.lft.to/lastmile_qr_scan", "ios": "https://dc.lft.to/lastmile_qr_scan"}, "lat": 38.91097666666667, "is_disabled": 0, "lon": -77.03178233333334}, {"fusion_lat": 0.0, "type": "electric_scooter", "name": "04b3846d51a27d40f39fb6c5c6fb4cc8", "fusion_lon": 0.0, "bike_id": "04b3846d51a27d40f39fb6c5c6fb4cc8", "is_reserved": 0, "rental_uris": {"android": "https://dc.lft.to/lastmile_qr_scan", "ios": "https://dc.lft.to/lastmile_qr_scan"}, "lat": 38.892973, "is_disabled": 0, "lon": -77.012267}, {"fusion_lat": 0.0, "type": "electric_scooter", "name": "19b591d7bec582f3003d2b5405b02abb", "fusion_lon": 0.0, "bike_id": "19b591d7bec582f3003d2b5405b02abb", "is_reserved": 0, "rental_uris": {"android": "https://dc.lft.to/lastmile_qr_scan", "ios": "https://dc.lft.to/lastmile_qr_scan"}, "lat": 38.90261816666667, "is_disabled": 0, "lon": -77.046011}, {"fusion_lat": 0.0, "type": "electric_scooter", "name": "4a45842db92ae37003f8e44d497ea5e9", "fusion_lon": 0.0, "bike_id": "4a45842db92ae37003f8e44d497ea5e9", "is_reserved": 0, "rental_uris": {"android": "https://dc.lft.to/lastmile_qr_scan", "ios": "https://dc.lft.to/lastmile_qr_scan"}, "lat": 38.917348, "is_disabled": 0, "lon": -77.041546}, {"fusion_lat": 0.0, "type": "electric_scooter", "name": "2dc11b9b72c98f1d61c944413179c5a6", "fusion_lon": 0.0, "bike_id": "2dc11b9b72c98f1d61c944413179c5a6", "is_reserved": 0, "rental_uris": {"android": "https://dc.lft.to/lastmile_qr_scan", "ios": "https://dc.lft.to/lastmile_qr_scan"}, "lat": 38.93006116666667, "is_disabled": 0, "lon": -77.05516183333333}, {"fusion_lat": 0.0, "type": "electric_scooter", "name": "59e7b2a8581a462705ffa886462961f1", "fusion_lon": 0.0, "bike_id": "59e7b2a8581a462705ffa886462961f1", "is_reserved": 0, "rental_uris": {"android": "https://dc.lft.to/lastmile_qr_scan", "ios": "https://dc.lft.to/lastmile_qr_scan"}, "lat": 38.924637833333335, "is_disabled": 0, "lon": -77.03954533333334}, {"fusion_lat": 0.0, "type": "electric_scooter", "name": "e5b29ae18a7b1bcfca926af43a765d5e", "fusion_lon": 0.0, "bike_id": "e5b29ae18a7b1bcfca926af43a765d5e", "is_reserved": 0, "rental_uris": {"android": "https://dc.lft.to/lastmile_qr_scan", "ios": "https://dc.lft.to/lastmile_qr_scan"}, "lat": 38.9222675, "is_disabled": 0, "lon": -77.04246416666666}, {"fusion_lat": 0.0, "type": "electric_scooter", "name": "6113a00f39a4b806ab24da42bcb476b8", "fusion_lon": 0.0, "bike_id": "6113a00f39a4b806ab24da42bcb476b8", "is_reserved": 0, "rental_uris": {"android": "https://dc.lft.to/lastmile_qr_scan", "ios": "https://dc.lft.to/lastmile_qr_scan"}, "lat": 38.892337, "is_disabled": 0, "lon": -77.01978166666666}, {"fusion_lat": 0.0, "type": "electric_scooter", "name": "d086193305933574f7f344c1c5bc1eff", "fusion_lon": 0.0, "bike_id": "d086193305933574f7f344c1c5bc1eff", "is_reserved": 0, "rental_uris": {"android": "https://dc.lft.to/lastmile_qr_scan", "ios": "https://dc.lft.to/lastmile_qr_scan"}, "lat": 38.9061405, "is_disabled": 0, "lon": -77.0395475}, {"fusion_lat": 0.0, "type": "electric_scooter", "name": "8748ddca729276af6ada0a8e9b62e68a", "fusion_lon": 0.0, "bike_id": "8748ddca729276af6ada0a8e9b62e68a", "is_reserved": 0, "rental_uris": {"android": "https://dc.lft.to/lastmile_qr_scan", "ios": "https://dc.lft.to/lastmile_qr_scan"}, "lat": 38.91185933333333, "is_disabled": 0, "lon": -77.044524}, {"fusion_lat": 0.0, "type": "electric_scooter", "name": "7e26e01a3b86c63146d13b0858541253", "fusion_lon": 0.0, "bike_id": "7e26e01a3b86c63146d13b0858541253", "is_reserved": 0, "rental_uris": {"android": "https://dc.lft.to/lastmile_qr_scan", "ios": "https://dc.lft.to/lastmile_qr_scan"}, "lat": 38.89728183333333, "is_disabled": 0, "lon": -77.00929516666666}, {"fusion_lat": 0.0, "type": "electric_scooter", "name": "405ac83b669568e882f3ddc18e9ad1ec", "fusion_lon": 0.0, "bike_id": "405ac83b669568e882f3ddc18e9ad1ec", "is_reserved": 0, "rental_uris": {"android": "https://dc.lft.to/lastmile_qr_scan", "ios": "https://dc.lft.to/lastmile_qr_scan"}, "lat": 38.89222816666667, "is_disabled": 0, "lon": -77.00217933333333}, {"fusion_lat": 0.0, "type": "electric_scooter", "name": "0a46bd5cc78a0c603a06d6fd128381d7", "fusion_lon": 0.0, "bike_id": "0a46bd5cc78a0c603a06d6fd128381d7", "is_reserved": 0, "rental_uris": {"android": "https://dc.lft.to/lastmile_qr_scan", "ios": "https://dc.lft.to/lastmile_qr_scan"}, "lat": 38.90733566666667, "is_disabled": 0, "lon": -77.04160766666666}, {"fusion_lat": 0.0, "type": "electric_scooter", "name": "c04e3d4b778722094681965827bb27c8", "fusion_lon": 0.0, "bike_id": "c04e3d4b778722094681965827bb27c8", "is_reserved": 0, "rental_uris": {"android": "https://dc.lft.to/lastmile_qr_scan", "ios": "https://dc.lft.to/lastmile_qr_scan"}, "lat": 38.91702683333333, "is_disabled": 0, "lon": -77.03220116666667}, {"fusion_lat": 0.0, "type": "electric_scooter", "name": "e3de5812c8bb41a61bed25b094da46e8", "fusion_lon": 0.0, "bike_id": "e3de5812c8bb41a61bed25b094da46e8", "is_reserved": 0, "rental_uris": {"android": "https://dc.lft.to/lastmile_qr_scan", "ios": "https://dc.lft.to/lastmile_qr_scan"}, "lat": 38.90451133333333, "is_disabled": 0, "lon": -77.0446815}, {"fusion_lat": 0.0, "type": "electric_scooter", "name": "6f7792210e40a95788e5372effb3e2ca", "fusion_lon": 0.0, "bike_id": "6f7792210e40a95788e5372effb3e2ca", "is_reserved": 0, "rental_uris": {"android": "https://dc.lft.to/lastmile_qr_scan", "ios": "https://dc.lft.to/lastmile_qr_scan"}, "lat": 38.916535, "is_disabled": 0, "lon": -77.02183083333334}, {"fusion_lat": 0.0, "type": "electric_bike", "name": "f3131a71178a49266a67faefe8104bde", "fusion_lon": 0.0, "bike_id": "f3131a71178a49266a67faefe8104bde", "is_reserved": 0, "rental_uris": {"android": "https://dc.lft.to/lastmile_qr_scan", "ios": "https://dc.lft.to/lastmile_qr_scan"}, "lat": 38.884069833333335, "is_disabled": 0, "lon": -76.96055366666667}, {"fusion_lat": 0.0, "type": "electric_scooter", "name": "7f4866744865a8554030cf9bb9fb3c44", "fusion_lon": 0.0, "bike_id": "7f4866744865a8554030cf9bb9fb3c44", "is_reserved": 0, "rental_uris": {"android": "https://dc.lft.to/lastmile_qr_scan", "ios": "https://dc.lft.to/lastmile_qr_scan"}, "lat": 38.90549166666667, "is_disabled": 0, "lon": -77.0499365}, {"fusion_lat": 0.0, "type": "electric_scooter", "name": "018422ba41c09ba82c8ea4c1e3a34888", "fusion_lon": 0.0, "bike_id": "018422ba41c09ba82c8ea4c1e3a34888", "is_reserved": 0, "rental_uris": {"android": "https://dc.lft.to/lastmile_qr_scan", "ios": "https://dc.lft.to/lastmile_qr_scan"}, "lat": 38.906653166666665, "is_disabled": 0, "lon": -77.03858733333334}, {"fusion_lat": 0.0, "type": "electric_scooter", "name": "d771877d71b4d5fb9de76db4d4c4c2d4", "fusion_lon": 0.0, "bike_id": "d771877d71b4d5fb9de76db4d4c4c2d4", "is_reserved": 0, "rental_uris": {"android": "https://dc.lft.to/lastmile_qr_scan", "ios": "https://dc.lft.to/lastmile_qr_scan"}, "lat": 38.918974166666665, "is_disabled": 0, "lon": -77.03642466666666}, {"fusion_lat": 0.0, "type": "electric_scooter", "name": "5abb3f5e9d2bf2340fbcf37f5cd1a690", "fusion_lon": 0.0, "bike_id": "5abb3f5e9d2bf2340fbcf37f5cd1a690", "is_reserved": 0, "rental_uris": {"android": "https://dc.lft.to/lastmile_qr_scan", "ios": "https://dc.lft.to/lastmile_qr_scan"}, "lat": 38.881122833333336, "is_disabled": 0, "lon": -77.01675583333333}, {"fusion_lat": 0.0, "type": "electric_scooter", "name": "872c009bcbd295648bb41308929727d8", "fusion_lon": 0.0, "bike_id": "872c009bcbd295648bb41308929727d8", "is_reserved": 0, "rental_uris": {"android": "https://dc.lft.to/lastmile_qr_scan", "ios": "https://dc.lft.to/lastmile_qr_scan"}, "lat": 38.8954955, "is_disabled": 0, "lon": -77.05662583333333}, {"fusion_lat": 0.0, "type": "electric_scooter", "name": "edcd45ad889898bfb23ff1dbaa8fed10", "fusion_lon": 0.0, "bike_id": "edcd45ad889898bfb23ff1dbaa8fed10", "is_reserved": 0, "rental_uris": {"android": "https://dc.lft.to/lastmile_qr_scan", "ios": "https://dc.lft.to/lastmile_qr_scan"}, "lat": 38.932285666666665, "is_disabled": 0, "lon": -77.023667}, {"fusion_lat": 0.0, "type": "electric_scooter", "name": "c1d9f0d4afab5b711b599f37f055dc73", "fusion_lon": 0.0, "bike_id": "c1d9f0d4afab5b711b599f37f055dc73", "is_reserved": 0, "rental_uris": {"android": "https://dc.lft.to/lastmile_qr_scan", "ios": "https://dc.lft.to/lastmile_qr_scan"}, "lat": 38.8972235, "is_disabled": 0, "lon": -77.02712416666667}, {"fusion_lat": 0.0, "type": "electric_bike", "name": "e26512705a950f914499ce6bff73f09e", "fusion_lon": 0.0, "bike_id": "e26512705a950f914499ce6bff73f09e", "is_reserved": 0, "rental_uris": {"android": "https://dc.lft.to/lastmile_qr_scan", "ios": "https://dc.lft.to/lastmile_qr_scan"}, "lat": 38.852755, "is_disabled": 0, "lon": -76.99576683333333}, {"fusion_lat": 0.0, "type": "electric_bike", "name": "6b566fef50c4a66ed9a7ef82f1b94c18", "fusion_lon": 0.0, "bike_id": "6b566fef50c4a66ed9a7ef82f1b94c18", "is_reserved": 0, "rental_uris": {"android": "https://dc.lft.to/lastmile_qr_scan", "ios": "https://dc.lft.to/lastmile_qr_scan"}, "lat": 38.8238155, "is_disabled": 0, "lon": -77.002282}, {"fusion_lat": 0.0, "type": "electric_bike", "name": "27899627e34505ae9eaf5ec967783b87", "fusion_lon": 0.0, "bike_id": "27899627e34505ae9eaf5ec967783b87", "is_reserved": 0, "rental_uris": {"android": "https://dc.lft.to/lastmile_qr_scan", "ios": "https://dc.lft.to/lastmile_qr_scan"}, "lat": 38.96213316666667, "is_disabled": 0, "lon": -76.9937715}, {"fusion_lat": 0.0, "type": "electric_scooter", "name": "b5ae11f8b6ebddbb40695195b1fecd38", "fusion_lon": 0.0, "bike_id": "b5ae11f8b6ebddbb40695195b1fecd38", "is_reserved": 0, "rental_uris": {"android": "https://dc.lft.to/lastmile_qr_scan", "ios": "https://dc.lft.to/lastmile_qr_scan"}, "lat": 38.91513833333333, "is_disabled": 0, "lon": -77.0433195}, {"fusion_lat": 0.0, "type": "electric_scooter", "name": "8d16c1baa9bf88ecc4ba00a723d00dbb", "fusion_lon": 0.0, "bike_id": "8d16c1baa9bf88ecc4ba00a723d00dbb", "is_reserved": 0, "rental_uris": {"android": "https://dc.lft.to/lastmile_qr_scan", "ios": "https://dc.lft.to/lastmile_qr_scan"}, "lat": 38.89604966666667, "is_disabled": 0, "lon": -77.049774}, {"fusion_lat": 0.0, "type": "electric_scooter", "name": "e4c35ce83f37a4c4ae85579cf7beaacf", "fusion_lon": 0.0, "bike_id": "e4c35ce83f37a4c4ae85579cf7beaacf", "is_reserved": 0, "rental_uris": {"android": "https://dc.lft.to/lastmile_qr_scan", "ios": "https://dc.lft.to/lastmile_qr_scan"}, "lat": 38.950771, "is_disabled": 0, "lon": -76.99562166666666}, {"fusion_lat": 0.0, "type": "electric_scooter", "name": "794550cf1bc491fd46b42ea15227c027", "fusion_lon": 0.0, "bike_id": "794550cf1bc491fd46b42ea15227c027", "is_reserved": 0, "rental_uris": {"android": "https://dc.lft.to/lastmile_qr_scan", "ios": "https://dc.lft.to/lastmile_qr_scan"}, "lat": 38.908299, "is_disabled": 0, "lon": -77.07432866666667}, {"fusion_lat": 0.0, "type": "electric_scooter", "name": "1562913afb2cb20b0972a984f19dc90f", "fusion_lon": 0.0, "bike_id": "1562913afb2cb20b0972a984f19dc90f", "is_reserved": 0, "rental_uris": {"android": "https://dc.lft.to/lastmile_qr_scan", "ios": "https://dc.lft.to/lastmile_qr_scan"}, "lat": 38.90182766666667, "is_disabled": 0, "lon": -77.049984}, {"fusion_lat": 0.0, "type": "electric_scooter", "name": "91017feb6b782286c522e270fee22c47", "fusion_lon": 0.0, "bike_id": "91017feb6b782286c522e270fee22c47", "is_reserved": 0, "rental_uris": {"android": "https://dc.lft.to/lastmile_qr_scan", "ios": "https://dc.lft.to/lastmile_qr_scan"}, "lat": 38.89354, "is_disabled": 0, "lon": -77.0032935}, {"fusion_lat": 0.0, "type": "electric_scooter", "name": "b5bfd3cdece0097251447e42895793e0", "fusion_lon": 0.0, "bike_id": "b5bfd3cdece0097251447e42895793e0", "is_reserved": 0, "rental_uris": {"android": "https://dc.lft.to/lastmile_qr_scan", "ios": "https://dc.lft.to/lastmile_qr_scan"}, "lat": 38.89606233333333, "is_disabled": 0, "lon": -77.0459595}, {"fusion_lat": 0.0, "type": "electric_scooter", "name": "8da3368244c2ad1f1aafdef2dabcf282", "fusion_lon": 0.0, "bike_id": "8da3368244c2ad1f1aafdef2dabcf282", "is_reserved": 0, "rental_uris": {"android": "https://dc.lft.to/lastmile_qr_scan", "ios": "https://dc.lft.to/lastmile_qr_scan"}, "lat": 38.919158, "is_disabled": 0, "lon": -77.04812433333333}, {"fusion_lat": 0.0, "type": "electric_scooter", "name": "d62488e902ac751779eb3cfe3b2692ed", "fusion_lon": 0.0, "bike_id": "d62488e902ac751779eb3cfe3b2692ed", "is_reserved": 0, "rental_uris": {"android": "https://dc.lft.to/lastmile_qr_scan", "ios": "https://dc.lft.to/lastmile_qr_scan"}, "lat": 38.885307833333336, "is_disabled": 0, "lon": -77.0057735}, {"fusion_lat": 0.0, "type": "electric_bike", "name": "f1c064ab9ca78f177b6a78cd0e4e2bf6", "fusion_lon": 0.0, "bike_id": "f1c064ab9ca78f177b6a78cd0e4e2bf6", "is_reserved": 0, "rental_uris": {"android": "https://dc.lft.to/lastmile_qr_scan", "ios": "https://dc.lft.to/lastmile_qr_scan"}, "lat": 38.8881885, "is_disabled": 0, "lon": -77.03839166666667}, {"fusion_lat": 0.0, "type": "electric_scooter", "name": "ac8448367900eb32e8b4deda07ffa4a1", "fusion_lon": 0.0, "bike_id": "ac8448367900eb32e8b4deda07ffa4a1", "is_reserved": 0, "rental_uris": {"android": "https://dc.lft.to/lastmile_qr_scan", "ios": "https://dc.lft.to/lastmile_qr_scan"}, "lat": 38.90394533333333, "is_disabled": 0, "lon": -77.0383765}, {"fusion_lat": 0.0, "type": "electric_scooter", "name": "1a37b939ca0fe3b639867fa1d66a0bbe", "fusion_lon": 0.0, "bike_id": "1a37b939ca0fe3b639867fa1d66a0bbe", "is_reserved": 0, "rental_uris": {"android": "https://dc.lft.to/lastmile_qr_scan", "ios": "https://dc.lft.to/lastmile_qr_scan"}, "lat": 38.92725316666667, "is_disabled": 0, "lon": -77.036763}, {"fusion_lat": 0.0, "type": "electric_scooter", "name": "8054313afc6635a94d5348e3eedd0c46", "fusion_lon": 0.0, "bike_id": "8054313afc6635a94d5348e3eedd0c46", "is_reserved": 0, "rental_uris": {"android": "https://dc.lft.to/lastmile_qr_scan", "ios": "https://dc.lft.to/lastmile_qr_scan"}, "lat": 38.90095, "is_disabled": 0, "lon": -77.04743433333333}, {"fusion_lat": 0.0, "type": "electric_scooter", "name": "88ad2f7a3f9212fd09c287fd37ae4f29", "fusion_lon": 0.0, "bike_id": "88ad2f7a3f9212fd09c287fd37ae4f29", "is_reserved": 0, "rental_uris": {"android": "https://dc.lft.to/lastmile_qr_scan", "ios": "https://dc.lft.to/lastmile_qr_scan"}, "lat": 38.89238316666667, "is_disabled": 0, "lon": -77.04160616666667}, {"fusion_lat": 0.0, "type": "electric_bike", "name": "16038e89ce4310740c46e6395b9e76c4", "fusion_lon": 0.0, "bike_id": "16038e89ce4310740c46e6395b9e76c4", "is_reserved": 0, "rental_uris": {"android": "https://dc.lft.to/lastmile_qr_scan", "ios": "https://dc.lft.to/lastmile_qr_scan"}, "lat": 38.95489233333333, "is_disabled": 0, "lon": -76.96439883333333}, {"fusion_lat": 0.0, "type": "electric_scooter", "name": "ef5e3b84dcef5aa95848c8a5884f1ea9", "fusion_lon": 0.0, "bike_id": "ef5e3b84dcef5aa95848c8a5884f1ea9", "is_reserved": 0, "rental_uris": {"android": "https://dc.lft.to/lastmile_qr_scan", "ios": "https://dc.lft.to/lastmile_qr_scan"}, "lat": 38.91552933333333, "is_disabled": 0, "lon": -77.03128866666667}, {"fusion_lat": 0.0, "type": "electric_scooter", "name": "564b07bfc1ea72b4e9a458b3f7fcc49b", "fusion_lon": 0.0, "bike_id": "564b07bfc1ea72b4e9a458b3f7fcc49b", "is_reserved": 0, "rental_uris": {"android": "https://dc.lft.to/lastmile_qr_scan", "ios": "https://dc.lft.to/lastmile_qr_scan"}, "lat": 38.900053166666666, "is_disabled": 0, "lon": -76.95195133333333}, {"fusion_lat": 0.0, "type": "electric_scooter", "name": "3a6641aabe2f7c022f5fa36d1b880498", "fusion_lon": 0.0, "bike_id": "3a6641aabe2f7c022f5fa36d1b880498", "is_reserved": 0, "rental_uris": {"android": "https://dc.lft.to/lastmile_qr_scan", "ios": "https://dc.lft.to/lastmile_qr_scan"}, "lat": 38.90216083333333, "is_disabled": 0, "lon": -77.04577366666666}, {"fusion_lat": 0.0, "type": "electric_scooter", "name": "f376314f64d5686f13ae1f6033024d35", "fusion_lon": 0.0, "bike_id": "f376314f64d5686f13ae1f6033024d35", "is_reserved": 0, "rental_uris": {"android": "https://dc.lft.to/lastmile_qr_scan", "ios": "https://dc.lft.to/lastmile_qr_scan"}, "lat": 38.90059483333334, "is_disabled": 0, "lon": -77.01222466666667}, {"fusion_lat": 0.0, "type": "electric_scooter", "name": "d26fae8c3377bfa6ac0b322301f8cbfb", "fusion_lon": 0.0, "bike_id": "d26fae8c3377bfa6ac0b322301f8cbfb", "is_reserved": 0, "rental_uris": {"android": "https://dc.lft.to/lastmile_qr_scan", "ios": "https://dc.lft.to/lastmile_qr_scan"}, "lat": 38.901455, "is_disabled": 0, "lon": -77.033172}, {"fusion_lat": 0.0, "type": "electric_scooter", "name": "cffa56caa6d8116a2bdeef62dda07a92", "fusion_lon": 0.0, "bike_id": "cffa56caa6d8116a2bdeef62dda07a92", "is_reserved": 0, "rental_uris": {"android": "https://dc.lft.to/lastmile_qr_scan", "ios": "https://dc.lft.to/lastmile_qr_scan"}, "lat": 38.9167965, "is_disabled": 0, "lon": -77.03688966666667}, {"fusion_lat": 0.0, "type": "electric_scooter", "name": "87ee59de56ed2ec470265d6fa3a51138", "fusion_lon": 0.0, "bike_id": "87ee59de56ed2ec470265d6fa3a51138", "is_reserved": 0, "rental_uris": {"android": "https://dc.lft.to/lastmile_qr_scan", "ios": "https://dc.lft.to/lastmile_qr_scan"}, "lat": 38.909705833333334, "is_disabled": 0, "lon": -77.03331183333333}, {"fusion_lat": 0.0, "type": "electric_scooter", "name": "80960950f9788ccd061058ea2b3ec5ab", "fusion_lon": 0.0, "bike_id": "80960950f9788ccd061058ea2b3ec5ab", "is_reserved": 0, "rental_uris": {"android": "https://dc.lft.to/lastmile_qr_scan", "ios": "https://dc.lft.to/lastmile_qr_scan"}, "lat": 38.883235166666665, "is_disabled": 0, "lon": -77.01739283333333}, {"fusion_lat": 0.0, "type": "electric_scooter", "name": "ebff73ba96395de4285f420fd66ac433", "fusion_lon": 0.0, "bike_id": "ebff73ba96395de4285f420fd66ac433", "is_reserved": 0, "rental_uris": {"android": "https://dc.lft.to/lastmile_qr_scan", "ios": "https://dc.lft.to/lastmile_qr_scan"}, "lat": 38.91714866666667, "is_disabled": 0, "lon": -77.04152533333334}, {"fusion_lat": 0.0, "type": "electric_bike", "name": "4bdf52745cb5fb2d1b1e887186996be9", "fusion_lon": 0.0, "bike_id": "4bdf52745cb5fb2d1b1e887186996be9", "is_reserved": 0, "rental_uris": {"android": "https://dc.lft.to/lastmile_qr_scan", "ios": "https://dc.lft.to/lastmile_qr_scan"}, "lat": 38.968169833333334, "is_disabled": 0, "lon": -77.07221133333333}, {"fusion_lat": 0.0, "type": "electric_scooter", "name": "e44a3d438f479c5700de4876465670ad", "fusion_lon": 0.0, "bike_id": "e44a3d438f479c5700de4876465670ad", "is_reserved": 0, "rental_uris": {"android": "https://dc.lft.to/lastmile_qr_scan", "ios": "https://dc.lft.to/lastmile_qr_scan"}, "lat": 38.9145775, "is_disabled": 0, "lon": -77.01885166666666}, {"fusion_lat": 0.0, "type": "electric_scooter", "name": "a19438c1aabf526550a5d39b8c9526c4", "fusion_lon": 0.0, "bike_id": "a19438c1aabf526550a5d39b8c9526c4", "is_reserved": 0, "rental_uris": {"android": "https://dc.lft.to/lastmile_qr_scan", "ios": "https://dc.lft.to/lastmile_qr_scan"}, "lat": 38.91609283333333, "is_disabled": 0, "lon": -77.023868}, {"fusion_lat": 0.0, "type": "electric_scooter", "name": "823c5015219e58781f6ae7e96c0c2b79", "fusion_lon": 0.0, "bike_id": "823c5015219e58781f6ae7e96c0c2b79", "is_reserved": 0, "rental_uris": {"android": "https://dc.lft.to/lastmile_qr_scan", "ios": "https://dc.lft.to/lastmile_qr_scan"}, "lat": 38.904415666666665, "is_disabled": 0, "lon": -76.9849145}, {"fusion_lat": 0.0, "type": "electric_scooter", "name": "bcb922550ba273557989b7d746554e62", "fusion_lon": 0.0, "bike_id": "bcb922550ba273557989b7d746554e62", "is_reserved": 0, "rental_uris": {"android": "https://dc.lft.to/lastmile_qr_scan", "ios": "https://dc.lft.to/lastmile_qr_scan"}, "lat": 38.90314733333334, "is_disabled": 0, "lon": -77.0236425}, {"fusion_lat": 0.0, "type": "electric_scooter", "name": "7631eaed28965633f92d9b6e9e18552f", "fusion_lon": 0.0, "bike_id": "7631eaed28965633f92d9b6e9e18552f", "is_reserved": 0, "rental_uris": {"android": "https://dc.lft.to/lastmile_qr_scan", "ios": "https://dc.lft.to/lastmile_qr_scan"}, "lat": 38.907841166666664, "is_disabled": 0, "lon": -77.03855016666667}, {"fusion_lat": 0.0, "type": "electric_scooter", "name": "465795badb48cfee05db45a5e32188c1", "fusion_lon": 0.0, "bike_id": "465795badb48cfee05db45a5e32188c1", "is_reserved": 0, "rental_uris": {"android": "https://dc.lft.to/lastmile_qr_scan", "ios": "https://dc.lft.to/lastmile_qr_scan"}, "lat": 38.90689116666667, "is_disabled": 0, "lon": -77.03592383333333}, {"fusion_lat": 0.0, "type": "electric_scooter", "name": "32c311b0fa8f4278947e0b8d1c4934d1", "fusion_lon": 0.0, "bike_id": "32c311b0fa8f4278947e0b8d1c4934d1", "is_reserved": 0, "rental_uris": {"android": "https://dc.lft.to/lastmile_qr_scan", "ios": "https://dc.lft.to/lastmile_qr_scan"}, "lat": 38.922553666666666, "is_disabled": 0, "lon": -77.03516466666666}, {"fusion_lat": 0.0, "type": "electric_bike", "name": "9a97ec23fafacfc399ae9e818290f4a2", "fusion_lon": 0.0, "bike_id": "9a97ec23fafacfc399ae9e818290f4a2", "is_reserved": 0, "rental_uris": {"android": "https://dc.lft.to/lastmile_qr_scan", "ios": "https://dc.lft.to/lastmile_qr_scan"}, "lat": 38.91856833333333, "is_disabled": 0, "lon": -76.9609045}, {"fusion_lat": 0.0, "type": "electric_scooter", "name": "be54e28bb13b8675de74f8356cf5e9f4", "fusion_lon": 0.0, "bike_id": "be54e28bb13b8675de74f8356cf5e9f4", "is_reserved": 0, "rental_uris": {"android": "https://dc.lft.to/lastmile_qr_scan", "ios": "https://dc.lft.to/lastmile_qr_scan"}, "lat": 38.949200166666664, "is_disabled": 0, "lon": -77.07877766666667}, {"fusion_lat": 0.0, "type": "electric_scooter", "name": "787d8fb196ba2a3bb5b045640fdc7b7c", "fusion_lon": 0.0, "bike_id": "787d8fb196ba2a3bb5b045640fdc7b7c", "is_reserved": 0, "rental_uris": {"android": "https://dc.lft.to/lastmile_qr_scan", "ios": "https://dc.lft.to/lastmile_qr_scan"}, "lat": 38.8960965, "is_disabled": 0, "lon": -77.05034116666667}, {"fusion_lat": 0.0, "type": "electric_scooter", "name": "e93f0873d9d4615ca3232d6281abcd27", "fusion_lon": 0.0, "bike_id": "e93f0873d9d4615ca3232d6281abcd27", "is_reserved": 0, "rental_uris": {"android": "https://dc.lft.to/lastmile_qr_scan", "ios": "https://dc.lft.to/lastmile_qr_scan"}, "lat": 38.92226133333333, "is_disabled": 0, "lon": -77.04242316666667}, {"fusion_lat": 0.0, "type": "electric_scooter", "name": "fe4b4472a66e37d714ade40ded16bc30", "fusion_lon": 0.0, "bike_id": "fe4b4472a66e37d714ade40ded16bc30", "is_reserved": 0, "rental_uris": {"android": "https://dc.lft.to/lastmile_qr_scan", "ios": "https://dc.lft.to/lastmile_qr_scan"}, "lat": 38.89370483333333, "is_disabled": 0, "lon": -76.94995616666667}, {"fusion_lat": 0.0, "type": "electric_scooter", "name": "6faa2f8214b685e556fb68a60f3e1be0", "fusion_lon": 0.0, "bike_id": "6faa2f8214b685e556fb68a60f3e1be0", "is_reserved": 0, "rental_uris": {"android": "https://dc.lft.to/lastmile_qr_scan", "ios": "https://dc.lft.to/lastmile_qr_scan"}, "lat": 38.89977066666667, "is_disabled": 0, "lon": -77.04517066666666}, {"fusion_lat": 0.0, "type": "electric_scooter", "name": "d9acd7205420673c0c61f757d111d225", "fusion_lon": 0.0, "bike_id": "d9acd7205420673c0c61f757d111d225", "is_reserved": 0, "rental_uris": {"android": "https://dc.lft.to/lastmile_qr_scan", "ios": "https://dc.lft.to/lastmile_qr_scan"}, "lat": 38.9007115, "is_disabled": 0, "lon": -77.04667833333333}, {"fusion_lat": 0.0, "type": "electric_scooter", "name": "3d42e272fd90e84c2e311b4bf13e0033", "fusion_lon": 0.0, "bike_id": "3d42e272fd90e84c2e311b4bf13e0033", "is_reserved": 0, "rental_uris": {"android": "https://dc.lft.to/lastmile_qr_scan", "ios": "https://dc.lft.to/lastmile_qr_scan"}, "lat": 38.92111216666667, "is_disabled": 0, "lon": -77.02052583333334}, {"fusion_lat": 0.0, "type": "electric_scooter", "name": "40e33e7be1fd80fc1f420aa3d054c469", "fusion_lon": 0.0, "bike_id": "40e33e7be1fd80fc1f420aa3d054c469", "is_reserved": 0, "rental_uris": {"android": "https://dc.lft.to/lastmile_qr_scan", "ios": "https://dc.lft.to/lastmile_qr_scan"}, "lat": 38.90025333333333, "is_disabled": 0, "lon": -77.012019}, {"fusion_lat": 0.0, "type": "electric_bike", "name": "4a5c47ffbcb446be1506c1c3b25c5c6d", "fusion_lon": 0.0, "bike_id": "4a5c47ffbcb446be1506c1c3b25c5c6d", "is_reserved": 0, "rental_uris": {"android": "https://dc.lft.to/lastmile_qr_scan", "ios": "https://dc.lft.to/lastmile_qr_scan"}, "lat": 38.829173833333336, "is_disabled": 0, "lon": -76.99776916666667}, {"fusion_lat": 0.0, "type": "electric_scooter", "name": "921c61d12d02756292490f92e8a7dfdd", "fusion_lon": 0.0, "bike_id": "921c61d12d02756292490f92e8a7dfdd", "is_reserved": 0, "rental_uris": {"android": "https://dc.lft.to/lastmile_qr_scan", "ios": "https://dc.lft.to/lastmile_qr_scan"}, "lat": 38.904295, "is_disabled": 0, "lon": -77.05318033333333}, {"fusion_lat": 0.0, "type": "electric_scooter", "name": "68a7dd08a9f03cee64ac492e19c83dd6", "fusion_lon": 0.0, "bike_id": "68a7dd08a9f03cee64ac492e19c83dd6", "is_reserved": 0, "rental_uris": {"android": "https://dc.lft.to/lastmile_qr_scan", "ios": "https://dc.lft.to/lastmile_qr_scan"}, "lat": 38.921057833333336, "is_disabled": 0, "lon": -77.07189716666667}, {"fusion_lat": 0.0, "type": "electric_scooter", "name": "a9fbdac358e69ad3bbbb00a2af7d2dc4", "fusion_lon": 0.0, "bike_id": "a9fbdac358e69ad3bbbb00a2af7d2dc4", "is_reserved": 0, "rental_uris": {"android": "https://dc.lft.to/lastmile_qr_scan", "ios": "https://dc.lft.to/lastmile_qr_scan"}, "lat": 38.93879116666667, "is_disabled": 0, "lon": -77.02484466666667}, {"fusion_lat": 0.0, "type": "electric_scooter", "name": "025a1b87e1c614404b47f33d9062a6c9", "fusion_lon": 0.0, "bike_id": "025a1b87e1c614404b47f33d9062a6c9", "is_reserved": 0, "rental_uris": {"android": "https://dc.lft.to/lastmile_qr_scan", "ios": "https://dc.lft.to/lastmile_qr_scan"}, "lat": 38.907856, "is_disabled": 0, "lon": -77.0380125}, {"fusion_lat": 0.0, "type": "electric_scooter", "name": "2acd89fdab2f59a56df09add017243dc", "fusion_lon": 0.0, "bike_id": "2acd89fdab2f59a56df09add017243dc", "is_reserved": 0, "rental_uris": {"android": "https://dc.lft.to/lastmile_qr_scan", "ios": "https://dc.lft.to/lastmile_qr_scan"}, "lat": 38.91930633333333, "is_disabled": 0, "lon": -77.041547}, {"fusion_lat": 0.0, "type": "electric_scooter", "name": "771f292f968a7e7d1939cada38872558", "fusion_lon": 0.0, "bike_id": "771f292f968a7e7d1939cada38872558", "is_reserved": 0, "rental_uris": {"android": "https://dc.lft.to/lastmile_qr_scan", "ios": "https://dc.lft.to/lastmile_qr_scan"}, "lat": 38.90328516666667, "is_disabled": 0, "lon": -77.031658}, {"fusion_lat": 0.0, "type": "electric_scooter", "name": "f8b55e55f86132397f91874f7d2c73bd", "fusion_lon": 0.0, "bike_id": "f8b55e55f86132397f91874f7d2c73bd", "is_reserved": 0, "rental_uris": {"android": "https://dc.lft.to/lastmile_qr_scan", "ios": "https://dc.lft.to/lastmile_qr_scan"}, "lat": 38.88546483333333, "is_disabled": 0, "lon": -77.02192316666667}, {"fusion_lat": 0.0, "type": "electric_scooter", "name": "2ede2974bb4b2ec24474a4a76a9aeec6", "fusion_lon": 0.0, "bike_id": "2ede2974bb4b2ec24474a4a76a9aeec6", "is_reserved": 0, "rental_uris": {"android": "https://dc.lft.to/lastmile_qr_scan", "ios": "https://dc.lft.to/lastmile_qr_scan"}, "lat": 38.93421583333333, "is_disabled": 0, "lon": -77.04411633333333}, {"fusion_lat": 0.0, "type": "electric_scooter", "name": "98776fb0d6ab9fc90565a49279eec477", "fusion_lon": 0.0, "bike_id": "98776fb0d6ab9fc90565a49279eec477", "is_reserved": 0, "rental_uris": {"android": "https://dc.lft.to/lastmile_qr_scan", "ios": "https://dc.lft.to/lastmile_qr_scan"}, "lat": 38.91118916666667, "is_disabled": 0, "lon": -77.04366966666667}, {"fusion_lat": 0.0, "type": "electric_bike", "name": "fbe42d5c1f96f43c487f598c7a9dd451", "fusion_lon": 0.0, "bike_id": "fbe42d5c1f96f43c487f598c7a9dd451", "is_reserved": 0, "rental_uris": {"android": "https://dc.lft.to/lastmile_qr_scan", "ios": "https://dc.lft.to/lastmile_qr_scan"}, "lat": 38.846135333333336, "is_disabled": 0, "lon": -76.96910433333333}, {"fusion_lat": 0.0, "type": "electric_scooter", "name": "240a5d9f185694a5a4044c15f06679d3", "fusion_lon": 0.0, "bike_id": "240a5d9f185694a5a4044c15f06679d3", "is_reserved": 0, "rental_uris": {"android": "https://dc.lft.to/lastmile_qr_scan", "ios": "https://dc.lft.to/lastmile_qr_scan"}, "lat": 38.92880483333333, "is_disabled": 0, "lon": -77.03294433333333}, {"fusion_lat": 0.0, "type": "electric_scooter", "name": "92b08168f5ec04db0569e44c3609cfc2", "fusion_lon": 0.0, "bike_id": "92b08168f5ec04db0569e44c3609cfc2", "is_reserved": 0, "rental_uris": {"android": "https://dc.lft.to/lastmile_qr_scan", "ios": "https://dc.lft.to/lastmile_qr_scan"}, "lat": 38.9075915, "is_disabled": 0, "lon": -77.00098966666667}, {"fusion_lat": 0.0, "type": "electric_scooter", "name": "a274428603ce62fc8b4ff0488efbaf56", "fusion_lon": 0.0, "bike_id": "a274428603ce62fc8b4ff0488efbaf56", "is_reserved": 0, "rental_uris": {"android": "https://dc.lft.to/lastmile_qr_scan", "ios": "https://dc.lft.to/lastmile_qr_scan"}, "lat": 38.8736565, "is_disabled": 0, "lon": -76.97006133333333}, {"fusion_lat": 0.0, "type": "electric_scooter", "name": "7bde3332d5b51a75e372998a6964f46f", "fusion_lon": 0.0, "bike_id": "7bde3332d5b51a75e372998a6964f46f", "is_reserved": 0, "rental_uris": {"android": "https://dc.lft.to/lastmile_qr_scan", "ios": "https://dc.lft.to/lastmile_qr_scan"}, "lat": 38.95934316666666, "is_disabled": 0, "lon": -77.031251}, {"fusion_lat": 0.0, "type": "electric_scooter", "name": "b364a91cf9cde829089b365659146059", "fusion_lon": 0.0, "bike_id": "b364a91cf9cde829089b365659146059", "is_reserved": 0, "rental_uris": {"android": "https://dc.lft.to/lastmile_qr_scan", "ios": "https://dc.lft.to/lastmile_qr_scan"}, "lat": 38.90558933333333, "is_disabled": 0, "lon": -77.039226}, {"fusion_lat": 0.0, "type": "electric_scooter", "name": "a4942c6cd2e354684c5e1c74e61d4e68", "fusion_lon": 0.0, "bike_id": "a4942c6cd2e354684c5e1c74e61d4e68", "is_reserved": 0, "rental_uris": {"android": "https://dc.lft.to/lastmile_qr_scan", "ios": "https://dc.lft.to/lastmile_qr_scan"}, "lat": 38.91279, "is_disabled": 0, "lon": -77.02244566666667}, {"fusion_lat": 0.0, "type": "electric_scooter", "name": "e7978502aab7869d21ca35be208652d1", "fusion_lon": 0.0, "bike_id": "e7978502aab7869d21ca35be208652d1", "is_reserved": 0, "rental_uris": {"android": "https://dc.lft.to/lastmile_qr_scan", "ios": "https://dc.lft.to/lastmile_qr_scan"}, "lat": 38.9270675, "is_disabled": 0, "lon": -77.0240215}, {"fusion_lat": 0.0, "type": "electric_scooter", "name": "2af8f79bd141c446461fc79b2672687a", "fusion_lon": 0.0, "bike_id": "2af8f79bd141c446461fc79b2672687a", "is_reserved": 0, "rental_uris": {"android": "https://dc.lft.to/lastmile_qr_scan", "ios": "https://dc.lft.to/lastmile_qr_scan"}, "lat": 38.9064995, "is_disabled": 0, "lon": -77.051332}, {"fusion_lat": 0.0, "type": "electric_scooter", "name": "94e22324dff0eee0b3e27225519df49b", "fusion_lon": 0.0, "bike_id": "94e22324dff0eee0b3e27225519df49b", "is_reserved": 0, "rental_uris": {"android": "https://dc.lft.to/lastmile_qr_scan", "ios": "https://dc.lft.to/lastmile_qr_scan"}, "lat": 38.899672333333335, "is_disabled": 0, "lon": -77.03369216666667}, {"fusion_lat": 0.0, "type": "electric_scooter", "name": "06762d15e08cd1b050879a4c01087624", "fusion_lon": 0.0, "bike_id": "06762d15e08cd1b050879a4c01087624", "is_reserved": 0, "rental_uris": {"android": "https://dc.lft.to/lastmile_qr_scan", "ios": "https://dc.lft.to/lastmile_qr_scan"}, "lat": 38.942925833333334, "is_disabled": 0, "lon": -77.02168733333333}, {"fusion_lat": 0.0, "type": "electric_scooter", "name": "af8611513dfe47f1b8f97079fb34288d", "fusion_lon": 0.0, "bike_id": "af8611513dfe47f1b8f97079fb34288d", "is_reserved": 0, "rental_uris": {"android": "https://dc.lft.to/lastmile_qr_scan", "ios": "https://dc.lft.to/lastmile_qr_scan"}, "lat": 38.9080995, "is_disabled": 0, "lon": -77.0344555}, {"fusion_lat": 0.0, "type": "electric_scooter", "name": "bf8441852e5c0c15f208635546e1beb5", "fusion_lon": 0.0, "bike_id": "bf8441852e5c0c15f208635546e1beb5", "is_reserved": 0, "rental_uris": {"android": "https://dc.lft.to/lastmile_qr_scan", "ios": "https://dc.lft.to/lastmile_qr_scan"}, "lat": 38.871757833333334, "is_disabled": 0, "lon": -77.00624483333333}, {"fusion_lat": 0.0, "type": "electric_scooter", "name": "e982fbfdaec610a4e7d8f37546da92e2", "fusion_lon": 0.0, "bike_id": "e982fbfdaec610a4e7d8f37546da92e2", "is_reserved": 0, "rental_uris": {"android": "https://dc.lft.to/lastmile_qr_scan", "ios": "https://dc.lft.to/lastmile_qr_scan"}, "lat": 38.90673983333333, "is_disabled": 0, "lon": -77.0346435}, {"fusion_lat": 0.0, "type": "electric_scooter", "name": "24ced7f2a17d8b8bfa64ceb2a8136710", "fusion_lon": 0.0, "bike_id": "24ced7f2a17d8b8bfa64ceb2a8136710", "is_reserved": 0, "rental_uris": {"android": "https://dc.lft.to/lastmile_qr_scan", "ios": "https://dc.lft.to/lastmile_qr_scan"}, "lat": 38.9047415, "is_disabled": 0, "lon": -77.04348266666666}, {"fusion_lat": 0.0, "type": "electric_scooter", "name": "65dacdd961dd5b2556bf0a3a43c23896", "fusion_lon": 0.0, "bike_id": "65dacdd961dd5b2556bf0a3a43c23896", "is_reserved": 0, "rental_uris": {"android": "https://dc.lft.to/lastmile_qr_scan", "ios": "https://dc.lft.to/lastmile_qr_scan"}, "lat": 38.9270575, "is_disabled": 0, "lon": -77.023961}, {"fusion_lat": 0.0, "type": "electric_scooter", "name": "338777233b6e5786c2befc5c17b86375", "fusion_lon": 0.0, "bike_id": "338777233b6e5786c2befc5c17b86375", "is_reserved": 0, "rental_uris": {"android": "https://dc.lft.to/lastmile_qr_scan", "ios": "https://dc.lft.to/lastmile_qr_scan"}, "lat": 38.89300033333333, "is_disabled": 0, "lon": -76.9982125}, {"fusion_lat": 0.0, "type": "electric_scooter", "name": "6dff91af90387f6dff6a0ee0dd0853d3", "fusion_lon": 0.0, "bike_id": "6dff91af90387f6dff6a0ee0dd0853d3", "is_reserved": 0, "rental_uris": {"android": "https://dc.lft.to/lastmile_qr_scan", "ios": "https://dc.lft.to/lastmile_qr_scan"}, "lat": 38.89364233333333, "is_disabled": 0, "lon": -77.0549075}, {"fusion_lat": 0.0, "type": "electric_scooter", "name": "38e6e8bdd5b2b21829e0dd2fe2636205", "fusion_lon": 0.0, "bike_id": "38e6e8bdd5b2b21829e0dd2fe2636205", "is_reserved": 0, "rental_uris": {"android": "https://dc.lft.to/lastmile_qr_scan", "ios": "https://dc.lft.to/lastmile_qr_scan"}, "lat": 38.902333166666665, "is_disabled": 0, "lon": -77.02687666666667}, {"fusion_lat": 0.0, "type": "electric_scooter", "name": "9291c14447c30df0aee43d16899c2494", "fusion_lon": 0.0, "bike_id": "9291c14447c30df0aee43d16899c2494", "is_reserved": 0, "rental_uris": {"android": "https://dc.lft.to/lastmile_qr_scan", "ios": "https://dc.lft.to/lastmile_qr_scan"}, "lat": 38.89429283333333, "is_disabled": 0, "lon": -76.94875616666667}, {"fusion_lat": 0.0, "type": "electric_scooter", "name": "614dc28a107c2d7884bdedcd1de4a92d", "fusion_lon": 0.0, "bike_id": "614dc28a107c2d7884bdedcd1de4a92d", "is_reserved": 0, "rental_uris": {"android": "https://dc.lft.to/lastmile_qr_scan", "ios": "https://dc.lft.to/lastmile_qr_scan"}, "lat": 38.93411783333333, "is_disabled": 0, "lon": -77.03260333333333}, {"fusion_lat": 0.0, "type": "electric_scooter", "name": "eea928cd40b52bab56a4b20373d7d659", "fusion_lon": 0.0, "bike_id": "eea928cd40b52bab56a4b20373d7d659", "is_reserved": 0, "rental_uris": {"android": "https://dc.lft.to/lastmile_qr_scan", "ios": "https://dc.lft.to/lastmile_qr_scan"}, "lat": 38.9201225, "is_disabled": 0, "lon": -77.02176933333334}, {"fusion_lat": 0.0, "type": "electric_scooter", "name": "8c52a3746890a4f6578c17ae089d1c74", "fusion_lon": 0.0, "bike_id": "8c52a3746890a4f6578c17ae089d1c74", "is_reserved": 0, "rental_uris": {"android": "https://dc.lft.to/lastmile_qr_scan", "ios": "https://dc.lft.to/lastmile_qr_scan"}, "lat": 38.952644, "is_disabled": 0, "lon": -77.02564566666666}, {"fusion_lat": 0.0, "type": "electric_scooter", "name": "650a4557660d4c3dc92ebda39b3162a6", "fusion_lon": 0.0, "bike_id": "650a4557660d4c3dc92ebda39b3162a6", "is_reserved": 0, "rental_uris": {"android": "https://dc.lft.to/lastmile_qr_scan", "ios": "https://dc.lft.to/lastmile_qr_scan"}, "lat": 38.88608266666667, "is_disabled": 0, "lon": -76.9558545}, {"fusion_lat": 0.0, "type": "electric_scooter", "name": "3fbdb9ffcdbe5abea9e231e0465ce434", "fusion_lon": 0.0, "bike_id": "3fbdb9ffcdbe5abea9e231e0465ce434", "is_reserved": 0, "rental_uris": {"android": "https://dc.lft.to/lastmile_qr_scan", "ios": "https://dc.lft.to/lastmile_qr_scan"}, "lat": 38.89792816666667, "is_disabled": 0, "lon": -77.02468766666667}, {"fusion_lat": 0.0, "type": "electric_scooter", "name": "7191bd198a1d3d4fa26ce557241176c3", "fusion_lon": 0.0, "bike_id": "7191bd198a1d3d4fa26ce557241176c3", "is_reserved": 0, "rental_uris": {"android": "https://dc.lft.to/lastmile_qr_scan", "ios": "https://dc.lft.to/lastmile_qr_scan"}, "lat": 38.903277333333335, "is_disabled": 0, "lon": -77.04677583333333}, {"fusion_lat": 0.0, "type": "electric_scooter", "name": "ae3f0090f9e44001e0e6e59cb2207cc4", "fusion_lon": 0.0, "bike_id": "ae3f0090f9e44001e0e6e59cb2207cc4", "is_reserved": 0, "rental_uris": {"android": "https://dc.lft.to/lastmile_qr_scan", "ios": "https://dc.lft.to/lastmile_qr_scan"}, "lat": 38.9073795, "is_disabled": 0, "lon": -77.03438666666666}, {"fusion_lat": 0.0, "type": "electric_scooter", "name": "4d3182dd579d1015a940a0e0006cffc1", "fusion_lon": 0.0, "bike_id": "4d3182dd579d1015a940a0e0006cffc1", "is_reserved": 0, "rental_uris": {"android": "https://dc.lft.to/lastmile_qr_scan", "ios": "https://dc.lft.to/lastmile_qr_scan"}, "lat": 38.89653366666667, "is_disabled": 0, "lon": -77.05014666666666}, {"fusion_lat": 0.0, "type": "electric_scooter", "name": "f33afc2c39336d9a148412c9abcc5096", "fusion_lon": 0.0, "bike_id": "f33afc2c39336d9a148412c9abcc5096", "is_reserved": 0, "rental_uris": {"android": "https://dc.lft.to/lastmile_qr_scan", "ios": "https://dc.lft.to/lastmile_qr_scan"}, "lat": 38.94456783333333, "is_disabled": 0, "lon": -77.06016416666667}, {"fusion_lat": 0.0, "type": "electric_scooter", "name": "6dfa8b6f84edd22c401c6c022dee7960", "fusion_lon": 0.0, "bike_id": "6dfa8b6f84edd22c401c6c022dee7960", "is_reserved": 0, "rental_uris": {"android": "https://dc.lft.to/lastmile_qr_scan", "ios": "https://dc.lft.to/lastmile_qr_scan"}, "lat": 38.9004055, "is_disabled": 0, "lon": -77.00195666666667}, {"fusion_lat": 0.0, "type": "electric_scooter", "name": "0d0a21e277b54304fc325a5cc2cba4cf", "fusion_lon": 0.0, "bike_id": "0d0a21e277b54304fc325a5cc2cba4cf", "is_reserved": 0, "rental_uris": {"android": "https://dc.lft.to/lastmile_qr_scan", "ios": "https://dc.lft.to/lastmile_qr_scan"}, "lat": 38.892201, "is_disabled": 0, "lon": -77.0322115}, {"fusion_lat": 0.0, "type": "electric_scooter", "name": "66bcfd96633315ed87d617b86f318886", "fusion_lon": 0.0, "bike_id": "66bcfd96633315ed87d617b86f318886", "is_reserved": 0, "rental_uris": {"android": "https://dc.lft.to/lastmile_qr_scan", "ios": "https://dc.lft.to/lastmile_qr_scan"}, "lat": 38.934391833333336, "is_disabled": 0, "lon": -76.99881533333334}, {"fusion_lat": 0.0, "type": "electric_scooter", "name": "029a56c4bf27abe5a7dcb0bbb6c90707", "fusion_lon": 0.0, "bike_id": "029a56c4bf27abe5a7dcb0bbb6c90707", "is_reserved": 0, "rental_uris": {"android": "https://dc.lft.to/lastmile_qr_scan", "ios": "https://dc.lft.to/lastmile_qr_scan"}, "lat": 38.91026883333333, "is_disabled": 0, "lon": -77.034389}, {"fusion_lat": 0.0, "type": "electric_scooter", "name": "ea890a595721175e07e15349cb4fecbe", "fusion_lon": 0.0, "bike_id": "ea890a595721175e07e15349cb4fecbe", "is_reserved": 0, "rental_uris": {"android": "https://dc.lft.to/lastmile_qr_scan", "ios": "https://dc.lft.to/lastmile_qr_scan"}, "lat": 38.911366, "is_disabled": 0, "lon": -77.03652633333333}, {"fusion_lat": 0.0, "type": "electric_scooter", "name": "9a1340fa93b2c39da88743103df86add", "fusion_lon": 0.0, "bike_id": "9a1340fa93b2c39da88743103df86add", "is_reserved": 0, "rental_uris": {"android": "https://dc.lft.to/lastmile_qr_scan", "ios": "https://dc.lft.to/lastmile_qr_scan"}, "lat": 38.892189333333334, "is_disabled": 0, "lon": -77.02626816666667}, {"fusion_lat": 0.0, "type": "electric_scooter", "name": "7d8bded902204cbd698e38e3d781120b", "fusion_lon": 0.0, "bike_id": "7d8bded902204cbd698e38e3d781120b", "is_reserved": 0, "rental_uris": {"android": "https://dc.lft.to/lastmile_qr_scan", "ios": "https://dc.lft.to/lastmile_qr_scan"}, "lat": 38.944519, "is_disabled": 0, "lon": -77.02800366666666}, {"fusion_lat": 0.0, "type": "electric_scooter", "name": "dfcc9916b4dcf89efc6dfd5a2be04757", "fusion_lon": 0.0, "bike_id": "dfcc9916b4dcf89efc6dfd5a2be04757", "is_reserved": 0, "rental_uris": {"android": "https://dc.lft.to/lastmile_qr_scan", "ios": "https://dc.lft.to/lastmile_qr_scan"}, "lat": 38.91471833333333, "is_disabled": 0, "lon": -77.069399}, {"fusion_lat": 0.0, "type": "electric_scooter", "name": "6afed3abddc0c5c40c25c8d9ef81e72c", "fusion_lon": 0.0, "bike_id": "6afed3abddc0c5c40c25c8d9ef81e72c", "is_reserved": 0, "rental_uris": {"android": "https://dc.lft.to/lastmile_qr_scan", "ios": "https://dc.lft.to/lastmile_qr_scan"}, "lat": 38.90269766666667, "is_disabled": 0, "lon": -77.0532865}, {"fusion_lat": 0.0, "type": "electric_scooter", "name": "1b93ab1ddb5606bf2bf7a5aaf3bee664", "fusion_lon": 0.0, "bike_id": "1b93ab1ddb5606bf2bf7a5aaf3bee664", "is_reserved": 0, "rental_uris": {"android": "https://dc.lft.to/lastmile_qr_scan", "ios": "https://dc.lft.to/lastmile_qr_scan"}, "lat": 38.8623675, "is_disabled": 0, "lon": -76.99485766666666}, {"fusion_lat": 0.0, "type": "electric_scooter", "name": "565cb637e0ce6ae917622e31c67999e6", "fusion_lon": 0.0, "bike_id": "565cb637e0ce6ae917622e31c67999e6", "is_reserved": 0, "rental_uris": {"android": "https://dc.lft.to/lastmile_qr_scan", "ios": "https://dc.lft.to/lastmile_qr_scan"}, "lat": 38.920953833333336, "is_disabled": 0, "lon": -77.0438435}, {"fusion_lat": 0.0, "type": "electric_scooter", "name": "6fb6e9540bc705e6e73bd104be5967bb", "fusion_lon": 0.0, "bike_id": "6fb6e9540bc705e6e73bd104be5967bb", "is_reserved": 0, "rental_uris": {"android": "https://dc.lft.to/lastmile_qr_scan", "ios": "https://dc.lft.to/lastmile_qr_scan"}, "lat": 38.9024435, "is_disabled": 0, "lon": -77.04509583333333}, {"fusion_lat": 0.0, "type": "electric_scooter", "name": "fd3a5331b7960df086af8d2a3535fbac", "fusion_lon": 0.0, "bike_id": "fd3a5331b7960df086af8d2a3535fbac", "is_reserved": 0, "rental_uris": {"android": "https://dc.lft.to/lastmile_qr_scan", "ios": "https://dc.lft.to/lastmile_qr_scan"}, "lat": 38.921544, "is_disabled": 0, "lon": -77.02109583333333}, {"fusion_lat": 0.0, "type": "electric_scooter", "name": "c28de8921464c41159986555b5ce515e", "fusion_lon": 0.0, "bike_id": "c28de8921464c41159986555b5ce515e", "is_reserved": 0, "rental_uris": {"android": "https://dc.lft.to/lastmile_qr_scan", "ios": "https://dc.lft.to/lastmile_qr_scan"}, "lat": 38.893958166666664, "is_disabled": 0, "lon": -76.94623833333333},