{"data": {"bikes": [{"fusion_lat": 0.0, "type": "electric_scooter", "name": "8851c3bbe3136fc4a5bbd2cce0aa2a23", "fusion_lon": 0.0, "bike_id": "8851c3bbe3136fc4a5bbd2cce0aa2a23", "is_reserved": 0, "rental_uris": {"android": "https://dc.lft.to/lastmile_qr_scan", "ios": "https://dc.lft.to/lastmile_qr_scan"}, "lat": 38.92041833333333, "is_disabled": 0, "lon": -77.0166}, {"fusion_lat": 0.0, "type": "electric_scooter", "name": "74a8ac016a8bae97496900d125762bde", "fusion_lon": 0.0, "bike_id": "74a8ac016a8bae97496900d125762bde", "is_reserved": 0, "rental_uris": {"android": "https://dc.lft.to/lastmile_qr_scan", "ios": "https://dc.lft.to/lastmile_qr_scan"}, "lat": 38.92337833333333, "is_disabled": 0, "lon": -77.01890766666666}, {"fusion_lat": 0.0, "type": "electric_scooter", "name": "82e847cf6c83c7b7e07e52982695afba", "fusion_lon": 0.0, "bike_id": "82e847cf6c83c7b7e07e52982695afba", "is_reserved": 0, "rental_uris": {"android": "https://dc.lft.to/lastmile_qr_scan", "ios": "https://dc.lft.to/lastmile_qr_scan"}, "lat": 38.910295, "is_disabled": 0, "lon": -77.03445633333334}, {"fusion_lat": 0.0, "type": "electric_scooter", "name": "becc274806760fcf95c828d1c7322ca0", "fusion_lon": 0.0, "bike_id": "becc274806760fcf95c828d1c7322ca0", "is_reserved": 0, "rental_uris": {"android": "https://dc.lft.to/lastmile_qr_scan", "ios": "https://dc.lft.to/lastmile_qr_scan"}, "lat": 38.910598666666665, "is_disabled": 0, "lon": -77.05477116666667}, {"fusion_lat": 0.0, "type": "electric_scooter", "name": "a44b5926f893681c02cf820c2a066ea5", "fusion_lon": 0.0, "bike_id": "a44b5926f893681c02cf820c2a066ea5", "is_reserved": 0, "rental_uris": {"android": "https://dc.lft.to/lastmile_qr_scan", "ios": "https://dc.lft.to/lastmile_qr_scan"}, "lat": 38.90953566666666, "is_disabled": 0, "lon": -77.03231483333333}, {"fusion_lat": 0.0, "type": "electric_scooter", "name": "99384c25160af3d7b481862392993a1d", "fusion_lon": 0.0, "bike_id": "99384c25160af3d7b481862392993a1d", "is_reserved": 0, "rental_uris": {"android": "https://dc.lft.to/lastmile_qr_scan", "ios": "https://dc.lft.to/lastmile_qr_scan"}, "lat": 38.927428, "is_disabled": 0, "lon": -77.02145883333333}, {"fusion_lat": 0.0, "type": "electric_scooter", "name": "10247afd3f8168ea3b5edffb3148a5c3", "fusion_lon": 0.0, "bike_id": "10247afd3f8168ea3b5edffb3148a5c3", "is_reserved": 0, "rental_uris": {"android": "https://dc.lft.to/lastmile_qr_scan", "ios": "https://dc.lft.to/lastmile_qr_scan"}, "lat": 38.91064, "is_disabled": 0, "lon": -77.05309316666667}, {"fusion_lat": 0.0, "type": "electric_bike", "name": "31598bde8f5d213dfe89d64b64199b81", "fusion_lon": 0.0, "bike_id": "31598bde8f5d213dfe89d64b64199b81", "is_reserved": 0, "rental_uris": {"android": "https://dc.lft.to/lastmile_qr_scan", "ios": "https://dc.lft.to/lastmile_qr_scan"}, "lat": 38.829531333333335, "is_disabled": 0, "lon": -77.12354233333333}, {"fusion_lat": 0.0, "type": "electric_bike", "name": "c4caef6e2202d20ef3f4ad3480793b86", "fusion_lon": 0.0, "bike_id": "c4caef6e2202d20ef3f4ad3480793b86", "is_reserved": 0, "rental_uris": {"android": "https://dc.lft.to/lastmile_qr_scan", "ios": "https://dc.lft.to/lastmile_qr_scan"}, "lat": 38.9086005, "is_disabled": 0, "lon": -76.999555}, {"fusion_lat": 0.0, "type": "electric_scooter", "name": "9a71a57a01a1b4deeb6c45ecd717322c", "fusion_lon": 0.0, "bike_id": "9a71a57a01a1b4deeb6c45ecd717322c", "is_reserved": 0, "rental_uris": {"android": "https://dc.lft.to/lastmile_qr_scan", "ios": "https://dc.lft.to/lastmile_qr_scan"}, "lat": 38.92042133333333, "is_disabled": 0, "lon": -76.98943483333333}, {"fusion_lat": 0.0, "type": "electric_scooter", "name": "6e7c9a51ca2be73bf2668fa92bcb9f41", "fusion_lon": 0.0, "bike_id": "6e7c9a51ca2be73bf2668fa92bcb9f41", "is_reserved": 0, "rental_uris": {"android": "https://dc.lft.to/lastmile_qr_scan", "ios": "https://dc.lft.to/lastmile_qr_scan"}, "lat": 38.88118166666667, "is_disabled": 0, "lon": -76.99006016666667}, {"fusion_lat": 0.0, "type": "electric_scooter", "name": "b369d7b7fec33f6c91903f96159ea1bf", "fusion_lon": 0.0, "bike_id": "b369d7b7fec33f6c91903f96159ea1bf", "is_reserved": 0, "rental_uris": {"android": "https://dc.lft.to/lastmile_qr_scan", "ios": "https://dc.lft.to/lastmile_qr_scan"}, "lat": 38.926697833333336, "is_disabled": 0, "lon": -77.01518566666667}, {"fusion_lat": 0.0, "type": "electric_scooter", "name": "4a5bd411817b7902915b50a75d25f0cc", "fusion_lon": 0.0, "bike_id": "4a5bd411817b7902915b50a75d25f0cc", "is_reserved": 0, "rental_uris": {"android": "https://dc.lft.to/lastmile_qr_scan", "ios": "https://dc.lft.to/lastmile_qr_scan"}, "lat": 38.90001433333333, "is_disabled": 0, "lon": -77.039481}, {"fusion_lat": 0.0, "type": "electric_scooter", "name": "214e515d14503f2d5986fd38a47559b5", "fusion_lon": 0.0, "bike_id": "214e515d14503f2d5986fd38a47559b5", "is_reserved": 0, "rental_uris": {"android": "https://dc.lft.to/lastmile_qr_scan", "ios": "https://dc.lft.to/lastmile_qr_scan"}, "lat": 38.9309755, "is_disabled": 0, "lon": -77.03818166666667}, {"fusion_lat": 0.0, "type": "electric_scooter", "name": "043dc2e05b5c6a6ec81f033728b13475", "fusion_lon": 0.0, "bike_id": "043dc2e05b5c6a6ec81f033728b13475", "is_reserved": 0, "rental_uris": {"android": "https://dc.lft.to/lastmile_qr_scan", "ios": "https://dc.lft.to/lastmile_qr_scan"}, "lat": 38.87974116666667, "is_disabled": 0, "lon": -77.013738}, {"fusion_lat": 0.0, "type": "electric_scooter", "name": "72b5fc23d2f3834e227f3050cbffa68c", "fusion_lon": 0.0, "bike_id": "72b5fc23d2f3834e227f3050cbffa68c", "is_reserved": 0, "rental_uris": {"android": "https://dc.lft.to/lastmile_qr_scan", "ios": "https://dc.lft.to/lastmile_qr_scan"}, "lat": 38.90775716666667, "is_disabled": 0, "lon": -77.04339283333333}, {"fusion_lat": 0.0, "type": "electric_scooter", "name": "4d98b58030d1698c770ddb8dc2c85019", "fusion_lon": 0.0, "bike_id": "4d98b58030d1698c770ddb8dc2c85019", "is_reserved": 0, "rental_uris": {"android": "https://dc.lft.to/lastmile_qr_scan", "ios": "https://dc.lft.to/lastmile_qr_scan"}, "lat": 38.94834866666667, "is_disabled": 0, "lon": -77.02539}, {"fusion_lat": 0.0, "type": "electric_scooter", "name": "3e91114514e7ee91bae4574228983754", "fusion_lon": 0.0, "bike_id": "3e91114514e7ee91bae4574228983754", "is_reserved": 0, "rental_uris": {"android": "https://dc.lft.to/lastmile_qr_scan", "ios": "https://dc.lft.to/lastmile_qr_scan"}, "lat": 38.92764116666667, "is_disabled": 0, "lon": -77.02293116666667}, {"fusion_lat": 0.0, "type": "electric_scooter", "name": "9af66b33c2e6f892ae6c61de1a03a949", "fusion_lon": 0.0, "bike_id": "9af66b33c2e6f892ae6c61de1a03a949", "is_reserved": 0, "rental_uris": {"android": "https://dc.lft.to/lastmile_qr_scan", "ios": "https://dc.lft.to/lastmile_qr_scan"}, "lat": 38.90556333333333, "is_disabled": 0, "lon": -77.04863883333333}, {"fusion_lat": 0.0, "type": "electric_scooter", "name": "79aa9e7cf0ba0d987a2b294670c3554e", "fusion_lon": 0.0, "bike_id": "79aa9e7cf0ba0d987a2b294670c3554e", "is_reserved": 0, "rental_uris": {"android": "https://dc.lft.to/lastmile_qr_scan", "ios": "https://dc.lft.to/lastmile_qr_scan"}, "lat": 38.910984666666664, "is_disabled": 0, "lon": -77.046695}, {"fusion_lat": 0.0, "type": "electric_scooter", "name": "ff4e2d3159f36717ddb7058ec0281336", "fusion_lon": 0.0, "bike_id": "ff4e2d3159f36717ddb7058ec0281336", "is_reserved": 0, "rental_uris": {"android": "https://dc.lft.to/lastmile_qr_scan", "ios": "https://dc.lft.to/lastmile_qr_scan"}, "lat": 38.89738416666667, "is_disabled": 0, "lon": -76.94732666666667}, {"fusion_lat": 0.0, "type": "electric_scooter", "name": "f0bfcf9e12324a87b35eefb1b4e3cf57", "fusion_lon": 0.0, "bike_id": "f0bfcf9e12324a87b35eefb1b4e3cf57", "is_reserved": 0, "rental_uris": {"android": "https://dc.lft.to/lastmile_qr_scan", "ios": "https://dc.lft.to/lastmile_qr_scan"}, "lat": 38.90034133333333, "is_disabled": 0, "lon": -77.032423}, {"fusion_lat": 0.0, "type": "electric_scooter", "name": "bc8d7b29d11851a23f76ef514088e930", "fusion_lon": 0.0, "bike_id": "bc8d7b29d11851a23f76ef514088e930", "is_reserved": 0, "rental_uris": {"android": "https://dc.lft.to/lastmile_qr_scan", "ios": "https://dc.lft.to/lastmile_qr_scan"}, "lat": 38.91240066666667, "is_disabled": 0, "lon": -77.0448295}, {"fusion_lat": 0.0, "type": "electric_scooter", "name": "e2eeb6ca042d56ec0e30510fee2e4ce4", "fusion_lon": 0.0, "bike_id": "e2eeb6ca042d56ec0e30510fee2e4ce4", "is_reserved": 0, "rental_uris": {"android": "https://dc.lft.to/lastmile_qr_scan", "ios": "https://dc.lft.to/lastmile_qr_scan"}, "lat": 38.94954583333333, "is_disabled": 0, "lon": -77.02719216666667}, {"fusion_lat": 0.0, "type": "electric_scooter", "name": "1ff4ce2fce3daedcb93129ec7c6e7426", "fusion_lon": 0.0, "bike_id": "1ff4ce2fce3daedcb93129ec7c6e7426", "is_reserved": 0, "rental_uris": {"android": "https://dc.lft.to/lastmile_qr_scan", "ios": "https://dc.lft.to/lastmile_qr_scan"}, "lat": 38.91320366666667, "is_disabled": 0, "lon": -77.01512}, {"fusion_lat": 0.0, "type": "electric_scooter", "name": "80c75eb2b68d66729716adfd2d2aed1f", "fusion_lon": 0.0, "bike_id": "80c75eb2b68d66729716adfd2d2aed1f", "is_reserved": 0, "rental_uris": {"android": "https://dc.lft.to/lastmile_qr_scan", "ios": "https://dc.lft.to/lastmile_qr_scan"}, "lat": 38.8442345, "is_disabled": 0, "lon": -76.99778733333333}, {"fusion_lat": 0.0, "type": "electric_scooter", "name": "9bbfd369254049c266cecd5e5733ed09", "fusion_lon": 0.0, "bike_id": "9bbfd369254049c266cecd5e5733ed09", "is_reserved": 0, "rental_uris": {"android": "https://dc.lft.to/lastmile_qr_scan", "ios": "https://dc.lft.to/lastmile_qr_scan"}, "lat": 38.924387833333334, "is_disabled": 0, "lon": -77.03324116666667}, {"fusion_lat": 0.0, "type": "electric_scooter", "name": "26b8066c0f4f871de2cfa33318811939", "fusion_lon": 0.0, "bike_id": "26b8066c0f4f871de2cfa33318811939", "is_reserved": 0, "rental_uris": {"android": "https://dc.lft.to/lastmile_qr_scan", "ios": "https://dc.lft.to/lastmile_qr_scan"}, "lat": 38.9149845, "is_disabled": 0, "lon": -77.0077395}, {"fusion_lat": 0.0, "type": "electric_bike", "name": "37c52157f204edcb3f3b1c96458375a4", "fusion_lon": 0.0, "bike_id": "37c52157f204edcb3f3b1c96458375a4", "is_reserved": 0, "rental_uris": {"android": "https://dc.lft.to/lastmile_qr_scan", "ios": "https://dc.lft.to/lastmile_qr_scan"}, "lat": 38.92336816666667, "is_disabled": 0, "lon": -76.9714215}, {"fusion_lat": 0.0, "type": "electric_scooter", "name": "400368bcb353a58c377700a46efd4ff9", "fusion_lon": 0.0, "bike_id": "400368bcb353a58c377700a46efd4ff9", "is_reserved": 0, "rental_uris": {"android": "https://dc.lft.to/lastmile_qr_scan", "ios": "https://dc.lft.to/lastmile_qr_scan"}, "lat": 38.87397083333333, "is_disabled": 0, "lon": -77.00189333333333}, {"fusion_lat": 0.0, "type": "electric_scooter", "name": "09b08530fb77bdafc997fe2f10212470", "fusion_lon": 0.0, "bike_id": "09b08530fb77bdafc997fe2f10212470", "is_reserved": 0, "rental_uris": {"android": "https://dc.lft.to/lastmile_qr_scan", "ios": "https://dc.lft.to/lastmile_qr_scan"}, "lat": 38.8753885, "is_disabled": 0, "lon": -77.005976}, {"fusion_lat": 0.0, "type": "electric_scooter", "name": "d01bab354e7cf000e2a6e3e049547e19", "fusion_lon": 0.0, "bike_id": "d01bab354e7cf000e2a6e3e049547e19", "is_reserved": 0, "rental_uris": {"android": "https://dc.lft.to/lastmile_qr_scan", "ios": "https://dc.lft.to/lastmile_qr_scan"}, "lat": 38.89719566666667, "is_disabled": 0, "lon": -77.013686}, {"fusion_lat": 0.0, "type": "electric_bike", "name": "50ea218386f0a683278a5bf1085b75c6", "fusion_lon": 0.0, "bike_id": "50ea218386f0a683278a5bf1085b75c6", "is_reserved": 0, "rental_uris": {"android": "https://dc.lft.to/lastmile_qr_scan", "ios": "https://dc.lft.to/lastmile_qr_scan"}, "lat": 38.9836145, "is_disabled": 0, "lon": -76.97221033333334}, {"fusion_lat": 0.0, "type": "electric_scooter", "name": "a84d58765f59dc2a231dfadb5fcea92f", "fusion_lon": 0.0, "bike_id": "a84d58765f59dc2a231dfadb5fcea92f", "is_reserved": 0, "rental_uris": {"android": "https://dc.lft.to/lastmile_qr_scan", "ios": "https://dc.lft.to/lastmile_qr_scan"}, "lat": 38.899538666666665, "is_disabled": 0, "lon": -76.97530466666667}, {"fusion_lat": 0.0, "type": "electric_scooter", "name": "7edd33929102198240263c97a3dcac93", "fusion_lon": 0.0, "bike_id": "7edd33929102198240263c97a3dcac93", "is_reserved": 0, "rental_uris": {"android": "https://dc.lft.to/lastmile_qr_scan", "ios": "https://dc.lft.to/lastmile_qr_scan"}, "lat": 38.95739183333333, "is_disabled": 0, "lon": -77.02063916666667}, {"fusion_lat": 0.0, "type": "electric_scooter", "name": "9fa2219880849067d84b5eb033544d57", "fusion_lon": 0.0, "bike_id": "9fa2219880849067d84b5eb033544d57", "is_reserved": 0, "rental_uris": {"android": "https://dc.lft.to/lastmile_qr_scan", "ios": "https://dc.lft.to/lastmile_qr_scan"}, "lat": 38.866529, "is_disabled": 0, "lon": -76.988808}, {"fusion_lat": 0.0, "type": "electric_scooter", "name": "298ccd916629e75c57b1f999688a3225", "fusion_lon": 0.0, "bike_id": "298ccd916629e75c57b1f999688a3225", "is_reserved": 0, "rental_uris": {"android": "https://dc.lft.to/lastmile_qr_scan", "ios": "https://dc.lft.to/lastmile_qr_scan"}, "lat": 38.89227533333333, "is_disabled": 0, "lon": -77.02800816666667}, {"fusion_lat": 0.0, "type": "electric_scooter", "name": "f79ff314f963ce352b864f98fa699ce1", "fusion_lon": 0.0, "bike_id": "f79ff314f963ce352b864f98fa699ce1", "is_reserved": 0, "rental_uris": {"android": "https://dc.lft.to/lastmile_qr_scan", "ios": "https://dc.lft.to/lastmile_qr_scan"}, "lat": 38.91813666666667, "is_disabled": 0, "lon": -77.04162766666667}, {"fusion_lat": 0.0, "type": "electric_scooter", "name": "f2c94e4b725b5ef5f750b569092aff49", "fusion_lon": 0.0, "bike_id": "f2c94e4b725b5ef5f750b569092aff49", "is_reserved": 0, "rental_uris": {"android": "https://dc.lft.to/lastmile_qr_scan", "ios": "https://dc.lft.to/lastmile_qr_scan"}, "lat": 38.89190133333334, "is_disabled": 0, "lon": -76.9885585}, {"fusion_lat": 0.0, "type": "electric_scooter", "name": "b3df708bf79f9586569d222a6c9f1eea", "fusion_lon": 0.0, "bike_id": "b3df708bf79f9586569d222a6c9f1eea", "is_reserved": 0, "rental_uris": {"android": "https://dc.lft.to/lastmile_qr_scan", "ios": "https://dc.lft.to/lastmile_qr_scan"}, "lat": 38.91531466666667, "is_disabled": 0, "lon": -77.02198016666667}, {"fusion_lat": 0.0, "type": "electric_scooter", "name": "64549259765193c619643e268d56d208", "fusion_lon": 0.0, "bike_id": "64549259765193c619643e268d56d208", "is_reserved": 0, "rental_uris": {"android": "https://dc.lft.to/lastmile_qr_scan", "ios": "https://dc.lft.to/lastmile_qr_scan"}, "lat": 38.92471316666666, "is_disabled": 0, "lon": -77.03914933333333}, {"fusion_lat": 0.0, "type": "electric_scooter", "name": "3fe8e96dbd60f9e30d9dfcf2561524d1", "fusion_lon": 0.0, "bike_id": "3fe8e96dbd60f9e30d9dfcf2561524d1", "is_reserved": 0, "rental_uris": {"android": "https://dc.lft.to/lastmile_qr_scan", "ios": "https://dc.lft.to/lastmile_qr_scan"}, "lat": 38.920366, "is_disabled": 0, "lon": -76.99730233333334}, {"fusion_lat": 0.0, "type": "electric_scooter", "name": "e15c8fa03e6499e17c02bcc4c127a56a", "fusion_lon": 0.0, "bike_id": "e15c8fa03e6499e17c02bcc4c127a56a", "is_reserved": 0, "rental_uris": {"android": "https://dc.lft.to/lastmile_qr_scan", "ios": "https://dc.lft.to/lastmile_qr_scan"}, "lat": 38.8960315, "is_disabled": 0, "lon": -76.99967683333334}, {"fusion_lat": 0.0, "type": "electric_scooter", "name": "fa97aea516fcabd2495f52061e65b909", "fusion_lon": 0.0, "bike_id": "fa97aea516fcabd2495f52061e65b909", "is_reserved": 0, "rental_uris": {"android": "https://dc.lft.to/lastmile_qr_scan", "ios": "https://dc.lft.to/lastmile_qr_scan"}, "lat": 38.900245, "is_disabled": 0, "lon": -77.031884}, {"fusion_lat": 0.0, "type": "electric_scooter", "name": "7b20c9ce52f13f8c4c30324b4bab0b59", "fusion_lon": 0.0, "bike_id": "7b20c9ce52f13f8c4c30324b4bab0b59", "is_reserved": 0, "rental_uris": {"android": "https://dc.lft.to/lastmile_qr_scan", "ios": "https://dc.lft.to/lastmile_qr_scan"}, "lat": 38.902043666666664, "is_disabled": 0, "lon": -77.02354083333333}, {"fusion_lat": 0.0, "type": "electric_scooter", "name": "e896b365b4bc004021c1d0e2280c4662", "fusion_lon": 0.0, "bike_id": "e896b365b4bc004021c1d0e2280c4662", "is_reserved": 0, "rental_uris": {"android": "https://dc.lft.to/lastmile_qr_scan", "ios": "https://dc.lft.to/lastmile_qr_scan"}, "lat": 38.92249616666667, "is_disabled": 0, "lon": -77.02972966666667}, {"fusion_lat": 0.0, "type": "electric_scooter", "name": "36c613adca819e00768252dfc550d4a3", "fusion_lon": 0.0, "bike_id": "36c613adca819e00768252dfc550d4a3", "is_reserved": 0, "rental_uris": {"android": "https://dc.lft.to/lastmile_qr_scan", "ios": "https://dc.lft.to/lastmile_qr_scan"}, "lat": 38.908403666666665, "is_disabled": 0, "lon": -77.03557416666666}, {"fusion_lat": 0.0, "type": "electric_scooter", "name": "2c324cfa332f2dca7002ce220731bb3e", "fusion_lon": 0.0, "bike_id": "2c324cfa332f2dca7002ce220731bb3e", "is_reserved": 0, "rental_uris": {"android": "https://dc.lft.to/lastmile_qr_scan", "ios": "https://dc.lft.to/lastmile_qr_scan"}, "lat": 38.89240933333333, "is_disabled": 0, "lon": -77.02202516666667}, {"fusion_lat": 0.0, "type": "electric_bike", "name": "2d179d55ef5e54e90cf370a1177c118e", "fusion_lon": 0.0, "bike_id": "2d179d55ef5e54e90cf370a1177c118e", "is_reserved": 0, "rental_uris": {"android": "https://dc.lft.to/lastmile_qr_scan", "ios": "https://dc.lft.to/lastmile_qr_scan"}, "lat": 39.042911, "is_disabled": 0, "lon": -77.0515655}, {"fusion_lat": 0.0, "type": "electric_scooter", "name": "6442256a39235f7bdbd1a575b2169a40", "fusion_lon": 0.0, "bike_id": "6442256a39235f7bdbd1a575b2169a40", "is_reserved": 0, "rental_uris": {"android": "https://dc.lft.to/lastmile_qr_scan", "ios": "https://dc.lft.to/lastmile_qr_scan"}, "lat": 38.9237265, "is_disabled": 0, "lon": -77.01913033333334}, {"fusion_lat": 0.0, "type": "electric_scooter", "name": "2233d2850f5199ad222edc40bb4f6ddc", "fusion_lon": 0.0, "bike_id": "2233d2850f5199ad222edc40bb4f6ddc", "is_reserved": 0, "rental_uris": {"android": "https://dc.lft.to/lastmile_qr_scan", "ios": "https://dc.lft.to/lastmile_qr_scan"}, "lat": 38.89894833333334, "is_disabled": 0, "lon": -77.039333}, {"fusion_lat": 0.0, "type": "electric_scooter", "name": "32365dfd60c28f7f644e3dcae3e34b15", "fusion_lon": 0.0, "bike_id": "32365dfd60c28f7f644e3dcae3e34b15", "is_reserved": 0, "rental_uris": {"android": "https://dc.lft.to/lastmile_qr_scan", "ios": "https://dc.lft.to/lastmile_qr_scan"}, "lat": 38.930929166666665, "is_disabled": 0, "lon": -77.02533566666666}, {"fusion_lat": 0.0, "type": "electric_scooter", "name": "73a74cf546001c911f3834bd8857ca60", "fusion_lon": 0.0, "bike_id": "73a74cf546001c911f3834bd8857ca60", "is_reserved": 0, "rental_uris": {"android": "https://dc.lft.to/lastmile_qr_scan", "ios": "https://dc.lft.to/lastmile_qr_scan"}, "lat": 38.89866716666667, "is_disabled": 0, "lon": -77.03279233333333}, {"fusion_lat": 0.0, "type": "electric_scooter", "name": "15dab613b234c4bf1b960b325ce22fe1", "fusion_lon": 0.0, "bike_id": "15dab613b234c4bf1b960b325ce22fe1", "is_reserved": 0, "rental_uris": {"android": "https://dc.lft.to/lastmile_qr_scan", "ios": "https://dc.lft.to/lastmile_qr_scan"}, "lat": 38.905060166666665, "is_disabled": 0, "lon": -76.99614266666667}, {"fusion_lat": 0.0, "type": "electric_scooter", "name": "a20d3fb492c8cc4bba496ef1351465e2", "fusion_lon": 0.0, "bike_id": "a20d3fb492c8cc4bba496ef1351465e2", "is_reserved": 0, "rental_uris": {"android": "https://dc.lft.to/lastmile_qr_scan", "ios": "https://dc.lft.to/lastmile_qr_scan"}, "lat": 38.90236816666667, "is_disabled": 0, "lon": -77.0269325}, {"fusion_lat": 0.0, "type": "electric_scooter", "name": "1dc9f4a254d2db71cdd5a7bf3c430a88", "fusion_lon": 0.0, "bike_id": "1dc9f4a254d2db71cdd5a7bf3c430a88", "is_reserved": 0, "rental_uris": {"android": "https://dc.lft.to/lastmile_qr_scan", "ios": "https://dc.lft.to/lastmile_qr_scan"}, "lat": 38.86236316666667, "is_disabled": 0, "lon": -76.99483266666667}, {"fusion_lat": 0.0, "type": "electric_scooter", "name": "6d3d719523868b79b411662dcce94c1d", "fusion_lon": 0.0, "bike_id": "6d3d719523868b79b411662dcce94c1d", "is_reserved": 0, "rental_uris": {"android": "https://dc.lft.to/lastmile_qr_scan", "ios": "https://dc.lft.to/lastmile_qr_scan"}, "lat": 38.89788333333333, "is_disabled": 0, "lon": -77.05011216666666}, {"fusion_lat": 0.0, "type": "electric_scooter", "name": "bee9c03ab259c35cadaa0d1e95b1aea8", "fusion_lon": 0.0, "bike_id": "bee9c03ab259c35cadaa0d1e95b1aea8", "is_reserved": 0, "rental_uris": {"android": "https://dc.lft.to/lastmile_qr_scan", "ios": "https://dc.lft.to/lastmile_qr_scan"}, "lat": 38.91175783333333, "is_disabled": 0, "lon": -77.034898}, {"fusion_lat": 0.0, "type": "electric_scooter", "name": "3113ee5ee739a0140b15a6b6c28e90f6", "fusion_lon": 0.0, "bike_id": "3113ee5ee739a0140b15a6b6c28e90f6", "is_reserved": 0, "rental_uris": {"android": "https://dc.lft.to/lastmile_qr_scan", "ios": "https://dc.lft.to/lastmile_qr_scan"}, "lat": 38.93569016666667, "is_disabled": 0, "lon": -77.02122733333333}, {"fusion_lat": 0.0, "type": "electric_scooter", "name": "89933fe49fdbc91dc408a2315808e0d5", "fusion_lon": 0.0, "bike_id": "89933fe49fdbc91dc408a2315808e0d5", "is_reserved": 0, "rental_uris": {"android": "https://dc.lft.to/lastmile_qr_scan", "ios": "https://dc.lft.to/lastmile_qr_scan"}, "lat": 38.8849805, "is_disabled": 0, "lon": -77.01581366666667}, {"fusion_lat": 0.0, "type": "electric_scooter", "name": "22f4ac5c3fdafdc0b1b0f9869c7f7fe7", "fusion_lon": 0.0, "bike_id": "22f4ac5c3fdafdc0b1b0f9869c7f7fe7", "is_reserved": 0, "rental_uris": {"android": "https://dc.lft.to/lastmile_qr_scan", "ios": "https://dc.lft.to/lastmile_qr_scan"}, "lat": 38.9183045, "is_disabled": 0, "lon": -77.03944833333334}, {"fusion_lat": 0.0, "type": "electric_scooter", "name": "45031b8e8be4258dbaa7f1bcdd5a8aab", "fusion_lon": 0.0, "bike_id": "45031b8e8be4258dbaa7f1bcdd5a8aab", "is_reserved": 0, "rental_uris": {"android": "https://dc.lft.to/lastmile_qr_scan", "ios": "https://dc.lft.to/lastmile_qr_scan"}, "lat": 38.92363266666667, "is_disabled": 0, "lon": -77.050477}, {"fusion_lat": 0.0, "type": "electric_scooter", "name": "950fb482c11f1495c53c7c85fa98e285", "fusion_lon": 0.0, "bike_id": "950fb482c11f1495c53c7c85fa98e285", "is_reserved": 0, "rental_uris": {"android": "https://dc.lft.to/lastmile_qr_scan", "ios": "https://dc.lft.to/lastmile_qr_scan"}, "lat": 38.90361333333333, "is_disabled": 0, "lon": -77.04497716666667}, {"fusion_lat": 0.0, "type": "electric_scooter", "name": "a18f0a10835a6e980601cdc3d3bffd1c", "fusion_lon": 0.0, "bike_id": "a18f0a10835a6e980601cdc3d3bffd1c", "is_reserved": 0, "rental_uris": {"android": "https://dc.lft.to/lastmile_qr_scan", "ios": "https://dc.lft.to/lastmile_qr_scan"}, "lat": 38.8988625, "is_disabled": 0, "lon": -77.0399435}, {"fusion_lat": 0.0, "type": "electric_scooter", "name": "6e9d4102bc2c72b8d47fcf8a0f555919", "fusion_lon": 0.0, "bike_id": "6e9d4102bc2c72b8d47fcf8a0f555919", "is_reserved": 0, "rental_uris": {"android": "https://dc.lft.to/lastmile_qr_scan", "ios": "https://dc.lft.to/lastmile_qr_scan"}, "lat": 38.913590666666664, "is_disabled": 0, "lon": -77.03847033333334}, {"fusion_lat": 0.0, "type": "electric_bike", "name": "5a9de4a5ef3c1319aa01f6358377214f", "fusion_lon": 0.0, "bike_id": "5a9de4a5ef3c1319aa01f6358377214f", "is_reserved": 0, "rental_uris": {"android": "https://dc.lft.to/lastmile_qr_scan", "ios": "https://dc.lft.to/lastmile_qr_scan"}, "lat": 38.82785333333333, "is_disabled": 0, "lon": -77.00914266666666}, {"fusion_lat": 0.0, "type": "electric_scooter", "name": "0fb05712303cef8aa029cdc8e4134de7", "fusion_lon": 0.0, "bike_id": "0fb05712303cef8aa029cdc8e4134de7", "is_reserved": 0, "rental_uris": {"android": "https://dc.lft.to/lastmile_qr_scan", "ios": "https://dc.lft.to/lastmile_qr_scan"}, "lat": 38.927916833333335, "is_disabled": 0, "lon": -77.04354766666667}, {"fusion_lat": 0.0, "type": "electric_scooter", "name": "5e69c113fe9fd21d607441fc64a56914", "fusion_lon": 0.0, "bike_id": "5e69c113fe9fd21d607441fc64a56914", "is_reserved": 0, "rental_uris": {"android": "https://dc.lft.to/lastmile_qr_scan", "ios": "https://dc.lft.to/lastmile_qr_scan"}, "lat": 38.905548833333334, "is_disabled": 0, "lon": -76.98378483333333}, {"fusion_lat": 0.0, "type": "electric_scooter", "name": "a2e1897475c65f4a1cf9baae4cfee4e3", "fusion_lon": 0.0, "bike_id": "a2e1897475c65f4a1cf9baae4cfee4e3", "is_reserved": 0, "rental_uris": {"android": "https://dc.lft.to/lastmile_qr_scan", "ios": "https://dc.lft.to/lastmile_qr_scan"}, "lat": 38.928534166666665, "is_disabled": 0, "lon": -77.0360655}, {"fusion_lat": 0.0, "type": "electric_scooter", "name": "2ddf3acf6c12f8e8707eff9b9965c045", "fusion_lon": 0.0, "bike_id": "2ddf3acf6c12f8e8707eff9b9965c045", "is_reserved": 0, "rental_uris": {"android": "https://dc.lft.to/lastmile_qr_scan", "ios": "https://dc.lft.to/lastmile_qr_scan"}, "lat": 38.90242516666667, "is_disabled": 0, "lon": -76.99885966666666}, {"fusion_lat": 0.0, "type": "electric_scooter", "name": "bf29526375587254a054725053abca98", "fusion_lon": 0.0, "bike_id": "bf29526375587254a054725053abca98", "is_reserved": 0, "rental_uris": {"android": "https://dc.lft.to/lastmile_qr_scan", "ios": "https://dc.lft.to/lastmile_qr_scan"}, "lat": 38.92468216666666, "is_disabled": 0, "lon": -77.0220045}, {"fusion_lat": 0.0, "type": "electric_scooter", "name": "10e8de31cd827159c0abebad1d7027ca", "fusion_lon": 0.0, "bike_id": "10e8de31cd827159c0abebad1d7027ca", "is_reserved": 0, "rental_uris": {"android": "https://dc.lft.to/lastmile_qr_scan", "ios": "https://dc.lft.to/lastmile_qr_scan"}, "lat": 38.891872, "is_disabled": 0, "lon": -77.027696}, {"fusion_lat": 0.0, "type": "electric_scooter", "name": "bfd18392fcacd289cac41b9aa8852695", "fusion_lon": 0.0, "bike_id": "bfd18392fcacd289cac41b9aa8852695", "is_reserved": 0, "rental_uris": {"android": "https://dc.lft.to/lastmile_qr_scan", "ios": "https://dc.lft.to/lastmile_qr_scan"}, "lat": 38.89219883333333, "is_disabled": 0, "lon": -77.02625633333334}, {"fusion_lat": 0.0, "type": "electric_bike", "name": "d5218f6a95fffacb509a898162e8e289", "fusion_lon": 0.0, "bike_id": "d5218f6a95fffacb509a898162e8e289", "is_reserved": 0, "rental_uris": {"android": "https://dc.lft.to/lastmile_qr_scan", "ios": "https://dc.lft.to/lastmile_qr_scan"}, "lat": 39.0147605, "is_disabled": 0, "lon": -77.0549155}, {"fusion_lat": 0.0, "type": "electric_scooter", "name": "28842ab3ac3d0b84b1abf934ad295253", "fusion_lon": 0.0, "bike_id": "28842ab3ac3d0b84b1abf934ad295253", "is_reserved": 0, "rental_uris": {"android": "https://dc.lft.to/lastmile_qr_scan", "ios": "https://dc.lft.to/lastmile_qr_scan"}, "lat": 38.902964, "is_disabled": 0, "lon": -77.04341866666667}, {"fusion_lat": 0.0, "type": "electric_scooter", "name": "b1d4556e8bf03b4ee6a7eb9303f17949", "fusion_lon": 0.0, "bike_id": "b1d4556e8bf03b4ee6a7eb9303f17949", "is_reserved": 0, "rental_uris": {"android": "https://dc.lft.to/lastmile_qr_scan", "ios": "https://dc.lft.to/lastmile_qr_scan"}, "lat": 38.934728666666665, "is_disabled": 0, "lon": -77.028461}, {"fusion_lat": 0.0, "type": "electric_scooter", "name": "f5427c8fac4bc5cc96de207b7e688115", "fusion_lon": 0.0, "bike_id": "f5427c8fac4bc5cc96de207b7e688115", "is_reserved": 0, "rental_uris": {"android": "https://dc.lft.to/lastmile_qr_scan", "ios": "https://dc.lft.to/lastmile_qr_scan"}, "lat": 38.91547516666667, "is_disabled": 0, "lon": -77.03170433333334}, {"fusion_lat": 0.0, "type": "electric_bike", "name": "ace66480e1df7a37c2c9bd748daf2f00", "fusion_lon": 0.0, "bike_id": "ace66480e1df7a37c2c9bd748daf2f00", "is_reserved": 0, "rental_uris": {"android": "https://dc.lft.to/lastmile_qr_scan", "ios": "https://dc.lft.to/lastmile_qr_scan"}, "lat": 38.96738466666667, "is_disabled": 0, "lon": -76.98190133333334}, {"fusion_lat": 0.0, "type": "electric_scooter", "name": "410b813053dc1dc3d6bbfdac964d8a5a", "fusion_lon": 0.0, "bike_id": "410b813053dc1dc3d6bbfdac964d8a5a", "is_reserved": 0, "rental_uris": {"android": "https://dc.lft.to/lastmile_qr_scan", "ios": "https://dc.lft.to/lastmile_qr_scan"}, "lat": 38.939839666666664, "is_disabled": 0, "lon": -77.02883833333334}, {"fusion_lat": 0.0, "type": "electric_bike", "name": "6a784d01daeb144bea9ea43b40dee0b5", "fusion_lon": 0.0, "bike_id": "6a784d01daeb144bea9ea43b40dee0b5", "is_reserved": 0, "rental_uris": {"android": "https://dc.lft.to/lastmile_qr_scan", "ios": "https://dc.lft.to/lastmile_qr_scan"}, "lat": 38.94781616666667, "is_disabled": 0, "lon": -76.97208516666667}, {"fusion_lat": 0.0, "type": "electric_scooter", "name": "025222eca63a129db1def302c834781c", "fusion_lon": 0.0, "bike_id": "025222eca63a129db1def302c834781c", "is_reserved": 0, "rental_uris": {"android": "https://dc.lft.to/lastmile_qr_scan", "ios": "https://dc.lft.to/lastmile_qr_scan"}, "lat": 38.8622235, "is_disabled": 0, "lon": -76.99481766666666}, {"fusion_lat": 0.0, "type": "electric_scooter", "name": "656dc71eb101ee0ce0fa7687841bce1b", "fusion_lon": 0.0, "bike_id": "656dc71eb101ee0ce0fa7687841bce1b", "is_reserved": 0, "rental_uris": {"android": "https://dc.lft.to/lastmile_qr_scan", "ios": "https://dc.lft.to/lastmile_qr_scan"}, "lat": 38.88324566666667, "is_disabled": 0, "lon": -77.0174055}, {"fusion_lat": 0.0, "type": "electric_scooter", "name": "49296faaab9711fb9ce19309796b0232", "fusion_lon": 0.0, "bike_id": "49296faaab9711fb9ce19309796b0232", "is_reserved": 0, "rental_uris": {"android": "https://dc.lft.to/lastmile_qr_scan", "ios": "https://dc.lft.to/lastmile_qr_scan"}, "lat": 38.9241945, "is_disabled": 0, "lon": -77.03543666666667}, {"fusion_lat": 0.0, "type": "electric_scooter", "name": "e65591ff979fe868a127d6596d5ac07b", "fusion_lon": 0.0, "bike_id": "e65591ff979fe868a127d6596d5ac07b", "is_reserved": 0, "rental_uris": {"android": "https://dc.lft.to/lastmile_qr_scan", "ios": "https://dc.lft.to/lastmile_qr_scan"}, "lat": 38.90363283333333, "is_disabled": 0, "lon": -77.0448995}, {"fusion_lat": 0.0, "type": "electric_bike", "name": "4be00ecab42999d3ca045d43160364cc", "fusion_lon": 0.0, "bike_id": "4be00ecab42999d3ca045d43160364cc", "is_reserved": 0, "rental_uris": {"android": "https://dc.lft.to/lastmile_qr_scan", "ios": "https://dc.lft.to/lastmile_qr_scan"}, "lat": 39.024294833333336, "is_disabled": 0, "lon": -77.13099716666666}, {"fusion_lat": 0.0, "type": "electric_scooter", "name": "1c39585ca1c16eae570f51fab22a878e", "fusion_lon": 0.0, "bike_id": "1c39585ca1c16eae570f51fab22a878e", "is_reserved": 0, "rental_uris": {"android": "https://dc.lft.to/lastmile_qr_scan", "ios": "https://dc.lft.to/lastmile_qr_scan"}, "lat": 38.92102766666667, "is_disabled": 0, "lon": -77.03253583333333}, {"fusion_lat": 0.0, "type": "electric_scooter", "name": "eae5ef89afe92fb533603d79a13a270e", "fusion_lon": 0.0, "bike_id": "eae5ef89afe92fb533603d79a13a270e", "is_reserved": 0, "rental_uris": {"android": "https://dc.lft.to/lastmile_qr_scan", "ios": "https://dc.lft.to/lastmile_qr_scan"}, "lat": 38.88705566666667, "is_disabled": 0, "lon": -77.01364666666667}, {"fusion_lat": 0.0, "type": "electric_scooter", "name": "906061c5e7353be274ee48088f57deb3", "fusion_lon": 0.0, "bike_id": "906061c5e7353be274ee48088f57deb3", "is_reserved": 0, "rental_uris": {"android": "https://dc.lft.to/lastmile_qr_scan", "ios": "https://dc.lft.to/lastmile_qr_scan"}, "lat": 38.92248466666667, "is_disabled": 0, "lon": -77.019488}, {"fusion_lat": 0.0, "type": "electric_scooter", "name": "243301122a97280b8170dde539ba4bb8", "fusion_lon": 0.0, "bike_id": "243301122a97280b8170dde539ba4bb8", "is_reserved": 0, "rental_uris": {"android": "https://dc.lft.to/lastmile_qr_scan", "ios": "https://dc.lft.to/lastmile_qr_scan"}, "lat": 38.94598916666666, "is_disabled": 0, "lon": -77.02669766666666}, {"fusion_lat": 0.0, "type": "electric_scooter", "name": "b52a89c655eacd8703f1b4e6de1b38cb", "fusion_lon": 0.0, "bike_id": "b52a89c655eacd8703f1b4e6de1b38cb", "is_reserved": 0, "rental_uris": {"android": "https://dc.lft.to/lastmile_qr_scan", "ios": "https://dc.lft.to/lastmile_qr_scan"}, "lat": 38.905236333333335, "is_disabled": 0, "lon": -77.04165666666667}, {"fusion_lat": 0.0, "type": "electric_scooter", "name": "c44cdbd474123a6a0211af69c8046618", "fusion_lon": 0.0, "bike_id": "c44cdbd474123a6a0211af69c8046618", "is_reserved": 0, "rental_uris": {"android": "https://dc.lft.to/lastmile_qr_scan", "ios": "https://dc.lft.to/lastmile_qr_scan"}, "lat": 38.86236816666667, "is_disabled": 0, "lon": -76.9948815}, {"fusion_lat": 0.0, "type": "electric_scooter", "name": "298dffc5383c8e9af87ecafabc46ba30", "fusion_lon": 0.0, "bike_id": "298dffc5383c8e9af87ecafabc46ba30", "is_reserved": 0, "rental_uris": {"android": "https://dc.lft.to/lastmile_qr_scan", "ios": "https://dc.lft.to/lastmile_qr_scan"}, "lat": 38.90938583333333, "is_disabled": 0, "lon": -77.04413566666666}, {"fusion_lat": 0.0, "type": "electric_scooter", "name": "b403da138c33ee6cfcdee67c38706a49", "fusion_lon": 0.0, "bike_id": "b403da138c33ee6cfcdee67c38706a49", "is_reserved": 0, "rental_uris": {"android": "https://dc.lft.to/lastmile_qr_scan", "ios": "https://dc.lft.to/lastmile_qr_scan"}, "lat": 38.92418983333334, "is_disabled": 0, "lon": -77.019458}, {"fusion_lat": 0.0, "type": "electric_scooter", "name": "926c54778ab873a03d7de9ced9e94d01", "fusion_lon": 0.0, "bike_id": "926c54778ab873a03d7de9ced9e94d01", "is_reserved": 0, "rental_uris": {"android": "https://dc.lft.to/lastmile_qr_scan", "ios": "https://dc.lft.to/lastmile_qr_scan"}, "lat": 38.92675333333333, "is_disabled": 0, "lon": -77.028597}, {"fusion_lat": 0.0, "type": "electric_scooter", "name": "023286da0a9f3f1952e299d4e6db1327", "fusion_lon": 0.0, "bike_id": "023286da0a9f3f1952e299d4e6db1327", "is_reserved": 0, "rental_uris": {"android": "https://dc.lft.to/lastmile_qr_scan", "ios": "https://dc.lft.to/lastmile_qr_scan"}, "lat": 38.903333833333335, "is_disabled": 0, "lon": -77.04666016666667}, {"fusion_lat": 0.0, "type": "electric_scooter", "name": "e5e36c6cc032fe5653bb02fe24b8a635", "fusion_lon": 0.0, "bike_id": "e5e36c6cc032fe5653bb02fe24b8a635", "is_reserved": 0, "rental_uris": {"android": "https://dc.lft.to/lastmile_qr_scan", "ios": "https://dc.lft.to/lastmile_qr_scan"}, "lat": 38.923732333333334, "is_disabled": 0, "lon": -77.03093733333333}, {"fusion_lat": 0.0, "type": "electric_scooter", "name": "cbcdd8152dfb7a02fe3cfa13e7d6b766", "fusion_lon": 0.0, "bike_id": "cbcdd8152dfb7a02fe3cfa13e7d6b766", "is_reserved": 0, "rental_uris": {"android": "https://dc.lft.to/lastmile_qr_scan", "ios": "https://dc.lft.to/lastmile_qr_scan"}, "lat": 38.898854666666665, "is_disabled": 0, "lon": -77.05299266666667}, {"fusion_lat": 0.0, "type": "electric_scooter", "name": "8a314ae310f03993a9696a0f974cded1", "fusion_lon": 0.0, "bike_id": "8a314ae310f03993a9696a0f974cded1", "is_reserved": 0, "rental_uris": {"android": "https://dc.lft.to/lastmile_qr_scan", "ios": "https://dc.lft.to/lastmile_qr_scan"}, "lat": 38.91965783333333, "is_disabled": 0, "lon": -77.06396866666667}, {"fusion_lat": 0.0, "type": "electric_scooter", "name": "f65fddd36bc32301029dcd19727081b0", "fusion_lon": 0.0, "bike_id": "f65fddd36bc32301029dcd19727081b0", "is_reserved": 0, "rental_uris": {"android": "https://dc.lft.to/lastmile_qr_scan", "ios": "https://dc.lft.to/lastmile_qr_scan"}, "lat": 38.914734833333334, "is_disabled": 0, "lon": -77.02578083333333}, {"fusion_lat": 0.0, "type": "electric_scooter", "name": "93ba50e9c870feb1d8b4e7d1bc601c17", "fusion_lon": 0.0, "bike_id": "93ba50e9c870feb1d8b4e7d1bc601c17", "is_reserved": 0, "rental_uris": {"android": "https://dc.lft.to/lastmile_qr_scan", "ios": "https://dc.lft.to/lastmile_qr_scan"}, "lat": 38.9098295, "is_disabled": 0, "lon": -77.04260966666666}, {"fusion_lat": 0.0, "type": "electric_scooter", "name": "72d49adfe3110d9c2317b452623a3cf8", "fusion_lon": 0.0, "bike_id": "72d49adfe3110d9c2317b452623a3cf8", "is_reserved": 0, "rental_uris": {"android": "https://dc.lft.to/lastmile_qr_scan", "ios": "https://dc.lft.to/lastmile_qr_scan"}, "lat": 38.88917983333333, "is_disabled": 0, "lon": -76.99133566666667}, {"fusion_lat": 0.0, "type": "electric_bike", "name": "9d0cadf0dbd317628c9fa3198580fcfb", "fusion_lon": 0.0, "bike_id": "9d0cadf0dbd317628c9fa3198580fcfb", "is_reserved": 0, "rental_uris": {"android": "https://dc.lft.to/lastmile_qr_scan", "ios": "https://dc.lft.to/lastmile_qr_scan"}, "lat": 38.97394966666667, "is_disabled": 0, "lon": -77.06448966666666}, {"fusion_lat": 0.0, "type": "electric_scooter", "name": "889e135b72060577a8808b132b9cffe8", "fusion_lon": 0.0, "bike_id": "889e135b72060577a8808b132b9cffe8", "is_reserved": 0, "rental_uris": {"android": "https://dc.lft.to/lastmile_qr_scan", "ios": "https://dc.lft.to/lastmile_qr_scan"}, "lat": 38.906410666666666, "is_disabled": 0, "lon": -77.05134433333333}, {"fusion_lat": 0.0, "type": "electric_scooter", "name": "47e1f6c01eb05ba0d30d7699318a08da", "fusion_lon": 0.0, "bike_id": "47e1f6c01eb05ba0d30d7699318a08da", "is_reserved": 0, "rental_uris": {"android": "https://dc.lft.to/lastmile_qr_scan", "ios": "https://dc.lft.to/lastmile_qr_scan"}, "lat": 38.9080105, "is_disabled": 0, "lon": -76.98735283333333}, {"fusion_lat": 0.0, "type": "electric_scooter", "name": "5570af0dfa99cf5c8cc9ef9462f81d6f", "fusion_lon": 0.0, "bike_id": "5570af0dfa99cf5c8cc9ef9462f81d6f", "is_reserved": 0, "rental_uris": {"android": "https://dc.lft.to/lastmile_qr_scan", "ios": "https://dc.lft.to/lastmile_qr_scan"}, "lat": 38.92805833333333, "is_disabled": 0, "lon": -77.014069}, {"fusion_lat": 0.0, "type": "electric_scooter", "name": "7649ff16fe1eda3f6cd341d2802fef6b", "fusion_lon": 0.0, "bike_id": "7649ff16fe1eda3f6cd341d2802fef6b", "is_reserved": 0, "rental_uris": {"android": "https://dc.lft.to/lastmile_qr_scan", "ios": "https://dc.lft.to/lastmile_qr_scan"}, "lat": 38.89222266666667, "is_disabled": 0, "lon": -77.0433335}, {"fusion_lat": 0.0, "type": "electric_scooter", "name": "dc9f0c938aaf2740b5180f4e8d8adcd5", "fusion_lon": 0.0, "bike_id": "dc9f0c938aaf2740b5180f4e8d8adcd5", "is_reserved": 0, "rental_uris": {"android": "https://dc.lft.to/lastmile_qr_scan", "ios": "https://dc.lft.to/lastmile_qr_scan"}, "lat": 38.91548183333333, "is_disabled": 0, "lon": -77.031709}, {"fusion_lat": 0.0, "type": "electric_scooter", "name": "5e8e2730f52905077537a0417a431d48", "fusion_lon": 0.0, "bike_id": "5e8e2730f52905077537a0417a431d48", "is_reserved": 0, "rental_uris": {"android": "https://dc.lft.to/lastmile_qr_scan", "ios": "https://dc.lft.to/lastmile_qr_scan"}, "lat": 38.8995315, "is_disabled": 0, "lon": -77.04215483333333}, {"fusion_lat": 0.0, "type": "electric_bike", "name": "0c58db55f5fb8f096808285340cc1fd2", "fusion_lon": 0.0, "bike_id": "0c58db55f5fb8f096808285340cc1fd2", "is_reserved": 0, "rental_uris": {"android": "https://dc.lft.to/lastmile_qr_scan", "ios": "https://dc.lft.to/lastmile_qr_scan"}, "lat": 38.94665466666667, "is_disabled": 0, "lon": -76.9830435}, {"fusion_lat": 0.0, "type": "electric_scooter", "name": "5b409a084c2c32a58cf36ba54764a346", "fusion_lon": 0.0, "bike_id": "5b409a084c2c32a58cf36ba54764a346", "is_reserved": 0, "rental_uris": {"android": "https://dc.lft.to/lastmile_qr_scan", "ios": "https://dc.lft.to/lastmile_qr_scan"}, "lat": 38.935673, "is_disabled": 0, "lon": -77.0211315}, {"fusion_lat": 0.0, "type": "electric_scooter", "name": "3c8ae98cd6948ebf61f9f06aa0ed090a", "fusion_lon": 0.0, "bike_id": "3c8ae98cd6948ebf61f9f06aa0ed090a", "is_reserved": 0, "rental_uris": {"android": "https://dc.lft.to/lastmile_qr_scan", "ios": "https://dc.lft.to/lastmile_qr_scan"}, "lat": 38.902502, "is_disabled": 0, "lon": -77.04598716666666}, {"fusion_lat": 0.0, "type": "electric_scooter", "name": "ce7536c586e4a5d02facfebe56902765", "fusion_lon": 0.0, "bike_id": "ce7536c586e4a5d02facfebe56902765", "is_reserved": 0, "rental_uris": {"android": "https://dc.lft.to/lastmile_qr_scan", "ios": "https://dc.lft.to/lastmile_qr_scan"}, "lat": 38.90236183333333, "is_disabled": 0, "lon": -77.04357866666666}, {"fusion_lat": 0.0, "type": "electric_scooter", "name": "d20c74614555884803c81c6be769512b", "fusion_lon": 0.0, "bike_id": "d20c74614555884803c81c6be769512b", "is_reserved": 0, "rental_uris": {"android": "https://dc.lft.to/lastmile_qr_scan", "ios": "https://dc.lft.to/lastmile_qr_scan"}, "lat": 38.8991535, "is_disabled": 0, "lon": -76.9337015}, {"fusion_lat": 0.0, "type": "electric_bike", "name": "ec66160f04f6808c7c40418911bcf763", "fusion_lon": 0.0, "bike_id": "ec66160f04f6808c7c40418911bcf763", "is_reserved": 0, "rental_uris": {"android": "https://dc.lft.to/lastmile_qr_scan", "ios": "https://dc.lft.to/lastmile_qr_scan"}, "lat": 38.852032666666666, "is_disabled": 0, "lon": -77.1012915}, {"fusion_lat": 0.0, "type": "electric_scooter", "name": "2345f96e837d88404782887a3868de4a", "fusion_lon": 0.0, "bike_id": "2345f96e837d88404782887a3868de4a", "is_reserved": 0, "rental_uris": {"android": "https://dc.lft.to/lastmile_qr_scan", "ios": "https://dc.lft.to/lastmile_qr_scan"}, "lat": 38.89365083333333, "is_disabled": 0, "lon": -76.94985133333333}, {"fusion_lat": 0.0, "type": "electric_scooter", "name": "abdf9cf4207b29082010bda944ee36a4", "fusion_lon": 0.0, "bike_id": "abdf9cf4207b29082010bda944ee36a4", "is_reserved": 0, "rental_uris": {"android": "https://dc.lft.to/lastmile_qr_scan", "ios": "https://dc.lft.to/lastmile_qr_scan"}, "lat": 38.895641499999996, "is_disabled": 0, "lon": -77.04678033333333}, {"fusion_lat": 0.0, "type": "electric_scooter", "name": "785e3960923cdc705e828215f06a3d2e", "fusion_lon": 0.0, "bike_id": "785e3960923cdc705e828215f06a3d2e", "is_reserved": 0, "rental_uris": {"android": "https://dc.lft.to/lastmile_qr_scan", "ios": "https://dc.lft.to/lastmile_qr_scan"}, "lat": 38.887147666666664, "is_disabled": 0, "lon": -77.02198033333333}, {"fusion_lat": 0.0, "type": "electric_scooter", "name": "5e7ffee22ddd0ee01edb28d37eae5a9f", "fusion_lon": 0.0, "bike_id": "5e7ffee22ddd0ee01edb28d37eae5a9f", "is_reserved": 0, "rental_uris": {"android": "https://dc.lft.to/lastmile_qr_scan", "ios": "https://dc.lft.to/lastmile_qr_scan"}, "lat": 38.92142333333334, "is_disabled": 0, "lon": -77.0350535}, {"fusion_lat": 0.0, "type": "electric_scooter", "name": "c78fd3eab3a30a0f34ffe67cad0e1ca9", "fusion_lon": 0.0, "bike_id": "c78fd3eab3a30a0f34ffe67cad0e1ca9", "is_reserved": 0, "rental_uris": {"android": "https://dc.lft.to/lastmile_qr_scan", "ios": "https://dc.lft.to/lastmile_qr_scan"}, "lat": 38.956219, "is_disabled": 0, "lon": -77.024552}, {"fusion_lat": 0.0, "type": "electric_bike", "name": "79de1b48558d11b42f6a15276b3879a9", "fusion_lon": 0.0, "bike_id": "79de1b48558d11b42f6a15276b3879a9", "is_reserved": 0, "rental_uris": {"android": "https://dc.lft.to/lastmile_qr_scan", "ios": "https://dc.lft.to/lastmile_qr_scan"}, "lat": 38.99345, "is_disabled": 0, "lon": -77.115779}, {"fusion_lat": 0.0, "type": "electric_scooter", "name": "4ad324c1ae5fa950eac8d2795cdad8b9", "fusion_lon": 0.0, "bike_id": "4ad324c1ae5fa950eac8d2795cdad8b9", "is_reserved": 0, "rental_uris": {"android": "https://dc.lft.to/lastmile_qr_scan", "ios": "https://dc.lft.to/lastmile_qr_scan"}, "lat": 38.927019666666666, "is_disabled": 0, "lon": -77.0410865}, {"fusion_lat": 0.0, "type": "electric_scooter", "name": "1436369a9900a7d778f7bca8540a2ffc", "fusion_lon": 0.0, "bike_id": "1436369a9900a7d778f7bca8540a2ffc", "is_reserved": 0, "rental_uris": {"android": "https://dc.lft.to/lastmile_qr_scan", "ios": "https://dc.lft.to/lastmile_qr_scan"}, "lat": 38.90691316666667, "is_disabled": 0, "lon": -77.03694783333333}, {"fusion_lat": 0.0, "type": "electric_scooter", "name": "8784b8807a19c54ce462255ffcf45245", "fusion_lon": 0.0, "bike_id": "8784b8807a19c54ce462255ffcf45245", "is_reserved": 0, "rental_uris": {"android": "https://dc.lft.to/lastmile_qr_scan", "ios": "https://dc.lft.to/lastmile_qr_scan"}, "lat": 38.8923195, "is_disabled": 0, "lon": -77.019756}, {"fusion_lat": 0.0, "type": "electric_scooter", "name": "db1131511f777a26c8f7ec69fcd2975f", "fusion_lon": 0.0, "bike_id": "db1131511f777a26c8f7ec69fcd2975f", "is_reserved": 0, "rental_uris": {"android": "https://dc.lft.to/lastmile_qr_scan", "ios": "https://dc.lft.to/lastmile_qr_scan"}, "lat": 38.901433833333336, "is_disabled": 0, "lon": -77.043902}, {"fusion_lat": 0.0, "type": "electric_scooter", "name": "68805fdbacc9ba5a5f67aab43455ae8e", "fusion_lon": 0.0, "bike_id": "68805fdbacc9ba5a5f67aab43455ae8e", "is_reserved": 0, "rental_uris": {"android": "https://dc.lft.to/lastmile_qr_scan", "ios": "https://dc.lft.to/lastmile_qr_scan"}, "lat": 38.9070525, "is_disabled": 0, "lon": -77.02697483333333}, {"fusion_lat": 0.0, "type": "electric_scooter", "name": "966639d6d04e7cbe17a4f73028973415", "fusion_lon": 0.0, "bike_id": "966639d6d04e7cbe17a4f73028973415", "is_reserved": 0, "rental_uris": {"android": "https://dc.lft.to/lastmile_qr_scan", "ios": "https://dc.lft.to/lastmile_qr_scan"}, "lat": 38.8665345, "is_disabled": 0, "lon": -76.9851735}, {"fusion_lat": 0.0, "type": "electric_scooter", "name": "05e07d413d193c6205cb1e4f457425a3", "fusion_lon": 0.0, "bike_id": "05e07d413d193c6205cb1e4f457425a3", "is_reserved": 0, "rental_uris": {"android": "https://dc.lft.to/lastmile_qr_scan", "ios": "https://dc.lft.to/lastmile_qr_scan"}, "lat": 38.89292433333333, "is_disabled": 0, "lon": -77.01220533333333}, {"fusion_lat": 0.0, "type": "electric_scooter", "name": "094f87c40f6a2554632648006acc624f", "fusion_lon": 0.0, "bike_id": "094f87c40f6a2554632648006acc624f", "is_reserved": 0, "rental_uris": {"android": "https://dc.lft.to/lastmile_qr_scan", "ios": "https://dc.lft.to/lastmile_qr_scan"}, "lat": 38.8665495, "is_disabled": 0, "lon": -76.988795}, {"fusion_lat": 0.0, "type": "electric_scooter", "name": "f98e38138dd6597b2467af5bc292e2fa", "fusion_lon": 0.0, "bike_id": "f98e38138dd6597b2467af5bc292e2fa", "is_reserved": 0, "rental_uris": {"android": "https://dc.lft.to/lastmile_qr_scan", "ios": "https://dc.lft.to/lastmile_qr_scan"}, "lat": 38.9109695, "is_disabled": 0, "lon": -77.0318635}, {"fusion_lat": 0.0, "type": "electric_scooter", "name": "fa108f4930a09678007aa05dcb43bade", "fusion_lon": 0.0, "bike_id": "fa108f4930a09678007aa05dcb43bade", "is_reserved": 0, "rental_uris": {"android": "https://dc.lft.to/lastmile_qr_scan", "ios": "https://dc.lft.to/lastmile_qr_scan"}, "lat": 38.90268583333334, "is_disabled": 0, "lon": -77.046086}, {"fusion_lat": 0.0, "type": "electric_scooter", "name": "3f086fa5b382fb8522ceb792601e1366", "fusion_lon": 0.0, "bike_id": "3f086fa5b382fb8522ceb792601e1366", "is_reserved": 0, "rental_uris": {"android": "https://dc.lft.to/lastmile_qr_scan", "ios": "https://dc.lft.to/lastmile_qr_scan"}, "lat": 38.930061333333335, "is_disabled": 0, "lon": -77.05521566666667}, {"fusion_lat": 0.0, "type": "electric_scooter", "name": "a444e6cac8c98142fdedfe9ecafe0324", "fusion_lon": 0.0, "bike_id": "a444e6cac8c98142fdedfe9ecafe0324", "is_reserved": 0, "rental_uris": {"android": "https://dc.lft.to/lastmile_qr_scan", "ios": "https://dc.lft.to/lastmile_qr_scan"}, "lat": 38.9243105, "is_disabled": 0, "lon": -77.0424955}, {"fusion_lat": 0.0, "type": "electric_scooter", "name": "a8430796a4b8941fe356038a025bdd69", "fusion_lon": 0.0, "bike_id": "a8430796a4b8941fe356038a025bdd69", "is_reserved": 0, "rental_uris": {"android": "https://dc.lft.to/lastmile_qr_scan", "ios": "https://dc.lft.to/lastmile_qr_scan"}, "lat": 38.92235016666667, "is_disabled": 0, "lon": -77.042478}, {"fusion_lat": 0.0, "type": "electric_bike", "name": "830f8debc3b4b7c6852b4bc2b8a04bbe", "fusion_lon": 0.0, "bike_id": "830f8debc3b4b7c6852b4bc2b8a04bbe", "is_reserved": 0, "rental_uris": {"android": "https://dc.lft.to/lastmile_qr_scan", "ios": "https://dc.lft.to/lastmile_qr_scan"}, "lat": 38.84609616666667, "is_disabled": 0, "lon": -77.08969916666666}, {"fusion_lat": 0.0, "type": "electric_scooter", "name": "01d019fc9fbc57731c653b4abeb27766", "fusion_lon": 0.0, "bike_id": "01d019fc9fbc57731c653b4abeb27766", "is_reserved": 0, "rental_uris": {"android": "https://dc.lft.to/lastmile_qr_scan", "ios": "https://dc.lft.to/lastmile_qr_scan"}, "lat": 38.89822566666667, "is_disabled": 0, "lon": -77.0329325}, {"fusion_lat": 0.0, "type": "electric_scooter", "name": "5fd6a2920b3adb5fd72c32449c920e15", "fusion_lon": 0.0, "bike_id": "5fd6a2920b3adb5fd72c32449c920e15", "is_reserved": 0, "rental_uris": {"android": "https://dc.lft.to/lastmile_qr_scan", "ios": "https://dc.lft.to/lastmile_qr_scan"}, "lat": 38.91466583333333, "is_disabled": 0, "lon": -77.02192816666667}, {"fusion_lat": 0.0, "type": "electric_scooter", "name": "617e0947aad3477b31d83664f6f16613", "fusion_lon": 0.0, "bike_id": "617e0947aad3477b31d83664f6f16613", "is_reserved": 0, "rental_uris": {"android": "https://dc.lft.to/lastmile_qr_scan", "ios": "https://dc.lft.to/lastmile_qr_scan"}, "lat": 38.89834316666666, "is_disabled": 0, "lon": -77.02276}, {"fusion_lat": 0.0, "type": "electric_scooter", "name": "7a539de5aa8b6833c0ed3147f9671e08", "fusion_lon": 0.0, "bike_id": "7a539de5aa8b6833c0ed3147f9671e08", "is_reserved": 0, "rental_uris": {"android": "https://dc.lft.to/lastmile_qr_scan", "ios": "https://dc.lft.to/lastmile_qr_scan"}, "lat": 38.91127933333333, "is_disabled": 0, "lon": -77.04374566666667}, {"fusion_lat": 0.0, "type": "electric_scooter", "name": "192da407996281a5d05a560eee13fad0", "fusion_lon": 0.0, "bike_id": "192da407996281a5d05a560eee13fad0", "is_reserved": 0, "rental_uris": {"android": "https://dc.lft.to/lastmile_qr_scan", "ios": "https://dc.lft.to/lastmile_qr_scan"}, "lat": 38.91869116666667, "is_disabled": 0, "lon": -77.03751983333333}, {"fusion_lat": 0.0, "type": "electric_scooter", "name": "7588cea2042dfd77d1d5489568eab10f", "fusion_lon": 0.0, "bike_id": "7588cea2042dfd77d1d5489568eab10f", "is_reserved": 0, "rental_uris": {"android": "https://dc.lft.to/lastmile_qr_scan", "ios": "https://dc.lft.to/lastmile_qr_scan"}, "lat": 38.887438333333336, "is_disabled": 0, "lon": -77.02735666666666}, {"fusion_lat": 0.0, "type": "electric_scooter", "name": "92a0e14112048001e7d91b802d8bf1f0", "fusion_lon": 0.0, "bike_id": "92a0e14112048001e7d91b802d8bf1f0", "is_reserved": 0, "rental_uris": {"android": "https://dc.lft.to/lastmile_qr_scan", "ios": "https://dc.lft.to/lastmile_qr_scan"}, "lat": 38.92472516666667, "is_disabled": 0, "lon": -77.02267433333333}, {"fusion_lat": 0.0, "type": "electric_scooter", "name": "a63efac3270804a13b7ea43532037417", "fusion_lon": 0.0, "bike_id": "a63efac3270804a13b7ea43532037417", "is_reserved": 0, "rental_uris": {"android": "https://dc.lft.to/lastmile_qr_scan", "ios": "https://dc.lft.to/lastmile_qr_scan"}, "lat": 38.8922025, "is_disabled": 0, "lon": -77.023488}, {"fusion_lat": 0.0, "type": "electric_scooter", "name": "8924c5446fbb24e10e622c3a5141b726", "fusion_lon": 0.0, "bike_id": "8924c5446fbb24e10e622c3a5141b726", "is_reserved": 0, "rental_uris": {"android": "https://dc.lft.to/lastmile_qr_scan", "ios": "https://dc.lft.to/lastmile_qr_scan"}, "lat": 38.87783116666667, "is_disabled": 0, "lon": -76.99357033333334}, {"fusion_lat": 0.0, "type": "electric_scooter", "name": "3d48bad6497256fc32f89b87f0372cdf", "fusion_lon": 0.0, "bike_id": "3d48bad6497256fc32f89b87f0372cdf", "is_reserved": 0, "rental_uris": {"android": "https://dc.lft.to/lastmile_qr_scan", "ios": "https://dc.lft.to/lastmile_qr_scan"}, "lat": 38.903634333333336, "is_disabled": 0, "lon": -77.04332033333333}, {"fusion_lat": 0.0, "type": "electric_scooter", "name": "f4cfaea80efceefa6a542d5c87097da5", "fusion_lon": 0.0, "bike_id": "f4cfaea80efceefa6a542d5c87097da5", "is_reserved": 0, "rental_uris": {"android": "https://dc.lft.to/lastmile_qr_scan", "ios": "https://dc.lft.to/lastmile_qr_scan"}, "lat": 38.89369533333333, "is_disabled": 0, "lon": -77.047839}, {"fusion_lat": 0.0, "type": "electric_scooter", "name": "32ee63e9ec98073e486e02da32d5d9f5", "fusion_lon": 0.0, "bike_id": "32ee63e9ec98073e486e02da32d5d9f5", "is_reserved": 0, "rental_uris": {"android": "https://dc.lft.to/lastmile_qr_scan", "ios": "https://dc.lft.to/lastmile_qr_scan"}, "lat": 38.865806166666665, "is_disabled": 0, "lon": -76.99030183333333}, {"fusion_lat": 0.0, "type": "electric_scooter", "name": "7c914150a1cfad63ee7b00bcf075f38c", "fusion_lon": 0.0, "bike_id": "7c914150a1cfad63ee7b00bcf075f38c", "is_reserved": 0, "rental_uris": {"android": "https://dc.lft.to/lastmile_qr_scan", "ios": "https://dc.lft.to/lastmile_qr_scan"}, "lat": 38.92286716666667, "is_disabled": 0, "lon": -77.03894883333334}, {"fusion_lat": 0.0, "type": "electric_scooter", "name": "df41cd3e5a3dcb649f9cadaa3a5cbd6f", "fusion_lon": 0.0, "bike_id": "df41cd3e5a3dcb649f9cadaa3a5cbd6f", "is_reserved": 0, "rental_uris": {"android": "https://dc.lft.to/lastmile_qr_scan", "ios": "https://dc.lft.to/lastmile_qr_scan"}, "lat": 38.9002195, "is_disabled": 0, "lon": -77.01858183333333}, {"fusion_lat": 0.0, "type": "electric_scooter", "name": "0f7c40d624c863585eea8c2f6663ae27", "fusion_lon": 0.0, "bike_id": "0f7c40d624c863585eea8c2f6663ae27", "is_reserved": 0, "rental_uris": {"android": "https://dc.lft.to/lastmile_qr_scan", "ios": "https://dc.lft.to/lastmile_qr_scan"}, "lat": 38.8747655, "is_disabled": 0, "lon": -77.01069483333333}, {"fusion_lat": 0.0, "type": "electric_scooter", "name": "e57a32e72cbc6e9ef3beea620285cece", "fusion_lon": 0.0, "bike_id": "e57a32e72cbc6e9ef3beea620285cece", "is_reserved": 0, "rental_uris": {"android": "https://dc.lft.to/lastmile_qr_scan", "ios": "https://dc.lft.to/lastmile_qr_scan"}, "lat": 38.957106833333334, "is_disabled": 0, "lon": -77.00281983333333}, {"fusion_lat": 0.0, "type": "electric_scooter", "name": "23960f267e6e7b1b8a57a47d8300ced8", "fusion_lon": 0.0, "bike_id": "23960f267e6e7b1b8a57a47d8300ced8", "is_reserved": 0, "rental_uris": {"android": "https://dc.lft.to/lastmile_qr_scan", "ios": "https://dc.lft.to/lastmile_qr_scan"}, "lat": 38.90381516666667, "is_disabled": 0, "lon": -77.03862816666667}, {"fusion_lat": 0.0, "type": "electric_scooter", "name": "6a090ed34ae8572aa66ae776edc17bac", "fusion_lon": 0.0, "bike_id": "6a090ed34ae8572aa66ae776edc17bac", "is_reserved": 0, "rental_uris": {"android": "https://dc.lft.to/lastmile_qr_scan", "ios": "https://dc.lft.to/lastmile_qr_scan"}, "lat": 38.9013495, "is_disabled": 0, "lon": -77.02808916666666}, {"fusion_lat": 0.0, "type": "electric_scooter", "name": "8b205eb81bbc6ccf4dbb747dd984cd96", "fusion_lon": 0.0, "bike_id": "8b205eb81bbc6ccf4dbb747dd984cd96", "is_reserved": 0, "rental_uris": {"android": "https://dc.lft.to/lastmile_qr_scan", "ios": "https://dc.lft.to/lastmile_qr_scan"}, "lat": 38.89847533333333, "is_disabled": 0, "lon": -77.02707366666667}, {"fusion_lat": 0.0, "type": "electric_scooter", "name": "af84210d3de3d2e4ed5230054475e682", "fusion_lon": 0.0, "bike_id": "af84210d3de3d2e4ed5230054475e682", "is_reserved": 0, "rental_uris": {"android": "https://dc.lft.to/lastmile_qr_scan", "ios": "https://dc.lft.to/lastmile_qr_scan"}, "lat": 38.89220383333333, "is_disabled": 0, "lon": -77.04376433333333}, {"fusion_lat": 0.0, "type": "electric_scooter", "name": "45507a727fbff3cddf52ce9b9bb73fc5", "fusion_lon": 0.0, "bike_id": "45507a727fbff3cddf52ce9b9bb73fc5", "is_reserved": 0, "rental_uris": {"android": "https://dc.lft.to/lastmile_qr_scan", "ios": "https://dc.lft.to/lastmile_qr_scan"}, "lat": 38.88729516666667, "is_disabled": 0, "lon": -77.02576433333333}, {"fusion_lat": 0.0, "type": "electric_scooter", "name": "ee25b9d098718c5817ef57161e1f8dec", "fusion_lon": 0.0, "bike_id": "ee25b9d098718c5817ef57161e1f8dec", "is_reserved": 0, "rental_uris": {"android": "https://dc.lft.to/lastmile_qr_scan", "ios": "https://dc.lft.to/lastmile_qr_scan"}, "lat": 38.911895333333334, "is_disabled": 0, "lon": -77.03017233333334}, {"fusion_lat": 0.0, "type": "electric_scooter", "name": "71e5783342759f565c44fdfcaebd2640", "fusion_lon": 0.0, "bike_id": "71e5783342759f565c44fdfcaebd2640", "is_reserved": 0, "rental_uris": {"android": "https://dc.lft.to/lastmile_qr_scan", "ios": "https://dc.lft.to/lastmile_qr_scan"}, "lat": 38.92438583333333, "is_disabled": 0, "lon": -77.05209283333333}, {"fusion_lat": 0.0, "type": "electric_scooter", "name": "820a03405d96fa69aaf633ee577bae5b", "fusion_lon": 0.0, "bike_id": "820a03405d96fa69aaf633ee577bae5b", "is_reserved": 0, "rental_uris": {"android": "https://dc.lft.to/lastmile_qr_scan", "ios": "https://dc.lft.to/lastmile_qr_scan"}, "lat": 38.9281685, "is_disabled": 0, "lon": -77.01408816666667}, {"fusion_lat": 0.0, "type": "electric_scooter", "name": "60e1a24bd5c0d4e8ca69cf8df3a9953e", "fusion_lon": 0.0, "bike_id": "60e1a24bd5c0d4e8ca69cf8df3a9953e", "is_reserved": 0, "rental_uris": {"android": "https://dc.lft.to/lastmile_qr_scan", "ios": "https://dc.lft.to/lastmile_qr_scan"}, "lat": 38.894956, "is_disabled": 0, "lon": -77.02143916666667}, {"fusion_lat": 0.0, "type": "electric_scooter", "name": "360e009538f3b2c80e38a97839b887da", "fusion_lon": 0.0, "bike_id": "360e009538f3b2c80e38a97839b887da", "is_reserved": 0, "rental_uris": {"android": "https://dc.lft.to/lastmile_qr_scan", "ios": "https://dc.lft.to/lastmile_qr_scan"}, "lat": 38.86701133333333, "is_disabled": 0, "lon": -76.98710733333333}, {"fusion_lat": 0.0, "type": "electric_scooter", "name": "f56e5fedc76278f4d304377abb8c56ae", "fusion_lon": 0.0, "bike_id": "f56e5fedc76278f4d304377abb8c56ae", "is_reserved": 0, "rental_uris": {"android": "https://dc.lft.to/lastmile_qr_scan", "ios": "https://dc.lft.to/lastmile_qr_scan"}, "lat": 38.8936905, "is_disabled": 0, "lon": -76.94995533333334}, {"fusion_lat": 0.0, "type": "electric_scooter", "name": "ec22149ab4995df0fc84a6cf549d310e", "fusion_lon": 0.0, "bike_id": "ec22149ab4995df0fc84a6cf549d310e", "is_reserved": 0, "rental_uris": {"android": "https://dc.lft.to/lastmile_qr_scan", "ios": "https://dc.lft.to/lastmile_qr_scan"}, "lat": 38.90154583333333, "is_disabled": 0, "lon": -77.022854}, {"fusion_lat": 0.0, "type": "electric_scooter", "name": "d6469e33a0471992eb2c7c562aa8eff2", "fusion_lon": 0.0, "bike_id": "d6469e33a0471992eb2c7c562aa8eff2", "is_reserved": 0, "rental_uris": {"android": "https://dc.lft.to/lastmile_qr_scan", "ios": "https://dc.lft.to/lastmile_qr_scan"}, "lat": 38.930848833333336, "is_disabled": 0, "lon": -77.00412016666667}, {"fusion_lat": 0.0, "type": "electric_bike", "name": "fa70b8e24faf0b96b3e295f3cae13267", "fusion_lon": 0.0, "bike_id": "fa70b8e24faf0b96b3e295f3cae13267", "is_reserved": 0, "rental_uris": {"android": "https://dc.lft.to/lastmile_qr_scan", "ios": "https://dc.lft.to/lastmile_qr_scan"}, "lat": 38.9592625, "is_disabled": 0, "lon": -76.92532616666666}, {"fusion_lat": 0.0, "type": "electric_scooter", "name": "c4e551bdb0bc7bfa1e6ee1d50cbbe04f", "fusion_lon": 0.0, "bike_id": "c4e551bdb0bc7bfa1e6ee1d50cbbe04f", "is_reserved": 0, "rental_uris": {"android": "https://dc.lft.to/lastmile_qr_scan", "ios": "https://dc.lft.to/lastmile_qr_scan"}, "lat": 38.87719, "is_disabled": 0, "lon": -77.01768333333334}, {"fusion_lat": 0.0, "type": "electric_scooter", "name": "5664b403de9aaf45835978ec996e0148", "fusion_lon": 0.0, "bike_id": "5664b403de9aaf45835978ec996e0148", "is_reserved": 0, "rental_uris": {"android": "https://dc.lft.to/lastmile_qr_scan", "ios": "https://dc.lft.to/lastmile_qr_scan"}, "lat": 38.95336966666667, "is_disabled": 0, "lon": -77.00959833333333}, {"fusion_lat": 0.0, "type": "electric_scooter", "name": "4f1a59eb14b256daffca593e3b461f07", "fusion_lon": 0.0, "bike_id": "4f1a59eb14b256daffca593e3b461f07", "is_reserved": 0, "rental_uris": {"android": "https://dc.lft.to/lastmile_qr_scan", "ios": "https://dc.lft.to/lastmile_qr_scan"}, "lat": 38.904673833333334, "is_disabled": 0, "lon": -77.02818716666667}, {"fusion_lat": 0.0, "type": "electric_scooter", "name": "70acf825979373dd709d79717bbd050f", "fusion_lon": 0.0, "bike_id": "70acf825979373dd709d79717bbd050f", "is_reserved": 0, "rental_uris": {"android": "https://dc.lft.to/lastmile_qr_scan", "ios": "https://dc.lft.to/lastmile_qr_scan"}, "lat": 38.8934455, "is_disabled": 0, "lon": -77.0418995}, {"fusion_lat": 0.0, "type": "electric_scooter", "name": "e3a8f45de3e68a518b8f240595fbd808", "fusion_lon": 0.0, "bike_id": "e3a8f45de3e68a518b8f240595fbd808", "is_reserved": 0, "rental_uris": {"android": "https://dc.lft.to/lastmile_qr_scan", "ios": "https://dc.lft.to/lastmile_qr_scan"}, "lat": 38.920622, "is_disabled": 0, "lon": -77.04220133333334}, {"fusion_lat": 0.0, "type": "electric_scooter", "name": "1390bd03c5ade88c4dbcdc0fd0366136", "fusion_lon": 0.0, "bike_id": "1390bd03c5ade88c4dbcdc0fd0366136", "is_reserved": 0, "rental_uris": {"android": "https://dc.lft.to/lastmile_qr_scan", "ios": "https://dc.lft.to/lastmile_qr_scan"}, "lat": 38.89218616666667, "is_disabled": 0, "lon": -77.04372616666667}, {"fusion_lat": 0.0, "type": "electric_scooter", "name": "90d1da1f74fb2ad74ea42fd17ef1f59e", "fusion_lon": 0.0, "bike_id": "90d1da1f74fb2ad74ea42fd17ef1f59e", "is_reserved": 0, "rental_uris": {"android": "https://dc.lft.to/lastmile_qr_scan", "ios": "https://dc.lft.to/lastmile_qr_scan"}, "lat": 38.868912, "is_disabled": 0, "lon": -76.98219916666666}, {"fusion_lat": 0.0, "type": "electric_scooter", "name": "adf19b4cc1d684de36a47d6ebc0498a4", "fusion_lon": 0.0, "bike_id": "adf19b4cc1d684de36a47d6ebc0498a4", "is_reserved": 0, "rental_uris": {"android": "https://dc.lft.to/lastmile_qr_scan", "ios": "https://dc.lft.to/lastmile_qr_scan"}, "lat": 38.90564116666667, "is_disabled": 0, "lon": -77.00538116666667}, {"fusion_lat": 0.0, "type": "electric_scooter", "name": "394d2c7f6df4ba7f57d1308f39c242fd", "fusion_lon": 0.0, "bike_id": "394d2c7f6df4ba7f57d1308f39c242fd", "is_reserved": 0, "rental_uris": {"android": "https://dc.lft.to/lastmile_qr_scan", "ios": "https://dc.lft.to/lastmile_qr_scan"}, "lat": 38.90973316666667, "is_disabled": 0, "lon": -77.02424316666666}, {"fusion_lat": 0.0, "type": "electric_scooter", "name": "fb0d8fce89ae36bba39d89b13df67f0a", "fusion_lon": 0.0, "bike_id": "fb0d8fce89ae36bba39d89b13df67f0a", "is_reserved": 0, "rental_uris": {"android": "https://dc.lft.to/lastmile_qr_scan", "ios": "https://dc.lft.to/lastmile_qr_scan"}, "lat": 38.933677, "is_disabled": 0, "lon": -77.023555}, {"fusion_lat": 0.0, "type": "electric_scooter", "name": "60e49a77829a073392930bb515e0fcce", "fusion_lon": 0.0, "bike_id": "60e49a77829a073392930bb515e0fcce", "is_reserved": 0, "rental_uris": {"android": "https://dc.lft.to/lastmile_qr_scan", "ios": "https://dc.lft.to/lastmile_qr_scan"}, "lat": 38.873112666666664, "is_disabled": 0, "lon": -77.00586716666666}, {"fusion_lat": 0.0, "type": "electric_scooter", "name": "b73ee1b9a8eb51984f1c7b2414af56a7", "fusion_lon": 0.0, "bike_id": "b73ee1b9a8eb51984f1c7b2414af56a7", "is_reserved": 0, "rental_uris": {"android": "https://dc.lft.to/lastmile_qr_scan", "ios": "https://dc.lft.to/lastmile_qr_scan"}, "lat": 38.88812566666667, "is_disabled": 0, "lon": -76.9334375}, {"fusion_lat": 0.0, "type": "electric_scooter", "name": "cb40cd263f9a67f66e5e5790beaa6ada", "fusion_lon": 0.0, "bike_id": "cb40cd263f9a67f66e5e5790beaa6ada", "is_reserved": 0, "rental_uris": {"android": "https://dc.lft.to/lastmile_qr_scan", "ios": "https://dc.lft.to/lastmile_qr_scan"}, "lat": 38.89328583333333, "is_disabled": 0, "lon": -77.01198966666666}, {"fusion_lat": 0.0, "type": "electric_scooter", "name": "587530fb000748fa32145550168af5fe", "fusion_lon": 0.0, "bike_id": "587530fb000748fa32145550168af5fe", "is_reserved": 0, "rental_uris": {"android": "https://dc.lft.to/lastmile_qr_scan", "ios": "https://dc.lft.to/lastmile_qr_scan"}, "lat": 38.9235815, "is_disabled": 0, "lon": -77.021196}, {"fusion_lat": 0.0, "type": "electric_scooter", "name": "dfab3b3dde725aa4f49f1e93398098d3", "fusion_lon": 0.0, "bike_id": "dfab3b3dde725aa4f49f1e93398098d3", "is_reserved": 0, "rental_uris": {"android": "https://dc.lft.to/lastmile_qr_scan", "ios": "https://dc.lft.to/lastmile_qr_scan"}, "lat": 38.91029116666667, "is_disabled": 0, "lon": -77.04269333333333}, {"fusion_lat": 0.0, "type": "electric_scooter", "name": "1d618ab49da51bae312e59f6b7294efb", "fusion_lon": 0.0, "bike_id": "1d618ab49da51bae312e59f6b7294efb", "is_reserved": 0, "rental_uris": {"android": "https://dc.lft.to/lastmile_qr_scan", "ios": "https://dc.lft.to/lastmile_qr_scan"}, "lat": 38.89239766666667, "is_disabled": 0, "lon": -77.0318455}, {"fusion_lat": 0.0, "type": "electric_scooter", "name": "c01b31ac510fc0cef2464d69e29337dd", "fusion_lon": 0.0, "bike_id": "c01b31ac510fc0cef2464d69e29337dd", "is_reserved": 0, "rental_uris": {"android": "https://dc.lft.to/lastmile_qr_scan", "ios": "https://dc.lft.to/lastmile_qr_scan"}, "lat": 38.917081, "is_disabled": 0, "lon": -77.03513783333334}, {"fusion_lat": 0.0, "type": "electric_scooter", "name": "996c79c6d543183bc764d7458affd9bb", "fusion_lon": 0.0, "bike_id": "996c79c6d543183bc764d7458affd9bb", "is_reserved": 0, "rental_uris": {"android": "https://dc.lft.to/lastmile_qr_scan", "ios": "https://dc.lft.to/lastmile_qr_scan"}, "lat": 38.897521166666664, "is_disabled": 0, "lon": -77.02657683333334}, {"fusion_lat": 0.0, "type": "electric_scooter", "name": "e1064c8ae994bac5299b352d2b8c3e14", "fusion_lon": 0.0, "bike_id": "e1064c8ae994bac5299b352d2b8c3e14", "is_reserved": 0, "rental_uris": {"android": "https://dc.lft.to/lastmile_qr_scan", "ios": "https://dc.lft.to/lastmile_qr_scan"}, "lat": 38.88729933333333, "is_disabled": 0, "lon": -77.02829233333334}, {"fusion_lat": 0.0, "type": "electric_scooter", "name": "1ef44d17e93ec1a7d5c6f07c7d759f6b", "fusion_lon": 0.0, "bike_id": "1ef44d17e93ec1a7d5c6f07c7d759f6b", "is_reserved": 0, "rental_uris": {"android": "https://dc.lft.to/lastmile_qr_scan", "ios": "https://dc.lft.to/lastmile_qr_scan"}, "lat": 38.89875, "is_disabled": 0, "lon": -77.03319216666667}, {"fusion_lat": 0.0, "type": "electric_scooter", "name": "013a733cc1fa17a890876d93443dde42", "fusion_lon": 0.0, "bike_id": "013a733cc1fa17a890876d93443dde42", "is_reserved": 0, "rental_uris": {"android": "https://dc.lft.to/lastmile_qr_scan", "ios": "https://dc.lft.to/lastmile_qr_scan"}, "lat": 38.904174, "is_disabled": 0, "lon": -77.03250383333334}, {"fusion_lat": 0.0, "type": "electric_scooter", "name": "c76b319379a209c554ae344390e77915", "fusion_lon": 0.0, "bike_id": "c76b319379a209c554ae344390e77915", "is_reserved": 0, "rental_uris": {"android": "https://dc.lft.to/lastmile_qr_scan", "ios": "https://dc.lft.to/lastmile_qr_scan"}, "lat": 38.876712166666664, "is_disabled": 0, "lon": -76.99820683333333}, {"fusion_lat": 0.0, "type": "electric_scooter", "name": "baf72b0b32ab96e5031692b319a33fc3", "fusion_lon": 0.0, "bike_id": "baf72b0b32ab96e5031692b319a33fc3", "is_reserved": 0, "rental_uris": {"android": "https://dc.lft.to/lastmile_qr_scan", "ios": "https://dc.lft.to/lastmile_qr_scan"}, "lat": 38.9003035, "is_disabled": 0, "lon": -77.02962383333333}, {"fusion_lat": 0.0, "type": "electric_scooter", "name": "82598a848413634f1be2dbd2b5f68714", "fusion_lon": 0.0, "bike_id": "82598a848413634f1be2dbd2b5f68714", "is_reserved": 0, "rental_uris": {"android": "https://dc.lft.to/lastmile_qr_scan", "ios": "https://dc.lft.to/lastmile_qr_scan"}, "lat": 38.91839, "is_disabled": 0, "lon": -77.0448925}, {"fusion_lat": 0.0, "type": "electric_scooter", "name": "72ef47b352073e6704cc79c488f7f9ea", "fusion_lon": 0.0, "bike_id": "72ef47b352073e6704cc79c488f7f9ea", "is_reserved": 0, "rental_uris": {"android": "https://dc.lft.to/lastmile_qr_scan", "ios": "https://dc.lft.to/lastmile_qr_scan"}, "lat": 38.9162695, "is_disabled": 0, "lon": -77.03136183333334}, {"fusion_lat": 0.0, "type": "electric_scooter", "name": "95e55ab088f0f26600550a11aeeb390d", "fusion_lon": 0.0, "bike_id": "95e55ab088f0f26600550a11aeeb390d", "is_reserved": 0, "rental_uris": {"android": "https://dc.lft.to/lastmile_qr_scan", "ios": "https://dc.lft.to/lastmile_qr_scan"}, "lat": 38.8942685, "is_disabled": 0, "lon": -76.911159}, {"fusion_lat": 0.0, "type": "electric_scooter", "name": "cf05fbf2c92977b7c5c0f376eb574773", "fusion_lon": 0.0, "bike_id": "cf05fbf2c92977b7c5c0f376eb574773", "is_reserved": 0, "rental_uris": {"android": "https://dc.lft.to/lastmile_qr_scan", "ios": "https://dc.lft.to/lastmile_qr_scan"}, "lat": 38.94180883333333, "is_disabled": 0, "lon": -77.0252915}, {"fusion_lat": 0.0, "type": "electric_scooter", "name": "016836a4f5ba0dfd77361c519409a048", "fusion_lon": 0.0, "bike_id": "016836a4f5ba0dfd77361c519409a048", "is_reserved": 0, "rental_uris": {"android": "https://dc.lft.to/lastmile_qr_scan", "ios": "https://dc.lft.to/lastmile_qr_scan"}, "lat": 38.909515166666665, "is_disabled": 0, "lon": -77.05478833333333}, {"fusion_lat": 0.0, "type": "electric_bike", "name": "bed41f0f517808f4f0dfbdfc99e4da51", "fusion_lon": 0.0, "bike_id": "bed41f0f517808f4f0dfbdfc99e4da51", "is_reserved": 0, "rental_uris": {"android": "https://dc.lft.to/lastmile_qr_scan", "ios": "https://dc.lft.to/lastmile_qr_scan"}, "lat": 38.90267566666667, "is_disabled": 0, "lon": -76.92924283333333}, {"fusion_lat": 0.0, "type": "electric_scooter", "name": "218bc690f2b9447970cc2d594b98c596", "fusion_lon": 0.0, "bike_id": "218bc690f2b9447970cc2d594b98c596", "is_reserved": 0, "rental_uris": {"android": "https://dc.lft.to/lastmile_qr_scan", "ios": "https://dc.lft.to/lastmile_qr_scan"}, "lat": 38.916703, "is_disabled": 0, "lon": -77.02714016666667}, {"fusion_lat": 0.0, "type": "electric_scooter", "name": "e62af32f15f695490e08ea8473434eef", "fusion_lon": 0.0, "bike_id": "e62af32f15f695490e08ea8473434eef", "is_reserved": 0, "rental_uris": {"android": "https://dc.lft.to/lastmile_qr_scan", "ios": "https://dc.lft.to/lastmile_qr_scan"}, "lat": 38.89223916666667, "is_disabled": 0, "lon": -77.04371783333333}, {"fusion_lat": 0.0, "type": "electric_scooter", "name": "23154789ad69fea6a0d000167cc52da2", "fusion_lon": 0.0, "bike_id": "23154789ad69fea6a0d000167cc52da2", "is_reserved": 0, "rental_uris": {"android": "https://dc.lft.to/lastmile_qr_scan", "ios": "https://dc.lft.to/lastmile_qr_scan"}, "lat": 38.909521833333336, "is_disabled": 0, "lon": -77.00814333333334}, {"fusion_lat": 0.0, "type": "electric_bike", "name": "98047e3a05a97e971aa3790afb6fc29b", "fusion_lon": 0.0, "bike_id": "98047e3a05a97e971aa3790afb6fc29b", "is_reserved": 0, "rental_uris": {"android": "https://dc.lft.to/lastmile_qr_scan", "ios": "https://dc.lft.to/lastmile_qr_scan"}, "lat": 39.04234866666667, "is_disabled": 0, "lon": -76.9973665}, {"fusion_lat": 0.0, "type": "electric_scooter", "name": "9db59b9bdcd6ca4d9c24c035975ff7db", "fusion_lon": 0.0, "bike_id": "9db59b9bdcd6ca4d9c24c035975ff7db", "is_reserved": 0, "rental_uris": {"android": "https://dc.lft.to/lastmile_qr_scan", "ios": "https://dc.lft.to/lastmile_qr_scan"}, "lat": 38.9290475, "is_disabled": 0, "lon": -77.062626}, {"fusion_lat": 0.0, "type": "electric_scooter", "name": "26cdb049bab761e9722ca17e3775d1ce", "fusion_lon": 0.0, "bike_id": "26cdb049bab761e9722ca17e3775d1ce", "is_reserved": 0, "rental_uris": {"android": "https://dc.lft.to/lastmile_qr_scan", "ios": "https://dc.lft.to/lastmile_qr_scan"}, "lat": 38.97368266666667, "is_disabled": 0, "lon": -77.01865316666667}, {"fusion_lat": 0.0, "type": "electric_scooter", "name": "ac4a9afb8fc3c54a78c2ea9b0e96b48e", "fusion_lon": 0.0, "bike_id": "ac4a9afb8fc3c54a78c2ea9b0e96b48e", "is_reserved": 0, "rental_uris": {"android": "https://dc.lft.to/lastmile_qr_scan", "ios": "https://dc.lft.to/lastmile_qr_scan"}, "lat": 38.9148035, "is_disabled": 0, "lon": -77.0257995}, {"fusion_lat": 0.0, "type": "electric_scooter", "name": "9167f9d3e09378d99315c002f5ee35bc", "fusion_lon": 0.0, "bike_id": "9167f9d3e09378d99315c002f5ee35bc", "is_reserved": 0, "rental_uris": {"android": "https://dc.lft.to/lastmile_qr_scan", "ios": "https://dc.lft.to/lastmile_qr_scan"}, "lat": 38.927997500000004, "is_disabled": 0, "lon": -77.02480383333334}, {"fusion_lat": 0.0, "type": "electric_scooter", "name": "349149fa0e8b22631677d596c68b0942", "fusion_lon": 0.0, "bike_id": "349149fa0e8b22631677d596c68b0942", "is_reserved": 0, "rental_uris": {"android": "https://dc.lft.to/lastmile_qr_scan", "ios": "https://dc.lft.to/lastmile_qr_scan"}, "lat": 38.908081333333335, "is_disabled": 0, "lon": -77.03858616666666}, {"fusion_lat": 0.0, "type": "electric_scooter", "name": "779c178c36bd5303764270ff64e0051b", "fusion_lon": 0.0, "bike_id": "779c178c36bd5303764270ff64e0051b", "is_reserved": 0, "rental_uris": {"android": "https://dc.lft.to/lastmile_qr_scan", "ios": "https://dc.lft.to/lastmile_qr_scan"}, "lat": 38.93582583333333, "is_disabled": 0, "lon": -77.05855133333333}, {"fusion_lat": 0.0, "type": "electric_scooter", "name": "c92e0622aa05d9f1800fef88bfdcc1f5", "fusion_lon": 0.0, "bike_id": "c92e0622aa05d9f1800fef88bfdcc1f5", "is_reserved": 0, "rental_uris": {"android": "https://dc.lft.to/lastmile_qr_scan", "ios": "https://dc.lft.to/lastmile_qr_scan"}, "lat": 38.903859833333335, "is_disabled": 0, "lon": -77.00658716666666}, {"fusion_lat": 0.0, "type": "electric_scooter", "name": "0cc7ec0a165fb88782ee1f325a5ee198", "fusion_lon": 0.0, "bike_id": "0cc7ec0a165fb88782ee1f325a5ee198", "is_reserved": 0, "rental_uris": {"android": "https://dc.lft.to/lastmile_qr_scan", "ios": "https://dc.lft.to/lastmile_qr_scan"}, "lat": 38.8987225, "is_disabled": 0, "lon": -77.01378066666666}, {"fusion_lat": 0.0, "type": "electric_bike", "name": "7b9323d62d1912547281468026d02e28", "fusion_lon": 0.0, "bike_id": "7b9323d62d1912547281468026d02e28", "is_reserved": 0, "rental_uris": {"android": "https://dc.lft.to/lastmile_qr_scan", "ios": "https://dc.lft.to/lastmile_qr_scan"}, "lat": 38.89728, "is_disabled": 0, "lon": -77.02091733333333}, {"fusion_lat": 0.0, "type": "electric_scooter", "name": "b9d14c69856397062a124090dc8bea4e", "fusion_lon": 0.0, "bike_id": "b9d14c69856397062a124090dc8bea4e", "is_reserved": 0, "rental_uris": {"android": "https://dc.lft.to/lastmile_qr_scan", "ios": "https://dc.lft.to/lastmile_qr_scan"}, "lat": 38.885767333333334, "is_disabled": 0, "lon": -77.0174755}, {"fusion_lat": 0.0, "type": "electric_scooter", "name": "635c3d5a414dfa521a9bb8b793e6ed92", "fusion_lon": 0.0, "bike_id": "635c3d5a414dfa521a9bb8b793e6ed92", "is_reserved": 0, "rental_uris": {"android": "https://dc.lft.to/lastmile_qr_scan", "ios": "https://dc.lft.to/lastmile_qr_scan"}, "lat": 38.87072233333333, "is_disabled": 0, "lon": -76.98913033333334}, {"fusion_lat": 0.0, "type": "electric_scooter", "name": "fd5085889df94d7b79e6caf19fb073dd", "fusion_lon": 0.0, "bike_id": "fd5085889df94d7b79e6caf19fb073dd", "is_reserved": 0, "rental_uris": {"android": "https://dc.lft.to/lastmile_qr_scan", "ios": "https://dc.lft.to/lastmile_qr_scan"}, "lat": 38.90829383333333, "is_disabled": 0, "lon": -77.0434805}, {"fusion_lat": 0.0, "type": "electric_scooter", "name": "c155545e161f207dd18718aa7dda43d3", "fusion_lon": 0.0, "bike_id": "c155545e161f207dd18718aa7dda43d3", "is_reserved": 0, "rental_uris": {"android": "https://dc.lft.to/lastmile_qr_scan", "ios": "https://dc.lft.to/lastmile_qr_scan"}, "lat": 38.892255166666665, "is_disabled": 0, "lon": -77.02804866666666}, {"fusion_lat": 0.0, "type": "electric_scooter", "name": "67820eaf1f3d36115e253c8993bdb4d0", "fusion_lon": 0.0, "bike_id": "67820eaf1f3d36115e253c8993bdb4d0", "is_reserved": 0, "rental_uris": {"android": "https://dc.lft.to/lastmile_qr_scan", "ios": "https://dc.lft.to/lastmile_qr_scan"}, "lat": 38.903991500000004, "is_disabled": 0, "lon": -77.04348766666666}, {"fusion_lat": 0.0, "type": "electric_bike", "name": "7e832dce80cde300db6745db7b23e168", "fusion_lon": 0.0, "bike_id": "7e832dce80cde300db6745db7b23e168", "is_reserved": 0, "rental_uris": {"android": "https://dc.lft.to/lastmile_qr_scan", "ios": "https://dc.lft.to/lastmile_qr_scan"}, "lat": 38.9363085, "is_disabled": 0, "lon": -77.057689}, {"fusion_lat": 0.0, "type": "electric_scooter", "name": "1d4fba51e184588e9526116c43dadf31", "fusion_lon": 0.0, "bike_id": "1d4fba51e184588e9526116c43dadf31", "is_reserved": 0, "rental_uris": {"android": "https://dc.lft.to/lastmile_qr_scan", "ios": "https://dc.lft.to/lastmile_qr_scan"}, "lat": 38.909762, "is_disabled": 0, "lon": -77.03296633333333}, {"fusion_lat": 0.0, "type": "electric_scooter", "name": "e583ba8ea0719b32ca46cecbba31d1e3", "fusion_lon": 0.0, "bike_id": "e583ba8ea0719b32ca46cecbba31d1e3", "is_reserved": 0, "rental_uris": {"android": "https://dc.lft.to/lastmile_qr_scan", "ios": "https://dc.lft.to/lastmile_qr_scan"}, "lat": 38.916697666666664, "is_disabled": 0, "lon": -77.03215066666667}, {"fusion_lat": 0.0, "type": "electric_bike", "name": "e18fe54b8120af81481cb310b55a34b0", "fusion_lon": 0.0, "bike_id": "e18fe54b8120af81481cb310b55a34b0", "is_reserved": 0, "rental_uris": {"android": "https://dc.lft.to/lastmile_qr_scan", "ios": "https://dc.lft.to/lastmile_qr_scan"}, "lat": 38.905523333333335, "is_disabled": 0, "lon": -77.02930883333333}, {"fusion_lat": 0.0, "type": "electric_scooter", "name": "5cb3c9da7597ec86eb12db356dfdef7a", "fusion_lon": 0.0, "bike_id": "5cb3c9da7597ec86eb12db356dfdef7a", "is_reserved": 0, "rental_uris": {"android": "https://dc.lft.to/lastmile_qr_scan", "ios": "https://dc.lft.to/lastmile_qr_scan"}, "lat": 38.90174283333333, "is_disabled": 0, "lon": -77.02164333333333}, {"fusion_lat": 0.0, "type": "electric_scooter", "name": "4552d83e7edd8eca4e97697697ab5cf8", "fusion_lon": 0.0, "bike_id": "4552d83e7edd8eca4e97697697ab5cf8", "is_reserved": 0, "rental_uris": {"android": "https://dc.lft.to/lastmile_qr_scan", "ios": "https://dc.lft.to/lastmile_qr_scan"}, "lat": 38.899632, "is_disabled": 0, "lon": -77.033478}, {"fusion_lat": 0.0, "type": "electric_scooter", "name": "ed4d3d48fa32f15f39f8f3494ac7c76c", "fusion_lon": 0.0, "bike_id": "ed4d3d48fa32f15f39f8f3494ac7c76c", "is_reserved": 0, "rental_uris": {"android": "https://dc.lft.to/lastmile_qr_scan", "ios": "https://dc.lft.to/lastmile_qr_scan"}, "lat": 38.892199166666664, "is_disabled": 0, "lon": -77.04309816666667}, {"fusion_lat": 0.0, "type": "electric_scooter", "name": "bdf950101f9295a0f6287b7326977255", "fusion_lon": 0.0, "bike_id": "bdf950101f9295a0f6287b7326977255", "is_reserved": 0, "rental_uris": {"android": "https://dc.lft.to/lastmile_qr_scan", "ios": "https://dc.lft.to/lastmile_qr_scan"}, "lat": 38.87186833333333, "is_disabled": 0, "lon": -77.005867}, {"fusion_lat": 0.0, "type": "electric_scooter", "name": "fcf2b4dd0c988b112b3d236ddaa725fd", "fusion_lon": 0.0, "bike_id": "fcf2b4dd0c988b112b3d236ddaa725fd", "is_reserved": 0, "rental_uris": {"android": "https://dc.lft.to/lastmile_qr_scan", "ios": "https://dc.lft.to/lastmile_qr_scan"}, "lat": 38.94894683333333, "is_disabled": 0, "lon": -77.02069083333333}, {"fusion_lat": 0.0, "type": "electric_scooter", "name": "a4d613b3841c8f94ab6fce11b0ac722d", "fusion_lon": 0.0, "bike_id": "a4d613b3841c8f94ab6fce11b0ac722d", "is_reserved": 0, "rental_uris": {"android": "https://dc.lft.to/lastmile_qr_scan", "ios": "https://dc.lft.to/lastmile_qr_scan"}, "lat": 38.91257783333333, "is_disabled": 0, "lon": -77.03068716666667}, {"fusion_lat": 0.0, "type": "electric_scooter", "name": "41d35f5bd059b8008760f76b4c7f03a7", "fusion_lon": 0.0, "bike_id": "41d35f5bd059b8008760f76b4c7f03a7", "is_reserved": 0, "rental_uris": {"android": "https://dc.lft.to/lastmile_qr_scan", "ios": "https://dc.lft.to/lastmile_qr_scan"}, "lat": 38.8811505, "is_disabled": 0, "lon": -77.01668566666666}, {"fusion_lat": 0.0, "type": "electric_scooter", "name": "6cdb26e4003c24476ec7ddcba595cef2", "fusion_lon": 0.0, "bike_id": "6cdb26e4003c24476ec7ddcba595cef2", "is_reserved": 0, "rental_uris": {"android": "https://dc.lft.to/lastmile_qr_scan", "ios": "https://dc.lft.to/lastmile_qr_scan"}, "lat": 38.91105916666667, "is_disabled": 0, "lon": -77.03146366666667}, {"fusion_lat": 0.0, "type": "electric_scooter", "name": "a78f5ea31d571c430799e94df55510e1", "fusion_lon": 0.0, "bike_id": "a78f5ea31d571c430799e94df55510e1", "is_reserved": 0, "rental_uris": {"android": "https://dc.lft.to/lastmile_qr_scan", "ios": "https://dc.lft.to/lastmile_qr_scan"}, "lat": 38.907432666666665, "is_disabled": 0, "lon": -77.00269166666666}, {"fusion_lat": 0.0, "type": "electric_scooter", "name": "74eb8b9f733bba358a24a638daaf619b", "fusion_lon": 0.0, "bike_id": "74eb8b9f733bba358a24a638daaf619b", "is_reserved": 0, "rental_uris": {"android": "https://dc.lft.to/lastmile_qr_scan", "ios": "https://dc.lft.to/lastmile_qr_scan"}, "lat": 38.9167815, "is_disabled": 0, "lon": -77.02967933333333}, {"fusion_lat": 0.0, "type": "electric_scooter", "name": "e3b0c4eda1ffd70cf113c32047609b83", "fusion_lon": 0.0, "bike_id": "e3b0c4eda1ffd70cf113c32047609b83", "is_reserved": 0, "rental_uris": {"android": "https://dc.lft.to/lastmile_qr_scan", "ios": "https://dc.lft.to/lastmile_qr_scan"}, "lat": 38.89227866666667, "is_disabled": 0, "lon": -77.03105533333333}, {"fusion_lat": 0.0, "type": "electric_scooter", "name": "e59c7a750c2fd0d329750b3327d5f1df", "fusion_lon": 0.0, "bike_id": "e59c7a750c2fd0d329750b3327d5f1df", "is_reserved": 0, "rental_uris": {"android": "https://dc.lft.to/lastmile_qr_scan", "ios": "https://dc.lft.to/lastmile_qr_scan"}, "lat": 38.88551316666667, "is_disabled": 0, "lon": -77.0200085}, {"fusion_lat": 0.0, "type": "electric_scooter", "name": "ef9da628a09428a599128096c67f5259", "fusion_lon": 0.0, "bike_id": "ef9da628a09428a599128096c67f5259", "is_reserved": 0, "rental_uris": {"android": "https://dc.lft.to/lastmile_qr_scan", "ios": "https://dc.lft.to/lastmile_qr_scan"}, "lat": 38.92222133333333, "is_disabled": 0, "lon": -77.04245183333333}, {"fusion_lat": 0.0, "type": "electric_scooter", "name": "5f73da981042d3d38ab6853b5a2455e0", "fusion_lon": 0.0, "bike_id": "5f73da981042d3d38ab6853b5a2455e0", "is_reserved": 0, "rental_uris": {"android": "https://dc.lft.to/lastmile_qr_scan", "ios": "https://dc.lft.to/lastmile_qr_scan"}, "lat": 38.90867466666667, "is_disabled": 0, "lon": -77.03753583333334}, {"fusion_lat": 0.0, "type": "electric_scooter", "name": "48adaa87ef01b229d1791e3488a20f21", "fusion_lon": 0.0, "bike_id": "48adaa87ef01b229d1791e3488a20f21", "is_reserved": 0, "rental_uris": {"android": "https://dc.lft.to/lastmile_qr_scan", "ios": "https://dc.lft.to/lastmile_qr_scan"}, "lat": 38.89247016666667, "is_disabled": 0, "lon": -77.04657783333333}, {"fusion_lat": 0.0, "type": "electric_scooter", "name": "5a3a1ce1000351e21d5ed9d07787bb0b", "fusion_lon": 0.0, "bike_id": "5a3a1ce1000351e21d5ed9d07787bb0b", "is_reserved": 0, "rental_uris": {"android": "https://dc.lft.to/lastmile_qr_scan", "ios": "https://dc.lft.to/lastmile_qr_scan"}, "lat": 38.912566166666664, "is_disabled": 0, "lon": -77.0268275}, {"fusion_lat": 0.0, "type": "electric_scooter", "name": "9f6337630a7d827def46a232f6744eea", "fusion_lon": 0.0, "bike_id": "9f6337630a7d827def46a232f6744eea", "is_reserved": 0, "rental_uris": {"android": "https://dc.lft.to/lastmile_qr_scan", "ios": "https://dc.lft.to/lastmile_qr_scan"}, "lat": 38.93458483333333, "is_disabled": 0, "lon": -77.05781183333333}, {"fusion_lat": 0.0, "type": "electric_scooter", "name": "1bdea4b0ed99f122ed4f8f7a237ee0ff", "fusion_lon": 0.0, "bike_id": "1bdea4b0ed99f122ed4f8f7a237ee0ff", "is_reserved": 0, "rental_uris": {"android": "https://dc.lft.to/lastmile_qr_scan", "ios": "https://dc.lft.to/lastmile_qr_scan"}, "lat": 38.9043695, "is_disabled": 0, "lon": -77.0321165}, {"fusion_lat": 0.0, "type": "electric_scooter", "name": "7d3c5bec910718f21c2ac174e15a9ece", "fusion_lon": 0.0, "bike_id": "7d3c5bec910718f21c2ac174e15a9ece", "is_reserved": 0, "rental_uris": {"android": "https://dc.lft.to/lastmile_qr_scan", "ios": "https://dc.lft.to/lastmile_qr_scan"}, "lat": 38.918541166666664, "is_disabled": 0, "lon": -77.02558116666667}, {"fusion_lat": 0.0, "type": "electric_scooter", "name": "3a0e349205bb2707485c47254b3ea158", "fusion_lon": 0.0, "bike_id": "3a0e349205bb2707485c47254b3ea158", "is_reserved": 0, "rental_uris": {"android": "https://dc.lft.to/lastmile_qr_scan", "ios": "https://dc.lft.to/lastmile_qr_scan"}, "lat": 38.89842083333333, "is_disabled": 0, "lon": -76.94638233333333}, {"fusion_lat": 0.0, "type": "electric_scooter", "name": "fd6d3ed93e6bd09b634cf95e574b7f51", "fusion_lon": 0.0, "bike_id": "fd6d3ed93e6bd09b634cf95e574b7f51", "is_reserved": 0, "rental_uris": {"android": "https://dc.lft.to/lastmile_qr_scan", "ios": "https://dc.lft.to/lastmile_qr_scan"}, "lat": 38.880450333333336, "is_disabled": 0, "lon": -77.0199425}, {"fusion_lat": 0.0, "type": "electric_scooter", "name": "a1d8c5c739c2699aaf32d393054e853e", "fusion_lon": 0.0, "bike_id": "a1d8c5c739c2699aaf32d393054e853e", "is_reserved": 0, "rental_uris": {"android": "https://dc.lft.to/lastmile_qr_scan", "ios": "https://dc.lft.to/lastmile_qr_scan"}, "lat": 38.9077015, "is_disabled": 0, "lon": -77.06329116666667}, {"fusion_lat": 0.0, "type": "electric_scooter", "name": "7629068f4359c203e3c8b07e64b9e974", "fusion_lon": 0.0, "bike_id": "7629068f4359c203e3c8b07e64b9e974", "is_reserved": 0, "rental_uris": {"android": "https://dc.lft.to/lastmile_qr_scan", "ios": "https://dc.lft.to/lastmile_qr_scan"}, "lat": 38.90515666666667, "is_disabled": 0, "lon": -77.06424333333334}, {"fusion_lat": 0.0, "type": "electric_scooter", "name": "ac6582d2436f58d660d53d5c950f0055", "fusion_lon": 0.0, "bike_id": "ac6582d2436f58d660d53d5c950f0055", "is_reserved": 0, "rental_uris": {"android": "https://dc.lft.to/lastmile_qr_scan", "ios": "https://dc.lft.to/lastmile_qr_scan"}, "lat": 38.892191833333335, "is_disabled": 0, "lon": -77.04681933333333}, {"fusion_lat": 0.0, "type": "electric_bike", "name": "987a1ad7530cd020dd0fdfe0fe7389c3", "fusion_lon": 0.0, "bike_id": "987a1ad7530cd020dd0fdfe0fe7389c3", "is_reserved": 0, "rental_uris": {"android": "https://dc.lft.to/lastmile_qr_scan", "ios": "https://dc.lft.to/lastmile_qr_scan"}, "lat": 38.877291, "is_disabled": 0, "lon": -76.98103883333333}, {"fusion_lat": 0.0, "type": "electric_scooter", "name": "7006156c559db6436f3c907238da6733", "fusion_lon": 0.0, "bike_id": "7006156c559db6436f3c907238da6733", "is_reserved": 0, "rental_uris": {"android": "https://dc.lft.to/lastmile_qr_scan", "ios": "https://dc.lft.to/lastmile_qr_scan"}, "lat": 38.92326466666667, "is_disabled": 0, "lon": -77.01959433333333}, {"fusion_lat": 0.0, "type": "electric_scooter", "name": "272929ed8e3635100705f6d21b6ea7d3", "fusion_lon": 0.0, "bike_id": "272929ed8e3635100705f6d21b6ea7d3", "is_reserved": 0, "rental_uris": {"android": "https://dc.lft.to/lastmile_qr_scan", "ios": "https://dc.lft.to/lastmile_qr_scan"}, "lat": 38.923000333333334, "is_disabled": 0, "lon": -77.0445725}, {"fusion_lat": 0.0, "type": "electric_scooter", "name": "acf91e1983433b0de8b3265856aa6ecb", "fusion_lon": 0.0, "bike_id": "acf91e1983433b0de8b3265856aa6ecb", "is_reserved": 0, "rental_uris": {"android": "https://dc.lft.to/lastmile_qr_scan", "ios": "https://dc.lft.to/lastmile_qr_scan"}, "lat": 38.9195045, "is_disabled": 0, "lon": -77.0189585}, {"fusion_lat": 0.0, "type": "electric_scooter", "name": "5a223a09937fd2370a9e954026c7ef50", "fusion_lon": 0.0, "bike_id": "5a223a09937fd2370a9e954026c7ef50", "is_reserved": 0, "rental_uris": {"android": "https://dc.lft.to/lastmile_qr_scan", "ios": "https://dc.lft.to/lastmile_qr_scan"}, "lat": 38.920326833333334, "is_disabled": 0, "lon": -77.0121825}, {"fusion_lat": 0.0, "type": "electric_scooter", "name": "38e372690d898f4b68bb66ecabcb84a3", "fusion_lon": 0.0, "bike_id": "38e372690d898f4b68bb66ecabcb84a3", "is_reserved": 0, "rental_uris": {"android": "https://dc.lft.to/lastmile_qr_scan", "ios": "https://dc.lft.to/lastmile_qr_scan"}, "lat": 38.948975833333336, "is_disabled": 0, "lon": -77.00646983333333}, {"fusion_lat": 0.0, "type": "electric_scooter", "name": "38c1401aefe8915b68eaa95f30016e53", "fusion_lon": 0.0, "bike_id": "38c1401aefe8915b68eaa95f30016e53", "is_reserved": 0, "rental_uris": {"android": "https://dc.lft.to/lastmile_qr_scan", "ios": "https://dc.lft.to/lastmile_qr_scan"}, "lat": 38.87458083333333, "is_disabled": 0, "lon": -77.00959683333333}, {"fusion_lat": 0.0, "type": "electric_scooter", "name": "1cadafc0e4e40da8703738d67a3a3cb7", "fusion_lon": 0.0, "bike_id": "1cadafc0e4e40da8703738d67a3a3cb7", "is_reserved": 0, "rental_uris": {"android": "https://dc.lft.to/lastmile_qr_scan", "ios": "https://dc.lft.to/lastmile_qr_scan"}, "lat": 38.860593333333334, "is_disabled": 0, "lon": -76.98423616666666}, {"fusion_lat": 0.0, "type": "electric_scooter", "name": "5975233d19dfb1d90214a1d1014a46ff", "fusion_lon": 0.0, "bike_id": "5975233d19dfb1d90214a1d1014a46ff", "is_reserved": 0, "rental_uris": {"android": "https://dc.lft.to/lastmile_qr_scan", "ios": "https://dc.lft.to/lastmile_qr_scan"}, "lat": 38.89499516666667, "is_disabled": 0, "lon": -77.00947283333333}, {"fusion_lat": 0.0, "type": "electric_scooter", "name": "eb61b15fefdcc97ba47ae34e26c1c4a2", "fusion_lon": 0.0, "bike_id": "eb61b15fefdcc97ba47ae34e26c1c4a2", "is_reserved": 0, "rental_uris": {"android": "https://dc.lft.to/lastmile_qr_scan", "ios": "https://dc.lft.to/lastmile_qr_scan"}, "lat": 38.917215, "is_disabled": 0, "lon": -77.02969083333333}, {"fusion_lat": 0.0, "type": "electric_scooter", "name": "45ec7009d514f74efc3d9c3b6642363d", "fusion_lon": 0.0, "bike_id": "45ec7009d514f74efc3d9c3b6642363d", "is_reserved": 0, "rental_uris": {"android": "https://dc.lft.to/lastmile_qr_scan", "ios": "https://dc.lft.to/lastmile_qr_scan"}, "lat": 38.94180083333333, "is_disabled": 0, "lon": -77.025308}, {"fusion_lat": 0.0, "type": "electric_scooter", "name": "327167fc549b312e25158983fedabe55", "fusion_lon": 0.0, "bike_id": "327167fc549b312e25158983fedabe55", "is_reserved": 0, "rental_uris": {"android": "https://dc.lft.to/lastmile_qr_scan", "ios": "https://dc.lft.to/lastmile_qr_scan"}, "lat": 38.9078435, "is_disabled": 0, "lon": -77.03183216666666}, {"fusion_lat": 0.0, "type": "electric_scooter", "name": "01f3b4d88c17c174842d262f92e93f20", "fusion_lon": 0.0, "bike_id": "01f3b4d88c17c174842d262f92e93f20", "is_reserved": 0, "rental_uris": {"android": "https://dc.lft.to/lastmile_qr_scan", "ios": "https://dc.lft.to/lastmile_qr_scan"}, "lat": 38.908067, "is_disabled": 0, "lon": -77.0385535}, {"fusion_lat": 0.0, "type": "electric_scooter", "name": "87a0b8ea57876586c983099f293ef9c9", "fusion_lon": 0.0, "bike_id": "87a0b8ea57876586c983099f293ef9c9", "is_reserved": 0, "rental_uris": {"android": "https://dc.lft.to/lastmile_qr_scan", "ios": "https://dc.lft.to/lastmile_qr_scan"}, "lat": 38.891858666666664, "is_disabled": 0, "lon": -77.02626333333333}, {"fusion_lat": 0.0, "type": "electric_bike", "name": "d52882eea401dc3010a481d33e4a50b6", "fusion_lon": 0.0, "bike_id": "d52882eea401dc3010a481d33e4a50b6", "is_reserved": 0, "rental_uris": {"android": "https://dc.lft.to/lastmile_qr_scan", "ios": "https://dc.lft.to/lastmile_qr_scan"}, "lat": 38.889069, "is_disabled": 0, "lon": -76.94795883333333}, {"fusion_lat": 0.0, "type": "electric_scooter", "name": "b3e19e7d692380c834406f723c42eecf", "fusion_lon": 0.0, "bike_id": "b3e19e7d692380c834406f723c42eecf", "is_reserved": 0, "rental_uris": {"android": "https://dc.lft.to/lastmile_qr_scan", "ios": "https://dc.lft.to/lastmile_qr_scan"}, "lat": 38.923702, "is_disabled": 0, "lon": -77.01920816666667}, {"fusion_lat": 0.0, "type": "electric_scooter", "name": "cfb36ac75c76612dd703f48ee55cf54d", "fusion_lon": 0.0, "bike_id": "cfb36ac75c76612dd703f48ee55cf54d", "is_reserved": 0, "rental_uris": {"android": "https://dc.lft.to/lastmile_qr_scan", "ios": "https://dc.lft.to/lastmile_qr_scan"}, "lat": 38.90556316666667, "is_disabled": 0, "lon": -77.04272916666666}, {"fusion_lat": 0.0, "type": "electric_scooter", "name": "590696100cf73d2423c6097a9c24255c", "fusion_lon": 0.0, "bike_id": "590696100cf73d2423c6097a9c24255c", "is_reserved": 0, "rental_uris": {"android": "https://dc.lft.to/lastmile_qr_scan", "ios": "https://dc.lft.to/lastmile_qr_scan"}, "lat": 38.88770516666666, "is_disabled": 0, "lon": -76.955744}, {"fusion_lat": 0.0, "type": "electric_scooter", "name": "0367e9157c5c7b7cc5005cc7aba4b40e", "fusion_lon": 0.0, "bike_id": "0367e9157c5c7b7cc5005cc7aba4b40e", "is_reserved": 0, "rental_uris": {"android": "https://dc.lft.to/lastmile_qr_scan", "ios": "https://dc.lft.to/lastmile_qr_scan"}, "lat": 38.935403666666666, "is_disabled": 0, "lon": -77.05819366666667}, {"fusion_lat": 0.0, "type": "electric_scooter", "name": "4a52e2fbac9ae966fca48437918f6073", "fusion_lon": 0.0, "bike_id": "4a52e2fbac9ae966fca48437918f6073", "is_reserved": 0, "rental_uris": {"android": "https://dc.lft.to/lastmile_qr_scan", "ios": "https://dc.lft.to/lastmile_qr_scan"}, "lat": 38.90079716666666, "is_disabled": 0, "lon": -76.9936445}, {"fusion_lat": 0.0, "type": "electric_scooter", "name": "c0a372e9a1c87869c24e8754a57780bc", "fusion_lon": 0.0, "bike_id": "c0a372e9a1c87869c24e8754a57780bc", "is_reserved": 0, "rental_uris": {"android": "https://dc.lft.to/lastmile_qr_scan", "ios": "https://dc.lft.to/lastmile_qr_scan"}, "lat": 38.92568266666667, "is_disabled": 0, "lon": -77.028427}, {"fusion_lat": 0.0, "type": "electric_bike", "name": "b5fcc6f8c13c81bd4f07f300715fad35", "fusion_lon": 0.0, "bike_id": "b5fcc6f8c13c81bd4f07f300715fad35", "is_reserved": 0, "rental_uris": {"android": "https://dc.lft.to/lastmile_qr_scan", "ios": "https://dc.lft.to/lastmile_qr_scan"}, "lat": 38.81200116666667, "is_disabled": 0, "lon": -77.10833716666667}, {"fusion_lat": 0.0, "type": "electric_scooter", "name": "26d8ef0646b272f2c3b462e541c8059d", "fusion_lon": 0.0, "bike_id": "26d8ef0646b272f2c3b462e541c8059d", "is_reserved": 0, "rental_uris": {"android": "https://dc.lft.to/lastmile_qr_scan", "ios": "https://dc.lft.to/lastmile_qr_scan"}, "lat": 38.88457983333333, "is_disabled": 0, "lon": -76.92620983333333}, {"fusion_lat": 0.0, "type": "electric_scooter", "name": "c89a0e9ac8d760f66f31797f72024ccc", "fusion_lon": 0.0, "bike_id": "c89a0e9ac8d760f66f31797f72024ccc", "is_reserved": 0, "rental_uris": {"android": "https://dc.lft.to/lastmile_qr_scan", "ios": "https://dc.lft.to/lastmile_qr_scan"}, "lat": 38.897324166666664, "is_disabled": 0, "lon": -77.04366316666666}, {"fusion_lat": 0.0, "type": "electric_scooter", "name": "58523557db6f8bb7d7c2af6eb4ca3dc2", "fusion_lon": 0.0, "bike_id": "58523557db6f8bb7d7c2af6eb4ca3dc2", "is_reserved": 0, "rental_uris": {"android": "https://dc.lft.to/lastmile_qr_scan", "ios": "https://dc.lft.to/lastmile_qr_scan"}, "lat": 38.88608166666667, "is_disabled": 0, "lon": -76.99511216666667}, {"fusion_lat": 0.0, "type": "electric_bike", "name": "12bbd3ca24a1d6d2293d3f294387dbdc", "fusion_lon": 0.0, "bike_id": "12bbd3ca24a1d6d2293d3f294387dbdc", "is_reserved": 0, "rental_uris": {"android": "https://dc.lft.to/lastmile_qr_scan", "ios": "https://dc.lft.to/lastmile_qr_scan"}, "lat": 38.831584, "is_disabled": 0, "lon": -76.99543916666667}, {"fusion_lat": 0.0, "type": "electric_scooter", "name": "7e1aa15f42677268a63876ee20f26288", "fusion_lon": 0.0, "bike_id": "7e1aa15f42677268a63876ee20f26288", "is_reserved": 0, "rental_uris": {"android": "https://dc.lft.to/lastmile_qr_scan", "ios": "https://dc.lft.to/lastmile_qr_scan"}, "lat": 38.93456666666667, "is_disabled": 0, "lon": -77.02216633333333}, {"fusion_lat": 0.0, "type": "electric_scooter", "name": "38bf8e54ef8892c92dbae137f5f0a76a", "fusion_lon": 0.0, "bike_id": "38bf8e54ef8892c92dbae137f5f0a76a", "is_reserved": 0, "rental_uris": {"android": "https://dc.lft.to/lastmile_qr_scan", "ios": "https://dc.lft.to/lastmile_qr_scan"}, "lat": 38.9022295, "is_disabled": 0, "lon": -77.0335335}, {"fusion_lat": 0.0, "type": "electric_bike", "name": "19ea545fa5a34d3d6f230f1bb4422752", "fusion_lon": 0.0, "bike_id": "19ea545fa5a34d3d6f230f1bb4422752", "is_reserved": 0, "rental_uris": {"android": "https://dc.lft.to/lastmile_qr_scan", "ios": "https://dc.lft.to/lastmile_qr_scan"}, "lat": 38.962174833333336, "is_disabled": 0, "lon": -77.02621016666667}, {"fusion_lat": 0.0, "type": "electric_scooter", "name": "7e800ce7ee9b29a46096a576587e830e", "fusion_lon": 0.0, "bike_id": "7e800ce7ee9b29a46096a576587e830e", "is_reserved": 0, "rental_uris": {"android": "https://dc.lft.to/lastmile_qr_scan", "ios": "https://dc.lft.to/lastmile_qr_scan"}, "lat": 38.877949, "is_disabled": 0, "lon": -76.99413283333334}, {"fusion_lat": 0.0, "type": "electric_scooter", "name": "99c1afc491402058513708c400130d3e", "fusion_lon": 0.0, "bike_id": "99c1afc491402058513708c400130d3e", "is_reserved": 0, "rental_uris": {"android": "https://dc.lft.to/lastmile_qr_scan", "ios": "https://dc.lft.to/lastmile_qr_scan"}, "lat": 38.923600666666665, "is_disabled": 0, "lon": -77.05042716666667}, {"fusion_lat": 0.0, "type": "electric_scooter", "name": "43397f1a8bcf6b7c981d85f3860b4008", "fusion_lon": 0.0, "bike_id": "43397f1a8bcf6b7c981d85f3860b4008", "is_reserved": 0, "rental_uris": {"android": "https://dc.lft.to/lastmile_qr_scan", "ios": "https://dc.lft.to/lastmile_qr_scan"}, "lat": 38.933429333333336, "is_disabled": 0, "lon": -77.04124466666667}, {"fusion_lat": 0.0, "type": "electric_scooter", "name": "0aa66d91cb28044ff856cd8fd1be8d32", "fusion_lon": 0.0, "bike_id": "0aa66d91cb28044ff856cd8fd1be8d32", "is_reserved": 0, "rental_uris": {"android": "https://dc.lft.to/lastmile_qr_scan", "ios": "https://dc.lft.to/lastmile_qr_scan"}, "lat": 38.86569216666667, "is_disabled": 0, "lon": -76.9892475}, {"fusion_lat": 0.0, "type": "electric_scooter", "name": "5f9505fb8c820e8dd3c4d34405ce6864", "fusion_lon": 0.0, "bike_id": "5f9505fb8c820e8dd3c4d34405ce6864", "is_reserved": 0, "rental_uris": {"android": "https://dc.lft.to/lastmile_qr_scan", "ios": "https://dc.lft.to/lastmile_qr_scan"}, "lat": 38.9213925, "is_disabled": 0, "lon": -77.02873166666667}, {"fusion_lat": 0.0, "type": "electric_scooter", "name": "74a3dff645a2b4aceb10803f90783fcd", "fusion_lon": 0.0, "bike_id": "74a3dff645a2b4aceb10803f90783fcd", "is_reserved": 0, "rental_uris": {"android": "https://dc.lft.to/lastmile_qr_scan", "ios": "https://dc.lft.to/lastmile_qr_scan"}, "lat": 38.915521, "is_disabled": 0, "lon": -77.03168683333334}, {"fusion_lat": 0.0, "type": "electric_bike", "name": "938062219299cb0a62af5d0117214b77", "fusion_lon": 0.0, "bike_id": "938062219299cb0a62af5d0117214b77", "is_reserved": 0, "rental_uris": {"android": "https://dc.lft.to/lastmile_qr_scan", "ios": "https://dc.lft.to/lastmile_qr_scan"}, "lat": 38.938650333333335, "is_disabled": 0, "lon": -76.94289333333333}, {"fusion_lat": 0.0, "type": "electric_scooter", "name": "5618f388a44625d9db3a89161f9b4bf4", "fusion_lon": 0.0, "bike_id": "5618f388a44625d9db3a89161f9b4bf4", "is_reserved": 0, "rental_uris": {"android": "https://dc.lft.to/lastmile_qr_scan", "ios": "https://dc.lft.to/lastmile_qr_scan"}, "lat": 38.92337333333333, "is_disabled": 0, "lon": -77.0211875}, {"fusion_lat": 0.0, "type": "electric_bike", "name": "124415d3c1873d90a7168bc4c81a6272", "fusion_lon": 0.0, "bike_id": "124415d3c1873d90a7168bc4c81a6272", "is_reserved": 0, "rental_uris": {"android": "https://dc.lft.to/lastmile_qr_scan", "ios": "https://dc.lft.to/lastmile_qr_scan"}, "lat": 38.959552333333335, "is_disabled": 0, "lon": -77.10088933333333}, {"fusion_lat": 0.0, "type": "electric_scooter", "name": "b5c887c05d5c1891e650eb2dcb097f9b", "fusion_lon": 0.0, "bike_id": "b5c887c05d5c1891e650eb2dcb097f9b", "is_reserved": 0, "rental_uris": {"android": "https://dc.lft.to/lastmile_qr_scan", "ios": "https://dc.lft.to/lastmile_qr_scan"}, "lat": 38.90552666666667, "is_disabled": 0, "lon": -77.04694166666667}, {"fusion_lat": 0.0, "type": "electric_scooter", "name": "e5388ad0813bffef77c82356db6bb411", "fusion_lon": 0.0, "bike_id": "e5388ad0813bffef77c82356db6bb411", "is_reserved": 0, "rental_uris": {"android": "https://dc.lft.to/lastmile_qr_scan", "ios": "https://dc.lft.to/lastmile_qr_scan"}, "lat": 38.915989, "is_disabled": 0, "lon": -77.04481}, {"fusion_lat": 0.0, "type": "electric_scooter", "name": "98f1f4460a112b84665b52c698859535", "fusion_lon": 0.0, "bike_id": "98f1f4460a112b84665b52c698859535", "is_reserved": 0, "rental_uris": {"android": "https://dc.lft.to/lastmile_qr_scan", "ios": "https://dc.lft.to/lastmile_qr_scan"}, "lat": 38.90888366666667, "is_disabled": 0, "lon": -77.0040785}, {"fusion_lat": 0.0, "type": "electric_scooter", "name": "234be760e01dcaa0e3961b749b73e41a", "fusion_lon": 0.0, "bike_id": "234be760e01dcaa0e3961b749b73e41a", "is_reserved": 0, "rental_uris": {"android": "https://dc.lft.to/lastmile_qr_scan", "ios": "https://dc.lft.to/lastmile_qr_scan"}, "lat": 38.875401, "is_disabled": 0, "lon": -77.00593083333334}, {"fusion_lat": 0.0, "type": "electric_scooter", "name": "b0bf7cceca2a5a1f9e531df11147815d", "fusion_lon": 0.0, "bike_id": "b0bf7cceca2a5a1f9e531df11147815d", "is_reserved": 0, "rental_uris": {"android": "https://dc.lft.to/lastmile_qr_scan", "ios": "https://dc.lft.to/lastmile_qr_scan"}, "lat": 38.88503866666667, "is_disabled": 0, "lon": -77.01594483333334},