{"data": {"bikes": [{"rental_uris": {"ios": "https://dc.lft.to/lastmile_qr_scan", "android": "https://dc.lft.to/lastmile_qr_scan"}, "lon": -77.050424, "type": "electric_scooter", "fusion_lat": 0.0, "lat": 38.92360933333333, "name": "150a7dee29a8939c21e2b0e1fe6736d7", "fusion_lon": 0.0, "bike_id": "150a7dee29a8939c21e2b0e1fe6736d7", "is_disabled": 0, "is_reserved": 0}, {"rental_uris": {"ios": "https://dc.lft.to/lastmile_qr_scan", "android": "https://dc.lft.to/lastmile_qr_scan"}, "lon": -77.04760066666667, "type": "electric_scooter", "fusion_lat": 0.0, "lat": 38.91242, "name": "6afea0753ef9fc1c60d1db6a9214ff83", "fusion_lon": 0.0, "bike_id": "6afea0753ef9fc1c60d1db6a9214ff83", "is_disabled": 0, "is_reserved": 0}, {"rental_uris": {"ios": "https://dc.lft.to/lastmile_qr_scan", "android": "https://dc.lft.to/lastmile_qr_scan"}, "lon": -77.05341083333333, "type": "electric_scooter", "fusion_lat": 0.0, "lat": 38.90019016666667, "name": "f879bc3a80cf65722453ab30ebfea3ef", "fusion_lon": 0.0, "bike_id": "f879bc3a80cf65722453ab30ebfea3ef", "is_disabled": 0, "is_reserved": 0}, {"rental_uris": {"ios": "https://dc.lft.to/lastmile_qr_scan", "android": "https://dc.lft.to/lastmile_qr_scan"}, "lon": -77.00793583333333, "type": "electric_bike", "fusion_lat": 0.0, "lat": 38.926942, "name": "da21fdd4b4911455aa84aba3677fb352", "fusion_lon": 0.0, "bike_id": "da21fdd4b4911455aa84aba3677fb352", "is_disabled": 0, "is_reserved": 0}, {"rental_uris": {"ios": "https://dc.lft.to/lastmile_qr_scan", "android": "https://dc.lft.to/lastmile_qr_scan"}, "lon": -77.03770783333333, "type": "electric_scooter", "fusion_lat": 0.0, "lat": 38.920124333333334, "name": "c8ed4b1dbe2fa032290f717facea8e7a", "fusion_lon": 0.0, "bike_id": "c8ed4b1dbe2fa032290f717facea8e7a", "is_disabled": 0, "is_reserved": 0}, {"rental_uris": {"ios": "https://dc.lft.to/lastmile_qr_scan", "android": "https://dc.lft.to/lastmile_qr_scan"}, "lon": -77.3609165, "type": "electric_bike", "fusion_lat": 0.0, "lat": 38.9395355, "name": "6d73c1779d5dea82cf67a3c1c24319e5", "fusion_lon": 0.0, "bike_id": "6d73c1779d5dea82cf67a3c1c24319e5", "is_disabled": 0, "is_reserved": 0}, {"rental_uris": {"ios": "https://dc.lft.to/lastmile_qr_scan", "android": "https://dc.lft.to/lastmile_qr_scan"}, "lon": -77.0195205, "type": "electric_scooter", "fusion_lat": 0.0, "lat": 38.887413333333335, "name": "d7f021e1f6d683f52f011c90e8bb1047", "fusion_lon": 0.0, "bike_id": "d7f021e1f6d683f52f011c90e8bb1047", "is_disabled": 0, "is_reserved": 0}, {"rental_uris": {"ios": "https://dc.lft.to/lastmile_qr_scan", "android": "https://dc.lft.to/lastmile_qr_scan"}, "lon": -76.97987433333333, "type": "electric_bike", "fusion_lat": 0.0, "lat": 38.8775445, "name": "087206ed0a7b9dcf313e24c5c8bfb704", "fusion_lon": 0.0, "bike_id": "087206ed0a7b9dcf313e24c5c8bfb704", "is_disabled": 0, "is_reserved": 0}, {"rental_uris": {"ios": "https://dc.lft.to/lastmile_qr_scan", "android": "https://dc.lft.to/lastmile_qr_scan"}, "lon": -77.022038, "type": "electric_scooter", "fusion_lat": 0.0, "lat": 38.90317683333333, "name": "1b86dc7f0cec6c04086feb56b0fe8a53", "fusion_lon": 0.0, "bike_id": "1b86dc7f0cec6c04086feb56b0fe8a53", "is_disabled": 0, "is_reserved": 0}, {"rental_uris": {"ios": "https://dc.lft.to/lastmile_qr_scan", "android": "https://dc.lft.to/lastmile_qr_scan"}, "lon": -76.92533966666667, "type": "electric_bike", "fusion_lat": 0.0, "lat": 38.95929916666667, "name": "103c196a7b8cee9abeee3a1a83697de2", "fusion_lon": 0.0, "bike_id": "103c196a7b8cee9abeee3a1a83697de2", "is_disabled": 0, "is_reserved": 0}, {"rental_uris": {"ios": "https://dc.lft.to/lastmile_qr_scan", "android": "https://dc.lft.to/lastmile_qr_scan"}, "lon": -77.06174216666666, "type": "electric_scooter", "fusion_lat": 0.0, "lat": 38.9052855, "name": "329aa2a25b9c3909e8f9260168c97e28", "fusion_lon": 0.0, "bike_id": "329aa2a25b9c3909e8f9260168c97e28", "is_disabled": 0, "is_reserved": 0}, {"rental_uris": {"ios": "https://dc.lft.to/lastmile_qr_scan", "android": "https://dc.lft.to/lastmile_qr_scan"}, "lon": -77.02070883333333, "type": "electric_scooter", "fusion_lat": 0.0, "lat": 38.915629, "name": "d5f042d864f8f2f0acd733d96737e40c", "fusion_lon": 0.0, "bike_id": "d5f042d864f8f2f0acd733d96737e40c", "is_disabled": 0, "is_reserved": 0}, {"rental_uris": {"ios": "https://dc.lft.to/lastmile_qr_scan", "android": "https://dc.lft.to/lastmile_qr_scan"}, "lon": -77.0337705, "type": "electric_scooter", "fusion_lat": 0.0, "lat": 38.8993665, "name": "757c620e43fd1a7dde7e87c79d6e24e7", "fusion_lon": 0.0, "bike_id": "757c620e43fd1a7dde7e87c79d6e24e7", "is_disabled": 0, "is_reserved": 0}, {"rental_uris": {"ios": "https://dc.lft.to/lastmile_qr_scan", "android": "https://dc.lft.to/lastmile_qr_scan"}, "lon": -77.0218725, "type": "electric_scooter", "fusion_lat": 0.0, "lat": 38.898421666666664, "name": "3fd51f77e58f87d37c7f97ee9669ba56", "fusion_lon": 0.0, "bike_id": "3fd51f77e58f87d37c7f97ee9669ba56", "is_disabled": 0, "is_reserved": 0}, {"rental_uris": {"ios": "https://dc.lft.to/lastmile_qr_scan", "android": "https://dc.lft.to/lastmile_qr_scan"}, "lon": -77.06271633333333, "type": "electric_scooter", "fusion_lat": 0.0, "lat": 38.9049885, "name": "caed580525419e76e2a28e137508a022", "fusion_lon": 0.0, "bike_id": "caed580525419e76e2a28e137508a022", "is_disabled": 0, "is_reserved": 0}, {"rental_uris": {"ios": "https://dc.lft.to/lastmile_qr_scan", "android": "https://dc.lft.to/lastmile_qr_scan"}, "lon": -77.04673083333333, "type": "electric_scooter", "fusion_lat": 0.0, "lat": 38.89264766666667, "name": "8994b435968d40ecaac53a1fd54619ce", "fusion_lon": 0.0, "bike_id": "8994b435968d40ecaac53a1fd54619ce", "is_disabled": 0, "is_reserved": 0}, {"rental_uris": {"ios": "https://dc.lft.to/lastmile_qr_scan", "android": "https://dc.lft.to/lastmile_qr_scan"}, "lon": -77.0305005, "type": "electric_scooter", "fusion_lat": 0.0, "lat": 38.8983415, "name": "62aad24c69a845009678fa30ef8f3d83", "fusion_lon": 0.0, "bike_id": "62aad24c69a845009678fa30ef8f3d83", "is_disabled": 0, "is_reserved": 0}, {"rental_uris": {"ios": "https://dc.lft.to/lastmile_qr_scan", "android": "https://dc.lft.to/lastmile_qr_scan"}, "lon": -77.0221735, "type": "electric_bike", "fusion_lat": 0.0, "lat": 38.92253433333333, "name": "af545a345a2c3a35cf46a7795590c1d5", "fusion_lon": 0.0, "bike_id": "af545a345a2c3a35cf46a7795590c1d5", "is_disabled": 0, "is_reserved": 0}, {"rental_uris": {"ios": "https://dc.lft.to/lastmile_qr_scan", "android": "https://dc.lft.to/lastmile_qr_scan"}, "lon": -77.02310333333334, "type": "electric_scooter", "fusion_lat": 0.0, "lat": 38.88183516666667, "name": "3a5791caccb01195b9779004d3e2a07c", "fusion_lon": 0.0, "bike_id": "3a5791caccb01195b9779004d3e2a07c", "is_disabled": 0, "is_reserved": 0}, {"rental_uris": {"ios": "https://dc.lft.to/lastmile_qr_scan", "android": "https://dc.lft.to/lastmile_qr_scan"}, "lon": -77.0442245, "type": "electric_scooter", "fusion_lat": 0.0, "lat": 38.919824166666665, "name": "a55ddafeb19cb888669d405ae8142888", "fusion_lon": 0.0, "bike_id": "a55ddafeb19cb888669d405ae8142888", "is_disabled": 0, "is_reserved": 0}, {"rental_uris": {"ios": "https://dc.lft.to/lastmile_qr_scan", "android": "https://dc.lft.to/lastmile_qr_scan"}, "lon": -77.01174966666666, "type": "electric_bike", "fusion_lat": 0.0, "lat": 38.872304666666665, "name": "46a86fcc9e87b33d270b36caa352ea79", "fusion_lon": 0.0, "bike_id": "46a86fcc9e87b33d270b36caa352ea79", "is_disabled": 0, "is_reserved": 0}, {"rental_uris": {"ios": "https://dc.lft.to/lastmile_qr_scan", "android": "https://dc.lft.to/lastmile_qr_scan"}, "lon": -77.03163466666666, "type": "electric_scooter", "fusion_lat": 0.0, "lat": 38.88335983333333, "name": "2b1bbb27c54fc3819e807e723f63403f", "fusion_lon": 0.0, "bike_id": "2b1bbb27c54fc3819e807e723f63403f", "is_disabled": 0, "is_reserved": 0}, {"rental_uris": {"ios": "https://dc.lft.to/lastmile_qr_scan", "android": "https://dc.lft.to/lastmile_qr_scan"}, "lon": -76.97315483333334, "type": "electric_bike", "fusion_lat": 0.0, "lat": 38.91765683333333, "name": "3e2afbc75766bb6f74885e04add7f58c", "fusion_lon": 0.0, "bike_id": "3e2afbc75766bb6f74885e04add7f58c", "is_disabled": 0, "is_reserved": 0}, {"rental_uris": {"ios": "https://dc.lft.to/lastmile_qr_scan", "android": "https://dc.lft.to/lastmile_qr_scan"}, "lon": -76.98898166666666, "type": "electric_scooter", "fusion_lat": 0.0, "lat": 38.86695733333333, "name": "3dbf5c4cc21039c9d82c0ee1923c6d1c", "fusion_lon": 0.0, "bike_id": "3dbf5c4cc21039c9d82c0ee1923c6d1c", "is_disabled": 0, "is_reserved": 0}, {"rental_uris": {"ios": "https://dc.lft.to/lastmile_qr_scan", "android": "https://dc.lft.to/lastmile_qr_scan"}, "lon": -77.04863283333333, "type": "electric_scooter", "fusion_lat": 0.0, "lat": 38.9084865, "name": "2b30c43c251c0d4067d1939852818211", "fusion_lon": 0.0, "bike_id": "2b30c43c251c0d4067d1939852818211", "is_disabled": 0, "is_reserved": 0}, {"rental_uris": {"ios": "https://dc.lft.to/lastmile_qr_scan", "android": "https://dc.lft.to/lastmile_qr_scan"}, "lon": -77.05704883333334, "type": "electric_scooter", "fusion_lat": 0.0, "lat": 38.905382, "name": "94211aeee73a5f5977562347db2e352f", "fusion_lon": 0.0, "bike_id": "94211aeee73a5f5977562347db2e352f", "is_disabled": 0, "is_reserved": 0}, {"rental_uris": {"ios": "https://dc.lft.to/lastmile_qr_scan", "android": "https://dc.lft.to/lastmile_qr_scan"}, "lon": -76.9535585, "type": "electric_bike", "fusion_lat": 0.0, "lat": 38.93951166666667, "name": "562cd546173e5b07e4fba9673fd7d1a4", "fusion_lon": 0.0, "bike_id": "562cd546173e5b07e4fba9673fd7d1a4", "is_disabled": 0, "is_reserved": 0}, {"rental_uris": {"ios": "https://dc.lft.to/lastmile_qr_scan", "android": "https://dc.lft.to/lastmile_qr_scan"}, "lon": -76.98702916666667, "type": "electric_scooter", "fusion_lat": 0.0, "lat": 38.86535816666667, "name": "0d303de7250fa3480ab7c1dfd1c93aff", "fusion_lon": 0.0, "bike_id": "0d303de7250fa3480ab7c1dfd1c93aff", "is_disabled": 0, "is_reserved": 0}, {"rental_uris": {"ios": "https://dc.lft.to/lastmile_qr_scan", "android": "https://dc.lft.to/lastmile_qr_scan"}, "lon": -77.02127333333334, "type": "electric_scooter", "fusion_lat": 0.0, "lat": 38.9160985, "name": "fee745513995ecee8147a60ef5fce1f2", "fusion_lon": 0.0, "bike_id": "fee745513995ecee8147a60ef5fce1f2", "is_disabled": 0, "is_reserved": 0}, {"rental_uris": {"ios": "https://dc.lft.to/lastmile_qr_scan", "android": "https://dc.lft.to/lastmile_qr_scan"}, "lon": -77.17846166666666, "type": "electric_bike", "fusion_lat": 0.0, "lat": 39.088552166666666, "name": "7be6a3d94bb2db08a0d2d9114ae92f9b", "fusion_lon": 0.0, "bike_id": "7be6a3d94bb2db08a0d2d9114ae92f9b", "is_disabled": 0, "is_reserved": 0}, {"rental_uris": {"ios": "https://dc.lft.to/lastmile_qr_scan", "android": "https://dc.lft.to/lastmile_qr_scan"}, "lon": -76.98714283333334, "type": "electric_scooter", "fusion_lat": 0.0, "lat": 38.902660166666664, "name": "287544ed26b14cbbfe0a5e60792d3877", "fusion_lon": 0.0, "bike_id": "287544ed26b14cbbfe0a5e60792d3877", "is_disabled": 0, "is_reserved": 0}, {"rental_uris": {"ios": "https://dc.lft.to/lastmile_qr_scan", "android": "https://dc.lft.to/lastmile_qr_scan"}, "lon": -77.0482105, "type": "electric_scooter", "fusion_lat": 0.0, "lat": 38.9133245, "name": "2be0afeaf93d90b2f6ca762b7d47eaba", "fusion_lon": 0.0, "bike_id": "2be0afeaf93d90b2f6ca762b7d47eaba", "is_disabled": 0, "is_reserved": 0}, {"rental_uris": {"ios": "https://dc.lft.to/lastmile_qr_scan", "android": "https://dc.lft.to/lastmile_qr_scan"}, "lon": -77.082019, "type": "electric_scooter", "fusion_lat": 0.0, "lat": 38.949265833333335, "name": "ec38b4dd1aa8f5dc0380181a0e959618", "fusion_lon": 0.0, "bike_id": "ec38b4dd1aa8f5dc0380181a0e959618", "is_disabled": 0, "is_reserved": 0}, {"rental_uris": {"ios": "https://dc.lft.to/lastmile_qr_scan", "android": "https://dc.lft.to/lastmile_qr_scan"}, "lon": -76.99949216666667, "type": "electric_scooter", "fusion_lat": 0.0, "lat": 38.90865933333333, "name": "e32b333e02f2a1eaf211b741d1479ab0", "fusion_lon": 0.0, "bike_id": "e32b333e02f2a1eaf211b741d1479ab0", "is_disabled": 0, "is_reserved": 0}, {"rental_uris": {"ios": "https://dc.lft.to/lastmile_qr_scan", "android": "https://dc.lft.to/lastmile_qr_scan"}, "lon": -77.01099833333333, "type": "electric_bike", "fusion_lat": 0.0, "lat": 38.873004333333334, "name": "bb6c21dde4d89eed49dd8293753e878a", "fusion_lon": 0.0, "bike_id": "bb6c21dde4d89eed49dd8293753e878a", "is_disabled": 0, "is_reserved": 0}, {"rental_uris": {"ios": "https://dc.lft.to/lastmile_qr_scan", "android": "https://dc.lft.to/lastmile_qr_scan"}, "lon": -77.0226695, "type": "electric_scooter", "fusion_lat": 0.0, "lat": 38.924132, "name": "daa669c5dad6b3629d0d530590288139", "fusion_lon": 0.0, "bike_id": "daa669c5dad6b3629d0d530590288139", "is_disabled": 0, "is_reserved": 0}, {"rental_uris": {"ios": "https://dc.lft.to/lastmile_qr_scan", "android": "https://dc.lft.to/lastmile_qr_scan"}, "lon": -77.02179233333334, "type": "electric_scooter", "fusion_lat": 0.0, "lat": 38.91360733333333, "name": "70106b353a9a8b76186d350bb65ac169", "fusion_lon": 0.0, "bike_id": "70106b353a9a8b76186d350bb65ac169", "is_disabled": 0, "is_reserved": 0}, {"rental_uris": {"ios": "https://dc.lft.to/lastmile_qr_scan", "android": "https://dc.lft.to/lastmile_qr_scan"}, "lon": -77.03816916666666, "type": "electric_scooter", "fusion_lat": 0.0, "lat": 38.925013, "name": "9ed0aa55aa7366cb603a01d17be17514", "fusion_lon": 0.0, "bike_id": "9ed0aa55aa7366cb603a01d17be17514", "is_disabled": 0, "is_reserved": 0}, {"rental_uris": {"ios": "https://dc.lft.to/lastmile_qr_scan", "android": "https://dc.lft.to/lastmile_qr_scan"}, "lon": -77.04182416666667, "type": "electric_scooter", "fusion_lat": 0.0, "lat": 38.91958483333333, "name": "7251d8ebb336338779283067bb2d5b8f", "fusion_lon": 0.0, "bike_id": "7251d8ebb336338779283067bb2d5b8f", "is_disabled": 0, "is_reserved": 0}, {"rental_uris": {"ios": "https://dc.lft.to/lastmile_qr_scan", "android": "https://dc.lft.to/lastmile_qr_scan"}, "lon": -76.90814233333333, "type": "electric_bike", "fusion_lat": 0.0, "lat": 38.99456033333333, "name": "c605c2db790554761eb0e6ee4a416641", "fusion_lon": 0.0, "bike_id": "c605c2db790554761eb0e6ee4a416641", "is_disabled": 0, "is_reserved": 0}, {"rental_uris": {"ios": "https://dc.lft.to/lastmile_qr_scan", "android": "https://dc.lft.to/lastmile_qr_scan"}, "lon": -77.038382, "type": "electric_scooter", "fusion_lat": 0.0, "lat": 38.931065, "name": "b1cd5256bcd9d41b26eec884c48b76df", "fusion_lon": 0.0, "bike_id": "b1cd5256bcd9d41b26eec884c48b76df", "is_disabled": 0, "is_reserved": 0}, {"rental_uris": {"ios": "https://dc.lft.to/lastmile_qr_scan", "android": "https://dc.lft.to/lastmile_qr_scan"}, "lon": -77.00509833333334, "type": "electric_scooter", "fusion_lat": 0.0, "lat": 38.905539, "name": "c59563915b926bc11adef40081e32c50", "fusion_lon": 0.0, "bike_id": "c59563915b926bc11adef40081e32c50", "is_disabled": 0, "is_reserved": 0}, {"rental_uris": {"ios": "https://dc.lft.to/lastmile_qr_scan", "android": "https://dc.lft.to/lastmile_qr_scan"}, "lon": -77.01387166666666, "type": "electric_scooter", "fusion_lat": 0.0, "lat": 38.97016216666667, "name": "5fa1e06e382d3720e6bf9d61e1bf3c97", "fusion_lon": 0.0, "bike_id": "5fa1e06e382d3720e6bf9d61e1bf3c97", "is_disabled": 0, "is_reserved": 0}, {"rental_uris": {"ios": "https://dc.lft.to/lastmile_qr_scan", "android": "https://dc.lft.to/lastmile_qr_scan"}, "lon": -76.98739316666666, "type": "electric_bike", "fusion_lat": 0.0, "lat": 38.8579085, "name": "d26a79c23b1d8414fd42cdb187db91f4", "fusion_lon": 0.0, "bike_id": "d26a79c23b1d8414fd42cdb187db91f4", "is_disabled": 0, "is_reserved": 0}, {"rental_uris": {"ios": "https://dc.lft.to/lastmile_qr_scan", "android": "https://dc.lft.to/lastmile_qr_scan"}, "lon": -77.02044016666666, "type": "electric_scooter", "fusion_lat": 0.0, "lat": 38.91557066666667, "name": "4032ce74c6c3e49c8cba13d43405197a", "fusion_lon": 0.0, "bike_id": "4032ce74c6c3e49c8cba13d43405197a", "is_disabled": 0, "is_reserved": 0}, {"rental_uris": {"ios": "https://dc.lft.to/lastmile_qr_scan", "android": "https://dc.lft.to/lastmile_qr_scan"}, "lon": -77.03882166666666, "type": "electric_scooter", "fusion_lat": 0.0, "lat": 38.9052005, "name": "39f76e74a3ccb92b6f6d1230559ca154", "fusion_lon": 0.0, "bike_id": "39f76e74a3ccb92b6f6d1230559ca154", "is_disabled": 0, "is_reserved": 0}, {"rental_uris": {"ios": "https://dc.lft.to/lastmile_qr_scan", "android": "https://dc.lft.to/lastmile_qr_scan"}, "lon": -77.03177916666667, "type": "electric_scooter", "fusion_lat": 0.0, "lat": 38.913329166666664, "name": "1648817f672466c8e606d3aebe7aedab", "fusion_lon": 0.0, "bike_id": "1648817f672466c8e606d3aebe7aedab", "is_disabled": 0, "is_reserved": 0}, {"rental_uris": {"ios": "https://dc.lft.to/lastmile_qr_scan", "android": "https://dc.lft.to/lastmile_qr_scan"}, "lon": -77.00563616666666, "type": "electric_bike", "fusion_lat": 0.0, "lat": 38.88021466666667, "name": "9f61ddf6dd64228e5ebe77f375c45bc9", "fusion_lon": 0.0, "bike_id": "9f61ddf6dd64228e5ebe77f375c45bc9", "is_disabled": 0, "is_reserved": 0}, {"rental_uris": {"ios": "https://dc.lft.to/lastmile_qr_scan", "android": "https://dc.lft.to/lastmile_qr_scan"}, "lon": -77.02714333333333, "type": "electric_scooter", "fusion_lat": 0.0, "lat": 38.91807766666667, "name": "672f6c2ae22f3a77734658073c3db01a", "fusion_lon": 0.0, "bike_id": "672f6c2ae22f3a77734658073c3db01a", "is_disabled": 0, "is_reserved": 0}, {"rental_uris": {"ios": "https://dc.lft.to/lastmile_qr_scan", "android": "https://dc.lft.to/lastmile_qr_scan"}, "lon": -76.98493466666666, "type": "electric_scooter", "fusion_lat": 0.0, "lat": 38.86045033333333, "name": "99b992241986bd7c42dd1b74f8bc6c8d", "fusion_lon": 0.0, "bike_id": "99b992241986bd7c42dd1b74f8bc6c8d", "is_disabled": 0, "is_reserved": 0}, {"rental_uris": {"ios": "https://dc.lft.to/lastmile_qr_scan", "android": "https://dc.lft.to/lastmile_qr_scan"}, "lon": -77.02714133333333, "type": "electric_scooter", "fusion_lat": 0.0, "lat": 38.918133833333336, "name": "477143fdcc480419c8382e51d804b4f1", "fusion_lon": 0.0, "bike_id": "477143fdcc480419c8382e51d804b4f1", "is_disabled": 0, "is_reserved": 0}, {"rental_uris": {"ios": "https://dc.lft.to/lastmile_qr_scan", "android": "https://dc.lft.to/lastmile_qr_scan"}, "lon": -76.97889083333334, "type": "electric_scooter", "fusion_lat": 0.0, "lat": 38.90418366666667, "name": "6f4ca013406a7671311d0a8139b8b232", "fusion_lon": 0.0, "bike_id": "6f4ca013406a7671311d0a8139b8b232", "is_disabled": 0, "is_reserved": 0}, {"rental_uris": {"ios": "https://dc.lft.to/lastmile_qr_scan", "android": "https://dc.lft.to/lastmile_qr_scan"}, "lon": -77.10087433333334, "type": "electric_bike", "fusion_lat": 0.0, "lat": 38.95956266666666, "name": "62ea587aa0e33950093e2b18b9297a19", "fusion_lon": 0.0, "bike_id": "62ea587aa0e33950093e2b18b9297a19", "is_disabled": 0, "is_reserved": 0}, {"rental_uris": {"ios": "https://dc.lft.to/lastmile_qr_scan", "android": "https://dc.lft.to/lastmile_qr_scan"}, "lon": -77.04540433333334, "type": "electric_scooter", "fusion_lat": 0.0, "lat": 38.91324616666667, "name": "f830581cd2df78ed9d679da4c7ea552b", "fusion_lon": 0.0, "bike_id": "f830581cd2df78ed9d679da4c7ea552b", "is_disabled": 0, "is_reserved": 0}, {"rental_uris": {"ios": "https://dc.lft.to/lastmile_qr_scan", "android": "https://dc.lft.to/lastmile_qr_scan"}, "lon": -77.03702966666667, "type": "electric_scooter", "fusion_lat": 0.0, "lat": 38.928296833333334, "name": "932175f2edb671fe96527a7bb622a6bc", "fusion_lon": 0.0, "bike_id": "932175f2edb671fe96527a7bb622a6bc", "is_disabled": 0, "is_reserved": 0}, {"rental_uris": {"ios": "https://dc.lft.to/lastmile_qr_scan", "android": "https://dc.lft.to/lastmile_qr_scan"}, "lon": -76.996016, "type": "electric_scooter", "fusion_lat": 0.0, "lat": 38.84540833333333, "name": "8ee4e40a00c69188012a81fc3de08647", "fusion_lon": 0.0, "bike_id": "8ee4e40a00c69188012a81fc3de08647", "is_disabled": 0, "is_reserved": 0}, {"rental_uris": {"ios": "https://dc.lft.to/lastmile_qr_scan", "android": "https://dc.lft.to/lastmile_qr_scan"}, "lon": -77.01530466666667, "type": "electric_scooter", "fusion_lat": 0.0, "lat": 38.90198816666667, "name": "b4a382bec314bd51d4f61d6e4a9c37c6", "fusion_lon": 0.0, "bike_id": "b4a382bec314bd51d4f61d6e4a9c37c6", "is_disabled": 0, "is_reserved": 0}, {"rental_uris": {"ios": "https://dc.lft.to/lastmile_qr_scan", "android": "https://dc.lft.to/lastmile_qr_scan"}, "lon": -77.12902183333334, "type": "electric_bike", "fusion_lat": 0.0, "lat": 38.86376966666667, "name": "d9940aa3a999dfc9c0b41a3094a789ae", "fusion_lon": 0.0, "bike_id": "d9940aa3a999dfc9c0b41a3094a789ae", "is_disabled": 0, "is_reserved": 0}, {"rental_uris": {"ios": "https://dc.lft.to/lastmile_qr_scan", "android": "https://dc.lft.to/lastmile_qr_scan"}, "lon": -77.06762866666666, "type": "electric_bike", "fusion_lat": 0.0, "lat": 38.91545833333333, "name": "1854958dac0168284bb4abbfa3e696ad", "fusion_lon": 0.0, "bike_id": "1854958dac0168284bb4abbfa3e696ad", "is_disabled": 0, "is_reserved": 0}, {"rental_uris": {"ios": "https://dc.lft.to/lastmile_qr_scan", "android": "https://dc.lft.to/lastmile_qr_scan"}, "lon": -77.03174833333334, "type": "electric_scooter", "fusion_lat": 0.0, "lat": 38.88733633333333, "name": "de3d9b8788cae91c2c153a6fb36b63f9", "fusion_lon": 0.0, "bike_id": "de3d9b8788cae91c2c153a6fb36b63f9", "is_disabled": 0, "is_reserved": 0}, {"rental_uris": {"ios": "https://dc.lft.to/lastmile_qr_scan", "android": "https://dc.lft.to/lastmile_qr_scan"}, "lon": -77.03223166666666, "type": "electric_scooter", "fusion_lat": 0.0, "lat": 38.9267035, "name": "72c0491132acdfc1c4917882e3d7b3d4", "fusion_lon": 0.0, "bike_id": "72c0491132acdfc1c4917882e3d7b3d4", "is_disabled": 0, "is_reserved": 0}, {"rental_uris": {"ios": "https://dc.lft.to/lastmile_qr_scan", "android": "https://dc.lft.to/lastmile_qr_scan"}, "lon": -76.9895825, "type": "electric_scooter", "fusion_lat": 0.0, "lat": 38.900236666666665, "name": "12b3fb70fd16ff78b2299f32d749c1a4", "fusion_lon": 0.0, "bike_id": "12b3fb70fd16ff78b2299f32d749c1a4", "is_disabled": 0, "is_reserved": 0}, {"rental_uris": {"ios": "https://dc.lft.to/lastmile_qr_scan", "android": "https://dc.lft.to/lastmile_qr_scan"}, "lon": -77.02437966666666, "type": "electric_scooter", "fusion_lat": 0.0, "lat": 38.93720733333333, "name": "842ea0dcd8486595a525c2a0fc505d70", "fusion_lon": 0.0, "bike_id": "842ea0dcd8486595a525c2a0fc505d70", "is_disabled": 0, "is_reserved": 0}, {"rental_uris": {"ios": "https://dc.lft.to/lastmile_qr_scan", "android": "https://dc.lft.to/lastmile_qr_scan"}, "lon": -76.989956, "type": "electric_scooter", "fusion_lat": 0.0, "lat": 38.903895166666665, "name": "af6ce49b0adc90cd96fda13ea1d23ae3", "fusion_lon": 0.0, "bike_id": "af6ce49b0adc90cd96fda13ea1d23ae3", "is_disabled": 0, "is_reserved": 0}, {"rental_uris": {"ios": "https://dc.lft.to/lastmile_qr_scan", "android": "https://dc.lft.to/lastmile_qr_scan"}, "lon": -77.01013216666666, "type": "electric_scooter", "fusion_lat": 0.0, "lat": 38.91802033333333, "name": "3c57fe4bfc81e3f3efd68348eb08ce39", "fusion_lon": 0.0, "bike_id": "3c57fe4bfc81e3f3efd68348eb08ce39", "is_disabled": 0, "is_reserved": 0}, {"rental_uris": {"ios": "https://dc.lft.to/lastmile_qr_scan", "android": "https://dc.lft.to/lastmile_qr_scan"}, "lon": -77.05406183333334, "type": "electric_scooter", "fusion_lat": 0.0, "lat": 38.901588, "name": "cf7ee08de589d5764e01211ed6fcfffa", "fusion_lon": 0.0, "bike_id": "cf7ee08de589d5764e01211ed6fcfffa", "is_disabled": 0, "is_reserved": 0}, {"rental_uris": {"ios": "https://dc.lft.to/lastmile_qr_scan", "android": "https://dc.lft.to/lastmile_qr_scan"}, "lon": -77.01980466666667, "type": "electric_scooter", "fusion_lat": 0.0, "lat": 38.89752566666667, "name": "5040faeaa588cd2bcfcd0d476eecd039", "fusion_lon": 0.0, "bike_id": "5040faeaa588cd2bcfcd0d476eecd039", "is_disabled": 0, "is_reserved": 0}, {"rental_uris": {"ios": "https://dc.lft.to/lastmile_qr_scan", "android": "https://dc.lft.to/lastmile_qr_scan"}, "lon": -77.023821, "type": "electric_scooter", "fusion_lat": 0.0, "lat": 38.89611033333333, "name": "da5469fecbce59cea26a49a97082fc4f", "fusion_lon": 0.0, "bike_id": "da5469fecbce59cea26a49a97082fc4f", "is_disabled": 0, "is_reserved": 0}, {"rental_uris": {"ios": "https://dc.lft.to/lastmile_qr_scan", "android": "https://dc.lft.to/lastmile_qr_scan"}, "lon": -76.94917033333333, "type": "electric_scooter", "fusion_lat": 0.0, "lat": 38.895279, "name": "ce4c436a8412e195a318e05587e30733", "fusion_lon": 0.0, "bike_id": "ce4c436a8412e195a318e05587e30733", "is_disabled": 0, "is_reserved": 0}, {"rental_uris": {"ios": "https://dc.lft.to/lastmile_qr_scan", "android": "https://dc.lft.to/lastmile_qr_scan"}, "lon": -76.965041, "type": "electric_scooter", "fusion_lat": 0.0, "lat": 38.876448, "name": "e1a6b0124dd866056af721a83cdc959e", "fusion_lon": 0.0, "bike_id": "e1a6b0124dd866056af721a83cdc959e", "is_disabled": 0, "is_reserved": 0}, {"rental_uris": {"ios": "https://dc.lft.to/lastmile_qr_scan", "android": "https://dc.lft.to/lastmile_qr_scan"}, "lon": -77.04000816666667, "type": "electric_scooter", "fusion_lat": 0.0, "lat": 38.896260166666664, "name": "60426d5c24fda760affe963f03eafad2", "fusion_lon": 0.0, "bike_id": "60426d5c24fda760affe963f03eafad2", "is_disabled": 0, "is_reserved": 0}, {"rental_uris": {"ios": "https://dc.lft.to/lastmile_qr_scan", "android": "https://dc.lft.to/lastmile_qr_scan"}, "lon": -77.15265633333334, "type": "electric_bike", "fusion_lat": 0.0, "lat": 39.10564983333333, "name": "d243d0a505ac4c24e473b51ba005adf5", "fusion_lon": 0.0, "bike_id": "d243d0a505ac4c24e473b51ba005adf5", "is_disabled": 0, "is_reserved": 0}, {"rental_uris": {"ios": "https://dc.lft.to/lastmile_qr_scan", "android": "https://dc.lft.to/lastmile_qr_scan"}, "lon": -76.93173783333333, "type": "electric_scooter", "fusion_lat": 0.0, "lat": 38.89881316666666, "name": "7bdc179a48f898cff9768a7333522844", "fusion_lon": 0.0, "bike_id": "7bdc179a48f898cff9768a7333522844", "is_disabled": 0, "is_reserved": 0}, {"rental_uris": {"ios": "https://dc.lft.to/lastmile_qr_scan", "android": "https://dc.lft.to/lastmile_qr_scan"}, "lon": -77.16230366666667, "type": "electric_bike", "fusion_lat": 0.0, "lat": 38.886574333333336, "name": "8c71c917bd36c63170b52d7dd0a4fc9e", "fusion_lon": 0.0, "bike_id": "8c71c917bd36c63170b52d7dd0a4fc9e", "is_disabled": 0, "is_reserved": 0}, {"rental_uris": {"ios": "https://dc.lft.to/lastmile_qr_scan", "android": "https://dc.lft.to/lastmile_qr_scan"}, "lon": -76.957537, "type": "electric_scooter", "fusion_lat": 0.0, "lat": 38.88428866666667, "name": "4e81f5545392794f49532612bb9b1036", "fusion_lon": 0.0, "bike_id": "4e81f5545392794f49532612bb9b1036", "is_disabled": 0, "is_reserved": 0}, {"rental_uris": {"ios": "https://dc.lft.to/lastmile_qr_scan", "android": "https://dc.lft.to/lastmile_qr_scan"}, "lon": -76.993617, "type": "electric_bike", "fusion_lat": 0.0, "lat": 38.923050333333336, "name": "05bc88435aef0300706055155c74ee82", "fusion_lon": 0.0, "bike_id": "05bc88435aef0300706055155c74ee82", "is_disabled": 0, "is_reserved": 0}, {"rental_uris": {"ios": "https://dc.lft.to/lastmile_qr_scan", "android": "https://dc.lft.to/lastmile_qr_scan"}, "lon": -77.04329116666666, "type": "electric_scooter", "fusion_lat": 0.0, "lat": 38.901184, "name": "dfef7fbf8c032d3642a46ef28d1e0369", "fusion_lon": 0.0, "bike_id": "dfef7fbf8c032d3642a46ef28d1e0369", "is_disabled": 0, "is_reserved": 0}, {"rental_uris": {"ios": "https://dc.lft.to/lastmile_qr_scan", "android": "https://dc.lft.to/lastmile_qr_scan"}, "lon": -77.11204216666667, "type": "electric_bike", "fusion_lat": 0.0, "lat": 38.8130755, "name": "8bfb6a022b4edda9e307e41abe7529be", "fusion_lon": 0.0, "bike_id": "8bfb6a022b4edda9e307e41abe7529be", "is_disabled": 0, "is_reserved": 0}, {"rental_uris": {"ios": "https://dc.lft.to/lastmile_qr_scan", "android": "https://dc.lft.to/lastmile_qr_scan"}, "lon": -77.12259066666667, "type": "electric_bike", "fusion_lat": 0.0, "lat": 38.891867166666664, "name": "036a3cf1c4e6d367ef80b81cf3d49be8", "fusion_lon": 0.0, "bike_id": "036a3cf1c4e6d367ef80b81cf3d49be8", "is_disabled": 0, "is_reserved": 0}, {"rental_uris": {"ios": "https://dc.lft.to/lastmile_qr_scan", "android": "https://dc.lft.to/lastmile_qr_scan"}, "lon": -76.93541833333333, "type": "electric_bike", "fusion_lat": 0.0, "lat": 38.955519833333334, "name": "fb8760513ca0a59211440df733bcf603", "fusion_lon": 0.0, "bike_id": "fb8760513ca0a59211440df733bcf603", "is_disabled": 0, "is_reserved": 0}, {"rental_uris": {"ios": "https://dc.lft.to/lastmile_qr_scan", "android": "https://dc.lft.to/lastmile_qr_scan"}, "lon": -77.07680116666667, "type": "electric_bike", "fusion_lat": 0.0, "lat": 38.831935666666666, "name": "91c658880a2b36f1ae074142bc489a03", "fusion_lon": 0.0, "bike_id": "91c658880a2b36f1ae074142bc489a03", "is_disabled": 0, "is_reserved": 0}, {"rental_uris": {"ios": "https://dc.lft.to/lastmile_qr_scan", "android": "https://dc.lft.to/lastmile_qr_scan"}, "lon": -77.043796, "type": "electric_scooter", "fusion_lat": 0.0, "lat": 38.9207, "name": "87b1b0ca1791fa906bad46cad7609d33", "fusion_lon": 0.0, "bike_id": "87b1b0ca1791fa906bad46cad7609d33", "is_disabled": 0, "is_reserved": 0}, {"rental_uris": {"ios": "https://dc.lft.to/lastmile_qr_scan", "android": "https://dc.lft.to/lastmile_qr_scan"}, "lon": -77.02186666666667, "type": "electric_scooter", "fusion_lat": 0.0, "lat": 38.915087666666665, "name": "ad193183a2234f4a053f58313d1fa814", "fusion_lon": 0.0, "bike_id": "ad193183a2234f4a053f58313d1fa814", "is_disabled": 0, "is_reserved": 0}, {"rental_uris": {"ios": "https://dc.lft.to/lastmile_qr_scan", "android": "https://dc.lft.to/lastmile_qr_scan"}, "lon": -77.04368566666666, "type": "electric_scooter", "fusion_lat": 0.0, "lat": 38.916734, "name": "078022782fa9c5374d11765c9435ece1", "fusion_lon": 0.0, "bike_id": "078022782fa9c5374d11765c9435ece1", "is_disabled": 0, "is_reserved": 0}, {"rental_uris": {"ios": "https://dc.lft.to/lastmile_qr_scan", "android": "https://dc.lft.to/lastmile_qr_scan"}, "lon": -77.03230583333334, "type": "electric_scooter", "fusion_lat": 0.0, "lat": 38.92584633333333, "name": "34a674bf51a74524775a1b4949f8a876", "fusion_lon": 0.0, "bike_id": "34a674bf51a74524775a1b4949f8a876", "is_disabled": 0, "is_reserved": 0}, {"rental_uris": {"ios": "https://dc.lft.to/lastmile_qr_scan", "android": "https://dc.lft.to/lastmile_qr_scan"}, "lon": -77.0372465, "type": "electric_scooter", "fusion_lat": 0.0, "lat": 38.933584333333336, "name": "e18f418f3c9150cedf26aa83bf0f15c6", "fusion_lon": 0.0, "bike_id": "e18f418f3c9150cedf26aa83bf0f15c6", "is_disabled": 0, "is_reserved": 0}, {"rental_uris": {"ios": "https://dc.lft.to/lastmile_qr_scan", "android": "https://dc.lft.to/lastmile_qr_scan"}, "lon": -77.02407216666667, "type": "electric_scooter", "fusion_lat": 0.0, "lat": 38.892171, "name": "c0a27d91969b5c2502eaff85a7cf5586", "fusion_lon": 0.0, "bike_id": "c0a27d91969b5c2502eaff85a7cf5586", "is_disabled": 0, "is_reserved": 0}, {"rental_uris": {"ios": "https://dc.lft.to/lastmile_qr_scan", "android": "https://dc.lft.to/lastmile_qr_scan"}, "lon": -76.97810366666667, "type": "electric_scooter", "fusion_lat": 0.0, "lat": 38.90673116666667, "name": "59d867d763b972c9448f8e60f3767f96", "fusion_lon": 0.0, "bike_id": "59d867d763b972c9448f8e60f3767f96", "is_disabled": 0, "is_reserved": 0}, {"rental_uris": {"ios": "https://dc.lft.to/lastmile_qr_scan", "android": "https://dc.lft.to/lastmile_qr_scan"}, "lon": -77.02190066666667, "type": "electric_scooter", "fusion_lat": 0.0, "lat": 38.89430133333333, "name": "0d55be63d6acf393ae19caafb5789782", "fusion_lon": 0.0, "bike_id": "0d55be63d6acf393ae19caafb5789782", "is_disabled": 0, "is_reserved": 0}, {"rental_uris": {"ios": "https://dc.lft.to/lastmile_qr_scan", "android": "https://dc.lft.to/lastmile_qr_scan"}, "lon": -77.05125, "type": "electric_scooter", "fusion_lat": 0.0, "lat": 38.90241116666667, "name": "88364039d39f477e2bfbeba001bbd70a", "fusion_lon": 0.0, "bike_id": "88364039d39f477e2bfbeba001bbd70a", "is_disabled": 0, "is_reserved": 0}, {"rental_uris": {"ios": "https://dc.lft.to/lastmile_qr_scan", "android": "https://dc.lft.to/lastmile_qr_scan"}, "lon": -77.04158166666667, "type": "electric_scooter", "fusion_lat": 0.0, "lat": 38.911452833333335, "name": "4c0c09c9dee0ee535dfecac7b817ba23", "fusion_lon": 0.0, "bike_id": "4c0c09c9dee0ee535dfecac7b817ba23", "is_disabled": 0, "is_reserved": 0}, {"rental_uris": {"ios": "https://dc.lft.to/lastmile_qr_scan", "android": "https://dc.lft.to/lastmile_qr_scan"}, "lon": -77.08565666666667, "type": "electric_bike", "fusion_lat": 0.0, "lat": 38.9097565, "name": "2d9e2b5df7b0a57a91c11d94bca35894", "fusion_lon": 0.0, "bike_id": "2d9e2b5df7b0a57a91c11d94bca35894", "is_disabled": 0, "is_reserved": 0}, {"rental_uris": {"ios": "https://dc.lft.to/lastmile_qr_scan", "android": "https://dc.lft.to/lastmile_qr_scan"}, "lon": -76.99611033333333, "type": "electric_scooter", "fusion_lat": 0.0, "lat": 38.8974485, "name": "9c4574aa21da26861e972221f0e6c58f", "fusion_lon": 0.0, "bike_id": "9c4574aa21da26861e972221f0e6c58f", "is_disabled": 0, "is_reserved": 0}, {"rental_uris": {"ios": "https://dc.lft.to/lastmile_qr_scan", "android": "https://dc.lft.to/lastmile_qr_scan"}, "lon": -76.99690683333333, "type": "electric_scooter", "fusion_lat": 0.0, "lat": 38.908313666666665, "name": "dbfadb6b4078c5b810f3653d3c33a6ce", "fusion_lon": 0.0, "bike_id": "dbfadb6b4078c5b810f3653d3c33a6ce", "is_disabled": 0, "is_reserved": 0}, {"rental_uris": {"ios": "https://dc.lft.to/lastmile_qr_scan", "android": "https://dc.lft.to/lastmile_qr_scan"}, "lon": -76.93237833333333, "type": "electric_bike", "fusion_lat": 0.0, "lat": 38.882742666666665, "name": "4e14811435113edeae8eacae31ae09f9", "fusion_lon": 0.0, "bike_id": "4e14811435113edeae8eacae31ae09f9", "is_disabled": 0, "is_reserved": 0}, {"rental_uris": {"ios": "https://dc.lft.to/lastmile_qr_scan", "android": "https://dc.lft.to/lastmile_qr_scan"}, "lon": -77.052344, "type": "electric_scooter", "fusion_lat": 0.0, "lat": 38.924662166666664, "name": "47f82c62c694d25252fbbeae8943a415", "fusion_lon": 0.0, "bike_id": "47f82c62c694d25252fbbeae8943a415", "is_disabled": 0, "is_reserved": 0}, {"rental_uris": {"ios": "https://dc.lft.to/lastmile_qr_scan", "android": "https://dc.lft.to/lastmile_qr_scan"}, "lon": -77.05332333333334, "type": "electric_scooter", "fusion_lat": 0.0, "lat": 38.90237483333333, "name": "79f55d4067122a59fdca758e797e8c99", "fusion_lon": 0.0, "bike_id": "79f55d4067122a59fdca758e797e8c99", "is_disabled": 0, "is_reserved": 0}, {"rental_uris": {"ios": "https://dc.lft.to/lastmile_qr_scan", "android": "https://dc.lft.to/lastmile_qr_scan"}, "lon": -77.0590425, "type": "electric_bike", "fusion_lat": 0.0, "lat": 38.90227866666667, "name": "f8a4201e2282c6b8018ed7578bd43452", "fusion_lon": 0.0, "bike_id": "f8a4201e2282c6b8018ed7578bd43452", "is_disabled": 0, "is_reserved": 0}, {"rental_uris": {"ios": "https://dc.lft.to/lastmile_qr_scan", "android": "https://dc.lft.to/lastmile_qr_scan"}, "lon": -77.02393133333334, "type": "electric_scooter", "fusion_lat": 0.0, "lat": 38.935978666666664, "name": "2cb35cbee5732d4d5484647daf4e377e", "fusion_lon": 0.0, "bike_id": "2cb35cbee5732d4d5484647daf4e377e", "is_disabled": 0, "is_reserved": 0}, {"rental_uris": {"ios": "https://dc.lft.to/lastmile_qr_scan", "android": "https://dc.lft.to/lastmile_qr_scan"}, "lon": -77.042505, "type": "electric_scooter", "fusion_lat": 0.0, "lat": 38.92232766666667, "name": "5406c1d11b54715d123aa47a246ac2bd", "fusion_lon": 0.0, "bike_id": "5406c1d11b54715d123aa47a246ac2bd", "is_disabled": 0, "is_reserved": 0}, {"rental_uris": {"ios": "https://dc.lft.to/lastmile_qr_scan", "android": "https://dc.lft.to/lastmile_qr_scan"}, "lon": -77.04479916666666, "type": "electric_scooter", "fusion_lat": 0.0, "lat": 38.922368, "name": "4c41c21765c89c927052492acfe018c8", "fusion_lon": 0.0, "bike_id": "4c41c21765c89c927052492acfe018c8", "is_disabled": 0, "is_reserved": 0}, {"rental_uris": {"ios": "https://dc.lft.to/lastmile_qr_scan", "android": "https://dc.lft.to/lastmile_qr_scan"}, "lon": -77.01688033333333, "type": "electric_bike", "fusion_lat": 0.0, "lat": 38.881282, "name": "0ca871febd8e2ead7b4a209f18763b37", "fusion_lon": 0.0, "bike_id": "0ca871febd8e2ead7b4a209f18763b37", "is_disabled": 0, "is_reserved": 0}, {"rental_uris": {"ios": "https://dc.lft.to/lastmile_qr_scan", "android": "https://dc.lft.to/lastmile_qr_scan"}, "lon": -77.041897, "type": "electric_scooter", "fusion_lat": 0.0, "lat": 38.9220735, "name": "789fc7e706fc2e6aa2db0c7feb4d5706", "fusion_lon": 0.0, "bike_id": "789fc7e706fc2e6aa2db0c7feb4d5706", "is_disabled": 0, "is_reserved": 0}, {"rental_uris": {"ios": "https://dc.lft.to/lastmile_qr_scan", "android": "https://dc.lft.to/lastmile_qr_scan"}, "lon": -77.0418515, "type": "electric_scooter", "fusion_lat": 0.0, "lat": 38.9201975, "name": "53cefdcca00982c9b64d363ff8b4b590", "fusion_lon": 0.0, "bike_id": "53cefdcca00982c9b64d363ff8b4b590", "is_disabled": 0, "is_reserved": 0}, {"rental_uris": {"ios": "https://dc.lft.to/lastmile_qr_scan", "android": "https://dc.lft.to/lastmile_qr_scan"}, "lon": -77.02437633333334, "type": "electric_scooter", "fusion_lat": 0.0, "lat": 38.90719216666667, "name": "9ed19730f35793aeddbaee38cccb6b87", "fusion_lon": 0.0, "bike_id": "9ed19730f35793aeddbaee38cccb6b87", "is_disabled": 0, "is_reserved": 0}, {"rental_uris": {"ios": "https://dc.lft.to/lastmile_qr_scan", "android": "https://dc.lft.to/lastmile_qr_scan"}, "lon": -77.00425433333334, "type": "electric_scooter", "fusion_lat": 0.0, "lat": 38.903927333333336, "name": "04a347c02b6fa6b65e2dab0af6cbd586", "fusion_lon": 0.0, "bike_id": "04a347c02b6fa6b65e2dab0af6cbd586", "is_disabled": 0, "is_reserved": 0}, {"rental_uris": {"ios": "https://dc.lft.to/lastmile_qr_scan", "android": "https://dc.lft.to/lastmile_qr_scan"}, "lon": -77.02018083333333, "type": "electric_scooter", "fusion_lat": 0.0, "lat": 38.915502833333335, "name": "849ff97232c49aceaa528d7b010d5d16", "fusion_lon": 0.0, "bike_id": "849ff97232c49aceaa528d7b010d5d16", "is_disabled": 0, "is_reserved": 0}, {"rental_uris": {"ios": "https://dc.lft.to/lastmile_qr_scan", "android": "https://dc.lft.to/lastmile_qr_scan"}, "lon": -77.05590033333333, "type": "electric_scooter", "fusion_lat": 0.0, "lat": 38.90503133333333, "name": "e0e44b44c532abd81e6708e0b8756715", "fusion_lon": 0.0, "bike_id": "e0e44b44c532abd81e6708e0b8756715", "is_disabled": 0, "is_reserved": 0}, {"rental_uris": {"ios": "https://dc.lft.to/lastmile_qr_scan", "android": "https://dc.lft.to/lastmile_qr_scan"}, "lon": -77.02604166666667, "type": "electric_scooter", "fusion_lat": 0.0, "lat": 38.896721, "name": "be53cfcdc762c1d0bc95722ea26363eb", "fusion_lon": 0.0, "bike_id": "be53cfcdc762c1d0bc95722ea26363eb", "is_disabled": 0, "is_reserved": 0}, {"rental_uris": {"ios": "https://dc.lft.to/lastmile_qr_scan", "android": "https://dc.lft.to/lastmile_qr_scan"}, "lon": -77.0418845, "type": "electric_scooter", "fusion_lat": 0.0, "lat": 38.92044716666667, "name": "e68aef3d45c685b51be9101e82eec13d", "fusion_lon": 0.0, "bike_id": "e68aef3d45c685b51be9101e82eec13d", "is_disabled": 0, "is_reserved": 0}, {"rental_uris": {"ios": "https://dc.lft.to/lastmile_qr_scan", "android": "https://dc.lft.to/lastmile_qr_scan"}, "lon": -77.04869966666666, "type": "electric_scooter", "fusion_lat": 0.0, "lat": 38.90086933333333, "name": "3c5e2d89a3c847088eecde1dbdbd6dab", "fusion_lon": 0.0, "bike_id": "3c5e2d89a3c847088eecde1dbdbd6dab", "is_disabled": 0, "is_reserved": 0}, {"rental_uris": {"ios": "https://dc.lft.to/lastmile_qr_scan", "android": "https://dc.lft.to/lastmile_qr_scan"}, "lon": -77.024727, "type": "electric_scooter", "fusion_lat": 0.0, "lat": 38.93890616666667, "name": "bd06eb42edb73ac4af422ad15d17eb30", "fusion_lon": 0.0, "bike_id": "bd06eb42edb73ac4af422ad15d17eb30", "is_disabled": 0, "is_reserved": 0}, {"rental_uris": {"ios": "https://dc.lft.to/lastmile_qr_scan", "android": "https://dc.lft.to/lastmile_qr_scan"}, "lon": -76.96502916666667, "type": "electric_scooter", "fusion_lat": 0.0, "lat": 38.87646266666667, "name": "758c84249cc2c460eb3734fe669f0506", "fusion_lon": 0.0, "bike_id": "758c84249cc2c460eb3734fe669f0506", "is_disabled": 0, "is_reserved": 0}, {"rental_uris": {"ios": "https://dc.lft.to/lastmile_qr_scan", "android": "https://dc.lft.to/lastmile_qr_scan"}, "lon": -77.03632783333333, "type": "electric_scooter", "fusion_lat": 0.0, "lat": 38.9265165, "name": "62f98d68a9fc9e839e400906f5f750de", "fusion_lon": 0.0, "bike_id": "62f98d68a9fc9e839e400906f5f750de", "is_disabled": 0, "is_reserved": 0}, {"rental_uris": {"ios": "https://dc.lft.to/lastmile_qr_scan", "android": "https://dc.lft.to/lastmile_qr_scan"}, "lon": -77.04172716666666, "type": "electric_scooter", "fusion_lat": 0.0, "lat": 38.900509166666666, "name": "b6afcc00be7f7418474dbc6a804690b5", "fusion_lon": 0.0, "bike_id": "b6afcc00be7f7418474dbc6a804690b5", "is_disabled": 0, "is_reserved": 0}, {"rental_uris": {"ios": "https://dc.lft.to/lastmile_qr_scan", "android": "https://dc.lft.to/lastmile_qr_scan"}, "lon": -77.01256366666667, "type": "electric_scooter", "fusion_lat": 0.0, "lat": 38.899672333333335, "name": "7cc26c3c178646e99e002df6ec314bca", "fusion_lon": 0.0, "bike_id": "7cc26c3c178646e99e002df6ec314bca", "is_disabled": 0, "is_reserved": 0}, {"rental_uris": {"ios": "https://dc.lft.to/lastmile_qr_scan", "android": "https://dc.lft.to/lastmile_qr_scan"}, "lon": -77.0101515, "type": "electric_scooter", "fusion_lat": 0.0, "lat": 38.89490983333334, "name": "629fc34f86b7c539e284df8abbe341f3", "fusion_lon": 0.0, "bike_id": "629fc34f86b7c539e284df8abbe341f3", "is_disabled": 0, "is_reserved": 0}, {"rental_uris": {"ios": "https://dc.lft.to/lastmile_qr_scan", "android": "https://dc.lft.to/lastmile_qr_scan"}, "lon": -76.987121, "type": "electric_scooter", "fusion_lat": 0.0, "lat": 38.862658, "name": "6f9e9be8cbccd0e9f5474a63407aeeab", "fusion_lon": 0.0, "bike_id": "6f9e9be8cbccd0e9f5474a63407aeeab", "is_disabled": 0, "is_reserved": 0}, {"rental_uris": {"ios": "https://dc.lft.to/lastmile_qr_scan", "android": "https://dc.lft.to/lastmile_qr_scan"}, "lon": -76.9915035, "type": "electric_scooter", "fusion_lat": 0.0, "lat": 38.9003755, "name": "8ebc595d6a75c55f9dd49d253e37a5f4", "fusion_lon": 0.0, "bike_id": "8ebc595d6a75c55f9dd49d253e37a5f4", "is_disabled": 0, "is_reserved": 0}, {"rental_uris": {"ios": "https://dc.lft.to/lastmile_qr_scan", "android": "https://dc.lft.to/lastmile_qr_scan"}, "lon": -77.13593583333333, "type": "electric_bike", "fusion_lat": 0.0, "lat": 39.0534485, "name": "7f6e74c16e99cd31e20a0c06ec53162e", "fusion_lon": 0.0, "bike_id": "7f6e74c16e99cd31e20a0c06ec53162e", "is_disabled": 0, "is_reserved": 0}, {"rental_uris": {"ios": "https://dc.lft.to/lastmile_qr_scan", "android": "https://dc.lft.to/lastmile_qr_scan"}, "lon": -77.07867016666667, "type": "electric_scooter", "fusion_lat": 0.0, "lat": 38.931601, "name": "47c08ee611e77bde526c599a58c28767", "fusion_lon": 0.0, "bike_id": "47c08ee611e77bde526c599a58c28767", "is_disabled": 0, "is_reserved": 0}, {"rental_uris": {"ios": "https://dc.lft.to/lastmile_qr_scan", "android": "https://dc.lft.to/lastmile_qr_scan"}, "lon": -77.01351816666667, "type": "electric_scooter", "fusion_lat": 0.0, "lat": 38.91925366666667, "name": "eeddc7bd0a6a6743c7bf14df8295e8c0", "fusion_lon": 0.0, "bike_id": "eeddc7bd0a6a6743c7bf14df8295e8c0", "is_disabled": 0, "is_reserved": 0}, {"rental_uris": {"ios": "https://dc.lft.to/lastmile_qr_scan", "android": "https://dc.lft.to/lastmile_qr_scan"}, "lon": -77.11259366666667, "type": "electric_bike", "fusion_lat": 0.0, "lat": 38.856385333333336, "name": "44bf5b9c77a469bbe957edb20bf1733c", "fusion_lon": 0.0, "bike_id": "44bf5b9c77a469bbe957edb20bf1733c", "is_disabled": 0, "is_reserved": 0}, {"rental_uris": {"ios": "https://dc.lft.to/lastmile_qr_scan", "android": "https://dc.lft.to/lastmile_qr_scan"}, "lon": -77.02401416666666, "type": "electric_scooter", "fusion_lat": 0.0, "lat": 38.91651866666667, "name": "4f838c7491132763fb0489b350c14644", "fusion_lon": 0.0, "bike_id": "4f838c7491132763fb0489b350c14644", "is_disabled": 0, "is_reserved": 0}, {"rental_uris": {"ios": "https://dc.lft.to/lastmile_qr_scan", "android": "https://dc.lft.to/lastmile_qr_scan"}, "lon": -76.9317775, "type": "electric_scooter", "fusion_lat": 0.0, "lat": 38.898802833333335, "name": "45f1111f611ae5ed4a45494f41a49a27", "fusion_lon": 0.0, "bike_id": "45f1111f611ae5ed4a45494f41a49a27", "is_disabled": 0, "is_reserved": 0}, {"rental_uris": {"ios": "https://dc.lft.to/lastmile_qr_scan", "android": "https://dc.lft.to/lastmile_qr_scan"}, "lon": -76.98651816666667, "type": "electric_scooter", "fusion_lat": 0.0, "lat": 38.85807366666667, "name": "ddc1266a3ef51e9d019000d4f1209de0", "fusion_lon": 0.0, "bike_id": "ddc1266a3ef51e9d019000d4f1209de0", "is_disabled": 0, "is_reserved": 0}, {"rental_uris": {"ios": "https://dc.lft.to/lastmile_qr_scan", "android": "https://dc.lft.to/lastmile_qr_scan"}, "lon": -77.0020985, "type": "electric_scooter", "fusion_lat": 0.0, "lat": 38.90036033333333, "name": "4a642b9651f880cb26efb8fdce40c7ac", "fusion_lon": 0.0, "bike_id": "4a642b9651f880cb26efb8fdce40c7ac", "is_disabled": 0, "is_reserved": 0}, {"rental_uris": {"ios": "https://dc.lft.to/lastmile_qr_scan", "android": "https://dc.lft.to/lastmile_qr_scan"}, "lon": -77.02317183333334, "type": "electric_scooter", "fusion_lat": 0.0, "lat": 38.94089666666667, "name": "04cc9757f7abfed63f7b779d04baca17", "fusion_lon": 0.0, "bike_id": "04cc9757f7abfed63f7b779d04baca17", "is_disabled": 0, "is_reserved": 0}, {"rental_uris": {"ios": "https://dc.lft.to/lastmile_qr_scan", "android": "https://dc.lft.to/lastmile_qr_scan"}, "lon": -77.02822216666667, "type": "electric_scooter", "fusion_lat": 0.0, "lat": 38.904722666666665, "name": "702e2f364f00f242482b86e96d48955e", "fusion_lon": 0.0, "bike_id": "702e2f364f00f242482b86e96d48955e", "is_disabled": 0, "is_reserved": 0}, {"rental_uris": {"ios": "https://dc.lft.to/lastmile_qr_scan", "android": "https://dc.lft.to/lastmile_qr_scan"}, "lon": -77.0420255, "type": "electric_scooter", "fusion_lat": 0.0, "lat": 38.921011166666666, "name": "b82606ba20f844e79835e21c8cfccfb1", "fusion_lon": 0.0, "bike_id": "b82606ba20f844e79835e21c8cfccfb1", "is_disabled": 0, "is_reserved": 0}, {"rental_uris": {"ios": "https://dc.lft.to/lastmile_qr_scan", "android": "https://dc.lft.to/lastmile_qr_scan"}, "lon": -77.03196333333334, "type": "electric_scooter", "fusion_lat": 0.0, "lat": 38.900217833333336, "name": "d1022801b1a081d13e7b0d30036b95c1", "fusion_lon": 0.0, "bike_id": "d1022801b1a081d13e7b0d30036b95c1", "is_disabled": 0, "is_reserved": 0}, {"rental_uris": {"ios": "https://dc.lft.to/lastmile_qr_scan", "android": "https://dc.lft.to/lastmile_qr_scan"}, "lon": -77.0522415, "type": "electric_scooter", "fusion_lat": 0.0, "lat": 38.89809266666666, "name": "ec72f8e3a1a5fbb347c79cb1591efb8d", "fusion_lon": 0.0, "bike_id": "ec72f8e3a1a5fbb347c79cb1591efb8d", "is_disabled": 0, "is_reserved": 0}, {"rental_uris": {"ios": "https://dc.lft.to/lastmile_qr_scan", "android": "https://dc.lft.to/lastmile_qr_scan"}, "lon": -77.05981433333334, "type": "electric_scooter", "fusion_lat": 0.0, "lat": 38.93547133333333, "name": "1775e42b6c81474ed347e1a66f87ddff", "fusion_lon": 0.0, "bike_id": "1775e42b6c81474ed347e1a66f87ddff", "is_disabled": 0, "is_reserved": 0}, {"rental_uris": {"ios": "https://dc.lft.to/lastmile_qr_scan", "android": "https://dc.lft.to/lastmile_qr_scan"}, "lon": -77.04343283333333, "type": "electric_scooter", "fusion_lat": 0.0, "lat": 38.908230833333334, "name": "a4c8df8fc35cf8092f10277526a22006", "fusion_lon": 0.0, "bike_id": "a4c8df8fc35cf8092f10277526a22006", "is_disabled": 0, "is_reserved": 0}, {"rental_uris": {"ios": "https://dc.lft.to/lastmile_qr_scan", "android": "https://dc.lft.to/lastmile_qr_scan"}, "lon": -77.015298, "type": "electric_scooter", "fusion_lat": 0.0, "lat": 38.88738933333333, "name": "42421d161a955c6122876d85ea49dd89", "fusion_lon": 0.0, "bike_id": "42421d161a955c6122876d85ea49dd89", "is_disabled": 0, "is_reserved": 0}, {"rental_uris": {"ios": "https://dc.lft.to/lastmile_qr_scan", "android": "https://dc.lft.to/lastmile_qr_scan"}, "lon": -77.0269225, "type": "electric_scooter", "fusion_lat": 0.0, "lat": 38.916292, "name": "436569b6456251a519bad09680a64336", "fusion_lon": 0.0, "bike_id": "436569b6456251a519bad09680a64336", "is_disabled": 0, "is_reserved": 0}, {"rental_uris": {"ios": "https://dc.lft.to/lastmile_qr_scan", "android": "https://dc.lft.to/lastmile_qr_scan"}, "lon": -76.974571, "type": "electric_scooter", "fusion_lat": 0.0, "lat": 38.865406666666665, "name": "6ec34717e765356dd0eac1f3ca486d9d", "fusion_lon": 0.0, "bike_id": "6ec34717e765356dd0eac1f3ca486d9d", "is_disabled": 0, "is_reserved": 0}, {"rental_uris": {"ios": "https://dc.lft.to/lastmile_qr_scan", "android": "https://dc.lft.to/lastmile_qr_scan"}, "lon": -76.9906445, "type": "electric_scooter", "fusion_lat": 0.0, "lat": 38.86354766666667, "name": "c1f0308a4c07f32d9c5b8460839ef32c", "fusion_lon": 0.0, "bike_id": "c1f0308a4c07f32d9c5b8460839ef32c", "is_disabled": 0, "is_reserved": 0}, {"rental_uris": {"ios": "https://dc.lft.to/lastmile_qr_scan", "android": "https://dc.lft.to/lastmile_qr_scan"}, "lon": -77.11797816666666, "type": "electric_bike", "fusion_lat": 0.0, "lat": 38.8983665, "name": "02a752a63f74d049c07f9d8635485891", "fusion_lon": 0.0, "bike_id": "02a752a63f74d049c07f9d8635485891", "is_disabled": 0, "is_reserved": 0}, {"rental_uris": {"ios": "https://dc.lft.to/lastmile_qr_scan", "android": "https://dc.lft.to/lastmile_qr_scan"}, "lon": -76.97815883333334, "type": "electric_scooter", "fusion_lat": 0.0, "lat": 38.886069666666664, "name": "d274bfe82746a1395f61742fc39be126", "fusion_lon": 0.0, "bike_id": "d274bfe82746a1395f61742fc39be126", "is_disabled": 0, "is_reserved": 0}, {"rental_uris": {"ios": "https://dc.lft.to/lastmile_qr_scan", "android": "https://dc.lft.to/lastmile_qr_scan"}, "lon": -76.9879105, "type": "electric_bike", "fusion_lat": 0.0, "lat": 38.9041305, "name": "5c145ac69f6633167ce710ffc867aedb", "fusion_lon": 0.0, "bike_id": "5c145ac69f6633167ce710ffc867aedb", "is_disabled": 0, "is_reserved": 0}, {"rental_uris": {"ios": "https://dc.lft.to/lastmile_qr_scan", "android": "https://dc.lft.to/lastmile_qr_scan"}, "lon": -76.998489, "type": "electric_scooter", "fusion_lat": 0.0, "lat": 38.90770883333333, "name": "b1ce11a7d6e16b96a234bbc17f9d2747", "fusion_lon": 0.0, "bike_id": "b1ce11a7d6e16b96a234bbc17f9d2747", "is_disabled": 0, "is_reserved": 0}, {"rental_uris": {"ios": "https://dc.lft.to/lastmile_qr_scan", "android": "https://dc.lft.to/lastmile_qr_scan"}, "lon": -77.03697916666667, "type": "electric_scooter", "fusion_lat": 0.0, "lat": 38.92646083333333, "name": "e77ee6b64432a83a6da81fcfdb253c18", "fusion_lon": 0.0, "bike_id": "e77ee6b64432a83a6da81fcfdb253c18", "is_disabled": 0, "is_reserved": 0}, {"rental_uris": {"ios": "https://dc.lft.to/lastmile_qr_scan", "android": "https://dc.lft.to/lastmile_qr_scan"}, "lon": -77.0296, "type": "electric_scooter", "fusion_lat": 0.0, "lat": 38.910245833333335, "name": "014aca9c489aca6a53d8d0fc748d0dc4", "fusion_lon": 0.0, "bike_id": "014aca9c489aca6a53d8d0fc748d0dc4", "is_disabled": 0, "is_reserved": 0}, {"rental_uris": {"ios": "https://dc.lft.to/lastmile_qr_scan", "android": "https://dc.lft.to/lastmile_qr_scan"}, "lon": -77.04164183333333, "type": "electric_scooter", "fusion_lat": 0.0, "lat": 38.916101833333336, "name": "9b065a1d18604ab544e2c862bc829a8d", "fusion_lon": 0.0, "bike_id": "9b065a1d18604ab544e2c862bc829a8d", "is_disabled": 0, "is_reserved": 0}, {"rental_uris": {"ios": "https://dc.lft.to/lastmile_qr_scan", "android": "https://dc.lft.to/lastmile_qr_scan"}, "lon": -77.02962766666667, "type": "electric_scooter", "fusion_lat": 0.0, "lat": 38.92565466666667, "name": "4936048b2573d68b891f7a4a9676acdb", "fusion_lon": 0.0, "bike_id": "4936048b2573d68b891f7a4a9676acdb", "is_disabled": 0, "is_reserved": 0}, {"rental_uris": {"ios": "https://dc.lft.to/lastmile_qr_scan", "android": "https://dc.lft.to/lastmile_qr_scan"}, "lon": -76.95466033333334, "type": "electric_bike", "fusion_lat": 0.0, "lat": 38.88642766666667, "name": "d201d781ecd9575abd1907e7ec9756e9", "fusion_lon": 0.0, "bike_id": "d201d781ecd9575abd1907e7ec9756e9", "is_disabled": 0, "is_reserved": 0}, {"rental_uris": {"ios": "https://dc.lft.to/lastmile_qr_scan", "android": "https://dc.lft.to/lastmile_qr_scan"}, "lon": -77.0124115, "type": "electric_scooter", "fusion_lat": 0.0, "lat": 38.91711183333334, "name": "aef71a32e74352a82b24b65d47bb6fea", "fusion_lon": 0.0, "bike_id": "aef71a32e74352a82b24b65d47bb6fea", "is_disabled": 0, "is_reserved": 0}, {"rental_uris": {"ios": "https://dc.lft.to/lastmile_qr_scan", "android": "https://dc.lft.to/lastmile_qr_scan"}, "lon": -77.02969433333334, "type": "electric_scooter", "fusion_lat": 0.0, "lat": 38.9050235, "name": "cb81d26422dd9661c9e5bc65b03ac323", "fusion_lon": 0.0, "bike_id": "cb81d26422dd9661c9e5bc65b03ac323", "is_disabled": 0, "is_reserved": 0}, {"rental_uris": {"ios": "https://dc.lft.to/lastmile_qr_scan", "android": "https://dc.lft.to/lastmile_qr_scan"}, "lon": -77.03648616666666, "type": "electric_scooter", "fusion_lat": 0.0, "lat": 38.9550415, "name": "f97c13c57619ed8f5a499be28efdae0b", "fusion_lon": 0.0, "bike_id": "f97c13c57619ed8f5a499be28efdae0b", "is_disabled": 0, "is_reserved": 0}, {"rental_uris": {"ios": "https://dc.lft.to/lastmile_qr_scan", "android": "https://dc.lft.to/lastmile_qr_scan"}, "lon": -77.023013, "type": "electric_scooter", "fusion_lat": 0.0, "lat": 38.91685966666667, "name": "f25d02e1c9ca4338507c100228922079", "fusion_lon": 0.0, "bike_id": "f25d02e1c9ca4338507c100228922079", "is_disabled": 0, "is_reserved": 0}, {"rental_uris": {"ios": "https://dc.lft.to/lastmile_qr_scan", "android": "https://dc.lft.to/lastmile_qr_scan"}, "lon": -77.02219183333334, "type": "electric_scooter", "fusion_lat": 0.0, "lat": 38.905734, "name": "f9c75ce93b7418e939db2be75352b0e3", "fusion_lon": 0.0, "bike_id": "f9c75ce93b7418e939db2be75352b0e3", "is_disabled": 0, "is_reserved": 0}, {"rental_uris": {"ios": "https://dc.lft.to/lastmile_qr_scan", "android": "https://dc.lft.to/lastmile_qr_scan"}, "lon": -77.03839933333333, "type": "electric_bike", "fusion_lat": 0.0, "lat": 38.91210683333333, "name": "91dfb82ca8b44729d8ec3bb61fd1f973", "fusion_lon": 0.0, "bike_id": "91dfb82ca8b44729d8ec3bb61fd1f973", "is_disabled": 0, "is_reserved": 0}, {"rental_uris": {"ios": "https://dc.lft.to/lastmile_qr_scan", "android": "https://dc.lft.to/lastmile_qr_scan"}, "lon": -77.0317655, "type": "electric_scooter", "fusion_lat": 0.0, "lat": 38.88738983333333, "name": "e532ed9431e68575914918fadc422333", "fusion_lon": 0.0, "bike_id": "e532ed9431e68575914918fadc422333", "is_disabled": 0, "is_reserved": 0}, {"rental_uris": {"ios": "https://dc.lft.to/lastmile_qr_scan", "android": "https://dc.lft.to/lastmile_qr_scan"}, "lon": -77.091563, "type": "electric_bike", "fusion_lat": 0.0, "lat": 38.9675975, "name": "357076041114050500abf185c83fbfc3", "fusion_lon": 0.0, "bike_id": "357076041114050500abf185c83fbfc3", "is_disabled": 0, "is_reserved": 0}, {"rental_uris": {"ios": "https://dc.lft.to/lastmile_qr_scan", "android": "https://dc.lft.to/lastmile_qr_scan"}, "lon": -77.03638466666666, "type": "electric_scooter", "fusion_lat": 0.0, "lat": 38.91734433333333, "name": "962e63fcd1775dc993c86a14d0878407", "fusion_lon": 0.0, "bike_id": "962e63fcd1775dc993c86a14d0878407", "is_disabled": 0, "is_reserved": 0}, {"rental_uris": {"ios": "https://dc.lft.to/lastmile_qr_scan", "android": "https://dc.lft.to/lastmile_qr_scan"}, "lon": -77.0344105, "type": "electric_scooter", "fusion_lat": 0.0, "lat": 38.9097765, "name": "1ce873e28368932e92c4332a3655b009", "fusion_lon": 0.0, "bike_id": "1ce873e28368932e92c4332a3655b009", "is_disabled": 0, "is_reserved": 0}, {"rental_uris": {"ios": "https://dc.lft.to/lastmile_qr_scan", "android": "https://dc.lft.to/lastmile_qr_scan"}, "lon": -77.023145, "type": "electric_scooter", "fusion_lat": 0.0, "lat": 38.8833505, "name": "56427dd8cbe57a5b402b93b64483425f", "fusion_lon": 0.0, "bike_id": "56427dd8cbe57a5b402b93b64483425f", "is_disabled": 0, "is_reserved": 0}, {"rental_uris": {"ios": "https://dc.lft.to/lastmile_qr_scan", "android": "https://dc.lft.to/lastmile_qr_scan"}, "lon": -77.0080635, "type": "electric_scooter", "fusion_lat": 0.0, "lat": 38.91402433333333, "name": "b401051bd8b0135a5a8bb6e6c05371bf", "fusion_lon": 0.0, "bike_id": "b401051bd8b0135a5a8bb6e6c05371bf", "is_disabled": 0, "is_reserved": 0}, {"rental_uris": {"ios": "https://dc.lft.to/lastmile_qr_scan", "android": "https://dc.lft.to/lastmile_qr_scan"}, "lon": -77.13091466666667, "type": "electric_bike", "fusion_lat": 0.0, "lat": 38.8616195, "name": "8d295e9b498bbda07e6aaae0f58dd8ca", "fusion_lon": 0.0, "bike_id": "8d295e9b498bbda07e6aaae0f58dd8ca", "is_disabled": 0, "is_reserved": 0}, {"rental_uris": {"ios": "https://dc.lft.to/lastmile_qr_scan", "android": "https://dc.lft.to/lastmile_qr_scan"}, "lon": -76.98506983333333, "type": "electric_scooter", "fusion_lat": 0.0, "lat": 38.9008745, "name": "2fab403361539f375c6fdab4292cc823", "fusion_lon": 0.0, "bike_id": "2fab403361539f375c6fdab4292cc823", "is_disabled": 0, "is_reserved": 0}, {"rental_uris": {"ios": "https://dc.lft.to/lastmile_qr_scan", "android": "https://dc.lft.to/lastmile_qr_scan"}, "lon": -77.047586, "type": "electric_scooter", "fusion_lat": 0.0, "lat": 38.89726783333333, "name": "be5a3782a02aa0355abd7b7ae4e7a59e", "fusion_lon": 0.0, "bike_id": "be5a3782a02aa0355abd7b7ae4e7a59e", "is_disabled": 0, "is_reserved": 0}, {"rental_uris": {"ios": "https://dc.lft.to/lastmile_qr_scan", "android": "https://dc.lft.to/lastmile_qr_scan"}, "lon": -77.0253685, "type": "electric_scooter", "fusion_lat": 0.0, "lat": 38.90116316666666, "name": "84ab9a50436c53ce6a965d0bf5f03e0a", "fusion_lon": 0.0, "bike_id": "84ab9a50436c53ce6a965d0bf5f03e0a", "is_disabled": 0, "is_reserved": 0}, {"rental_uris": {"ios": "https://dc.lft.to/lastmile_qr_scan", "android": "https://dc.lft.to/lastmile_qr_scan"}, "lon": -77.0197105, "type": "electric_scooter", "fusion_lat": 0.0, "lat": 38.900717666666665, "name": "5236914c55145fdb4e964ec102144b8a", "fusion_lon": 0.0, "bike_id": "5236914c55145fdb4e964ec102144b8a", "is_disabled": 0, "is_reserved": 0}, {"rental_uris": {"ios": "https://dc.lft.to/lastmile_qr_scan", "android": "https://dc.lft.to/lastmile_qr_scan"}, "lon": -76.94626316666667, "type": "electric_bike", "fusion_lat": 0.0, "lat": 38.832391666666666, "name": "304c1778b4b341c9914d8e4b3c929c4f", "fusion_lon": 0.0, "bike_id": "304c1778b4b341c9914d8e4b3c929c4f", "is_disabled": 0, "is_reserved": 0}, {"rental_uris": {"ios": "https://dc.lft.to/lastmile_qr_scan", "android": "https://dc.lft.to/lastmile_qr_scan"}, "lon": -77.02169866666667, "type": "electric_scooter", "fusion_lat": 0.0, "lat": 38.893963666666664, "name": "22f7afbbc7d216bfa3473b977357eab1", "fusion_lon": 0.0, "bike_id": "22f7afbbc7d216bfa3473b977357eab1", "is_disabled": 0, "is_reserved": 0}, {"rental_uris": {"ios": "https://dc.lft.to/lastmile_qr_scan", "android": "https://dc.lft.to/lastmile_qr_scan"}, "lon": -77.04361733333333, "type": "electric_scooter", "fusion_lat": 0.0, "lat": 38.9332995, "name": "6f86e0ff4b007d62ced5a4f2ab5c4f6b", "fusion_lon": 0.0, "bike_id": "6f86e0ff4b007d62ced5a4f2ab5c4f6b", "is_disabled": 0, "is_reserved": 0}, {"rental_uris": {"ios": "https://dc.lft.to/lastmile_qr_scan", "android": "https://dc.lft.to/lastmile_qr_scan"}, "lon": -77.02958883333334, "type": "electric_scooter", "fusion_lat": 0.0, "lat": 38.9083575, "name": "4e40f0d11aa830c8bff5c6e65527c07e", "fusion_lon": 0.0, "bike_id": "4e40f0d11aa830c8bff5c6e65527c07e", "is_disabled": 0, "is_reserved": 0}, {"rental_uris": {"ios": "https://dc.lft.to/lastmile_qr_scan", "android": "https://dc.lft.to/lastmile_qr_scan"}, "lon": -77.0289475, "type": "electric_scooter", "fusion_lat": 0.0, "lat": 38.90314816666667, "name": "21b7d4456a17315bc093be00b9ff265f", "fusion_lon": 0.0, "bike_id": "21b7d4456a17315bc093be00b9ff265f", "is_disabled": 0, "is_reserved": 0}, {"rental_uris": {"ios": "https://dc.lft.to/lastmile_qr_scan", "android": "https://dc.lft.to/lastmile_qr_scan"}, "lon": -76.929798, "type": "electric_bike", "fusion_lat": 0.0, "lat": 38.88795283333333, "name": "fb4b09a8d8386871e5bfe45ab279aeed", "fusion_lon": 0.0, "bike_id": "fb4b09a8d8386871e5bfe45ab279aeed", "is_disabled": 0, "is_reserved": 0}, {"rental_uris": {"ios": "https://dc.lft.to/lastmile_qr_scan", "android": "https://dc.lft.to/lastmile_qr_scan"}, "lon": -76.93959016666666, "type": "electric_scooter", "fusion_lat": 0.0, "lat": 38.894142333333335, "name": "5a35ae4d5f5c7797e8bc3372448dbce6", "fusion_lon": 0.0, "bike_id": "5a35ae4d5f5c7797e8bc3372448dbce6", "is_disabled": 0, "is_reserved": 0}, {"rental_uris": {"ios": "https://dc.lft.to/lastmile_qr_scan", "android": "https://dc.lft.to/lastmile_qr_scan"}, "lon": -77.00618983333334, "type": "electric_scooter", "fusion_lat": 0.0, "lat": 38.874716166666666, "name": "741db1ae8438db5994ba40ea4c82dc09", "fusion_lon": 0.0, "bike_id": "741db1ae8438db5994ba40ea4c82dc09", "is_disabled": 0, "is_reserved": 0}, {"rental_uris": {"ios": "https://dc.lft.to/lastmile_qr_scan", "android": "https://dc.lft.to/lastmile_qr_scan"}, "lon": -77.01830716666667, "type": "electric_scooter", "fusion_lat": 0.0, "lat": 38.900731, "name": "beec15c76afbc6d9905f84c43c952519", "fusion_lon": 0.0, "bike_id": "beec15c76afbc6d9905f84c43c952519", "is_disabled": 0, "is_reserved": 0}, {"rental_uris": {"ios": "https://dc.lft.to/lastmile_qr_scan", "android": "https://dc.lft.to/lastmile_qr_scan"}, "lon": -76.988761, "type": "electric_scooter", "fusion_lat": 0.0, "lat": 38.832131333333336, "name": "2ba5eb51a6c0541b0100e67d372e888d", "fusion_lon": 0.0, "bike_id": "2ba5eb51a6c0541b0100e67d372e888d", "is_disabled": 0, "is_reserved": 0}, {"rental_uris": {"ios": "https://dc.lft.to/lastmile_qr_scan", "android": "https://dc.lft.to/lastmile_qr_scan"}, "lon": -76.9927775, "type": "electric_scooter", "fusion_lat": 0.0, "lat": 38.921323, "name": "e1fcfc686e688f7f048b8f7ce992a5a5", "fusion_lon": 0.0, "bike_id": "e1fcfc686e688f7f048b8f7ce992a5a5", "is_disabled": 0, "is_reserved": 0}, {"rental_uris": {"ios": "https://dc.lft.to/lastmile_qr_scan", "android": "https://dc.lft.to/lastmile_qr_scan"}, "lon": -77.05384466666666, "type": "electric_scooter", "fusion_lat": 0.0, "lat": 38.90247983333333, "name": "dcd98930b2815e5984f108723f0432f4", "fusion_lon": 0.0, "bike_id": "dcd98930b2815e5984f108723f0432f4", "is_disabled": 0, "is_reserved": 0}, {"rental_uris": {"ios": "https://dc.lft.to/lastmile_qr_scan", "android": "https://dc.lft.to/lastmile_qr_scan"}, "lon": -77.01685566666667, "type": "electric_bike", "fusion_lat": 0.0, "lat": 38.975173166666664, "name": "96a1801995e050b8b09aaf61d1727907", "fusion_lon": 0.0, "bike_id": "96a1801995e050b8b09aaf61d1727907", "is_disabled": 0, "is_reserved": 0}, {"rental_uris": {"ios": "https://dc.lft.to/lastmile_qr_scan", "android": "https://dc.lft.to/lastmile_qr_scan"}, "lon": -77.03193533333334, "type": "electric_scooter", "fusion_lat": 0.0, "lat": 38.8993575, "name": "5351c70b5b4a3a8d1e79d18e4e7779f6", "fusion_lon": 0.0, "bike_id": "5351c70b5b4a3a8d1e79d18e4e7779f6", "is_disabled": 0, "is_reserved": 0}, {"rental_uris": {"ios": "https://dc.lft.to/lastmile_qr_scan", "android": "https://dc.lft.to/lastmile_qr_scan"}, "lon": -77.042667, "type": "electric_scooter", "fusion_lat": 0.0, "lat": 38.895887, "name": "b7c4cddbf449b404ff13e82c71c01150", "fusion_lon": 0.0, "bike_id": "b7c4cddbf449b404ff13e82c71c01150", "is_disabled": 0, "is_reserved": 0}, {"rental_uris": {"ios": "https://dc.lft.to/lastmile_qr_scan", "android": "https://dc.lft.to/lastmile_qr_scan"}, "lon": -77.02413933333334, "type": "electric_scooter", "fusion_lat": 0.0, "lat": 38.926521, "name": "da756e443a0e794cc4e163c64a836061", "fusion_lon": 0.0, "bike_id": "da756e443a0e794cc4e163c64a836061", "is_disabled": 0, "is_reserved": 0}, {"rental_uris": {"ios": "https://dc.lft.to/lastmile_qr_scan", "android": "https://dc.lft.to/lastmile_qr_scan"}, "lon": -77.06400583333334, "type": "electric_bike", "fusion_lat": 0.0, "lat": 38.843480166666666, "name": "1528ac9e472461dd0df87ffdfca28eb1", "fusion_lon": 0.0, "bike_id": "1528ac9e472461dd0df87ffdfca28eb1", "is_disabled": 0, "is_reserved": 0}, {"rental_uris": {"ios": "https://dc.lft.to/lastmile_qr_scan", "android": "https://dc.lft.to/lastmile_qr_scan"}, "lon": -77.02400033333333, "type": "electric_scooter", "fusion_lat": 0.0, "lat": 38.937035333333334, "name": "57e14de55aad747b769ebf521be6f633", "fusion_lon": 0.0, "bike_id": "57e14de55aad747b769ebf521be6f633", "is_disabled": 0, "is_reserved": 0}, {"rental_uris": {"ios": "https://dc.lft.to/lastmile_qr_scan", "android": "https://dc.lft.to/lastmile_qr_scan"}, "lon": -77.053004, "type": "electric_scooter", "fusion_lat": 0.0, "lat": 38.899247, "name": "1af81b52c0fd61badb148ed227f9c09e", "fusion_lon": 0.0, "bike_id": "1af81b52c0fd61badb148ed227f9c09e", "is_disabled": 0, "is_reserved": 0}, {"rental_uris": {"ios": "https://dc.lft.to/lastmile_qr_scan", "android": "https://dc.lft.to/lastmile_qr_scan"}, "lon": -77.0306585, "type": "electric_scooter", "fusion_lat": 0.0, "lat": 38.918128, "name": "39a421505af1e1c98f89f6877b35390b", "fusion_lon": 0.0, "bike_id": "39a421505af1e1c98f89f6877b35390b", "is_disabled": 0, "is_reserved": 0}, {"rental_uris": {"ios": "https://dc.lft.to/lastmile_qr_scan", "android": "https://dc.lft.to/lastmile_qr_scan"}, "lon": -77.04905083333334, "type": "electric_scooter", "fusion_lat": 0.0, "lat": 38.9193915, "name": "c89c34369c7f718b5368efa2520d9f52", "fusion_lon": 0.0, "bike_id": "c89c34369c7f718b5368efa2520d9f52", "is_disabled": 0, "is_reserved": 0}, {"rental_uris": {"ios": "https://dc.lft.to/lastmile_qr_scan", "android": "https://dc.lft.to/lastmile_qr_scan"}, "lon": -77.00565383333333, "type": "electric_scooter", "fusion_lat": 0.0, "lat": 38.88501816666667, "name": "67dbcb6669416851971ff47e043b81ad", "fusion_lon": 0.0, "bike_id": "67dbcb6669416851971ff47e043b81ad", "is_disabled": 0, "is_reserved": 0}, {"rental_uris": {"ios": "https://dc.lft.to/lastmile_qr_scan", "android": "https://dc.lft.to/lastmile_qr_scan"}, "lon": -76.99340066666667, "type": "electric_scooter", "fusion_lat": 0.0, "lat": 38.90016683333333, "name": "2b00de4fe4a81c950e26536090bca405", "fusion_lon": 0.0, "bike_id": "2b00de4fe4a81c950e26536090bca405", "is_disabled": 0, "is_reserved": 0}, {"rental_uris": {"ios": "https://dc.lft.to/lastmile_qr_scan", "android": "https://dc.lft.to/lastmile_qr_scan"}, "lon": -77.0400925, "type": "electric_scooter", "fusion_lat": 0.0, "lat": 38.932501, "name": "3686dbfae473dd26b8907ec000ae9a1b", "fusion_lon": 0.0, "bike_id": "3686dbfae473dd26b8907ec000ae9a1b", "is_disabled": 0, "is_reserved": 0}, {"rental_uris": {"ios": "https://dc.lft.to/lastmile_qr_scan", "android": "https://dc.lft.to/lastmile_qr_scan"}, "lon": -76.991596, "type": "electric_bike", "fusion_lat": 0.0, "lat": 38.8863065, "name": "cc08afb1522b8514b5c67875e1b3ce95", "fusion_lon": 0.0, "bike_id": "cc08afb1522b8514b5c67875e1b3ce95", "is_disabled": 0, "is_reserved": 0}, {"rental_uris": {"ios": "https://dc.lft.to/lastmile_qr_scan", "android": "https://dc.lft.to/lastmile_qr_scan"}, "lon": -77.05758566666667, "type": "electric_scooter", "fusion_lat": 0.0, "lat": 38.92459483333333, "name": "cef847948cae229feae2f99452ce5106", "fusion_lon": 0.0, "bike_id": "cef847948cae229feae2f99452ce5106", "is_disabled": 0, "is_reserved": 0}, {"rental_uris": {"ios": "https://dc.lft.to/lastmile_qr_scan", "android": "https://dc.lft.to/lastmile_qr_scan"}, "lon": -77.01446166666666, "type": "electric_scooter", "fusion_lat": 0.0, "lat": 38.92976816666667, "name": "49a39e1978c8543ae8f7c430df6fe650", "fusion_lon": 0.0, "bike_id": "49a39e1978c8543ae8f7c430df6fe650", "is_disabled": 0, "is_reserved": 0}, {"rental_uris": {"ios": "https://dc.lft.to/lastmile_qr_scan", "android": "https://dc.lft.to/lastmile_qr_scan"}, "lon": -76.94872483333333, "type": "electric_scooter", "fusion_lat": 0.0, "lat": 38.89498716666667, "name": "1af3f90e361a926ada390f0a47850730", "fusion_lon": 0.0, "bike_id": "1af3f90e361a926ada390f0a47850730", "is_disabled": 0, "is_reserved": 0}, {"rental_uris": {"ios": "https://dc.lft.to/lastmile_qr_scan", "android": "https://dc.lft.to/lastmile_qr_scan"}, "lon": -77.00653916666667, "type": "electric_scooter", "fusion_lat": 0.0, "lat": 38.94462733333334, "name": "5a4923ffc8cb704c81425937461bdf78", "fusion_lon": 0.0, "bike_id": "5a4923ffc8cb704c81425937461bdf78", "is_disabled": 0, "is_reserved": 0}, {"rental_uris": {"ios": "https://dc.lft.to/lastmile_qr_scan", "android": "https://dc.lft.to/lastmile_qr_scan"}, "lon": -77.0232175, "type": "electric_scooter", "fusion_lat": 0.0, "lat": 38.930580666666664, "name": "51225987186e2c33ecbeb12093baad2d", "fusion_lon": 0.0, "bike_id": "51225987186e2c33ecbeb12093baad2d", "is_disabled": 0, "is_reserved": 0}, {"rental_uris": {"ios": "https://dc.lft.to/lastmile_qr_scan", "android": "https://dc.lft.to/lastmile_qr_scan"}, "lon": -77.04334316666667, "type": "electric_scooter", "fusion_lat": 0.0, "lat": 38.89579916666667, "name": "31a5a970c6ab66890ce275f5fb9f96d1", "fusion_lon": 0.0, "bike_id": "31a5a970c6ab66890ce275f5fb9f96d1", "is_disabled": 0, "is_reserved": 0}, {"rental_uris": {"ios": "https://dc.lft.to/lastmile_qr_scan", "android": "https://dc.lft.to/lastmile_qr_scan"}, "lon": -77.02101083333334, "type": "electric_scooter", "fusion_lat": 0.0, "lat": 38.9160715, "name": "5485c5910ae7cb146a6ee52e726f320e", "fusion_lon": 0.0, "bike_id": "5485c5910ae7cb146a6ee52e726f320e", "is_disabled": 0, "is_reserved": 0}, {"rental_uris": {"ios": "https://dc.lft.to/lastmile_qr_scan", "android": "https://dc.lft.to/lastmile_qr_scan"}, "lon": -77.03217333333333, "type": "electric_scooter", "fusion_lat": 0.0, "lat": 38.91192133333333, "name": "e7d8d90e351b7850b0f84d43310380d7", "fusion_lon": 0.0, "bike_id": "e7d8d90e351b7850b0f84d43310380d7", "is_disabled": 0, "is_reserved": 0}, {"rental_uris": {"ios": "https://dc.lft.to/lastmile_qr_scan", "android": "https://dc.lft.to/lastmile_qr_scan"}, "lon": -77.0670635, "type": "electric_scooter", "fusion_lat": 0.0, "lat": 38.90515033333333, "name": "a8c8a530efe6945e27a484db41e37896", "fusion_lon": 0.0, "bike_id": "a8c8a530efe6945e27a484db41e37896", "is_disabled": 0, "is_reserved": 0}, {"rental_uris": {"ios": "https://dc.lft.to/lastmile_qr_scan", "android": "https://dc.lft.to/lastmile_qr_scan"}, "lon": -77.0219, "type": "electric_scooter", "fusion_lat": 0.0, "lat": 38.91478433333333, "name": "2d184ee899ded0a13453e0b909909fec", "fusion_lon": 0.0, "bike_id": "2d184ee899ded0a13453e0b909909fec", "is_disabled": 0, "is_reserved": 0}, {"rental_uris": {"ios": "https://dc.lft.to/lastmile_qr_scan", "android": "https://dc.lft.to/lastmile_qr_scan"}, "lon": -77.04010883333333, "type": "electric_scooter", "fusion_lat": 0.0, "lat": 38.89869816666667, "name": "412cb116f243327131c1db9245f9e4d0", "fusion_lon": 0.0, "bike_id": "412cb116f243327131c1db9245f9e4d0", "is_disabled": 0, "is_reserved": 0}, {"rental_uris": {"ios": "https://dc.lft.to/lastmile_qr_scan", "android": "https://dc.lft.to/lastmile_qr_scan"}, "lon": -77.04268366666666, "type": "electric_scooter", "fusion_lat": 0.0, "lat": 38.903058333333334, "name": "c6f36ad84464ff83920690813d71e317", "fusion_lon": 0.0, "bike_id": "c6f36ad84464ff83920690813d71e317", "is_disabled": 0, "is_reserved": 0}, {"rental_uris": {"ios": "https://dc.lft.to/lastmile_qr_scan", "android": "https://dc.lft.to/lastmile_qr_scan"}, "lon": -77.032646, "type": "electric_scooter", "fusion_lat": 0.0, "lat": 38.92563033333333, "name": "ddd228e46213ca90c5c105ce835b41f3", "fusion_lon": 0.0, "bike_id": "ddd228e46213ca90c5c105ce835b41f3", "is_disabled": 0, "is_reserved": 0}, {"rental_uris": {"ios": "https://dc.lft.to/lastmile_qr_scan", "android": "https://dc.lft.to/lastmile_qr_scan"}, "lon": -77.106801, "type": "electric_bike", "fusion_lat": 0.0, "lat": 38.9358165, "name": "261837cfd8b8b00e77ad7d696f80ce06", "fusion_lon": 0.0, "bike_id": "261837cfd8b8b00e77ad7d696f80ce06", "is_disabled": 0, "is_reserved": 0}, {"rental_uris": {"ios": "https://dc.lft.to/lastmile_qr_scan", "android": "https://dc.lft.to/lastmile_qr_scan"}, "lon": -77.0218725, "type": "electric_scooter", "fusion_lat": 0.0, "lat": 38.898459833333334, "name": "66e1472e08826d2a31beefa0904efe49", "fusion_lon": 0.0, "bike_id": "66e1472e08826d2a31beefa0904efe49", "is_disabled": 0, "is_reserved": 0}, {"rental_uris": {"ios": "https://dc.lft.to/lastmile_qr_scan", "android": "https://dc.lft.to/lastmile_qr_scan"}, "lon": -77.00718966666666, "type": "electric_scooter", "fusion_lat": 0.0, "lat": 38.911863, "name": "38b5d0a9bde37fcff1a83e5215c2d016", "fusion_lon": 0.0, "bike_id": "38b5d0a9bde37fcff1a83e5215c2d016", "is_disabled": 0, "is_reserved": 0}, {"rental_uris": {"ios": "https://dc.lft.to/lastmile_qr_scan", "android": "https://dc.lft.to/lastmile_qr_scan"}, "lon": -76.972683, "type": "electric_bike", "fusion_lat": 0.0, "lat": 38.9197445, "name": "573b46e40f006b5f4bd1f0f8332673e9", "fusion_lon": 0.0, "bike_id": "573b46e40f006b5f4bd1f0f8332673e9", "is_disabled": 0, "is_reserved": 0}, {"rental_uris": {"ios": "https://dc.lft.to/lastmile_qr_scan", "android": "https://dc.lft.to/lastmile_qr_scan"}, "lon": -76.9802075, "type": "electric_scooter", "fusion_lat": 0.0, "lat": 38.8876675, "name": "38b9fffe3ac0bbd6df6fe145433d9f04", "fusion_lon": 0.0, "bike_id": "38b9fffe3ac0bbd6df6fe145433d9f04", "is_disabled": 0, "is_reserved": 0}, {"rental_uris": {"ios": "https://dc.lft.to/lastmile_qr_scan", "android": "https://dc.lft.to/lastmile_qr_scan"}, "lon": -77.025874, "type": "electric_scooter", "fusion_lat": 0.0, "lat": 38.880757, "name": "14f6e21d129024d0c3f7dc426d04a6ea", "fusion_lon": 0.0, "bike_id": "14f6e21d129024d0c3f7dc426d04a6ea", "is_disabled": 0, "is_reserved": 0}, {"rental_uris": {"ios": "https://dc.lft.to/lastmile_qr_scan", "android": "https://dc.lft.to/lastmile_qr_scan"}, "lon": -77.02377883333334, "type": "electric_scooter", "fusion_lat": 0.0, "lat": 38.936905333333335, "name": "a729636b4cf9b0b3760bdf7678c474b0", "fusion_lon": 0.0, "bike_id": "a729636b4cf9b0b3760bdf7678c474b0", "is_disabled": 0, "is_reserved": 0}, {"rental_uris": {"ios": "https://dc.lft.to/lastmile_qr_scan", "android": "https://dc.lft.to/lastmile_qr_scan"}, "lon": -77.11059233333333, "type": "electric_bike", "fusion_lat": 0.0, "lat": 38.870662, "name": "2ddf29f2734d0dd4ba8d3bca56d6dade", "fusion_lon": 0.0, "bike_id": "2ddf29f2734d0dd4ba8d3bca56d6dade", "is_disabled": 0, "is_reserved": 0}, {"rental_uris": {"ios": "https://dc.lft.to/lastmile_qr_scan", "android": "https://dc.lft.to/lastmile_qr_scan"}, "lon": -77.03170516666667, "type": "electric_scooter", "fusion_lat": 0.0, "lat": 38.9295375, "name": "f66449bc629134119afdd37c99d74538", "fusion_lon": 0.0, "bike_id": "f66449bc629134119afdd37c99d74538", "is_disabled": 0, "is_reserved": 0}, {"rental_uris": {"ios": "https://dc.lft.to/lastmile_qr_scan", "android": "https://dc.lft.to/lastmile_qr_scan"}, "lon": -77.0403825, "type": "electric_scooter", "fusion_lat": 0.0, "lat": 38.924755833333336, "name": "525f107eeee3850466728ca2533f5693", "fusion_lon": 0.0, "bike_id": "525f107eeee3850466728ca2533f5693", "is_disabled": 0, "is_reserved": 0}, {"rental_uris": {"ios": "https://dc.lft.to/lastmile_qr_scan", "android": "https://dc.lft.to/lastmile_qr_scan"}, "lon": -77.07018833333333, "type": "electric_bike", "fusion_lat": 0.0, "lat": 38.918764, "name": "a3e5e0a46861428f23d46a62727071de", "fusion_lon": 0.0, "bike_id": "a3e5e0a46861428f23d46a62727071de", "is_disabled": 0, "is_reserved": 0}, {"rental_uris": {"ios": "https://dc.lft.to/lastmile_qr_scan", "android": "https://dc.lft.to/lastmile_qr_scan"}, "lon": -77.0296965, "type": "electric_scooter", "fusion_lat": 0.0, "lat": 38.9105905, "name": "b531468f886692e398ca44a4476322ca", "fusion_lon": 0.0, "bike_id": "b531468f886692e398ca44a4476322ca", "is_disabled": 0, "is_reserved": 0}, {"rental_uris": {"ios": "https://dc.lft.to/lastmile_qr_scan", "android": "https://dc.lft.to/lastmile_qr_scan"}, "lon": -77.03317033333333, "type": "electric_scooter", "fusion_lat": 0.0, "lat": 38.92649566666667, "name": "bce593e6e183931bb9f4e2846e29a2d0", "fusion_lon": 0.0, "bike_id": "bce593e6e183931bb9f4e2846e29a2d0", "is_disabled": 0, "is_reserved": 0}, {"rental_uris": {"ios": "https://dc.lft.to/lastmile_qr_scan", "android": "https://dc.lft.to/lastmile_qr_scan"}, "lon": -77.00512266666667, "type": "electric_scooter", "fusion_lat": 0.0, "lat": 38.8967185, "name": "8c6afff78a76312938d9bc7a607f9ed1", "fusion_lon": 0.0, "bike_id": "8c6afff78a76312938d9bc7a607f9ed1", "is_disabled": 0, "is_reserved": 0}, {"rental_uris": {"ios": "https://dc.lft.to/lastmile_qr_scan", "android": "https://dc.lft.to/lastmile_qr_scan"}, "lon": -76.99832683333334, "type": "electric_scooter", "fusion_lat": 0.0, "lat": 38.92343533333333, "name": "e24796c118d1a2a618dfd3fc91022ba6", "fusion_lon": 0.0, "bike_id": "e24796c118d1a2a618dfd3fc91022ba6", "is_disabled": 0, "is_reserved": 0}, {"rental_uris": {"ios": "https://dc.lft.to/lastmile_qr_scan", "android": "https://dc.lft.to/lastmile_qr_scan"}, "lon": -77.03738733333333, "type": "electric_scooter", "fusion_lat": 0.0, "lat": 38.91707066666667, "name": "dd997d496b666de90c6b301bb018ac75", "fusion_lon": 0.0, "bike_id": "dd997d496b666de90c6b301bb018ac75", "is_disabled": 0, "is_reserved": 0}, {"rental_uris": {"ios": "https://dc.lft.to/lastmile_qr_scan", "android": "https://dc.lft.to/lastmile_qr_scan"}, "lon": -76.99370016666667, "type": "electric_scooter", "fusion_lat": 0.0, "lat": 38.900354, "name": "4818022288928fd6df0621fe6753acb9", "fusion_lon": 0.0, "bike_id": "4818022288928fd6df0621fe6753acb9", "is_disabled": 0, "is_reserved": 0}, {"rental_uris": {"ios": "https://dc.lft.to/lastmile_qr_scan", "android": "https://dc.lft.to/lastmile_qr_scan"}, "lon": -77.051911, "type": "electric_scooter", "fusion_lat": 0.0, "lat": 38.924169666666664, "name": "191f84fb6979dd919461d3b3d553b2bf", "fusion_lon": 0.0, "bike_id": "191f84fb6979dd919461d3b3d553b2bf", "is_disabled": 0, "is_reserved": 0}, {"rental_uris": {"ios": "https://dc.lft.to/lastmile_qr_scan", "android": "https://dc.lft.to/lastmile_qr_scan"}, "lon": -76.99517983333334, "type": "electric_scooter", "fusion_lat": 0.0, "lat": 38.894824166666666, "name": "a83927a7720001f435e6d2586bd23425", "fusion_lon": 0.0, "bike_id": "a83927a7720001f435e6d2586bd23425", "is_disabled": 0, "is_reserved": 0}, {"rental_uris": {"ios": "https://dc.lft.to/lastmile_qr_scan", "android": "https://dc.lft.to/lastmile_qr_scan"}, "lon": -77.00286666666666, "type": "electric_bike", "fusion_lat": 0.0, "lat": 38.916122, "name": "363843f619b7ff16e6b6db902ee7fecc", "fusion_lon": 0.0, "bike_id": "363843f619b7ff16e6b6db902ee7fecc", "is_disabled": 0, "is_reserved": 0}, {"rental_uris": {"ios": "https://dc.lft.to/lastmile_qr_scan", "android": "https://dc.lft.to/lastmile_qr_scan"}, "lon": -76.87811583333334, "type": "electric_bike", "fusion_lat": 0.0, "lat": 38.99226016666667, "name": "8cc053c1e5ad14908860e05b928677e8", "fusion_lon": 0.0, "bike_id": "8cc053c1e5ad14908860e05b928677e8", "is_disabled": 0, "is_reserved": 0}, {"rental_uris": {"ios": "https://dc.lft.to/lastmile_qr_scan", "android": "https://dc.lft.to/lastmile_qr_scan"}, "lon": -76.9575955, "type": "electric_bike", "fusion_lat": 0.0, "lat": 38.8842685, "name": "d0965016f1a7fba23e58a29a332dfedb", "fusion_lon": 0.0, "bike_id": "d0965016f1a7fba23e58a29a332dfedb", "is_disabled": 0, "is_reserved": 0}, {"rental_uris": {"ios": "https://dc.lft.to/lastmile_qr_scan", "android": "https://dc.lft.to/lastmile_qr_scan"}, "lon": -77.05041216666666, "type": "electric_scooter", "fusion_lat": 0.0, "lat": 38.923579833333335, "name": "1bd4bbed0a468d87f7265c652322a30c", "fusion_lon": 0.0, "bike_id": "1bd4bbed0a468d87f7265c652322a30c", "is_disabled": 0, "is_reserved": 0}, {"rental_uris": {"ios": "https://dc.lft.to/lastmile_qr_scan", "android": "https://dc.lft.to/lastmile_qr_scan"}, "lon": -76.94669483333334, "type": "electric_scooter", "fusion_lat": 0.0, "lat": 38.903361833333335, "name": "8bfe743d092d49675d46d6c9f05d4be2", "fusion_lon": 0.0, "bike_id": "8bfe743d092d49675d46d6c9f05d4be2", "is_disabled": 0, "is_reserved": 0}, {"rental_uris": {"ios": "https://dc.lft.to/lastmile_qr_scan", "android": "https://dc.lft.to/lastmile_qr_scan"}, "lon": -77.04154533333333, "type": "electric_scooter", "fusion_lat": 0.0, "lat": 38.915044, "name": "40d5fae70a48452089ee4fa7d8bde07b", "fusion_lon": 0.0, "bike_id": "40d5fae70a48452089ee4fa7d8bde07b", "is_disabled": 0, "is_reserved": 0}, {"rental_uris": {"ios": "https://dc.lft.to/lastmile_qr_scan", "android": "https://dc.lft.to/lastmile_qr_scan"}, "lon": -77.0514455, "type": "electric_scooter", "fusion_lat": 0.0, "lat": 38.90626116666667, "name": "ebc2b6665e2fffd757c57c30eb181c87", "fusion_lon": 0.0, "bike_id": "ebc2b6665e2fffd757c57c30eb181c87", "is_disabled": 0, "is_reserved": 0}, {"rental_uris": {"ios": "https://dc.lft.to/lastmile_qr_scan", "android": "https://dc.lft.to/lastmile_qr_scan"}, "lon": -77.02413566666667, "type": "electric_scooter", "fusion_lat": 0.0, "lat": 38.921753, "name": "13b98a865f42b61fa8debdeb6536930c", "fusion_lon": 0.0, "bike_id": "13b98a865f42b61fa8debdeb6536930c", "is_disabled": 0, "is_reserved": 0}, {"rental_uris": {"ios": "https://dc.lft.to/lastmile_qr_scan", "android": "https://dc.lft.to/lastmile_qr_scan"}, "lon": -77.03153816666666, "type": "electric_scooter", "fusion_lat": 0.0, "lat": 38.91124383333333, "name": "51b24690ea7d368466561c2650d69a01", "fusion_lon": 0.0, "bike_id": "51b24690ea7d368466561c2650d69a01", "is_disabled": 0, "is_reserved": 0}, {"rental_uris": {"ios": "https://dc.lft.to/lastmile_qr_scan", "android": "https://dc.lft.to/lastmile_qr_scan"}, "lon": -77.03182183333334, "type": "electric_scooter", "fusion_lat": 0.0, "lat": 38.8873775, "name": "ca88dab86950d1c6f94e04b44134b010", "fusion_lon": 0.0, "bike_id": "ca88dab86950d1c6f94e04b44134b010", "is_disabled": 0, "is_reserved": 0}, {"rental_uris": {"ios": "https://dc.lft.to/lastmile_qr_scan", "android": "https://dc.lft.to/lastmile_qr_scan"}, "lon": -77.04224066666667, "type": "electric_scooter", "fusion_lat": 0.0, "lat": 38.907392, "name": "e2b3fcca4cd4f1e9126ee5198fe56ebc", "fusion_lon": 0.0, "bike_id": "e2b3fcca4cd4f1e9126ee5198fe56ebc", "is_disabled": 0, "is_reserved": 0}, {"rental_uris": {"ios": "https://dc.lft.to/lastmile_qr_scan", "android": "https://dc.lft.to/lastmile_qr_scan"}, "lon": -76.98197916666666, "type": "electric_scooter", "fusion_lat": 0.0, "lat": 38.903934666666665, "name": "5efd57aa43b84a9602265daa781272bc", "fusion_lon": 0.0, "bike_id": "5efd57aa43b84a9602265daa781272bc", "is_disabled": 0, "is_reserved": 0}, {"rental_uris": {"ios": "https://dc.lft.to/lastmile_qr_scan", "android": "https://dc.lft.to/lastmile_qr_scan"}, "lon": -77.00206366666667, "type": "electric_scooter", "fusion_lat": 0.0, "lat": 38.89718233333333, "name": "0119a8fbe9695368b541a2ef33c6b7b8", "fusion_lon": 0.0, "bike_id": "0119a8fbe9695368b541a2ef33c6b7b8", "is_disabled": 0, "is_reserved": 0}, {"rental_uris": {"ios": "https://dc.lft.to/lastmile_qr_scan", "android": "https://dc.lft.to/lastmile_qr_scan"}, "lon": -77.07091433333333, "type": "electric_scooter", "fusion_lat": 0.0, "lat": 38.89910483333333, "name": "9f17024e2de98d949927eafa627cc208", "fusion_lon": 0.0, "bike_id": "9f17024e2de98d949927eafa627cc208", "is_disabled": 0, "is_reserved": 0}, {"rental_uris": {"ios": "https://dc.lft.to/lastmile_qr_scan", "android": "https://dc.lft.to/lastmile_qr_scan"}, "lon": -76.9486725, "type": "electric_scooter", "fusion_lat": 0.0, "lat": 38.89480783333333, "name": "92efec424ec7e655b40600d1bea8ccae", "fusion_lon": 0.0, "bike_id": "92efec424ec7e655b40600d1bea8ccae", "is_disabled": 0, "is_reserved": 0}, {"rental_uris": {"ios": "https://dc.lft.to/lastmile_qr_scan", "android": "https://dc.lft.to/lastmile_qr_scan"}, "lon": -77.07596133333334, "type": "electric_scooter", "fusion_lat": 0.0, "lat": 38.912139833333335, "name": "28f95142c748116abb84a00516a173ad", "fusion_lon": 0.0, "bike_id": "28f95142c748116abb84a00516a173ad", "is_disabled": 0, "is_reserved": 0}, {"rental_uris": {"ios": "https://dc.lft.to/lastmile_qr_scan", "android": "https://dc.lft.to/lastmile_qr_scan"}, "lon": -76.954104, "type": "electric_scooter", "fusion_lat": 0.0, "lat": 38.88991266666667, "name": "8fa831294f1133c30138e00a5327ad1c", "fusion_lon": 0.0, "bike_id": "8fa831294f1133c30138e00a5327ad1c", "is_disabled": 0, "is_reserved": 0}, {"rental_uris": {"ios": "https://dc.lft.to/lastmile_qr_scan", "android": "https://dc.lft.to/lastmile_qr_scan"}, "lon": -77.048742, "type": "electric_scooter", "fusion_lat": 0.0, "lat": 38.900823833333334, "name": "d4656f5ab5c4cd6d744025a0d41e1bd4", "fusion_lon": 0.0, "bike_id": "d4656f5ab5c4cd6d744025a0d41e1bd4", "is_disabled": 0, "is_reserved": 0}, {"rental_uris": {"ios": "https://dc.lft.to/lastmile_qr_scan", "android": "https://dc.lft.to/lastmile_qr_scan"}, "lon": -77.03320216666667, "type": "electric_scooter", "fusion_lat": 0.0, "lat": 38.9094895, "name": "2dceb35fa6ed3360fdeb63e1ed8e7cc2", "fusion_lon": 0.0, "bike_id": "2dceb35fa6ed3360fdeb63e1ed8e7cc2", "is_disabled": 0, "is_reserved": 0}, {"rental_uris": {"ios": "https://dc.lft.to/lastmile_qr_scan", "android": "https://dc.lft.to/lastmile_qr_scan"}, "lon": -77.107184, "type": "electric_bike", "fusion_lat": 0.0, "lat": 38.855326166666664, "name": "6290d56d084121a1a486608e9f9c7938", "fusion_lon": 0.0, "bike_id": "6290d56d084121a1a486608e9f9c7938", "is_disabled": 0, "is_reserved": 0}, {"rental_uris": {"ios": "https://dc.lft.to/lastmile_qr_scan", "android": "https://dc.lft.to/lastmile_qr_scan"}, "lon": -77.0212825, "type": "electric_scooter", "fusion_lat": 0.0, "lat": 38.89752566666667, "name": "942d63da9dbc5f2c2a3298d9ee7f6fb6", "fusion_lon": 0.0, "bike_id": "942d63da9dbc5f2c2a3298d9ee7f6fb6", "is_disabled": 0, "is_reserved": 0}, {"rental_uris": {"ios": "https://dc.lft.to/lastmile_qr_scan", "android": "https://dc.lft.to/lastmile_qr_scan"}, "lon": -77.07091883333334, "type": "electric_scooter", "fusion_lat": 0.0, "lat": 38.899091, "name": "db50e41f428b3e2006716860fac0e791", "fusion_lon": 0.0, "bike_id": "db50e41f428b3e2006716860fac0e791", "is_disabled": 0, "is_reserved": 0}, {"rental_uris": {"ios": "https://dc.lft.to/lastmile_qr_scan", "android": "https://dc.lft.to/lastmile_qr_scan"}, "lon": -77.04782183333333, "type": "electric_scooter", "fusion_lat": 0.0, "lat": 38.8976815, "name": "891da13c38171711dbf96f967a0d98df", "fusion_lon": 0.0, "bike_id": "891da13c38171711dbf96f967a0d98df", "is_disabled": 0, "is_reserved": 0}, {"rental_uris": {"ios": "https://dc.lft.to/lastmile_qr_scan", "android": "https://dc.lft.to/lastmile_qr_scan"}, "lon": -77.03505333333334, "type": "electric_scooter", "fusion_lat": 0.0, "lat": 38.921413666666666, "name": "c2bce8a9108bb23bb9bf935cd49b8a68", "fusion_lon": 0.0, "bike_id": "c2bce8a9108bb23bb9bf935cd49b8a68", "is_disabled": 0, "is_reserved": 0}, {"rental_uris": {"ios": "https://dc.lft.to/lastmile_qr_scan", "android": "https://dc.lft.to/lastmile_qr_scan"}, "lon": -77.08822616666667, "type": "electric_bike", "fusion_lat": 0.0, "lat": 38.909728666666666, "name": "f24a8f3d957d43081470f0729f74121b", "fusion_lon": 0.0, "bike_id": "f24a8f3d957d43081470f0729f74121b", "is_disabled": 0, "is_reserved": 0}, {"rental_uris": {"ios": "https://dc.lft.to/lastmile_qr_scan", "android": "https://dc.lft.to/lastmile_qr_scan"}, "lon": -77.05965166666667, "type": "electric_scooter", "fusion_lat": 0.0, "lat": 38.91193233333333, "name": "2387b1e47b2602d3584215a978b29f4a", "fusion_lon": 0.0, "bike_id": "2387b1e47b2602d3584215a978b29f4a", "is_disabled": 0, "is_reserved": 0}, {"rental_uris": {"ios": "https://dc.lft.to/lastmile_qr_scan", "android": "https://dc.lft.to/lastmile_qr_scan"}, "lon": -76.96521383333334, "type": "electric_scooter", "fusion_lat": 0.0, "lat": 38.87629, "name": "af97f666c3865b435622fa6a285ff2c7", "fusion_lon": 0.0, "bike_id": "af97f666c3865b435622fa6a285ff2c7", "is_disabled": 0, "is_reserved": 0}, {"rental_uris": {"ios": "https://dc.lft.to/lastmile_qr_scan", "android": "https://dc.lft.to/lastmile_qr_scan"}, "lon": -77.02708683333333, "type": "electric_scooter", "fusion_lat": 0.0, "lat": 38.918228, "name": "0f554bf5084cf8df4375f63613afab67", "fusion_lon": 0.0, "bike_id": "0f554bf5084cf8df4375f63613afab67", "is_disabled": 0, "is_reserved": 0}, {"rental_uris": {"ios": "https://dc.lft.to/lastmile_qr_scan", "android": "https://dc.lft.to/lastmile_qr_scan"}, "lon": -77.0197645, "type": "electric_scooter", "fusion_lat": 0.0, "lat": 38.897527333333336, "name": "2cb68befe43d087a4f97383a3853e0e1", "fusion_lon": 0.0, "bike_id": "2cb68befe43d087a4f97383a3853e0e1", "is_disabled": 0, "is_reserved": 0}, {"rental_uris": {"ios": "https://dc.lft.to/lastmile_qr_scan", "android": "https://dc.lft.to/lastmile_qr_scan"}, "lon": -77.00763766666667, "type": "electric_scooter", "fusion_lat": 0.0, "lat": 38.8972595, "name": "371bc3a3a9fe332d6958c1cda3be4717", "fusion_lon": 0.0, "bike_id": "371bc3a3a9fe332d6958c1cda3be4717", "is_disabled": 0, "is_reserved": 0}, {"rental_uris": {"ios": "https://dc.lft.to/lastmile_qr_scan", "android": "https://dc.lft.to/lastmile_qr_scan"}, "lon": -77.06608783333333, "type": "electric_scooter", "fusion_lat": 0.0, "lat": 38.905373, "name": "eccd6c92bbdadbce151b3ad7fca1f6ef", "fusion_lon": 0.0, "bike_id": "eccd6c92bbdadbce151b3ad7fca1f6ef", "is_disabled": 0, "is_reserved": 0}, {"rental_uris": {"ios": "https://dc.lft.to/lastmile_qr_scan", "android": "https://dc.lft.to/lastmile_qr_scan"}, "lon": -77.037715, "type": "electric_scooter", "fusion_lat": 0.0, "lat": 38.9169125, "name": "8fa551e6de360aaec441e25c50db13f9", "fusion_lon": 0.0, "bike_id": "8fa551e6de360aaec441e25c50db13f9", "is_disabled": 0, "is_reserved": 0}, {"rental_uris": {"ios": "https://dc.lft.to/lastmile_qr_scan", "android": "https://dc.lft.to/lastmile_qr_scan"}, "lon": -77.04121416666666, "type": "electric_scooter", "fusion_lat": 0.0, "lat": 38.90007716666667, "name": "9360710ea33d4ebc2bcd5fb1bee39711", "fusion_lon": 0.0, "bike_id": "9360710ea33d4ebc2bcd5fb1bee39711", "is_disabled": 0, "is_reserved": 0}, {"rental_uris": {"ios": "https://dc.lft.to/lastmile_qr_scan", "android": "https://dc.lft.to/lastmile_qr_scan"}, "lon": -77.0364745, "type": "electric_scooter", "fusion_lat": 0.0, "lat": 38.955060833333334, "name": "19b255cd092e7cdc7fed19caa50cb6f7", "fusion_lon": 0.0, "bike_id": "19b255cd092e7cdc7fed19caa50cb6f7", "is_disabled": 0, "is_reserved": 0}, {"rental_uris": {"ios": "https://dc.lft.to/lastmile_qr_scan", "android": "https://dc.lft.to/lastmile_qr_scan"}, "lon": -77.03408466666667, "type": "electric_scooter", "fusion_lat": 0.0, "lat": 38.922653833333335, "name": "9c6dfe3b8d207758decb671c6e91b10a", "fusion_lon": 0.0, "bike_id": "9c6dfe3b8d207758decb671c6e91b10a", "is_disabled": 0, "is_reserved": 0}, {"rental_uris": {"ios": "https://dc.lft.to/lastmile_qr_scan", "android": "https://dc.lft.to/lastmile_qr_scan"}, "lon": -76.95752683333333, "type": "electric_scooter", "fusion_lat": 0.0, "lat": 38.88423866666667, "name": "1d684b3baa5678ff80e1f443342d7149", "fusion_lon": 0.0, "bike_id": "1d684b3baa5678ff80e1f443342d7149", "is_disabled": 0, "is_reserved": 0}, {"rental_uris": {"ios": "https://dc.lft.to/lastmile_qr_scan", "android": "https://dc.lft.to/lastmile_qr_scan"}, "lon": -77.05215483333333, "type": "electric_scooter", "fusion_lat": 0.0, "lat": 38.925897666666664, "name": "b2c8dac4357b4d7e362c9831d8f5289a", "fusion_lon": 0.0, "bike_id": "b2c8dac4357b4d7e362c9831d8f5289a", "is_disabled": 0, "is_reserved": 0}, {"rental_uris": {"ios": "https://dc.lft.to/lastmile_qr_scan", "android": "https://dc.lft.to/lastmile_qr_scan"}, "lon": -77.0422785, "type": "electric_scooter", "fusion_lat": 0.0, "lat": 38.90732916666666, "name": "0b82c70125335ce18c16062bec336707", "fusion_lon": 0.0, "bike_id": "0b82c70125335ce18c16062bec336707", "is_disabled": 0, "is_reserved": 0}, {"rental_uris": {"ios": "https://dc.lft.to/lastmile_qr_scan", "android": "https://dc.lft.to/lastmile_qr_scan"}, "lon": -77.1249935, "type": "electric_bike", "fusion_lat": 0.0, "lat": 39.0242355, "name": "948dcfe0e8429f5b3a02fad6bb967db4", "fusion_lon": 0.0, "bike_id": "948dcfe0e8429f5b3a02fad6bb967db4", "is_disabled": 0, "is_reserved": 0}, {"rental_uris": {"ios": "https://dc.lft.to/lastmile_qr_scan", "android": "https://dc.lft.to/lastmile_qr_scan"}, "lon": -77.05621983333333, "type": "electric_scooter", "fusion_lat": 0.0, "lat": 38.906027333333334, "name": "4b18d253468bd6dd9b07b758edff7f6d", "fusion_lon": 0.0, "bike_id": "4b18d253468bd6dd9b07b758edff7f6d", "is_disabled": 0, "is_reserved": 0}, {"rental_uris": {"ios": "https://dc.lft.to/lastmile_qr_scan", "android": "https://dc.lft.to/lastmile_qr_scan"}, "lon": -77.03811383333333, "type": "electric_scooter", "fusion_lat": 0.0, "lat": 38.933955833333336, "name": "a302f358b2c566b262654e1c6b1aecf2", "fusion_lon": 0.0, "bike_id": "a302f358b2c566b262654e1c6b1aecf2", "is_disabled": 0, "is_reserved": 0}, {"rental_uris": {"ios": "https://dc.lft.to/lastmile_qr_scan", "android": "https://dc.lft.to/lastmile_qr_scan"}, "lon": -77.02528783333334, "type": "electric_scooter", "fusion_lat": 0.0, "lat": 38.943025166666665, "name": "aaec555f18c327a713f8420dbff1094b", "fusion_lon": 0.0, "bike_id": "aaec555f18c327a713f8420dbff1094b", "is_disabled": 0, "is_reserved": 0}, {"rental_uris": {"ios": "https://dc.lft.to/lastmile_qr_scan", "android": "https://dc.lft.to/lastmile_qr_scan"}, "lon": -76.949974, "type": "electric_scooter", "fusion_lat": 0.0, "lat": 38.89371283333333, "name": "7c2534489a984150f8da801f410eabd2", "fusion_lon": 0.0, "bike_id": "7c2534489a984150f8da801f410eabd2", "is_disabled": 0, "is_reserved": 0}, {"rental_uris": {"ios": "https://dc.lft.to/lastmile_qr_scan", "android": "https://dc.lft.to/lastmile_qr_scan"}, "lon": -77.03774233333333, "type": "electric_scooter", "fusion_lat": 0.0, "lat": 38.91552983333333, "name": "3d7a5e3c54ad4fb674dc18929f761f81", "fusion_lon": 0.0, "bike_id": "3d7a5e3c54ad4fb674dc18929f761f81", "is_disabled": 0, "is_reserved": 0}, {"rental_uris": {"ios": "https://dc.lft.to/lastmile_qr_scan", "android": "https://dc.lft.to/lastmile_qr_scan"}, "lon": -77.02589783333333, "type": "electric_scooter", "fusion_lat": 0.0, "lat": 38.88695333333333, "name": "15793083995f0e765dfd33dbaa4ab99c", "fusion_lon": 0.0, "bike_id": "15793083995f0e765dfd33dbaa4ab99c", "is_disabled": 0, "is_reserved": 0}, {"rental_uris": {"ios": "https://dc.lft.to/lastmile_qr_scan", "android": "https://dc.lft.to/lastmile_qr_scan"}, "lon": -77.024531, "type": "electric_scooter", "fusion_lat": 0.0, "lat": 38.924027333333335, "name": "81b8468465d36673f13154b0a2a7154a", "fusion_lon": 0.0, "bike_id": "81b8468465d36673f13154b0a2a7154a", "is_disabled": 0, "is_reserved": 0}, {"rental_uris": {"ios": "https://dc.lft.to/lastmile_qr_scan", "android": "https://dc.lft.to/lastmile_qr_scan"}, "lon": -76.99753383333334, "type": "electric_scooter", "fusion_lat": 0.0, "lat": 38.9001535, "name": "0fb7022f0a309cba2147441080834ef6", "fusion_lon": 0.0, "bike_id": "0fb7022f0a309cba2147441080834ef6", "is_disabled": 0, "is_reserved": 0}, {"rental_uris": {"ios": "https://dc.lft.to/lastmile_qr_scan", "android": "https://dc.lft.to/lastmile_qr_scan"}, "lon": -77.02169883333333, "type": "electric_scooter", "fusion_lat": 0.0, "lat": 38.942928333333334, "name": "be41ecd71ab094c96272cf5e6438ffcf", "fusion_lon": 0.0, "bike_id": "be41ecd71ab094c96272cf5e6438ffcf", "is_disabled": 0, "is_reserved": 0}, {"rental_uris": {"ios": "https://dc.lft.to/lastmile_qr_scan", "android": "https://dc.lft.to/lastmile_qr_scan"}, "lon": -76.9608425, "type": "electric_scooter", "fusion_lat": 0.0, "lat": 38.87418366666667, "name": "77e1cfa5fc23815cbe16650d8c8289f0", "fusion_lon": 0.0, "bike_id": "77e1cfa5fc23815cbe16650d8c8289f0", "is_disabled": 0, "is_reserved": 0}, {"rental_uris": {"ios": "https://dc.lft.to/lastmile_qr_scan", "android": "https://dc.lft.to/lastmile_qr_scan"}, "lon": -76.98970066666666, "type": "electric_scooter", "fusion_lat": 0.0, "lat": 38.85921783333333, "name": "f8d104cc8f3b0808a568f3ee408adbb7", "fusion_lon": 0.0, "bike_id": "f8d104cc8f3b0808a568f3ee408adbb7", "is_disabled": 0, "is_reserved": 0}, {"rental_uris": {"ios": "https://dc.lft.to/lastmile_qr_scan", "android": "https://dc.lft.to/lastmile_qr_scan"}, "lon": -77.0331235, "type": "electric_scooter", "fusion_lat": 0.0, "lat": 38.89875683333333, "name": "bc94c61acc1aa8b41bbbae5a62ee2476", "fusion_lon": 0.0, "bike_id": "bc94c61acc1aa8b41bbbae5a62ee2476", "is_disabled": 0, "is_reserved": 0}, {"rental_uris": {"ios": "https://dc.lft.to/lastmile_qr_scan", "android": "https://dc.lft.to/lastmile_qr_scan"}, "lon": -77.03626666666666, "type": "electric_bike", "fusion_lat": 0.0, "lat": 38.95606733333334, "name": "06feab3d68dd4cc04cdf35bc09479f36", "fusion_lon": 0.0, "bike_id": "06feab3d68dd4cc04cdf35bc09479f36", "is_disabled": 0, "is_reserved": 0}, {"rental_uris": {"ios": "https://dc.lft.to/lastmile_qr_scan", "android": "https://dc.lft.to/lastmile_qr_scan"}, "lon": -77.04495816666666, "type": "electric_scooter", "fusion_lat": 0.0, "lat": 38.91181433333333, "name": "cb2b07944dea320a53bf58c924947568", "fusion_lon": 0.0, "bike_id": "cb2b07944dea320a53bf58c924947568", "is_disabled": 0, "is_reserved": 0}, {"rental_uris": {"ios": "https://dc.lft.to/lastmile_qr_scan", "android": "https://dc.lft.to/lastmile_qr_scan"}, "lon": -77.03096383333333, "type": "electric_scooter", "fusion_lat": 0.0, "lat": 38.914052, "name": "cd1fc88a82977392928edbcccdc12c41", "fusion_lon": 0.0, "bike_id": "cd1fc88a82977392928edbcccdc12c41", "is_disabled": 0, "is_reserved": 0}, {"rental_uris": {"ios": "https://dc.lft.to/lastmile_qr_scan", "android": "https://dc.lft.to/lastmile_qr_scan"}, "lon": -77.042555, "type": "electric_scooter", "fusion_lat": 0.0, "lat": 38.915833666666664, "name": "12a5b562b7e87f6268eeab3b2a58174d", "fusion_lon": 0.0, "bike_id": "12a5b562b7e87f6268eeab3b2a58174d", "is_disabled": 0, "is_reserved": 0}, {"rental_uris": {"ios": "https://dc.lft.to/lastmile_qr_scan", "android": "https://dc.lft.to/lastmile_qr_scan"}, "lon": -77.03710016666666, "type": "electric_scooter", "fusion_lat": 0.0, "lat": 38.905600666666665, "name": "32f5238ea041c41e15a320cbd9ee2307", "fusion_lon": 0.0, "bike_id": "32f5238ea041c41e15a320cbd9ee2307", "is_disabled": 0, "is_reserved": 0}, {"rental_uris": {"ios": "https://dc.lft.to/lastmile_qr_scan", "android": "https://dc.lft.to/lastmile_qr_scan"}, "lon": -77.0587745, "type": "electric_scooter", "fusion_lat": 0.0, "lat": 38.936351333333334, "name": "2d436b13be3c5bd05e63b2751586cdc1", "fusion_lon": 0.0, "bike_id": "2d436b13be3c5bd05e63b2751586cdc1", "is_disabled": 0, "is_reserved": 0}, {"rental_uris": {"ios": "https://dc.lft.to/lastmile_qr_scan", "android": "https://dc.lft.to/lastmile_qr_scan"}, "lon": -77.021607, "type": "electric_scooter", "fusion_lat": 0.0, "lat": 38.92611466666666, "name": "8887c31f022d3e11267bcf07fa62cc5a", "fusion_lon": 0.0, "bike_id": "8887c31f022d3e11267bcf07fa62cc5a", "is_disabled": 0, "is_reserved": 0}, {"rental_uris": {"ios": "https://dc.lft.to/lastmile_qr_scan", "android": "https://dc.lft.to/lastmile_qr_scan"}, "lon": -77.0222195, "type": "electric_scooter", "fusion_lat": 0.0, "lat": 38.938685166666666, "name": "9d97a6c7b027ef86551819ea19b5fbad", "fusion_lon": 0.0, "bike_id": "9d97a6c7b027ef86551819ea19b5fbad", "is_disabled": 0, "is_reserved": 0}, {"rental_uris": {"ios": "https://dc.lft.to/lastmile_qr_scan", "android": "https://dc.lft.to/lastmile_qr_scan"}, "lon": -77.03467366666666, "type": "electric_scooter", "fusion_lat": 0.0, "lat": 38.9206385, "name": "03661f393a542853d30b472b75568cd4", "fusion_lon": 0.0, "bike_id": "03661f393a542853d30b472b75568cd4", "is_disabled": 0, "is_reserved": 0}, {"rental_uris": {"ios": "https://dc.lft.to/lastmile_qr_scan", "android": "https://dc.lft.to/lastmile_qr_scan"}, "lon": -76.9861575, "type": "electric_scooter", "fusion_lat": 0.0, "lat": 38.868253833333334, "name": "cab5a7a05696abf38ade34ca2cd08b50", "fusion_lon": 0.0, "bike_id": "cab5a7a05696abf38ade34ca2cd08b50", "is_disabled": 0, "is_reserved": 0}, {"rental_uris": {"ios": "https://dc.lft.to/lastmile_qr_scan", "android": "https://dc.lft.to/lastmile_qr_scan"},