{"data": {"bikes": [{"lon": -77.0024045, "fusion_lon": 0.0, "bike_id": "4ec92ccc6aa1a154627f9e8c7270b149", "type": "electric_scooter", "name": "4ec92ccc6aa1a154627f9e8c7270b149", "rental_uris": {"android": "https://dc.lft.to/lastmile_qr_scan", "ios": "https://dc.lft.to/lastmile_qr_scan"}, "is_disabled": 0, "fusion_lat": 0.0, "lat": 38.87488616666667, "is_reserved": 0}, {"lon": -77.01543566666666, "fusion_lon": 0.0, "bike_id": "2c8d04046057a3daaad235a5a5864614", "type": "electric_scooter", "name": "2c8d04046057a3daaad235a5a5864614", "rental_uris": {"android": "https://dc.lft.to/lastmile_qr_scan", "ios": "https://dc.lft.to/lastmile_qr_scan"}, "is_disabled": 0, "fusion_lat": 0.0, "lat": 38.885672166666666, "is_reserved": 0}, {"lon": -76.9837575, "fusion_lon": 0.0, "bike_id": "0f211a45187f390a7157481369f78952", "type": "electric_scooter", "name": "0f211a45187f390a7157481369f78952", "rental_uris": {"android": "https://dc.lft.to/lastmile_qr_scan", "ios": "https://dc.lft.to/lastmile_qr_scan"}, "is_disabled": 0, "fusion_lat": 0.0, "lat": 38.89975116666667, "is_reserved": 0}, {"lon": -77.04567766666666, "fusion_lon": 0.0, "bike_id": "d9754b641cfd9716c5be49e9bae5b4f5", "type": "electric_scooter", "name": "d9754b641cfd9716c5be49e9bae5b4f5", "rental_uris": {"android": "https://dc.lft.to/lastmile_qr_scan", "ios": "https://dc.lft.to/lastmile_qr_scan"}, "is_disabled": 0, "fusion_lat": 0.0, "lat": 38.9134055, "is_reserved": 0}, {"lon": -76.933753, "fusion_lon": 0.0, "bike_id": "f4144319513403e08d3e3f80d75a94ac", "type": "electric_scooter", "name": "f4144319513403e08d3e3f80d75a94ac", "rental_uris": {"android": "https://dc.lft.to/lastmile_qr_scan", "ios": "https://dc.lft.to/lastmile_qr_scan"}, "is_disabled": 0, "fusion_lat": 0.0, "lat": 38.8992175, "is_reserved": 0}, {"lon": -77.04539683333333, "fusion_lon": 0.0, "bike_id": "116fa3a3dffcc16590325cb3576295ee", "type": "electric_scooter", "name": "116fa3a3dffcc16590325cb3576295ee", "rental_uris": {"android": "https://dc.lft.to/lastmile_qr_scan", "ios": "https://dc.lft.to/lastmile_qr_scan"}, "is_disabled": 0, "fusion_lat": 0.0, "lat": 38.89740583333333, "is_reserved": 0}, {"lon": -77.04305616666667, "fusion_lon": 0.0, "bike_id": "34edef02134d9cf3a69291a740395c21", "type": "electric_scooter", "name": "34edef02134d9cf3a69291a740395c21", "rental_uris": {"android": "https://dc.lft.to/lastmile_qr_scan", "ios": "https://dc.lft.to/lastmile_qr_scan"}, "is_disabled": 0, "fusion_lat": 0.0, "lat": 38.931795, "is_reserved": 0}, {"lon": -77.02560716666666, "fusion_lon": 0.0, "bike_id": "e7876378e23801eae89f32f90499be5e", "type": "electric_scooter", "name": "e7876378e23801eae89f32f90499be5e", "rental_uris": {"android": "https://dc.lft.to/lastmile_qr_scan", "ios": "https://dc.lft.to/lastmile_qr_scan"}, "is_disabled": 0, "fusion_lat": 0.0, "lat": 38.91919633333333, "is_reserved": 0}, {"lon": -77.00181616666667, "fusion_lon": 0.0, "bike_id": "06acdef28251744b7c7fe5fa045b072f", "type": "electric_bike", "name": "06acdef28251744b7c7fe5fa045b072f", "rental_uris": {"android": "https://dc.lft.to/lastmile_qr_scan", "ios": "https://dc.lft.to/lastmile_qr_scan"}, "is_disabled": 0, "fusion_lat": 0.0, "lat": 38.844651666666664, "is_reserved": 0}, {"lon": -76.97031366666667, "fusion_lon": 0.0, "bike_id": "7562595dc403a8fbe74ead1eefcf2ced", "type": "electric_scooter", "name": "7562595dc403a8fbe74ead1eefcf2ced", "rental_uris": {"android": "https://dc.lft.to/lastmile_qr_scan", "ios": "https://dc.lft.to/lastmile_qr_scan"}, "is_disabled": 0, "fusion_lat": 0.0, "lat": 38.873606333333335, "is_reserved": 0}, {"lon": -77.027155, "fusion_lon": 0.0, "bike_id": "59211d41956d218e8081d116fbde0909", "type": "electric_scooter", "name": "59211d41956d218e8081d116fbde0909", "rental_uris": {"android": "https://dc.lft.to/lastmile_qr_scan", "ios": "https://dc.lft.to/lastmile_qr_scan"}, "is_disabled": 0, "fusion_lat": 0.0, "lat": 38.91811383333334, "is_reserved": 0}, {"lon": -77.023441, "fusion_lon": 0.0, "bike_id": "b97dbe834907d8e1228c63c62aaf5167", "type": "electric_scooter", "name": "b97dbe834907d8e1228c63c62aaf5167", "rental_uris": {"android": "https://dc.lft.to/lastmile_qr_scan", "ios": "https://dc.lft.to/lastmile_qr_scan"}, "is_disabled": 0, "fusion_lat": 0.0, "lat": 38.91774483333333, "is_reserved": 0}, {"lon": -77.0158285, "fusion_lon": 0.0, "bike_id": "c398d6889415d6c011bc94881a99013b", "type": "electric_scooter", "name": "c398d6889415d6c011bc94881a99013b", "rental_uris": {"android": "https://dc.lft.to/lastmile_qr_scan", "ios": "https://dc.lft.to/lastmile_qr_scan"}, "is_disabled": 0, "fusion_lat": 0.0, "lat": 38.915724, "is_reserved": 0}, {"lon": -77.0448785, "fusion_lon": 0.0, "bike_id": "021ce872f78cb9dbe4e71166d2d2b6f7", "type": "electric_scooter", "name": "021ce872f78cb9dbe4e71166d2d2b6f7", "rental_uris": {"android": "https://dc.lft.to/lastmile_qr_scan", "ios": "https://dc.lft.to/lastmile_qr_scan"}, "is_disabled": 0, "fusion_lat": 0.0, "lat": 38.899508833333336, "is_reserved": 0}, {"lon": -77.02798, "fusion_lon": 0.0, "bike_id": "cf928c2170a1c4bea05d12e83f6377f6", "type": "electric_scooter", "name": "cf928c2170a1c4bea05d12e83f6377f6", "rental_uris": {"android": "https://dc.lft.to/lastmile_qr_scan", "ios": "https://dc.lft.to/lastmile_qr_scan"}, "is_disabled": 0, "fusion_lat": 0.0, "lat": 38.96040583333333, "is_reserved": 0}, {"lon": -77.02283466666667, "fusion_lon": 0.0, "bike_id": "95adbfcca068e5341478a03864bfa350", "type": "electric_scooter", "name": "95adbfcca068e5341478a03864bfa350", "rental_uris": {"android": "https://dc.lft.to/lastmile_qr_scan", "ios": "https://dc.lft.to/lastmile_qr_scan"}, "is_disabled": 0, "fusion_lat": 0.0, "lat": 38.9170205, "is_reserved": 0}, {"lon": -77.03639866666667, "fusion_lon": 0.0, "bike_id": "cc70322c2b09b67f43a3d56c474d9309", "type": "electric_scooter", "name": "cc70322c2b09b67f43a3d56c474d9309", "rental_uris": {"android": "https://dc.lft.to/lastmile_qr_scan", "ios": "https://dc.lft.to/lastmile_qr_scan"}, "is_disabled": 0, "fusion_lat": 0.0, "lat": 38.92409283333333, "is_reserved": 0}, {"lon": -77.03854533333333, "fusion_lon": 0.0, "bike_id": "61c75d395e6142ef049b0c641924a98b", "type": "electric_scooter", "name": "61c75d395e6142ef049b0c641924a98b", "rental_uris": {"android": "https://dc.lft.to/lastmile_qr_scan", "ios": "https://dc.lft.to/lastmile_qr_scan"}, "is_disabled": 0, "fusion_lat": 0.0, "lat": 38.9165785, "is_reserved": 0}, {"lon": -77.04665683333333, "fusion_lon": 0.0, "bike_id": "2c725852f8534f30290f3d9c8dbd93c1", "type": "electric_scooter", "name": "2c725852f8534f30290f3d9c8dbd93c1", "rental_uris": {"android": "https://dc.lft.to/lastmile_qr_scan", "ios": "https://dc.lft.to/lastmile_qr_scan"}, "is_disabled": 0, "fusion_lat": 0.0, "lat": 38.9013385, "is_reserved": 0}, {"lon": -77.02387033333333, "fusion_lon": 0.0, "bike_id": "321b047f05f2e169672bb1eb57ce29b5", "type": "electric_bike", "name": "321b047f05f2e169672bb1eb57ce29b5", "rental_uris": {"android": "https://dc.lft.to/lastmile_qr_scan", "ios": "https://dc.lft.to/lastmile_qr_scan"}, "is_disabled": 0, "fusion_lat": 0.0, "lat": 38.989685, "is_reserved": 0}, {"lon": -77.04177166666666, "fusion_lon": 0.0, "bike_id": "843eb4fbaac51ae06ea6667ed0e41231", "type": "electric_scooter", "name": "843eb4fbaac51ae06ea6667ed0e41231", "rental_uris": {"android": "https://dc.lft.to/lastmile_qr_scan", "ios": "https://dc.lft.to/lastmile_qr_scan"}, "is_disabled": 0, "fusion_lat": 0.0, "lat": 38.905244333333336, "is_reserved": 0}, {"lon": -76.97979, "fusion_lon": 0.0, "bike_id": "5e1d6c8f0c1d91c6baf6d0946255a2c8", "type": "electric_scooter", "name": "5e1d6c8f0c1d91c6baf6d0946255a2c8", "rental_uris": {"android": "https://dc.lft.to/lastmile_qr_scan", "ios": "https://dc.lft.to/lastmile_qr_scan"}, "is_disabled": 0, "fusion_lat": 0.0, "lat": 38.897441, "is_reserved": 0}, {"lon": -77.05070483333333, "fusion_lon": 0.0, "bike_id": "b15480d5600aa4fd43cc786674f26e78", "type": "electric_scooter", "name": "b15480d5600aa4fd43cc786674f26e78", "rental_uris": {"android": "https://dc.lft.to/lastmile_qr_scan", "ios": "https://dc.lft.to/lastmile_qr_scan"}, "is_disabled": 0, "fusion_lat": 0.0, "lat": 38.925399, "is_reserved": 0}, {"lon": -76.98599016666667, "fusion_lon": 0.0, "bike_id": "c2c234b134d94d1acad2d223b52081d8", "type": "electric_scooter", "name": "c2c234b134d94d1acad2d223b52081d8", "rental_uris": {"android": "https://dc.lft.to/lastmile_qr_scan", "ios": "https://dc.lft.to/lastmile_qr_scan"}, "is_disabled": 0, "fusion_lat": 0.0, "lat": 38.9036685, "is_reserved": 0}, {"lon": -77.0213495, "fusion_lon": 0.0, "bike_id": "2d43fbc822d1f19b1782b13bf069f7b3", "type": "electric_scooter", "name": "2d43fbc822d1f19b1782b13bf069f7b3", "rental_uris": {"android": "https://dc.lft.to/lastmile_qr_scan", "ios": "https://dc.lft.to/lastmile_qr_scan"}, "is_disabled": 0, "fusion_lat": 0.0, "lat": 38.915523666666665, "is_reserved": 0}, {"lon": -77.0435735, "fusion_lon": 0.0, "bike_id": "e6d4f38b95f95f1543b3a89b04678503", "type": "electric_scooter", "name": "e6d4f38b95f95f1543b3a89b04678503", "rental_uris": {"android": "https://dc.lft.to/lastmile_qr_scan", "ios": "https://dc.lft.to/lastmile_qr_scan"}, "is_disabled": 0, "fusion_lat": 0.0, "lat": 38.90594933333333, "is_reserved": 0}, {"lon": -77.0383185, "fusion_lon": 0.0, "bike_id": "42bfe0c33e8742b2ab1525a45e1f8136", "type": "electric_scooter", "name": "42bfe0c33e8742b2ab1525a45e1f8136", "rental_uris": {"android": "https://dc.lft.to/lastmile_qr_scan", "ios": "https://dc.lft.to/lastmile_qr_scan"}, "is_disabled": 0, "fusion_lat": 0.0, "lat": 38.90261866666667, "is_reserved": 0}, {"lon": -76.98579383333333, "fusion_lon": 0.0, "bike_id": "08d73dee2a2d066d7370120f6ef7f966", "type": "electric_scooter", "name": "08d73dee2a2d066d7370120f6ef7f966", "rental_uris": {"android": "https://dc.lft.to/lastmile_qr_scan", "ios": "https://dc.lft.to/lastmile_qr_scan"}, "is_disabled": 0, "fusion_lat": 0.0, "lat": 38.8668305, "is_reserved": 0}, {"lon": -77.01611033333333, "fusion_lon": 0.0, "bike_id": "b4efb514d70c6a1b824105077699bf43", "type": "electric_scooter", "name": "b4efb514d70c6a1b824105077699bf43", "rental_uris": {"android": "https://dc.lft.to/lastmile_qr_scan", "ios": "https://dc.lft.to/lastmile_qr_scan"}, "is_disabled": 0, "fusion_lat": 0.0, "lat": 38.91682733333333, "is_reserved": 0}, {"lon": -77.02175416666667, "fusion_lon": 0.0, "bike_id": "376b102bce197e2a653c63b227f2758d", "type": "electric_scooter", "name": "376b102bce197e2a653c63b227f2758d", "rental_uris": {"android": "https://dc.lft.to/lastmile_qr_scan", "ios": "https://dc.lft.to/lastmile_qr_scan"}, "is_disabled": 0, "fusion_lat": 0.0, "lat": 38.90968633333333, "is_reserved": 0}, {"lon": -77.04171266666667, "fusion_lon": 0.0, "bike_id": "ae5f9b43e593e71e0fd6aa7b9ceb7aff", "type": "electric_scooter", "name": "ae5f9b43e593e71e0fd6aa7b9ceb7aff", "rental_uris": {"android": "https://dc.lft.to/lastmile_qr_scan", "ios": "https://dc.lft.to/lastmile_qr_scan"}, "is_disabled": 0, "fusion_lat": 0.0, "lat": 38.91861883333333, "is_reserved": 0}, {"lon": -77.01311, "fusion_lon": 0.0, "bike_id": "0821d59a0b91dc4206a51492bae911ad", "type": "electric_scooter", "name": "0821d59a0b91dc4206a51492bae911ad", "rental_uris": {"android": "https://dc.lft.to/lastmile_qr_scan", "ios": "https://dc.lft.to/lastmile_qr_scan"}, "is_disabled": 0, "fusion_lat": 0.0, "lat": 38.9014055, "is_reserved": 0}, {"lon": -77.02701583333334, "fusion_lon": 0.0, "bike_id": "3d5530c39e3517df2de1e9e060a42bd7", "type": "electric_scooter", "name": "3d5530c39e3517df2de1e9e060a42bd7", "rental_uris": {"android": "https://dc.lft.to/lastmile_qr_scan", "ios": "https://dc.lft.to/lastmile_qr_scan"}, "is_disabled": 0, "fusion_lat": 0.0, "lat": 38.9171675, "is_reserved": 0}, {"lon": -77.07269483333333, "fusion_lon": 0.0, "bike_id": "61b7fd8f4419a2c73936fa742bab1cc0", "type": "electric_scooter", "name": "61b7fd8f4419a2c73936fa742bab1cc0", "rental_uris": {"android": "https://dc.lft.to/lastmile_qr_scan", "ios": "https://dc.lft.to/lastmile_qr_scan"}, "is_disabled": 0, "fusion_lat": 0.0, "lat": 38.93474366666667, "is_reserved": 0}, {"lon": -77.04204083333333, "fusion_lon": 0.0, "bike_id": "ffc76f15e77f1b8c21cebb0fe0fd68d2", "type": "electric_scooter", "name": "ffc76f15e77f1b8c21cebb0fe0fd68d2", "rental_uris": {"android": "https://dc.lft.to/lastmile_qr_scan", "ios": "https://dc.lft.to/lastmile_qr_scan"}, "is_disabled": 0, "fusion_lat": 0.0, "lat": 38.920438833333336, "is_reserved": 0}, {"lon": -76.93339833333333, "fusion_lon": 0.0, "bike_id": "1aa9e310ece4aae4fca43261c4457e79", "type": "electric_scooter", "name": "1aa9e310ece4aae4fca43261c4457e79", "rental_uris": {"android": "https://dc.lft.to/lastmile_qr_scan", "ios": "https://dc.lft.to/lastmile_qr_scan"}, "is_disabled": 0, "fusion_lat": 0.0, "lat": 38.90870183333333, "is_reserved": 0}, {"lon": -77.03040133333333, "fusion_lon": 0.0, "bike_id": "36eca28950ca074af9c057182aa6fa29", "type": "electric_scooter", "name": "36eca28950ca074af9c057182aa6fa29", "rental_uris": {"android": "https://dc.lft.to/lastmile_qr_scan", "ios": "https://dc.lft.to/lastmile_qr_scan"}, "is_disabled": 0, "fusion_lat": 0.0, "lat": 38.931268, "is_reserved": 0}, {"lon": -77.03978016666667, "fusion_lon": 0.0, "bike_id": "3df2dc2464ccdaa116fa2192c4f81e7c", "type": "electric_scooter", "name": "3df2dc2464ccdaa116fa2192c4f81e7c", "rental_uris": {"android": "https://dc.lft.to/lastmile_qr_scan", "ios": "https://dc.lft.to/lastmile_qr_scan"}, "is_disabled": 0, "fusion_lat": 0.0, "lat": 38.8943655, "is_reserved": 0}, {"lon": -77.034379, "fusion_lon": 0.0, "bike_id": "3d97a02498337f49fcb01ea83100bedc", "type": "electric_scooter", "name": "3d97a02498337f49fcb01ea83100bedc", "rental_uris": {"android": "https://dc.lft.to/lastmile_qr_scan", "ios": "https://dc.lft.to/lastmile_qr_scan"}, "is_disabled": 0, "fusion_lat": 0.0, "lat": 38.91735633333333, "is_reserved": 0}, {"lon": -77.04282316666666, "fusion_lon": 0.0, "bike_id": "fd15adb7eeeccc50423872462275f66c", "type": "electric_scooter", "name": "fd15adb7eeeccc50423872462275f66c", "rental_uris": {"android": "https://dc.lft.to/lastmile_qr_scan", "ios": "https://dc.lft.to/lastmile_qr_scan"}, "is_disabled": 0, "fusion_lat": 0.0, "lat": 38.9141015, "is_reserved": 0}, {"lon": -77.0162695, "fusion_lon": 0.0, "bike_id": "eec1ac3a63652e1ca53249501611903e", "type": "electric_scooter", "name": "eec1ac3a63652e1ca53249501611903e", "rental_uris": {"android": "https://dc.lft.to/lastmile_qr_scan", "ios": "https://dc.lft.to/lastmile_qr_scan"}, "is_disabled": 0, "fusion_lat": 0.0, "lat": 38.903196333333334, "is_reserved": 0}, {"lon": -77.047083, "fusion_lon": 0.0, "bike_id": "3b361dc15dad5c504521108de54c7ddd", "type": "electric_scooter", "name": "3b361dc15dad5c504521108de54c7ddd", "rental_uris": {"android": "https://dc.lft.to/lastmile_qr_scan", "ios": "https://dc.lft.to/lastmile_qr_scan"}, "is_disabled": 0, "fusion_lat": 0.0, "lat": 38.902388, "is_reserved": 0}, {"lon": -77.0319125, "fusion_lon": 0.0, "bike_id": "359147877d00dc602ad70ea767594230", "type": "electric_scooter", "name": "359147877d00dc602ad70ea767594230", "rental_uris": {"android": "https://dc.lft.to/lastmile_qr_scan", "ios": "https://dc.lft.to/lastmile_qr_scan"}, "is_disabled": 0, "fusion_lat": 0.0, "lat": 38.89722033333334, "is_reserved": 0}, {"lon": -77.01861516666666, "fusion_lon": 0.0, "bike_id": "9e19eb3d6bfecfa243093ea0552e9343", "type": "electric_scooter", "name": "9e19eb3d6bfecfa243093ea0552e9343", "rental_uris": {"android": "https://dc.lft.to/lastmile_qr_scan", "ios": "https://dc.lft.to/lastmile_qr_scan"}, "is_disabled": 0, "fusion_lat": 0.0, "lat": 38.949245166666664, "is_reserved": 0}, {"lon": -77.02473683333334, "fusion_lon": 0.0, "bike_id": "3713e791cf705aeaaba58af42045f1a3", "type": "electric_scooter", "name": "3713e791cf705aeaaba58af42045f1a3", "rental_uris": {"android": "https://dc.lft.to/lastmile_qr_scan", "ios": "https://dc.lft.to/lastmile_qr_scan"}, "is_disabled": 0, "fusion_lat": 0.0, "lat": 38.902446, "is_reserved": 0}, {"lon": -77.04010133333334, "fusion_lon": 0.0, "bike_id": "246d63f888df1b89a994bb15f03ac7ef", "type": "electric_scooter", "name": "246d63f888df1b89a994bb15f03ac7ef", "rental_uris": {"android": "https://dc.lft.to/lastmile_qr_scan", "ios": "https://dc.lft.to/lastmile_qr_scan"}, "is_disabled": 0, "fusion_lat": 0.0, "lat": 38.934323, "is_reserved": 0}, {"lon": -77.02296016666666, "fusion_lon": 0.0, "bike_id": "c40914ee564489cf44b541906face8e2", "type": "electric_scooter", "name": "c40914ee564489cf44b541906face8e2", "rental_uris": {"android": "https://dc.lft.to/lastmile_qr_scan", "ios": "https://dc.lft.to/lastmile_qr_scan"}, "is_disabled": 0, "fusion_lat": 0.0, "lat": 38.9087965, "is_reserved": 0}, {"lon": -77.04660716666666, "fusion_lon": 0.0, "bike_id": "ca63b8af0f2c2bcfd296f87fb80e89fd", "type": "electric_scooter", "name": "ca63b8af0f2c2bcfd296f87fb80e89fd", "rental_uris": {"android": "https://dc.lft.to/lastmile_qr_scan", "ios": "https://dc.lft.to/lastmile_qr_scan"}, "is_disabled": 0, "fusion_lat": 0.0, "lat": 38.8922435, "is_reserved": 0}, {"lon": -76.97428283333333, "fusion_lon": 0.0, "bike_id": "bfa8888bd7e86d29a9a62b7c641faa7b", "type": "electric_bike", "name": "bfa8888bd7e86d29a9a62b7c641faa7b", "rental_uris": {"android": "https://dc.lft.to/lastmile_qr_scan", "ios": "https://dc.lft.to/lastmile_qr_scan"}, "is_disabled": 0, "fusion_lat": 0.0, "lat": 38.932322666666664, "is_reserved": 0}, {"lon": -77.02587366666667, "fusion_lon": 0.0, "bike_id": "1d76603e0c9cf499fe61debd499c1652", "type": "electric_scooter", "name": "1d76603e0c9cf499fe61debd499c1652", "rental_uris": {"android": "https://dc.lft.to/lastmile_qr_scan", "ios": "https://dc.lft.to/lastmile_qr_scan"}, "is_disabled": 0, "fusion_lat": 0.0, "lat": 38.91412183333333, "is_reserved": 0}, {"lon": -77.034482, "fusion_lon": 0.0, "bike_id": "b6a6077b653f26f00536bb4fbb22fcd5", "type": "electric_scooter", "name": "b6a6077b653f26f00536bb4fbb22fcd5", "rental_uris": {"android": "https://dc.lft.to/lastmile_qr_scan", "ios": "https://dc.lft.to/lastmile_qr_scan"}, "is_disabled": 0, "fusion_lat": 0.0, "lat": 38.917372666666665, "is_reserved": 0}, {"lon": -77.03961633333333, "fusion_lon": 0.0, "bike_id": "83a342f6535f3fc4d4ba4021efdbc1bf", "type": "electric_scooter", "name": "83a342f6535f3fc4d4ba4021efdbc1bf", "rental_uris": {"android": "https://dc.lft.to/lastmile_qr_scan", "ios": "https://dc.lft.to/lastmile_qr_scan"}, "is_disabled": 0, "fusion_lat": 0.0, "lat": 38.8958815, "is_reserved": 0}, {"lon": -77.01969583333333, "fusion_lon": 0.0, "bike_id": "84f7f064e853e5e9861aa25f749d703b", "type": "electric_scooter", "name": "84f7f064e853e5e9861aa25f749d703b", "rental_uris": {"android": "https://dc.lft.to/lastmile_qr_scan", "ios": "https://dc.lft.to/lastmile_qr_scan"}, "is_disabled": 0, "fusion_lat": 0.0, "lat": 38.935803166666666, "is_reserved": 0}, {"lon": -76.90734916666666, "fusion_lon": 0.0, "bike_id": "f04776db912a6fc7957179c9b3e0d568", "type": "electric_bike", "name": "f04776db912a6fc7957179c9b3e0d568", "rental_uris": {"android": "https://dc.lft.to/lastmile_qr_scan", "ios": "https://dc.lft.to/lastmile_qr_scan"}, "is_disabled": 0, "fusion_lat": 0.0, "lat": 38.89612966666667, "is_reserved": 0}, {"lon": -77.03599716666666, "fusion_lon": 0.0, "bike_id": "3e4f48a1c408214dfacd4474d878dcc6", "type": "electric_scooter", "name": "3e4f48a1c408214dfacd4474d878dcc6", "rental_uris": {"android": "https://dc.lft.to/lastmile_qr_scan", "ios": "https://dc.lft.to/lastmile_qr_scan"}, "is_disabled": 0, "fusion_lat": 0.0, "lat": 38.906922333333334, "is_reserved": 0}, {"lon": -77.0412845, "fusion_lon": 0.0, "bike_id": "ece95c371376ac9cda1593e2f9cefbf2", "type": "electric_scooter", "name": "ece95c371376ac9cda1593e2f9cefbf2", "rental_uris": {"android": "https://dc.lft.to/lastmile_qr_scan", "ios": "https://dc.lft.to/lastmile_qr_scan"}, "is_disabled": 0, "fusion_lat": 0.0, "lat": 38.913712333333336, "is_reserved": 0}, {"lon": -77.03182716666667, "fusion_lon": 0.0, "bike_id": "6f99d87c0e7646efc5f08fcb9e0c68c6", "type": "electric_scooter", "name": "6f99d87c0e7646efc5f08fcb9e0c68c6", "rental_uris": {"android": "https://dc.lft.to/lastmile_qr_scan", "ios": "https://dc.lft.to/lastmile_qr_scan"}, "is_disabled": 0, "fusion_lat": 0.0, "lat": 38.897236666666664, "is_reserved": 0}, {"lon": -77.0469725, "fusion_lon": 0.0, "bike_id": "0d4d00ea3c469ca224efde85f844e31f", "type": "electric_scooter", "name": "0d4d00ea3c469ca224efde85f844e31f", "rental_uris": {"android": "https://dc.lft.to/lastmile_qr_scan", "ios": "https://dc.lft.to/lastmile_qr_scan"}, "is_disabled": 0, "fusion_lat": 0.0, "lat": 38.9008485, "is_reserved": 0}, {"lon": -77.03835816666667, "fusion_lon": 0.0, "bike_id": "84fd3bf86145eb3f0c3839441b2bae52", "type": "electric_scooter", "name": "84fd3bf86145eb3f0c3839441b2bae52", "rental_uris": {"android": "https://dc.lft.to/lastmile_qr_scan", "ios": "https://dc.lft.to/lastmile_qr_scan"}, "is_disabled": 0, "fusion_lat": 0.0, "lat": 38.921800166666664, "is_reserved": 0}, {"lon": -77.201412, "fusion_lon": 0.0, "bike_id": "8c6ba52628fa6e12330cf925e283e028", "type": "electric_bike", "name": "8c6ba52628fa6e12330cf925e283e028", "rental_uris": {"android": "https://dc.lft.to/lastmile_qr_scan", "ios": "https://dc.lft.to/lastmile_qr_scan"}, "is_disabled": 0, "fusion_lat": 0.0, "lat": 38.92216066666667, "is_reserved": 0}, {"lon": -76.94638433333333, "fusion_lon": 0.0, "bike_id": "c728cc3748991b946c65c919141f4271", "type": "electric_scooter", "name": "c728cc3748991b946c65c919141f4271", "rental_uris": {"android": "https://dc.lft.to/lastmile_qr_scan", "ios": "https://dc.lft.to/lastmile_qr_scan"}, "is_disabled": 0, "fusion_lat": 0.0, "lat": 38.8986775, "is_reserved": 0}, {"lon": -77.04497083333334, "fusion_lon": 0.0, "bike_id": "b4aba5d2edb327e223edf913a397b398", "type": "electric_scooter", "name": "b4aba5d2edb327e223edf913a397b398", "rental_uris": {"android": "https://dc.lft.to/lastmile_qr_scan", "ios": "https://dc.lft.to/lastmile_qr_scan"}, "is_disabled": 0, "fusion_lat": 0.0, "lat": 38.911883, "is_reserved": 0}, {"lon": -77.02237366666667, "fusion_lon": 0.0, "bike_id": "3548a95349b235d6305b1ccf782557a2", "type": "electric_scooter", "name": "3548a95349b235d6305b1ccf782557a2", "rental_uris": {"android": "https://dc.lft.to/lastmile_qr_scan", "ios": "https://dc.lft.to/lastmile_qr_scan"}, "is_disabled": 0, "fusion_lat": 0.0, "lat": 38.93473266666667, "is_reserved": 0}, {"lon": -77.040811, "fusion_lon": 0.0, "bike_id": "a8864cca46ac77d7863bba956fa04d9e", "type": "electric_scooter", "name": "a8864cca46ac77d7863bba956fa04d9e", "rental_uris": {"android": "https://dc.lft.to/lastmile_qr_scan", "ios": "https://dc.lft.to/lastmile_qr_scan"}, "is_disabled": 0, "fusion_lat": 0.0, "lat": 38.9038195, "is_reserved": 0}, {"lon": -77.021764, "fusion_lon": 0.0, "bike_id": "de4a86ebaf81ee166a4cd860ee4a2830", "type": "electric_scooter", "name": "de4a86ebaf81ee166a4cd860ee4a2830", "rental_uris": {"android": "https://dc.lft.to/lastmile_qr_scan", "ios": "https://dc.lft.to/lastmile_qr_scan"}, "is_disabled": 0, "fusion_lat": 0.0, "lat": 38.91499316666667, "is_reserved": 0}, {"lon": -77.03289516666666, "fusion_lon": 0.0, "bike_id": "659966899a18a46388928f77c397bd41", "type": "electric_scooter", "name": "659966899a18a46388928f77c397bd41", "rental_uris": {"android": "https://dc.lft.to/lastmile_qr_scan", "ios": "https://dc.lft.to/lastmile_qr_scan"}, "is_disabled": 0, "fusion_lat": 0.0, "lat": 38.92272483333333, "is_reserved": 0}, {"lon": -77.0315815, "fusion_lon": 0.0, "bike_id": "b3bf9c492265919e2032112771905991", "type": "electric_bike", "name": "b3bf9c492265919e2032112771905991", "rental_uris": {"android": "https://dc.lft.to/lastmile_qr_scan", "ios": "https://dc.lft.to/lastmile_qr_scan"}, "is_disabled": 0, "fusion_lat": 0.0, "lat": 38.964397166666664, "is_reserved": 0}, {"lon": -76.952567, "fusion_lon": 0.0, "bike_id": "d707777c5b9929fb4d69f435f9b93e24", "type": "electric_bike", "name": "d707777c5b9929fb4d69f435f9b93e24", "rental_uris": {"android": "https://dc.lft.to/lastmile_qr_scan", "ios": "https://dc.lft.to/lastmile_qr_scan"}, "is_disabled": 0, "fusion_lat": 0.0, "lat": 38.906908, "is_reserved": 0}, {"lon": -77.04675683333333, "fusion_lon": 0.0, "bike_id": "f6432a3b8830948acd549c1a3073bded", "type": "electric_scooter", "name": "f6432a3b8830948acd549c1a3073bded", "rental_uris": {"android": "https://dc.lft.to/lastmile_qr_scan", "ios": "https://dc.lft.to/lastmile_qr_scan"}, "is_disabled": 0, "fusion_lat": 0.0, "lat": 38.8932755, "is_reserved": 0}, {"lon": -76.9709905, "fusion_lon": 0.0, "bike_id": "bd97f3ec076b72597eccb04ddff41ef1", "type": "electric_scooter", "name": "bd97f3ec076b72597eccb04ddff41ef1", "rental_uris": {"android": "https://dc.lft.to/lastmile_qr_scan", "ios": "https://dc.lft.to/lastmile_qr_scan"}, "is_disabled": 0, "fusion_lat": 0.0, "lat": 38.870646666666666, "is_reserved": 0}, {"lon": -76.94634916666666, "fusion_lon": 0.0, "bike_id": "7b6e3d9df869d85c29ec629f0bdbdfed", "type": "electric_scooter", "name": "7b6e3d9df869d85c29ec629f0bdbdfed", "rental_uris": {"android": "https://dc.lft.to/lastmile_qr_scan", "ios": "https://dc.lft.to/lastmile_qr_scan"}, "is_disabled": 0, "fusion_lat": 0.0, "lat": 38.898353, "is_reserved": 0}, {"lon": -77.05038933333333, "fusion_lon": 0.0, "bike_id": "b2590e5217ddb802cf40ad587ea37663", "type": "electric_scooter", "name": "b2590e5217ddb802cf40ad587ea37663", "rental_uris": {"android": "https://dc.lft.to/lastmile_qr_scan", "ios": "https://dc.lft.to/lastmile_qr_scan"}, "is_disabled": 0, "fusion_lat": 0.0, "lat": 38.923426166666665, "is_reserved": 0}, {"lon": -77.0088525, "fusion_lon": 0.0, "bike_id": "2e6b4bd345b2485a4a9a01c6a297619f", "type": "electric_bike", "name": "2e6b4bd345b2485a4a9a01c6a297619f", "rental_uris": {"android": "https://dc.lft.to/lastmile_qr_scan", "ios": "https://dc.lft.to/lastmile_qr_scan"}, "is_disabled": 0, "fusion_lat": 0.0, "lat": 38.912492, "is_reserved": 0}, {"lon": -77.02177216666666, "fusion_lon": 0.0, "bike_id": "d329996ffd6ec1ff0aae7a23443ab42b", "type": "electric_scooter", "name": "d329996ffd6ec1ff0aae7a23443ab42b", "rental_uris": {"android": "https://dc.lft.to/lastmile_qr_scan", "ios": "https://dc.lft.to/lastmile_qr_scan"}, "is_disabled": 0, "fusion_lat": 0.0, "lat": 38.942914, "is_reserved": 0}, {"lon": -77.02122516666667, "fusion_lon": 0.0, "bike_id": "a422ea8c6004f5f44e30ad13311fd201", "type": "electric_scooter", "name": "a422ea8c6004f5f44e30ad13311fd201", "rental_uris": {"android": "https://dc.lft.to/lastmile_qr_scan", "ios": "https://dc.lft.to/lastmile_qr_scan"}, "is_disabled": 0, "fusion_lat": 0.0, "lat": 38.91414283333334, "is_reserved": 0}, {"lon": -77.03981583333334, "fusion_lon": 0.0, "bike_id": "e0b77981d7368256e2bcf0e090827c18", "type": "electric_scooter", "name": "e0b77981d7368256e2bcf0e090827c18", "rental_uris": {"android": "https://dc.lft.to/lastmile_qr_scan", "ios": "https://dc.lft.to/lastmile_qr_scan"}, "is_disabled": 0, "fusion_lat": 0.0, "lat": 38.918145, "is_reserved": 0}, {"lon": -77.0442945, "fusion_lon": 0.0, "bike_id": "80092469de752770e3d97656fd3d01c7", "type": "electric_scooter", "name": "80092469de752770e3d97656fd3d01c7", "rental_uris": {"android": "https://dc.lft.to/lastmile_qr_scan", "ios": "https://dc.lft.to/lastmile_qr_scan"}, "is_disabled": 0, "fusion_lat": 0.0, "lat": 38.90946516666666, "is_reserved": 0}, {"lon": -77.005957, "fusion_lon": 0.0, "bike_id": "3f77ff8facf7c436023f1e1571497d79", "type": "electric_scooter", "name": "3f77ff8facf7c436023f1e1571497d79", "rental_uris": {"android": "https://dc.lft.to/lastmile_qr_scan", "ios": "https://dc.lft.to/lastmile_qr_scan"}, "is_disabled": 0, "fusion_lat": 0.0, "lat": 38.876501, "is_reserved": 0}, {"lon": -76.9493515, "fusion_lon": 0.0, "bike_id": "31c6a84dd3c31bf43d54b6ac822c67f3", "type": "electric_scooter", "name": "31c6a84dd3c31bf43d54b6ac822c67f3", "rental_uris": {"android": "https://dc.lft.to/lastmile_qr_scan", "ios": "https://dc.lft.to/lastmile_qr_scan"}, "is_disabled": 0, "fusion_lat": 0.0, "lat": 38.89359483333333, "is_reserved": 0}, {"lon": -77.037302, "fusion_lon": 0.0, "bike_id": "4acbb29841c5807931d6729ee916656b", "type": "electric_scooter", "name": "4acbb29841c5807931d6729ee916656b", "rental_uris": {"android": "https://dc.lft.to/lastmile_qr_scan", "ios": "https://dc.lft.to/lastmile_qr_scan"}, "is_disabled": 0, "fusion_lat": 0.0, "lat": 38.92881533333333, "is_reserved": 0}, {"lon": -77.0189095, "fusion_lon": 0.0, "bike_id": "90cbc6dd5e311243132a00269d851869", "type": "electric_scooter", "name": "90cbc6dd5e311243132a00269d851869", "rental_uris": {"android": "https://dc.lft.to/lastmile_qr_scan", "ios": "https://dc.lft.to/lastmile_qr_scan"}, "is_disabled": 0, "fusion_lat": 0.0, "lat": 38.90275916666667, "is_reserved": 0}, {"lon": -77.03183966666667, "fusion_lon": 0.0, "bike_id": "6267a74539581bead3ea8840b57f3d36", "type": "electric_scooter", "name": "6267a74539581bead3ea8840b57f3d36", "rental_uris": {"android": "https://dc.lft.to/lastmile_qr_scan", "ios": "https://dc.lft.to/lastmile_qr_scan"}, "is_disabled": 0, "fusion_lat": 0.0, "lat": 38.919244, "is_reserved": 0}, {"lon": -77.10790666666666, "fusion_lon": 0.0, "bike_id": "905c74a12644d24df836b132e8b0d69c", "type": "electric_bike", "name": "905c74a12644d24df836b132e8b0d69c", "rental_uris": {"android": "https://dc.lft.to/lastmile_qr_scan", "ios": "https://dc.lft.to/lastmile_qr_scan"}, "is_disabled": 0, "fusion_lat": 0.0, "lat": 38.85246466666667, "is_reserved": 0}, {"lon": -76.9913265, "fusion_lon": 0.0, "bike_id": "8556a814f74693b2eaa43a0a19e20f82", "type": "electric_scooter", "name": "8556a814f74693b2eaa43a0a19e20f82", "rental_uris": {"android": "https://dc.lft.to/lastmile_qr_scan", "ios": "https://dc.lft.to/lastmile_qr_scan"}, "is_disabled": 0, "fusion_lat": 0.0, "lat": 38.8464185, "is_reserved": 0}, {"lon": -77.04351383333334, "fusion_lon": 0.0, "bike_id": "3a9afb92e6a0c5c75597331f80ad5edb", "type": "electric_scooter", "name": "3a9afb92e6a0c5c75597331f80ad5edb", "rental_uris": {"android": "https://dc.lft.to/lastmile_qr_scan", "ios": "https://dc.lft.to/lastmile_qr_scan"}, "is_disabled": 0, "fusion_lat": 0.0, "lat": 38.901184, "is_reserved": 0}, {"lon": -77.04482316666666, "fusion_lon": 0.0, "bike_id": "56753b5eab07844af26c8e3f02be17bf", "type": "electric_scooter", "name": "56753b5eab07844af26c8e3f02be17bf", "rental_uris": {"android": "https://dc.lft.to/lastmile_qr_scan", "ios": "https://dc.lft.to/lastmile_qr_scan"}, "is_disabled": 0, "fusion_lat": 0.0, "lat": 38.89938433333333, "is_reserved": 0}, {"lon": -76.9854415, "fusion_lon": 0.0, "bike_id": "ecb1def6273f8f6d8339cf21ad9e306e", "type": "electric_scooter", "name": "ecb1def6273f8f6d8339cf21ad9e306e", "rental_uris": {"android": "https://dc.lft.to/lastmile_qr_scan", "ios": "https://dc.lft.to/lastmile_qr_scan"}, "is_disabled": 0, "fusion_lat": 0.0, "lat": 38.866895166666666, "is_reserved": 0}, {"lon": -77.03325183333334, "fusion_lon": 0.0, "bike_id": "1673fe392080a1bb0f1f801b1861899f", "type": "electric_scooter", "name": "1673fe392080a1bb0f1f801b1861899f", "rental_uris": {"android": "https://dc.lft.to/lastmile_qr_scan", "ios": "https://dc.lft.to/lastmile_qr_scan"}, "is_disabled": 0, "fusion_lat": 0.0, "lat": 38.890088166666665, "is_reserved": 0}, {"lon": -76.997759, "fusion_lon": 0.0, "bike_id": "749b4cb9a72e7c9345bb9b133a94f324", "type": "electric_scooter", "name": "749b4cb9a72e7c9345bb9b133a94f324", "rental_uris": {"android": "https://dc.lft.to/lastmile_qr_scan", "ios": "https://dc.lft.to/lastmile_qr_scan"}, "is_disabled": 0, "fusion_lat": 0.0, "lat": 38.90893116666667, "is_reserved": 0}, {"lon": -77.024601, "fusion_lon": 0.0, "bike_id": "9544ff8804be8526170b566c5eeee9d9", "type": "electric_scooter", "name": "9544ff8804be8526170b566c5eeee9d9", "rental_uris": {"android": "https://dc.lft.to/lastmile_qr_scan", "ios": "https://dc.lft.to/lastmile_qr_scan"}, "is_disabled": 0, "fusion_lat": 0.0, "lat": 38.917059333333334, "is_reserved": 0}, {"lon": -77.04255116666667, "fusion_lon": 0.0, "bike_id": "7fca6d98108f4c63ffea328e50ba2890", "type": "electric_scooter", "name": "7fca6d98108f4c63ffea328e50ba2890", "rental_uris": {"android": "https://dc.lft.to/lastmile_qr_scan", "ios": "https://dc.lft.to/lastmile_qr_scan"}, "is_disabled": 0, "fusion_lat": 0.0, "lat": 38.92367616666667, "is_reserved": 0}, {"lon": -76.9951295, "fusion_lon": 0.0, "bike_id": "9d9114bc96da9986c8a65a26331fcda2", "type": "electric_bike", "name": "9d9114bc96da9986c8a65a26331fcda2", "rental_uris": {"android": "https://dc.lft.to/lastmile_qr_scan", "ios": "https://dc.lft.to/lastmile_qr_scan"}, "is_disabled": 0, "fusion_lat": 0.0, "lat": 38.8217845, "is_reserved": 0}, {"lon": -77.01533966666666, "fusion_lon": 0.0, "bike_id": "494f00a2d8bd8169c7fabb9f54c3af6a", "type": "electric_scooter", "name": "494f00a2d8bd8169c7fabb9f54c3af6a", "rental_uris": {"android": "https://dc.lft.to/lastmile_qr_scan", "ios": "https://dc.lft.to/lastmile_qr_scan"}, "is_disabled": 0, "fusion_lat": 0.0, "lat": 38.884817, "is_reserved": 0}, {"lon": -77.00682483333334, "fusion_lon": 0.0, "bike_id": "5d8d47077945a3b2453312f72ab9686b", "type": "electric_scooter", "name": "5d8d47077945a3b2453312f72ab9686b", "rental_uris": {"android": "https://dc.lft.to/lastmile_qr_scan", "ios": "https://dc.lft.to/lastmile_qr_scan"}, "is_disabled": 0, "fusion_lat": 0.0, "lat": 38.8717305, "is_reserved": 0}, {"lon": -77.05435883333334, "fusion_lon": 0.0, "bike_id": "9e199f3301bd4ee74de768af9b3cefbb", "type": "electric_scooter", "name": "9e199f3301bd4ee74de768af9b3cefbb", "rental_uris": {"android": "https://dc.lft.to/lastmile_qr_scan", "ios": "https://dc.lft.to/lastmile_qr_scan"}, "is_disabled": 0, "fusion_lat": 0.0, "lat": 38.8960435, "is_reserved": 0}, {"lon": -77.0785575, "fusion_lon": 0.0, "bike_id": "bca72783396f7b89e8579a425bd886ec", "type": "electric_scooter", "name": "bca72783396f7b89e8579a425bd886ec", "rental_uris": {"android": "https://dc.lft.to/lastmile_qr_scan", "ios": "https://dc.lft.to/lastmile_qr_scan"}, "is_disabled": 0, "fusion_lat": 0.0, "lat": 38.9314345, "is_reserved": 0}, {"lon": -77.06307033333333, "fusion_lon": 0.0, "bike_id": "4cd9b1d71f6feac771cf2eb6ba73c2fa", "type": "electric_bike", "name": "4cd9b1d71f6feac771cf2eb6ba73c2fa", "rental_uris": {"android": "https://dc.lft.to/lastmile_qr_scan", "ios": "https://dc.lft.to/lastmile_qr_scan"}, "is_disabled": 0, "fusion_lat": 0.0, "lat": 38.798577, "is_reserved": 0}, {"lon": -77.032755, "fusion_lon": 0.0, "bike_id": "7026a06206a3a874f2be215d1c0898c7", "type": "electric_scooter", "name": "7026a06206a3a874f2be215d1c0898c7", "rental_uris": {"android": "https://dc.lft.to/lastmile_qr_scan", "ios": "https://dc.lft.to/lastmile_qr_scan"}, "is_disabled": 0, "fusion_lat": 0.0, "lat": 38.9275525, "is_reserved": 0}, {"lon": -76.99943216666667, "fusion_lon": 0.0, "bike_id": "9d5ac032ec37e89dc6aa4f4bb234d8a1", "type": "electric_scooter", "name": "9d5ac032ec37e89dc6aa4f4bb234d8a1", "rental_uris": {"android": "https://dc.lft.to/lastmile_qr_scan", "ios": "https://dc.lft.to/lastmile_qr_scan"}, "is_disabled": 0, "fusion_lat": 0.0, "lat": 38.89089416666667, "is_reserved": 0}, {"lon": -77.00349566666667, "fusion_lon": 0.0, "bike_id": "ac4608b8057f32aad751e24e345afe42", "type": "electric_scooter", "name": "ac4608b8057f32aad751e24e345afe42", "rental_uris": {"android": "https://dc.lft.to/lastmile_qr_scan", "ios": "https://dc.lft.to/lastmile_qr_scan"}, "is_disabled": 0, "fusion_lat": 0.0, "lat": 38.917614, "is_reserved": 0}, {"lon": -77.01156666666667, "fusion_lon": 0.0, "bike_id": "8a207fee8571061c8e094333d7bc9600", "type": "electric_scooter", "name": "8a207fee8571061c8e094333d7bc9600", "rental_uris": {"android": "https://dc.lft.to/lastmile_qr_scan", "ios": "https://dc.lft.to/lastmile_qr_scan"}, "is_disabled": 0, "fusion_lat": 0.0, "lat": 38.95638266666667, "is_reserved": 0}, {"lon": -77.023813, "fusion_lon": 0.0, "bike_id": "f2921cdf9bba1c7f89a5d598f0038356", "type": "electric_scooter", "name": "f2921cdf9bba1c7f89a5d598f0038356", "rental_uris": {"android": "https://dc.lft.to/lastmile_qr_scan", "ios": "https://dc.lft.to/lastmile_qr_scan"}, "is_disabled": 0, "fusion_lat": 0.0, "lat": 38.90944566666667, "is_reserved": 0}, {"lon": -77.02287266666667, "fusion_lon": 0.0, "bike_id": "933061b8c0599dc59b044ead4662646b", "type": "electric_scooter", "name": "933061b8c0599dc59b044ead4662646b", "rental_uris": {"android": "https://dc.lft.to/lastmile_qr_scan", "ios": "https://dc.lft.to/lastmile_qr_scan"}, "is_disabled": 0, "fusion_lat": 0.0, "lat": 38.89512366666666, "is_reserved": 0}, {"lon": -77.01444583333334, "fusion_lon": 0.0, "bike_id": "d212059b66447302bf2498cae11cec27", "type": "electric_scooter", "name": "d212059b66447302bf2498cae11cec27", "rental_uris": {"android": "https://dc.lft.to/lastmile_qr_scan", "ios": "https://dc.lft.to/lastmile_qr_scan"}, "is_disabled": 0, "fusion_lat": 0.0, "lat": 38.942248, "is_reserved": 0}, {"lon": -77.0097835, "fusion_lon": 0.0, "bike_id": "8245374641ab6dfbbb9cc44a3b21403b", "type": "electric_scooter", "name": "8245374641ab6dfbbb9cc44a3b21403b", "rental_uris": {"android": "https://dc.lft.to/lastmile_qr_scan", "ios": "https://dc.lft.to/lastmile_qr_scan"}, "is_disabled": 0, "fusion_lat": 0.0, "lat": 38.91921816666667, "is_reserved": 0}, {"lon": -77.0217335, "fusion_lon": 0.0, "bike_id": "a0326293c7f714fd22f85a6f7a828213", "type": "electric_scooter", "name": "a0326293c7f714fd22f85a6f7a828213", "rental_uris": {"android": "https://dc.lft.to/lastmile_qr_scan", "ios": "https://dc.lft.to/lastmile_qr_scan"}, "is_disabled": 0, "fusion_lat": 0.0, "lat": 38.914839, "is_reserved": 0}, {"lon": -76.9653545, "fusion_lon": 0.0, "bike_id": "220ff7b6e0365cfa17c3c8ebe2424c05", "type": "electric_bike", "name": "220ff7b6e0365cfa17c3c8ebe2424c05", "rental_uris": {"android": "https://dc.lft.to/lastmile_qr_scan", "ios": "https://dc.lft.to/lastmile_qr_scan"}, "is_disabled": 0, "fusion_lat": 0.0, "lat": 38.8747805, "is_reserved": 0}, {"lon": -77.03472133333334, "fusion_lon": 0.0, "bike_id": "7b5900ce19d7e5633f3d4c22f5085144", "type": "electric_scooter", "name": "7b5900ce19d7e5633f3d4c22f5085144", "rental_uris": {"android": "https://dc.lft.to/lastmile_qr_scan", "ios": "https://dc.lft.to/lastmile_qr_scan"}, "is_disabled": 0, "fusion_lat": 0.0, "lat": 38.9170905, "is_reserved": 0}, {"lon": -77.04294333333333, "fusion_lon": 0.0, "bike_id": "4ab7e834156a65bcaddde06096c361c7", "type": "electric_scooter", "name": "4ab7e834156a65bcaddde06096c361c7", "rental_uris": {"android": "https://dc.lft.to/lastmile_qr_scan", "ios": "https://dc.lft.to/lastmile_qr_scan"}, "is_disabled": 0, "fusion_lat": 0.0, "lat": 38.9085535, "is_reserved": 0}, {"lon": -77.01727633333333, "fusion_lon": 0.0, "bike_id": "65606a50f7808b4b23b4b845cc1a8d2c", "type": "electric_scooter", "name": "65606a50f7808b4b23b4b845cc1a8d2c", "rental_uris": {"android": "https://dc.lft.to/lastmile_qr_scan", "ios": "https://dc.lft.to/lastmile_qr_scan"}, "is_disabled": 0, "fusion_lat": 0.0, "lat": 38.9161265, "is_reserved": 0}, {"lon": -77.03399783333333, "fusion_lon": 0.0, "bike_id": "d182c54d8152b6d4c4a4a663f9156092", "type": "electric_scooter", "name": "d182c54d8152b6d4c4a4a663f9156092", "rental_uris": {"android": "https://dc.lft.to/lastmile_qr_scan", "ios": "https://dc.lft.to/lastmile_qr_scan"}, "is_disabled": 0, "fusion_lat": 0.0, "lat": 38.921990666666666, "is_reserved": 0}, {"lon": -77.05350683333333, "fusion_lon": 0.0, "bike_id": "b0c2511727441b1284e74732eaf9d0fd", "type": "electric_scooter", "name": "b0c2511727441b1284e74732eaf9d0fd", "rental_uris": {"android": "https://dc.lft.to/lastmile_qr_scan", "ios": "https://dc.lft.to/lastmile_qr_scan"}, "is_disabled": 0, "fusion_lat": 0.0, "lat": 38.9271645, "is_reserved": 0}, {"lon": -77.0352405, "fusion_lon": 0.0, "bike_id": "df33f7bc4c6f316fa3410559b6cd63c5", "type": "electric_scooter", "name": "df33f7bc4c6f316fa3410559b6cd63c5", "rental_uris": {"android": "https://dc.lft.to/lastmile_qr_scan", "ios": "https://dc.lft.to/lastmile_qr_scan"}, "is_disabled": 0, "fusion_lat": 0.0, "lat": 38.92198233333333, "is_reserved": 0}, {"lon": -77.030402, "fusion_lon": 0.0, "bike_id": "06d6914f5f426cf10b05ede44f28b572", "type": "electric_scooter", "name": "06d6914f5f426cf10b05ede44f28b572", "rental_uris": {"android": "https://dc.lft.to/lastmile_qr_scan", "ios": "https://dc.lft.to/lastmile_qr_scan"}, "is_disabled": 0, "fusion_lat": 0.0, "lat": 38.91625583333333, "is_reserved": 0}, {"lon": -77.0007545, "fusion_lon": 0.0, "bike_id": "eaadfcd2d8ec623a3ecdd3c27b403169", "type": "electric_scooter", "name": "eaadfcd2d8ec623a3ecdd3c27b403169", "rental_uris": {"android": "https://dc.lft.to/lastmile_qr_scan", "ios": "https://dc.lft.to/lastmile_qr_scan"}, "is_disabled": 0, "fusion_lat": 0.0, "lat": 38.8737415, "is_reserved": 0}, {"lon": -77.0415325, "fusion_lon": 0.0, "bike_id": "3f9f4a4925d7807e46e88deb2a989f59", "type": "electric_scooter", "name": "3f9f4a4925d7807e46e88deb2a989f59", "rental_uris": {"android": "https://dc.lft.to/lastmile_qr_scan", "ios": "https://dc.lft.to/lastmile_qr_scan"}, "is_disabled": 0, "fusion_lat": 0.0, "lat": 38.91949916666667, "is_reserved": 0}, {"lon": -77.015052, "fusion_lon": 0.0, "bike_id": "6d179715e238d6b18210c23a84c182ba", "type": "electric_scooter", "name": "6d179715e238d6b18210c23a84c182ba", "rental_uris": {"android": "https://dc.lft.to/lastmile_qr_scan", "ios": "https://dc.lft.to/lastmile_qr_scan"}, "is_disabled": 0, "fusion_lat": 0.0, "lat": 38.9057225, "is_reserved": 0}, {"lon": -77.01624983333333, "fusion_lon": 0.0, "bike_id": "1d1ffff6cb8a1226551fcc068ec15a4a", "type": "electric_scooter", "name": "1d1ffff6cb8a1226551fcc068ec15a4a", "rental_uris": {"android": "https://dc.lft.to/lastmile_qr_scan", "ios": "https://dc.lft.to/lastmile_qr_scan"}, "is_disabled": 0, "fusion_lat": 0.0, "lat": 38.8811735, "is_reserved": 0}, {"lon": -77.04667333333333, "fusion_lon": 0.0, "bike_id": "aac1169547b2f43a77d1aa8942fca0ec", "type": "electric_scooter", "name": "aac1169547b2f43a77d1aa8942fca0ec", "rental_uris": {"android": "https://dc.lft.to/lastmile_qr_scan", "ios": "https://dc.lft.to/lastmile_qr_scan"}, "is_disabled": 0, "fusion_lat": 0.0, "lat": 38.90280933333333, "is_reserved": 0}, {"lon": -77.04549316666666, "fusion_lon": 0.0, "bike_id": "b2d538c295303b8977f148a50e80bbc8", "type": "electric_scooter", "name": "b2d538c295303b8977f148a50e80bbc8", "rental_uris": {"android": "https://dc.lft.to/lastmile_qr_scan", "ios": "https://dc.lft.to/lastmile_qr_scan"}, "is_disabled": 0, "fusion_lat": 0.0, "lat": 38.89820483333333, "is_reserved": 0}, {"lon": -77.01886783333333, "fusion_lon": 0.0, "bike_id": "5378ce1f310ebff2d14693e3444a6ed1", "type": "electric_scooter", "name": "5378ce1f310ebff2d14693e3444a6ed1", "rental_uris": {"android": "https://dc.lft.to/lastmile_qr_scan", "ios": "https://dc.lft.to/lastmile_qr_scan"}, "is_disabled": 0, "fusion_lat": 0.0, "lat": 38.913198666666666, "is_reserved": 0}, {"lon": -77.025347, "fusion_lon": 0.0, "bike_id": "2061523fbf093c01d6438e5befe65999", "type": "electric_scooter", "name": "2061523fbf093c01d6438e5befe65999", "rental_uris": {"android": "https://dc.lft.to/lastmile_qr_scan", "ios": "https://dc.lft.to/lastmile_qr_scan"}, "is_disabled": 0, "fusion_lat": 0.0, "lat": 38.946206833333335, "is_reserved": 0}, {"lon": -76.98224766666667, "fusion_lon": 0.0, "bike_id": "11e5d284a9765bffbde5b8c87c23bee6", "type": "electric_bike", "name": "11e5d284a9765bffbde5b8c87c23bee6", "rental_uris": {"android": "https://dc.lft.to/lastmile_qr_scan", "ios": "https://dc.lft.to/lastmile_qr_scan"}, "is_disabled": 0, "fusion_lat": 0.0, "lat": 38.98510666666667, "is_reserved": 0}, {"lon": -76.96710333333333, "fusion_lon": 0.0, "bike_id": "15b05a46fb7486da7023caba31ec8125", "type": "electric_scooter", "name": "15b05a46fb7486da7023caba31ec8125", "rental_uris": {"android": "https://dc.lft.to/lastmile_qr_scan", "ios": "https://dc.lft.to/lastmile_qr_scan"}, "is_disabled": 0, "fusion_lat": 0.0, "lat": 38.86034633333333, "is_reserved": 0}, {"lon": -77.022914, "fusion_lon": 0.0, "bike_id": "2192e14287e45d7a7f00278cc83293f0", "type": "electric_scooter", "name": "2192e14287e45d7a7f00278cc83293f0", "rental_uris": {"android": "https://dc.lft.to/lastmile_qr_scan", "ios": "https://dc.lft.to/lastmile_qr_scan"}, "is_disabled": 0, "fusion_lat": 0.0, "lat": 38.917896, "is_reserved": 0}, {"lon": -77.012241, "fusion_lon": 0.0, "bike_id": "9b9f34b4decde6b0116cc03f6701f7e5", "type": "electric_scooter", "name": "9b9f34b4decde6b0116cc03f6701f7e5", "rental_uris": {"android": "https://dc.lft.to/lastmile_qr_scan", "ios": "https://dc.lft.to/lastmile_qr_scan"}, "is_disabled": 0, "fusion_lat": 0.0, "lat": 38.900277, "is_reserved": 0}, {"lon": -77.097237, "fusion_lon": 0.0, "bike_id": "c5df5eed14362a99b5e50f8ae3409428", "type": "electric_scooter", "name": "c5df5eed14362a99b5e50f8ae3409428", "rental_uris": {"android": "https://dc.lft.to/lastmile_qr_scan", "ios": "https://dc.lft.to/lastmile_qr_scan"}, "is_disabled": 0, "fusion_lat": 0.0, "lat": 38.951040166666665, "is_reserved": 0}, {"lon": -77.00035283333334, "fusion_lon": 0.0, "bike_id": "efc09bf25d00b490f9b02fc02c3ca4c3", "type": "electric_scooter", "name": "efc09bf25d00b490f9b02fc02c3ca4c3", "rental_uris": {"android": "https://dc.lft.to/lastmile_qr_scan", "ios": "https://dc.lft.to/lastmile_qr_scan"}, "is_disabled": 0, "fusion_lat": 0.0, "lat": 38.87394066666667, "is_reserved": 0}, {"lon": -77.01777716666666, "fusion_lon": 0.0, "bike_id": "de00b2d7e9f7ebf624cd989c3841ed51", "type": "electric_scooter", "name": "de00b2d7e9f7ebf624cd989c3841ed51", "rental_uris": {"android": "https://dc.lft.to/lastmile_qr_scan", "ios": "https://dc.lft.to/lastmile_qr_scan"}, "is_disabled": 0, "fusion_lat": 0.0, "lat": 38.877067333333336, "is_reserved": 0}, {"lon": -77.02495483333334, "fusion_lon": 0.0, "bike_id": "85640a7d90953b66cdafcf67c8ece682", "type": "electric_scooter", "name": "85640a7d90953b66cdafcf67c8ece682", "rental_uris": {"android": "https://dc.lft.to/lastmile_qr_scan", "ios": "https://dc.lft.to/lastmile_qr_scan"}, "is_disabled": 0, "fusion_lat": 0.0, "lat": 38.9418615, "is_reserved": 0}, {"lon": -77.0335175, "fusion_lon": 0.0, "bike_id": "c063706987e2219fef57e461e2b4ef29", "type": "electric_scooter", "name": "c063706987e2219fef57e461e2b4ef29", "rental_uris": {"android": "https://dc.lft.to/lastmile_qr_scan", "ios": "https://dc.lft.to/lastmile_qr_scan"}, "is_disabled": 0, "fusion_lat": 0.0, "lat": 38.9027325, "is_reserved": 0}, {"lon": -77.019677, "fusion_lon": 0.0, "bike_id": "6e5476d78588902f2b97664958ff2d67", "type": "electric_scooter", "name": "6e5476d78588902f2b97664958ff2d67", "rental_uris": {"android": "https://dc.lft.to/lastmile_qr_scan", "ios": "https://dc.lft.to/lastmile_qr_scan"}, "is_disabled": 0, "fusion_lat": 0.0, "lat": 38.95649483333333, "is_reserved": 0}, {"lon": -77.01511966666666, "fusion_lon": 0.0, "bike_id": "9b4819d6fdaae27f80f91755f25c09c3", "type": "electric_scooter", "name": "9b4819d6fdaae27f80f91755f25c09c3", "rental_uris": {"android": "https://dc.lft.to/lastmile_qr_scan", "ios": "https://dc.lft.to/lastmile_qr_scan"}, "is_disabled": 0, "fusion_lat": 0.0, "lat": 38.90243516666666, "is_reserved": 0}, {"lon": -76.98283466666666, "fusion_lon": 0.0, "bike_id": "f16213d7c6b07e266940671da8bf0709", "type": "electric_scooter", "name": "f16213d7c6b07e266940671da8bf0709", "rental_uris": {"android": "https://dc.lft.to/lastmile_qr_scan", "ios": "https://dc.lft.to/lastmile_qr_scan"}, "is_disabled": 0, "fusion_lat": 0.0, "lat": 38.904315833333335, "is_reserved": 0}, {"lon": -77.003474, "fusion_lon": 0.0, "bike_id": "4ecd28076c0201c77942a02933f4e6e5", "type": "electric_scooter", "name": "4ecd28076c0201c77942a02933f4e6e5", "rental_uris": {"android": "https://dc.lft.to/lastmile_qr_scan", "ios": "https://dc.lft.to/lastmile_qr_scan"}, "is_disabled": 0, "fusion_lat": 0.0, "lat": 38.894639833333336, "is_reserved": 0}, {"lon": -77.00606433333333, "fusion_lon": 0.0, "bike_id": "98c31a013123ad6a148dffb0032a0e9e", "type": "electric_scooter", "name": "98c31a013123ad6a148dffb0032a0e9e", "rental_uris": {"android": "https://dc.lft.to/lastmile_qr_scan", "ios": "https://dc.lft.to/lastmile_qr_scan"}, "is_disabled": 0, "fusion_lat": 0.0, "lat": 38.879213666666665, "is_reserved": 0}, {"lon": -77.06166766666666, "fusion_lon": 0.0, "bike_id": "f21f835228ea9b0f0bfb562e256b4f24", "type": "electric_scooter", "name": "f21f835228ea9b0f0bfb562e256b4f24", "rental_uris": {"android": "https://dc.lft.to/lastmile_qr_scan", "ios": "https://dc.lft.to/lastmile_qr_scan"}, "is_disabled": 0, "fusion_lat": 0.0, "lat": 38.90250566666667, "is_reserved": 0}, {"lon": -77.04202966666666, "fusion_lon": 0.0, "bike_id": "6e73255e1dac147d6c7646c1f5051a88", "type": "electric_scooter", "name": "6e73255e1dac147d6c7646c1f5051a88", "rental_uris": {"android": "https://dc.lft.to/lastmile_qr_scan", "ios": "https://dc.lft.to/lastmile_qr_scan"}, "is_disabled": 0, "fusion_lat": 0.0, "lat": 38.92043816666666, "is_reserved": 0}, {"lon": -77.051333, "fusion_lon": 0.0, "bike_id": "65314045a8e7549ec138b6d39b21a1b8", "type": "electric_scooter", "name": "65314045a8e7549ec138b6d39b21a1b8", "rental_uris": {"android": "https://dc.lft.to/lastmile_qr_scan", "ios": "https://dc.lft.to/lastmile_qr_scan"}, "is_disabled": 0, "fusion_lat": 0.0, "lat": 38.92524366666667, "is_reserved": 0}, {"lon": -77.04807933333333, "fusion_lon": 0.0, "bike_id": "13bdf05f292b4a271556454da84fdfe7", "type": "electric_scooter", "name": "13bdf05f292b4a271556454da84fdfe7", "rental_uris": {"android": "https://dc.lft.to/lastmile_qr_scan", "ios": "https://dc.lft.to/lastmile_qr_scan"}, "is_disabled": 0, "fusion_lat": 0.0, "lat": 38.92031883333333, "is_reserved": 0}, {"lon": -77.019564, "fusion_lon": 0.0, "bike_id": "cd19f6720297f017cc9577b4ef943719", "type": "electric_scooter", "name": "cd19f6720297f017cc9577b4ef943719", "rental_uris": {"android": "https://dc.lft.to/lastmile_qr_scan", "ios": "https://dc.lft.to/lastmile_qr_scan"}, "is_disabled": 0, "fusion_lat": 0.0, "lat": 38.9237115, "is_reserved": 0}, {"lon": -77.03282933333334, "fusion_lon": 0.0, "bike_id": "1156a6ce9b477dafa8aa8b14099ff01e", "type": "electric_scooter", "name": "1156a6ce9b477dafa8aa8b14099ff01e", "rental_uris": {"android": "https://dc.lft.to/lastmile_qr_scan", "ios": "https://dc.lft.to/lastmile_qr_scan"}, "is_disabled": 0, "fusion_lat": 0.0, "lat": 38.942779, "is_reserved": 0}, {"lon": -77.02094883333334, "fusion_lon": 0.0, "bike_id": "214415fb9c688b503aa460432ac33785", "type": "electric_scooter", "name": "214415fb9c688b503aa460432ac33785", "rental_uris": {"android": "https://dc.lft.to/lastmile_qr_scan", "ios": "https://dc.lft.to/lastmile_qr_scan"}, "is_disabled": 0, "fusion_lat": 0.0, "lat": 38.89427766666667, "is_reserved": 0}, {"lon": -77.05455316666666, "fusion_lon": 0.0, "bike_id": "3074cba3af87501d8652d8b32815dcfc", "type": "electric_scooter", "name": "3074cba3af87501d8652d8b32815dcfc", "rental_uris": {"android": "https://dc.lft.to/lastmile_qr_scan", "ios": "https://dc.lft.to/lastmile_qr_scan"}, "is_disabled": 0, "fusion_lat": 0.0, "lat": 38.9024285, "is_reserved": 0}, {"lon": -77.0227835, "fusion_lon": 0.0, "bike_id": "684398afeb657a9e10448615a6a41f0c", "type": "electric_scooter", "name": "684398afeb657a9e10448615a6a41f0c", "rental_uris": {"android": "https://dc.lft.to/lastmile_qr_scan", "ios": "https://dc.lft.to/lastmile_qr_scan"}, "is_disabled": 0, "fusion_lat": 0.0, "lat": 38.914136, "is_reserved": 0}, {"lon": -77.01145516666666, "fusion_lon": 0.0, "bike_id": "abbddff56e6ca09e76cfc4b6f6650fc9", "type": "electric_scooter", "name": "abbddff56e6ca09e76cfc4b6f6650fc9", "rental_uris": {"android": "https://dc.lft.to/lastmile_qr_scan", "ios": "https://dc.lft.to/lastmile_qr_scan"}, "is_disabled": 0, "fusion_lat": 0.0, "lat": 38.9002305, "is_reserved": 0}, {"lon": -77.03644216666666, "fusion_lon": 0.0, "bike_id": "787586674ae18037289dd17d75d0e161", "type": "electric_scooter", "name": "787586674ae18037289dd17d75d0e161", "rental_uris": {"android": "https://dc.lft.to/lastmile_qr_scan", "ios": "https://dc.lft.to/lastmile_qr_scan"}, "is_disabled": 0, "fusion_lat": 0.0, "lat": 38.9174705, "is_reserved": 0}, {"lon": -76.9559525, "fusion_lon": 0.0, "bike_id": "d90f3741c6b9d3e2b42b0426e760310f", "type": "electric_scooter", "name": "d90f3741c6b9d3e2b42b0426e760310f", "rental_uris": {"android": "https://dc.lft.to/lastmile_qr_scan", "ios": "https://dc.lft.to/lastmile_qr_scan"}, "is_disabled": 0, "fusion_lat": 0.0, "lat": 38.88764483333333, "is_reserved": 0}, {"lon": -77.07118866666667, "fusion_lon": 0.0, "bike_id": "4ec8be9c424ee201245c44b81146276e", "type": "electric_scooter", "name": "4ec8be9c424ee201245c44b81146276e", "rental_uris": {"android": "https://dc.lft.to/lastmile_qr_scan", "ios": "https://dc.lft.to/lastmile_qr_scan"}, "is_disabled": 0, "fusion_lat": 0.0, "lat": 38.89668283333334, "is_reserved": 0}, {"lon": -77.02459283333333, "fusion_lon": 0.0, "bike_id": "35dd2719d51ebbd96e3edc6cda5fa1e5", "type": "electric_scooter", "name": "35dd2719d51ebbd96e3edc6cda5fa1e5", "rental_uris": {"android": "https://dc.lft.to/lastmile_qr_scan", "ios": "https://dc.lft.to/lastmile_qr_scan"}, "is_disabled": 0, "fusion_lat": 0.0, "lat": 38.93102533333333, "is_reserved": 0}, {"lon": -77.02168716666667, "fusion_lon": 0.0, "bike_id": "542d7ee1e6c785b461aae183f7d9c2a5", "type": "electric_scooter", "name": "542d7ee1e6c785b461aae183f7d9c2a5", "rental_uris": {"android": "https://dc.lft.to/lastmile_qr_scan", "ios": "https://dc.lft.to/lastmile_qr_scan"}, "is_disabled": 0, "fusion_lat": 0.0, "lat": 38.94289333333333, "is_reserved": 0}, {"lon": -77.00572533333333, "fusion_lon": 0.0, "bike_id": "9a6a59fb2d2b8de95a77944b47b242b9", "type": "electric_scooter", "name": "9a6a59fb2d2b8de95a77944b47b242b9", "rental_uris": {"android": "https://dc.lft.to/lastmile_qr_scan", "ios": "https://dc.lft.to/lastmile_qr_scan"}, "is_disabled": 0, "fusion_lat": 0.0, "lat": 38.87563133333333, "is_reserved": 0}, {"lon": -77.0274125, "fusion_lon": 0.0, "bike_id": "a21d00d94b632c69a2830fa900d0a2b6", "type": "electric_scooter", "name": "a21d00d94b632c69a2830fa900d0a2b6", "rental_uris": {"android": "https://dc.lft.to/lastmile_qr_scan", "ios": "https://dc.lft.to/lastmile_qr_scan"}, "is_disabled": 0, "fusion_lat": 0.0, "lat": 38.897273, "is_reserved": 0}, {"lon": -77.02559316666667, "fusion_lon": 0.0, "bike_id": "aff7aed20ecff4d284840df499d865a8", "type": "electric_scooter", "name": "aff7aed20ecff4d284840df499d865a8", "rental_uris": {"android": "https://dc.lft.to/lastmile_qr_scan", "ios": "https://dc.lft.to/lastmile_qr_scan"}, "is_disabled": 0, "fusion_lat": 0.0, "lat": 38.903733, "is_reserved": 0}, {"lon": -77.03858483333333, "fusion_lon": 0.0, "bike_id": "3be6ccc38ef27df1c2d145eb0cdc65d7", "type": "electric_scooter", "name": "3be6ccc38ef27df1c2d145eb0cdc65d7", "rental_uris": {"android": "https://dc.lft.to/lastmile_qr_scan", "ios": "https://dc.lft.to/lastmile_qr_scan"}, "is_disabled": 0, "fusion_lat": 0.0, "lat": 38.91712483333333, "is_reserved": 0}, {"lon": -77.025605, "fusion_lon": 0.0, "bike_id": "59f3b686c3667f36b2ab3704d251dbf3", "type": "electric_bike", "name": "59f3b686c3667f36b2ab3704d251dbf3", "rental_uris": {"android": "https://dc.lft.to/lastmile_qr_scan", "ios": "https://dc.lft.to/lastmile_qr_scan"}, "is_disabled": 0, "fusion_lat": 0.0, "lat": 38.997133833333336, "is_reserved": 0}, {"lon": -77.01327066666667, "fusion_lon": 0.0, "bike_id": "729faac72d9606ff6b9067329dc6b85d", "type": "electric_scooter", "name": "729faac72d9606ff6b9067329dc6b85d", "rental_uris": {"android": "https://dc.lft.to/lastmile_qr_scan", "ios": "https://dc.lft.to/lastmile_qr_scan"}, "is_disabled": 0, "fusion_lat": 0.0, "lat": 38.90598466666667, "is_reserved": 0}, {"lon": -76.98717633333334, "fusion_lon": 0.0, "bike_id": "8450f8ef44e5149b52d52372dff9edf0", "type": "electric_scooter", "name": "8450f8ef44e5149b52d52372dff9edf0", "rental_uris": {"android": "https://dc.lft.to/lastmile_qr_scan", "ios": "https://dc.lft.to/lastmile_qr_scan"}, "is_disabled": 0, "fusion_lat": 0.0, "lat": 38.866229833333335, "is_reserved": 0}, {"lon": -77.0113515, "fusion_lon": 0.0, "bike_id": "702c478d90535cc40c6037c62a63f277", "type": "electric_scooter", "name": "702c478d90535cc40c6037c62a63f277", "rental_uris": {"android": "https://dc.lft.to/lastmile_qr_scan", "ios": "https://dc.lft.to/lastmile_qr_scan"}, "is_disabled": 0, "fusion_lat": 0.0, "lat": 38.911731, "is_reserved": 0}, {"lon": -77.04539033333333, "fusion_lon": 0.0, "bike_id": "22b912b1c1f61ae273906a513ca988f0", "type": "electric_scooter", "name": "22b912b1c1f61ae273906a513ca988f0", "rental_uris": {"android": "https://dc.lft.to/lastmile_qr_scan", "ios": "https://dc.lft.to/lastmile_qr_scan"}, "is_disabled": 0, "fusion_lat": 0.0, "lat": 38.93160966666667, "is_reserved": 0}, {"lon": -77.02308383333333, "fusion_lon": 0.0, "bike_id": "bd7224108530430312244ad055212f5e", "type": "electric_scooter", "name": "bd7224108530430312244ad055212f5e", "rental_uris": {"android": "https://dc.lft.to/lastmile_qr_scan", "ios": "https://dc.lft.to/lastmile_qr_scan"}, "is_disabled": 0, "fusion_lat": 0.0, "lat": 38.9272285, "is_reserved": 0}, {"lon": -77.03192716666666, "fusion_lon": 0.0, "bike_id": "a26d9ccb38e89026ca2527bf464f186b", "type": "electric_scooter", "name": "a26d9ccb38e89026ca2527bf464f186b", "rental_uris": {"android": "https://dc.lft.to/lastmile_qr_scan", "ios": "https://dc.lft.to/lastmile_qr_scan"}, "is_disabled": 0, "fusion_lat": 0.0, "lat": 38.91573116666667, "is_reserved": 0}, {"lon": -77.04229633333334, "fusion_lon": 0.0, "bike_id": "17951aefb1db5c40c9620224347ab87d", "type": "electric_scooter", "name": "17951aefb1db5c40c9620224347ab87d", "rental_uris": {"android": "https://dc.lft.to/lastmile_qr_scan", "ios": "https://dc.lft.to/lastmile_qr_scan"}, "is_disabled": 0, "fusion_lat": 0.0, "lat": 38.923186666666666, "is_reserved": 0}, {"lon": -77.02280983333333, "fusion_lon": 0.0, "bike_id": "e3251b7082dadd418533527f11880929", "type": "electric_scooter", "name": "e3251b7082dadd418533527f11880929", "rental_uris": {"android": "https://dc.lft.to/lastmile_qr_scan", "ios": "https://dc.lft.to/lastmile_qr_scan"}, "is_disabled": 0, "fusion_lat": 0.0, "lat": 38.915612, "is_reserved": 0}, {"lon": -77.03836516666667, "fusion_lon": 0.0, "bike_id": "3083b448f891593299e0029e4fac279b", "type": "electric_scooter", "name": "3083b448f891593299e0029e4fac279b", "rental_uris": {"android": "https://dc.lft.to/lastmile_qr_scan", "ios": "https://dc.lft.to/lastmile_qr_scan"}, "is_disabled": 0, "fusion_lat": 0.0, "lat": 38.91141316666667, "is_reserved": 0}, {"lon": -77.02692816666666, "fusion_lon": 0.0, "bike_id": "b0634504f364a55202d442aa15a2f53b", "type": "electric_scooter", "name": "b0634504f364a55202d442aa15a2f53b", "rental_uris": {"android": "https://dc.lft.to/lastmile_qr_scan", "ios": "https://dc.lft.to/lastmile_qr_scan"}, "is_disabled": 0, "fusion_lat": 0.0, "lat": 38.922752, "is_reserved": 0}, {"lon": -77.0233365, "fusion_lon": 0.0, "bike_id": "b104d1a5fa81926d1fd8438780c1ccf8", "type": "electric_scooter", "name": "b104d1a5fa81926d1fd8438780c1ccf8", "rental_uris": {"android": "https://dc.lft.to/lastmile_qr_scan", "ios": "https://dc.lft.to/lastmile_qr_scan"}, "is_disabled": 0, "fusion_lat": 0.0, "lat": 38.922322, "is_reserved": 0}, {"lon": -77.03793383333333, "fusion_lon": 0.0, "bike_id": "16c3b42f7df7df5dafa443f5f76d73fe", "type": "electric_bike", "name": "16c3b42f7df7df5dafa443f5f76d73fe", "rental_uris": {"android": "https://dc.lft.to/lastmile_qr_scan", "ios": "https://dc.lft.to/lastmile_qr_scan"}, "is_disabled": 0, "fusion_lat": 0.0, "lat": 38.99679966666667, "is_reserved": 0}, {"lon": -77.048433, "fusion_lon": 0.0, "bike_id": "64dc73e2e8fd683b066cf9554d5f4bb5", "type": "electric_scooter", "name": "64dc73e2e8fd683b066cf9554d5f4bb5", "rental_uris": {"android": "https://dc.lft.to/lastmile_qr_scan", "ios": "https://dc.lft.to/lastmile_qr_scan"}, "is_disabled": 0, "fusion_lat": 0.0, "lat": 38.91844566666666, "is_reserved": 0}, {"lon": -77.0862905, "fusion_lon": 0.0, "bike_id": "fba0d3939a314ce2baccedee58ef8d5e", "type": "electric_bike", "name": "fba0d3939a314ce2baccedee58ef8d5e", "rental_uris": {"android": "https://dc.lft.to/lastmile_qr_scan", "ios": "https://dc.lft.to/lastmile_qr_scan"}, "is_disabled": 0, "fusion_lat": 0.0, "lat": 38.8097435, "is_reserved": 0}, {"lon": -77.02836216666667, "fusion_lon": 0.0, "bike_id": "815d952e7f006352d44379415b63ca29", "type": "electric_scooter", "name": "815d952e7f006352d44379415b63ca29", "rental_uris": {"android": "https://dc.lft.to/lastmile_qr_scan", "ios": "https://dc.lft.to/lastmile_qr_scan"}, "is_disabled": 0, "fusion_lat": 0.0, "lat": 38.9223145, "is_reserved": 0}, {"lon": -77.033036, "fusion_lon": 0.0, "bike_id": "f4632c00aa4955f71a69f847941a1e97", "type": "electric_scooter", "name": "f4632c00aa4955f71a69f847941a1e97", "rental_uris": {"android": "https://dc.lft.to/lastmile_qr_scan", "ios": "https://dc.lft.to/lastmile_qr_scan"}, "is_disabled": 0, "fusion_lat": 0.0, "lat": 38.92452633333333, "is_reserved": 0}, {"lon": -77.03083766666667, "fusion_lon": 0.0, "bike_id": "d4792719ce8027a87c93aad8b7740239", "type": "electric_scooter", "name": "d4792719ce8027a87c93aad8b7740239", "rental_uris": {"android": "https://dc.lft.to/lastmile_qr_scan", "ios": "https://dc.lft.to/lastmile_qr_scan"}, "is_disabled": 0, "fusion_lat": 0.0, "lat": 38.935233, "is_reserved": 0}, {"lon": -77.02215183333334, "fusion_lon": 0.0, "bike_id": "d853bbcc74b3ebcf4fb12984ef3effe4", "type": "electric_scooter", "name": "d853bbcc74b3ebcf4fb12984ef3effe4", "rental_uris": {"android": "https://dc.lft.to/lastmile_qr_scan", "ios": "https://dc.lft.to/lastmile_qr_scan"}, "is_disabled": 0, "fusion_lat": 0.0, "lat": 38.909645833333336, "is_reserved": 0}, {"lon": -77.0216195, "fusion_lon": 0.0, "bike_id": "5ab3f97638fef46b02bc717b39fe24d5", "type": "electric_scooter", "name": "5ab3f97638fef46b02bc717b39fe24d5", "rental_uris": {"android": "https://dc.lft.to/lastmile_qr_scan", "ios": "https://dc.lft.to/lastmile_qr_scan"}, "is_disabled": 0, "fusion_lat": 0.0, "lat": 38.92458533333333, "is_reserved": 0}, {"lon": -77.03964333333333, "fusion_lon": 0.0, "bike_id": "e8ec03ed14619fd9dd158d89e6f8b243", "type": "electric_scooter", "name": "e8ec03ed14619fd9dd158d89e6f8b243", "rental_uris": {"android": "https://dc.lft.to/lastmile_qr_scan", "ios": "https://dc.lft.to/lastmile_qr_scan"}, "is_disabled": 0, "fusion_lat": 0.0, "lat": 38.926086, "is_reserved": 0}, {"lon": -77.03539183333334, "fusion_lon": 0.0, "bike_id": "9980e81adfc345a722989c3eac149a82", "type": "electric_scooter", "name": "9980e81adfc345a722989c3eac149a82", "rental_uris": {"android": "https://dc.lft.to/lastmile_qr_scan", "ios": "https://dc.lft.to/lastmile_qr_scan"}, "is_disabled": 0, "fusion_lat": 0.0, "lat": 38.925798666666665, "is_reserved": 0}, {"lon": -77.03093583333333, "fusion_lon": 0.0, "bike_id": "8bd5fe3752eb9518968460e334a308b5", "type": "electric_scooter", "name": "8bd5fe3752eb9518968460e334a308b5", "rental_uris": {"android": "https://dc.lft.to/lastmile_qr_scan", "ios": "https://dc.lft.to/lastmile_qr_scan"}, "is_disabled": 0, "fusion_lat": 0.0, "lat": 38.897478166666666, "is_reserved": 0}, {"lon": -77.05097366666666, "fusion_lon": 0.0, "bike_id": "6558133b43645e3af0ed0347f4d55f83", "type": "electric_scooter", "name": "6558133b43645e3af0ed0347f4d55f83", "rental_uris": {"android": "https://dc.lft.to/lastmile_qr_scan", "ios": "https://dc.lft.to/lastmile_qr_scan"}, "is_disabled": 0, "fusion_lat": 0.0, "lat": 38.8993765, "is_reserved": 0}, {"lon": -76.94320183333333, "fusion_lon": 0.0, "bike_id": "a400a3e787da852126defd42b1b4ddfa", "type": "electric_bike", "name": "a400a3e787da852126defd42b1b4ddfa", "rental_uris": {"android": "https://dc.lft.to/lastmile_qr_scan", "ios": "https://dc.lft.to/lastmile_qr_scan"}, "is_disabled": 0, "fusion_lat": 0.0, "lat": 38.938315, "is_reserved": 0}, {"lon": -77.022221, "fusion_lon": 0.0, "bike_id": "7849c366fd16afb7b5f31ccd376b85d2", "type": "electric_scooter", "name": "7849c366fd16afb7b5f31ccd376b85d2", "rental_uris": {"android": "https://dc.lft.to/lastmile_qr_scan", "ios": "https://dc.lft.to/lastmile_qr_scan"}, "is_disabled": 0, "fusion_lat": 0.0, "lat": 38.89216666666667, "is_reserved": 0}, {"lon": -77.02825583333333, "fusion_lon": 0.0, "bike_id": "5e0899c141c90fd283889b90821f6c64", "type": "electric_scooter", "name": "5e0899c141c90fd283889b90821f6c64", "rental_uris": {"android": "https://dc.lft.to/lastmile_qr_scan", "ios": "https://dc.lft.to/lastmile_qr_scan"}, "is_disabled": 0, "fusion_lat": 0.0, "lat": 38.8866225, "is_reserved": 0}, {"lon": -77.03289733333334, "fusion_lon": 0.0, "bike_id": "4d8033487b924d637adb317317ecd5ce", "type": "electric_scooter", "name": "4d8033487b924d637adb317317ecd5ce", "rental_uris": {"android": "https://dc.lft.to/lastmile_qr_scan", "ios": "https://dc.lft.to/lastmile_qr_scan"}, "is_disabled": 0, "fusion_lat": 0.0, "lat": 38.89908633333334, "is_reserved": 0}, {"lon": -77.03435683333333, "fusion_lon": 0.0, "bike_id": "2e56c0bbf9781e1d2ed144768c62ab43", "type": "electric_scooter", "name": "2e56c0bbf9781e1d2ed144768c62ab43", "rental_uris": {"android": "https://dc.lft.to/lastmile_qr_scan", "ios": "https://dc.lft.to/lastmile_qr_scan"}, "is_disabled": 0, "fusion_lat": 0.0, "lat": 38.91795116666667, "is_reserved": 0}, {"lon": -77.0419065, "fusion_lon": 0.0, "bike_id": "930ca5a09acb9ee51c7068bc8177f3be", "type": "electric_scooter", "name": "930ca5a09acb9ee51c7068bc8177f3be", "rental_uris": {"android": "https://dc.lft.to/lastmile_qr_scan", "ios": "https://dc.lft.to/lastmile_qr_scan"}, "is_disabled": 0, "fusion_lat": 0.0, "lat": 38.9204795, "is_reserved": 0}, {"lon": -76.96824633333334, "fusion_lon": 0.0, "bike_id": "c9912bfd1e11065d0e2841ba11ad26ac", "type": "electric_scooter", "name": "c9912bfd1e11065d0e2841ba11ad26ac", "rental_uris": {"android": "https://dc.lft.to/lastmile_qr_scan", "ios": "https://dc.lft.to/lastmile_qr_scan"}, "is_disabled": 0, "fusion_lat": 0.0, "lat": 38.87337516666667, "is_reserved": 0}, {"lon": -77.02093016666667, "fusion_lon": 0.0, "bike_id": "eeecacea4df3e843801e7bf6f2d3e4fb", "type": "electric_scooter", "name": "eeecacea4df3e843801e7bf6f2d3e4fb", "rental_uris": {"android": "https://dc.lft.to/lastmile_qr_scan", "ios": "https://dc.lft.to/lastmile_qr_scan"}, "is_disabled": 0, "fusion_lat": 0.0, "lat": 38.930136, "is_reserved": 0}, {"lon": -77.0351075, "fusion_lon": 0.0, "bike_id": "d11f6d40ad4b8b8012f38aa448397c16", "type": "electric_scooter", "name": "d11f6d40ad4b8b8012f38aa448397c16", "rental_uris": {"android": "https://dc.lft.to/lastmile_qr_scan", "ios": "https://dc.lft.to/lastmile_qr_scan"}, "is_disabled": 0, "fusion_lat": 0.0, "lat": 38.92146483333333, "is_reserved": 0}, {"lon": -77.04018783333333, "fusion_lon": 0.0, "bike_id": "dbab443cf33930314a6794e6f91ecea1", "type": "electric_scooter", "name": "dbab443cf33930314a6794e6f91ecea1", "rental_uris": {"android": "https://dc.lft.to/lastmile_qr_scan", "ios": "https://dc.lft.to/lastmile_qr_scan"}, "is_disabled": 0, "fusion_lat": 0.0, "lat": 38.903392, "is_reserved": 0}, {"lon": -77.02309333333334, "fusion_lon": 0.0, "bike_id": "3a3d290e656a3bbbfc5857118db7b824", "type": "electric_scooter", "name": "3a3d290e656a3bbbfc5857118db7b824", "rental_uris": {"android": "https://dc.lft.to/lastmile_qr_scan", "ios": "https://dc.lft.to/lastmile_qr_scan"}, "is_disabled": 0, "fusion_lat": 0.0, "lat": 38.92091816666667, "is_reserved": 0}, {"lon": -77.00406183333334, "fusion_lon": 0.0, "bike_id": "fed90940963c395c8cafff49e3643e89", "type": "electric_scooter", "name": "fed90940963c395c8cafff49e3643e89", "rental_uris": {"android": "https://dc.lft.to/lastmile_qr_scan", "ios": "https://dc.lft.to/lastmile_qr_scan"}, "is_disabled": 0, "fusion_lat": 0.0, "lat": 38.921352, "is_reserved": 0}, {"lon": -77.0071355, "fusion_lon": 0.0, "bike_id": "9f4dcafe00879eb368b47d854aec7485", "type": "electric_scooter", "name": "9f4dcafe00879eb368b47d854aec7485", "rental_uris": {"android": "https://dc.lft.to/lastmile_qr_scan", "ios": "https://dc.lft.to/lastmile_qr_scan"}, "is_disabled": 0, "fusion_lat": 0.0, "lat": 38.92538283333333, "is_reserved": 0}, {"lon": -77.08853366666666, "fusion_lon": 0.0, "bike_id": "76171374347433ae5400abbacf4c844d", "type": "electric_scooter", "name": "76171374347433ae5400abbacf4c844d", "rental_uris": {"android": "https://dc.lft.to/lastmile_qr_scan", "ios": "https://dc.lft.to/lastmile_qr_scan"}, "is_disabled": 0, "fusion_lat": 0.0, "lat": 38.91641166666667, "is_reserved": 0}, {"lon": -77.02208416666667, "fusion_lon": 0.0, "bike_id": "d287aa68c7699a2a4ccffae374d38389", "type": "electric_scooter", "name": "d287aa68c7699a2a4ccffae374d38389", "rental_uris": {"android": "https://dc.lft.to/lastmile_qr_scan", "ios": "https://dc.lft.to/lastmile_qr_scan"}, "is_disabled": 0, "fusion_lat": 0.0, "lat": 38.89603983333333, "is_reserved": 0}, {"lon": -76.98143266666666, "fusion_lon": 0.0, "bike_id": "e12731e5452853f29311245c5b5fe36d", "type": "electric_scooter", "name": "e12731e5452853f29311245c5b5fe36d", "rental_uris": {"android": "https://dc.lft.to/lastmile_qr_scan", "ios": "https://dc.lft.to/lastmile_qr_scan"}, "is_disabled": 0, "fusion_lat": 0.0, "lat": 38.897466666666666, "is_reserved": 0}, {"lon": -77.08206916666667, "fusion_lon": 0.0, "bike_id": "cafe5140cfae787babbdc0f30513c557", "type": "electric_scooter", "name": "cafe5140cfae787babbdc0f30513c557", "rental_uris": {"android": "https://dc.lft.to/lastmile_qr_scan", "ios": "https://dc.lft.to/lastmile_qr_scan"}, "is_disabled": 0, "fusion_lat": 0.0, "lat": 38.9331385, "is_reserved": 0}, {"lon": -77.014164, "fusion_lon": 0.0, "bike_id": "68b254c00ef014664b60d1a8543e11a7", "type": "electric_scooter", "name": "68b254c00ef014664b60d1a8543e11a7", "rental_uris": {"android": "https://dc.lft.to/lastmile_qr_scan", "ios": "https://dc.lft.to/lastmile_qr_scan"}, "is_disabled": 0, "fusion_lat": 0.0, "lat": 38.91918366666667, "is_reserved": 0}, {"lon": -77.02614, "fusion_lon": 0.0, "bike_id": "33a41ad1e56947c4747b9aa6170b7b9a", "type": "electric_scooter", "name": "33a41ad1e56947c4747b9aa6170b7b9a", "rental_uris": {"android": "https://dc.lft.to/lastmile_qr_scan", "ios": "https://dc.lft.to/lastmile_qr_scan"}, "is_disabled": 0, "fusion_lat": 0.0, "lat": 38.914119666666664, "is_reserved": 0}, {"lon": -77.06393466666667, "fusion_lon": 0.0, "bike_id": "1f04dfd62267d942d68fbebe36945d17", "type": "electric_scooter", "name": "1f04dfd62267d942d68fbebe36945d17", "rental_uris": {"android": "https://dc.lft.to/lastmile_qr_scan", "ios": "https://dc.lft.to/lastmile_qr_scan"}, "is_disabled": 0, "fusion_lat": 0.0, "lat": 38.94423033333333, "is_reserved": 0}, {"lon": -77.02294333333333, "fusion_lon": 0.0, "bike_id": "8819fc6d6c3892cecb4f610dcf1add85", "type": "electric_scooter", "name": "8819fc6d6c3892cecb4f610dcf1add85", "rental_uris": {"android": "https://dc.lft.to/lastmile_qr_scan", "ios": "https://dc.lft.to/lastmile_qr_scan"}, "is_disabled": 0, "fusion_lat": 0.0, "lat": 38.91784333333333, "is_reserved": 0}, {"lon": -77.02301833333334, "fusion_lon": 0.0, "bike_id": "4e18110721c4eaee2d04f31bb3c3b538", "type": "electric_scooter", "name": "4e18110721c4eaee2d04f31bb3c3b538", "rental_uris": {"android": "https://dc.lft.to/lastmile_qr_scan", "ios": "https://dc.lft.to/lastmile_qr_scan"}, "is_disabled": 0, "fusion_lat": 0.0, "lat": 38.91580283333333, "is_reserved": 0}, {"lon": -77.01914033333334, "fusion_lon": 0.0, "bike_id": "718f7c181ab455029821b3502115dcb9", "type": "electric_bike", "name": "718f7c181ab455029821b3502115dcb9", "rental_uris": {"android": "https://dc.lft.to/lastmile_qr_scan", "ios": "https://dc.lft.to/lastmile_qr_scan"}, "is_disabled": 0, "fusion_lat": 0.0, "lat": 38.937727833333334, "is_reserved": 0}, {"lon": -77.0217295, "fusion_lon": 0.0, "bike_id": "74c278450a0a0f4d71b42ea4683e37b0", "type": "electric_scooter", "name": "74c278450a0a0f4d71b42ea4683e37b0", "rental_uris": {"android": "https://dc.lft.to/lastmile_qr_scan", "ios": "https://dc.lft.to/lastmile_qr_scan"}, "is_disabled": 0, "fusion_lat": 0.0, "lat": 38.909645166666664, "is_reserved": 0}, {"lon": -76.94939233333334, "fusion_lon": 0.0, "bike_id": "ff4630b97b855ff1ff39dc0d5ea6155e", "type": "electric_scooter", "name": "ff4630b97b855ff1ff39dc0d5ea6155e", "rental_uris": {"android": "https://dc.lft.to/lastmile_qr_scan", "ios": "https://dc.lft.to/lastmile_qr_scan"}, "is_disabled": 0, "fusion_lat": 0.0, "lat": 38.894975333333335, "is_reserved": 0}, {"lon": -77.04881266666666, "fusion_lon": 0.0, "bike_id": "60c5ad6dd23c8b148ffcb2826b9cb14f", "type": "electric_scooter", "name": "60c5ad6dd23c8b148ffcb2826b9cb14f", "rental_uris": {"android": "https://dc.lft.to/lastmile_qr_scan", "ios": "https://dc.lft.to/lastmile_qr_scan"}, "is_disabled": 0, "fusion_lat": 0.0, "lat": 38.899859166666666, "is_reserved": 0}, {"lon": -76.98788766666667, "fusion_lon": 0.0, "bike_id": "155c2105d9c76eb515aae7e55a7b2650", "type": "electric_scooter", "name": "155c2105d9c76eb515aae7e55a7b2650", "rental_uris": {"android": "https://dc.lft.to/lastmile_qr_scan", "ios": "https://dc.lft.to/lastmile_qr_scan"}, "is_disabled": 0, "fusion_lat": 0.0, "lat": 38.91231333333333, "is_reserved": 0}, {"lon": -77.02402083333334, "fusion_lon": 0.0, "bike_id": "9bdd402a2f6ce26dce848a0ce6057a67", "type": "electric_scooter", "name": "9bdd402a2f6ce26dce848a0ce6057a67", "rental_uris": {"android": "https://dc.lft.to/lastmile_qr_scan", "ios": "https://dc.lft.to/lastmile_qr_scan"}, "is_disabled": 0, "fusion_lat": 0.0, "lat": 38.89614316666667, "is_reserved": 0}, {"lon": -77.035117, "fusion_lon": 0.0, "bike_id": "0ba2b7bf25214e3d1088fba96e32cc5b", "type": "electric_scooter", "name": "0ba2b7bf25214e3d1088fba96e32cc5b", "rental_uris": {"android": "https://dc.lft.to/lastmile_qr_scan", "ios": "https://dc.lft.to/lastmile_qr_scan"}, "is_disabled": 0, "fusion_lat": 0.0, "lat": 38.923403666666665, "is_reserved": 0}, {"lon": -77.045449, "fusion_lon": 0.0, "bike_id": "415e4cffeffef0c8013f89a5bb0c3178", "type": "electric_scooter", "name": "415e4cffeffef0c8013f89a5bb0c3178", "rental_uris": {"android": "https://dc.lft.to/lastmile_qr_scan", "ios": "https://dc.lft.to/lastmile_qr_scan"}, "is_disabled": 0, "fusion_lat": 0.0, "lat": 38.90963, "is_reserved": 0}, {"lon": -77.03459016666666, "fusion_lon": 0.0, "bike_id": "9902c6e9dd577b28526eb59947a46bcd", "type": "electric_scooter", "name": "9902c6e9dd577b28526eb59947a46bcd", "rental_uris": {"android": "https://dc.lft.to/lastmile_qr_scan", "ios": "https://dc.lft.to/lastmile_qr_scan"}, "is_disabled": 0, "fusion_lat": 0.0, "lat": 38.917058833333336, "is_reserved": 0}, {"lon": -76.98689733333333, "fusion_lon": 0.0, "bike_id": "207cdf04786afa0f2517f9445bbd65e9", "type": "electric_scooter", "name": "207cdf04786afa0f2517f9445bbd65e9", "rental_uris": {"android": "https://dc.lft.to/lastmile_qr_scan", "ios": "https://dc.lft.to/lastmile_qr_scan"}, "is_disabled": 0, "fusion_lat": 0.0, "lat": 38.91287466666667, "is_reserved": 0}, {"lon": -76.98189983333333, "fusion_lon": 0.0, "bike_id": "86611ab70f7b459a5ab8b8bca89c5fe3", "type": "electric_scooter", "name": "86611ab70f7b459a5ab8b8bca89c5fe3", "rental_uris": {"android": "https://dc.lft.to/lastmile_qr_scan", "ios": "https://dc.lft.to/lastmile_qr_scan"}, "is_disabled": 0, "fusion_lat": 0.0, "lat": 38.86207866666667, "is_reserved": 0}, {"lon": -77.0249435, "fusion_lon": 0.0, "bike_id": "5918ad7bde5d898434f965cbaae2f4e8", "type": "electric_scooter", "name": "5918ad7bde5d898434f965cbaae2f4e8", "rental_uris": {"android": "https://dc.lft.to/lastmile_qr_scan", "ios": "https://dc.lft.to/lastmile_qr_scan"}, "is_disabled": 0, "fusion_lat": 0.0, "lat": 38.94182716666667, "is_reserved": 0}, {"lon": -77.02817233333333, "fusion_lon": 0.0, "bike_id": "33d4b902ca9d95393b126748d1f96908", "type": "electric_scooter", "name": "33d4b902ca9d95393b126748d1f96908", "rental_uris": {"android": "https://dc.lft.to/lastmile_qr_scan", "ios": "https://dc.lft.to/lastmile_qr_scan"}, "is_disabled": 0, "fusion_lat": 0.0, "lat": 38.930616666666666, "is_reserved": 0}, {"lon": -77.02353366666667, "fusion_lon": 0.0, "bike_id": "79edfa428b86ed67687dac06500c94df", "type": "electric_scooter", "name": "79edfa428b86ed67687dac06500c94df", "rental_uris": {"android": "https://dc.lft.to/lastmile_qr_scan", "ios": "https://dc.lft.to/lastmile_qr_scan"}, "is_disabled": 0, "fusion_lat": 0.0, "lat": 38.8960775, "is_reserved": 0}, {"lon": -76.98699216666667, "fusion_lon": 0.0, "bike_id": "5c2130c37feffa3e642c1ebdac910ea1", "type": "electric_scooter", "name": "5c2130c37feffa3e642c1ebdac910ea1", "rental_uris": {"android": "https://dc.lft.to/lastmile_qr_scan", "ios": "https://dc.lft.to/lastmile_qr_scan"}, "is_disabled": 0, "fusion_lat": 0.0, "lat": 38.8671995, "is_reserved": 0}, {"lon": -77.03835683333334, "fusion_lon": 0.0, "bike_id": "4ee22bea1e0bb6c0708d0498d8d7a93b", "type": "electric_scooter", "name": "4ee22bea1e0bb6c0708d0498d8d7a93b", "rental_uris": {"android": "https://dc.lft.to/lastmile_qr_scan", "ios": "https://dc.lft.to/lastmile_qr_scan"}, "is_disabled": 0, "fusion_lat": 0.0, "lat": 38.9048545, "is_reserved": 0}, {"lon": -77.00314533333334, "fusion_lon": 0.0, "bike_id": "a04296e26c81e9212ef9a2c1f0919b94", "type": "electric_scooter", "name": "a04296e26c81e9212ef9a2c1f0919b94", "rental_uris": {"android": "https://dc.lft.to/lastmile_qr_scan", "ios": "https://dc.lft.to/lastmile_qr_scan"}, "is_disabled": 0, "fusion_lat": 0.0, "lat": 38.8772345, "is_reserved": 0}, {"lon": -77.00005733333333, "fusion_lon": 0.0, "bike_id": "968c82d69273ebcae6e18e9cd225fa14", "type": "electric_scooter", "name": "968c82d69273ebcae6e18e9cd225fa14", "rental_uris": {"android": "https://dc.lft.to/lastmile_qr_scan", "ios": "https://dc.lft.to/lastmile_qr_scan"}, "is_disabled": 0, "fusion_lat": 0.0, "lat": 38.900258, "is_reserved": 0}, {"lon": -77.027171, "fusion_lon": 0.0, "bike_id": "62936d74db59f4f335baaed233287814", "type": "electric_scooter", "name": "62936d74db59f4f335baaed233287814", "rental_uris": {"android": "https://dc.lft.to/lastmile_qr_scan", "ios": "https://dc.lft.to/lastmile_qr_scan"}, "is_disabled": 0, "fusion_lat": 0.0, "lat": 38.908476, "is_reserved": 0}, {"lon": -77.04371683333333, "fusion_lon": 0.0, "bike_id": "dfdd5da9c5f933ca4a261bb8bdb13318", "type": "electric_scooter", "name": "dfdd5da9c5f933ca4a261bb8bdb13318", "rental_uris": {"android": "https://dc.lft.to/lastmile_qr_scan", "ios": "https://dc.lft.to/lastmile_qr_scan"}, "is_disabled": 0, "fusion_lat": 0.0, "lat": 38.892196, "is_reserved": 0}, {"lon": -77.00927016666667, "fusion_lon": 0.0, "bike_id": "b734f2a16cf5718b550a8aa28207134c", "type": "electric_scooter", "name": "b734f2a16cf5718b550a8aa28207134c", "rental_uris": {"android": "https://dc.lft.to/lastmile_qr_scan", "ios": "https://dc.lft.to/lastmile_qr_scan"}, "is_disabled": 0, "fusion_lat": 0.0, "lat": 38.8960925, "is_reserved": 0}, {"lon": -76.93970166666666, "fusion_lon": 0.0, "bike_id": "94cab4dd9f1efcb69faabfbd516e8609", "type": "electric_scooter", "name": "94cab4dd9f1efcb69faabfbd516e8609", "rental_uris": {"android": "https://dc.lft.to/lastmile_qr_scan", "ios": "https://dc.lft.to/lastmile_qr_scan"}, "is_disabled": 0, "fusion_lat": 0.0, "lat": 38.893116, "is_reserved": 0}, {"lon": -76.9611425, "fusion_lon": 0.0, "bike_id": "3a2572a30bf7f438fd417c7a6debe248", "type": "electric_scooter", "name": "3a2572a30bf7f438fd417c7a6debe248", "rental_uris": {"android": "https://dc.lft.to/lastmile_qr_scan", "ios": "https://dc.lft.to/lastmile_qr_scan"}, "is_disabled": 0, "fusion_lat": 0.0, "lat": 38.884275833333334, "is_reserved": 0}, {"lon": -77.0305015, "fusion_lon": 0.0, "bike_id": "eaec4b2a88e2a9709f143491341ec549", "type": "electric_scooter", "name": "eaec4b2a88e2a9709f143491341ec549", "rental_uris": {"android": "https://dc.lft.to/lastmile_qr_scan", "ios": "https://dc.lft.to/lastmile_qr_scan"}, "is_disabled": 0, "fusion_lat": 0.0, "lat": 38.91693166666667, "is_reserved": 0}, {"lon": -77.03188866666666, "fusion_lon": 0.0, "bike_id": "57b206a55465f84e7c4fb3950c2e305c", "type": "electric_scooter", "name": "57b206a55465f84e7c4fb3950c2e305c", "rental_uris": {"android": "https://dc.lft.to/lastmile_qr_scan", "ios": "https://dc.lft.to/lastmile_qr_scan"}, "is_disabled": 0, "fusion_lat": 0.0, "lat": 38.91784066666666, "is_reserved": 0}, {"lon": -77.0256735, "fusion_lon": 0.0, "bike_id": "d29df72d5c9befbc5439aa380e0d51f4", "type": "electric_scooter", "name": "d29df72d5c9befbc5439aa380e0d51f4", "rental_uris": {"android": "https://dc.lft.to/lastmile_qr_scan", "ios": "https://dc.lft.to/lastmile_qr_scan"}, "is_disabled": 0, "fusion_lat": 0.0, "lat": 38.9206015, "is_reserved": 0}, {"lon": -77.02696416666667, "fusion_lon": 0.0, "bike_id": "6b27d8d8729845740ce0c33f33e56c17", "type": "electric_scooter", "name": "6b27d8d8729845740ce0c33f33e56c17", "rental_uris": {"android": "https://dc.lft.to/lastmile_qr_scan", "ios": "https://dc.lft.to/lastmile_qr_scan"}, "is_disabled": 0, "fusion_lat": 0.0, "lat": 38.94980183333333, "is_reserved": 0}, {"lon": -77.0228185, "fusion_lon": 0.0, "bike_id": "efa60dbd23fc721d9c6400a5e89d0877", "type": "electric_scooter", "name": "efa60dbd23fc721d9c6400a5e89d0877", "rental_uris": {"android": "https://dc.lft.to/lastmile_qr_scan", "ios": "https://dc.lft.to/lastmile_qr_scan"}, "is_disabled": 0, "fusion_lat": 0.0, "lat": 38.90873783333333, "is_reserved": 0}, {"lon": -77.04162, "fusion_lon": 0.0, "bike_id": "9bbe35b6b2c97dbaed3c828dfd07bb63", "type": "electric_scooter", "name": "9bbe35b6b2c97dbaed3c828dfd07bb63", "rental_uris": {"android": "https://dc.lft.to/lastmile_qr_scan", "ios": "https://dc.lft.to/lastmile_qr_scan"}, "is_disabled": 0, "fusion_lat": 0.0, "lat": 38.892325666666665, "is_reserved": 0}, {"lon": -77.04200316666666, "fusion_lon": 0.0, "bike_id": "3db11490a7f987aef34fd9969d897c86", "type": "electric_scooter", "name": "3db11490a7f987aef34fd9969d897c86", "rental_uris": {"android": "https://dc.lft.to/lastmile_qr_scan", "ios": "https://dc.lft.to/lastmile_qr_scan"}, "is_disabled": 0, "fusion_lat": 0.0, "lat": 38.92626466666667, "is_reserved": 0}, {"lon": -76.99493266666667, "fusion_lon": 0.0, "bike_id": "ea6ee32dd0de03bc0f59f1207fddf68d", "type": "electric_scooter", "name": "ea6ee32dd0de03bc0f59f1207fddf68d", "rental_uris": {"android": "https://dc.lft.to/lastmile_qr_scan", "ios": "https://dc.lft.to/lastmile_qr_scan"}, "is_disabled": 0, "fusion_lat": 0.0, "lat": 38.862454166666666, "is_reserved": 0}, {"lon": -77.01796666666667, "fusion_lon": 0.0, "bike_id": "62531190342cc3a643c09aa787f4c7ea", "type": "electric_scooter", "name": "62531190342cc3a643c09aa787f4c7ea", "rental_uris": {"android": "https://dc.lft.to/lastmile_qr_scan", "ios": "https://dc.lft.to/lastmile_qr_scan"}, "is_disabled": 0, "fusion_lat": 0.0, "lat": 38.921371666666666, "is_reserved": 0}, {"lon": -77.00710166666667, "fusion_lon": 0.0, "bike_id": "fbdd0b836608237d461586b8e73af52e", "type": "electric_scooter", "name": "fbdd0b836608237d461586b8e73af52e", "rental_uris": {"android": "https://dc.lft.to/lastmile_qr_scan", "ios": "https://dc.lft.to/lastmile_qr_scan"}, "is_disabled": 0, "fusion_lat": 0.0, "lat": 38.884877333333336, "is_reserved": 0}, {"lon": -77.04620566666667, "fusion_lon": 0.0, "bike_id": "3590dc797f573974ffaacaaa9b8ee7ea", "type": "electric_scooter", "name": "3590dc797f573974ffaacaaa9b8ee7ea", "rental_uris": {"android": "https://dc.lft.to/lastmile_qr_scan", "ios": "https://dc.lft.to/lastmile_qr_scan"}, "is_disabled": 0, "fusion_lat": 0.0, "lat": 38.897459, "is_reserved": 0}, {"lon": -76.97328883333333, "fusion_lon": 0.0, "bike_id": "e6d82e784c966989b79df189fae349f5", "type": "electric_scooter", "name": "e6d82e784c966989b79df189fae349f5", "rental_uris": {"android": "https://dc.lft.to/lastmile_qr_scan", "ios": "https://dc.lft.to/lastmile_qr_scan"}, "is_disabled": 0, "fusion_lat": 0.0, "lat": 38.90410166666667, "is_reserved": 0}, {"lon": -77.0318355, "fusion_lon": 0.0, "bike_id": "022876d4e3304b2b7b3ea8a9fb8cdd38", "type": "electric_scooter", "name": "022876d4e3304b2b7b3ea8a9fb8cdd38", "rental_uris": {"android": "https://dc.lft.to/lastmile_qr_scan", "ios": "https://dc.lft.to/lastmile_qr_scan"}, "is_disabled": 0, "fusion_lat": 0.0, "lat": 38.924905, "is_reserved": 0}, {"lon": -76.98696616666666, "fusion_lon": 0.0, "bike_id": "60e10c463b9e677c675850020b425a55", "type": "electric_scooter", "name": "60e10c463b9e677c675850020b425a55", "rental_uris": {"android": "https://dc.lft.to/lastmile_qr_scan", "ios": "https://dc.lft.to/lastmile_qr_scan"}, "is_disabled": 0, "fusion_lat": 0.0, "lat": 38.867217, "is_reserved": 0}, {"lon": -77.0228655, "fusion_lon": 0.0, "bike_id": "3944ccd6854843a075fcc00811d5861d", "type": "electric_scooter", "name": "3944ccd6854843a075fcc00811d5861d", "rental_uris": {"android": "https://dc.lft.to/lastmile_qr_scan", "ios": "https://dc.lft.to/lastmile_qr_scan"}, "is_disabled": 0, "fusion_lat": 0.0, "lat": 38.9156945, "is_reserved": 0}, {"lon": -77.042304, "fusion_lon": 0.0, "bike_id": "6128d58a9bc82beb87b5ee96ce836f02", "type": "electric_scooter", "name": "6128d58a9bc82beb87b5ee96ce836f02", "rental_uris": {"android": "https://dc.lft.to/lastmile_qr_scan", "ios": "https://dc.lft.to/lastmile_qr_scan"}, "is_disabled": 0, "fusion_lat": 0.0, "lat": 38.9288125, "is_reserved": 0}, {"lon": -77.00305683333333, "fusion_lon": 0.0, "bike_id": "1ebacc75859fb6439918fb1e1f02c3ef", "type": "electric_scooter", "name": "1ebacc75859fb6439918fb1e1f02c3ef", "rental_uris": {"android": "https://dc.lft.to/lastmile_qr_scan", "ios": "https://dc.lft.to/lastmile_qr_scan"}, "is_disabled": 0, "fusion_lat": 0.0, "lat": 38.9203325, "is_reserved": 0}, {"lon": -77.14059233333333, "fusion_lon": 0.0, "bike_id": "627a3cf2a7fea9a26453ec835b12bbeb", "type": "electric_bike", "name": "627a3cf2a7fea9a26453ec835b12bbeb", "rental_uris": {"android": "https://dc.lft.to/lastmile_qr_scan", "ios": "https://dc.lft.to/lastmile_qr_scan"}, "is_disabled": 0, "fusion_lat": 0.0, "lat": 38.987696666666665, "is_reserved": 0}, {"lon": -77.01807583333333, "fusion_lon": 0.0, "bike_id": "e48d539e9f79784e6252d24a4437d151", "type": "electric_scooter", "name": "e48d539e9f79784e6252d24a4437d151", "rental_uris": {"android": "https://dc.lft.to/lastmile_qr_scan", "ios": "https://dc.lft.to/lastmile_qr_scan"}, "is_disabled": 0, "fusion_lat": 0.0, "lat": 38.921252833333334, "is_reserved": 0}, {"lon": -77.01477083333333, "fusion_lon": 0.0, "bike_id": "dbeebaeefc2911aea28e41789696b396", "type": "electric_scooter", "name": "dbeebaeefc2911aea28e41789696b396", "rental_uris": {"android": "https://dc.lft.to/lastmile_qr_scan", "ios": "https://dc.lft.to/lastmile_qr_scan"}, "is_disabled": 0, "fusion_lat": 0.0, "lat": 38.918703, "is_reserved": 0}, {"lon": -77.001467, "fusion_lon": 0.0, "bike_id": "bf7cab7fac6d6e608fcf471d3e6070a3", "type": "electric_scooter", "name": "bf7cab7fac6d6e608fcf471d3e6070a3", "rental_uris": {"android": "https://dc.lft.to/lastmile_qr_scan", "ios": "https://dc.lft.to/lastmile_qr_scan"}, "is_disabled": 0, "fusion_lat": 0.0, "lat": 38.8974505, "is_reserved": 0}, {"lon": -77.02835266666666, "fusion_lon": 0.0, "bike_id": "b71db10e60dc2cddd20da7c2b9a5964f", "type": "electric_scooter", "name": "b71db10e60dc2cddd20da7c2b9a5964f", "rental_uris": {"android": "https://dc.lft.to/lastmile_qr_scan", "ios": "https://dc.lft.to/lastmile_qr_scan"}, "is_disabled": 0, "fusion_lat": 0.0, "lat": 38.88626, "is_reserved": 0}, {"lon": -77.04688266666666, "fusion_lon": 0.0, "bike_id": "8837d3692e000eb6cbd413104a8a5482", "type": "electric_scooter", "name": "8837d3692e000eb6cbd413104a8a5482", "rental_uris": {"android": "https://dc.lft.to/lastmile_qr_scan", "ios": "https://dc.lft.to/lastmile_qr_scan"}, "is_disabled": 0, "fusion_lat": 0.0, "lat": 38.892230166666664, "is_reserved": 0}, {"lon": -77.03591666666667, "fusion_lon": 0.0, "bike_id": "4734b1a531be9a8170338097dbe7db6b", "type": "electric_scooter", "name": "4734b1a531be9a8170338097dbe7db6b", "rental_uris": {"android": "https://dc.lft.to/lastmile_qr_scan", "ios": "https://dc.lft.to/lastmile_qr_scan"}, "is_disabled": 0, "fusion_lat": 0.0, "lat": 38.928105333333335, "is_reserved": 0}, {"lon": -76.94734616666666, "fusion_lon": 0.0, "bike_id": "b7be55bec5409d4f9db95f771a110963", "type": "electric_scooter", "name": "b7be55bec5409d4f9db95f771a110963", "rental_uris": {"android": "https://dc.lft.to/lastmile_qr_scan", "ios": "https://dc.lft.to/lastmile_qr_scan"}, "is_disabled": 0, "fusion_lat": 0.0, "lat": 38.89735366666667, "is_reserved": 0}, {"lon": -77.03235283333333, "fusion_lon": 0.0, "bike_id": "73fdd6c752bc5a14d4d7d19a1e762714", "type": "electric_scooter", "name": "73fdd6c752bc5a14d4d7d19a1e762714", "rental_uris": {"android": "https://dc.lft.to/lastmile_qr_scan", "ios": "https://dc.lft.to/lastmile_qr_scan"}, "is_disabled": 0, "fusion_lat": 0.0, "lat": 38.928780333333336, "is_reserved": 0}, {"lon": -77.03869266666666, "fusion_lon": 0.0, "bike_id": "46950ee88e7a2309a3d426578289f45b", "type": "electric_scooter", "name": "46950ee88e7a2309a3d426578289f45b", "rental_uris": {"android": "https://dc.lft.to/lastmile_qr_scan", "ios": "https://dc.lft.to/lastmile_qr_scan"}, "is_disabled": 0, "fusion_lat": 0.0, "lat": 38.921459, "is_reserved": 0}, {"lon": -77.03269333333333, "fusion_lon": 0.0, "bike_id": "1cf17fa604e36784ddc1ceb097c27567", "type": "electric_scooter", "name": "1cf17fa604e36784ddc1ceb097c27567", "rental_uris": {"android": "https://dc.lft.to/lastmile_qr_scan", "ios": "https://dc.lft.to/lastmile_qr_scan"}, "is_disabled": 0, "fusion_lat": 0.0, "lat": 38.92761183333333, "is_reserved": 0}, {"lon": -77.02061916666666, "fusion_lon": 0.0, "bike_id": "90fcaed4112bc25117673b8ac2287018", "type": "electric_scooter", "name": "90fcaed4112bc25117673b8ac2287018", "rental_uris": {"android": "https://dc.lft.to/lastmile_qr_scan", "ios": "https://dc.lft.to/lastmile_qr_scan"}, "is_disabled": 0, "fusion_lat": 0.0, "lat": 38.924024333333335, "is_reserved": 0}, {"lon": -77.01357316666666, "fusion_lon": 0.0, "bike_id": "632fe736d0863d6edf93ee8a13339a7d", "type": "electric_scooter", "name": "632fe736d0863d6edf93ee8a13339a7d", "rental_uris": {"android": "https://dc.lft.to/lastmile_qr_scan", "ios": "https://dc.lft.to/lastmile_qr_scan"}, "is_disabled": 0, "fusion_lat": 0.0, "lat": 38.91911733333333, "is_reserved": 0}, {"lon": -77.02606433333334, "fusion_lon": 0.0, "bike_id": "cc45422797be84542185bcd38b2d3213", "type": "electric_scooter", "name": "cc45422797be84542185bcd38b2d3213", "rental_uris": {"android": "https://dc.lft.to/lastmile_qr_scan", "ios": "https://dc.lft.to/lastmile_qr_scan"}, "is_disabled": 0, "fusion_lat": 0.0, "lat": 38.9170825, "is_reserved": 0}, {"lon": -77.0213085, "fusion_lon": 0.0, "bike_id": "75594bdac50131135ce08c2c027bdfa0", "type": "electric_scooter", "name": "75594bdac50131135ce08c2c027bdfa0", "rental_uris": {"android": "https://dc.lft.to/lastmile_qr_scan", "ios": "https://dc.lft.to/lastmile_qr_scan"}, "is_disabled": 0, "fusion_lat": 0.0, "lat": 38.916082333333335, "is_reserved": 0}, {"lon": -77.02471616666666, "fusion_lon": 0.0, "bike_id": "205c7ffbfd0b8dfdd8b66351e41988f0", "type": "electric_scooter", "name": "205c7ffbfd0b8dfdd8b66351e41988f0", "rental_uris": {"android": "https://dc.lft.to/lastmile_qr_scan", "ios": "https://dc.lft.to/lastmile_qr_scan"}, "is_disabled": 0, "fusion_lat": 0.0, "lat": 38.919324, "is_reserved": 0}, {"lon": -77.0224255, "fusion_lon": 0.0, "bike_id": "7ac142a989779197518c42f34ca89154", "type": "electric_scooter", "name": "7ac142a989779197518c42f34ca89154", "rental_uris": {"android": "https://dc.lft.to/lastmile_qr_scan", "ios": "https://dc.lft.to/lastmile_qr_scan"}, "is_disabled": 0, "fusion_lat": 0.0, "lat": 38.891933333333334, "is_reserved": 0}, {"lon": -76.98510316666666, "fusion_lon": 0.0, "bike_id": "19f451f58103cb699e7f306651f4a265", "type": "electric_scooter", "name": "19f451f58103cb699e7f306651f4a265", "rental_uris": {"android": "https://dc.lft.to/lastmile_qr_scan", "ios": "https://dc.lft.to/lastmile_qr_scan"}, "is_disabled": 0, "fusion_lat": 0.0, "lat": 38.913271333333334, "is_reserved": 0}, {"lon": -77.06991866666667, "fusion_lon": 0.0, "bike_id": "b3b5f80f4eed49a7326992be3d6a27d6", "type": "electric_scooter", "name": "b3b5f80f4eed49a7326992be3d6a27d6", "rental_uris": {"android": "https://dc.lft.to/lastmile_qr_scan", "ios": "https://dc.lft.to/lastmile_qr_scan"}, "is_disabled": 0, "fusion_lat": 0.0, "lat": 38.90595916666667, "is_reserved": 0}, {"lon": -76.98112216666667, "fusion_lon": 0.0, "bike_id": "b11e9bece2011e7943de9b01948dcd01", "type": "electric_scooter", "name": "b11e9bece2011e7943de9b01948dcd01", "rental_uris": {"android": "https://dc.lft.to/lastmile_qr_scan", "ios": "https://dc.lft.to/lastmile_qr_scan"}, "is_disabled": 0, "fusion_lat": 0.0, "lat": 38.91470916666667, "is_reserved": 0}, {"lon": -77.02656016666667, "fusion_lon": 0.0, "bike_id": "fb190ffe8fe00113827d253bd156e119", "type": "electric_scooter", "name": "fb190ffe8fe00113827d253bd156e119", "rental_uris": {"android": "https://dc.lft.to/lastmile_qr_scan", "ios": "https://dc.lft.to/lastmile_qr_scan"}, "is_disabled": 0, "fusion_lat": 0.0, "lat": 38.881173833333335, "is_reserved": 0}, {"lon": -77.035003, "fusion_lon": 0.0, "bike_id": "a397b37edeaf1d41c86fc02d35847ed1", "type": "electric_scooter", "name": "a397b37edeaf1d41c86fc02d35847ed1", "rental_uris": {"android": "https://dc.lft.to/lastmile_qr_scan", "ios": "https://dc.lft.to/lastmile_qr_scan"}, "is_disabled": 0, "fusion_lat": 0.0, "lat": 38.931646, "is_reserved": 0}, {"lon": -77.04011083333333, "fusion_lon": 0.0, "bike_id": "11e6219b29d81e4b9c0e42961fa576bf", "type": "electric_scooter", "name": "11e6219b29d81e4b9c0e42961fa576bf", "rental_uris": {"android": "https://dc.lft.to/lastmile_qr_scan", "ios": "https://dc.lft.to/lastmile_qr_scan"}, "is_disabled": 0, "fusion_lat": 0.0, "lat": 38.9099295, "is_reserved": 0}, {"lon": -77.00229466666667, "fusion_lon": 0.0, "bike_id": "8c836e44ef2d64f8f8ec54ddea33f1cb", "type": "electric_scooter", "name": "8c836e44ef2d64f8f8ec54ddea33f1cb", "rental_uris": {"android": "https://dc.lft.to/lastmile_qr_scan", "ios": "https://dc.lft.to/lastmile_qr_scan"}, "is_disabled": 0, "fusion_lat": 0.0, "lat": 38.908705833333336, "is_reserved": 0}, {"lon": -77.0320485, "fusion_lon": 0.0, "bike_id": "1c0cbe1f01f419b04490f96efb45e474", "type": "electric_scooter", "name": "1c0cbe1f01f419b04490f96efb45e474", "rental_uris": {"android": "https://dc.lft.to/lastmile_qr_scan", "ios": "https://dc.lft.to/lastmile_qr_scan"}, "is_disabled": 0, "fusion_lat": 0.0, "lat": 38.912724, "is_reserved": 0}, {"lon": -77.0120505, "fusion_lon": 0.0, "bike_id": "fca7883a892ed190c2923357b8249cf1", "type": "electric_scooter", "name": "fca7883a892ed190c2923357b8249cf1", "rental_uris": {"android": "https://dc.lft.to/lastmile_qr_scan", "ios": "https://dc.lft.to/lastmile_qr_scan"}, "is_disabled": 0, "fusion_lat": 0.0, "lat": 38.897915, "is_reserved": 0}, {"lon": -77.031769, "fusion_lon": 0.0, "bike_id": "03656ae6410e7fcad54bd8cb2830a57c", "type": "electric_scooter", "name": "03656ae6410e7fcad54bd8cb2830a57c", "rental_uris": {"android": "https://dc.lft.to/lastmile_qr_scan", "ios": "https://dc.lft.to/lastmile_qr_scan"}, "is_disabled": 0, "fusion_lat": 0.0, "lat": 38.914182, "is_reserved": 0}, {"lon": -77.02965616666667, "fusion_lon": 0.0, "bike_id": "d31971e91c1026bed88ab75e3f496128", "type": "electric_scooter", "name": "d31971e91c1026bed88ab75e3f496128", "rental_uris": {"android": "https://dc.lft.to/lastmile_qr_scan", "ios": "https://dc.lft.to/lastmile_qr_scan"}, "is_disabled": 0, "fusion_lat": 0.0, "lat": 38.8961795, "is_reserved": 0}, {"lon": -77.01644533333334, "fusion_lon": 0.0, "bike_id": "b4a9503ae91b3fdf25872d14152649fd", "type": "electric_scooter", "name": "b4a9503ae91b3fdf25872d14152649fd", "rental_uris": {"android": "https://dc.lft.to/lastmile_qr_scan", "ios": "https://dc.lft.to/lastmile_qr_scan"}, "is_disabled": 0, "fusion_lat": 0.0, "lat": 38.90383083333333, "is_reserved": 0}, {"lon": -77.03665083333334, "fusion_lon": 0.0, "bike_id": "67b6e64f03acd0aa584352a18aaee204", "type": "electric_scooter", "name": "67b6e64f03acd0aa584352a18aaee204", "rental_uris": {"android": "https://dc.lft.to/lastmile_qr_scan", "ios": "https://dc.lft.to/lastmile_qr_scan"}, "is_disabled": 0, "fusion_lat": 0.0, "lat": 38.921271833333336, "is_reserved": 0}, {"lon": -77.02271366666666, "fusion_lon": 0.0, "bike_id": "f28173602966f50a7c6adc38da95dd97", "type": "electric_scooter", "name": "f28173602966f50a7c6adc38da95dd97", "rental_uris": {"android": "https://dc.lft.to/lastmile_qr_scan", "ios": "https://dc.lft.to/lastmile_qr_scan"}, "is_disabled": 0, "fusion_lat": 0.0, "lat": 38.9461325, "is_reserved": 0}, {"lon": -77.02852683333333, "fusion_lon": 0.0, "bike_id": "bdb7da0c6bf79d4d852683fdabe83b25", "type": "electric_scooter", "name": "bdb7da0c6bf79d4d852683fdabe83b25", "rental_uris": {"android": "https://dc.lft.to/lastmile_qr_scan", "ios": "https://dc.lft.to/lastmile_qr_scan"}, "is_disabled": 0, "fusion_lat": 0.0, "lat": 38.8874225, "is_reserved": 0}, {"lon": -76.99010533333333, "fusion_lon": 0.0, "bike_id": "1dc1f4dae27885466bfa92cfb2b773de", "type": "electric_scooter", "name": "1dc1f4dae27885466bfa92cfb2b773de", "rental_uris": {"android": "https://dc.lft.to/lastmile_qr_scan", "ios": "https://dc.lft.to/lastmile_qr_scan"}, "is_disabled": 0, "fusion_lat": 0.0, "lat": 38.8650935, "is_reserved": 0}, {"lon": -77.06936683333333, "fusion_lon": 0.0, "bike_id": "7370e82c83a1a14beb24c9be31bd2a49", "type": "electric_scooter", "name": "7370e82c83a1a14beb24c9be31bd2a49", "rental_uris": {"android": "https://dc.lft.to/lastmile_qr_scan", "ios": "https://dc.lft.to/lastmile_qr_scan"}, "is_disabled": 0, "fusion_lat": 0.0, "lat": 38.91576883333333, "is_reserved": 0}, {"lon": -77.033196, "fusion_lon": 0.0, "bike_id": "86813e269d27e6990a36e7538329554c", "type": "electric_scooter", "name": "86813e269d27e6990a36e7538329554c", "rental_uris": {"android": "https://dc.lft.to/lastmile_qr_scan", "ios": "https://dc.lft.to/lastmile_qr_scan"}, "is_disabled": 0, "fusion_lat": 0.0, "lat": 38.921511333333335, "is_reserved": 0}, {"lon": -77.01661333333334, "fusion_lon": 0.0, "bike_id": "0bdc812e966265ec2a0848b91b568ac0", "type": "electric_bike", "name": "0bdc812e966265ec2a0848b91b568ac0", "rental_uris": {"android": "https://dc.lft.to/lastmile_qr_scan", "ios": "https://dc.lft.to/lastmile_qr_scan"}, "is_disabled": 0, "fusion_lat": 0.0, "lat": 38.88114316666667, "is_reserved": 0}, {"lon": -77.02715483333333, "fusion_lon": 0.0, "bike_id": "6c9c9d64584c306a5b5d9018fc3e1a07", "type": "electric_scooter", "name": "6c9c9d64584c306a5b5d9018fc3e1a07", "rental_uris": {"android": "https://dc.lft.to/lastmile_qr_scan", "ios": "https://dc.lft.to/lastmile_qr_scan"}, "is_disabled": 0, "fusion_lat": 0.0, "lat": 38.928765, "is_reserved": 0}, {"lon": -77.02482266666667, "fusion_lon": 0.0, "bike_id": "0e460a39c22a7a20449cd348843527dd", "type": "electric_scooter", "name": "0e460a39c22a7a20449cd348843527dd", "rental_uris": {"android": "https://dc.lft.to/lastmile_qr_scan", "ios": "https://dc.lft.to/lastmile_qr_scan"}, "is_disabled": 0, "fusion_lat": 0.0, "lat": 38.9388025, "is_reserved": 0}, {"lon": -77.03590883333334, "fusion_lon": 0.0, "bike_id": "1becf96190123f28b1bc5e4f721b26c2", "type": "electric_scooter", "name": "1becf96190123f28b1bc5e4f721b26c2", "rental_uris": {"android": "https://dc.lft.to/lastmile_qr_scan", "ios": "https://dc.lft.to/lastmile_qr_scan"}, "is_disabled": 0, "fusion_lat": 0.0, "lat": 38.903675666666665, "is_reserved": 0}, {"lon": -77.04263383333333, "fusion_lon": 0.0, "bike_id": "513cc093a503981a7b74318a2e643f03", "type": "electric_scooter", "name": "513cc093a503981a7b74318a2e643f03", "rental_uris": {"android": "https://dc.lft.to/lastmile_qr_scan", "ios": "https://dc.lft.to/lastmile_qr_scan"}, "is_disabled": 0, "fusion_lat": 0.0, "lat": 38.922534666666664, "is_reserved": 0}, {"lon": -77.03170733333333, "fusion_lon": 0.0, "bike_id": "937bc65c1d054c5f5bed8ffd77c2d978", "type": "electric_scooter", "name": "937bc65c1d054c5f5bed8ffd77c2d978", "rental_uris": {"android": "https://dc.lft.to/lastmile_qr_scan", "ios": "https://dc.lft.to/lastmile_qr_scan"}, "is_disabled": 0, "fusion_lat": 0.0, "lat": 38.897129666666665, "is_reserved": 0}, {"lon": -77.03368833333333, "fusion_lon": 0.0, "bike_id": "255bedca058cb93a060e3b9765913f44", "type": "electric_scooter", "name": "255bedca058cb93a060e3b9765913f44", "rental_uris": {"android": "https://dc.lft.to/lastmile_qr_scan", "ios": "https://dc.lft.to/lastmile_qr_scan"},