{"data": {"bikes": [{"fusion_lon": 0.0, "bike_id": "f202558a1a0f12807ca76a2738eabc95", "is_disabled": 0, "is_reserved": 0, "lat": 38.8962645, "name": "f202558a1a0f12807ca76a2738eabc95", "rental_uris": {"ios": "https://dc.lft.to/lastmile_qr_scan", "android": "https://dc.lft.to/lastmile_qr_scan"}, "type": "electric_scooter", "fusion_lat": 0.0, "lon": -77.0034675}, {"fusion_lon": 0.0, "bike_id": "c31b9bc9a64d075edba632fab3561f0c", "is_disabled": 0, "is_reserved": 0, "lat": 38.8896735, "name": "c31b9bc9a64d075edba632fab3561f0c", "rental_uris": {"ios": "https://dc.lft.to/lastmile_qr_scan", "android": "https://dc.lft.to/lastmile_qr_scan"}, "type": "electric_scooter", "fusion_lat": 0.0, "lon": -76.9273735}, {"fusion_lon": 0.0, "bike_id": "080c9afb149975c4a16c5c79dc0fb048", "is_disabled": 0, "is_reserved": 0, "lat": 38.92563533333333, "name": "080c9afb149975c4a16c5c79dc0fb048", "rental_uris": {"ios": "https://dc.lft.to/lastmile_qr_scan", "android": "https://dc.lft.to/lastmile_qr_scan"}, "type": "electric_scooter", "fusion_lat": 0.0, "lon": -77.0377485}, {"fusion_lon": 0.0, "bike_id": "2a94e0b4ee8f1f99a9e63451ed73a667", "is_disabled": 0, "is_reserved": 0, "lat": 38.9171235, "name": "2a94e0b4ee8f1f99a9e63451ed73a667", "rental_uris": {"ios": "https://dc.lft.to/lastmile_qr_scan", "android": "https://dc.lft.to/lastmile_qr_scan"}, "type": "electric_scooter", "fusion_lat": 0.0, "lon": -77.0325225}, {"fusion_lon": 0.0, "bike_id": "5c4e173f35a1e5ab37e545f36368c169", "is_disabled": 0, "is_reserved": 0, "lat": 38.89834716666667, "name": "5c4e173f35a1e5ab37e545f36368c169", "rental_uris": {"ios": "https://dc.lft.to/lastmile_qr_scan", "android": "https://dc.lft.to/lastmile_qr_scan"}, "type": "electric_scooter", "fusion_lat": 0.0, "lon": -77.048123}, {"fusion_lon": 0.0, "bike_id": "cbf77e1f0c4a9a25d5ccad2ee73fd02d", "is_disabled": 0, "is_reserved": 0, "lat": 38.8950245, "name": "cbf77e1f0c4a9a25d5ccad2ee73fd02d", "rental_uris": {"ios": "https://dc.lft.to/lastmile_qr_scan", "android": "https://dc.lft.to/lastmile_qr_scan"}, "type": "electric_scooter", "fusion_lat": 0.0, "lon": -76.92361266666667}, {"fusion_lon": 0.0, "bike_id": "32e217c6373dd883dfe4d605e99e61d2", "is_disabled": 0, "is_reserved": 0, "lat": 38.895769333333334, "name": "32e217c6373dd883dfe4d605e99e61d2", "rental_uris": {"ios": "https://dc.lft.to/lastmile_qr_scan", "android": "https://dc.lft.to/lastmile_qr_scan"}, "type": "electric_scooter", "fusion_lat": 0.0, "lon": -77.04162933333333}, {"fusion_lon": 0.0, "bike_id": "cbd8d5291b7d992fdac5a52f0c3aea85", "is_disabled": 0, "is_reserved": 0, "lat": 38.914161166666666, "name": "cbd8d5291b7d992fdac5a52f0c3aea85", "rental_uris": {"ios": "https://dc.lft.to/lastmile_qr_scan", "android": "https://dc.lft.to/lastmile_qr_scan"}, "type": "electric_scooter", "fusion_lat": 0.0, "lon": -77.02214116666667}, {"fusion_lon": 0.0, "bike_id": "52202fd311028d6301eaa62a53a52699", "is_disabled": 0, "is_reserved": 0, "lat": 38.9214045, "name": "52202fd311028d6301eaa62a53a52699", "rental_uris": {"ios": "https://dc.lft.to/lastmile_qr_scan", "android": "https://dc.lft.to/lastmile_qr_scan"}, "type": "electric_scooter", "fusion_lat": 0.0, "lon": -77.01785083333333}, {"fusion_lon": 0.0, "bike_id": "49aaedcfbd26b1e99becb19dc0dbf20a", "is_disabled": 0, "is_reserved": 0, "lat": 38.9337875, "name": "49aaedcfbd26b1e99becb19dc0dbf20a", "rental_uris": {"ios": "https://dc.lft.to/lastmile_qr_scan", "android": "https://dc.lft.to/lastmile_qr_scan"}, "type": "electric_scooter", "fusion_lat": 0.0, "lon": -77.02741966666666}, {"fusion_lon": 0.0, "bike_id": "fe0d1b08d4549e577679a1c54b3c3650", "is_disabled": 0, "is_reserved": 0, "lat": 38.8303715, "name": "fe0d1b08d4549e577679a1c54b3c3650", "rental_uris": {"ios": "https://dc.lft.to/lastmile_qr_scan", "android": "https://dc.lft.to/lastmile_qr_scan"}, "type": "electric_bike", "fusion_lat": 0.0, "lon": -77.00825783333333}, {"fusion_lon": 0.0, "bike_id": "5059b2fb1c9bc2472e8b283bdd0a6660", "is_disabled": 0, "is_reserved": 0, "lat": 38.8446345, "name": "5059b2fb1c9bc2472e8b283bdd0a6660", "rental_uris": {"ios": "https://dc.lft.to/lastmile_qr_scan", "android": "https://dc.lft.to/lastmile_qr_scan"}, "type": "electric_bike", "fusion_lat": 0.0, "lon": -77.06825566666667}, {"fusion_lon": 0.0, "bike_id": "29ae6401eb495747f6f69e63daf4d6b1", "is_disabled": 0, "is_reserved": 0, "lat": 38.914274, "name": "29ae6401eb495747f6f69e63daf4d6b1", "rental_uris": {"ios": "https://dc.lft.to/lastmile_qr_scan", "android": "https://dc.lft.to/lastmile_qr_scan"}, "type": "electric_scooter", "fusion_lat": 0.0, "lon": -77.01806833333333}, {"fusion_lon": 0.0, "bike_id": "7e891d2cb1b63a684914bcdf50c3ada1", "is_disabled": 0, "is_reserved": 0, "lat": 38.876383, "name": "7e891d2cb1b63a684914bcdf50c3ada1", "rental_uris": {"ios": "https://dc.lft.to/lastmile_qr_scan", "android": "https://dc.lft.to/lastmile_qr_scan"}, "type": "electric_bike", "fusion_lat": 0.0, "lon": -77.00370833333334}, {"fusion_lon": 0.0, "bike_id": "7960557a544a044c7423444ba752642f", "is_disabled": 0, "is_reserved": 0, "lat": 38.918482, "name": "7960557a544a044c7423444ba752642f", "rental_uris": {"ios": "https://dc.lft.to/lastmile_qr_scan", "android": "https://dc.lft.to/lastmile_qr_scan"}, "type": "electric_scooter", "fusion_lat": 0.0, "lon": -77.0319925}, {"fusion_lon": 0.0, "bike_id": "85d2ec75e19cff63d7cda76f2a7b11b5", "is_disabled": 0, "is_reserved": 0, "lat": 38.9097615, "name": "85d2ec75e19cff63d7cda76f2a7b11b5", "rental_uris": {"ios": "https://dc.lft.to/lastmile_qr_scan", "android": "https://dc.lft.to/lastmile_qr_scan"}, "type": "electric_scooter", "fusion_lat": 0.0, "lon": -77.00882916666667}, {"fusion_lon": 0.0, "bike_id": "86b6b648cd61f8dc4c489a1a40977d91", "is_disabled": 0, "is_reserved": 0, "lat": 38.953129, "name": "86b6b648cd61f8dc4c489a1a40977d91", "rental_uris": {"ios": "https://dc.lft.to/lastmile_qr_scan", "android": "https://dc.lft.to/lastmile_qr_scan"}, "type": "electric_bike", "fusion_lat": 0.0, "lon": -77.01915983333333}, {"fusion_lon": 0.0, "bike_id": "0ff5ba18b6924ce994f6155d235dbae2", "is_disabled": 0, "is_reserved": 0, "lat": 38.898346, "name": "0ff5ba18b6924ce994f6155d235dbae2", "rental_uris": {"ios": "https://dc.lft.to/lastmile_qr_scan", "android": "https://dc.lft.to/lastmile_qr_scan"}, "type": "electric_scooter", "fusion_lat": 0.0, "lon": -77.04803316666667}, {"fusion_lon": 0.0, "bike_id": "bb1754c61282bf03e80029710bcb5a4a", "is_disabled": 0, "is_reserved": 0, "lat": 38.901073833333335, "name": "bb1754c61282bf03e80029710bcb5a4a", "rental_uris": {"ios": "https://dc.lft.to/lastmile_qr_scan", "android": "https://dc.lft.to/lastmile_qr_scan"}, "type": "electric_scooter", "fusion_lat": 0.0, "lon": -77.04998583333334}, {"fusion_lon": 0.0, "bike_id": "4675ca063be337eb4c2d83975412c464", "is_disabled": 0, "is_reserved": 0, "lat": 38.903592833333335, "name": "4675ca063be337eb4c2d83975412c464", "rental_uris": {"ios": "https://dc.lft.to/lastmile_qr_scan", "android": "https://dc.lft.to/lastmile_qr_scan"}, "type": "electric_scooter", "fusion_lat": 0.0, "lon": -77.01112383333333}, {"fusion_lon": 0.0, "bike_id": "697be4b3aa080c7587d0b0afe8c78c2e", "is_disabled": 0, "is_reserved": 0, "lat": 38.91118766666666, "name": "697be4b3aa080c7587d0b0afe8c78c2e", "rental_uris": {"ios": "https://dc.lft.to/lastmile_qr_scan", "android": "https://dc.lft.to/lastmile_qr_scan"}, "type": "electric_scooter", "fusion_lat": 0.0, "lon": -77.03869716666667}, {"fusion_lon": 0.0, "bike_id": "e183ac14ac1ae2857346e2b9d2896219", "is_disabled": 0, "is_reserved": 0, "lat": 38.919531666666664, "name": "e183ac14ac1ae2857346e2b9d2896219", "rental_uris": {"ios": "https://dc.lft.to/lastmile_qr_scan", "android": "https://dc.lft.to/lastmile_qr_scan"}, "type": "electric_scooter", "fusion_lat": 0.0, "lon": -77.01394416666666}, {"fusion_lon": 0.0, "bike_id": "494eb54c58397e9b8f585c85cbd2c11d", "is_disabled": 0, "is_reserved": 0, "lat": 38.90409483333333, "name": "494eb54c58397e9b8f585c85cbd2c11d", "rental_uris": {"ios": "https://dc.lft.to/lastmile_qr_scan", "android": "https://dc.lft.to/lastmile_qr_scan"}, "type": "electric_scooter", "fusion_lat": 0.0, "lon": -77.02056916666666}, {"fusion_lon": 0.0, "bike_id": "c5bf903ff9562213389bd89d0d7c8ebc", "is_disabled": 0, "is_reserved": 0, "lat": 38.927919833333334, "name": "c5bf903ff9562213389bd89d0d7c8ebc", "rental_uris": {"ios": "https://dc.lft.to/lastmile_qr_scan", "android": "https://dc.lft.to/lastmile_qr_scan"}, "type": "electric_scooter", "fusion_lat": 0.0, "lon": -77.03776666666667}, {"fusion_lon": 0.0, "bike_id": "f779e99cfc46b5f393e6f557a9e36bac", "is_disabled": 0, "is_reserved": 0, "lat": 38.966340833333334, "name": "f779e99cfc46b5f393e6f557a9e36bac", "rental_uris": {"ios": "https://dc.lft.to/lastmile_qr_scan", "android": "https://dc.lft.to/lastmile_qr_scan"}, "type": "electric_scooter", "fusion_lat": 0.0, "lon": -77.0274925}, {"fusion_lon": 0.0, "bike_id": "41ae3bcad57e9087d89050b302ef4980", "is_disabled": 0, "is_reserved": 0, "lat": 38.897861166666665, "name": "41ae3bcad57e9087d89050b302ef4980", "rental_uris": {"ios": "https://dc.lft.to/lastmile_qr_scan", "android": "https://dc.lft.to/lastmile_qr_scan"}, "type": "electric_scooter", "fusion_lat": 0.0, "lon": -77.0497455}, {"fusion_lon": 0.0, "bike_id": "2265b5ed48d733d7766cb07ed353c297", "is_disabled": 0, "is_reserved": 0, "lat": 38.920757, "name": "2265b5ed48d733d7766cb07ed353c297", "rental_uris": {"ios": "https://dc.lft.to/lastmile_qr_scan", "android": "https://dc.lft.to/lastmile_qr_scan"}, "type": "electric_scooter", "fusion_lat": 0.0, "lon": -77.03887533333334}, {"fusion_lon": 0.0, "bike_id": "f636763fd4b2d765280935651d6fa912", "is_disabled": 0, "is_reserved": 0, "lat": 38.925326, "name": "f636763fd4b2d765280935651d6fa912", "rental_uris": {"ios": "https://dc.lft.to/lastmile_qr_scan", "android": "https://dc.lft.to/lastmile_qr_scan"}, "type": "electric_bike", "fusion_lat": 0.0, "lon": -77.0732525}, {"fusion_lon": 0.0, "bike_id": "5044832aa76044ae3ebd4be62dcb84d0", "is_disabled": 0, "is_reserved": 0, "lat": 38.92709266666667, "name": "5044832aa76044ae3ebd4be62dcb84d0", "rental_uris": {"ios": "https://dc.lft.to/lastmile_qr_scan", "android": "https://dc.lft.to/lastmile_qr_scan"}, "type": "electric_scooter", "fusion_lat": 0.0, "lon": -77.059972}, {"fusion_lon": 0.0, "bike_id": "40f68b5d3175a189ebb581a0ccf0b59d", "is_disabled": 0, "is_reserved": 0, "lat": 38.9353355, "name": "40f68b5d3175a189ebb581a0ccf0b59d", "rental_uris": {"ios": "https://dc.lft.to/lastmile_qr_scan", "android": "https://dc.lft.to/lastmile_qr_scan"}, "type": "electric_scooter", "fusion_lat": 0.0, "lon": -77.0348925}, {"fusion_lon": 0.0, "bike_id": "021952b514cc8187e1a60b8116060a57", "is_disabled": 0, "is_reserved": 0, "lat": 38.89620733333334, "name": "021952b514cc8187e1a60b8116060a57", "rental_uris": {"ios": "https://dc.lft.to/lastmile_qr_scan", "android": "https://dc.lft.to/lastmile_qr_scan"}, "type": "electric_bike", "fusion_lat": 0.0, "lon": -76.90748966666666}, {"fusion_lon": 0.0, "bike_id": "4bfe37afdb97b868e84770a43a0aa639", "is_disabled": 0, "is_reserved": 0, "lat": 38.9241665, "name": "4bfe37afdb97b868e84770a43a0aa639", "rental_uris": {"ios": "https://dc.lft.to/lastmile_qr_scan", "android": "https://dc.lft.to/lastmile_qr_scan"}, "type": "electric_scooter", "fusion_lat": 0.0, "lon": -77.020146}, {"fusion_lon": 0.0, "bike_id": "7ac406d46bdd110c765a3efd90207bb5", "is_disabled": 0, "is_reserved": 0, "lat": 38.88515616666667, "name": "7ac406d46bdd110c765a3efd90207bb5", "rental_uris": {"ios": "https://dc.lft.to/lastmile_qr_scan", "android": "https://dc.lft.to/lastmile_qr_scan"}, "type": "electric_scooter", "fusion_lat": 0.0, "lon": -76.92440466666666}, {"fusion_lon": 0.0, "bike_id": "aaf714db01be51df666ab46326b3b4f9", "is_disabled": 0, "is_reserved": 0, "lat": 38.902503, "name": "aaf714db01be51df666ab46326b3b4f9", "rental_uris": {"ios": "https://dc.lft.to/lastmile_qr_scan", "android": "https://dc.lft.to/lastmile_qr_scan"}, "type": "electric_scooter", "fusion_lat": 0.0, "lon": -76.97699616666667}, {"fusion_lon": 0.0, "bike_id": "6e884d162890ef253cf46f60180f3b5c", "is_disabled": 0, "is_reserved": 0, "lat": 38.914059333333334, "name": "6e884d162890ef253cf46f60180f3b5c", "rental_uris": {"ios": "https://dc.lft.to/lastmile_qr_scan", "android": "https://dc.lft.to/lastmile_qr_scan"}, "type": "electric_scooter", "fusion_lat": 0.0, "lon": -77.01802916666666}, {"fusion_lon": 0.0, "bike_id": "b502eec75ca2f72be56ca79546117dbb", "is_disabled": 0, "is_reserved": 0, "lat": 38.9217695, "name": "b502eec75ca2f72be56ca79546117dbb", "rental_uris": {"ios": "https://dc.lft.to/lastmile_qr_scan", "android": "https://dc.lft.to/lastmile_qr_scan"}, "type": "electric_scooter", "fusion_lat": 0.0, "lon": -77.04009016666667}, {"fusion_lon": 0.0, "bike_id": "a14668bd2e81d14e58205b86cc055dab", "is_disabled": 0, "is_reserved": 0, "lat": 38.905987, "name": "a14668bd2e81d14e58205b86cc055dab", "rental_uris": {"ios": "https://dc.lft.to/lastmile_qr_scan", "android": "https://dc.lft.to/lastmile_qr_scan"}, "type": "electric_scooter", "fusion_lat": 0.0, "lon": -77.07007266666666}, {"fusion_lon": 0.0, "bike_id": "dc44b32242d3c6b35a17ed904e8eaadd", "is_disabled": 0, "is_reserved": 0, "lat": 38.89231316666667, "name": "dc44b32242d3c6b35a17ed904e8eaadd", "rental_uris": {"ios": "https://dc.lft.to/lastmile_qr_scan", "android": "https://dc.lft.to/lastmile_qr_scan"}, "type": "electric_scooter", "fusion_lat": 0.0, "lon": -77.02417433333333}, {"fusion_lon": 0.0, "bike_id": "f0ef0b54fcbe596f2f8820e7c560e39f", "is_disabled": 0, "is_reserved": 0, "lat": 38.885358833333335, "name": "f0ef0b54fcbe596f2f8820e7c560e39f", "rental_uris": {"ios": "https://dc.lft.to/lastmile_qr_scan", "android": "https://dc.lft.to/lastmile_qr_scan"}, "type": "electric_scooter", "fusion_lat": 0.0, "lon": -76.98056766666667}, {"fusion_lon": 0.0, "bike_id": "45b6d74883204d34a32e4ce340a3868e", "is_disabled": 0, "is_reserved": 0, "lat": 38.90162933333333, "name": "45b6d74883204d34a32e4ce340a3868e", "rental_uris": {"ios": "https://dc.lft.to/lastmile_qr_scan", "android": "https://dc.lft.to/lastmile_qr_scan"}, "type": "electric_scooter", "fusion_lat": 0.0, "lon": -77.022318}, {"fusion_lon": 0.0, "bike_id": "011a2c04ffa1f0677e140cecaae680f0", "is_disabled": 0, "is_reserved": 0, "lat": 38.90026183333333, "name": "011a2c04ffa1f0677e140cecaae680f0", "rental_uris": {"ios": "https://dc.lft.to/lastmile_qr_scan", "android": "https://dc.lft.to/lastmile_qr_scan"}, "type": "electric_scooter", "fusion_lat": 0.0, "lon": -76.9984585}, {"fusion_lon": 0.0, "bike_id": "d72684eae961797dc3be4108ab8e6799", "is_disabled": 0, "is_reserved": 0, "lat": 38.900384833333334, "name": "d72684eae961797dc3be4108ab8e6799", "rental_uris": {"ios": "https://dc.lft.to/lastmile_qr_scan", "android": "https://dc.lft.to/lastmile_qr_scan"}, "type": "electric_scooter", "fusion_lat": 0.0, "lon": -76.98831833333334}, {"fusion_lon": 0.0, "bike_id": "3fc41f9c56e9ba2b8a1baf7ab9326960", "is_disabled": 0, "is_reserved": 0, "lat": 38.907880666666664, "name": "3fc41f9c56e9ba2b8a1baf7ab9326960", "rental_uris": {"ios": "https://dc.lft.to/lastmile_qr_scan", "android": "https://dc.lft.to/lastmile_qr_scan"}, "type": "electric_scooter", "fusion_lat": 0.0, "lon": -77.0096535}, {"fusion_lon": 0.0, "bike_id": "3565a1e6d99164556286de4a7f8a0d5a", "is_disabled": 0, "is_reserved": 0, "lat": 38.91254683333333, "name": "3565a1e6d99164556286de4a7f8a0d5a", "rental_uris": {"ios": "https://dc.lft.to/lastmile_qr_scan", "android": "https://dc.lft.to/lastmile_qr_scan"}, "type": "electric_scooter", "fusion_lat": 0.0, "lon": -77.01460066666667}, {"fusion_lon": 0.0, "bike_id": "359d8aecded53cea958fb4ee3b9e7a26", "is_disabled": 0, "is_reserved": 0, "lat": 38.919597833333334, "name": "359d8aecded53cea958fb4ee3b9e7a26", "rental_uris": {"ios": "https://dc.lft.to/lastmile_qr_scan", "android": "https://dc.lft.to/lastmile_qr_scan"}, "type": "electric_scooter", "fusion_lat": 0.0, "lon": -77.025964}, {"fusion_lon": 0.0, "bike_id": "c789a677655641d0c5a3121e0072d88c", "is_disabled": 0, "is_reserved": 0, "lat": 38.92223516666667, "name": "c789a677655641d0c5a3121e0072d88c", "rental_uris": {"ios": "https://dc.lft.to/lastmile_qr_scan", "android": "https://dc.lft.to/lastmile_qr_scan"}, "type": "electric_scooter", "fusion_lat": 0.0, "lon": -77.04307133333333}, {"fusion_lon": 0.0, "bike_id": "33bd09828aa3ee84ebef5e589d1d0fb3", "is_disabled": 0, "is_reserved": 0, "lat": 38.905617666666664, "name": "33bd09828aa3ee84ebef5e589d1d0fb3", "rental_uris": {"ios": "https://dc.lft.to/lastmile_qr_scan", "android": "https://dc.lft.to/lastmile_qr_scan"}, "type": "electric_scooter", "fusion_lat": 0.0, "lon": -76.9979085}, {"fusion_lon": 0.0, "bike_id": "035046fe063364b6d7319e7d1167158d", "is_disabled": 0, "is_reserved": 0, "lat": 38.91681633333334, "name": "035046fe063364b6d7319e7d1167158d", "rental_uris": {"ios": "https://dc.lft.to/lastmile_qr_scan", "android": "https://dc.lft.to/lastmile_qr_scan"}, "type": "electric_scooter", "fusion_lat": 0.0, "lon": -77.01222766666666}, {"fusion_lon": 0.0, "bike_id": "fcb87c16e98b7535dcc62e66e3dd86b2", "is_disabled": 0, "is_reserved": 0, "lat": 38.9281305, "name": "fcb87c16e98b7535dcc62e66e3dd86b2", "rental_uris": {"ios": "https://dc.lft.to/lastmile_qr_scan", "android": "https://dc.lft.to/lastmile_qr_scan"}, "type": "electric_scooter", "fusion_lat": 0.0, "lon": -77.0363185}, {"fusion_lon": 0.0, "bike_id": "d633d065fde42cf3d009fe3e9aafa9f6", "is_disabled": 0, "is_reserved": 0, "lat": 38.95184616666667, "name": "d633d065fde42cf3d009fe3e9aafa9f6", "rental_uris": {"ios": "https://dc.lft.to/lastmile_qr_scan", "android": "https://dc.lft.to/lastmile_qr_scan"}, "type": "electric_scooter", "fusion_lat": 0.0, "lon": -77.026128}, {"fusion_lon": 0.0, "bike_id": "3f9f4f02f2df65f70999bd2c7e873542", "is_disabled": 0, "is_reserved": 0, "lat": 38.914018, "name": "3f9f4f02f2df65f70999bd2c7e873542", "rental_uris": {"ios": "https://dc.lft.to/lastmile_qr_scan", "android": "https://dc.lft.to/lastmile_qr_scan"}, "type": "electric_scooter", "fusion_lat": 0.0, "lon": -77.0306755}, {"fusion_lon": 0.0, "bike_id": "4bfc1b80d394c4d3739954c06ef26b2e", "is_disabled": 0, "is_reserved": 0, "lat": 38.9006535, "name": "4bfc1b80d394c4d3739954c06ef26b2e", "rental_uris": {"ios": "https://dc.lft.to/lastmile_qr_scan", "android": "https://dc.lft.to/lastmile_qr_scan"}, "type": "electric_scooter", "fusion_lat": 0.0, "lon": -77.03947033333333}, {"fusion_lon": 0.0, "bike_id": "780f9d88635b39e7b51697bf5d34b85b", "is_disabled": 0, "is_reserved": 0, "lat": 38.9515465, "name": "780f9d88635b39e7b51697bf5d34b85b", "rental_uris": {"ios": "https://dc.lft.to/lastmile_qr_scan", "android": "https://dc.lft.to/lastmile_qr_scan"}, "type": "electric_scooter", "fusion_lat": 0.0, "lon": -77.01867833333333}, {"fusion_lon": 0.0, "bike_id": "babf2f7c6ac9c246b0973f6fcb31f9b0", "is_disabled": 0, "is_reserved": 0, "lat": 38.92609016666667, "name": "babf2f7c6ac9c246b0973f6fcb31f9b0", "rental_uris": {"ios": "https://dc.lft.to/lastmile_qr_scan", "android": "https://dc.lft.to/lastmile_qr_scan"}, "type": "electric_scooter", "fusion_lat": 0.0, "lon": -77.05707116666666}, {"fusion_lon": 0.0, "bike_id": "ac9a6c3189991773f1f26089aece59cc", "is_disabled": 0, "is_reserved": 0, "lat": 38.9020275, "name": "ac9a6c3189991773f1f26089aece59cc", "rental_uris": {"ios": "https://dc.lft.to/lastmile_qr_scan", "android": "https://dc.lft.to/lastmile_qr_scan"}, "type": "electric_scooter", "fusion_lat": 0.0, "lon": -77.051194}, {"fusion_lon": 0.0, "bike_id": "ed3427ce5ef935b7771ae9a57f4dfadd", "is_disabled": 0, "is_reserved": 0, "lat": 38.91565216666667, "name": "ed3427ce5ef935b7771ae9a57f4dfadd", "rental_uris": {"ios": "https://dc.lft.to/lastmile_qr_scan", "android": "https://dc.lft.to/lastmile_qr_scan"}, "type": "electric_scooter", "fusion_lat": 0.0, "lon": -77.03270966666666}, {"fusion_lon": 0.0, "bike_id": "aad2313e9f0001515bbe9e07f07693ce", "is_disabled": 0, "is_reserved": 0, "lat": 38.9205875, "name": "aad2313e9f0001515bbe9e07f07693ce", "rental_uris": {"ios": "https://dc.lft.to/lastmile_qr_scan", "android": "https://dc.lft.to/lastmile_qr_scan"}, "type": "electric_scooter", "fusion_lat": 0.0, "lon": -77.01720516666667}, {"fusion_lon": 0.0, "bike_id": "4996840c221531177dd7aecd2b3be55d", "is_disabled": 0, "is_reserved": 0, "lat": 38.9233175, "name": "4996840c221531177dd7aecd2b3be55d", "rental_uris": {"ios": "https://dc.lft.to/lastmile_qr_scan", "android": "https://dc.lft.to/lastmile_qr_scan"}, "type": "electric_scooter", "fusion_lat": 0.0, "lon": -77.03670083333333}, {"fusion_lon": 0.0, "bike_id": "9519b2074ff35df7a5954ba625b25156", "is_disabled": 0, "is_reserved": 0, "lat": 38.92483983333333, "name": "9519b2074ff35df7a5954ba625b25156", "rental_uris": {"ios": "https://dc.lft.to/lastmile_qr_scan", "android": "https://dc.lft.to/lastmile_qr_scan"}, "type": "electric_scooter", "fusion_lat": 0.0, "lon": -77.057566}, {"fusion_lon": 0.0, "bike_id": "9b240476021f3416d767e6e7aaa6b367", "is_disabled": 0, "is_reserved": 0, "lat": 38.91560533333333, "name": "9b240476021f3416d767e6e7aaa6b367", "rental_uris": {"ios": "https://dc.lft.to/lastmile_qr_scan", "android": "https://dc.lft.to/lastmile_qr_scan"}, "type": "electric_scooter", "fusion_lat": 0.0, "lon": -77.03215983333334}, {"fusion_lon": 0.0, "bike_id": "93f2cf552bbf509df320293fcb37618d", "is_disabled": 0, "is_reserved": 0, "lat": 38.87869883333333, "name": "93f2cf552bbf509df320293fcb37618d", "rental_uris": {"ios": "https://dc.lft.to/lastmile_qr_scan", "android": "https://dc.lft.to/lastmile_qr_scan"}, "type": "electric_scooter", "fusion_lat": 0.0, "lon": -77.001312}, {"fusion_lon": 0.0, "bike_id": "e13729e2b0112d73037d033ba021fefa", "is_disabled": 0, "is_reserved": 0, "lat": 38.9144065, "name": "e13729e2b0112d73037d033ba021fefa", "rental_uris": {"ios": "https://dc.lft.to/lastmile_qr_scan", "android": "https://dc.lft.to/lastmile_qr_scan"}, "type": "electric_scooter", "fusion_lat": 0.0, "lon": -77.02288766666666}, {"fusion_lon": 0.0, "bike_id": "274cbd3330dca0a139ebb99ea595b737", "is_disabled": 0, "is_reserved": 0, "lat": 38.916359166666666, "name": "274cbd3330dca0a139ebb99ea595b737", "rental_uris": {"ios": "https://dc.lft.to/lastmile_qr_scan", "android": "https://dc.lft.to/lastmile_qr_scan"}, "type": "electric_scooter", "fusion_lat": 0.0, "lon": -77.03959766666667}, {"fusion_lon": 0.0, "bike_id": "cdf6cbe22e6622eb5f0cbb7be948fcdc", "is_disabled": 0, "is_reserved": 0, "lat": 38.92101566666667, "name": "cdf6cbe22e6622eb5f0cbb7be948fcdc", "rental_uris": {"ios": "https://dc.lft.to/lastmile_qr_scan", "android": "https://dc.lft.to/lastmile_qr_scan"}, "type": "electric_scooter", "fusion_lat": 0.0, "lon": -77.02363333333334}, {"fusion_lon": 0.0, "bike_id": "356f52c83178e20d50f1573e02e19861", "is_disabled": 0, "is_reserved": 0, "lat": 38.9232645, "name": "356f52c83178e20d50f1573e02e19861", "rental_uris": {"ios": "https://dc.lft.to/lastmile_qr_scan", "android": "https://dc.lft.to/lastmile_qr_scan"}, "type": "electric_scooter", "fusion_lat": 0.0, "lon": -77.02121533333333}, {"fusion_lon": 0.0, "bike_id": "064e0c4292ddcd8c8ac2ebce0ed2dcbb", "is_disabled": 0, "is_reserved": 0, "lat": 38.86085683333334, "name": "064e0c4292ddcd8c8ac2ebce0ed2dcbb", "rental_uris": {"ios": "https://dc.lft.to/lastmile_qr_scan", "android": "https://dc.lft.to/lastmile_qr_scan"}, "type": "electric_scooter", "fusion_lat": 0.0, "lon": -76.9837625}, {"fusion_lon": 0.0, "bike_id": "330cc3fed70e691738daf7dd319616cd", "is_disabled": 0, "is_reserved": 0, "lat": 38.902533166666664, "name": "330cc3fed70e691738daf7dd319616cd", "rental_uris": {"ios": "https://dc.lft.to/lastmile_qr_scan", "android": "https://dc.lft.to/lastmile_qr_scan"}, "type": "electric_scooter", "fusion_lat": 0.0, "lon": -77.0422505}, {"fusion_lon": 0.0, "bike_id": "eb82aeabdc7a4521818605203ac71936", "is_disabled": 0, "is_reserved": 0, "lat": 38.90518433333333, "name": "eb82aeabdc7a4521818605203ac71936", "rental_uris": {"ios": "https://dc.lft.to/lastmile_qr_scan", "android": "https://dc.lft.to/lastmile_qr_scan"}, "type": "electric_scooter", "fusion_lat": 0.0, "lon": -77.050069}, {"fusion_lon": 0.0, "bike_id": "c3a7e948c721c6a7c9b1a65409b91fed", "is_disabled": 0, "is_reserved": 0, "lat": 38.92040516666667, "name": "c3a7e948c721c6a7c9b1a65409b91fed", "rental_uris": {"ios": "https://dc.lft.to/lastmile_qr_scan", "android": "https://dc.lft.to/lastmile_qr_scan"}, "type": "electric_scooter", "fusion_lat": 0.0, "lon": -77.02375783333333}, {"fusion_lon": 0.0, "bike_id": "0c6b4fd81c4881e5141eab33a86184e0", "is_disabled": 0, "is_reserved": 0, "lat": 38.89486733333333, "name": "0c6b4fd81c4881e5141eab33a86184e0", "rental_uris": {"ios": "https://dc.lft.to/lastmile_qr_scan", "android": "https://dc.lft.to/lastmile_qr_scan"}, "type": "electric_scooter", "fusion_lat": 0.0, "lon": -77.0217035}, {"fusion_lon": 0.0, "bike_id": "a9791420083a23214409bee03505b4b6", "is_disabled": 0, "is_reserved": 0, "lat": 38.92111033333333, "name": "a9791420083a23214409bee03505b4b6", "rental_uris": {"ios": "https://dc.lft.to/lastmile_qr_scan", "android": "https://dc.lft.to/lastmile_qr_scan"}, "type": "electric_scooter", "fusion_lat": 0.0, "lon": -77.03923016666667}, {"fusion_lon": 0.0, "bike_id": "2665630d288a5325c549498f46fa7001", "is_disabled": 0, "is_reserved": 0, "lat": 38.90162383333333, "name": "2665630d288a5325c549498f46fa7001", "rental_uris": {"ios": "https://dc.lft.to/lastmile_qr_scan", "android": "https://dc.lft.to/lastmile_qr_scan"}, "type": "electric_scooter", "fusion_lat": 0.0, "lon": -76.98459566666666}, {"fusion_lon": 0.0, "bike_id": "feb96e6d47fa2680aff17784f49be92e", "is_disabled": 0, "is_reserved": 0, "lat": 38.9044095, "name": "feb96e6d47fa2680aff17784f49be92e", "rental_uris": {"ios": "https://dc.lft.to/lastmile_qr_scan", "android": "https://dc.lft.to/lastmile_qr_scan"}, "type": "electric_scooter", "fusion_lat": 0.0, "lon": -76.99695833333334}, {"fusion_lon": 0.0, "bike_id": "19f82a9cdab55926ce4107e308aea472", "is_disabled": 0, "is_reserved": 0, "lat": 38.875393333333335, "name": "19f82a9cdab55926ce4107e308aea472", "rental_uris": {"ios": "https://dc.lft.to/lastmile_qr_scan", "android": "https://dc.lft.to/lastmile_qr_scan"}, "type": "electric_scooter", "fusion_lat": 0.0, "lon": -77.008834}, {"fusion_lon": 0.0, "bike_id": "aec8501f49635eb41e038fe4cd5ddecf", "is_disabled": 0, "is_reserved": 0, "lat": 38.90259833333333, "name": "aec8501f49635eb41e038fe4cd5ddecf", "rental_uris": {"ios": "https://dc.lft.to/lastmile_qr_scan", "android": "https://dc.lft.to/lastmile_qr_scan"}, "type": "electric_scooter", "fusion_lat": 0.0, "lon": -77.02782716666667}, {"fusion_lon": 0.0, "bike_id": "2ddba8e1c4ebc8f3d16062d45257008d", "is_disabled": 0, "is_reserved": 0, "lat": 38.9244255, "name": "2ddba8e1c4ebc8f3d16062d45257008d", "rental_uris": {"ios": "https://dc.lft.to/lastmile_qr_scan", "android": "https://dc.lft.to/lastmile_qr_scan"}, "type": "electric_scooter", "fusion_lat": 0.0, "lon": -77.02032}, {"fusion_lon": 0.0, "bike_id": "052945b6ee5bebe54915425fa43bbbcf", "is_disabled": 0, "is_reserved": 0, "lat": 38.91612683333334, "name": "052945b6ee5bebe54915425fa43bbbcf", "rental_uris": {"ios": "https://dc.lft.to/lastmile_qr_scan", "android": "https://dc.lft.to/lastmile_qr_scan"}, "type": "electric_scooter", "fusion_lat": 0.0, "lon": -77.03215316666666}, {"fusion_lon": 0.0, "bike_id": "9e34fcdca5cea27d9ee341145cd47c3f", "is_disabled": 0, "is_reserved": 0, "lat": 38.915963166666664, "name": "9e34fcdca5cea27d9ee341145cd47c3f", "rental_uris": {"ios": "https://dc.lft.to/lastmile_qr_scan", "android": "https://dc.lft.to/lastmile_qr_scan"}, "type": "electric_scooter", "fusion_lat": 0.0, "lon": -77.02400316666666}, {"fusion_lon": 0.0, "bike_id": "ad0c759c39ca2ffe7f2a5be8a167ce57", "is_disabled": 0, "is_reserved": 0, "lat": 38.915638666666666, "name": "ad0c759c39ca2ffe7f2a5be8a167ce57", "rental_uris": {"ios": "https://dc.lft.to/lastmile_qr_scan", "android": "https://dc.lft.to/lastmile_qr_scan"}, "type": "electric_scooter", "fusion_lat": 0.0, "lon": -77.0070205}, {"fusion_lon": 0.0, "bike_id": "95c4a3e187c4c5ed2246f7acd0958e8b", "is_disabled": 0, "is_reserved": 0, "lat": 38.924698, "name": "95c4a3e187c4c5ed2246f7acd0958e8b", "rental_uris": {"ios": "https://dc.lft.to/lastmile_qr_scan", "android": "https://dc.lft.to/lastmile_qr_scan"}, "type": "electric_scooter", "fusion_lat": 0.0, "lon": -77.02196116666667}, {"fusion_lon": 0.0, "bike_id": "64beb6f9754574bbf0f1a9dff863f925", "is_disabled": 0, "is_reserved": 0, "lat": 38.915632, "name": "64beb6f9754574bbf0f1a9dff863f925", "rental_uris": {"ios": "https://dc.lft.to/lastmile_qr_scan", "android": "https://dc.lft.to/lastmile_qr_scan"}, "type": "electric_scooter", "fusion_lat": 0.0, "lon": -77.03349683333333}, {"fusion_lon": 0.0, "bike_id": "9def0760284c323e5316f7a9eb20f9b5", "is_disabled": 0, "is_reserved": 0, "lat": 38.832722833333335, "name": "9def0760284c323e5316f7a9eb20f9b5", "rental_uris": {"ios": "https://dc.lft.to/lastmile_qr_scan", "android": "https://dc.lft.to/lastmile_qr_scan"}, "type": "electric_bike", "fusion_lat": 0.0, "lon": -77.08369216666667}, {"fusion_lon": 0.0, "bike_id": "affb799a2e56ab8e0ee6bbd0147d91b1", "is_disabled": 0, "is_reserved": 0, "lat": 38.9204685, "name": "affb799a2e56ab8e0ee6bbd0147d91b1", "rental_uris": {"ios": "https://dc.lft.to/lastmile_qr_scan", "android": "https://dc.lft.to/lastmile_qr_scan"}, "type": "electric_scooter", "fusion_lat": 0.0, "lon": -77.0167245}, {"fusion_lon": 0.0, "bike_id": "85fc09e2607d78571b4c9d8423f21507", "is_disabled": 0, "is_reserved": 0, "lat": 38.871675833333335, "name": "85fc09e2607d78571b4c9d8423f21507", "rental_uris": {"ios": "https://dc.lft.to/lastmile_qr_scan", "android": "https://dc.lft.to/lastmile_qr_scan"}, "type": "electric_scooter", "fusion_lat": 0.0, "lon": -77.00635283333334}, {"fusion_lon": 0.0, "bike_id": "38c5306ef9b8686ebcb4aed1ca49d306", "is_disabled": 0, "is_reserved": 0, "lat": 38.93853516666667, "name": "38c5306ef9b8686ebcb4aed1ca49d306", "rental_uris": {"ios": "https://dc.lft.to/lastmile_qr_scan", "android": "https://dc.lft.to/lastmile_qr_scan"}, "type": "electric_scooter", "fusion_lat": 0.0, "lon": -77.0745815}, {"fusion_lon": 0.0, "bike_id": "4b03a3192e7f9b4a0db8c89ccb0375b1", "is_disabled": 0, "is_reserved": 0, "lat": 38.906978333333335, "name": "4b03a3192e7f9b4a0db8c89ccb0375b1", "rental_uris": {"ios": "https://dc.lft.to/lastmile_qr_scan", "android": "https://dc.lft.to/lastmile_qr_scan"}, "type": "electric_scooter", "fusion_lat": 0.0, "lon": -77.07183716666667}, {"fusion_lon": 0.0, "bike_id": "74a8b45cfb4b3df42b6c732034112207", "is_disabled": 0, "is_reserved": 0, "lat": 38.936326333333334, "name": "74a8b45cfb4b3df42b6c732034112207", "rental_uris": {"ios": "https://dc.lft.to/lastmile_qr_scan", "android": "https://dc.lft.to/lastmile_qr_scan"}, "type": "electric_scooter", "fusion_lat": 0.0, "lon": -77.03658083333333}, {"fusion_lon": 0.0, "bike_id": "d7f8545c40b012c7bc6c33e877fe28d7", "is_disabled": 0, "is_reserved": 0, "lat": 38.924335, "name": "d7f8545c40b012c7bc6c33e877fe28d7", "rental_uris": {"ios": "https://dc.lft.to/lastmile_qr_scan", "android": "https://dc.lft.to/lastmile_qr_scan"}, "type": "electric_scooter", "fusion_lat": 0.0, "lon": -77.022477}, {"fusion_lon": 0.0, "bike_id": "5202d85fa3d0585587fdbe41ed9da36e", "is_disabled": 0, "is_reserved": 0, "lat": 38.9037515, "name": "5202d85fa3d0585587fdbe41ed9da36e", "rental_uris": {"ios": "https://dc.lft.to/lastmile_qr_scan", "android": "https://dc.lft.to/lastmile_qr_scan"}, "type": "electric_bike", "fusion_lat": 0.0, "lon": -76.937532}, {"fusion_lon": 0.0, "bike_id": "207bb7b3441d442800cdbec537e35187", "is_disabled": 0, "is_reserved": 0, "lat": 38.87645333333333, "name": "207bb7b3441d442800cdbec537e35187", "rental_uris": {"ios": "https://dc.lft.to/lastmile_qr_scan", "android": "https://dc.lft.to/lastmile_qr_scan"}, "type": "electric_scooter", "fusion_lat": 0.0, "lon": -77.008111}, {"fusion_lon": 0.0, "bike_id": "2348017e764b69389712b6cda1f080fe", "is_disabled": 0, "is_reserved": 0, "lat": 38.90647533333333, "name": "2348017e764b69389712b6cda1f080fe", "rental_uris": {"ios": "https://dc.lft.to/lastmile_qr_scan", "android": "https://dc.lft.to/lastmile_qr_scan"}, "type": "electric_scooter", "fusion_lat": 0.0, "lon": -77.03463966666666}, {"fusion_lon": 0.0, "bike_id": "16bd3b48fa0a818c7708b901c224f9e9", "is_disabled": 0, "is_reserved": 0, "lat": 38.83865016666667, "name": "16bd3b48fa0a818c7708b901c224f9e9", "rental_uris": {"ios": "https://dc.lft.to/lastmile_qr_scan", "android": "https://dc.lft.to/lastmile_qr_scan"}, "type": "electric_bike", "fusion_lat": 0.0, "lon": -76.99699516666666}, {"fusion_lon": 0.0, "bike_id": "4d648448262dd051045a4e90c74bc39a", "is_disabled": 0, "is_reserved": 0, "lat": 38.9419545, "name": "4d648448262dd051045a4e90c74bc39a", "rental_uris": {"ios": "https://dc.lft.to/lastmile_qr_scan", "android": "https://dc.lft.to/lastmile_qr_scan"}, "type": "electric_scooter", "fusion_lat": 0.0, "lon": -77.02853083333333}, {"fusion_lon": 0.0, "bike_id": "29067d4aed85061bbf5ae0890920b0d5", "is_disabled": 0, "is_reserved": 0, "lat": 38.943706666666664, "name": "29067d4aed85061bbf5ae0890920b0d5", "rental_uris": {"ios": "https://dc.lft.to/lastmile_qr_scan", "android": "https://dc.lft.to/lastmile_qr_scan"}, "type": "electric_bike", "fusion_lat": 0.0, "lon": -77.06359816666667}, {"fusion_lon": 0.0, "bike_id": "7b24935f535815945eecc831d4dcc05d", "is_disabled": 0, "is_reserved": 0, "lat": 38.918166, "name": "7b24935f535815945eecc831d4dcc05d", "rental_uris": {"ios": "https://dc.lft.to/lastmile_qr_scan", "android": "https://dc.lft.to/lastmile_qr_scan"}, "type": "electric_scooter", "fusion_lat": 0.0, "lon": -77.02937266666666}, {"fusion_lon": 0.0, "bike_id": "0933bb3518fd1f75da60a4691e405331", "is_disabled": 0, "is_reserved": 0, "lat": 38.937346833333336, "name": "0933bb3518fd1f75da60a4691e405331", "rental_uris": {"ios": "https://dc.lft.to/lastmile_qr_scan", "android": "https://dc.lft.to/lastmile_qr_scan"}, "type": "electric_scooter", "fusion_lat": 0.0, "lon": -77.03259266666667}, {"fusion_lon": 0.0, "bike_id": "2825aa5733a26be3bd3da199deeff834", "is_disabled": 0, "is_reserved": 0, "lat": 38.9085375, "name": "2825aa5733a26be3bd3da199deeff834", "rental_uris": {"ios": "https://dc.lft.to/lastmile_qr_scan", "android": "https://dc.lft.to/lastmile_qr_scan"}, "type": "electric_scooter", "fusion_lat": 0.0, "lon": -76.99945566666666}, {"fusion_lon": 0.0, "bike_id": "71ca81e3f444c2b674562cf5e4e04735", "is_disabled": 0, "is_reserved": 0, "lat": 38.9261775, "name": "71ca81e3f444c2b674562cf5e4e04735", "rental_uris": {"ios": "https://dc.lft.to/lastmile_qr_scan", "android": "https://dc.lft.to/lastmile_qr_scan"}, "type": "electric_scooter", "fusion_lat": 0.0, "lon": -77.03932383333333}, {"fusion_lon": 0.0, "bike_id": "7369893962ed9bdad4a5da2a2d05fd0e", "is_disabled": 0, "is_reserved": 0, "lat": 38.924257833333336, "name": "7369893962ed9bdad4a5da2a2d05fd0e", "rental_uris": {"ios": "https://dc.lft.to/lastmile_qr_scan", "android": "https://dc.lft.to/lastmile_qr_scan"}, "type": "electric_scooter", "fusion_lat": 0.0, "lon": -77.04015933333334}, {"fusion_lon": 0.0, "bike_id": "201ee87de41f060e70f130b4f92b159c", "is_disabled": 0, "is_reserved": 0, "lat": 38.8934865, "name": "201ee87de41f060e70f130b4f92b159c", "rental_uris": {"ios": "https://dc.lft.to/lastmile_qr_scan", "android": "https://dc.lft.to/lastmile_qr_scan"}, "type": "electric_scooter", "fusion_lat": 0.0, "lon": -77.04191466666667}, {"fusion_lon": 0.0, "bike_id": "eb46e319f393d186ecf6d02eff8ba58a", "is_disabled": 0, "is_reserved": 0, "lat": 38.923191333333335, "name": "eb46e319f393d186ecf6d02eff8ba58a", "rental_uris": {"ios": "https://dc.lft.to/lastmile_qr_scan", "android": "https://dc.lft.to/lastmile_qr_scan"}, "type": "electric_scooter", "fusion_lat": 0.0, "lon": -77.04383216666666}, {"fusion_lon": 0.0, "bike_id": "78cab8a8f4681352ba5abf647944e5d0", "is_disabled": 0, "is_reserved": 0, "lat": 38.89430516666667, "name": "78cab8a8f4681352ba5abf647944e5d0", "rental_uris": {"ios": "https://dc.lft.to/lastmile_qr_scan", "android": "https://dc.lft.to/lastmile_qr_scan"}, "type": "electric_scooter", "fusion_lat": 0.0, "lon": -77.0448}, {"fusion_lon": 0.0, "bike_id": "362d12a91b0cb3afd01c786b1d0349ea", "is_disabled": 0, "is_reserved": 0, "lat": 38.929644333333336, "name": "362d12a91b0cb3afd01c786b1d0349ea", "rental_uris": {"ios": "https://dc.lft.to/lastmile_qr_scan", "android": "https://dc.lft.to/lastmile_qr_scan"}, "type": "electric_scooter", "fusion_lat": 0.0, "lon": -77.03189116666667}, {"fusion_lon": 0.0, "bike_id": "2a3e9a5c3a67b9ebd4eee4078b6167f5", "is_disabled": 0, "is_reserved": 0, "lat": 38.92791966666667, "name": "2a3e9a5c3a67b9ebd4eee4078b6167f5", "rental_uris": {"ios": "https://dc.lft.to/lastmile_qr_scan", "android": "https://dc.lft.to/lastmile_qr_scan"}, "type": "electric_scooter", "fusion_lat": 0.0, "lon": -77.0315505}, {"fusion_lon": 0.0, "bike_id": "da5541d7d3388032fd02dbdeb1c1b69a", "is_disabled": 0, "is_reserved": 0, "lat": 38.89869733333333, "name": "da5541d7d3388032fd02dbdeb1c1b69a", "rental_uris": {"ios": "https://dc.lft.to/lastmile_qr_scan", "android": "https://dc.lft.to/lastmile_qr_scan"}, "type": "electric_scooter", "fusion_lat": 0.0, "lon": -77.04666583333334}, {"fusion_lon": 0.0, "bike_id": "aeb498b5f58f8a48c6217141c4d4eff2", "is_disabled": 0, "is_reserved": 0, "lat": 38.9192345, "name": "aeb498b5f58f8a48c6217141c4d4eff2", "rental_uris": {"ios": "https://dc.lft.to/lastmile_qr_scan", "android": "https://dc.lft.to/lastmile_qr_scan"}, "type": "electric_scooter", "fusion_lat": 0.0, "lon": -77.0304495}, {"fusion_lon": 0.0, "bike_id": "d8b9ed354d81af82c65d038a858dba7b", "is_disabled": 0, "is_reserved": 0, "lat": 38.930659666666664, "name": "d8b9ed354d81af82c65d038a858dba7b", "rental_uris": {"ios": "https://dc.lft.to/lastmile_qr_scan", "android": "https://dc.lft.to/lastmile_qr_scan"}, "type": "electric_scooter", "fusion_lat": 0.0, "lon": -77.03940516666667}, {"fusion_lon": 0.0, "bike_id": "723f79a14fb154ce89c435e899b515d6", "is_disabled": 0, "is_reserved": 0, "lat": 38.905130666666665, "name": "723f79a14fb154ce89c435e899b515d6", "rental_uris": {"ios": "https://dc.lft.to/lastmile_qr_scan", "android": "https://dc.lft.to/lastmile_qr_scan"}, "type": "electric_scooter", "fusion_lat": 0.0, "lon": -77.0652175}, {"fusion_lon": 0.0, "bike_id": "20525e7fdfa74a8ffbc3de42aebd7cc0", "is_disabled": 0, "is_reserved": 0, "lat": 38.922295, "name": "20525e7fdfa74a8ffbc3de42aebd7cc0", "rental_uris": {"ios": "https://dc.lft.to/lastmile_qr_scan", "android": "https://dc.lft.to/lastmile_qr_scan"}, "type": "electric_scooter", "fusion_lat": 0.0, "lon": -77.0424915}, {"fusion_lon": 0.0, "bike_id": "e93f29bd7c137aba45d0f2b11d03db17", "is_disabled": 0, "is_reserved": 0, "lat": 38.95255516666667, "name": "e93f29bd7c137aba45d0f2b11d03db17", "rental_uris": {"ios": "https://dc.lft.to/lastmile_qr_scan", "android": "https://dc.lft.to/lastmile_qr_scan"}, "type": "electric_scooter", "fusion_lat": 0.0, "lon": -77.02075416666666}, {"fusion_lon": 0.0, "bike_id": "ca87c3401f977515411326c12d9e0ded", "is_disabled": 0, "is_reserved": 0, "lat": 38.90736016666666, "name": "ca87c3401f977515411326c12d9e0ded", "rental_uris": {"ios": "https://dc.lft.to/lastmile_qr_scan", "android": "https://dc.lft.to/lastmile_qr_scan"}, "type": "electric_scooter", "fusion_lat": 0.0, "lon": -77.03446333333333}, {"fusion_lon": 0.0, "bike_id": "b1f61a461e6b48d938dd73f9dfc599a5", "is_disabled": 0, "is_reserved": 0, "lat": 38.917547666666664, "name": "b1f61a461e6b48d938dd73f9dfc599a5", "rental_uris": {"ios": "https://dc.lft.to/lastmile_qr_scan", "android": "https://dc.lft.to/lastmile_qr_scan"}, "type": "electric_scooter", "fusion_lat": 0.0, "lon": -77.0212045}, {"fusion_lon": 0.0, "bike_id": "9c8867c5731087f741f78bf7a956965e", "is_disabled": 0, "is_reserved": 0, "lat": 38.89823283333333, "name": "9c8867c5731087f741f78bf7a956965e", "rental_uris": {"ios": "https://dc.lft.to/lastmile_qr_scan", "android": "https://dc.lft.to/lastmile_qr_scan"}, "type": "electric_scooter", "fusion_lat": 0.0, "lon": -77.04612666666667}, {"fusion_lon": 0.0, "bike_id": "404da852c7df364fa0e71d899cd5297d", "is_disabled": 0, "is_reserved": 0, "lat": 38.89911266666667, "name": "404da852c7df364fa0e71d899cd5297d", "rental_uris": {"ios": "https://dc.lft.to/lastmile_qr_scan", "android": "https://dc.lft.to/lastmile_qr_scan"}, "type": "electric_scooter", "fusion_lat": 0.0, "lon": -77.02311266666666}, {"fusion_lon": 0.0, "bike_id": "e98180fcf0150ee5a7d4b14365f024d4", "is_disabled": 0, "is_reserved": 0, "lat": 38.910374166666664, "name": "e98180fcf0150ee5a7d4b14365f024d4", "rental_uris": {"ios": "https://dc.lft.to/lastmile_qr_scan", "android": "https://dc.lft.to/lastmile_qr_scan"}, "type": "electric_scooter", "fusion_lat": 0.0, "lon": -77.04103733333334}, {"fusion_lon": 0.0, "bike_id": "ad72bf28f068d890323c5f4baa6cb1e5", "is_disabled": 0, "is_reserved": 0, "lat": 38.912538833333336, "name": "ad72bf28f068d890323c5f4baa6cb1e5", "rental_uris": {"ios": "https://dc.lft.to/lastmile_qr_scan", "android": "https://dc.lft.to/lastmile_qr_scan"}, "type": "electric_scooter", "fusion_lat": 0.0, "lon": -77.02813583333334}, {"fusion_lon": 0.0, "bike_id": "3d199cf1232975fecf1a077a2464cf78", "is_disabled": 0, "is_reserved": 0, "lat": 38.920000333333334, "name": "3d199cf1232975fecf1a077a2464cf78", "rental_uris": {"ios": "https://dc.lft.to/lastmile_qr_scan", "android": "https://dc.lft.to/lastmile_qr_scan"}, "type": "electric_scooter", "fusion_lat": 0.0, "lon": -77.0327885}, {"fusion_lon": 0.0, "bike_id": "3c3b5f9e6994e7e83b7581ec2a17e521", "is_disabled": 0, "is_reserved": 0, "lat": 38.9193135, "name": "3c3b5f9e6994e7e83b7581ec2a17e521", "rental_uris": {"ios": "https://dc.lft.to/lastmile_qr_scan", "android": "https://dc.lft.to/lastmile_qr_scan"}, "type": "electric_scooter", "fusion_lat": 0.0, "lon": -77.01783966666666}, {"fusion_lon": 0.0, "bike_id": "0a9fa38c3cffc54ad3f0abbde54e3fe3", "is_disabled": 0, "is_reserved": 0, "lat": 38.94328183333333, "name": "0a9fa38c3cffc54ad3f0abbde54e3fe3", "rental_uris": {"ios": "https://dc.lft.to/lastmile_qr_scan", "android": "https://dc.lft.to/lastmile_qr_scan"}, "type": "electric_scooter", "fusion_lat": 0.0, "lon": -77.01256866666667}, {"fusion_lon": 0.0, "bike_id": "93da7f7d9168fa9d1800c31a56d948ff", "is_disabled": 0, "is_reserved": 0, "lat": 38.9229005, "name": "93da7f7d9168fa9d1800c31a56d948ff", "rental_uris": {"ios": "https://dc.lft.to/lastmile_qr_scan", "android": "https://dc.lft.to/lastmile_qr_scan"}, "type": "electric_scooter", "fusion_lat": 0.0, "lon": -77.02244966666666}, {"fusion_lon": 0.0, "bike_id": "161a5e58d4f2ea6389a7383890cba7d8", "is_disabled": 0, "is_reserved": 0, "lat": 38.887126, "name": "161a5e58d4f2ea6389a7383890cba7d8", "rental_uris": {"ios": "https://dc.lft.to/lastmile_qr_scan", "android": "https://dc.lft.to/lastmile_qr_scan"}, "type": "electric_scooter", "fusion_lat": 0.0, "lon": -76.98381816666667}, {"fusion_lon": 0.0, "bike_id": "70d3038c5760f9fd113cb9e04e5572b1", "is_disabled": 0, "is_reserved": 0, "lat": 38.9247755, "name": "70d3038c5760f9fd113cb9e04e5572b1", "rental_uris": {"ios": "https://dc.lft.to/lastmile_qr_scan", "android": "https://dc.lft.to/lastmile_qr_scan"}, "type": "electric_scooter", "fusion_lat": 0.0, "lon": -77.02212516666667}, {"fusion_lon": 0.0, "bike_id": "49662fe6636b003189450aeae4d23104", "is_disabled": 0, "is_reserved": 0, "lat": 38.913741333333334, "name": "49662fe6636b003189450aeae4d23104", "rental_uris": {"ios": "https://dc.lft.to/lastmile_qr_scan", "android": "https://dc.lft.to/lastmile_qr_scan"}, "type": "electric_scooter", "fusion_lat": 0.0, "lon": -77.044769}, {"fusion_lon": 0.0, "bike_id": "4d13d1b84fdf4a1cf815b343ec5231c6", "is_disabled": 0, "is_reserved": 0, "lat": 38.9038165, "name": "4d13d1b84fdf4a1cf815b343ec5231c6", "rental_uris": {"ios": "https://dc.lft.to/lastmile_qr_scan", "android": "https://dc.lft.to/lastmile_qr_scan"}, "type": "electric_scooter", "fusion_lat": 0.0, "lon": -77.01780733333334}, {"fusion_lon": 0.0, "bike_id": "75e74b3e5ed11c2abc403d7504c44035", "is_disabled": 0, "is_reserved": 0, "lat": 38.9241365, "name": "75e74b3e5ed11c2abc403d7504c44035", "rental_uris": {"ios": "https://dc.lft.to/lastmile_qr_scan", "android": "https://dc.lft.to/lastmile_qr_scan"}, "type": "electric_scooter", "fusion_lat": 0.0, "lon": -77.02041933333334}, {"fusion_lon": 0.0, "bike_id": "84f7872278106b1a2205f1e1b95ec940", "is_disabled": 0, "is_reserved": 0, "lat": 38.921140666666666, "name": "84f7872278106b1a2205f1e1b95ec940", "rental_uris": {"ios": "https://dc.lft.to/lastmile_qr_scan", "android": "https://dc.lft.to/lastmile_qr_scan"}, "type": "electric_scooter", "fusion_lat": 0.0, "lon": -77.04201916666666}, {"fusion_lon": 0.0, "bike_id": "4063b70c9ee09b9f0084bb7f1615abf4", "is_disabled": 0, "is_reserved": 0, "lat": 38.887612, "name": "4063b70c9ee09b9f0084bb7f1615abf4", "rental_uris": {"ios": "https://dc.lft.to/lastmile_qr_scan", "android": "https://dc.lft.to/lastmile_qr_scan"}, "type": "electric_scooter", "fusion_lat": 0.0, "lon": -77.0031965}, {"fusion_lon": 0.0, "bike_id": "3f0a167d93cb19578e56ccafc581c7ce", "is_disabled": 0, "is_reserved": 0, "lat": 39.02521933333333, "name": "3f0a167d93cb19578e56ccafc581c7ce", "rental_uris": {"ios": "https://dc.lft.to/lastmile_qr_scan", "android": "https://dc.lft.to/lastmile_qr_scan"}, "type": "electric_bike", "fusion_lat": 0.0, "lon": -77.019674}, {"fusion_lon": 0.0, "bike_id": "02ad309e58c6401e40ab4dcd4b6bd545", "is_disabled": 0, "is_reserved": 0, "lat": 38.900005, "name": "02ad309e58c6401e40ab4dcd4b6bd545", "rental_uris": {"ios": "https://dc.lft.to/lastmile_qr_scan", "android": "https://dc.lft.to/lastmile_qr_scan"}, "type": "electric_scooter", "fusion_lat": 0.0, "lon": -77.02205833333333}, {"fusion_lon": 0.0, "bike_id": "551e645cd732146587f482c45bf5e945", "is_disabled": 0, "is_reserved": 0, "lat": 38.86746766666667, "name": "551e645cd732146587f482c45bf5e945", "rental_uris": {"ios": "https://dc.lft.to/lastmile_qr_scan", "android": "https://dc.lft.to/lastmile_qr_scan"}, "type": "electric_scooter", "fusion_lat": 0.0, "lon": -77.0014755}, {"fusion_lon": 0.0, "bike_id": "4af4abd23db5aab45b5e14f3134a127f", "is_disabled": 0, "is_reserved": 0, "lat": 38.924712, "name": "4af4abd23db5aab45b5e14f3134a127f", "rental_uris": {"ios": "https://dc.lft.to/lastmile_qr_scan", "android": "https://dc.lft.to/lastmile_qr_scan"}, "type": "electric_scooter", "fusion_lat": 0.0, "lon": -77.0222015}, {"fusion_lon": 0.0, "bike_id": "7bf607ac7cba558556e563492d125ffa", "is_disabled": 0, "is_reserved": 0, "lat": 38.866750333333336, "name": "7bf607ac7cba558556e563492d125ffa", "rental_uris": {"ios": "https://dc.lft.to/lastmile_qr_scan", "android": "https://dc.lft.to/lastmile_qr_scan"}, "type": "electric_scooter", "fusion_lat": 0.0, "lon": -76.98524233333333}, {"fusion_lon": 0.0, "bike_id": "2a850cd847ef457a724a07190ce897f8", "is_disabled": 0, "is_reserved": 0, "lat": 39.085067333333335, "name": "2a850cd847ef457a724a07190ce897f8", "rental_uris": {"ios": "https://dc.lft.to/lastmile_qr_scan", "android": "https://dc.lft.to/lastmile_qr_scan"}, "type": "electric_bike", "fusion_lat": 0.0, "lon": -76.95061383333334}, {"fusion_lon": 0.0, "bike_id": "8b6ef6322caa0f4d5050ebb426830196", "is_disabled": 0, "is_reserved": 0, "lat": 38.898897, "name": "8b6ef6322caa0f4d5050ebb426830196", "rental_uris": {"ios": "https://dc.lft.to/lastmile_qr_scan", "android": "https://dc.lft.to/lastmile_qr_scan"}, "type": "electric_scooter", "fusion_lat": 0.0, "lon": -76.93177433333334}, {"fusion_lon": 0.0, "bike_id": "5ef8f75e7d250c1f3ff18f9f5b0d1c0f", "is_disabled": 0, "is_reserved": 0, "lat": 38.892432666666664, "name": "5ef8f75e7d250c1f3ff18f9f5b0d1c0f", "rental_uris": {"ios": "https://dc.lft.to/lastmile_qr_scan", "android": "https://dc.lft.to/lastmile_qr_scan"}, "type": "electric_scooter", "fusion_lat": 0.0, "lon": -77.031881}, {"fusion_lon": 0.0, "bike_id": "bf3ee310748391e917856c2bdbbb8110", "is_disabled": 0, "is_reserved": 0, "lat": 38.925810166666665, "name": "bf3ee310748391e917856c2bdbbb8110", "rental_uris": {"ios": "https://dc.lft.to/lastmile_qr_scan", "android": "https://dc.lft.to/lastmile_qr_scan"}, "type": "electric_scooter", "fusion_lat": 0.0, "lon": -77.0281485}, {"fusion_lon": 0.0, "bike_id": "a7aa8e533387180adca91ebd2e5468ac", "is_disabled": 0, "is_reserved": 0, "lat": 38.915032833333335, "name": "a7aa8e533387180adca91ebd2e5468ac", "rental_uris": {"ios": "https://dc.lft.to/lastmile_qr_scan", "android": "https://dc.lft.to/lastmile_qr_scan"}, "type": "electric_scooter", "fusion_lat": 0.0, "lon": -77.021889}, {"fusion_lon": 0.0, "bike_id": "2d0a5072a5984cfd999fc9f00a526acc", "is_disabled": 0, "is_reserved": 0, "lat": 38.907803666666666, "name": "2d0a5072a5984cfd999fc9f00a526acc", "rental_uris": {"ios": "https://dc.lft.to/lastmile_qr_scan", "android": "https://dc.lft.to/lastmile_qr_scan"}, "type": "electric_scooter", "fusion_lat": 0.0, "lon": -77.010799}, {"fusion_lon": 0.0, "bike_id": "4d384cf351edf27454415ed02cfbf6d8", "is_disabled": 0, "is_reserved": 0, "lat": 38.9118985, "name": "4d384cf351edf27454415ed02cfbf6d8", "rental_uris": {"ios": "https://dc.lft.to/lastmile_qr_scan", "android": "https://dc.lft.to/lastmile_qr_scan"}, "type": "electric_scooter", "fusion_lat": 0.0, "lon": -77.01813833333334}, {"fusion_lon": 0.0, "bike_id": "acab776eba54076882d3475fbf5bf6d9", "is_disabled": 0, "is_reserved": 0, "lat": 38.96388183333333, "name": "acab776eba54076882d3475fbf5bf6d9", "rental_uris": {"ios": "https://dc.lft.to/lastmile_qr_scan", "android": "https://dc.lft.to/lastmile_qr_scan"}, "type": "electric_scooter", "fusion_lat": 0.0, "lon": -77.02770183333334}, {"fusion_lon": 0.0, "bike_id": "4b8897357281583ea4a07c72bcb96ee3", "is_disabled": 0, "is_reserved": 0, "lat": 38.91603766666667, "name": "4b8897357281583ea4a07c72bcb96ee3", "rental_uris": {"ios": "https://dc.lft.to/lastmile_qr_scan", "android": "https://dc.lft.to/lastmile_qr_scan"}, "type": "electric_scooter", "fusion_lat": 0.0, "lon": -77.02972366666667}, {"fusion_lon": 0.0, "bike_id": "fa9aed49e8e481add0dc58a8fa04df9c", "is_disabled": 0, "is_reserved": 0, "lat": 38.92018233333334, "name": "fa9aed49e8e481add0dc58a8fa04df9c", "rental_uris": {"ios": "https://dc.lft.to/lastmile_qr_scan", "android": "https://dc.lft.to/lastmile_qr_scan"}, "type": "electric_scooter", "fusion_lat": 0.0, "lon": -77.043989}, {"fusion_lon": 0.0, "bike_id": "e7a82510be3891b7298987c1fab4e7bd", "is_disabled": 0, "is_reserved": 0, "lat": 38.956286166666665, "name": "e7a82510be3891b7298987c1fab4e7bd", "rental_uris": {"ios": "https://dc.lft.to/lastmile_qr_scan", "android": "https://dc.lft.to/lastmile_qr_scan"}, "type": "electric_scooter", "fusion_lat": 0.0, "lon": -77.024307}, {"fusion_lon": 0.0, "bike_id": "868fd35f942b5c4738cbf1e12bf2a394", "is_disabled": 0, "is_reserved": 0, "lat": 38.83607416666667, "name": "868fd35f942b5c4738cbf1e12bf2a394", "rental_uris": {"ios": "https://dc.lft.to/lastmile_qr_scan", "android": "https://dc.lft.to/lastmile_qr_scan"}, "type": "electric_bike", "fusion_lat": 0.0, "lon": -77.00375583333333}, {"fusion_lon": 0.0, "bike_id": "7ec38514e70a216570ffff5bd2d0593b", "is_disabled": 0, "is_reserved": 0, "lat": 38.833850166666664, "name": "7ec38514e70a216570ffff5bd2d0593b", "rental_uris": {"ios": "https://dc.lft.to/lastmile_qr_scan", "android": "https://dc.lft.to/lastmile_qr_scan"}, "type": "electric_scooter", "fusion_lat": 0.0, "lon": -77.0030265}, {"fusion_lon": 0.0, "bike_id": "0ec81cdf26c87b8dffab266619ba0ea6", "is_disabled": 0, "is_reserved": 0, "lat": 38.909696, "name": "0ec81cdf26c87b8dffab266619ba0ea6", "rental_uris": {"ios": "https://dc.lft.to/lastmile_qr_scan", "android": "https://dc.lft.to/lastmile_qr_scan"}, "type": "electric_scooter", "fusion_lat": 0.0, "lon": -77.04819283333333}, {"fusion_lon": 0.0, "bike_id": "cb75ef22d25ab4c7601473be68ac50a7", "is_disabled": 0, "is_reserved": 0, "lat": 38.89972383333333, "name": "cb75ef22d25ab4c7601473be68ac50a7", "rental_uris": {"ios": "https://dc.lft.to/lastmile_qr_scan", "android": "https://dc.lft.to/lastmile_qr_scan"}, "type": "electric_scooter", "fusion_lat": 0.0, "lon": -77.04717366666667}, {"fusion_lon": 0.0, "bike_id": "06276c8bd65aa95b7b28c48c89dc4c0f", "is_disabled": 0, "is_reserved": 0, "lat": 38.909222666666665, "name": "06276c8bd65aa95b7b28c48c89dc4c0f", "rental_uris": {"ios": "https://dc.lft.to/lastmile_qr_scan", "android": "https://dc.lft.to/lastmile_qr_scan"}, "type": "electric_scooter", "fusion_lat": 0.0, "lon": -77.03471783333333}, {"fusion_lon": 0.0, "bike_id": "dd683b18d8fd76e3edd7a5b224c3689a", "is_disabled": 0, "is_reserved": 0, "lat": 38.922878, "name": "dd683b18d8fd76e3edd7a5b224c3689a", "rental_uris": {"ios": "https://dc.lft.to/lastmile_qr_scan", "android": "https://dc.lft.to/lastmile_qr_scan"}, "type": "electric_scooter", "fusion_lat": 0.0, "lon": -77.036606}, {"fusion_lon": 0.0, "bike_id": "9cd055434d6c16d165015dc045b8a6f0", "is_disabled": 0, "is_reserved": 0, "lat": 38.90234016666667, "name": "9cd055434d6c16d165015dc045b8a6f0", "rental_uris": {"ios": "https://dc.lft.to/lastmile_qr_scan", "android": "https://dc.lft.to/lastmile_qr_scan"}, "type": "electric_scooter", "fusion_lat": 0.0, "lon": -77.05340416666667}, {"fusion_lon": 0.0, "bike_id": "edb6e8cb913bfbf920786b40a32880a6", "is_disabled": 0, "is_reserved": 0, "lat": 38.89164483333333, "name": "edb6e8cb913bfbf920786b40a32880a6", "rental_uris": {"ios": "https://dc.lft.to/lastmile_qr_scan", "android": "https://dc.lft.to/lastmile_qr_scan"}, "type": "electric_scooter", "fusion_lat": 0.0, "lon": -76.983551}, {"fusion_lon": 0.0, "bike_id": "5d5ed8ba71f8ee01bc8807c1c54fc563", "is_disabled": 0, "is_reserved": 0, "lat": 38.90851, "name": "5d5ed8ba71f8ee01bc8807c1c54fc563", "rental_uris": {"ios": "https://dc.lft.to/lastmile_qr_scan", "android": "https://dc.lft.to/lastmile_qr_scan"}, "type": "electric_scooter", "fusion_lat": 0.0, "lon": -77.0228545}, {"fusion_lon": 0.0, "bike_id": "08dd4b657ac874c972209c359ad9ea45", "is_disabled": 0, "is_reserved": 0, "lat": 38.89830666666667, "name": "08dd4b657ac874c972209c359ad9ea45", "rental_uris": {"ios": "https://dc.lft.to/lastmile_qr_scan", "android": "https://dc.lft.to/lastmile_qr_scan"}, "type": "electric_scooter", "fusion_lat": 0.0, "lon": -76.94648116666667}, {"fusion_lon": 0.0, "bike_id": "831f0b069b44f9feb3afef295100ba27", "is_disabled": 0, "is_reserved": 0, "lat": 38.9491735, "name": "831f0b069b44f9feb3afef295100ba27", "rental_uris": {"ios": "https://dc.lft.to/lastmile_qr_scan", "android": "https://dc.lft.to/lastmile_qr_scan"}, "type": "electric_scooter", "fusion_lat": 0.0, "lon": -77.01855233333333}, {"fusion_lon": 0.0, "bike_id": "171e4df9f75da11fd13bce99716f566a", "is_disabled": 0, "is_reserved": 0, "lat": 38.91586566666667, "name": "171e4df9f75da11fd13bce99716f566a", "rental_uris": {"ios": "https://dc.lft.to/lastmile_qr_scan", "android": "https://dc.lft.to/lastmile_qr_scan"}, "type": "electric_scooter", "fusion_lat": 0.0, "lon": -77.03662933333334}, {"fusion_lon": 0.0, "bike_id": "cab8040769d74ff9a3c3bcba731bc822", "is_disabled": 0, "is_reserved": 0, "lat": 38.904429, "name": "cab8040769d74ff9a3c3bcba731bc822", "rental_uris": {"ios": "https://dc.lft.to/lastmile_qr_scan", "android": "https://dc.lft.to/lastmile_qr_scan"}, "type": "electric_scooter", "fusion_lat": 0.0, "lon": -77.0483305}, {"fusion_lon": 0.0, "bike_id": "0b0413ba6a82f5b0185950c3c13f9184", "is_disabled": 0, "is_reserved": 0, "lat": 38.9035675, "name": "0b0413ba6a82f5b0185950c3c13f9184", "rental_uris": {"ios": "https://dc.lft.to/lastmile_qr_scan", "android": "https://dc.lft.to/lastmile_qr_scan"}, "type": "electric_scooter", "fusion_lat": 0.0, "lon": -77.05014066666666}, {"fusion_lon": 0.0, "bike_id": "d0888a4760c1a0ac2caa8a852a99ac95", "is_disabled": 0, "is_reserved": 0, "lat": 38.884890666666664, "name": "d0888a4760c1a0ac2caa8a852a99ac95", "rental_uris": {"ios": "https://dc.lft.to/lastmile_qr_scan", "android": "https://dc.lft.to/lastmile_qr_scan"}, "type": "electric_scooter", "fusion_lat": 0.0, "lon": -77.00713116666667}, {"fusion_lon": 0.0, "bike_id": "d506c384f1d69e7d7eedb7de40afd435", "is_disabled": 0, "is_reserved": 0, "lat": 38.89138283333333, "name": "d506c384f1d69e7d7eedb7de40afd435", "rental_uris": {"ios": "https://dc.lft.to/lastmile_qr_scan", "android": "https://dc.lft.to/lastmile_qr_scan"}, "type": "electric_scooter", "fusion_lat": 0.0, "lon": -76.99950166666666}, {"fusion_lon": 0.0, "bike_id": "08b4371ebe74fb5d0d18ab48c85cba42", "is_disabled": 0, "is_reserved": 0, "lat": 38.91194316666667, "name": "08b4371ebe74fb5d0d18ab48c85cba42", "rental_uris": {"ios": "https://dc.lft.to/lastmile_qr_scan", "android": "https://dc.lft.to/lastmile_qr_scan"}, "type": "electric_scooter", "fusion_lat": 0.0, "lon": -77.032183}, {"fusion_lon": 0.0, "bike_id": "886d70169095ce6b93d719dad14afb71", "is_disabled": 0, "is_reserved": 0, "lat": 38.90247266666667, "name": "886d70169095ce6b93d719dad14afb71", "rental_uris": {"ios": "https://dc.lft.to/lastmile_qr_scan", "android": "https://dc.lft.to/lastmile_qr_scan"}, "type": "electric_scooter", "fusion_lat": 0.0, "lon": -77.0396345}, {"fusion_lon": 0.0, "bike_id": "acda1a4a21d1f2a2214c8d01243019e3", "is_disabled": 0, "is_reserved": 0, "lat": 38.918111, "name": "acda1a4a21d1f2a2214c8d01243019e3", "rental_uris": {"ios": "https://dc.lft.to/lastmile_qr_scan", "android": "https://dc.lft.to/lastmile_qr_scan"}, "type": "electric_scooter", "fusion_lat": 0.0, "lon": -77.04979566666667}, {"fusion_lon": 0.0, "bike_id": "912f044699dbff57d9c38e9f14913b78", "is_disabled": 0, "is_reserved": 0, "lat": 38.899793333333335, "name": "912f044699dbff57d9c38e9f14913b78", "rental_uris": {"ios": "https://dc.lft.to/lastmile_qr_scan", "android": "https://dc.lft.to/lastmile_qr_scan"}, "type": "electric_scooter", "fusion_lat": 0.0, "lon": -77.01940533333334}, {"fusion_lon": 0.0, "bike_id": "0e9556bf3f7c4503932a2544f982563e", "is_disabled": 0, "is_reserved": 0, "lat": 38.9123665, "name": "0e9556bf3f7c4503932a2544f982563e", "rental_uris": {"ios": "https://dc.lft.to/lastmile_qr_scan", "android": "https://dc.lft.to/lastmile_qr_scan"}, "type": "electric_scooter", "fusion_lat": 0.0, "lon": -77.03839066666667}, {"fusion_lon": 0.0, "bike_id": "04c8dea8e93ff0c5639c1518894217f0", "is_disabled": 0, "is_reserved": 0, "lat": 38.8766885, "name": "04c8dea8e93ff0c5639c1518894217f0", "rental_uris": {"ios": "https://dc.lft.to/lastmile_qr_scan", "android": "https://dc.lft.to/lastmile_qr_scan"}, "type": "electric_bike", "fusion_lat": 0.0, "lon": -77.01449766666667}, {"fusion_lon": 0.0, "bike_id": "773508fa44c2671315de00fda9e0a030", "is_disabled": 0, "is_reserved": 0, "lat": 38.890936333333336, "name": "773508fa44c2671315de00fda9e0a030", "rental_uris": {"ios": "https://dc.lft.to/lastmile_qr_scan", "android": "https://dc.lft.to/lastmile_qr_scan"}, "type": "electric_scooter", "fusion_lat": 0.0, "lon": -76.988182}, {"fusion_lon": 0.0, "bike_id": "35536d992d64174f0de1f3f868a39e4a", "is_disabled": 0, "is_reserved": 0, "lat": 38.8864385, "name": "35536d992d64174f0de1f3f868a39e4a", "rental_uris": {"ios": "https://dc.lft.to/lastmile_qr_scan", "android": "https://dc.lft.to/lastmile_qr_scan"}, "type": "electric_scooter", "fusion_lat": 0.0, "lon": -76.9821255}, {"fusion_lon": 0.0, "bike_id": "de2d2615422fbca0c8d35e7cc5dd3a16", "is_disabled": 0, "is_reserved": 0, "lat": 38.87633366666667, "name": "de2d2615422fbca0c8d35e7cc5dd3a16", "rental_uris": {"ios": "https://dc.lft.to/lastmile_qr_scan", "android": "https://dc.lft.to/lastmile_qr_scan"}, "type": "electric_scooter", "fusion_lat": 0.0, "lon": -77.00957916666667}, {"fusion_lon": 0.0, "bike_id": "9dd53943a1e5d73977068673ca80b25a", "is_disabled": 0, "is_reserved": 0, "lat": 38.89372083333333, "name": "9dd53943a1e5d73977068673ca80b25a", "rental_uris": {"ios": "https://dc.lft.to/lastmile_qr_scan", "android": "https://dc.lft.to/lastmile_qr_scan"}, "type": "electric_scooter", "fusion_lat": 0.0, "lon": -77.03957816666667}, {"fusion_lon": 0.0, "bike_id": "83549574e269064569a42848a0ddeaf1", "is_disabled": 0, "is_reserved": 0, "lat": 38.84679966666667, "name": "83549574e269064569a42848a0ddeaf1", "rental_uris": {"ios": "https://dc.lft.to/lastmile_qr_scan", "android": "https://dc.lft.to/lastmile_qr_scan"}, "type": "electric_bike", "fusion_lat": 0.0, "lon": -77.1393605}, {"fusion_lon": 0.0, "bike_id": "c955b4488e30716ab4245745ef6471e1", "is_disabled": 0, "is_reserved": 0, "lat": 38.91003216666667, "name": "c955b4488e30716ab4245745ef6471e1", "rental_uris": {"ios": "https://dc.lft.to/lastmile_qr_scan", "android": "https://dc.lft.to/lastmile_qr_scan"}, "type": "electric_scooter", "fusion_lat": 0.0, "lon": -76.99395116666666}, {"fusion_lon": 0.0, "bike_id": "f20ecd9b4f287236dab80e270718cb9e", "is_disabled": 0, "is_reserved": 0, "lat": 38.92425316666667, "name": "f20ecd9b4f287236dab80e270718cb9e", "rental_uris": {"ios": "https://dc.lft.to/lastmile_qr_scan", "android": "https://dc.lft.to/lastmile_qr_scan"}, "type": "electric_scooter", "fusion_lat": 0.0, "lon": -77.0212875}, {"fusion_lon": 0.0, "bike_id": "829e30968b1785db96dbe872873ffe9e", "is_disabled": 0, "is_reserved": 0, "lat": 38.8937165, "name": "829e30968b1785db96dbe872873ffe9e", "rental_uris": {"ios": "https://dc.lft.to/lastmile_qr_scan", "android": "https://dc.lft.to/lastmile_qr_scan"}, "type": "electric_scooter", "fusion_lat": 0.0, "lon": -77.01556783333334}, {"fusion_lon": 0.0, "bike_id": "28c515ea767566fbed258ee72dea3f67", "is_disabled": 0, "is_reserved": 0, "lat": 38.9141655, "name": "28c515ea767566fbed258ee72dea3f67", "rental_uris": {"ios": "https://dc.lft.to/lastmile_qr_scan", "android": "https://dc.lft.to/lastmile_qr_scan"}, "type": "electric_scooter", "fusion_lat": 0.0, "lon": -77.01303866666667}, {"fusion_lon": 0.0, "bike_id": "ca3a920ae413ee2df83eaafc7f0a46f2", "is_disabled": 0, "is_reserved": 0, "lat": 38.91297683333333, "name": "ca3a920ae413ee2df83eaafc7f0a46f2", "rental_uris": {"ios": "https://dc.lft.to/lastmile_qr_scan", "android": "https://dc.lft.to/lastmile_qr_scan"}, "type": "electric_scooter", "fusion_lat": 0.0, "lon": -77.03656383333333}, {"fusion_lon": 0.0, "bike_id": "a03e4dbe7c492f9d84ba47ee2c1cf0f3", "is_disabled": 0, "is_reserved": 0, "lat": 38.9198155, "name": "a03e4dbe7c492f9d84ba47ee2c1cf0f3", "rental_uris": {"ios": "https://dc.lft.to/lastmile_qr_scan", "android": "https://dc.lft.to/lastmile_qr_scan"}, "type": "electric_scooter", "fusion_lat": 0.0, "lon": -77.0409525}, {"fusion_lon": 0.0, "bike_id": "313c61d17e3176a338572057742b4ea2", "is_disabled": 0, "is_reserved": 0, "lat": 38.957355, "name": "313c61d17e3176a338572057742b4ea2", "rental_uris": {"ios": "https://dc.lft.to/lastmile_qr_scan", "android": "https://dc.lft.to/lastmile_qr_scan"}, "type": "electric_scooter", "fusion_lat": 0.0, "lon": -77.02422683333333}, {"fusion_lon": 0.0, "bike_id": "f893c220027052d248a04c30f3f1092c", "is_disabled": 0, "is_reserved": 0, "lat": 38.896246166666664, "name": "f893c220027052d248a04c30f3f1092c", "rental_uris": {"ios": "https://dc.lft.to/lastmile_qr_scan", "android": "https://dc.lft.to/lastmile_qr_scan"}, "type": "electric_scooter", "fusion_lat": 0.0, "lon": -76.9985355}, {"fusion_lon": 0.0, "bike_id": "23d7aa7ffa79668e28582cbc6c3b97d2", "is_disabled": 0, "is_reserved": 0, "lat": 38.90426266666667, "name": "23d7aa7ffa79668e28582cbc6c3b97d2", "rental_uris": {"ios": "https://dc.lft.to/lastmile_qr_scan", "android": "https://dc.lft.to/lastmile_qr_scan"}, "type": "electric_scooter", "fusion_lat": 0.0, "lon": -77.05338066666667}, {"fusion_lon": 0.0, "bike_id": "878fbd44249d6f62f6e00054a378b2e7", "is_disabled": 0, "is_reserved": 0, "lat": 38.893753333333336, "name": "878fbd44249d6f62f6e00054a378b2e7", "rental_uris": {"ios": "https://dc.lft.to/lastmile_qr_scan", "android": "https://dc.lft.to/lastmile_qr_scan"}, "type": "electric_scooter", "fusion_lat": 0.0, "lon": -77.02054533333333}, {"fusion_lon": 0.0, "bike_id": "05699f3eed8487ace3d6e1f11e832185", "is_disabled": 0, "is_reserved": 0, "lat": 38.89846466666667, "name": "05699f3eed8487ace3d6e1f11e832185", "rental_uris": {"ios": "https://dc.lft.to/lastmile_qr_scan", "android": "https://dc.lft.to/lastmile_qr_scan"}, "type": "electric_scooter", "fusion_lat": 0.0, "lon": -77.02282083333333}, {"fusion_lon": 0.0, "bike_id": "96455d660986e3601e8750055e022f43", "is_disabled": 0, "is_reserved": 0, "lat": 38.935914, "name": "96455d660986e3601e8750055e022f43", "rental_uris": {"ios": "https://dc.lft.to/lastmile_qr_scan", "android": "https://dc.lft.to/lastmile_qr_scan"}, "type": "electric_scooter", "fusion_lat": 0.0, "lon": -77.07434783333333}, {"fusion_lon": 0.0, "bike_id": "62d4a158e1136bdd13b19805168962cd", "is_disabled": 0, "is_reserved": 0, "lat": 38.898530666666666, "name": "62d4a158e1136bdd13b19805168962cd", "rental_uris": {"ios": "https://dc.lft.to/lastmile_qr_scan", "android": "https://dc.lft.to/lastmile_qr_scan"}, "type": "electric_scooter", "fusion_lat": 0.0, "lon": -76.932094}, {"fusion_lon": 0.0, "bike_id": "5c767b265f16b1e29dfeda74d52afffc", "is_disabled": 0, "is_reserved": 0, "lat": 38.92958866666667, "name": "5c767b265f16b1e29dfeda74d52afffc", "rental_uris": {"ios": "https://dc.lft.to/lastmile_qr_scan", "android": "https://dc.lft.to/lastmile_qr_scan"}, "type": "electric_scooter", "fusion_lat": 0.0, "lon": -77.016363}, {"fusion_lon": 0.0, "bike_id": "1cb10558166b1cdf0670a68adfe3d9cc", "is_disabled": 0, "is_reserved": 0, "lat": 38.88241933333333, "name": "1cb10558166b1cdf0670a68adfe3d9cc", "rental_uris": {"ios": "https://dc.lft.to/lastmile_qr_scan", "android": "https://dc.lft.to/lastmile_qr_scan"}, "type": "electric_scooter", "fusion_lat": 0.0, "lon": -76.93336383333333}, {"fusion_lon": 0.0, "bike_id": "e15184c1ef0456a34eef8729333da1e9", "is_disabled": 0, "is_reserved": 0, "lat": 38.9285915, "name": "e15184c1ef0456a34eef8729333da1e9", "rental_uris": {"ios": "https://dc.lft.to/lastmile_qr_scan", "android": "https://dc.lft.to/lastmile_qr_scan"}, "type": "electric_scooter", "fusion_lat": 0.0, "lon": -77.0138565}, {"fusion_lon": 0.0, "bike_id": "44cda6214cc57f9602ab18f274c02a44", "is_disabled": 0, "is_reserved": 0, "lat": 38.91869066666667, "name": "44cda6214cc57f9602ab18f274c02a44", "rental_uris": {"ios": "https://dc.lft.to/lastmile_qr_scan", "android": "https://dc.lft.to/lastmile_qr_scan"}, "type": "electric_scooter", "fusion_lat": 0.0, "lon": -77.04162116666667}, {"fusion_lon": 0.0, "bike_id": "14e59221fc55f1f243bc9aaccd924108", "is_disabled": 0, "is_reserved": 0, "lat": 38.872464666666666, "name": "14e59221fc55f1f243bc9aaccd924108", "rental_uris": {"ios": "https://dc.lft.to/lastmile_qr_scan", "android": "https://dc.lft.to/lastmile_qr_scan"}, "type": "electric_scooter", "fusion_lat": 0.0, "lon": -76.97726733333333}, {"fusion_lon": 0.0, "bike_id": "7c58e2e21fded243777c6cc4055ead4f", "is_disabled": 0, "is_reserved": 0, "lat": 38.911554, "name": "7c58e2e21fded243777c6cc4055ead4f", "rental_uris": {"ios": "https://dc.lft.to/lastmile_qr_scan", "android": "https://dc.lft.to/lastmile_qr_scan"}, "type": "electric_scooter", "fusion_lat": 0.0, "lon": -77.02000516666666}, {"fusion_lon": 0.0, "bike_id": "4c556ab25c21be85818389497b3ad7bf", "is_disabled": 0, "is_reserved": 0, "lat": 38.90317183333333, "name": "4c556ab25c21be85818389497b3ad7bf", "rental_uris": {"ios": "https://dc.lft.to/lastmile_qr_scan", "android": "https://dc.lft.to/lastmile_qr_scan"}, "type": "electric_scooter", "fusion_lat": 0.0, "lon": -77.0365005}, {"fusion_lon": 0.0, "bike_id": "fb2657c7054d574174a7818b6091e665", "is_disabled": 0, "is_reserved": 0, "lat": 38.9217305, "name": "fb2657c7054d574174a7818b6091e665", "rental_uris": {"ios": "https://dc.lft.to/lastmile_qr_scan", "android": "https://dc.lft.to/lastmile_qr_scan"}, "type": "electric_scooter", "fusion_lat": 0.0, "lon": -77.02670083333334}, {"fusion_lon": 0.0, "bike_id": "662fccea88dd9f0244791002b6589c73", "is_disabled": 0, "is_reserved": 0, "lat": 38.907811833333334, "name": "662fccea88dd9f0244791002b6589c73", "rental_uris": {"ios": "https://dc.lft.to/lastmile_qr_scan", "android": "https://dc.lft.to/lastmile_qr_scan"}, "type": "electric_scooter", "fusion_lat": 0.0, "lon": -77.07257616666666}, {"fusion_lon": 0.0, "bike_id": "c5f0afbdaff3271fb4aa70c916f62ba6", "is_disabled": 0, "is_reserved": 0, "lat": 38.89217416666666, "name": "c5f0afbdaff3271fb4aa70c916f62ba6", "rental_uris": {"ios": "https://dc.lft.to/lastmile_qr_scan", "android": "https://dc.lft.to/lastmile_qr_scan"}, "type": "electric_scooter", "fusion_lat": 0.0, "lon": -77.0254635}, {"fusion_lon": 0.0, "bike_id": "731b90a76700bf9c52689d1579a53181", "is_disabled": 0, "is_reserved": 0, "lat": 38.923678333333335, "name": "731b90a76700bf9c52689d1579a53181", "rental_uris": {"ios": "https://dc.lft.to/lastmile_qr_scan", "android": "https://dc.lft.to/lastmile_qr_scan"}, "type": "electric_scooter", "fusion_lat": 0.0, "lon": -77.01953416666667}, {"fusion_lon": 0.0, "bike_id": "769d87264a4a3277fe1b35c1892c3d1e", "is_disabled": 0, "is_reserved": 0, "lat": 38.905376333333336, "name": "769d87264a4a3277fe1b35c1892c3d1e", "rental_uris": {"ios": "https://dc.lft.to/lastmile_qr_scan", "android": "https://dc.lft.to/lastmile_qr_scan"}, "type": "electric_scooter", "fusion_lat": 0.0, "lon": -76.98649916666666}, {"fusion_lon": 0.0, "bike_id": "3cdd82d209f2a013ff947b376ef3e98b", "is_disabled": 0, "is_reserved": 0, "lat": 38.893268, "name": "3cdd82d209f2a013ff947b376ef3e98b", "rental_uris": {"ios": "https://dc.lft.to/lastmile_qr_scan", "android": "https://dc.lft.to/lastmile_qr_scan"}, "type": "electric_scooter", "fusion_lat": 0.0, "lon": -77.03378566666666}, {"fusion_lon": 0.0, "bike_id": "ae1d9e9ebc54646df59a3253b15286e3", "is_disabled": 0, "is_reserved": 0, "lat": 38.92494633333333, "name": "ae1d9e9ebc54646df59a3253b15286e3", "rental_uris": {"ios": "https://dc.lft.to/lastmile_qr_scan", "android": "https://dc.lft.to/lastmile_qr_scan"}, "type": "electric_scooter", "fusion_lat": 0.0, "lon": -77.04335416666666}, {"fusion_lon": 0.0, "bike_id": "690709fb2daaff7c3d8684150f520db8", "is_disabled": 0, "is_reserved": 0, "lat": 38.92120716666667, "name": "690709fb2daaff7c3d8684150f520db8", "rental_uris": {"ios": "https://dc.lft.to/lastmile_qr_scan", "android": "https://dc.lft.to/lastmile_qr_scan"}, "type": "electric_scooter", "fusion_lat": 0.0, "lon": -77.036641}, {"fusion_lon": 0.0, "bike_id": "c04e0617d6f6b7c9f99a1ad641609e45", "is_disabled": 0, "is_reserved": 0, "lat": 38.916200833333335, "name": "c04e0617d6f6b7c9f99a1ad641609e45", "rental_uris": {"ios": "https://dc.lft.to/lastmile_qr_scan", "android": "https://dc.lft.to/lastmile_qr_scan"}, "type": "electric_scooter", "fusion_lat": 0.0, "lon": -77.02300616666666}, {"fusion_lon": 0.0, "bike_id": "d414e82a96c661f7596c11a30f758735", "is_disabled": 0, "is_reserved": 0, "lat": 38.91340833333334, "name": "d414e82a96c661f7596c11a30f758735", "rental_uris": {"ios": "https://dc.lft.to/lastmile_qr_scan", "android": "https://dc.lft.to/lastmile_qr_scan"}, "type": "electric_scooter", "fusion_lat": 0.0, "lon": -77.02581683333334}, {"fusion_lon": 0.0, "bike_id": "a82806ed69cadaf9d690ef4bef9923fb", "is_disabled": 0, "is_reserved": 0, "lat": 38.9986435, "name": "a82806ed69cadaf9d690ef4bef9923fb", "rental_uris": {"ios": "https://dc.lft.to/lastmile_qr_scan", "android": "https://dc.lft.to/lastmile_qr_scan"}, "type": "electric_bike", "fusion_lat": 0.0, "lon": -77.00396816666667}, {"fusion_lon": 0.0, "bike_id": "76ad9270d86beb2b5e476bf2242c663b", "is_disabled": 0, "is_reserved": 0, "lat": 38.899773333333336, "name": "76ad9270d86beb2b5e476bf2242c663b", "rental_uris": {"ios": "https://dc.lft.to/lastmile_qr_scan", "android": "https://dc.lft.to/lastmile_qr_scan"}, "type": "electric_scooter", "fusion_lat": 0.0, "lon": -76.99454083333333}, {"fusion_lon": 0.0, "bike_id": "fc844808d89a50351cd59accf26fbe04", "is_disabled": 0, "is_reserved": 0, "lat": 38.919117666666665, "name": "fc844808d89a50351cd59accf26fbe04", "rental_uris": {"ios": "https://dc.lft.to/lastmile_qr_scan", "android": "https://dc.lft.to/lastmile_qr_scan"}, "type": "electric_scooter", "fusion_lat": 0.0, "lon": -77.04631616666667}, {"fusion_lon": 0.0, "bike_id": "e4b002c17dba5b56fa64bff9664d7122", "is_disabled": 0, "is_reserved": 0, "lat": 38.877676, "name": "e4b002c17dba5b56fa64bff9664d7122", "rental_uris": {"ios": "https://dc.lft.to/lastmile_qr_scan", "android": "https://dc.lft.to/lastmile_qr_scan"}, "type": "electric_scooter", "fusion_lat": 0.0, "lon": -77.01878733333334}, {"fusion_lon": 0.0, "bike_id": "d53beba8d02c0802ca10caa0a341a96a", "is_disabled": 0, "is_reserved": 0, "lat": 38.90172716666667, "name": "d53beba8d02c0802ca10caa0a341a96a", "rental_uris": {"ios": "https://dc.lft.to/lastmile_qr_scan", "android": "https://dc.lft.to/lastmile_qr_scan"}, "type": "electric_scooter", "fusion_lat": 0.0, "lon": -77.05121916666667}, {"fusion_lon": 0.0, "bike_id": "6228d1dbb9f7fb0fee25d1bb92f579a0", "is_disabled": 0, "is_reserved": 0, "lat": 38.967741833333335, "name": "6228d1dbb9f7fb0fee25d1bb92f579a0", "rental_uris": {"ios": "https://dc.lft.to/lastmile_qr_scan", "android": "https://dc.lft.to/lastmile_qr_scan"}, "type": "electric_bike", "fusion_lat": 0.0, "lon": -76.99662233333333}, {"fusion_lon": 0.0, "bike_id": "c284cb0fc81b95f2cc0f0788d856a017", "is_disabled": 0, "is_reserved": 0, "lat": 38.881781, "name": "c284cb0fc81b95f2cc0f0788d856a017", "rental_uris": {"ios": "https://dc.lft.to/lastmile_qr_scan", "android": "https://dc.lft.to/lastmile_qr_scan"}, "type": "electric_scooter", "fusion_lat": 0.0, "lon": -77.01744866666667}, {"fusion_lon": 0.0, "bike_id": "b81909df50631ddf3bd035abb47db794", "is_disabled": 0, "is_reserved": 0, "lat": 38.966915166666666, "name": "b81909df50631ddf3bd035abb47db794", "rental_uris": {"ios": "https://dc.lft.to/lastmile_qr_scan", "android": "https://dc.lft.to/lastmile_qr_scan"}, "type": "electric_scooter", "fusion_lat": 0.0, "lon": -77.03405766666667}, {"fusion_lon": 0.0, "bike_id": "d6cc5430cc9005d26e2cc554217dde2a", "is_disabled": 0, "is_reserved": 0, "lat": 38.907194833333335, "name": "d6cc5430cc9005d26e2cc554217dde2a", "rental_uris": {"ios": "https://dc.lft.to/lastmile_qr_scan", "android": "https://dc.lft.to/lastmile_qr_scan"}, "type": "electric_scooter", "fusion_lat": 0.0, "lon": -77.009966}, {"fusion_lon": 0.0, "bike_id": "c0eb95f715a111e983571e397c458351", "is_disabled": 0, "is_reserved": 0, "lat": 38.911108666666664, "name": "c0eb95f715a111e983571e397c458351", "rental_uris": {"ios": "https://dc.lft.to/lastmile_qr_scan", "android": "https://dc.lft.to/lastmile_qr_scan"}, "type": "electric_scooter", "fusion_lat": 0.0, "lon": -77.01153083333334}, {"fusion_lon": 0.0, "bike_id": "cb52785c67892e1dc1482265d2bf2f5d", "is_disabled": 0, "is_reserved": 0, "lat": 38.907432666666665, "name": "cb52785c67892e1dc1482265d2bf2f5d", "rental_uris": {"ios": "https://dc.lft.to/lastmile_qr_scan", "android": "https://dc.lft.to/lastmile_qr_scan"}, "type": "electric_bike", "fusion_lat": 0.0, "lon": -77.003099}, {"fusion_lon": 0.0, "bike_id": "0eb4ddcf26d39e1263349d09261093c5", "is_disabled": 0, "is_reserved": 0, "lat": 38.9183465, "name": "0eb4ddcf26d39e1263349d09261093c5", "rental_uris": {"ios": "https://dc.lft.to/lastmile_qr_scan", "android": "https://dc.lft.to/lastmile_qr_scan"}, "type": "electric_scooter", "fusion_lat": 0.0, "lon": -77.031944}, {"fusion_lon": 0.0, "bike_id": "2efff2393b254e93e8a2214a6cad4919", "is_disabled": 0, "is_reserved": 0, "lat": 38.92350666666667, "name": "2efff2393b254e93e8a2214a6cad4919", "rental_uris": {"ios": "https://dc.lft.to/lastmile_qr_scan", "android": "https://dc.lft.to/lastmile_qr_scan"}, "type": "electric_scooter", "fusion_lat": 0.0, "lon": -77.0244735}, {"fusion_lon": 0.0, "bike_id": "1b5c3d904d6479fa8515a99673a1238e", "is_disabled": 0, "is_reserved": 0, "lat": 38.86005516666667, "name": "1b5c3d904d6479fa8515a99673a1238e", "rental_uris": {"ios": "https://dc.lft.to/lastmile_qr_scan", "android": "https://dc.lft.to/lastmile_qr_scan"}, "type": "electric_scooter", "fusion_lat": 0.0, "lon": -76.98516516666666}, {"fusion_lon": 0.0, "bike_id": "e802a47de4affee1192ab703de427802", "is_disabled": 0, "is_reserved": 0, "lat": 38.92718166666667, "name": "e802a47de4affee1192ab703de427802", "rental_uris": {"ios": "https://dc.lft.to/lastmile_qr_scan", "android": "https://dc.lft.to/lastmile_qr_scan"}, "type": "electric_scooter", "fusion_lat": 0.0, "lon": -77.02282516666666}, {"fusion_lon": 0.0, "bike_id": "e443b1cd294a312216e2475a7f0d92c4", "is_disabled": 0, "is_reserved": 0, "lat": 38.90605516666667, "name": "e443b1cd294a312216e2475a7f0d92c4", "rental_uris": {"ios": "https://dc.lft.to/lastmile_qr_scan", "android": "https://dc.lft.to/lastmile_qr_scan"}, "type": "electric_bike", "fusion_lat": 0.0, "lon": -77.12882216666667}, {"fusion_lon": 0.0, "bike_id": "573b7c906dd723c613d86c8487b9c2ae", "is_disabled": 0, "is_reserved": 0, "lat": 38.90242816666667, "name": "573b7c906dd723c613d86c8487b9c2ae", "rental_uris": {"ios": "https://dc.lft.to/lastmile_qr_scan", "android": "https://dc.lft.to/lastmile_qr_scan"}, "type": "electric_scooter", "fusion_lat": 0.0, "lon": -77.01451866666666}, {"fusion_lon": 0.0, "bike_id": "8c9a2ec66484f94d3892cdfa210cc0d2", "is_disabled": 0, "is_reserved": 0, "lat": 38.93635233333333, "name": "8c9a2ec66484f94d3892cdfa210cc0d2", "rental_uris": {"ios": "https://dc.lft.to/lastmile_qr_scan", "android": "https://dc.lft.to/lastmile_qr_scan"}, "type": "electric_scooter", "fusion_lat": 0.0, "lon": -77.03661166666667}, {"fusion_lon": 0.0, "bike_id": "aed4f93c179514b537dad8f2514b2a0a", "is_disabled": 0, "is_reserved": 0, "lat": 38.87378416666667, "name": "aed4f93c179514b537dad8f2514b2a0a", "rental_uris": {"ios": "https://dc.lft.to/lastmile_qr_scan", "android": "https://dc.lft.to/lastmile_qr_scan"}, "type": "electric_scooter", "fusion_lat": 0.0, "lon": -77.0013025}, {"fusion_lon": 0.0, "bike_id": "eb0e913a40bea4e407e65f9e7a44ffbd", "is_disabled": 0, "is_reserved": 0, "lat": 38.924239666666665, "name": "eb0e913a40bea4e407e65f9e7a44ffbd", "rental_uris": {"ios": "https://dc.lft.to/lastmile_qr_scan", "android": "https://dc.lft.to/lastmile_qr_scan"}, "type": "electric_scooter", "fusion_lat": 0.0, "lon": -77.04045783333333}, {"fusion_lon": 0.0, "bike_id": "55df14fb35c0357c55c08a6380fa519e", "is_disabled": 0, "is_reserved": 0, "lat": 38.910276, "name": "55df14fb35c0357c55c08a6380fa519e", "rental_uris": {"ios": "https://dc.lft.to/lastmile_qr_scan", "android": "https://dc.lft.to/lastmile_qr_scan"}, "type": "electric_scooter", "fusion_lat": 0.0, "lon": -77.029394}, {"fusion_lon": 0.0, "bike_id": "57c12e66d94fad5e74288a4a493b71a7", "is_disabled": 0, "is_reserved": 0, "lat": 38.927353333333336, "name": "57c12e66d94fad5e74288a4a493b71a7", "rental_uris": {"ios": "https://dc.lft.to/lastmile_qr_scan", "android": "https://dc.lft.to/lastmile_qr_scan"}, "type": "electric_scooter", "fusion_lat": 0.0, "lon": -77.02214483333333}, {"fusion_lon": 0.0, "bike_id": "b833e89f7ba146ccdf6c1c874fc33a2c", "is_disabled": 0, "is_reserved": 0, "lat": 38.89904933333333, "name": "b833e89f7ba146ccdf6c1c874fc33a2c", "rental_uris": {"ios": "https://dc.lft.to/lastmile_qr_scan", "android": "https://dc.lft.to/lastmile_qr_scan"}, "type": "electric_scooter", "fusion_lat": 0.0, "lon": -77.00356116666667}, {"fusion_lon": 0.0, "bike_id": "aa2454c98f18074f9e03abd3efc7d34b", "is_disabled": 0, "is_reserved": 0, "lat": 38.91757583333333, "name": "aa2454c98f18074f9e03abd3efc7d34b", "rental_uris": {"ios": "https://dc.lft.to/lastmile_qr_scan", "android": "https://dc.lft.to/lastmile_qr_scan"}, "type": "electric_scooter", "fusion_lat": 0.0, "lon": -77.03997916666667}, {"fusion_lon": 0.0, "bike_id": "be5b8e094cb4343f896f284da29ccecc", "is_disabled": 0, "is_reserved": 0, "lat": 38.91890316666667, "name": "be5b8e094cb4343f896f284da29ccecc", "rental_uris": {"ios": "https://dc.lft.to/lastmile_qr_scan", "android": "https://dc.lft.to/lastmile_qr_scan"}, "type": "electric_scooter", "fusion_lat": 0.0, "lon": -77.03514216666666}, {"fusion_lon": 0.0, "bike_id": "05a2028e2497a6d634a614bc56c561b7", "is_disabled": 0, "is_reserved": 0, "lat": 38.913143, "name": "05a2028e2497a6d634a614bc56c561b7", "rental_uris": {"ios": "https://dc.lft.to/lastmile_qr_scan", "android": "https://dc.lft.to/lastmile_qr_scan"}, "type": "electric_scooter", "fusion_lat": 0.0, "lon": -77.03469116666666}, {"fusion_lon": 0.0, "bike_id": "5a0a1a9aa54d043a85f2f5afd391243e", "is_disabled": 0, "is_reserved": 0, "lat": 38.92120083333333, "name": "5a0a1a9aa54d043a85f2f5afd391243e", "rental_uris": {"ios": "https://dc.lft.to/lastmile_qr_scan", "android": "https://dc.lft.to/lastmile_qr_scan"}, "type": "electric_scooter", "fusion_lat": 0.0, "lon": -77.0212735}, {"fusion_lon": 0.0, "bike_id": "683d3f0094399658ce0c96da76a19b10", "is_disabled": 0, "is_reserved": 0, "lat": 38.915716, "name": "683d3f0094399658ce0c96da76a19b10", "rental_uris": {"ios": "https://dc.lft.to/lastmile_qr_scan", "android": "https://dc.lft.to/lastmile_qr_scan"}, "type": "electric_scooter", "fusion_lat": 0.0, "lon": -77.02178416666666}, {"fusion_lon": 0.0, "bike_id": "7194dbe6641e3ba356f47ab33b870f9a", "is_disabled": 0, "is_reserved": 0, "lat": 38.934050666666664, "name": "7194dbe6641e3ba356f47ab33b870f9a", "rental_uris": {"ios": "https://dc.lft.to/lastmile_qr_scan", "android": "https://dc.lft.to/lastmile_qr_scan"}, "type": "electric_scooter", "fusion_lat": 0.0, "lon": -77.0454955}, {"fusion_lon": 0.0, "bike_id": "1479b3d08b1ea7facb2903337814f59a", "is_disabled": 0, "is_reserved": 0, "lat": 38.90782383333333, "name": "1479b3d08b1ea7facb2903337814f59a", "rental_uris": {"ios": "https://dc.lft.to/lastmile_qr_scan", "android": "https://dc.lft.to/lastmile_qr_scan"}, "type": "electric_scooter", "fusion_lat": 0.0, "lon": -76.99858216666667}, {"fusion_lon": 0.0, "bike_id": "e37f1d6e0dec09e61a09726a0ee4e790", "is_disabled": 0, "is_reserved": 0, "lat": 38.869353333333336, "name": "e37f1d6e0dec09e61a09726a0ee4e790", "rental_uris": {"ios": "https://dc.lft.to/lastmile_qr_scan", "android": "https://dc.lft.to/lastmile_qr_scan"}, "type": "electric_scooter", "fusion_lat": 0.0, "lon": -76.9774405}, {"fusion_lon": 0.0, "bike_id": "e4080134274190e494784fe2ea426b9a", "is_disabled": 0, "is_reserved": 0, "lat": 38.92158216666667, "name": "e4080134274190e494784fe2ea426b9a", "rental_uris": {"ios": "https://dc.lft.to/lastmile_qr_scan", "android": "https://dc.lft.to/lastmile_qr_scan"}, "type": "electric_scooter", "fusion_lat": 0.0, "lon": -77.04354533333333}, {"fusion_lon": 0.0, "bike_id": "6a059600cab40ca17ff6783e7a4490d1", "is_disabled": 0, "is_reserved": 0, "lat": 38.9176765, "name": "6a059600cab40ca17ff6783e7a4490d1", "rental_uris": {"ios": "https://dc.lft.to/lastmile_qr_scan", "android": "https://dc.lft.to/lastmile_qr_scan"}, "type": "electric_bike", "fusion_lat": 0.0, "lon": -76.88442866666666}, {"fusion_lon": 0.0, "bike_id": "683bd9afad4fd24ed2a6d3e6b44c5d36", "is_disabled": 0, "is_reserved": 0, "lat": 38.9182215, "name": "683bd9afad4fd24ed2a6d3e6b44c5d36", "rental_uris": {"ios": "https://dc.lft.to/lastmile_qr_scan", "android": "https://dc.lft.to/lastmile_qr_scan"}, "type": "electric_scooter", "fusion_lat": 0.0, "lon": -77.02932683333333}, {"fusion_lon": 0.0, "bike_id": "78ec86d4414f04ad5a669c203bb4c800", "is_disabled": 0, "is_reserved": 0, "lat": 38.917063666666664, "name": "78ec86d4414f04ad5a669c203bb4c800", "rental_uris": {"ios": "https://dc.lft.to/lastmile_qr_scan", "android": "https://dc.lft.to/lastmile_qr_scan"}, "type": "electric_scooter", "fusion_lat": 0.0, "lon": -77.01039666666667}, {"fusion_lon": 0.0, "bike_id": "79a01f7a61fb86dce302c10124fd08d6", "is_disabled": 0, "is_reserved": 0, "lat": 38.913523833333336, "name": "79a01f7a61fb86dce302c10124fd08d6", "rental_uris": {"ios": "https://dc.lft.to/lastmile_qr_scan", "android": "https://dc.lft.to/lastmile_qr_scan"}, "type": "electric_scooter", "fusion_lat": 0.0, "lon": -76.9714145}, {"fusion_lon": 0.0, "bike_id": "1714ce25797d7a5ec9d4079e726a2c35", "is_disabled": 0, "is_reserved": 0, "lat": 38.920540833333334, "name": "1714ce25797d7a5ec9d4079e726a2c35", "rental_uris": {"ios": "https://dc.lft.to/lastmile_qr_scan", "android": "https://dc.lft.to/lastmile_qr_scan"}, "type": "electric_scooter", "fusion_lat": 0.0, "lon": -77.04193883333333}, {"fusion_lon": 0.0, "bike_id": "9f57057f6dac84de71b3426c4ac6520f", "is_disabled": 0, "is_reserved": 0, "lat": 38.877999, "name": "9f57057f6dac84de71b3426c4ac6520f", "rental_uris": {"ios": "https://dc.lft.to/lastmile_qr_scan", "android": "https://dc.lft.to/lastmile_qr_scan"}, "type": "electric_scooter", "fusion_lat": 0.0, "lon": -77.00125483333333}, {"fusion_lon": 0.0, "bike_id": "52f8ae793315b412070683ec1dc84300", "is_disabled": 0, "is_reserved": 0, "lat": 38.92459933333333, "name": "52f8ae793315b412070683ec1dc84300", "rental_uris": {"ios": "https://dc.lft.to/lastmile_qr_scan", "android": "https://dc.lft.to/lastmile_qr_scan"}, "type": "electric_scooter", "fusion_lat": 0.0, "lon": -77.0328575}, {"fusion_lon": 0.0, "bike_id": "18489ee2a8d8a53249970c2c80669dfa", "is_disabled": 0, "is_reserved": 0, "lat": 38.906121666666664, "name": "18489ee2a8d8a53249970c2c80669dfa", "rental_uris": {"ios": "https://dc.lft.to/lastmile_qr_scan", "android": "https://dc.lft.to/lastmile_qr_scan"}, "type": "electric_scooter", "fusion_lat": 0.0, "lon": -77.05652716666667}, {"fusion_lon": 0.0, "bike_id": "a8f79c98e41010cfd497f2614917a94d", "is_disabled": 0, "is_reserved": 0, "lat": 38.9147765, "name": "a8f79c98e41010cfd497f2614917a94d", "rental_uris": {"ios": "https://dc.lft.to/lastmile_qr_scan", "android": "https://dc.lft.to/lastmile_qr_scan"}, "type": "electric_scooter", "fusion_lat": 0.0, "lon": -77.036646}, {"fusion_lon": 0.0, "bike_id": "a4d8344d70d4cc6d083ef3d774805842", "is_disabled": 0, "is_reserved": 0, "lat": 38.9118985, "name": "a4d8344d70d4cc6d083ef3d774805842", "rental_uris": {"ios": "https://dc.lft.to/lastmile_qr_scan", "android": "https://dc.lft.to/lastmile_qr_scan"}, "type": "electric_scooter", "fusion_lat": 0.0, "lon": -77.040318}, {"fusion_lon": 0.0, "bike_id": "944ba758328b71efee8368f667f476f7", "is_disabled": 0, "is_reserved": 0, "lat": 38.9241925, "name": "944ba758328b71efee8368f667f476f7", "rental_uris": {"ios": "https://dc.lft.to/lastmile_qr_scan", "android": "https://dc.lft.to/lastmile_qr_scan"}, "type": "electric_scooter", "fusion_lat": 0.0, "lon": -77.02014466666667}, {"fusion_lon": 0.0, "bike_id": "c2b68449f00a27339708caa92c329a6a", "is_disabled": 0, "is_reserved": 0, "lat": 38.8974345, "name": "c2b68449f00a27339708caa92c329a6a", "rental_uris": {"ios": "https://dc.lft.to/lastmile_qr_scan", "android": "https://dc.lft.to/lastmile_qr_scan"}, "type": "electric_scooter", "fusion_lat": 0.0, "lon": -77.02688716666667}, {"fusion_lon": 0.0, "bike_id": "8f200301737c0b79b76dac77fcf7afbf", "is_disabled": 0, "is_reserved": 0, "lat": 38.911161666666665, "name": "8f200301737c0b79b76dac77fcf7afbf", "rental_uris": {"ios": "https://dc.lft.to/lastmile_qr_scan", "android": "https://dc.lft.to/lastmile_qr_scan"}, "type": "electric_scooter", "fusion_lat": 0.0, "lon": -77.0326375}, {"fusion_lon": 0.0, "bike_id": "cc220d4098b5cbe3f0268cdfdd278e64", "is_disabled": 0, "is_reserved": 0, "lat": 38.92847783333333, "name": "cc220d4098b5cbe3f0268cdfdd278e64", "rental_uris": {"ios": "https://dc.lft.to/lastmile_qr_scan", "android": "https://dc.lft.to/lastmile_qr_scan"}, "type": "electric_scooter", "fusion_lat": 0.0, "lon": -77.01415533333333}, {"fusion_lon": 0.0, "bike_id": "0568fb7a32e107049e254ab75da6786e", "is_disabled": 0, "is_reserved": 0, "lat": 38.91817416666667, "name": "0568fb7a32e107049e254ab75da6786e", "rental_uris": {"ios": "https://dc.lft.to/lastmile_qr_scan", "android": "https://dc.lft.to/lastmile_qr_scan"}, "type": "electric_scooter", "fusion_lat": 0.0, "lon": -77.0400675}, {"fusion_lon": 0.0, "bike_id": "f2f887d83fe13d069fc0210d048afcc6", "is_disabled": 0, "is_reserved": 0, "lat": 38.92372683333333, "name": "f2f887d83fe13d069fc0210d048afcc6", "rental_uris": {"ios": "https://dc.lft.to/lastmile_qr_scan", "android": "https://dc.lft.to/lastmile_qr_scan"}, "type": "electric_scooter", "fusion_lat": 0.0, "lon": -77.080536}, {"fusion_lon": 0.0, "bike_id": "4d78ccd1d57b019ee1267272500f85ce", "is_disabled": 0, "is_reserved": 0, "lat": 38.89223633333334, "name": "4d78ccd1d57b019ee1267272500f85ce", "rental_uris": {"ios": "https://dc.lft.to/lastmile_qr_scan", "android": "https://dc.lft.to/lastmile_qr_scan"}, "type": "electric_scooter", "fusion_lat": 0.0, "lon": -77.03990533333334}, {"fusion_lon": 0.0, "bike_id": "ba7262f8f777d71b17318c82b8ec8588", "is_disabled": 0, "is_reserved": 0, "lat": 38.92327366666667, "name": "ba7262f8f777d71b17318c82b8ec8588", "rental_uris": {"ios": "https://dc.lft.to/lastmile_qr_scan", "android": "https://dc.lft.to/lastmile_qr_scan"}, "type": "electric_scooter", "fusion_lat": 0.0, "lon": -77.037734}, {"fusion_lon": 0.0, "bike_id": "1f9dc6fcd7f33e201cde453281fb274f", "is_disabled": 0, "is_reserved": 0, "lat": 38.951857833333335, "name": "1f9dc6fcd7f33e201cde453281fb274f", "rental_uris": {"ios": "https://dc.lft.to/lastmile_qr_scan", "android": "https://dc.lft.to/lastmile_qr_scan"}, "type": "electric_bike", "fusion_lat": 0.0, "lon": -76.93542116666667}, {"fusion_lon": 0.0, "bike_id": "2c987de64796b6581de6891ba82d3672", "is_disabled": 0, "is_reserved": 0, "lat": 38.8954715, "name": "2c987de64796b6581de6891ba82d3672", "rental_uris": {"ios": "https://dc.lft.to/lastmile_qr_scan", "android": "https://dc.lft.to/lastmile_qr_scan"}, "type": "electric_scooter", "fusion_lat": 0.0, "lon": -76.98334533333333}, {"fusion_lon": 0.0, "bike_id": "c945c1a40b6d4a98c60b5803ae78efef", "is_disabled": 0, "is_reserved": 0, "lat": 38.90016033333333, "name": "c945c1a40b6d4a98c60b5803ae78efef", "rental_uris": {"ios": "https://dc.lft.to/lastmile_qr_scan", "android": "https://dc.lft.to/lastmile_qr_scan"}, "type": "electric_scooter", "fusion_lat": 0.0, "lon": -77.0448805}, {"fusion_lon": 0.0, "bike_id": "572875630f9939ae682671ebccf733c8", "is_disabled": 0, "is_reserved": 0, "lat": 38.914064833333335, "name": "572875630f9939ae682671ebccf733c8", "rental_uris": {"ios": "https://dc.lft.to/lastmile_qr_scan", "android": "https://dc.lft.to/lastmile_qr_scan"}, "type": "electric_scooter", "fusion_lat": 0.0, "lon": -77.01843033333333}, {"fusion_lon": 0.0, "bike_id": "006e1c002470c02f8c3b959d64ddb09b", "is_disabled": 0, "is_reserved": 0, "lat": 38.897229833333334, "name": "006e1c002470c02f8c3b959d64ddb09b", "rental_uris": {"ios": "https://dc.lft.to/lastmile_qr_scan", "android": "https://dc.lft.to/lastmile_qr_scan"}, "type": "electric_scooter", "fusion_lat": 0.0, "lon": -76.97855583333333}, {"fusion_lon": 0.0, "bike_id": "5345cb71a0aa02a985ac6a2e023beb68", "is_disabled": 0, "is_reserved": 0, "lat": 38.914869833333334, "name": "5345cb71a0aa02a985ac6a2e023beb68", "rental_uris": {"ios": "https://dc.lft.to/lastmile_qr_scan", "android": "https://dc.lft.to/lastmile_qr_scan"}, "type": "electric_scooter", "fusion_lat": 0.0, "lon": -77.0218535}, {"fusion_lon": 0.0, "bike_id": "f90113869da83308a60c672a77ad1efe", "is_disabled": 0, "is_reserved": 0, "lat": 38.93676966666666, "name": "f90113869da83308a60c672a77ad1efe", "rental_uris": {"ios": "https://dc.lft.to/lastmile_qr_scan", "android": "https://dc.lft.to/lastmile_qr_scan"}, "type": "electric_scooter", "fusion_lat": 0.0, "lon": -77.03282466666667}, {"fusion_lon": 0.0, "bike_id": "6cb4cf036ec6a74c666145a342ebfe12", "is_disabled": 0, "is_reserved": 0, "lat": 38.9255205, "name": "6cb4cf036ec6a74c666145a342ebfe12", "rental_uris": {"ios": "https://dc.lft.to/lastmile_qr_scan", "android": "https://dc.lft.to/lastmile_qr_scan"}, "type": "electric_scooter", "fusion_lat": 0.0, "lon": -77.04177083333333}, {"fusion_lon": 0.0, "bike_id": "1fd89a5aa296249d34177b15d79ce163", "is_disabled": 0, "is_reserved": 0, "lat": 38.922343833333336, "name": "1fd89a5aa296249d34177b15d79ce163", "rental_uris": {"ios": "https://dc.lft.to/lastmile_qr_scan", "android": "https://dc.lft.to/lastmile_qr_scan"}, "type": "electric_scooter", "fusion_lat": 0.0, "lon": -77.0335}, {"fusion_lon": 0.0, "bike_id": "e05b7c67a536f1772733cfb97d3f8c6e", "is_disabled": 0, "is_reserved": 0, "lat": 38.900788666666664, "name": "e05b7c67a536f1772733cfb97d3f8c6e", "rental_uris": {"ios": "https://dc.lft.to/lastmile_qr_scan", "android": "https://dc.lft.to/lastmile_qr_scan"}, "type": "electric_scooter", "fusion_lat": 0.0, "lon": -77.04792866666666}, {"fusion_lon": 0.0, "bike_id": "f8fb5bd92f788eedf320601c3d7ed4e6", "is_disabled": 0, "is_reserved": 0, "lat": 38.90654816666667, "name": "f8fb5bd92f788eedf320601c3d7ed4e6", "rental_uris": {"ios": "https://dc.lft.to/lastmile_qr_scan", "android": "https://dc.lft.to/lastmile_qr_scan"}, "type": "electric_scooter", "fusion_lat": 0.0, "lon": -77.01413616666666}, {"fusion_lon": 0.0, "bike_id": "7e6cd5f29935f582ea91aeb35f23ef7d", "is_disabled": 0, "is_reserved": 0, "lat": 38.90029083333334, "name": "7e6cd5f29935f582ea91aeb35f23ef7d", "rental_uris": {"ios": "https://dc.lft.to/lastmile_qr_scan", "android": "https://dc.lft.to/lastmile_qr_scan"}, "type": "electric_scooter", "fusion_lat": 0.0, "lon": -76.98598383333334}, {"fusion_lon": 0.0, "bike_id": "2e25264d10a64db75af0296f863cea06", "is_disabled": 0, "is_reserved": 0, "lat": 38.815467166666664, "name": "2e25264d10a64db75af0296f863cea06", "rental_uris": {"ios": "https://dc.lft.to/lastmile_qr_scan", "android": "https://dc.lft.to/lastmile_qr_scan"}, "type": "electric_bike", "fusion_lat": 0.0, "lon": -77.04647033333333}, {"fusion_lon": 0.0, "bike_id": "1be2fb3a04ab27fe34d6b40e9d944343", "is_disabled": 0, "is_reserved": 0, "lat": 38.92406783333333, "name": "1be2fb3a04ab27fe34d6b40e9d944343", "rental_uris": {"ios": "https://dc.lft.to/lastmile_qr_scan", "android": "https://dc.lft.to/lastmile_qr_scan"}, "type": "electric_scooter", "fusion_lat": 0.0, "lon": -77.0354685}, {"fusion_lon": 0.0, "bike_id": "24194b000e204eaec328fbc1f8f2320d", "is_disabled": 0, "is_reserved": 0, "lat": 38.90611233333333, "name": "24194b000e204eaec328fbc1f8f2320d", "rental_uris": {"ios": "https://dc.lft.to/lastmile_qr_scan", "android": "https://dc.lft.to/lastmile_qr_scan"}, "type": "electric_scooter", "fusion_lat": 0.0, "lon": -77.02107433333333}, {"fusion_lon": 0.0, "bike_id": "44a593e245a5b7c592dcc84c5cf30150", "is_disabled": 0, "is_reserved": 0, "lat": 38.916684000000004, "name": "44a593e245a5b7c592dcc84c5cf30150", "rental_uris": {"ios": "https://dc.lft.to/lastmile_qr_scan", "android": "https://dc.lft.to/lastmile_qr_scan"}, "type": "electric_scooter", "fusion_lat": 0.0, "lon": -77.04748866666667}, {"fusion_lon": 0.0, "bike_id": "c8b18625f6c6b7fc1a1fb015e32580bd", "is_disabled": 0, "is_reserved": 0, "lat": 38.91810183333333, "name": "c8b18625f6c6b7fc1a1fb015e32580bd", "rental_uris": {"ios": "https://dc.lft.to/lastmile_qr_scan", "android": "https://dc.lft.to/lastmile_qr_scan"}, "type": "electric_scooter", "fusion_lat": 0.0, "lon": -77.03440316666666}, {"fusion_lon": 0.0, "bike_id": "d7db80c27e148ab41d9cc907b1ffd713", "is_disabled": 0, "is_reserved": 0, "lat": 38.86125666666667, "name": "d7db80c27e148ab41d9cc907b1ffd713", "rental_uris": {"ios": "https://dc.lft.to/lastmile_qr_scan", "android": "https://dc.lft.to/lastmile_qr_scan"}, "type": "electric_scooter", "fusion_lat": 0.0, "lon": -77.00323516666667}, {"fusion_lon": 0.0, "bike_id": "fc2a4ad56160a354db5f8a4e4e40c555", "is_disabled": 0, "is_reserved": 0, "lat": 38.87855033333334, "name": "fc2a4ad56160a354db5f8a4e4e40c555", "rental_uris": {"ios": "https://dc.lft.to/lastmile_qr_scan", "android": "https://dc.lft.to/lastmile_qr_scan"}, "type": "electric_scooter", "fusion_lat": 0.0, "lon": -77.00509433333333}, {"fusion_lon": 0.0, "bike_id": "f56e47384bec00cf7c50ed325908a07d", "is_disabled": 0, "is_reserved": 0, "lat": 38.886065333333335, "name": "f56e47384bec00cf7c50ed325908a07d", "rental_uris": {"ios": "https://dc.lft.to/lastmile_qr_scan", "android": "https://dc.lft.to/lastmile_qr_scan"}, "type": "electric_scooter", "fusion_lat": 0.0, "lon": -76.98547883333333}, {"fusion_lon": 0.0, "bike_id": "8bfa6ae32ae691ffa21649cb12b2e41f", "is_disabled": 0, "is_reserved": 0, "lat": 38.915609833333335, "name": "8bfa6ae32ae691ffa21649cb12b2e41f", "rental_uris": {"ios": "https://dc.lft.to/lastmile_qr_scan", "android": "https://dc.lft.to/lastmile_qr_scan"}, "type": "electric_scooter", "fusion_lat": 0.0, "lon": -77.03171916666666}, {"fusion_lon": 0.0, "bike_id": "dba9bc6dbbaa28afb084a6912b9b2d78", "is_disabled": 0, "is_reserved": 0, "lat": 38.86203016666666, "name": "dba9bc6dbbaa28afb084a6912b9b2d78", "rental_uris": {"ios": "https://dc.lft.to/lastmile_qr_scan", "android": "https://dc.lft.to/lastmile_qr_scan"}, "type": "electric_scooter", "fusion_lat": 0.0, "lon": -76.99461516666666}, {"fusion_lon": 0.0, "bike_id": "74f13799f409228a9e13030f89e19a55", "is_disabled": 0, "is_reserved": 0, "lat": 38.925841166666665, "name": "74f13799f409228a9e13030f89e19a55", "rental_uris": {"ios": "https://dc.lft.to/lastmile_qr_scan", "android": "https://dc.lft.to/lastmile_qr_scan"}, "type": "electric_scooter", "fusion_lat": 0.0, "lon": -77.03724533333333}, {"fusion_lon": 0.0, "bike_id": "f2026e2595c8347c02aa329bfb115aaa", "is_disabled": 0, "is_reserved": 0, "lat": 38.887513, "name": "f2026e2595c8347c02aa329bfb115aaa", "rental_uris": {"ios": "https://dc.lft.to/lastmile_qr_scan", "android": "https://dc.lft.to/lastmile_qr_scan"}, "type": "electric_scooter", "fusion_lat": 0.0, "lon": -77.017101}, {"fusion_lon": 0.0, "bike_id": "a194639593bb302336793230461fb4c2", "is_disabled": 0, "is_reserved": 0, "lat": 38.943432, "name": "a194639593bb302336793230461fb4c2", "rental_uris": {"ios": "https://dc.lft.to/lastmile_qr_scan", "android": "https://dc.lft.to/lastmile_qr_scan"}, "type": "electric_scooter", "fusion_lat": 0.0, "lon": -77.0260445}, {"fusion_lon": 0.0, "bike_id": "711e685a18f766aa5cccc065b96fc132", "is_disabled": 0, "is_reserved": 0, "lat": 38.942803, "name": "711e685a18f766aa5cccc065b96fc132", "rental_uris": {"ios": "https://dc.lft.to/lastmile_qr_scan", "android": "https://dc.lft.to/lastmile_qr_scan"}, "type": "electric_scooter", "fusion_lat": 0.0, "lon": -77.0293645}, {"fusion_lon": 0.0, "bike_id": "2010b74f4059aba406385cfc9ec92a6c", "is_disabled": 0, "is_reserved": 0, "lat": 38.925079, "name": "2010b74f4059aba406385cfc9ec92a6c", "rental_uris": {"ios": "https://dc.lft.to/lastmile_qr_scan", "android": "https://dc.lft.to/lastmile_qr_scan"}, "type": "electric_scooter", "fusion_lat": 0.0, "lon": -77.02162483333333}, {"fusion_lon": 0.0, "bike_id": "f128544b2c5d35b5f109dfa18284235c", "is_disabled": 0, "is_reserved": 0, "lat": 38.93599866666667, "name": "f128544b2c5d35b5f109dfa18284235c", "rental_uris": {"ios": "https://dc.lft.to/lastmile_qr_scan", "android": "https://dc.lft.to/lastmile_qr_scan"}, "type": "electric_bike", "fusion_lat": 0.0, "lon": -77.02115033333334}, {"fusion_lon": 0.0, "bike_id": "d3de01a4bbef443ddf8a1dacd3ec3969", "is_disabled": 0, "is_reserved": 0, "lat": 38.90961266666667, "name": "d3de01a4bbef443ddf8a1dacd3ec3969", "rental_uris": {"ios": "https://dc.lft.to/lastmile_qr_scan", "android": "https://dc.lft.to/lastmile_qr_scan"}, "type": "electric_scooter", "fusion_lat": 0.0, "lon": -77.0334745}, {"fusion_lon": 0.0, "bike_id": "120ad0d37bd8e34a9fcbcc70b62a0c7a", "is_disabled": 0, "is_reserved": 0, "lat": 38.924143, "name": "120ad0d37bd8e34a9fcbcc70b62a0c7a", "rental_uris": {"ios": "https://dc.lft.to/lastmile_qr_scan", "android": "https://dc.lft.to/lastmile_qr_scan"}, "type": "electric_scooter", "fusion_lat": 0.0, "lon": -77.02069683333333}, {"fusion_lon": 0.0, "bike_id": "e7122ba11ab725d62ccc8895283acfd6", "is_disabled": 0, "is_reserved": 0, "lat": 38.922262333333336, "name": "e7122ba11ab725d62ccc8895283acfd6", "rental_uris": {"ios": "https://dc.lft.to/lastmile_qr_scan", "android": "https://dc.lft.to/lastmile_qr_scan"}, "type": "electric_scooter", "fusion_lat": 0.0, "lon": -77.02830333333333}, {"fusion_lon": 0.0, "bike_id": "d4972bdd5978c311f2d012f69c0a3fc1", "is_disabled": 0, "is_reserved": 0, "lat": 38.900796166666666, "name": "d4972bdd5978c311f2d012f69c0a3fc1", "rental_uris": {"ios": "https://dc.lft.to/lastmile_qr_scan", "android": "https://dc.lft.to/lastmile_qr_scan"}, "type": "electric_scooter", "fusion_lat": 0.0, "lon": -77.04756166666667},