{"data": {"bikes": [{"name": "3f869c756bfd180fa0026355ea975ee0", "is_reserved": 0, "fusion_lon": 0.0, "bike_id": "3f869c756bfd180fa0026355ea975ee0", "lat": 38.92256666666667, "is_disabled": 0, "lon": -77.01950066666667, "fusion_lat": 0.0, "rental_uris": {"ios": "https://dc.lft.to/lastmile_qr_scan", "android": "https://dc.lft.to/lastmile_qr_scan"}, "type": "electric_scooter"}, {"name": "836e350414c5f253f580b1eec8b3033e", "is_reserved": 0, "fusion_lon": 0.0, "bike_id": "836e350414c5f253f580b1eec8b3033e", "lat": 38.915614166666664, "is_disabled": 0, "lon": -77.01983416666667, "fusion_lat": 0.0, "rental_uris": {"ios": "https://dc.lft.to/lastmile_qr_scan", "android": "https://dc.lft.to/lastmile_qr_scan"}, "type": "electric_scooter"}, {"name": "527f65cf90edb6d9c04c59beaac23d54", "is_reserved": 0, "fusion_lon": 0.0, "bike_id": "527f65cf90edb6d9c04c59beaac23d54", "lat": 38.945701, "is_disabled": 0, "lon": -76.9811045, "fusion_lat": 0.0, "rental_uris": {"ios": "https://dc.lft.to/lastmile_qr_scan", "android": "https://dc.lft.to/lastmile_qr_scan"}, "type": "electric_bike"}, {"name": "4c5426bc780a8c2e0d70426314d909cf", "is_reserved": 0, "fusion_lon": 0.0, "bike_id": "4c5426bc780a8c2e0d70426314d909cf", "lat": 38.899473, "is_disabled": 0, "lon": -77.02165416666666, "fusion_lat": 0.0, "rental_uris": {"ios": "https://dc.lft.to/lastmile_qr_scan", "android": "https://dc.lft.to/lastmile_qr_scan"}, "type": "electric_scooter"}, {"name": "7e4aa4f050344c6503e91e30e5d41583", "is_reserved": 0, "fusion_lon": 0.0, "bike_id": "7e4aa4f050344c6503e91e30e5d41583", "lat": 38.944933, "is_disabled": 0, "lon": -77.02844283333333, "fusion_lat": 0.0, "rental_uris": {"ios": "https://dc.lft.to/lastmile_qr_scan", "android": "https://dc.lft.to/lastmile_qr_scan"}, "type": "electric_scooter"}, {"name": "9c823e9cd2d7f1a300341dbef2d2779f", "is_reserved": 0, "fusion_lon": 0.0, "bike_id": "9c823e9cd2d7f1a300341dbef2d2779f", "lat": 38.92423816666667, "is_disabled": 0, "lon": -77.01947966666667, "fusion_lat": 0.0, "rental_uris": {"ios": "https://dc.lft.to/lastmile_qr_scan", "android": "https://dc.lft.to/lastmile_qr_scan"}, "type": "electric_scooter"}, {"name": "416d73466de4bd9647e8973302736d10", "is_reserved": 0, "fusion_lon": 0.0, "bike_id": "416d73466de4bd9647e8973302736d10", "lat": 38.92248033333333, "is_disabled": 0, "lon": -77.0213105, "fusion_lat": 0.0, "rental_uris": {"ios": "https://dc.lft.to/lastmile_qr_scan", "android": "https://dc.lft.to/lastmile_qr_scan"}, "type": "electric_scooter"}, {"name": "4ba6834282e4003b15d00d464324be45", "is_reserved": 0, "fusion_lon": 0.0, "bike_id": "4ba6834282e4003b15d00d464324be45", "lat": 38.88658516666667, "is_disabled": 0, "lon": -76.93721066666667, "fusion_lat": 0.0, "rental_uris": {"ios": "https://dc.lft.to/lastmile_qr_scan", "android": "https://dc.lft.to/lastmile_qr_scan"}, "type": "electric_scooter"}, {"name": "075eddfc8d10f6e61fde38b0f90376be", "is_reserved": 0, "fusion_lon": 0.0, "bike_id": "075eddfc8d10f6e61fde38b0f90376be", "lat": 38.89551866666667, "is_disabled": 0, "lon": -77.0091305, "fusion_lat": 0.0, "rental_uris": {"ios": "https://dc.lft.to/lastmile_qr_scan", "android": "https://dc.lft.to/lastmile_qr_scan"}, "type": "electric_scooter"}, {"name": "5ca420132b689ccdba961dc34c4b821c", "is_reserved": 0, "fusion_lon": 0.0, "bike_id": "5ca420132b689ccdba961dc34c4b821c", "lat": 38.920418166666664, "is_disabled": 0, "lon": -77.038835, "fusion_lat": 0.0, "rental_uris": {"ios": "https://dc.lft.to/lastmile_qr_scan", "android": "https://dc.lft.to/lastmile_qr_scan"}, "type": "electric_scooter"}, {"name": "c850303abd17758cc537d0bd183ce1e3", "is_reserved": 0, "fusion_lon": 0.0, "bike_id": "c850303abd17758cc537d0bd183ce1e3", "lat": 38.89236366666667, "is_disabled": 0, "lon": -77.04360616666666, "fusion_lat": 0.0, "rental_uris": {"ios": "https://dc.lft.to/lastmile_qr_scan", "android": "https://dc.lft.to/lastmile_qr_scan"}, "type": "electric_scooter"}, {"name": "6480860d79cc84ee1f2db338b92eb6fc", "is_reserved": 0, "fusion_lon": 0.0, "bike_id": "6480860d79cc84ee1f2db338b92eb6fc", "lat": 38.96791733333333, "is_disabled": 0, "lon": -77.02430866666667, "fusion_lat": 0.0, "rental_uris": {"ios": "https://dc.lft.to/lastmile_qr_scan", "android": "https://dc.lft.to/lastmile_qr_scan"}, "type": "electric_scooter"}, {"name": "a84478a391d9b484a44d41b62ba19033", "is_reserved": 0, "fusion_lon": 0.0, "bike_id": "a84478a391d9b484a44d41b62ba19033", "lat": 38.9160115, "is_disabled": 0, "lon": -77.0417085, "fusion_lat": 0.0, "rental_uris": {"ios": "https://dc.lft.to/lastmile_qr_scan", "android": "https://dc.lft.to/lastmile_qr_scan"}, "type": "electric_scooter"}, {"name": "65e4f94021692b877ed500e803ce7c9e", "is_reserved": 0, "fusion_lon": 0.0, "bike_id": "65e4f94021692b877ed500e803ce7c9e", "lat": 38.9096325, "is_disabled": 0, "lon": -77.0243175, "fusion_lat": 0.0, "rental_uris": {"ios": "https://dc.lft.to/lastmile_qr_scan", "android": "https://dc.lft.to/lastmile_qr_scan"}, "type": "electric_scooter"}, {"name": "e7b64d22020ed21cc95824c8844a9b39", "is_reserved": 0, "fusion_lon": 0.0, "bike_id": "e7b64d22020ed21cc95824c8844a9b39", "lat": 38.91989916666667, "is_disabled": 0, "lon": -76.99956633333333, "fusion_lat": 0.0, "rental_uris": {"ios": "https://dc.lft.to/lastmile_qr_scan", "android": "https://dc.lft.to/lastmile_qr_scan"}, "type": "electric_scooter"}, {"name": "ba91664db8aea7cb83d7b16f88a3161c", "is_reserved": 0, "fusion_lon": 0.0, "bike_id": "ba91664db8aea7cb83d7b16f88a3161c", "lat": 38.890104, "is_disabled": 0, "lon": -77.073381, "fusion_lat": 0.0, "rental_uris": {"ios": "https://dc.lft.to/lastmile_qr_scan", "android": "https://dc.lft.to/lastmile_qr_scan"}, "type": "electric_bike"}, {"name": "0260a875f2015ab34cd8a80898a5d8f3", "is_reserved": 0, "fusion_lon": 0.0, "bike_id": "0260a875f2015ab34cd8a80898a5d8f3", "lat": 38.87661116666666, "is_disabled": 0, "lon": -77.00074166666667, "fusion_lat": 0.0, "rental_uris": {"ios": "https://dc.lft.to/lastmile_qr_scan", "android": "https://dc.lft.to/lastmile_qr_scan"}, "type": "electric_scooter"}, {"name": "2b003c8cc51ce21361e2717e49eb3033", "is_reserved": 0, "fusion_lon": 0.0, "bike_id": "2b003c8cc51ce21361e2717e49eb3033", "lat": 38.90012483333334, "is_disabled": 0, "lon": -76.99557416666667, "fusion_lat": 0.0, "rental_uris": {"ios": "https://dc.lft.to/lastmile_qr_scan", "android": "https://dc.lft.to/lastmile_qr_scan"}, "type": "electric_scooter"}, {"name": "92ea7527388826a0ce1dbac5e21990b0", "is_reserved": 0, "fusion_lon": 0.0, "bike_id": "92ea7527388826a0ce1dbac5e21990b0", "lat": 38.913227666666664, "is_disabled": 0, "lon": -77.01508816666667, "fusion_lat": 0.0, "rental_uris": {"ios": "https://dc.lft.to/lastmile_qr_scan", "android": "https://dc.lft.to/lastmile_qr_scan"}, "type": "electric_scooter"}, {"name": "41a848235d3a708d571895ce08365c16", "is_reserved": 0, "fusion_lon": 0.0, "bike_id": "41a848235d3a708d571895ce08365c16", "lat": 38.89473516666666, "is_disabled": 0, "lon": -76.98593066666666, "fusion_lat": 0.0, "rental_uris": {"ios": "https://dc.lft.to/lastmile_qr_scan", "android": "https://dc.lft.to/lastmile_qr_scan"}, "type": "electric_scooter"}, {"name": "690139cc0f9638ca07e45edbd1801d63", "is_reserved": 0, "fusion_lon": 0.0, "bike_id": "690139cc0f9638ca07e45edbd1801d63", "lat": 38.8996105, "is_disabled": 0, "lon": -77.04829033333333, "fusion_lat": 0.0, "rental_uris": {"ios": "https://dc.lft.to/lastmile_qr_scan", "android": "https://dc.lft.to/lastmile_qr_scan"}, "type": "electric_scooter"}, {"name": "e2e02d1d2713ec147778afd6fb9c0573", "is_reserved": 0, "fusion_lon": 0.0, "bike_id": "e2e02d1d2713ec147778afd6fb9c0573", "lat": 38.921909666666664, "is_disabled": 0, "lon": -77.09940933333333, "fusion_lat": 0.0, "rental_uris": {"ios": "https://dc.lft.to/lastmile_qr_scan", "android": "https://dc.lft.to/lastmile_qr_scan"}, "type": "electric_scooter"}, {"name": "4f45fc0793dc7b807e1f43aabb3e070a", "is_reserved": 0, "fusion_lon": 0.0, "bike_id": "4f45fc0793dc7b807e1f43aabb3e070a", "lat": 38.89623616666667, "is_disabled": 0, "lon": -77.02392866666666, "fusion_lat": 0.0, "rental_uris": {"ios": "https://dc.lft.to/lastmile_qr_scan", "android": "https://dc.lft.to/lastmile_qr_scan"}, "type": "electric_scooter"}, {"name": "4873e8a2c9a8e0b9fb6d346a3a336b9a", "is_reserved": 0, "fusion_lon": 0.0, "bike_id": "4873e8a2c9a8e0b9fb6d346a3a336b9a", "lat": 38.875328333333336, "is_disabled": 0, "lon": -77.005029, "fusion_lat": 0.0, "rental_uris": {"ios": "https://dc.lft.to/lastmile_qr_scan", "android": "https://dc.lft.to/lastmile_qr_scan"}, "type": "electric_scooter"}, {"name": "5e036a82744257719a4eaef9ae2837c8", "is_reserved": 0, "fusion_lon": 0.0, "bike_id": "5e036a82744257719a4eaef9ae2837c8", "lat": 38.92238866666667, "is_disabled": 0, "lon": -77.02848983333334, "fusion_lat": 0.0, "rental_uris": {"ios": "https://dc.lft.to/lastmile_qr_scan", "android": "https://dc.lft.to/lastmile_qr_scan"}, "type": "electric_scooter"}, {"name": "2e816569c380431b727c9c087e6247ed", "is_reserved": 0, "fusion_lon": 0.0, "bike_id": "2e816569c380431b727c9c087e6247ed", "lat": 38.90410983333334, "is_disabled": 0, "lon": -76.9732835, "fusion_lat": 0.0, "rental_uris": {"ios": "https://dc.lft.to/lastmile_qr_scan", "android": "https://dc.lft.to/lastmile_qr_scan"}, "type": "electric_scooter"}, {"name": "214dcfb8158d672dfa0d5a2655dd44f0", "is_reserved": 0, "fusion_lon": 0.0, "bike_id": "214dcfb8158d672dfa0d5a2655dd44f0", "lat": 38.921586, "is_disabled": 0, "lon": -77.02513883333333, "fusion_lat": 0.0, "rental_uris": {"ios": "https://dc.lft.to/lastmile_qr_scan", "android": "https://dc.lft.to/lastmile_qr_scan"}, "type": "electric_scooter"}, {"name": "c9f60fed3ef260e23916652516945e92", "is_reserved": 0, "fusion_lon": 0.0, "bike_id": "c9f60fed3ef260e23916652516945e92", "lat": 38.8864265, "is_disabled": 0, "lon": -76.9820725, "fusion_lat": 0.0, "rental_uris": {"ios": "https://dc.lft.to/lastmile_qr_scan", "android": "https://dc.lft.to/lastmile_qr_scan"}, "type": "electric_scooter"}, {"name": "bd2dcd3208fb1663633992dbe2ba6bbd", "is_reserved": 0, "fusion_lon": 0.0, "bike_id": "bd2dcd3208fb1663633992dbe2ba6bbd", "lat": 38.910041, "is_disabled": 0, "lon": -76.9939255, "fusion_lat": 0.0, "rental_uris": {"ios": "https://dc.lft.to/lastmile_qr_scan", "android": "https://dc.lft.to/lastmile_qr_scan"}, "type": "electric_scooter"}, {"name": "bd8372f13af89dffcdc1d581fe9cf470", "is_reserved": 0, "fusion_lon": 0.0, "bike_id": "bd8372f13af89dffcdc1d581fe9cf470", "lat": 38.90263866666667, "is_disabled": 0, "lon": -77.03964666666667, "fusion_lat": 0.0, "rental_uris": {"ios": "https://dc.lft.to/lastmile_qr_scan", "android": "https://dc.lft.to/lastmile_qr_scan"}, "type": "electric_scooter"}, {"name": "504ac14dfc3493f5472909891d9ea2c5", "is_reserved": 0, "fusion_lon": 0.0, "bike_id": "504ac14dfc3493f5472909891d9ea2c5", "lat": 38.92422066666666, "is_disabled": 0, "lon": -77.021295, "fusion_lat": 0.0, "rental_uris": {"ios": "https://dc.lft.to/lastmile_qr_scan", "android": "https://dc.lft.to/lastmile_qr_scan"}, "type": "electric_scooter"}, {"name": "2c7c621780c3a04c1848e004f034e233", "is_reserved": 0, "fusion_lon": 0.0, "bike_id": "2c7c621780c3a04c1848e004f034e233", "lat": 38.8467735, "is_disabled": 0, "lon": -77.1393245, "fusion_lat": 0.0, "rental_uris": {"ios": "https://dc.lft.to/lastmile_qr_scan", "android": "https://dc.lft.to/lastmile_qr_scan"}, "type": "electric_bike"}, {"name": "2b09561a3b707ff8c52ea405fbc88b95", "is_reserved": 0, "fusion_lon": 0.0, "bike_id": "2b09561a3b707ff8c52ea405fbc88b95", "lat": 38.894678666666664, "is_disabled": 0, "lon": -77.04657166666667, "fusion_lat": 0.0, "rental_uris": {"ios": "https://dc.lft.to/lastmile_qr_scan", "android": "https://dc.lft.to/lastmile_qr_scan"}, "type": "electric_scooter"}, {"name": "0bb2a4fa6c5b601c1310f1555869ab4f", "is_reserved": 0, "fusion_lon": 0.0, "bike_id": "0bb2a4fa6c5b601c1310f1555869ab4f", "lat": 38.91471416666667, "is_disabled": 0, "lon": -76.9811065, "fusion_lat": 0.0, "rental_uris": {"ios": "https://dc.lft.to/lastmile_qr_scan", "android": "https://dc.lft.to/lastmile_qr_scan"}, "type": "electric_scooter"}, {"name": "24c32412723fcf5eac8fbea51612f090", "is_reserved": 0, "fusion_lon": 0.0, "bike_id": "24c32412723fcf5eac8fbea51612f090", "lat": 38.893707, "is_disabled": 0, "lon": -77.0395435, "fusion_lat": 0.0, "rental_uris": {"ios": "https://dc.lft.to/lastmile_qr_scan", "android": "https://dc.lft.to/lastmile_qr_scan"}, "type": "electric_scooter"}, {"name": "2f75d5bd20b3f0d29f5cef7daee50ff4", "is_reserved": 0, "fusion_lon": 0.0, "bike_id": "2f75d5bd20b3f0d29f5cef7daee50ff4", "lat": 38.89364283333333, "is_disabled": 0, "lon": -77.0156065, "fusion_lat": 0.0, "rental_uris": {"ios": "https://dc.lft.to/lastmile_qr_scan", "android": "https://dc.lft.to/lastmile_qr_scan"}, "type": "electric_scooter"}, {"name": "267941cb1a92449d6ebbed097dcf4504", "is_reserved": 0, "fusion_lon": 0.0, "bike_id": "267941cb1a92449d6ebbed097dcf4504", "lat": 38.897420833333335, "is_disabled": 0, "lon": -77.01833183333333, "fusion_lat": 0.0, "rental_uris": {"ios": "https://dc.lft.to/lastmile_qr_scan", "android": "https://dc.lft.to/lastmile_qr_scan"}, "type": "electric_scooter"}, {"name": "2c4e25ad87e21d74c08fcd944a984aa6", "is_reserved": 0, "fusion_lon": 0.0, "bike_id": "2c4e25ad87e21d74c08fcd944a984aa6", "lat": 38.919784666666665, "is_disabled": 0, "lon": -77.02510033333333, "fusion_lat": 0.0, "rental_uris": {"ios": "https://dc.lft.to/lastmile_qr_scan", "android": "https://dc.lft.to/lastmile_qr_scan"}, "type": "electric_scooter"}, {"name": "58559e4c767e48c0010776853ae0c528", "is_reserved": 0, "fusion_lon": 0.0, "bike_id": "58559e4c767e48c0010776853ae0c528", "lat": 38.921608666666664, "is_disabled": 0, "lon": -77.02515416666667, "fusion_lat": 0.0, "rental_uris": {"ios": "https://dc.lft.to/lastmile_qr_scan", "android": "https://dc.lft.to/lastmile_qr_scan"}, "type": "electric_scooter"}, {"name": "76468b4622c2d9433e4052a4d1a0e51c", "is_reserved": 0, "fusion_lon": 0.0, "bike_id": "76468b4622c2d9433e4052a4d1a0e51c", "lat": 38.90884333333333, "is_disabled": 0, "lon": -77.07530566666667, "fusion_lat": 0.0, "rental_uris": {"ios": "https://dc.lft.to/lastmile_qr_scan", "android": "https://dc.lft.to/lastmile_qr_scan"}, "type": "electric_scooter"}, {"name": "40f4a7d4d9e6e71f9b6da39c74985750", "is_reserved": 0, "fusion_lon": 0.0, "bike_id": "40f4a7d4d9e6e71f9b6da39c74985750", "lat": 38.8922495, "is_disabled": 0, "lon": -77.00304233333334, "fusion_lat": 0.0, "rental_uris": {"ios": "https://dc.lft.to/lastmile_qr_scan", "android": "https://dc.lft.to/lastmile_qr_scan"}, "type": "electric_scooter"}, {"name": "43134834ca72e00a9b2e4104c28c703e", "is_reserved": 0, "fusion_lon": 0.0, "bike_id": "43134834ca72e00a9b2e4104c28c703e", "lat": 38.924165333333335, "is_disabled": 0, "lon": -77.019451, "fusion_lat": 0.0, "rental_uris": {"ios": "https://dc.lft.to/lastmile_qr_scan", "android": "https://dc.lft.to/lastmile_qr_scan"}, "type": "electric_scooter"}, {"name": "e2e5f2c3f96525e70231304038163fa8", "is_reserved": 0, "fusion_lon": 0.0, "bike_id": "e2e5f2c3f96525e70231304038163fa8", "lat": 38.92753783333333, "is_disabled": 0, "lon": -77.0326515, "fusion_lat": 0.0, "rental_uris": {"ios": "https://dc.lft.to/lastmile_qr_scan", "android": "https://dc.lft.to/lastmile_qr_scan"}, "type": "electric_scooter"}, {"name": "fc8fd508cc9c8ae2676f4d8635f1cff6", "is_reserved": 0, "fusion_lon": 0.0, "bike_id": "fc8fd508cc9c8ae2676f4d8635f1cff6", "lat": 38.903695166666665, "is_disabled": 0, "lon": -77.02946883333334, "fusion_lat": 0.0, "rental_uris": {"ios": "https://dc.lft.to/lastmile_qr_scan", "android": "https://dc.lft.to/lastmile_qr_scan"}, "type": "electric_scooter"}, {"name": "0b7458c5177ac3d9f628f7e5c624906b", "is_reserved": 0, "fusion_lon": 0.0, "bike_id": "0b7458c5177ac3d9f628f7e5c624906b", "lat": 38.91366816666667, "is_disabled": 0, "lon": -77.016985, "fusion_lat": 0.0, "rental_uris": {"ios": "https://dc.lft.to/lastmile_qr_scan", "android": "https://dc.lft.to/lastmile_qr_scan"}, "type": "electric_scooter"}, {"name": "dbc3d194d3d5661c9ac263cd878901d5", "is_reserved": 0, "fusion_lon": 0.0, "bike_id": "dbc3d194d3d5661c9ac263cd878901d5", "lat": 38.888685333333335, "is_disabled": 0, "lon": -77.00178766666667, "fusion_lat": 0.0, "rental_uris": {"ios": "https://dc.lft.to/lastmile_qr_scan", "android": "https://dc.lft.to/lastmile_qr_scan"}, "type": "electric_scooter"}, {"name": "d04814b86eacb5ee0664e77b48f4b3b6", "is_reserved": 0, "fusion_lon": 0.0, "bike_id": "d04814b86eacb5ee0664e77b48f4b3b6", "lat": 38.920635, "is_disabled": 0, "lon": -77.03800233333334, "fusion_lat": 0.0, "rental_uris": {"ios": "https://dc.lft.to/lastmile_qr_scan", "android": "https://dc.lft.to/lastmile_qr_scan"}, "type": "electric_scooter"}, {"name": "e11e5b45290580345fa9e09227b18830", "is_reserved": 0, "fusion_lon": 0.0, "bike_id": "e11e5b45290580345fa9e09227b18830", "lat": 38.892308166666666, "is_disabled": 0, "lon": -77.049956, "fusion_lat": 0.0, "rental_uris": {"ios": "https://dc.lft.to/lastmile_qr_scan", "android": "https://dc.lft.to/lastmile_qr_scan"}, "type": "electric_scooter"}, {"name": "bba75d053ff7cb2aa322699603850cdf", "is_reserved": 0, "fusion_lon": 0.0, "bike_id": "bba75d053ff7cb2aa322699603850cdf", "lat": 38.882711, "is_disabled": 0, "lon": -76.99017016666667, "fusion_lat": 0.0, "rental_uris": {"ios": "https://dc.lft.to/lastmile_qr_scan", "android": "https://dc.lft.to/lastmile_qr_scan"}, "type": "electric_scooter"}, {"name": "9741d9eb0cf41ed2b2e5d8a091dfb485", "is_reserved": 0, "fusion_lon": 0.0, "bike_id": "9741d9eb0cf41ed2b2e5d8a091dfb485", "lat": 38.8974075, "is_disabled": 0, "lon": -76.992187, "fusion_lat": 0.0, "rental_uris": {"ios": "https://dc.lft.to/lastmile_qr_scan", "android": "https://dc.lft.to/lastmile_qr_scan"}, "type": "electric_scooter"}, {"name": "6db64720d0fdc8b5b4a449f0f7672ac7", "is_reserved": 0, "fusion_lon": 0.0, "bike_id": "6db64720d0fdc8b5b4a449f0f7672ac7", "lat": 38.89949516666667, "is_disabled": 0, "lon": -77.0279955, "fusion_lat": 0.0, "rental_uris": {"ios": "https://dc.lft.to/lastmile_qr_scan", "android": "https://dc.lft.to/lastmile_qr_scan"}, "type": "electric_scooter"}, {"name": "22a39376aae0bf5014f3b1787578e8aa", "is_reserved": 0, "fusion_lon": 0.0, "bike_id": "22a39376aae0bf5014f3b1787578e8aa", "lat": 38.91635516666667, "is_disabled": 0, "lon": -77.02552433333334, "fusion_lat": 0.0, "rental_uris": {"ios": "https://dc.lft.to/lastmile_qr_scan", "android": "https://dc.lft.to/lastmile_qr_scan"}, "type": "electric_scooter"}, {"name": "422d60f3d6f47ebc3cdf5fb813052ac3", "is_reserved": 0, "fusion_lon": 0.0, "bike_id": "422d60f3d6f47ebc3cdf5fb813052ac3", "lat": 38.89951383333333, "is_disabled": 0, "lon": -77.02622616666666, "fusion_lat": 0.0, "rental_uris": {"ios": "https://dc.lft.to/lastmile_qr_scan", "android": "https://dc.lft.to/lastmile_qr_scan"}, "type": "electric_scooter"}, {"name": "70928ea334ee8eeb5b30125415d826e0", "is_reserved": 0, "fusion_lon": 0.0, "bike_id": "70928ea334ee8eeb5b30125415d826e0", "lat": 38.914745333333336, "is_disabled": 0, "lon": -77.00886383333334, "fusion_lat": 0.0, "rental_uris": {"ios": "https://dc.lft.to/lastmile_qr_scan", "android": "https://dc.lft.to/lastmile_qr_scan"}, "type": "electric_scooter"}, {"name": "92bdf23f90d68397af03567c4f25db5c", "is_reserved": 0, "fusion_lon": 0.0, "bike_id": "92bdf23f90d68397af03567c4f25db5c", "lat": 38.90068616666667, "is_disabled": 0, "lon": -77.0268255, "fusion_lat": 0.0, "rental_uris": {"ios": "https://dc.lft.to/lastmile_qr_scan", "android": "https://dc.lft.to/lastmile_qr_scan"}, "type": "electric_scooter"}, {"name": "fcda281eff8dd8c002ff5d6eb8147606", "is_reserved": 0, "fusion_lon": 0.0, "bike_id": "fcda281eff8dd8c002ff5d6eb8147606", "lat": 38.894752, "is_disabled": 0, "lon": -77.00147166666666, "fusion_lat": 0.0, "rental_uris": {"ios": "https://dc.lft.to/lastmile_qr_scan", "android": "https://dc.lft.to/lastmile_qr_scan"}, "type": "electric_scooter"}, {"name": "dc8cd56bbbef336f0a19fdeaf54de302", "is_reserved": 0, "fusion_lon": 0.0, "bike_id": "dc8cd56bbbef336f0a19fdeaf54de302", "lat": 38.9043325, "is_disabled": 0, "lon": -77.03452383333334, "fusion_lat": 0.0, "rental_uris": {"ios": "https://dc.lft.to/lastmile_qr_scan", "android": "https://dc.lft.to/lastmile_qr_scan"}, "type": "electric_scooter"}, {"name": "3b5f8eab4461eb74560eb7c819492470", "is_reserved": 0, "fusion_lon": 0.0, "bike_id": "3b5f8eab4461eb74560eb7c819492470", "lat": 38.880096333333334, "is_disabled": 0, "lon": -77.0248975, "fusion_lat": 0.0, "rental_uris": {"ios": "https://dc.lft.to/lastmile_qr_scan", "android": "https://dc.lft.to/lastmile_qr_scan"}, "type": "electric_scooter"}, {"name": "70e4cc1ecf6dee8e86717b67e7c559ae", "is_reserved": 0, "fusion_lon": 0.0, "bike_id": "70e4cc1ecf6dee8e86717b67e7c559ae", "lat": 38.93731583333334, "is_disabled": 0, "lon": -77.03280783333334, "fusion_lat": 0.0, "rental_uris": {"ios": "https://dc.lft.to/lastmile_qr_scan", "android": "https://dc.lft.to/lastmile_qr_scan"}, "type": "electric_scooter"}, {"name": "9b731b39940cb3e0ab4d3d0f9bc7ae43", "is_reserved": 0, "fusion_lon": 0.0, "bike_id": "9b731b39940cb3e0ab4d3d0f9bc7ae43", "lat": 38.89836833333333, "is_disabled": 0, "lon": -77.03938916666667, "fusion_lat": 0.0, "rental_uris": {"ios": "https://dc.lft.to/lastmile_qr_scan", "android": "https://dc.lft.to/lastmile_qr_scan"}, "type": "electric_scooter"}, {"name": "40639eea529d8c54ae461aa671801748", "is_reserved": 0, "fusion_lon": 0.0, "bike_id": "40639eea529d8c54ae461aa671801748", "lat": 38.92324583333333, "is_disabled": 0, "lon": -77.01956783333333, "fusion_lat": 0.0, "rental_uris": {"ios": "https://dc.lft.to/lastmile_qr_scan", "android": "https://dc.lft.to/lastmile_qr_scan"}, "type": "electric_scooter"}, {"name": "24b3ed5a8260d2a00fef535d0a76f618", "is_reserved": 0, "fusion_lon": 0.0, "bike_id": "24b3ed5a8260d2a00fef535d0a76f618", "lat": 38.87175466666667, "is_disabled": 0, "lon": -77.233944, "fusion_lat": 0.0, "rental_uris": {"ios": "https://dc.lft.to/lastmile_qr_scan", "android": "https://dc.lft.to/lastmile_qr_scan"}, "type": "electric_bike"}, {"name": "15a38712c5d4ebe1e3a66ef60e3ab86d", "is_reserved": 0, "fusion_lon": 0.0, "bike_id": "15a38712c5d4ebe1e3a66ef60e3ab86d", "lat": 38.97808783333333, "is_disabled": 0, "lon": -77.09402233333333, "fusion_lat": 0.0, "rental_uris": {"ios": "https://dc.lft.to/lastmile_qr_scan", "android": "https://dc.lft.to/lastmile_qr_scan"}, "type": "electric_bike"}, {"name": "2700c18f23486f0f137be4e3eec4f3d9", "is_reserved": 0, "fusion_lon": 0.0, "bike_id": "2700c18f23486f0f137be4e3eec4f3d9", "lat": 38.87282733333333, "is_disabled": 0, "lon": -77.01515433333333, "fusion_lat": 0.0, "rental_uris": {"ios": "https://dc.lft.to/lastmile_qr_scan", "android": "https://dc.lft.to/lastmile_qr_scan"}, "type": "electric_scooter"}, {"name": "aa1c15cf9f50e472a2bfdc44e556317c", "is_reserved": 0, "fusion_lon": 0.0, "bike_id": "aa1c15cf9f50e472a2bfdc44e556317c", "lat": 38.902155, "is_disabled": 0, "lon": -77.0230335, "fusion_lat": 0.0, "rental_uris": {"ios": "https://dc.lft.to/lastmile_qr_scan", "android": "https://dc.lft.to/lastmile_qr_scan"}, "type": "electric_scooter"}, {"name": "ab1cc789774637413d868c4cf4d875f4", "is_reserved": 0, "fusion_lon": 0.0, "bike_id": "ab1cc789774637413d868c4cf4d875f4", "lat": 38.93897116666667, "is_disabled": 0, "lon": -77.02484633333333, "fusion_lat": 0.0, "rental_uris": {"ios": "https://dc.lft.to/lastmile_qr_scan", "android": "https://dc.lft.to/lastmile_qr_scan"}, "type": "electric_scooter"}, {"name": "821ea505fc30e11655472af2aa11e521", "is_reserved": 0, "fusion_lon": 0.0, "bike_id": "821ea505fc30e11655472af2aa11e521", "lat": 38.80739233333333, "is_disabled": 0, "lon": -77.09685816666666, "fusion_lat": 0.0, "rental_uris": {"ios": "https://dc.lft.to/lastmile_qr_scan", "android": "https://dc.lft.to/lastmile_qr_scan"}, "type": "electric_bike"}, {"name": "f13ab822a9c4a4b56bd4ce9b172700a6", "is_reserved": 0, "fusion_lon": 0.0, "bike_id": "f13ab822a9c4a4b56bd4ce9b172700a6", "lat": 38.883595166666666, "is_disabled": 0, "lon": -76.94153383333334, "fusion_lat": 0.0, "rental_uris": {"ios": "https://dc.lft.to/lastmile_qr_scan", "android": "https://dc.lft.to/lastmile_qr_scan"}, "type": "electric_scooter"}, {"name": "0ef1eb4ef66fcf3724756c1846df4b5a", "is_reserved": 0, "fusion_lon": 0.0, "bike_id": "0ef1eb4ef66fcf3724756c1846df4b5a", "lat": 38.86080333333334, "is_disabled": 0, "lon": -76.983735, "fusion_lat": 0.0, "rental_uris": {"ios": "https://dc.lft.to/lastmile_qr_scan", "android": "https://dc.lft.to/lastmile_qr_scan"}, "type": "electric_scooter"}, {"name": "f450324a6fc72d66a3f9d2be17519157", "is_reserved": 0, "fusion_lon": 0.0, "bike_id": "f450324a6fc72d66a3f9d2be17519157", "lat": 38.9205985, "is_disabled": 0, "lon": -77.042445, "fusion_lat": 0.0, "rental_uris": {"ios": "https://dc.lft.to/lastmile_qr_scan", "android": "https://dc.lft.to/lastmile_qr_scan"}, "type": "electric_scooter"}, {"name": "5e7eee3af939bebbb0137d79ca50ca89", "is_reserved": 0, "fusion_lon": 0.0, "bike_id": "5e7eee3af939bebbb0137d79ca50ca89", "lat": 38.90080366666667, "is_disabled": 0, "lon": -77.050011, "fusion_lat": 0.0, "rental_uris": {"ios": "https://dc.lft.to/lastmile_qr_scan", "android": "https://dc.lft.to/lastmile_qr_scan"}, "type": "electric_scooter"}, {"name": "3ff514ea300960f2e43710aff844f3f8", "is_reserved": 0, "fusion_lon": 0.0, "bike_id": "3ff514ea300960f2e43710aff844f3f8", "lat": 38.89975733333333, "is_disabled": 0, "lon": -77.02971116666667, "fusion_lat": 0.0, "rental_uris": {"ios": "https://dc.lft.to/lastmile_qr_scan", "android": "https://dc.lft.to/lastmile_qr_scan"}, "type": "electric_scooter"}, {"name": "9b96c9e77cc5982e128ee710827ef487", "is_reserved": 0, "fusion_lon": 0.0, "bike_id": "9b96c9e77cc5982e128ee710827ef487", "lat": 38.92322016666667, "is_disabled": 0, "lon": -77.02117133333333, "fusion_lat": 0.0, "rental_uris": {"ios": "https://dc.lft.to/lastmile_qr_scan", "android": "https://dc.lft.to/lastmile_qr_scan"}, "type": "electric_scooter"}, {"name": "feb5616411fcf9af4a316abee999cf03", "is_reserved": 0, "fusion_lon": 0.0, "bike_id": "feb5616411fcf9af4a316abee999cf03", "lat": 38.902754, "is_disabled": 0, "lon": -77.0469945, "fusion_lat": 0.0, "rental_uris": {"ios": "https://dc.lft.to/lastmile_qr_scan", "android": "https://dc.lft.to/lastmile_qr_scan"}, "type": "electric_scooter"}, {"name": "44d12011aa3db0f60cef7b188a118a71", "is_reserved": 0, "fusion_lon": 0.0, "bike_id": "44d12011aa3db0f60cef7b188a118a71", "lat": 38.895033833333336, "is_disabled": 0, "lon": -76.93475066666667, "fusion_lat": 0.0, "rental_uris": {"ios": "https://dc.lft.to/lastmile_qr_scan", "android": "https://dc.lft.to/lastmile_qr_scan"}, "type": "electric_scooter"}, {"name": "0410bae13c13ea2cab7f580dd7a5011c", "is_reserved": 0, "fusion_lon": 0.0, "bike_id": "0410bae13c13ea2cab7f580dd7a5011c", "lat": 38.9084975, "is_disabled": 0, "lon": -77.0026005, "fusion_lat": 0.0, "rental_uris": {"ios": "https://dc.lft.to/lastmile_qr_scan", "android": "https://dc.lft.to/lastmile_qr_scan"}, "type": "electric_scooter"}, {"name": "d65a8dbf3a7f684b5228660adf539060", "is_reserved": 0, "fusion_lon": 0.0, "bike_id": "d65a8dbf3a7f684b5228660adf539060", "lat": 38.87785433333333, "is_disabled": 0, "lon": -76.99948733333333, "fusion_lat": 0.0, "rental_uris": {"ios": "https://dc.lft.to/lastmile_qr_scan", "android": "https://dc.lft.to/lastmile_qr_scan"}, "type": "electric_scooter"}, {"name": "55be272033db8321d5ba3d84511d8ea1", "is_reserved": 0, "fusion_lon": 0.0, "bike_id": "55be272033db8321d5ba3d84511d8ea1", "lat": 38.902401833333336, "is_disabled": 0, "lon": -77.03589483333333, "fusion_lat": 0.0, "rental_uris": {"ios": "https://dc.lft.to/lastmile_qr_scan", "android": "https://dc.lft.to/lastmile_qr_scan"}, "type": "electric_scooter"}, {"name": "95e3e3931e6789d255f2d8d4cf04b06d", "is_reserved": 0, "fusion_lon": 0.0, "bike_id": "95e3e3931e6789d255f2d8d4cf04b06d", "lat": 38.91785266666667, "is_disabled": 0, "lon": -77.02339066666667, "fusion_lat": 0.0, "rental_uris": {"ios": "https://dc.lft.to/lastmile_qr_scan", "android": "https://dc.lft.to/lastmile_qr_scan"}, "type": "electric_scooter"}, {"name": "d51fa6402f2895758250c9d974b2d202", "is_reserved": 0, "fusion_lon": 0.0, "bike_id": "d51fa6402f2895758250c9d974b2d202", "lat": 38.9192635, "is_disabled": 0, "lon": -77.039529, "fusion_lat": 0.0, "rental_uris": {"ios": "https://dc.lft.to/lastmile_qr_scan", "android": "https://dc.lft.to/lastmile_qr_scan"}, "type": "electric_scooter"}, {"name": "3edcae45ace4e43850ed2afb1ee13df8", "is_reserved": 0, "fusion_lon": 0.0, "bike_id": "3edcae45ace4e43850ed2afb1ee13df8", "lat": 38.89874983333333, "is_disabled": 0, "lon": -76.94667233333334, "fusion_lat": 0.0, "rental_uris": {"ios": "https://dc.lft.to/lastmile_qr_scan", "android": "https://dc.lft.to/lastmile_qr_scan"}, "type": "electric_scooter"}, {"name": "9fdc4fc232387ccc7a6b4485b66e25c9", "is_reserved": 0, "fusion_lon": 0.0, "bike_id": "9fdc4fc232387ccc7a6b4485b66e25c9", "lat": 38.8731385, "is_disabled": 0, "lon": -77.01066916666667, "fusion_lat": 0.0, "rental_uris": {"ios": "https://dc.lft.to/lastmile_qr_scan", "android": "https://dc.lft.to/lastmile_qr_scan"}, "type": "electric_scooter"}, {"name": "7445d90f77e1da84ca6f7d92706481aa", "is_reserved": 0, "fusion_lon": 0.0, "bike_id": "7445d90f77e1da84ca6f7d92706481aa", "lat": 38.93207533333333, "is_disabled": 0, "lon": -77.02666316666667, "fusion_lat": 0.0, "rental_uris": {"ios": "https://dc.lft.to/lastmile_qr_scan", "android": "https://dc.lft.to/lastmile_qr_scan"}, "type": "electric_scooter"}, {"name": "45a419291d0259ec1a955ece2dbcbb65", "is_reserved": 0, "fusion_lon": 0.0, "bike_id": "45a419291d0259ec1a955ece2dbcbb65", "lat": 38.90707833333333, "is_disabled": 0, "lon": -77.02806883333334, "fusion_lat": 0.0, "rental_uris": {"ios": "https://dc.lft.to/lastmile_qr_scan", "android": "https://dc.lft.to/lastmile_qr_scan"}, "type": "electric_scooter"}, {"name": "3abaf9df32cd1fa63a01c6dbebd8f8db", "is_reserved": 0, "fusion_lon": 0.0, "bike_id": "3abaf9df32cd1fa63a01c6dbebd8f8db", "lat": 38.92061366666667, "is_disabled": 0, "lon": -77.0419625, "fusion_lat": 0.0, "rental_uris": {"ios": "https://dc.lft.to/lastmile_qr_scan", "android": "https://dc.lft.to/lastmile_qr_scan"}, "type": "electric_scooter"}, {"name": "3a157d1240a601680e081fc563771285", "is_reserved": 0, "fusion_lon": 0.0, "bike_id": "3a157d1240a601680e081fc563771285", "lat": 38.9241825, "is_disabled": 0, "lon": -77.02029716666667, "fusion_lat": 0.0, "rental_uris": {"ios": "https://dc.lft.to/lastmile_qr_scan", "android": "https://dc.lft.to/lastmile_qr_scan"}, "type": "electric_scooter"}, {"name": "7e29a4ed2c1c7a5911652e721e277841", "is_reserved": 0, "fusion_lon": 0.0, "bike_id": "7e29a4ed2c1c7a5911652e721e277841", "lat": 38.92366416666667, "is_disabled": 0, "lon": -77.0213285, "fusion_lat": 0.0, "rental_uris": {"ios": "https://dc.lft.to/lastmile_qr_scan", "android": "https://dc.lft.to/lastmile_qr_scan"}, "type": "electric_scooter"}, {"name": "68e1dd7d66ed08378d0d99750b2d26de", "is_reserved": 0, "fusion_lon": 0.0, "bike_id": "68e1dd7d66ed08378d0d99750b2d26de", "lat": 39.03425216666667, "is_disabled": 0, "lon": -77.04309616666667, "fusion_lat": 0.0, "rental_uris": {"ios": "https://dc.lft.to/lastmile_qr_scan", "android": "https://dc.lft.to/lastmile_qr_scan"}, "type": "electric_bike"}, {"name": "6b0ac069e2a69e1bc50db5d169b90584", "is_reserved": 0, "fusion_lon": 0.0, "bike_id": "6b0ac069e2a69e1bc50db5d169b90584", "lat": 38.880298333333336, "is_disabled": 0, "lon": -76.98492916666666, "fusion_lat": 0.0, "rental_uris": {"ios": "https://dc.lft.to/lastmile_qr_scan", "android": "https://dc.lft.to/lastmile_qr_scan"}, "type": "electric_scooter"}, {"name": "a8a8473b7aa1c3c0a786ce3a8ac7cc00", "is_reserved": 0, "fusion_lon": 0.0, "bike_id": "a8a8473b7aa1c3c0a786ce3a8ac7cc00", "lat": 39.00648066666667, "is_disabled": 0, "lon": -76.900191, "fusion_lat": 0.0, "rental_uris": {"ios": "https://dc.lft.to/lastmile_qr_scan", "android": "https://dc.lft.to/lastmile_qr_scan"}, "type": "electric_bike"}, {"name": "c3d7c0f31cd7edadda3c05ab366ef31d", "is_reserved": 0, "fusion_lon": 0.0, "bike_id": "c3d7c0f31cd7edadda3c05ab366ef31d", "lat": 38.924549, "is_disabled": 0, "lon": -77.02239483333334, "fusion_lat": 0.0, "rental_uris": {"ios": "https://dc.lft.to/lastmile_qr_scan", "android": "https://dc.lft.to/lastmile_qr_scan"}, "type": "electric_scooter"}, {"name": "daaeb207a8208646f457809d38cf2519", "is_reserved": 0, "fusion_lon": 0.0, "bike_id": "daaeb207a8208646f457809d38cf2519", "lat": 38.885354166666666, "is_disabled": 0, "lon": -76.98051666666667, "fusion_lat": 0.0, "rental_uris": {"ios": "https://dc.lft.to/lastmile_qr_scan", "android": "https://dc.lft.to/lastmile_qr_scan"}, "type": "electric_scooter"}, {"name": "b9f771bcd871c22ee5df073347cc3ad3", "is_reserved": 0, "fusion_lon": 0.0, "bike_id": "b9f771bcd871c22ee5df073347cc3ad3", "lat": 38.852439333333336, "is_disabled": 0, "lon": -77.11406966666667, "fusion_lat": 0.0, "rental_uris": {"ios": "https://dc.lft.to/lastmile_qr_scan", "android": "https://dc.lft.to/lastmile_qr_scan"}, "type": "electric_bike"}, {"name": "96a73095c0b5f892fcbb0b6c1534a5cf", "is_reserved": 0, "fusion_lon": 0.0, "bike_id": "96a73095c0b5f892fcbb0b6c1534a5cf", "lat": 38.876174666666664, "is_disabled": 0, "lon": -77.00672666666667, "fusion_lat": 0.0, "rental_uris": {"ios": "https://dc.lft.to/lastmile_qr_scan", "android": "https://dc.lft.to/lastmile_qr_scan"}, "type": "electric_scooter"}, {"name": "1995d281f2c28de04ffba5a05be7e789", "is_reserved": 0, "fusion_lon": 0.0, "bike_id": "1995d281f2c28de04ffba5a05be7e789", "lat": 38.905888166666664, "is_disabled": 0, "lon": -77.01615983333333, "fusion_lat": 0.0, "rental_uris": {"ios": "https://dc.lft.to/lastmile_qr_scan", "android": "https://dc.lft.to/lastmile_qr_scan"}, "type": "electric_scooter"}, {"name": "34d1af3f76faf14e0d3432439571b850", "is_reserved": 0, "fusion_lon": 0.0, "bike_id": "34d1af3f76faf14e0d3432439571b850", "lat": 38.923286833333336, "is_disabled": 0, "lon": -77.01954583333334, "fusion_lat": 0.0, "rental_uris": {"ios": "https://dc.lft.to/lastmile_qr_scan", "android": "https://dc.lft.to/lastmile_qr_scan"}, "type": "electric_scooter"}, {"name": "d68bea21ca2685150cdff787ded8151b", "is_reserved": 0, "fusion_lon": 0.0, "bike_id": "d68bea21ca2685150cdff787ded8151b", "lat": 38.908308, "is_disabled": 0, "lon": -76.93471233333334, "fusion_lat": 0.0, "rental_uris": {"ios": "https://dc.lft.to/lastmile_qr_scan", "android": "https://dc.lft.to/lastmile_qr_scan"}, "type": "electric_scooter"}, {"name": "dcfbec36da6c7b4c9e66b84e5c72d1cc", "is_reserved": 0, "fusion_lon": 0.0, "bike_id": "dcfbec36da6c7b4c9e66b84e5c72d1cc", "lat": 38.9243295, "is_disabled": 0, "lon": -77.042504, "fusion_lat": 0.0, "rental_uris": {"ios": "https://dc.lft.to/lastmile_qr_scan", "android": "https://dc.lft.to/lastmile_qr_scan"}, "type": "electric_scooter"}, {"name": "92311bb056c2d5333e68eedf8872260e", "is_reserved": 0, "fusion_lon": 0.0, "bike_id": "92311bb056c2d5333e68eedf8872260e", "lat": 38.919250166666664, "is_disabled": 0, "lon": -77.02484166666666, "fusion_lat": 0.0, "rental_uris": {"ios": "https://dc.lft.to/lastmile_qr_scan", "android": "https://dc.lft.to/lastmile_qr_scan"}, "type": "electric_scooter"}, {"name": "d9166af0643ec4f152dc77f9a68874ea", "is_reserved": 0, "fusion_lon": 0.0, "bike_id": "d9166af0643ec4f152dc77f9a68874ea", "lat": 38.9039405, "is_disabled": 0, "lon": -76.990026, "fusion_lat": 0.0, "rental_uris": {"ios": "https://dc.lft.to/lastmile_qr_scan", "android": "https://dc.lft.to/lastmile_qr_scan"}, "type": "electric_scooter"}, {"name": "f54fd5f1adb22900ae49d0510c95545a", "is_reserved": 0, "fusion_lon": 0.0, "bike_id": "f54fd5f1adb22900ae49d0510c95545a", "lat": 38.899526, "is_disabled": 0, "lon": -77.04719766666666, "fusion_lat": 0.0, "rental_uris": {"ios": "https://dc.lft.to/lastmile_qr_scan", "android": "https://dc.lft.to/lastmile_qr_scan"}, "type": "electric_scooter"}, {"name": "728e091af2a7bbf63576e3b60aca208e", "is_reserved": 0, "fusion_lon": 0.0, "bike_id": "728e091af2a7bbf63576e3b60aca208e", "lat": 38.90502133333333, "is_disabled": 0, "lon": -77.030223, "fusion_lat": 0.0, "rental_uris": {"ios": "https://dc.lft.to/lastmile_qr_scan", "android": "https://dc.lft.to/lastmile_qr_scan"}, "type": "electric_scooter"}, {"name": "02dc7cf9c0421a87c6c5f4b17a638ce2", "is_reserved": 0, "fusion_lon": 0.0, "bike_id": "02dc7cf9c0421a87c6c5f4b17a638ce2", "lat": 38.910475166666664, "is_disabled": 0, "lon": -77.0151625, "fusion_lat": 0.0, "rental_uris": {"ios": "https://dc.lft.to/lastmile_qr_scan", "android": "https://dc.lft.to/lastmile_qr_scan"}, "type": "electric_scooter"}, {"name": "934b8473fcffc38b73e90405f42976d8", "is_reserved": 0, "fusion_lon": 0.0, "bike_id": "934b8473fcffc38b73e90405f42976d8", "lat": 38.9203665, "is_disabled": 0, "lon": -76.97953916666667, "fusion_lat": 0.0, "rental_uris": {"ios": "https://dc.lft.to/lastmile_qr_scan", "android": "https://dc.lft.to/lastmile_qr_scan"}, "type": "electric_bike"}, {"name": "523c046f4b4752e8229e19c0464ac65f", "is_reserved": 0, "fusion_lon": 0.0, "bike_id": "523c046f4b4752e8229e19c0464ac65f", "lat": 38.83607216666667, "is_disabled": 0, "lon": -77.0037365, "fusion_lat": 0.0, "rental_uris": {"ios": "https://dc.lft.to/lastmile_qr_scan", "android": "https://dc.lft.to/lastmile_qr_scan"}, "type": "electric_bike"}, {"name": "0a7b1aa358ec2fb88f4194fb06095bd9", "is_reserved": 0, "fusion_lon": 0.0, "bike_id": "0a7b1aa358ec2fb88f4194fb06095bd9", "lat": 38.91337933333333, "is_disabled": 0, "lon": -77.04729566666667, "fusion_lat": 0.0, "rental_uris": {"ios": "https://dc.lft.to/lastmile_qr_scan", "android": "https://dc.lft.to/lastmile_qr_scan"}, "type": "electric_scooter"}, {"name": "906f95160f029ecb00a6e1dbdd9d976b", "is_reserved": 0, "fusion_lon": 0.0, "bike_id": "906f95160f029ecb00a6e1dbdd9d976b", "lat": 38.833801333333334, "is_disabled": 0, "lon": -77.00295616666666, "fusion_lat": 0.0, "rental_uris": {"ios": "https://dc.lft.to/lastmile_qr_scan", "android": "https://dc.lft.to/lastmile_qr_scan"}, "type": "electric_scooter"}, {"name": "2e5fa182ca40c301c42fe9de4d4b6f70", "is_reserved": 0, "fusion_lon": 0.0, "bike_id": "2e5fa182ca40c301c42fe9de4d4b6f70", "lat": 38.96650266666666, "is_disabled": 0, "lon": -77.02746933333333, "fusion_lat": 0.0, "rental_uris": {"ios": "https://dc.lft.to/lastmile_qr_scan", "android": "https://dc.lft.to/lastmile_qr_scan"}, "type": "electric_scooter"}, {"name": "75bbc290c1d4f5857e9042c71dc3a69c", "is_reserved": 0, "fusion_lon": 0.0, "bike_id": "75bbc290c1d4f5857e9042c71dc3a69c", "lat": 38.917297833333336, "is_disabled": 0, "lon": -77.0320065, "fusion_lat": 0.0, "rental_uris": {"ios": "https://dc.lft.to/lastmile_qr_scan", "android": "https://dc.lft.to/lastmile_qr_scan"}, "type": "electric_scooter"}, {"name": "6365ed59f82eb1afe45621a746ead4f5", "is_reserved": 0, "fusion_lon": 0.0, "bike_id": "6365ed59f82eb1afe45621a746ead4f5", "lat": 38.925656833333335, "is_disabled": 0, "lon": -77.02692733333333, "fusion_lat": 0.0, "rental_uris": {"ios": "https://dc.lft.to/lastmile_qr_scan", "android": "https://dc.lft.to/lastmile_qr_scan"}, "type": "electric_scooter"}, {"name": "654ed1a0052d4ba9939f5a7516b7567a", "is_reserved": 0, "fusion_lon": 0.0, "bike_id": "654ed1a0052d4ba9939f5a7516b7567a", "lat": 38.920651166666666, "is_disabled": 0, "lon": -77.03282066666667, "fusion_lat": 0.0, "rental_uris": {"ios": "https://dc.lft.to/lastmile_qr_scan", "android": "https://dc.lft.to/lastmile_qr_scan"}, "type": "electric_scooter"}, {"name": "8a349a772693a7933dc5a2d9e6dc8737", "is_reserved": 0, "fusion_lon": 0.0, "bike_id": "8a349a772693a7933dc5a2d9e6dc8737", "lat": 38.8951415, "is_disabled": 0, "lon": -77.02412083333333, "fusion_lat": 0.0, "rental_uris": {"ios": "https://dc.lft.to/lastmile_qr_scan", "android": "https://dc.lft.to/lastmile_qr_scan"}, "type": "electric_scooter"}, {"name": "7cbaa5311105c00ddb1846f324fa13fa", "is_reserved": 0, "fusion_lon": 0.0, "bike_id": "7cbaa5311105c00ddb1846f324fa13fa", "lat": 38.9084895, "is_disabled": 0, "lon": -77.063727, "fusion_lat": 0.0, "rental_uris": {"ios": "https://dc.lft.to/lastmile_qr_scan", "android": "https://dc.lft.to/lastmile_qr_scan"}, "type": "electric_scooter"}, {"name": "628830caa0fd8dcbee66a2cfda0067b2", "is_reserved": 0, "fusion_lon": 0.0, "bike_id": "628830caa0fd8dcbee66a2cfda0067b2", "lat": 38.903450666666664, "is_disabled": 0, "lon": -77.05253783333333, "fusion_lat": 0.0, "rental_uris": {"ios": "https://dc.lft.to/lastmile_qr_scan", "android": "https://dc.lft.to/lastmile_qr_scan"}, "type": "electric_scooter"}, {"name": "503a6e3bf75c1582cc53c86d790eb70e", "is_reserved": 0, "fusion_lon": 0.0, "bike_id": "503a6e3bf75c1582cc53c86d790eb70e", "lat": 38.88875516666667, "is_disabled": 0, "lon": -76.95696816666667, "fusion_lat": 0.0, "rental_uris": {"ios": "https://dc.lft.to/lastmile_qr_scan", "android": "https://dc.lft.to/lastmile_qr_scan"}, "type": "electric_bike"}, {"name": "618cfd86bafa75b9b0d6a86939578319", "is_reserved": 0, "fusion_lon": 0.0, "bike_id": "618cfd86bafa75b9b0d6a86939578319", "lat": 38.88277683333333, "is_disabled": 0, "lon": -76.9323455, "fusion_lat": 0.0, "rental_uris": {"ios": "https://dc.lft.to/lastmile_qr_scan", "android": "https://dc.lft.to/lastmile_qr_scan"}, "type": "electric_bike"}, {"name": "0c0d8de3d0b15aa3acfe1e6c8efe4f4a", "is_reserved": 0, "fusion_lon": 0.0, "bike_id": "0c0d8de3d0b15aa3acfe1e6c8efe4f4a", "lat": 38.91906783333334, "is_disabled": 0, "lon": -77.04169916666666, "fusion_lat": 0.0, "rental_uris": {"ios": "https://dc.lft.to/lastmile_qr_scan", "android": "https://dc.lft.to/lastmile_qr_scan"}, "type": "electric_scooter"}, {"name": "fa71fb249c9afd3b3e228baf5239e579", "is_reserved": 0, "fusion_lon": 0.0, "bike_id": "fa71fb249c9afd3b3e228baf5239e579", "lat": 38.94718366666667, "is_disabled": 0, "lon": -77.02978566666667, "fusion_lat": 0.0, "rental_uris": {"ios": "https://dc.lft.to/lastmile_qr_scan", "android": "https://dc.lft.to/lastmile_qr_scan"}, "type": "electric_scooter"}, {"name": "ccbbad805d5e668d8b7c57ad4b586691", "is_reserved": 0, "fusion_lon": 0.0, "bike_id": "ccbbad805d5e668d8b7c57ad4b586691", "lat": 38.9095565, "is_disabled": 0, "lon": -77.01433066666667, "fusion_lat": 0.0, "rental_uris": {"ios": "https://dc.lft.to/lastmile_qr_scan", "android": "https://dc.lft.to/lastmile_qr_scan"}, "type": "electric_scooter"}, {"name": "5a6fa488238b529c884712c10d85a7c8", "is_reserved": 0, "fusion_lon": 0.0, "bike_id": "5a6fa488238b529c884712c10d85a7c8", "lat": 38.9124765, "is_disabled": 0, "lon": -77.02963566666666, "fusion_lat": 0.0, "rental_uris": {"ios": "https://dc.lft.to/lastmile_qr_scan", "android": "https://dc.lft.to/lastmile_qr_scan"}, "type": "electric_scooter"}, {"name": "793e18c21662bf858d4d597d7c243bab", "is_reserved": 0, "fusion_lon": 0.0, "bike_id": "793e18c21662bf858d4d597d7c243bab", "lat": 38.917863, "is_disabled": 0, "lon": -77.02496566666667, "fusion_lat": 0.0, "rental_uris": {"ios": "https://dc.lft.to/lastmile_qr_scan", "android": "https://dc.lft.to/lastmile_qr_scan"}, "type": "electric_scooter"}, {"name": "42ecbeb09fff67613dd400e0bae84b29", "is_reserved": 0, "fusion_lon": 0.0, "bike_id": "42ecbeb09fff67613dd400e0bae84b29", "lat": 38.940628, "is_disabled": 0, "lon": -77.02120383333333, "fusion_lat": 0.0, "rental_uris": {"ios": "https://dc.lft.to/lastmile_qr_scan", "android": "https://dc.lft.to/lastmile_qr_scan"}, "type": "electric_scooter"}, {"name": "c045ed2a1ce788952da3fc201671cd2a", "is_reserved": 0, "fusion_lon": 0.0, "bike_id": "c045ed2a1ce788952da3fc201671cd2a", "lat": 38.901260666666666, "is_disabled": 0, "lon": -77.0395065, "fusion_lat": 0.0, "rental_uris": {"ios": "https://dc.lft.to/lastmile_qr_scan", "android": "https://dc.lft.to/lastmile_qr_scan"}, "type": "electric_scooter"}, {"name": "e7bd4509b5e429f33850ea0d7f918917", "is_reserved": 0, "fusion_lon": 0.0, "bike_id": "e7bd4509b5e429f33850ea0d7f918917", "lat": 38.897509666666664, "is_disabled": 0, "lon": -77.04497166666667, "fusion_lat": 0.0, "rental_uris": {"ios": "https://dc.lft.to/lastmile_qr_scan", "android": "https://dc.lft.to/lastmile_qr_scan"}, "type": "electric_scooter"}, {"name": "09cd7a463252cf8b25aa13c3fdca9eb2", "is_reserved": 0, "fusion_lon": 0.0, "bike_id": "09cd7a463252cf8b25aa13c3fdca9eb2", "lat": 38.90028733333333, "is_disabled": 0, "lon": -76.988369, "fusion_lat": 0.0, "rental_uris": {"ios": "https://dc.lft.to/lastmile_qr_scan", "android": "https://dc.lft.to/lastmile_qr_scan"}, "type": "electric_scooter"}, {"name": "591e240321e7ef76853fa7dda8488dc8", "is_reserved": 0, "fusion_lon": 0.0, "bike_id": "591e240321e7ef76853fa7dda8488dc8", "lat": 38.90410216666667, "is_disabled": 0, "lon": -76.97328016666667, "fusion_lat": 0.0, "rental_uris": {"ios": "https://dc.lft.to/lastmile_qr_scan", "android": "https://dc.lft.to/lastmile_qr_scan"}, "type": "electric_scooter"}, {"name": "dba4bbd2320eb6ed68b16435dcf8254c", "is_reserved": 0, "fusion_lon": 0.0, "bike_id": "dba4bbd2320eb6ed68b16435dcf8254c", "lat": 38.917705833333336, "is_disabled": 0, "lon": -77.03195533333333, "fusion_lat": 0.0, "rental_uris": {"ios": "https://dc.lft.to/lastmile_qr_scan", "android": "https://dc.lft.to/lastmile_qr_scan"}, "type": "electric_scooter"}, {"name": "9333ca997ef6538593caf8e067d5b93b", "is_reserved": 0, "fusion_lon": 0.0, "bike_id": "9333ca997ef6538593caf8e067d5b93b", "lat": 38.86032433333333, "is_disabled": 0, "lon": -76.98371283333333, "fusion_lat": 0.0, "rental_uris": {"ios": "https://dc.lft.to/lastmile_qr_scan", "android": "https://dc.lft.to/lastmile_qr_scan"}, "type": "electric_scooter"}, {"name": "9a7ce5f40155d031ca42827ccbdc34c1", "is_reserved": 0, "fusion_lon": 0.0, "bike_id": "9a7ce5f40155d031ca42827ccbdc34c1", "lat": 38.90122316666667, "is_disabled": 0, "lon": -76.9817105, "fusion_lat": 0.0, "rental_uris": {"ios": "https://dc.lft.to/lastmile_qr_scan", "android": "https://dc.lft.to/lastmile_qr_scan"}, "type": "electric_scooter"}, {"name": "5874cca9eb275bc8e7612a9c021e0a64", "is_reserved": 0, "fusion_lon": 0.0, "bike_id": "5874cca9eb275bc8e7612a9c021e0a64", "lat": 38.937812666666666, "is_disabled": 0, "lon": -77.01992066666666, "fusion_lat": 0.0, "rental_uris": {"ios": "https://dc.lft.to/lastmile_qr_scan", "android": "https://dc.lft.to/lastmile_qr_scan"}, "type": "electric_scooter"}, {"name": "a0b36ccd44ca98f3135a96b1ae9d5458", "is_reserved": 0, "fusion_lon": 0.0, "bike_id": "a0b36ccd44ca98f3135a96b1ae9d5458", "lat": 38.8754575, "is_disabled": 0, "lon": -77.0053295, "fusion_lat": 0.0, "rental_uris": {"ios": "https://dc.lft.to/lastmile_qr_scan", "android": "https://dc.lft.to/lastmile_qr_scan"}, "type": "electric_scooter"}, {"name": "2c79760fb5777cd941cc88bb62e7f27c", "is_reserved": 0, "fusion_lon": 0.0, "bike_id": "2c79760fb5777cd941cc88bb62e7f27c", "lat": 38.92370916666667, "is_disabled": 0, "lon": -77.021256, "fusion_lat": 0.0, "rental_uris": {"ios": "https://dc.lft.to/lastmile_qr_scan", "android": "https://dc.lft.to/lastmile_qr_scan"}, "type": "electric_scooter"}, {"name": "f7df2c0672b4dba52db4efca1dbbdecc", "is_reserved": 0, "fusion_lon": 0.0, "bike_id": "f7df2c0672b4dba52db4efca1dbbdecc", "lat": 38.996692833333334, "is_disabled": 0, "lon": -77.02542483333333, "fusion_lat": 0.0, "rental_uris": {"ios": "https://dc.lft.to/lastmile_qr_scan", "android": "https://dc.lft.to/lastmile_qr_scan"}, "type": "electric_bike"}, {"name": "8c4460fd0f19865d0fc69e8e48e36392", "is_reserved": 0, "fusion_lon": 0.0, "bike_id": "8c4460fd0f19865d0fc69e8e48e36392", "lat": 38.902909, "is_disabled": 0, "lon": -77.03994833333333, "fusion_lat": 0.0, "rental_uris": {"ios": "https://dc.lft.to/lastmile_qr_scan", "android": "https://dc.lft.to/lastmile_qr_scan"}, "type": "electric_scooter"}, {"name": "b218f30054bd8d3347864ad9ae9a33d4", "is_reserved": 0, "fusion_lon": 0.0, "bike_id": "b218f30054bd8d3347864ad9ae9a33d4", "lat": 38.89925816666667, "is_disabled": 0, "lon": -76.94578583333333, "fusion_lat": 0.0, "rental_uris": {"ios": "https://dc.lft.to/lastmile_qr_scan", "android": "https://dc.lft.to/lastmile_qr_scan"}, "type": "electric_scooter"}, {"name": "69491bb158bc97b2b06420eadfda3cf9", "is_reserved": 0, "fusion_lon": 0.0, "bike_id": "69491bb158bc97b2b06420eadfda3cf9", "lat": 38.903493166666664, "is_disabled": 0, "lon": -77.037506, "fusion_lat": 0.0, "rental_uris": {"ios": "https://dc.lft.to/lastmile_qr_scan", "android": "https://dc.lft.to/lastmile_qr_scan"}, "type": "electric_scooter"}, {"name": "b7c391fc194e6a52bd80ec8a34098925", "is_reserved": 0, "fusion_lon": 0.0, "bike_id": "b7c391fc194e6a52bd80ec8a34098925", "lat": 38.91763483333333, "is_disabled": 0, "lon": -77.02390183333333, "fusion_lat": 0.0, "rental_uris": {"ios": "https://dc.lft.to/lastmile_qr_scan", "android": "https://dc.lft.to/lastmile_qr_scan"}, "type": "electric_scooter"}, {"name": "4ca884b6e2812457dd2205be0a64793d", "is_reserved": 0, "fusion_lon": 0.0, "bike_id": "4ca884b6e2812457dd2205be0a64793d", "lat": 38.85997066666667, "is_disabled": 0, "lon": -76.98984233333333, "fusion_lat": 0.0, "rental_uris": {"ios": "https://dc.lft.to/lastmile_qr_scan", "android": "https://dc.lft.to/lastmile_qr_scan"}, "type": "electric_bike"}, {"name": "6e541d08179bdf919d2494c4aff1a42f", "is_reserved": 0, "fusion_lon": 0.0, "bike_id": "6e541d08179bdf919d2494c4aff1a42f", "lat": 39.026238, "is_disabled": 0, "lon": -77.0387745, "fusion_lat": 0.0, "rental_uris": {"ios": "https://dc.lft.to/lastmile_qr_scan", "android": "https://dc.lft.to/lastmile_qr_scan"}, "type": "electric_bike"}, {"name": "b8a8523c3c2a1cb99547725d536bf8b4", "is_reserved": 0, "fusion_lon": 0.0, "bike_id": "b8a8523c3c2a1cb99547725d536bf8b4", "lat": 38.89564083333333, "is_disabled": 0, "lon": -77.1273975, "fusion_lat": 0.0, "rental_uris": {"ios": "https://dc.lft.to/lastmile_qr_scan", "android": "https://dc.lft.to/lastmile_qr_scan"}, "type": "electric_bike"}, {"name": "8bce172a109854a22f424da8d256c484", "is_reserved": 0, "fusion_lon": 0.0, "bike_id": "8bce172a109854a22f424da8d256c484", "lat": 38.897302833333335, "is_disabled": 0, "lon": -77.0191125, "fusion_lat": 0.0, "rental_uris": {"ios": "https://dc.lft.to/lastmile_qr_scan", "android": "https://dc.lft.to/lastmile_qr_scan"}, "type": "electric_scooter"}, {"name": "dd14f7d5660e1321daf2279e3a4a2abc", "is_reserved": 0, "fusion_lon": 0.0, "bike_id": "dd14f7d5660e1321daf2279e3a4a2abc", "lat": 38.95635266666667, "is_disabled": 0, "lon": -76.938697, "fusion_lat": 0.0, "rental_uris": {"ios": "https://dc.lft.to/lastmile_qr_scan", "android": "https://dc.lft.to/lastmile_qr_scan"}, "type": "electric_bike"}, {"name": "28683d63bfbf40da3fb333811cebee89", "is_reserved": 0, "fusion_lon": 0.0, "bike_id": "28683d63bfbf40da3fb333811cebee89", "lat": 38.89719866666667, "is_disabled": 0, "lon": -77.02169833333333, "fusion_lat": 0.0, "rental_uris": {"ios": "https://dc.lft.to/lastmile_qr_scan", "android": "https://dc.lft.to/lastmile_qr_scan"}, "type": "electric_scooter"}, {"name": "c6189c5e08d0873fa11f189cf006b5ec", "is_reserved": 0, "fusion_lon": 0.0, "bike_id": "c6189c5e08d0873fa11f189cf006b5ec", "lat": 38.92071333333333, "is_disabled": 0, "lon": -77.03167916666666, "fusion_lat": 0.0, "rental_uris": {"ios": "https://dc.lft.to/lastmile_qr_scan", "android": "https://dc.lft.to/lastmile_qr_scan"}, "type": "electric_scooter"}, {"name": "befc7d6b7909b981eaab32a118045380", "is_reserved": 0, "fusion_lon": 0.0, "bike_id": "befc7d6b7909b981eaab32a118045380", "lat": 38.9342475, "is_disabled": 0, "lon": -77.03999266666666, "fusion_lat": 0.0, "rental_uris": {"ios": "https://dc.lft.to/lastmile_qr_scan", "android": "https://dc.lft.to/lastmile_qr_scan"}, "type": "electric_scooter"}, {"name": "8b0fe3783436235ca58bf3bfc7838c86", "is_reserved": 0, "fusion_lon": 0.0, "bike_id": "8b0fe3783436235ca58bf3bfc7838c86", "lat": 38.974412666666666, "is_disabled": 0, "lon": -77.096136, "fusion_lat": 0.0, "rental_uris": {"ios": "https://dc.lft.to/lastmile_qr_scan", "android": "https://dc.lft.to/lastmile_qr_scan"}, "type": "electric_bike"}, {"name": "d837da9a7344f13923af02212ba3b13b", "is_reserved": 0, "fusion_lon": 0.0, "bike_id": "d837da9a7344f13923af02212ba3b13b", "lat": 38.94408633333333, "is_disabled": 0, "lon": -77.0217925, "fusion_lat": 0.0, "rental_uris": {"ios": "https://dc.lft.to/lastmile_qr_scan", "android": "https://dc.lft.to/lastmile_qr_scan"}, "type": "electric_scooter"}, {"name": "5c38e4d1104af1bc786333cd26395794", "is_reserved": 0, "fusion_lon": 0.0, "bike_id": "5c38e4d1104af1bc786333cd26395794", "lat": 38.871875833333334, "is_disabled": 0, "lon": -76.97380116666666, "fusion_lat": 0.0, "rental_uris": {"ios": "https://dc.lft.to/lastmile_qr_scan", "android": "https://dc.lft.to/lastmile_qr_scan"}, "type": "electric_scooter"}, {"name": "1499c7f2641b8ba6c795ccfed362dbb7", "is_reserved": 0, "fusion_lon": 0.0, "bike_id": "1499c7f2641b8ba6c795ccfed362dbb7", "lat": 38.918789, "is_disabled": 0, "lon": -77.00914916666666, "fusion_lat": 0.0, "rental_uris": {"ios": "https://dc.lft.to/lastmile_qr_scan", "android": "https://dc.lft.to/lastmile_qr_scan"}, "type": "electric_scooter"}, {"name": "8a745dddb3cd9c4f9a6584cf4622e019", "is_reserved": 0, "fusion_lon": 0.0, "bike_id": "8a745dddb3cd9c4f9a6584cf4622e019", "lat": 38.92484316666667, "is_disabled": 0, "lon": -77.02979633333334, "fusion_lat": 0.0, "rental_uris": {"ios": "https://dc.lft.to/lastmile_qr_scan", "android": "https://dc.lft.to/lastmile_qr_scan"}, "type": "electric_scooter"}, {"name": "6c0937a60aecccc102855bdcc2eea00a", "is_reserved": 0, "fusion_lon": 0.0, "bike_id": "6c0937a60aecccc102855bdcc2eea00a", "lat": 38.92066366666667, "is_disabled": 0, "lon": -77.04194183333334, "fusion_lat": 0.0, "rental_uris": {"ios": "https://dc.lft.to/lastmile_qr_scan", "android": "https://dc.lft.to/lastmile_qr_scan"}, "type": "electric_scooter"}, {"name": "227358ae31933221e0d2e3d5666d7af6", "is_reserved": 0, "fusion_lon": 0.0, "bike_id": "227358ae31933221e0d2e3d5666d7af6", "lat": 38.91836466666667, "is_disabled": 0, "lon": -77.0229815, "fusion_lat": 0.0, "rental_uris": {"ios": "https://dc.lft.to/lastmile_qr_scan", "android": "https://dc.lft.to/lastmile_qr_scan"}, "type": "electric_scooter"}, {"name": "a4284382de6aae29b8a88f9776173de1", "is_reserved": 0, "fusion_lon": 0.0, "bike_id": "a4284382de6aae29b8a88f9776173de1", "lat": 38.935880833333336, "is_disabled": 0, "lon": -77.07434966666666, "fusion_lat": 0.0, "rental_uris": {"ios": "https://dc.lft.to/lastmile_qr_scan", "android": "https://dc.lft.to/lastmile_qr_scan"}, "type": "electric_scooter"}, {"name": "7d1765e8ccea0c80680c3c989049a424", "is_reserved": 0, "fusion_lon": 0.0, "bike_id": "7d1765e8ccea0c80680c3c989049a424", "lat": 38.927461, "is_disabled": 0, "lon": -77.03302266666667, "fusion_lat": 0.0, "rental_uris": {"ios": "https://dc.lft.to/lastmile_qr_scan", "android": "https://dc.lft.to/lastmile_qr_scan"}, "type": "electric_scooter"}, {"name": "48c5af315292a8329a0132d9f517512c", "is_reserved": 0, "fusion_lon": 0.0, "bike_id": "48c5af315292a8329a0132d9f517512c", "lat": 38.898489833333336, "is_disabled": 0, "lon": -76.93206016666667, "fusion_lat": 0.0, "rental_uris": {"ios": "https://dc.lft.to/lastmile_qr_scan", "android": "https://dc.lft.to/lastmile_qr_scan"}, "type": "electric_scooter"}, {"name": "82f428d3d1575e5611568287c6850a97", "is_reserved": 0, "fusion_lon": 0.0, "bike_id": "82f428d3d1575e5611568287c6850a97", "lat": 38.88961416666667, "is_disabled": 0, "lon": -76.95357266666667, "fusion_lat": 0.0, "rental_uris": {"ios": "https://dc.lft.to/lastmile_qr_scan", "android": "https://dc.lft.to/lastmile_qr_scan"}, "type": "electric_scooter"}, {"name": "bd13847a7999dbb694b42f390bc7ecfe", "is_reserved": 0, "fusion_lon": 0.0, "bike_id": "bd13847a7999dbb694b42f390bc7ecfe", "lat": 38.909795, "is_disabled": 0, "lon": -77.03392483333333, "fusion_lat": 0.0, "rental_uris": {"ios": "https://dc.lft.to/lastmile_qr_scan", "android": "https://dc.lft.to/lastmile_qr_scan"}, "type": "electric_scooter"}, {"name": "9b43118f3d891b8e63148fbed04f3a3c", "is_reserved": 0, "fusion_lon": 0.0, "bike_id": "9b43118f3d891b8e63148fbed04f3a3c", "lat": 38.93600683333333, "is_disabled": 0, "lon": -77.03801266666666, "fusion_lat": 0.0, "rental_uris": {"ios": "https://dc.lft.to/lastmile_qr_scan", "android": "https://dc.lft.to/lastmile_qr_scan"}, "type": "electric_scooter"}, {"name": "e9d13ae7aa3ad004b730fba178a91ad4", "is_reserved": 0, "fusion_lon": 0.0, "bike_id": "e9d13ae7aa3ad004b730fba178a91ad4", "lat": 38.883357333333336, "is_disabled": 0, "lon": -76.93128433333334, "fusion_lat": 0.0, "rental_uris": {"ios": "https://dc.lft.to/lastmile_qr_scan", "android": "https://dc.lft.to/lastmile_qr_scan"}, "type": "electric_scooter"}, {"name": "fed400155627846c7e2e008d31766fa1", "is_reserved": 0, "fusion_lon": 0.0, "bike_id": "fed400155627846c7e2e008d31766fa1", "lat": 38.89619066666667, "is_disabled": 0, "lon": -76.9984815, "fusion_lat": 0.0, "rental_uris": {"ios": "https://dc.lft.to/lastmile_qr_scan", "android": "https://dc.lft.to/lastmile_qr_scan"}, "type": "electric_scooter"}, {"name": "f31d705c1dfca0f459ad216719523800", "is_reserved": 0, "fusion_lon": 0.0, "bike_id": "f31d705c1dfca0f459ad216719523800", "lat": 38.903829, "is_disabled": 0, "lon": -77.03294433333333, "fusion_lat": 0.0, "rental_uris": {"ios": "https://dc.lft.to/lastmile_qr_scan", "android": "https://dc.lft.to/lastmile_qr_scan"}, "type": "electric_scooter"}, {"name": "ae21a9a3fd935d9f70cb9a8eec630645", "is_reserved": 0, "fusion_lon": 0.0, "bike_id": "ae21a9a3fd935d9f70cb9a8eec630645", "lat": 38.89363083333333, "is_disabled": 0, "lon": -77.02063333333334, "fusion_lat": 0.0, "rental_uris": {"ios": "https://dc.lft.to/lastmile_qr_scan", "android": "https://dc.lft.to/lastmile_qr_scan"}, "type": "electric_scooter"}, {"name": "7fa8832be83b855857c1c10559b3b37a", "is_reserved": 0, "fusion_lon": 0.0, "bike_id": "7fa8832be83b855857c1c10559b3b37a", "lat": 38.89850066666666, "is_disabled": 0, "lon": -77.02867033333334, "fusion_lat": 0.0, "rental_uris": {"ios": "https://dc.lft.to/lastmile_qr_scan", "android": "https://dc.lft.to/lastmile_qr_scan"}, "type": "electric_scooter"}, {"name": "56a6cc0be66c58ef130ab105ca885170", "is_reserved": 0, "fusion_lon": 0.0, "bike_id": "56a6cc0be66c58ef130ab105ca885170", "lat": 38.90471866666667, "is_disabled": 0, "lon": -77.04170916666666, "fusion_lat": 0.0, "rental_uris": {"ios": "https://dc.lft.to/lastmile_qr_scan", "android": "https://dc.lft.to/lastmile_qr_scan"}, "type": "electric_scooter"}, {"name": "a4df7412d43ee44f7cb99e0ffb76eef9", "is_reserved": 0, "fusion_lon": 0.0, "bike_id": "a4df7412d43ee44f7cb99e0ffb76eef9", "lat": 38.86515583333333, "is_disabled": 0, "lon": -76.99042683333333, "fusion_lat": 0.0, "rental_uris": {"ios": "https://dc.lft.to/lastmile_qr_scan", "android": "https://dc.lft.to/lastmile_qr_scan"}, "type": "electric_scooter"}, {"name": "3323a711dfc74dbbedd341a693195810", "is_reserved": 0, "fusion_lon": 0.0, "bike_id": "3323a711dfc74dbbedd341a693195810", "lat": 38.9013465, "is_disabled": 0, "lon": -77.029913, "fusion_lat": 0.0, "rental_uris": {"ios": "https://dc.lft.to/lastmile_qr_scan", "android": "https://dc.lft.to/lastmile_qr_scan"}, "type": "electric_scooter"}, {"name": "e978b928a73748aed2167916a4a1224f", "is_reserved": 0, "fusion_lon": 0.0, "bike_id": "e978b928a73748aed2167916a4a1224f", "lat": 38.88123616666667, "is_disabled": 0, "lon": -77.01871016666666, "fusion_lat": 0.0, "rental_uris": {"ios": "https://dc.lft.to/lastmile_qr_scan", "android": "https://dc.lft.to/lastmile_qr_scan"}, "type": "electric_scooter"}, {"name": "51e1899ac10405accaaf2d0be4fdd77b", "is_reserved": 0, "fusion_lon": 0.0, "bike_id": "51e1899ac10405accaaf2d0be4fdd77b", "lat": 38.90729833333333, "is_disabled": 0, "lon": -77.01834366666667, "fusion_lat": 0.0, "rental_uris": {"ios": "https://dc.lft.to/lastmile_qr_scan", "android": "https://dc.lft.to/lastmile_qr_scan"}, "type": "electric_scooter"}, {"name": "97174bafdd53e6a008610849e0581c1f", "is_reserved": 0, "fusion_lon": 0.0, "bike_id": "97174bafdd53e6a008610849e0581c1f", "lat": 38.89894116666667, "is_disabled": 0, "lon": -77.03932, "fusion_lat": 0.0, "rental_uris": {"ios": "https://dc.lft.to/lastmile_qr_scan", "android": "https://dc.lft.to/lastmile_qr_scan"}, "type": "electric_scooter"}, {"name": "c76abe26952400968eb447a479efac81", "is_reserved": 0, "fusion_lon": 0.0, "bike_id": "c76abe26952400968eb447a479efac81", "lat": 38.893625666666665, "is_disabled": 0, "lon": -77.0447675, "fusion_lat": 0.0, "rental_uris": {"ios": "https://dc.lft.to/lastmile_qr_scan", "android": "https://dc.lft.to/lastmile_qr_scan"}, "type": "electric_scooter"}, {"name": "d07f6750828a78bab5d4dcdf4988ac48", "is_reserved": 0, "fusion_lon": 0.0, "bike_id": "d07f6750828a78bab5d4dcdf4988ac48", "lat": 38.919078666666664, "is_disabled": 0, "lon": -77.02050466666667, "fusion_lat": 0.0, "rental_uris": {"ios": "https://dc.lft.to/lastmile_qr_scan", "android": "https://dc.lft.to/lastmile_qr_scan"}, "type": "electric_scooter"}, {"name": "052927c01a71f7aee1916b6fa44647be", "is_reserved": 0, "fusion_lon": 0.0, "bike_id": "052927c01a71f7aee1916b6fa44647be", "lat": 38.91842416666667, "is_disabled": 0, "lon": -77.03202516666667, "fusion_lat": 0.0, "rental_uris": {"ios": "https://dc.lft.to/lastmile_qr_scan", "android": "https://dc.lft.to/lastmile_qr_scan"}, "type": "electric_scooter"}, {"name": "8e64d3fd51484f8f9fd57853f7106fdd", "is_reserved": 0, "fusion_lon": 0.0, "bike_id": "8e64d3fd51484f8f9fd57853f7106fdd", "lat": 38.85597416666667, "is_disabled": 0, "lon": -76.97263316666667, "fusion_lat": 0.0, "rental_uris": {"ios": "https://dc.lft.to/lastmile_qr_scan", "android": "https://dc.lft.to/lastmile_qr_scan"}, "type": "electric_bike"}, {"name": "250ecd7024a89dae8bc69c805da27bb0", "is_reserved": 0, "fusion_lon": 0.0, "bike_id": "250ecd7024a89dae8bc69c805da27bb0", "lat": 38.91917, "is_disabled": 0, "lon": -77.03198683333333, "fusion_lat": 0.0, "rental_uris": {"ios": "https://dc.lft.to/lastmile_qr_scan", "android": "https://dc.lft.to/lastmile_qr_scan"}, "type": "electric_scooter"}, {"name": "f8f96d7c508b7ea3481f8c035b949f78", "is_reserved": 0, "fusion_lon": 0.0, "bike_id": "f8f96d7c508b7ea3481f8c035b949f78", "lat": 38.907416166666664, "is_disabled": 0, "lon": -77.00215433333334, "fusion_lat": 0.0, "rental_uris": {"ios": "https://dc.lft.to/lastmile_qr_scan", "android": "https://dc.lft.to/lastmile_qr_scan"}, "type": "electric_scooter"}, {"name": "1b43d80cb84fa5b19361394f8f5f4332", "is_reserved": 0, "fusion_lon": 0.0, "bike_id": "1b43d80cb84fa5b19361394f8f5f4332", "lat": 38.9297915, "is_disabled": 0, "lon": -77.0551225, "fusion_lat": 0.0, "rental_uris": {"ios": "https://dc.lft.to/lastmile_qr_scan", "android": "https://dc.lft.to/lastmile_qr_scan"}, "type": "electric_scooter"}, {"name": "99013e0a58767881a176e109b9a24d21", "is_reserved": 0, "fusion_lon": 0.0, "bike_id": "99013e0a58767881a176e109b9a24d21", "lat": 38.925061, "is_disabled": 0, "lon": -77.02128533333334, "fusion_lat": 0.0, "rental_uris": {"ios": "https://dc.lft.to/lastmile_qr_scan", "android": "https://dc.lft.to/lastmile_qr_scan"}, "type": "electric_scooter"}, {"name": "5b06ba611b9a2c20ac1251354ebdd517", "is_reserved": 0, "fusion_lon": 0.0, "bike_id": "5b06ba611b9a2c20ac1251354ebdd517", "lat": 38.9206155, "is_disabled": 0, "lon": -77.02210916666667, "fusion_lat": 0.0, "rental_uris": {"ios": "https://dc.lft.to/lastmile_qr_scan", "android": "https://dc.lft.to/lastmile_qr_scan"}, "type": "electric_scooter"}, {"name": "e8d43159f868ffdfbdbf8dba5b2ef8ba", "is_reserved": 0, "fusion_lon": 0.0, "bike_id": "e8d43159f868ffdfbdbf8dba5b2ef8ba", "lat": 38.897308, "is_disabled": 0, "lon": -77.02674133333333, "fusion_lat": 0.0, "rental_uris": {"ios": "https://dc.lft.to/lastmile_qr_scan", "android": "https://dc.lft.to/lastmile_qr_scan"}, "type": "electric_scooter"}, {"name": "7bfaa8f0855009f9bb0cceeef9cbfb31", "is_reserved": 0, "fusion_lon": 0.0, "bike_id": "7bfaa8f0855009f9bb0cceeef9cbfb31", "lat": 38.901387166666666, "is_disabled": 0, "lon": -77.02988933333333, "fusion_lat": 0.0, "rental_uris": {"ios": "https://dc.lft.to/lastmile_qr_scan", "android": "https://dc.lft.to/lastmile_qr_scan"}, "type": "electric_scooter"}, {"name": "5b7c15e6d2727f4f605c46997a422b2f", "is_reserved": 0, "fusion_lon": 0.0, "bike_id": "5b7c15e6d2727f4f605c46997a422b2f", "lat": 38.917841833333334, "is_disabled": 0, "lon": -77.0237605, "fusion_lat": 0.0, "rental_uris": {"ios": "https://dc.lft.to/lastmile_qr_scan", "android": "https://dc.lft.to/lastmile_qr_scan"}, "type": "electric_scooter"}, {"name": "15aef950b68009a170858cb90e2c9678", "is_reserved": 0, "fusion_lon": 0.0, "bike_id": "15aef950b68009a170858cb90e2c9678", "lat": 38.9046235, "is_disabled": 0, "lon": -77.0355775, "fusion_lat": 0.0, "rental_uris": {"ios": "https://dc.lft.to/lastmile_qr_scan", "android": "https://dc.lft.to/lastmile_qr_scan"}, "type": "electric_scooter"}, {"name": "e34ec846b43138e027deda01e2d061e4", "is_reserved": 0, "fusion_lon": 0.0, "bike_id": "e34ec846b43138e027deda01e2d061e4", "lat": 38.87198816666667, "is_disabled": 0, "lon": -77.00608316666667, "fusion_lat": 0.0, "rental_uris": {"ios": "https://dc.lft.to/lastmile_qr_scan", "android": "https://dc.lft.to/lastmile_qr_scan"}, "type": "electric_scooter"}, {"name": "419e3408cda03fd6980ff9f3586663ce", "is_reserved": 0, "fusion_lon": 0.0, "bike_id": "419e3408cda03fd6980ff9f3586663ce", "lat": 38.91940833333334, "is_disabled": 0, "lon": -77.02177933333333, "fusion_lat": 0.0, "rental_uris": {"ios": "https://dc.lft.to/lastmile_qr_scan", "android": "https://dc.lft.to/lastmile_qr_scan"}, "type": "electric_scooter"}, {"name": "89cb9fd03d561c5c3b8e6029666a7a9e", "is_reserved": 0, "fusion_lon": 0.0, "bike_id": "89cb9fd03d561c5c3b8e6029666a7a9e", "lat": 38.89820183333333, "is_disabled": 0, "lon": -77.024371, "fusion_lat": 0.0, "rental_uris": {"ios": "https://dc.lft.to/lastmile_qr_scan", "android": "https://dc.lft.to/lastmile_qr_scan"}, "type": "electric_scooter"}, {"name": "d405753aaf58a5cdc770a95ed3286b39", "is_reserved": 0, "fusion_lon": 0.0, "bike_id": "d405753aaf58a5cdc770a95ed3286b39", "lat": 38.90813133333333, "is_disabled": 0, "lon": -77.03949833333333, "fusion_lat": 0.0, "rental_uris": {"ios": "https://dc.lft.to/lastmile_qr_scan", "android": "https://dc.lft.to/lastmile_qr_scan"}, "type": "electric_scooter"}, {"name": "6a9ed0332a057870e3360a1d472caaa9", "is_reserved": 0, "fusion_lon": 0.0, "bike_id": "6a9ed0332a057870e3360a1d472caaa9", "lat": 38.91676133333333, "is_disabled": 0, "lon": -77.0158255, "fusion_lat": 0.0, "rental_uris": {"ios": "https://dc.lft.to/lastmile_qr_scan", "android": "https://dc.lft.to/lastmile_qr_scan"}, "type": "electric_scooter"}, {"name": "93979df93f33ce1b9d4a67b1ebe9c531", "is_reserved": 0, "fusion_lon": 0.0, "bike_id": "93979df93f33ce1b9d4a67b1ebe9c531", "lat": 38.9206385, "is_disabled": 0, "lon": -77.04195116666666, "fusion_lat": 0.0, "rental_uris": {"ios": "https://dc.lft.to/lastmile_qr_scan", "android": "https://dc.lft.to/lastmile_qr_scan"}, "type": "electric_scooter"}, {"name": "93fd86e70d5844e36dbeaa89cbe8fee0", "is_reserved": 0, "fusion_lon": 0.0, "bike_id": "93fd86e70d5844e36dbeaa89cbe8fee0", "lat": 38.90268783333333, "is_disabled": 0, "lon": -77.04362866666666, "fusion_lat": 0.0, "rental_uris": {"ios": "https://dc.lft.to/lastmile_qr_scan", "android": "https://dc.lft.to/lastmile_qr_scan"}, "type": "electric_scooter"}, {"name": "10695d20adcc5b485c1ad2fd9914be6c", "is_reserved": 0, "fusion_lon": 0.0, "bike_id": "10695d20adcc5b485c1ad2fd9914be6c", "lat": 38.92026416666667, "is_disabled": 0, "lon": -77.039761, "fusion_lat": 0.0, "rental_uris": {"ios": "https://dc.lft.to/lastmile_qr_scan", "android": "https://dc.lft.to/lastmile_qr_scan"}, "type": "electric_scooter"}, {"name": "9373dcf49e36cb6504a0dd1c848662dd", "is_reserved": 0, "fusion_lon": 0.0, "bike_id": "9373dcf49e36cb6504a0dd1c848662dd", "lat": 38.89619, "is_disabled": 0, "lon": -76.90750116666666, "fusion_lat": 0.0, "rental_uris": {"ios": "https://dc.lft.to/lastmile_qr_scan", "android": "https://dc.lft.to/lastmile_qr_scan"}, "type": "electric_bike"}, {"name": "17b1c1a7e348d1d5c9abfe946cf3191e", "is_reserved": 0, "fusion_lon": 0.0, "bike_id": "17b1c1a7e348d1d5c9abfe946cf3191e", "lat": 38.89745283333333, "is_disabled": 0, "lon": -77.02704716666666, "fusion_lat": 0.0, "rental_uris": {"ios": "https://dc.lft.to/lastmile_qr_scan", "android": "https://dc.lft.to/lastmile_qr_scan"}, "type": "electric_scooter"}, {"name": "061c380b45b408de651aeb9732a9b446", "is_reserved": 0, "fusion_lon": 0.0, "bike_id": "061c380b45b408de651aeb9732a9b446", "lat": 38.92158716666667, "is_disabled": 0, "lon": -77.0338255, "fusion_lat": 0.0, "rental_uris": {"ios": "https://dc.lft.to/lastmile_qr_scan", "android": "https://dc.lft.to/lastmile_qr_scan"}, "type": "electric_scooter"}, {"name": "30721b898de1726a0899ed83ab983cb3", "is_reserved": 0, "fusion_lon": 0.0, "bike_id": "30721b898de1726a0899ed83ab983cb3", "lat": 38.9135105, "is_disabled": 0, "lon": -76.97136283333333, "fusion_lat": 0.0, "rental_uris": {"ios": "https://dc.lft.to/lastmile_qr_scan", "android": "https://dc.lft.to/lastmile_qr_scan"}, "type": "electric_scooter"}, {"name": "ed4e70f46e9a83a3b64793f168d3a441", "is_reserved": 0, "fusion_lon": 0.0, "bike_id": "ed4e70f46e9a83a3b64793f168d3a441", "lat": 38.920523833333334, "is_disabled": 0, "lon": -77.04191516666667, "fusion_lat": 0.0, "rental_uris": {"ios": "https://dc.lft.to/lastmile_qr_scan", "android": "https://dc.lft.to/lastmile_qr_scan"}, "type": "electric_scooter"}, {"name": "49fff61f6de34c51cbdbf19ec97b3dea", "is_reserved": 0, "fusion_lon": 0.0, "bike_id": "49fff61f6de34c51cbdbf19ec97b3dea", "lat": 38.877098333333336, "is_disabled": 0, "lon": -77.01792, "fusion_lat": 0.0, "rental_uris": {"ios": "https://dc.lft.to/lastmile_qr_scan", "android": "https://dc.lft.to/lastmile_qr_scan"}, "type": "electric_scooter"}, {"name": "dc2e5994a94f16e5f4c439a180b54c7c", "is_reserved": 0, "fusion_lon": 0.0, "bike_id": "dc2e5994a94f16e5f4c439a180b54c7c", "lat": 38.865656333333334, "is_disabled": 0, "lon": -76.97406066666667, "fusion_lat": 0.0, "rental_uris": {"ios": "https://dc.lft.to/lastmile_qr_scan", "android": "https://dc.lft.to/lastmile_qr_scan"}, "type": "electric_scooter"}, {"name": "0d96131066b3c8eca56500baaf8784a9", "is_reserved": 0, "fusion_lon": 0.0, "bike_id": "0d96131066b3c8eca56500baaf8784a9", "lat": 38.9234115, "is_disabled": 0, "lon": -77.05390916666667, "fusion_lat": 0.0, "rental_uris": {"ios": "https://dc.lft.to/lastmile_qr_scan", "android": "https://dc.lft.to/lastmile_qr_scan"}, "type": "electric_scooter"}, {"name": "501f88967f2d52f02aacf4d3364d85d0", "is_reserved": 0, "fusion_lon": 0.0, "bike_id": "501f88967f2d52f02aacf4d3364d85d0", "lat": 38.92368833333333, "is_disabled": 0, "lon": -77.03533083333333, "fusion_lat": 0.0, "rental_uris": {"ios": "https://dc.lft.to/lastmile_qr_scan", "android": "https://dc.lft.to/lastmile_qr_scan"}, "type": "electric_scooter"}, {"name": "602a330c545353031adab6e9330358d1", "is_reserved": 0, "fusion_lon": 0.0, "bike_id": "602a330c545353031adab6e9330358d1", "lat": 38.913655166666665, "is_disabled": 0, "lon": -77.04483333333333, "fusion_lat": 0.0, "rental_uris": {"ios": "https://dc.lft.to/lastmile_qr_scan", "android": "https://dc.lft.to/lastmile_qr_scan"}, "type": "electric_scooter"}, {"name": "35cb615e1f8ce46f8cb94dd9a3a7506c", "is_reserved": 0, "fusion_lon": 0.0, "bike_id": "35cb615e1f8ce46f8cb94dd9a3a7506c", "lat": 38.867507833333335, "is_disabled": 0, "lon": -77.00148033333333, "fusion_lat": 0.0, "rental_uris": {"ios": "https://dc.lft.to/lastmile_qr_scan", "android": "https://dc.lft.to/lastmile_qr_scan"}, "type": "electric_scooter"}, {"name": "4fdb0b05aabdf6cf34beb156f94133e7", "is_reserved": 0, "fusion_lon": 0.0, "bike_id": "4fdb0b05aabdf6cf34beb156f94133e7", "lat": 38.900249, "is_disabled": 0, "lon": -76.991285, "fusion_lat": 0.0, "rental_uris": {"ios": "https://dc.lft.to/lastmile_qr_scan", "android": "https://dc.lft.to/lastmile_qr_scan"}, "type": "electric_scooter"}, {"name": "432542f428a54aab9d75850d402e816b", "is_reserved": 0, "fusion_lon": 0.0, "bike_id": "432542f428a54aab9d75850d402e816b", "lat": 38.939652333333335, "is_disabled": 0, "lon": -77.02492466666666, "fusion_lat": 0.0, "rental_uris": {"ios": "https://dc.lft.to/lastmile_qr_scan", "android": "https://dc.lft.to/lastmile_qr_scan"}, "type": "electric_scooter"}, {"name": "5f6f4c0b2e8cf45854c85f81a1ba29d6", "is_reserved": 0, "fusion_lon": 0.0, "bike_id": "5f6f4c0b2e8cf45854c85f81a1ba29d6", "lat": 39.037467166666666, "is_disabled": 0, "lon": -77.048359, "fusion_lat": 0.0, "rental_uris": {"ios": "https://dc.lft.to/lastmile_qr_scan", "android": "https://dc.lft.to/lastmile_qr_scan"}, "type": "electric_bike"}, {"name": "d10d86bec0158e02eb0b82a5c7c16768", "is_reserved": 0, "fusion_lon": 0.0, "bike_id": "d10d86bec0158e02eb0b82a5c7c16768", "lat": 38.86670266666667, "is_disabled": 0, "lon": -76.98520266666667, "fusion_lat": 0.0, "rental_uris": {"ios": "https://dc.lft.to/lastmile_qr_scan", "android": "https://dc.lft.to/lastmile_qr_scan"}, "type": "electric_scooter"}, {"name": "130a21e3b550cdcd290e7726c929d80b", "is_reserved": 0, "fusion_lon": 0.0, "bike_id": "130a21e3b550cdcd290e7726c929d80b", "lat": 38.902178666666664, "is_disabled": 0, "lon": -77.04806466666666, "fusion_lat": 0.0, "rental_uris": {"ios": "https://dc.lft.to/lastmile_qr_scan", "android": "https://dc.lft.to/lastmile_qr_scan"}, "type": "electric_scooter"}, {"name": "2d97a33529f471a7d0a5c2ec84e9b221", "is_reserved": 0, "fusion_lon": 0.0, "bike_id": "2d97a33529f471a7d0a5c2ec84e9b221", "lat": 38.8850715, "is_disabled": 0, "lon": -77.00565616666667, "fusion_lat": 0.0, "rental_uris": {"ios": "https://dc.lft.to/lastmile_qr_scan", "android": "https://dc.lft.to/lastmile_qr_scan"}, "type": "electric_scooter"}, {"name": "6adb240cec49f6587bfaa8cd3d190642", "is_reserved": 0, "fusion_lon": 0.0, "bike_id": "6adb240cec49f6587bfaa8cd3d190642", "lat": 38.892361333333334, "is_disabled": 0, "lon": -77.031961, "fusion_lat": 0.0, "rental_uris": {"ios": "https://dc.lft.to/lastmile_qr_scan", "android": "https://dc.lft.to/lastmile_qr_scan"}, "type": "electric_scooter"}, {"name": "76212abedcd099f328459ec88a8f2592", "is_reserved": 0, "fusion_lon": 0.0, "bike_id": "76212abedcd099f328459ec88a8f2592", "lat": 38.916416, "is_disabled": 0, "lon": -77.032069, "fusion_lat": 0.0, "rental_uris": {"ios": "https://dc.lft.to/lastmile_qr_scan", "android": "https://dc.lft.to/lastmile_qr_scan"}, "type": "electric_scooter"}, {"name": "b35ccd2a1dd92fd0b3d2c5250c9c08a7", "is_reserved": 0, "fusion_lon": 0.0, "bike_id": "b35ccd2a1dd92fd0b3d2c5250c9c08a7", "lat": 39.08509816666667, "is_disabled": 0, "lon": -76.95062333333334, "fusion_lat": 0.0, "rental_uris": {"ios": "https://dc.lft.to/lastmile_qr_scan", "android": "https://dc.lft.to/lastmile_qr_scan"}, "type": "electric_bike"}, {"name": "505a9a9fc872cfb76d7f2e1355884e92", "is_reserved": 0, "fusion_lon": 0.0, "bike_id": "505a9a9fc872cfb76d7f2e1355884e92", "lat": 38.88738983333333, "is_disabled": 0, "lon": -77.00343483333333, "fusion_lat": 0.0, "rental_uris": {"ios": "https://dc.lft.to/lastmile_qr_scan", "android": "https://dc.lft.to/lastmile_qr_scan"}, "type": "electric_scooter"}, {"name": "1dde8b5cd1c13051e97011818c8994f8", "is_reserved": 0, "fusion_lon": 0.0, "bike_id": "1dde8b5cd1c13051e97011818c8994f8", "lat": 38.90874316666667, "is_disabled": 0, "lon": -77.0432535, "fusion_lat": 0.0, "rental_uris": {"ios": "https://dc.lft.to/lastmile_qr_scan", "android": "https://dc.lft.to/lastmile_qr_scan"}, "type": "electric_scooter"}, {"name": "9ac07d2aa81b2539abdaed94cc0d9be7", "is_reserved": 0, "fusion_lon": 0.0, "bike_id": "9ac07d2aa81b2539abdaed94cc0d9be7", "lat": 38.92465116666666, "is_disabled": 0, "lon": -77.02215483333333, "fusion_lat": 0.0, "rental_uris": {"ios": "https://dc.lft.to/lastmile_qr_scan", "android": "https://dc.lft.to/lastmile_qr_scan"}, "type": "electric_scooter"}, {"name": "6a7df3b5515168c5035c2df13d19eea4", "is_reserved": 0, "fusion_lon": 0.0, "bike_id": "6a7df3b5515168c5035c2df13d19eea4", "lat": 38.91329833333333, "is_disabled": 0, "lon": -77.01361533333333, "fusion_lat": 0.0, "rental_uris": {"ios": "https://dc.lft.to/lastmile_qr_scan", "android": "https://dc.lft.to/lastmile_qr_scan"}, "type": "electric_scooter"}, {"name": "a37d13bbfbfdb0892148620adb1dc3bc", "is_reserved": 0, "fusion_lon": 0.0, "bike_id": "a37d13bbfbfdb0892148620adb1dc3bc", "lat": 38.906853, "is_disabled": 0, "lon": -77.06396033333333, "fusion_lat": 0.0, "rental_uris": {"ios": "https://dc.lft.to/lastmile_qr_scan", "android": "https://dc.lft.to/lastmile_qr_scan"}, "type": "electric_scooter"}, {"name": "a7b42d7b0198a69d01e1435519477263", "is_reserved": 0, "fusion_lon": 0.0, "bike_id": "a7b42d7b0198a69d01e1435519477263", "lat": 38.9203435, "is_disabled": 0, "lon": -76.98485333333333, "fusion_lat": 0.0, "rental_uris": {"ios": "https://dc.lft.to/lastmile_qr_scan", "android": "https://dc.lft.to/lastmile_qr_scan"}, "type": "electric_scooter"}, {"name": "60d9cde3fcbd3af21d2d9e79ddb5a992", "is_reserved": 0, "fusion_lon": 0.0, "bike_id": "60d9cde3fcbd3af21d2d9e79ddb5a992", "lat": 38.901346333333336, "is_disabled": 0, "lon": -77.0350475, "fusion_lat": 0.0, "rental_uris": {"ios": "https://dc.lft.to/lastmile_qr_scan", "android": "https://dc.lft.to/lastmile_qr_scan"}, "type": "electric_scooter"}, {"name": "c9bca75795daeeb90459eb716f21e53b", "is_reserved": 0, "fusion_lon": 0.0, "bike_id": "c9bca75795daeeb90459eb716f21e53b", "lat": 38.902600666666665, "is_disabled": 0, "lon": -77.01681366666666, "fusion_lat": 0.0, "rental_uris": {"ios": "https://dc.lft.to/lastmile_qr_scan", "android": "https://dc.lft.to/lastmile_qr_scan"}, "type": "electric_scooter"}, {"name": "f9dabfd3650154a4941be3e03798db76", "is_reserved": 0, "fusion_lon": 0.0, "bike_id": "f9dabfd3650154a4941be3e03798db76", "lat": 38.87083633333334, "is_disabled": 0, "lon": -77.01207633333334, "fusion_lat": 0.0, "rental_uris": {"ios": "https://dc.lft.to/lastmile_qr_scan", "android": "https://dc.lft.to/lastmile_qr_scan"}, "type": "electric_bike"}, {"name": "23ee985c1c3b35463b50e96b41cf0342", "is_reserved": 0, "fusion_lon": 0.0, "bike_id": "23ee985c1c3b35463b50e96b41cf0342", "lat": 38.916983, "is_disabled": 0, "lon": -77.04003333333333, "fusion_lat": 0.0, "rental_uris": {"ios": "https://dc.lft.to/lastmile_qr_scan", "android": "https://dc.lft.to/lastmile_qr_scan"}, "type": "electric_scooter"}, {"name": "03e0f73bbd9270a4cb506f5020cacc0a", "is_reserved": 0, "fusion_lon": 0.0, "bike_id": "03e0f73bbd9270a4cb506f5020cacc0a", "lat": 38.89232616666666, "is_disabled": 0, "lon": -77.00288583333334, "fusion_lat": 0.0, "rental_uris": {"ios": "https://dc.lft.to/lastmile_qr_scan", "android": "https://dc.lft.to/lastmile_qr_scan"}, "type": "electric_scooter"}, {"name": "bb2d3dcc70b311077e02d359b7af13f4", "is_reserved": 0, "fusion_lon": 0.0, "bike_id": "bb2d3dcc70b311077e02d359b7af13f4", "lat": 38.899537, "is_disabled": 0, "lon": -77.0470935, "fusion_lat": 0.0, "rental_uris": {"ios": "https://dc.lft.to/lastmile_qr_scan", "android": "https://dc.lft.to/lastmile_qr_scan"}, "type": "electric_scooter"}, {"name": "d1241463573f2c08a234a2018f0f3111", "is_reserved": 0, "fusion_lon": 0.0, "bike_id": "d1241463573f2c08a234a2018f0f3111", "lat": 38.918150833333335, "is_disabled": 0, "lon": -77.02484483333333, "fusion_lat": 0.0, "rental_uris": {"ios": "https://dc.lft.to/lastmile_qr_scan", "android": "https://dc.lft.to/lastmile_qr_scan"}, "type": "electric_scooter"}, {"name": "b4863fe614e2f4b5e3926b0cb4af8f7b", "is_reserved": 0, "fusion_lon": 0.0, "bike_id": "b4863fe614e2f4b5e3926b0cb4af8f7b", "lat": 38.91773033333333, "is_disabled": 0, "lon": -77.02709466666667, "fusion_lat": 0.0, "rental_uris": {"ios": "https://dc.lft.to/lastmile_qr_scan", "android": "https://dc.lft.to/lastmile_qr_scan"}, "type": "electric_scooter"}, {"name": "c6e9d68f549fcecb5bcd23597061d959", "is_reserved": 0, "fusion_lon": 0.0, "bike_id": "c6e9d68f549fcecb5bcd23597061d959", "lat": 38.943587666666666, "is_disabled": 0, "lon": -77.02979766666667, "fusion_lat": 0.0, "rental_uris": {"ios": "https://dc.lft.to/lastmile_qr_scan", "android": "https://dc.lft.to/lastmile_qr_scan"}, "type": "electric_scooter"}, {"name": "d02e6ce76855b276c3ffd5b96da431d1", "is_reserved": 0, "fusion_lon": 0.0, "bike_id": "d02e6ce76855b276c3ffd5b96da431d1", "lat": 38.89811266666667, "is_disabled": 0, "lon": -77.0020605, "fusion_lat": 0.0, "rental_uris": {"ios": "https://dc.lft.to/lastmile_qr_scan", "android": "https://dc.lft.to/lastmile_qr_scan"}, "type": "electric_scooter"}, {"name": "3d661111c35ff311e2bd2c87fba7bc0b", "is_reserved": 0, "fusion_lon": 0.0, "bike_id": "3d661111c35ff311e2bd2c87fba7bc0b", "lat": 38.98503216666667, "is_disabled": 0, "lon": -76.95560466666667, "fusion_lat": 0.0, "rental_uris": {"ios": "https://dc.lft.to/lastmile_qr_scan", "android": "https://dc.lft.to/lastmile_qr_scan"}, "type": "electric_bike"}, {"name": "2bc330f5651d2ce8c4cd7201f3d191dd", "is_reserved": 0, "fusion_lon": 0.0, "bike_id": "2bc330f5651d2ce8c4cd7201f3d191dd", "lat": 38.921605166666666, "is_disabled": 0, "lon": -77.0202175, "fusion_lat": 0.0, "rental_uris": {"ios": "https://dc.lft.to/lastmile_qr_scan", "android": "https://dc.lft.to/lastmile_qr_scan"}, "type": "electric_scooter"}, {"name": "41b7211ff4ba1e951639cb69f3eb58a7", "is_reserved": 0, "fusion_lon": 0.0, "bike_id": "41b7211ff4ba1e951639cb69f3eb58a7", "lat": 38.89956466666667, "is_disabled": 0, "lon": -77.01503666666666, "fusion_lat": 0.0, "rental_uris": {"ios": "https://dc.lft.to/lastmile_qr_scan", "android": "https://dc.lft.to/lastmile_qr_scan"}, "type": "electric_scooter"}, {"name": "b3542cc13ed522f1ffbcb172b0e6b850", "is_reserved": 0, "fusion_lon": 0.0, "bike_id": "b3542cc13ed522f1ffbcb172b0e6b850", "lat": 38.882119, "is_disabled": 0, "lon": -77.01749816666667, "fusion_lat": 0.0, "rental_uris": {"ios": "https://dc.lft.to/lastmile_qr_scan", "android": "https://dc.lft.to/lastmile_qr_scan"}, "type": "electric_scooter"}, {"name": "2d6119f9d2480b3fb9dff4215aa72289", "is_reserved": 0, "fusion_lon": 0.0, "bike_id": "2d6119f9d2480b3fb9dff4215aa72289", "lat": 38.906933333333335, "is_disabled": 0, "lon": -76.95250166666666, "fusion_lat": 0.0, "rental_uris": {"ios": "https://dc.lft.to/lastmile_qr_scan", "android": "https://dc.lft.to/lastmile_qr_scan"}, "type": "electric_bike"}, {"name": "195786b68db1efa365c9200566d3fd17", "is_reserved": 0, "fusion_lon": 0.0, "bike_id": "195786b68db1efa365c9200566d3fd17", "lat": 38.90523566666667, "is_disabled": 0, "lon": -77.05321233333333, "fusion_lat": 0.0, "rental_uris": {"ios": "https://dc.lft.to/lastmile_qr_scan", "android": "https://dc.lft.to/lastmile_qr_scan"}, "type": "electric_scooter"}, {"name": "2d1e8316804eb628d3ca41bae4472227", "is_reserved": 0, "fusion_lon": 0.0, "bike_id": "2d1e8316804eb628d3ca41bae4472227", "lat": 38.892331, "is_disabled": 0, "lon": -77.04997083333333, "fusion_lat": 0.0, "rental_uris": {"ios": "https://dc.lft.to/lastmile_qr_scan", "android": "https://dc.lft.to/lastmile_qr_scan"}, "type": "electric_scooter"}, {"name": "9bd9b34a98ed9e909be257ff017fcc26", "is_reserved": 0, "fusion_lon": 0.0, "bike_id": "9bd9b34a98ed9e909be257ff017fcc26", "lat": 38.919265333333335, "is_disabled": 0, "lon": -77.03392, "fusion_lat": 0.0, "rental_uris": {"ios": "https://dc.lft.to/lastmile_qr_scan", "android": "https://dc.lft.to/lastmile_qr_scan"}, "type": "electric_scooter"}, {"name": "b899d27cc22256a4eddfa014dab1e9ee", "is_reserved": 0, "fusion_lon": 0.0, "bike_id": "b899d27cc22256a4eddfa014dab1e9ee", "lat": 38.874699666666665, "is_disabled": 0, "lon": -77.01591316666666, "fusion_lat": 0.0, "rental_uris": {"ios": "https://dc.lft.to/lastmile_qr_scan", "android": "https://dc.lft.to/lastmile_qr_scan"}, "type": "electric_scooter"}, {"name": "31554f7204ee48c5771d417dba45224d", "is_reserved": 0, "fusion_lon": 0.0, "bike_id": "31554f7204ee48c5771d417dba45224d", "lat": 38.942611, "is_disabled": 0, "lon": -77.02977166666666, "fusion_lat": 0.0, "rental_uris": {"ios": "https://dc.lft.to/lastmile_qr_scan", "android": "https://dc.lft.to/lastmile_qr_scan"}, "type": "electric_scooter"}, {"name": "2607712aebc3593d08ed47b526ba069f", "is_reserved": 0, "fusion_lon": 0.0, "bike_id": "2607712aebc3593d08ed47b526ba069f", "lat": 38.929824833333335, "is_disabled": 0, "lon": -77.0833945, "fusion_lat": 0.0, "rental_uris": {"ios": "https://dc.lft.to/lastmile_qr_scan", "android": "https://dc.lft.to/lastmile_qr_scan"}, "type": "electric_scooter"}, {"name": "4dc5ab02d20111f6501f4753d534c634", "is_reserved": 0, "fusion_lon": 0.0, "bike_id": "4dc5ab02d20111f6501f4753d534c634", "lat": 38.903650166666665, "is_disabled": 0, "lon": -77.02925883333333, "fusion_lat": 0.0, "rental_uris": {"ios": "https://dc.lft.to/lastmile_qr_scan", "android": "https://dc.lft.to/lastmile_qr_scan"}, "type": "electric_scooter"}, {"name": "3d1ba1deaee3fcb4b6bf5d58ce1a4f09", "is_reserved": 0, "fusion_lon": 0.0, "bike_id": "3d1ba1deaee3fcb4b6bf5d58ce1a4f09", "lat": 38.92712566666667, "is_disabled": 0, "lon": -77.02088783333333, "fusion_lat": 0.0, "rental_uris": {"ios": "https://dc.lft.to/lastmile_qr_scan", "android": "https://dc.lft.to/lastmile_qr_scan"}, "type": "electric_scooter"}, {"name": "08bfd949318210788017766b04da287b", "is_reserved": 0, "fusion_lon": 0.0, "bike_id": "08bfd949318210788017766b04da287b", "lat": 38.88966833333333, "is_disabled": 0, "lon": -76.9273465, "fusion_lat": 0.0, "rental_uris": {"ios": "https://dc.lft.to/lastmile_qr_scan", "android": "https://dc.lft.to/lastmile_qr_scan"}, "type": "electric_scooter"}, {"name": "e5d823ddc899f0d6854f6272ebb1843a", "is_reserved": 0, "fusion_lon": 0.0, "bike_id": "e5d823ddc899f0d6854f6272ebb1843a", "lat": 38.902638833333334, "is_disabled": 0, "lon": -76.99519733333334, "fusion_lat": 0.0, "rental_uris": {"ios": "https://dc.lft.to/lastmile_qr_scan", "android": "https://dc.lft.to/lastmile_qr_scan"}, "type": "electric_scooter"}, {"name": "ec7d84b580e59014e1141542a7e249d8", "is_reserved": 0, "fusion_lon": 0.0, "bike_id": "ec7d84b580e59014e1141542a7e249d8", "lat": 38.90777533333333, "is_disabled": 0, "lon": -77.0716455, "fusion_lat": 0.0, "rental_uris": {"ios": "https://dc.lft.to/lastmile_qr_scan", "android": "https://dc.lft.to/lastmile_qr_scan"}, "type": "electric_scooter"}, {"name": "60d4578a1d2608be8a44862178f43e5c", "is_reserved": 0, "fusion_lon": 0.0, "bike_id": "60d4578a1d2608be8a44862178f43e5c", "lat": 38.91563566666667, "is_disabled": 0, "lon": -77.03220016666667, "fusion_lat": 0.0, "rental_uris": {"ios": "https://dc.lft.to/lastmile_qr_scan", "android": "https://dc.lft.to/lastmile_qr_scan"}, "type": "electric_scooter"}, {"name": "0e42fb3cbcd052743d1bfa377388ee22", "is_reserved": 0, "fusion_lon": 0.0, "bike_id": "0e42fb3cbcd052743d1bfa377388ee22", "lat": 38.83045933333333, "is_disabled": 0, "lon": -77.00824416666667, "fusion_lat": 0.0, "rental_uris": {"ios": "https://dc.lft.to/lastmile_qr_scan", "android": "https://dc.lft.to/lastmile_qr_scan"}, "type": "electric_bike"}, {"name": "d235e908ca642d5e537e136435793636", "is_reserved": 0, "fusion_lon": 0.0, "bike_id": "d235e908ca642d5e537e136435793636", "lat": 38.92160033333333, "is_disabled": 0, "lon": -77.02515366666667, "fusion_lat": 0.0, "rental_uris": {"ios": "https://dc.lft.to/lastmile_qr_scan", "android": "https://dc.lft.to/lastmile_qr_scan"}, "type": "electric_scooter"}, {"name": "6deebaf73a5e6aaba6dc7bc075181ecb", "is_reserved": 0, "fusion_lon": 0.0, "bike_id": "6deebaf73a5e6aaba6dc7bc075181ecb", "lat": 38.91837666666667, "is_disabled": 0, "lon": -77.041657, "fusion_lat": 0.0, "rental_uris": {"ios": "https://dc.lft.to/lastmile_qr_scan", "android": "https://dc.lft.to/lastmile_qr_scan"}, "type": "electric_scooter"}, {"name": "e3914b271d8877963b26aaabde750454", "is_reserved": 0, "fusion_lon": 0.0, "bike_id": "e3914b271d8877963b26aaabde750454", "lat": 38.897528666666666, "is_disabled": 0, "lon": -77.0270405, "fusion_lat": 0.0, "rental_uris": {"ios": "https://dc.lft.to/lastmile_qr_scan", "android": "https://dc.lft.to/lastmile_qr_scan"}, "type": "electric_scooter"}, {"name": "59a0d50b07426f680f2e8678b193aaab", "is_reserved": 0, "fusion_lon": 0.0, "bike_id": "59a0d50b07426f680f2e8678b193aaab", "lat": 38.897268, "is_disabled": 0, "lon": -76.9258905, "fusion_lat": 0.0, "rental_uris": {"ios": "https://dc.lft.to/lastmile_qr_scan", "android": "https://dc.lft.to/lastmile_qr_scan"}, "type": "electric_scooter"}, {"name": "b7a9c55b372625d5bd69f76b432e2380", "is_reserved": 0, "fusion_lon": 0.0, "bike_id": "b7a9c55b372625d5bd69f76b432e2380", "lat": 38.876365166666666, "is_disabled": 0, "lon": -77.00365516666666, "fusion_lat": 0.0, "rental_uris": {"ios": "https://dc.lft.to/lastmile_qr_scan", "android": "https://dc.lft.to/lastmile_qr_scan"}, "type": "electric_bike"}, {"name": "4bf628713fafa591a279d9a1816a5186", "is_reserved": 0, "fusion_lon": 0.0, "bike_id": "4bf628713fafa591a279d9a1816a5186", "lat": 38.89834, "is_disabled": 0, "lon": -77.0480865, "fusion_lat": 0.0, "rental_uris": {"ios": "https://dc.lft.to/lastmile_qr_scan", "android": "https://dc.lft.to/lastmile_qr_scan"}, "type": "electric_scooter"}, {"name": "2432cb4697a9bce240be372ca0865c25", "is_reserved": 0, "fusion_lon": 0.0, "bike_id": "2432cb4697a9bce240be372ca0865c25", "lat": 38.923369, "is_disabled": 0, "lon": -77.05270683333333, "fusion_lat": 0.0, "rental_uris": {"ios": "https://dc.lft.to/lastmile_qr_scan", "android": "https://dc.lft.to/lastmile_qr_scan"}, "type": "electric_scooter"}, {"name": "3af511f08b969857822abb32e4235f9c", "is_reserved": 0, "fusion_lon": 0.0, "bike_id": "3af511f08b969857822abb32e4235f9c", "lat": 38.90069166666667, "is_disabled": 0, "lon": -77.0277645, "fusion_lat": 0.0, "rental_uris": {"ios": "https://dc.lft.to/lastmile_qr_scan", "android": "https://dc.lft.to/lastmile_qr_scan"}, "type": "electric_scooter"}, {"name": "2a169e365bcf18fcddbf6836d507debc", "is_reserved": 0, "fusion_lon": 0.0, "bike_id": "2a169e365bcf18fcddbf6836d507debc", "lat": 38.925149166666664, "is_disabled": 0, "lon": -77.02356016666667, "fusion_lat": 0.0, "rental_uris": {"ios": "https://dc.lft.to/lastmile_qr_scan", "android": "https://dc.lft.to/lastmile_qr_scan"}, "type": "electric_scooter"}, {"name": "899e6d77f0fa8a3a46f7148100ac04b2", "is_reserved": 0, "fusion_lon": 0.0, "bike_id": "899e6d77f0fa8a3a46f7148100ac04b2", "lat": 38.898153666666666, "is_disabled": 0, "lon": -77.0480745, "fusion_lat": 0.0, "rental_uris": {"ios": "https://dc.lft.to/lastmile_qr_scan", "android": "https://dc.lft.to/lastmile_qr_scan"}, "type": "electric_scooter"}, {"name": "c849ae14043772c4f6ffd25c11d2a155", "is_reserved": 0, "fusion_lon": 0.0, "bike_id": "c849ae14043772c4f6ffd25c11d2a155", "lat": 38.90358116666667, "is_disabled": 0, "lon": -77.01109083333333, "fusion_lat": 0.0, "rental_uris": {"ios": "https://dc.lft.to/lastmile_qr_scan", "android": "https://dc.lft.to/lastmile_qr_scan"}, "type": "electric_scooter"}, {"name": "5f43edbd6be5d5d60666d63ae66362ac", "is_reserved": 0, "fusion_lon": 0.0, "bike_id": "5f43edbd6be5d5d60666d63ae66362ac", "lat": 38.91922533333333, "is_disabled": 0, "lon": -77.0250475, "fusion_lat": 0.0, "rental_uris": {"ios": "https://dc.lft.to/lastmile_qr_scan", "android": "https://dc.lft.to/lastmile_qr_scan"}, "type": "electric_scooter"}, {"name": "ad55efeda6dc74aa06c736b1bdc92d2f", "is_reserved": 0, "fusion_lon": 0.0, "bike_id": "ad55efeda6dc74aa06c736b1bdc92d2f", "lat": 38.892325166666666, "is_disabled": 0, "lon": -77.00294333333333, "fusion_lat": 0.0, "rental_uris": {"ios": "https://dc.lft.to/lastmile_qr_scan", "android": "https://dc.lft.to/lastmile_qr_scan"}, "type": "electric_scooter"}, {"name": "71f1cae82274b77f6414f354bfce25b8", "is_reserved": 0, "fusion_lon": 0.0, "bike_id": "71f1cae82274b77f6414f354bfce25b8", "lat": 38.90367716666667, "is_disabled": 0, "lon": -77.03868316666667, "fusion_lat": 0.0, "rental_uris": {"ios": "https://dc.lft.to/lastmile_qr_scan", "android": "https://dc.lft.to/lastmile_qr_scan"}, "type": "electric_scooter"}, {"name": "b0d60dd451a3978d62f3b53b270e39d5", "is_reserved": 0, "fusion_lon": 0.0, "bike_id": "b0d60dd451a3978d62f3b53b270e39d5", "lat": 38.899089833333335, "is_disabled": 0, "lon": -76.93384333333333, "fusion_lat": 0.0, "rental_uris": {"ios": "https://dc.lft.to/lastmile_qr_scan", "android": "https://dc.lft.to/lastmile_qr_scan"}, "type": "electric_scooter"}, {"name": "d1ef49b40a1fe5cd4e12b40af7379056", "is_reserved": 0, "fusion_lon": 0.0, "bike_id": "d1ef49b40a1fe5cd4e12b40af7379056", "lat": 38.907857, "is_disabled": 0, "lon": -77.02301, "fusion_lat": 0.0, "rental_uris": {"ios": "https://dc.lft.to/lastmile_qr_scan", "android": "https://dc.lft.to/lastmile_qr_scan"}, "type": "electric_scooter"}, {"name": "21b5b8c70e398bfda08b30e1714ab983", "is_reserved": 0, "fusion_lon": 0.0, "bike_id": "21b5b8c70e398bfda08b30e1714ab983", "lat": 38.899144666666665, "is_disabled": 0, "lon": -77.0405995, "fusion_lat": 0.0, "rental_uris": {"ios": "https://dc.lft.to/lastmile_qr_scan", "android": "https://dc.lft.to/lastmile_qr_scan"}, "type": "electric_scooter"}, {"name": "582057aaf5717a2ca1fc57445bae61d5", "is_reserved": 0, "fusion_lon": 0.0, "bike_id": "582057aaf5717a2ca1fc57445bae61d5", "lat": 38.908598, "is_disabled": 0, "lon": -77.0638865, "fusion_lat": 0.0, "rental_uris": {"ios": "https://dc.lft.to/lastmile_qr_scan", "android": "https://dc.lft.to/lastmile_qr_scan"}, "type": "electric_scooter"}, {"name": "39fa3184c235c690a9724280cd58380d", "is_reserved": 0, "fusion_lon": 0.0, "bike_id": "39fa3184c235c690a9724280cd58380d", "lat": 38.89709366666666, "is_disabled": 0, "lon": -77.02263666666667, "fusion_lat": 0.0, "rental_uris": {"ios": "https://dc.lft.to/lastmile_qr_scan", "android": "https://dc.lft.to/lastmile_qr_scan"}, "type": "electric_scooter"}, {"name": "eb591f8c92e808322863559a010c6be6", "is_reserved": 0, "fusion_lon": 0.0, "bike_id": "eb591f8c92e808322863559a010c6be6", "lat": 38.89858016666667, "is_disabled": 0, "lon": -77.048826, "fusion_lat": 0.0, "rental_uris": {"ios": "https://dc.lft.to/lastmile_qr_scan", "android": "https://dc.lft.to/lastmile_qr_scan"}, "type": "electric_scooter"}, {"name": "d34bb58314806aae1aacc87068a4010e", "is_reserved": 0, "fusion_lon": 0.0, "bike_id": "d34bb58314806aae1aacc87068a4010e", "lat": 38.912763, "is_disabled": 0, "lon": -77.02244666666667, "fusion_lat": 0.0, "rental_uris": {"ios": "https://dc.lft.to/lastmile_qr_scan", "android": "https://dc.lft.to/lastmile_qr_scan"}, "type": "electric_scooter"}, {"name": "20920c0b34e6b004e6dcd9309726ee31", "is_reserved": 0, "fusion_lon": 0.0, "bike_id": "20920c0b34e6b004e6dcd9309726ee31", "lat": 38.896570833333335, "is_disabled": 0, "lon": -77.01484066666667, "fusion_lat": 0.0, "rental_uris": {"ios": "https://dc.lft.to/lastmile_qr_scan", "android": "https://dc.lft.to/lastmile_qr_scan"}, "type": "electric_scooter"}, {"name": "cce09631d8a9583c63b9946604a8c12b", "is_reserved": 0, "fusion_lon": 0.0, "bike_id": "cce09631d8a9583c63b9946604a8c12b", "lat": 38.911106833333335, "is_disabled": 0, "lon": -77.03827866666667, "fusion_lat": 0.0, "rental_uris": {"ios": "https://dc.lft.to/lastmile_qr_scan", "android": "https://dc.lft.to/lastmile_qr_scan"}, "type": "electric_scooter"}, {"name": "65c9fe1a838da3c10759e4902d14eb19", "is_reserved": 0, "fusion_lon": 0.0, "bike_id": "65c9fe1a838da3c10759e4902d14eb19", "lat": 38.903842, "is_disabled": 0, "lon": -77.03844666666667, "fusion_lat": 0.0, "rental_uris": {"ios": "https://dc.lft.to/lastmile_qr_scan", "android": "https://dc.lft.to/lastmile_qr_scan"}, "type": "electric_scooter"}, {"name": "39279acbd66ce5624cb379b8263c8ebf", "is_reserved": 0, "fusion_lon": 0.0, "bike_id": "39279acbd66ce5624cb379b8263c8ebf", "lat": 38.90739466666667, "is_disabled": 0, "lon": -77.0325835, "fusion_lat": 0.0, "rental_uris": {"ios": "https://dc.lft.to/lastmile_qr_scan", "android": "https://dc.lft.to/lastmile_qr_scan"}, "type": "electric_scooter"}, {"name": "cc1331e007d3146d592d2286ea2d7e06", "is_reserved": 0, "fusion_lon": 0.0, "bike_id": "cc1331e007d3146d592d2286ea2d7e06", "lat": 38.967750333333335, "is_disabled": 0, "lon": -76.99647166666666, "fusion_lat": 0.0, "rental_uris": {"ios": "https://dc.lft.to/lastmile_qr_scan", "android": "https://dc.lft.to/lastmile_qr_scan"}, "type": "electric_bike"}, {"name": "9b9bf800dc284b7809c2b89ddba72419", "is_reserved": 0, "fusion_lon": 0.0, "bike_id": "9b9bf800dc284b7809c2b89ddba72419", "lat": 38.891916, "is_disabled": 0, "lon": -76.9767325, "fusion_lat": 0.0, "rental_uris": {"ios": "https://dc.lft.to/lastmile_qr_scan", "android": "https://dc.lft.to/lastmile_qr_scan"}, "type": "electric_scooter"}, {"name": "7d26e6557b9ec57163e915f01edcb2d1", "is_reserved": 0, "fusion_lon": 0.0, "bike_id": "7d26e6557b9ec57163e915f01edcb2d1", "lat": 38.900301666666664, "is_disabled": 0, "lon": -77.04302083333333, "fusion_lat": 0.0, "rental_uris": {"ios": "https://dc.lft.to/lastmile_qr_scan", "android": "https://dc.lft.to/lastmile_qr_scan"}, "type": "electric_scooter"}, {"name": "c50004030883007a7e33361daf6cdaf0", "is_reserved": 0, "fusion_lon": 0.0, "bike_id": "c50004030883007a7e33361daf6cdaf0", "lat": 38.901713, "is_disabled": 0, "lon": -77.05123883333333, "fusion_lat": 0.0, "rental_uris": {"ios": "https://dc.lft.to/lastmile_qr_scan", "android": "https://dc.lft.to/lastmile_qr_scan"}, "type": "electric_scooter"}, {"name": "bf8a025f4ab2a859af89d5a2fa7e2329", "is_reserved": 0, "fusion_lon": 0.0, "bike_id": "bf8a025f4ab2a859af89d5a2fa7e2329", "lat": 38.897293166666664, "is_disabled": 0, "lon": -77.01909466666666, "fusion_lat": 0.0, "rental_uris": {"ios": "https://dc.lft.to/lastmile_qr_scan", "android": "https://dc.lft.to/lastmile_qr_scan"}, "type": "electric_scooter"}, {"name": "6f2b2e85f02b839f64fbb61e324d6e5e", "is_reserved": 0, "fusion_lon": 0.0, "bike_id": "6f2b2e85f02b839f64fbb61e324d6e5e", "lat": 38.892149333333336, "is_disabled": 0, "lon": -77.02595783333334, "fusion_lat": 0.0, "rental_uris": {"ios": "https://dc.lft.to/lastmile_qr_scan", "android": "https://dc.lft.to/lastmile_qr_scan"}, "type": "electric_scooter"}, {"name": "10cfa486c9e1dfe5bced5c014c6b18c1", "is_reserved": 0, "fusion_lon": 0.0, "bike_id": "10cfa486c9e1dfe5bced5c014c6b18c1", "lat": 38.9181205, "is_disabled": 0, "lon": -77.0252725, "fusion_lat": 0.0, "rental_uris": {"ios": "https://dc.lft.to/lastmile_qr_scan", "android": "https://dc.lft.to/lastmile_qr_scan"}, "type": "electric_scooter"}, {"name": "75aba2de3094ceb4bb5b085fd0ab245b", "is_reserved": 0, "fusion_lon": 0.0, "bike_id": "75aba2de3094ceb4bb5b085fd0ab245b", "lat": 38.921561, "is_disabled": 0, "lon": -77.04241433333334, "fusion_lat": 0.0, "rental_uris": {"ios": "https://dc.lft.to/lastmile_qr_scan", "android": "https://dc.lft.to/lastmile_qr_scan"}, "type": "electric_scooter"}, {"name": "37446ec622ae05cd9a11e233ed5cb0a8", "is_reserved": 0, "fusion_lon": 0.0, "bike_id": "37446ec622ae05cd9a11e233ed5cb0a8", "lat": 38.89727716666667, "is_disabled": 0, "lon": -76.92585516666666, "fusion_lat": 0.0, "rental_uris": {"ios": "https://dc.lft.to/lastmile_qr_scan", "android": "https://dc.lft.to/lastmile_qr_scan"}, "type": "electric_scooter"}, {"name": "754459e86ec6b24334cd30299730778d", "is_reserved": 0, "fusion_lon": 0.0, "bike_id": "754459e86ec6b24334cd30299730778d", "lat": 38.84200033333333, "is_disabled": 0, "lon": -77.09020166666667, "fusion_lat": 0.0, "rental_uris": {"ios": "https://dc.lft.to/lastmile_qr_scan", "android": "https://dc.lft.to/lastmile_qr_scan"}, "type": "electric_bike"}, {"name": "b2e75276bdee9b89eddb170d4a069920", "is_reserved": 0, "fusion_lon": 0.0, "bike_id": "b2e75276bdee9b89eddb170d4a069920", "lat": 38.91493466666667, "is_disabled": 0, "lon": -77.018554, "fusion_lat": 0.0, "rental_uris": {"ios": "https://dc.lft.to/lastmile_qr_scan", "android": "https://dc.lft.to/lastmile_qr_scan"}, "type": "electric_scooter"}, {"name": "23ff6f036a37a0ecea34969417e65c03", "is_reserved": 0, "fusion_lon": 0.0, "bike_id": "23ff6f036a37a0ecea34969417e65c03", "lat": 38.9261195, "is_disabled": 0, "lon": -77.02162483333333, "fusion_lat": 0.0, "rental_uris": {"ios": "https://dc.lft.to/lastmile_qr_scan", "android": "https://dc.lft.to/lastmile_qr_scan"}, "type": "electric_scooter"}, {"name": "7db0a523cb4f12c1e3d92a87b4d624f5", "is_reserved": 0, "fusion_lon": 0.0, "bike_id": "7db0a523cb4f12c1e3d92a87b4d624f5", "lat": 38.89436416666667, "is_disabled": 0, "lon": -76.98085316666666, "fusion_lat": 0.0, "rental_uris": {"ios": "https://dc.lft.to/lastmile_qr_scan", "android": "https://dc.lft.to/lastmile_qr_scan"}, "type": "electric_scooter"},