{"data": {"bikes": [{"lon": -77.00150316666667, "lat": 38.91564733333333, "name": "07f052ddae2d657af957f910fd25a016", "fusion_lat": 0.0, "fusion_lon": 0.0, "rental_uris": {"android": "https://dc.lft.to/lastmile_qr_scan", "ios": "https://dc.lft.to/lastmile_qr_scan"}, "is_reserved": 0, "is_disabled": 0, "type": "electric_scooter", "bike_id": "07f052ddae2d657af957f910fd25a016"}, {"lon": -77.05315166666666, "lat": 38.90644616666667, "name": "41277634eac1ec9ae0261ebbfaea3070", "fusion_lat": 0.0, "fusion_lon": 0.0, "rental_uris": {"android": "https://dc.lft.to/lastmile_qr_scan", "ios": "https://dc.lft.to/lastmile_qr_scan"}, "is_reserved": 0, "is_disabled": 0, "type": "electric_scooter", "bike_id": "41277634eac1ec9ae0261ebbfaea3070"}, {"lon": -77.00509916666667, "lat": 38.875360666666666, "name": "409034d134810bfd4b82a9bd3d726100", "fusion_lat": 0.0, "fusion_lon": 0.0, "rental_uris": {"android": "https://dc.lft.to/lastmile_qr_scan", "ios": "https://dc.lft.to/lastmile_qr_scan"}, "is_reserved": 0, "is_disabled": 0, "type": "electric_scooter", "bike_id": "409034d134810bfd4b82a9bd3d726100"}, {"lon": -77.02721466666667, "lat": 38.89714716666667, "name": "e3b143848e539f6f0e207e1cc0be5356", "fusion_lat": 0.0, "fusion_lon": 0.0, "rental_uris": {"android": "https://dc.lft.to/lastmile_qr_scan", "ios": "https://dc.lft.to/lastmile_qr_scan"}, "is_reserved": 0, "is_disabled": 0, "type": "electric_scooter", "bike_id": "e3b143848e539f6f0e207e1cc0be5356"}, {"lon": -77.0034895, "lat": 38.892613, "name": "d3d47355c2e61435a08008a7a1498e44", "fusion_lat": 0.0, "fusion_lon": 0.0, "rental_uris": {"android": "https://dc.lft.to/lastmile_qr_scan", "ios": "https://dc.lft.to/lastmile_qr_scan"}, "is_reserved": 0, "is_disabled": 0, "type": "electric_scooter", "bike_id": "d3d47355c2e61435a08008a7a1498e44"}, {"lon": -76.98360516666666, "lat": 38.91504033333333, "name": "b2333e0f62f51420640b2eac938a40ae", "fusion_lat": 0.0, "fusion_lon": 0.0, "rental_uris": {"android": "https://dc.lft.to/lastmile_qr_scan", "ios": "https://dc.lft.to/lastmile_qr_scan"}, "is_reserved": 0, "is_disabled": 0, "type": "electric_scooter", "bike_id": "b2333e0f62f51420640b2eac938a40ae"}, {"lon": -77.02280133333333, "lat": 38.927264666666666, "name": "fa37be8a3de6c5b1190246505d380398", "fusion_lat": 0.0, "fusion_lon": 0.0, "rental_uris": {"android": "https://dc.lft.to/lastmile_qr_scan", "ios": "https://dc.lft.to/lastmile_qr_scan"}, "is_reserved": 0, "is_disabled": 0, "type": "electric_scooter", "bike_id": "fa37be8a3de6c5b1190246505d380398"}, {"lon": -76.9900505, "lat": 38.865051666666666, "name": "d1641c055d05cb709e83c10e852a7640", "fusion_lat": 0.0, "fusion_lon": 0.0, "rental_uris": {"android": "https://dc.lft.to/lastmile_qr_scan", "ios": "https://dc.lft.to/lastmile_qr_scan"}, "is_reserved": 0, "is_disabled": 0, "type": "electric_scooter", "bike_id": "d1641c055d05cb709e83c10e852a7640"}, {"lon": -76.98640766666666, "lat": 38.90016133333334, "name": "730d72020360963aac37c257221bbf1f", "fusion_lat": 0.0, "fusion_lon": 0.0, "rental_uris": {"android": "https://dc.lft.to/lastmile_qr_scan", "ios": "https://dc.lft.to/lastmile_qr_scan"}, "is_reserved": 0, "is_disabled": 0, "type": "electric_scooter", "bike_id": "730d72020360963aac37c257221bbf1f"}, {"lon": -76.934321, "lat": 38.8996785, "name": "25c03f85a5383884711815a36e6fc96a", "fusion_lat": 0.0, "fusion_lon": 0.0, "rental_uris": {"android": "https://dc.lft.to/lastmile_qr_scan", "ios": "https://dc.lft.to/lastmile_qr_scan"}, "is_reserved": 0, "is_disabled": 0, "type": "electric_scooter", "bike_id": "25c03f85a5383884711815a36e6fc96a"}, {"lon": -76.93761216666667, "lat": 38.8905135, "name": "8a7e0d60fd0f60565bd5a5ed580153c6", "fusion_lat": 0.0, "fusion_lon": 0.0, "rental_uris": {"android": "https://dc.lft.to/lastmile_qr_scan", "ios": "https://dc.lft.to/lastmile_qr_scan"}, "is_reserved": 0, "is_disabled": 0, "type": "electric_scooter", "bike_id": "8a7e0d60fd0f60565bd5a5ed580153c6"}, {"lon": -77.0299345, "lat": 38.91697383333333, "name": "d6b23513e28b317d2884b4c0a95a313a", "fusion_lat": 0.0, "fusion_lon": 0.0, "rental_uris": {"android": "https://dc.lft.to/lastmile_qr_scan", "ios": "https://dc.lft.to/lastmile_qr_scan"}, "is_reserved": 0, "is_disabled": 0, "type": "electric_scooter", "bike_id": "d6b23513e28b317d2884b4c0a95a313a"}, {"lon": -77.04699983333333, "lat": 38.9210075, "name": "f09f1d7e231be56197daadc3f4e774d3", "fusion_lat": 0.0, "fusion_lon": 0.0, "rental_uris": {"android": "https://dc.lft.to/lastmile_qr_scan", "ios": "https://dc.lft.to/lastmile_qr_scan"}, "is_reserved": 0, "is_disabled": 0, "type": "electric_scooter", "bike_id": "f09f1d7e231be56197daadc3f4e774d3"}, {"lon": -77.02190166666666, "lat": 38.913298166666664, "name": "4a119e916d048533548a0d8440d81558", "fusion_lat": 0.0, "fusion_lon": 0.0, "rental_uris": {"android": "https://dc.lft.to/lastmile_qr_scan", "ios": "https://dc.lft.to/lastmile_qr_scan"}, "is_reserved": 0, "is_disabled": 0, "type": "electric_scooter", "bike_id": "4a119e916d048533548a0d8440d81558"}, {"lon": -77.03201383333334, "lat": 38.917984, "name": "9ef0f4fac38836324f5b9c753349858f", "fusion_lat": 0.0, "fusion_lon": 0.0, "rental_uris": {"android": "https://dc.lft.to/lastmile_qr_scan", "ios": "https://dc.lft.to/lastmile_qr_scan"}, "is_reserved": 0, "is_disabled": 0, "type": "electric_scooter", "bike_id": "9ef0f4fac38836324f5b9c753349858f"}, {"lon": -77.02407716666667, "lat": 38.909786833333335, "name": "c7b0d11b0509429382717cb0e5a0d648", "fusion_lat": 0.0, "fusion_lon": 0.0, "rental_uris": {"android": "https://dc.lft.to/lastmile_qr_scan", "ios": "https://dc.lft.to/lastmile_qr_scan"}, "is_reserved": 0, "is_disabled": 0, "type": "electric_scooter", "bike_id": "c7b0d11b0509429382717cb0e5a0d648"}, {"lon": -77.0258945, "lat": 38.896038, "name": "a6a7cb7997bd6594d49871d0fe098c0f", "fusion_lat": 0.0, "fusion_lon": 0.0, "rental_uris": {"android": "https://dc.lft.to/lastmile_qr_scan", "ios": "https://dc.lft.to/lastmile_qr_scan"}, "is_reserved": 0, "is_disabled": 0, "type": "electric_scooter", "bike_id": "a6a7cb7997bd6594d49871d0fe098c0f"}, {"lon": -77.02856633333333, "lat": 38.93344166666667, "name": "9cec836797f003e3dd86f1b852214ed9", "fusion_lat": 0.0, "fusion_lon": 0.0, "rental_uris": {"android": "https://dc.lft.to/lastmile_qr_scan", "ios": "https://dc.lft.to/lastmile_qr_scan"}, "is_reserved": 0, "is_disabled": 0, "type": "electric_scooter", "bike_id": "9cec836797f003e3dd86f1b852214ed9"}, {"lon": -77.02648666666667, "lat": 38.938645333333334, "name": "f6f9f093ab662d78b8be13da5326990e", "fusion_lat": 0.0, "fusion_lon": 0.0, "rental_uris": {"android": "https://dc.lft.to/lastmile_qr_scan", "ios": "https://dc.lft.to/lastmile_qr_scan"}, "is_reserved": 0, "is_disabled": 0, "type": "electric_scooter", "bike_id": "f6f9f093ab662d78b8be13da5326990e"}, {"lon": -77.02039116666667, "lat": 38.87938316666666, "name": "2a6edd018f78f0b3bfc11ab48c042f14", "fusion_lat": 0.0, "fusion_lon": 0.0, "rental_uris": {"android": "https://dc.lft.to/lastmile_qr_scan", "ios": "https://dc.lft.to/lastmile_qr_scan"}, "is_reserved": 0, "is_disabled": 0, "type": "electric_scooter", "bike_id": "2a6edd018f78f0b3bfc11ab48c042f14"}, {"lon": -77.03250383333334, "lat": 38.929053833333334, "name": "c9ae77db3b75cc7613dbb2fbf0e8ac12", "fusion_lat": 0.0, "fusion_lon": 0.0, "rental_uris": {"android": "https://dc.lft.to/lastmile_qr_scan", "ios": "https://dc.lft.to/lastmile_qr_scan"}, "is_reserved": 0, "is_disabled": 0, "type": "electric_scooter", "bike_id": "c9ae77db3b75cc7613dbb2fbf0e8ac12"}, {"lon": -77.0387595, "lat": 38.91693266666667, "name": "e08b6fa92874eecf32226167224cdde6", "fusion_lat": 0.0, "fusion_lon": 0.0, "rental_uris": {"android": "https://dc.lft.to/lastmile_qr_scan", "ios": "https://dc.lft.to/lastmile_qr_scan"}, "is_reserved": 0, "is_disabled": 0, "type": "electric_scooter", "bike_id": "e08b6fa92874eecf32226167224cdde6"}, {"lon": -77.06758683333334, "lat": 38.91563383333333, "name": "58c092563eb06be98507c94d7167dd14", "fusion_lat": 0.0, "fusion_lon": 0.0, "rental_uris": {"android": "https://dc.lft.to/lastmile_qr_scan", "ios": "https://dc.lft.to/lastmile_qr_scan"}, "is_reserved": 0, "is_disabled": 0, "type": "electric_scooter", "bike_id": "58c092563eb06be98507c94d7167dd14"}, {"lon": -76.96629133333333, "lat": 38.9420355, "name": "8e70f43bfc2d887b29c5d7d54a5461bc", "fusion_lat": 0.0, "fusion_lon": 0.0, "rental_uris": {"android": "https://dc.lft.to/lastmile_qr_scan", "ios": "https://dc.lft.to/lastmile_qr_scan"}, "is_reserved": 0, "is_disabled": 0, "type": "electric_bike", "bike_id": "8e70f43bfc2d887b29c5d7d54a5461bc"}, {"lon": -77.02183466666666, "lat": 38.9018425, "name": "34aa170755a04a4192098c29022056a2", "fusion_lat": 0.0, "fusion_lon": 0.0, "rental_uris": {"android": "https://dc.lft.to/lastmile_qr_scan", "ios": "https://dc.lft.to/lastmile_qr_scan"}, "is_reserved": 0, "is_disabled": 0, "type": "electric_scooter", "bike_id": "34aa170755a04a4192098c29022056a2"}, {"lon": -77.02214833333333, "lat": 38.887683833333334, "name": "ab5198063110b1373e6d1d86912ed2b5", "fusion_lat": 0.0, "fusion_lon": 0.0, "rental_uris": {"android": "https://dc.lft.to/lastmile_qr_scan", "ios": "https://dc.lft.to/lastmile_qr_scan"}, "is_reserved": 0, "is_disabled": 0, "type": "electric_scooter", "bike_id": "ab5198063110b1373e6d1d86912ed2b5"}, {"lon": -77.0346455, "lat": 38.920663166666664, "name": "2b1cffee9b6db6af18316e21fcf2f344", "fusion_lat": 0.0, "fusion_lon": 0.0, "rental_uris": {"android": "https://dc.lft.to/lastmile_qr_scan", "ios": "https://dc.lft.to/lastmile_qr_scan"}, "is_reserved": 0, "is_disabled": 0, "type": "electric_scooter", "bike_id": "2b1cffee9b6db6af18316e21fcf2f344"}, {"lon": -76.98361833333334, "lat": 38.864809666666666, "name": "5597c181295ed21fcae67fca2a7ea89e", "fusion_lat": 0.0, "fusion_lon": 0.0, "rental_uris": {"android": "https://dc.lft.to/lastmile_qr_scan", "ios": "https://dc.lft.to/lastmile_qr_scan"}, "is_reserved": 0, "is_disabled": 0, "type": "electric_scooter", "bike_id": "5597c181295ed21fcae67fca2a7ea89e"}, {"lon": -77.11429133333333, "lat": 38.8524445, "name": "ba01c8f7991958f028658b969e0ae8a4", "fusion_lat": 0.0, "fusion_lon": 0.0, "rental_uris": {"android": "https://dc.lft.to/lastmile_qr_scan", "ios": "https://dc.lft.to/lastmile_qr_scan"}, "is_reserved": 0, "is_disabled": 0, "type": "electric_bike", "bike_id": "ba01c8f7991958f028658b969e0ae8a4"}, {"lon": -76.96780133333333, "lat": 38.861533, "name": "af5691ea9425d3d4a6eacfff1b907397", "fusion_lat": 0.0, "fusion_lon": 0.0, "rental_uris": {"android": "https://dc.lft.to/lastmile_qr_scan", "ios": "https://dc.lft.to/lastmile_qr_scan"}, "is_reserved": 0, "is_disabled": 0, "type": "electric_scooter", "bike_id": "af5691ea9425d3d4a6eacfff1b907397"}, {"lon": -77.02887766666667, "lat": 38.90714233333333, "name": "895ef482ef955cb275c6ffd5d6c7227e", "fusion_lat": 0.0, "fusion_lon": 0.0, "rental_uris": {"android": "https://dc.lft.to/lastmile_qr_scan", "ios": "https://dc.lft.to/lastmile_qr_scan"}, "is_reserved": 0, "is_disabled": 0, "type": "electric_scooter", "bike_id": "895ef482ef955cb275c6ffd5d6c7227e"}, {"lon": -76.9995235, "lat": 38.90869816666667, "name": "0808ba06ae2a8f8e44327958a401f1a8", "fusion_lat": 0.0, "fusion_lon": 0.0, "rental_uris": {"android": "https://dc.lft.to/lastmile_qr_scan", "ios": "https://dc.lft.to/lastmile_qr_scan"}, "is_reserved": 0, "is_disabled": 0, "type": "electric_scooter", "bike_id": "0808ba06ae2a8f8e44327958a401f1a8"}, {"lon": -77.03643933333333, "lat": 38.916232, "name": "cc60c977381d23c88e1091bd1b053179", "fusion_lat": 0.0, "fusion_lon": 0.0, "rental_uris": {"android": "https://dc.lft.to/lastmile_qr_scan", "ios": "https://dc.lft.to/lastmile_qr_scan"}, "is_reserved": 0, "is_disabled": 0, "type": "electric_scooter", "bike_id": "cc60c977381d23c88e1091bd1b053179"}, {"lon": -77.053271, "lat": 38.9050885, "name": "02d2a756c9a5d606a42dd69cde85a1aa", "fusion_lat": 0.0, "fusion_lon": 0.0, "rental_uris": {"android": "https://dc.lft.to/lastmile_qr_scan", "ios": "https://dc.lft.to/lastmile_qr_scan"}, "is_reserved": 0, "is_disabled": 0, "type": "electric_scooter", "bike_id": "02d2a756c9a5d606a42dd69cde85a1aa"}, {"lon": -76.99763233333333, "lat": 38.92268133333334, "name": "aeb0a7570a58690885bfac8a0bf23a05", "fusion_lat": 0.0, "fusion_lon": 0.0, "rental_uris": {"android": "https://dc.lft.to/lastmile_qr_scan", "ios": "https://dc.lft.to/lastmile_qr_scan"}, "is_reserved": 0, "is_disabled": 0, "type": "electric_scooter", "bike_id": "aeb0a7570a58690885bfac8a0bf23a05"}, {"lon": -77.03078066666667, "lat": 38.8996955, "name": "cdab354ac402e7a7496e4077caa7d903", "fusion_lat": 0.0, "fusion_lon": 0.0, "rental_uris": {"android": "https://dc.lft.to/lastmile_qr_scan", "ios": "https://dc.lft.to/lastmile_qr_scan"}, "is_reserved": 0, "is_disabled": 0, "type": "electric_scooter", "bike_id": "cdab354ac402e7a7496e4077caa7d903"}, {"lon": -77.04480383333333, "lat": 38.90896466666667, "name": "9acc37b7664e444b9f4916592f036685", "fusion_lat": 0.0, "fusion_lon": 0.0, "rental_uris": {"android": "https://dc.lft.to/lastmile_qr_scan", "ios": "https://dc.lft.to/lastmile_qr_scan"}, "is_reserved": 0, "is_disabled": 0, "type": "electric_scooter", "bike_id": "9acc37b7664e444b9f4916592f036685"}, {"lon": -77.03223233333334, "lat": 38.892214333333335, "name": "062844222640efe5e43f3fb731b4c459", "fusion_lat": 0.0, "fusion_lon": 0.0, "rental_uris": {"android": "https://dc.lft.to/lastmile_qr_scan", "ios": "https://dc.lft.to/lastmile_qr_scan"}, "is_reserved": 0, "is_disabled": 0, "type": "electric_scooter", "bike_id": "062844222640efe5e43f3fb731b4c459"}, {"lon": -77.0337595, "lat": 38.90958166666667, "name": "c6e9480752ec2728353095817bbcf80f", "fusion_lat": 0.0, "fusion_lon": 0.0, "rental_uris": {"android": "https://dc.lft.to/lastmile_qr_scan", "ios": "https://dc.lft.to/lastmile_qr_scan"}, "is_reserved": 0, "is_disabled": 0, "type": "electric_scooter", "bike_id": "c6e9480752ec2728353095817bbcf80f"}, {"lon": -76.97092683333334, "lat": 38.878789, "name": "aa5744a5470795352e90a75f316604dc", "fusion_lat": 0.0, "fusion_lon": 0.0, "rental_uris": {"android": "https://dc.lft.to/lastmile_qr_scan", "ios": "https://dc.lft.to/lastmile_qr_scan"}, "is_reserved": 0, "is_disabled": 0, "type": "electric_scooter", "bike_id": "aa5744a5470795352e90a75f316604dc"}, {"lon": -77.02953016666666, "lat": 38.89751166666667, "name": "910f190a4e01a8e31bfdd7c21926c9d1", "fusion_lat": 0.0, "fusion_lon": 0.0, "rental_uris": {"android": "https://dc.lft.to/lastmile_qr_scan", "ios": "https://dc.lft.to/lastmile_qr_scan"}, "is_reserved": 0, "is_disabled": 0, "type": "electric_scooter", "bike_id": "910f190a4e01a8e31bfdd7c21926c9d1"}, {"lon": -77.0326455, "lat": 38.93820216666667, "name": "cae789eeadcdcde8b9f75a77b0c1c00a", "fusion_lat": 0.0, "fusion_lon": 0.0, "rental_uris": {"android": "https://dc.lft.to/lastmile_qr_scan", "ios": "https://dc.lft.to/lastmile_qr_scan"}, "is_reserved": 0, "is_disabled": 0, "type": "electric_scooter", "bike_id": "cae789eeadcdcde8b9f75a77b0c1c00a"}, {"lon": -77.03506733333333, "lat": 38.92136983333333, "name": "9cbe9e16dc383420f1565fa6ea610cf7", "fusion_lat": 0.0, "fusion_lon": 0.0, "rental_uris": {"android": "https://dc.lft.to/lastmile_qr_scan", "ios": "https://dc.lft.to/lastmile_qr_scan"}, "is_reserved": 0, "is_disabled": 0, "type": "electric_scooter", "bike_id": "9cbe9e16dc383420f1565fa6ea610cf7"}, {"lon": -77.0269535, "lat": 38.912721833333336, "name": "b1a9e33d4578e743d7387c616f077c51", "fusion_lat": 0.0, "fusion_lon": 0.0, "rental_uris": {"android": "https://dc.lft.to/lastmile_qr_scan", "ios": "https://dc.lft.to/lastmile_qr_scan"}, "is_reserved": 0, "is_disabled": 0, "type": "electric_scooter", "bike_id": "b1a9e33d4578e743d7387c616f077c51"}, {"lon": -77.09194666666667, "lat": 38.91717833333333, "name": "02b7b7f5a5678157bc056e6e6b8a094d", "fusion_lat": 0.0, "fusion_lon": 0.0, "rental_uris": {"android": "https://dc.lft.to/lastmile_qr_scan", "ios": "https://dc.lft.to/lastmile_qr_scan"}, "is_reserved": 0, "is_disabled": 0, "type": "electric_scooter", "bike_id": "02b7b7f5a5678157bc056e6e6b8a094d"}, {"lon": -77.02236966666666, "lat": 38.911062333333334, "name": "29ed004209d35bdbefec4d50d9783f80", "fusion_lat": 0.0, "fusion_lon": 0.0, "rental_uris": {"android": "https://dc.lft.to/lastmile_qr_scan", "ios": "https://dc.lft.to/lastmile_qr_scan"}, "is_reserved": 0, "is_disabled": 0, "type": "electric_scooter", "bike_id": "29ed004209d35bdbefec4d50d9783f80"}, {"lon": -77.033002, "lat": 38.95644133333333, "name": "af9463ad1e72b92ae4822d40f72deca3", "fusion_lat": 0.0, "fusion_lon": 0.0, "rental_uris": {"android": "https://dc.lft.to/lastmile_qr_scan", "ios": "https://dc.lft.to/lastmile_qr_scan"}, "is_reserved": 0, "is_disabled": 0, "type": "electric_scooter", "bike_id": "af9463ad1e72b92ae4822d40f72deca3"}, {"lon": -77.0344025, "lat": 38.91839233333334, "name": "1e5538990268de94d434732656434c78", "fusion_lat": 0.0, "fusion_lon": 0.0, "rental_uris": {"android": "https://dc.lft.to/lastmile_qr_scan", "ios": "https://dc.lft.to/lastmile_qr_scan"}, "is_reserved": 0, "is_disabled": 0, "type": "electric_scooter", "bike_id": "1e5538990268de94d434732656434c78"}, {"lon": -77.03248616666667, "lat": 38.9593185, "name": "987f905ea891c6a8c2bf71f163bf9bd6", "fusion_lat": 0.0, "fusion_lon": 0.0, "rental_uris": {"android": "https://dc.lft.to/lastmile_qr_scan", "ios": "https://dc.lft.to/lastmile_qr_scan"}, "is_reserved": 0, "is_disabled": 0, "type": "electric_scooter", "bike_id": "987f905ea891c6a8c2bf71f163bf9bd6"}, {"lon": -77.04262483333333, "lat": 38.917036, "name": "b23bb019745a141cdb0be6ff6e81049a", "fusion_lat": 0.0, "fusion_lon": 0.0, "rental_uris": {"android": "https://dc.lft.to/lastmile_qr_scan", "ios": "https://dc.lft.to/lastmile_qr_scan"}, "is_reserved": 0, "is_disabled": 0, "type": "electric_scooter", "bike_id": "b23bb019745a141cdb0be6ff6e81049a"}, {"lon": -77.02835733333333, "lat": 38.88769933333333, "name": "e878a475bba69cab28fbd74d8a51cfe3", "fusion_lat": 0.0, "fusion_lon": 0.0, "rental_uris": {"android": "https://dc.lft.to/lastmile_qr_scan", "ios": "https://dc.lft.to/lastmile_qr_scan"}, "is_reserved": 0, "is_disabled": 0, "type": "electric_scooter", "bike_id": "e878a475bba69cab28fbd74d8a51cfe3"}, {"lon": -77.01429166666667, "lat": 38.929946666666666, "name": "c04b38871ce1118d17f7452fd72a620a", "fusion_lat": 0.0, "fusion_lon": 0.0, "rental_uris": {"android": "https://dc.lft.to/lastmile_qr_scan", "ios": "https://dc.lft.to/lastmile_qr_scan"}, "is_reserved": 0, "is_disabled": 0, "type": "electric_scooter", "bike_id": "c04b38871ce1118d17f7452fd72a620a"}, {"lon": -77.0383935, "lat": 38.90256983333333, "name": "0130b64aec838ba4fa6684aa4dba6080", "fusion_lat": 0.0, "fusion_lon": 0.0, "rental_uris": {"android": "https://dc.lft.to/lastmile_qr_scan", "ios": "https://dc.lft.to/lastmile_qr_scan"}, "is_reserved": 0, "is_disabled": 0, "type": "electric_scooter", "bike_id": "0130b64aec838ba4fa6684aa4dba6080"}, {"lon": -77.05634583333334, "lat": 38.924079666666664, "name": "6a78a025be8e661613e82a6108990ae7", "fusion_lat": 0.0, "fusion_lon": 0.0, "rental_uris": {"android": "https://dc.lft.to/lastmile_qr_scan", "ios": "https://dc.lft.to/lastmile_qr_scan"}, "is_reserved": 0, "is_disabled": 0, "type": "electric_scooter", "bike_id": "6a78a025be8e661613e82a6108990ae7"}, {"lon": -77.0437355, "lat": 38.9038285, "name": "5b9391a350ed7c421884eafae839cb5e", "fusion_lat": 0.0, "fusion_lon": 0.0, "rental_uris": {"android": "https://dc.lft.to/lastmile_qr_scan", "ios": "https://dc.lft.to/lastmile_qr_scan"}, "is_reserved": 0, "is_disabled": 0, "type": "electric_scooter", "bike_id": "5b9391a350ed7c421884eafae839cb5e"}, {"lon": -77.02978383333334, "lat": 38.92256033333334, "name": "4183fdf92693ab893fe697fe6667329d", "fusion_lat": 0.0, "fusion_lon": 0.0, "rental_uris": {"android": "https://dc.lft.to/lastmile_qr_scan", "ios": "https://dc.lft.to/lastmile_qr_scan"}, "is_reserved": 0, "is_disabled": 0, "type": "electric_scooter", "bike_id": "4183fdf92693ab893fe697fe6667329d"}, {"lon": -77.02930783333333, "lat": 38.9346145, "name": "0599e12fb3394f73b15d89e7994fbc2b", "fusion_lat": 0.0, "fusion_lon": 0.0, "rental_uris": {"android": "https://dc.lft.to/lastmile_qr_scan", "ios": "https://dc.lft.to/lastmile_qr_scan"}, "is_reserved": 0, "is_disabled": 0, "type": "electric_scooter", "bike_id": "0599e12fb3394f73b15d89e7994fbc2b"}, {"lon": -76.9985405, "lat": 38.900463, "name": "465ad1247fd2085e7c37a1fc013fbd36", "fusion_lat": 0.0, "fusion_lon": 0.0, "rental_uris": {"android": "https://dc.lft.to/lastmile_qr_scan", "ios": "https://dc.lft.to/lastmile_qr_scan"}, "is_reserved": 0, "is_disabled": 0, "type": "electric_scooter", "bike_id": "465ad1247fd2085e7c37a1fc013fbd36"}, {"lon": -76.916553, "lat": 38.86859366666667, "name": "7c4c893fe3b9dbcc821c6f408432835d", "fusion_lat": 0.0, "fusion_lon": 0.0, "rental_uris": {"android": "https://dc.lft.to/lastmile_qr_scan", "ios": "https://dc.lft.to/lastmile_qr_scan"}, "is_reserved": 0, "is_disabled": 0, "type": "electric_bike", "bike_id": "7c4c893fe3b9dbcc821c6f408432835d"}, {"lon": -77.00209566666666, "lat": 38.90221283333333, "name": "fe421ae51acc5d0c263e02f9827db7cd", "fusion_lat": 0.0, "fusion_lon": 0.0, "rental_uris": {"android": "https://dc.lft.to/lastmile_qr_scan", "ios": "https://dc.lft.to/lastmile_qr_scan"}, "is_reserved": 0, "is_disabled": 0, "type": "electric_scooter", "bike_id": "fe421ae51acc5d0c263e02f9827db7cd"}, {"lon": -77.10766733333334, "lat": 38.8922565, "name": "f31b877706eb9a9edcb69d0a471d9e52", "fusion_lat": 0.0, "fusion_lon": 0.0, "rental_uris": {"android": "https://dc.lft.to/lastmile_qr_scan", "ios": "https://dc.lft.to/lastmile_qr_scan"}, "is_reserved": 0, "is_disabled": 0, "type": "electric_bike", "bike_id": "f31b877706eb9a9edcb69d0a471d9e52"}, {"lon": -76.954109, "lat": 38.89158533333333, "name": "b358baca61d2f100d861d5afee70994a", "fusion_lat": 0.0, "fusion_lon": 0.0, "rental_uris": {"android": "https://dc.lft.to/lastmile_qr_scan", "ios": "https://dc.lft.to/lastmile_qr_scan"}, "is_reserved": 0, "is_disabled": 0, "type": "electric_scooter", "bike_id": "b358baca61d2f100d861d5afee70994a"}, {"lon": -77.03094483333334, "lat": 38.90429116666667, "name": "820b9baa973f4a560c65a493e2489bf5", "fusion_lat": 0.0, "fusion_lon": 0.0, "rental_uris": {"android": "https://dc.lft.to/lastmile_qr_scan", "ios": "https://dc.lft.to/lastmile_qr_scan"}, "is_reserved": 0, "is_disabled": 0, "type": "electric_scooter", "bike_id": "820b9baa973f4a560c65a493e2489bf5"}, {"lon": -77.0297005, "lat": 38.91679116666667, "name": "d61e973074bc96220ab5f3b9654b72f8", "fusion_lat": 0.0, "fusion_lon": 0.0, "rental_uris": {"android": "https://dc.lft.to/lastmile_qr_scan", "ios": "https://dc.lft.to/lastmile_qr_scan"}, "is_reserved": 0, "is_disabled": 0, "type": "electric_scooter", "bike_id": "d61e973074bc96220ab5f3b9654b72f8"}, {"lon": -76.98731566666666, "lat": 38.86714333333333, "name": "94ce21114cdadecae2ac9acf2b995ecc", "fusion_lat": 0.0, "fusion_lon": 0.0, "rental_uris": {"android": "https://dc.lft.to/lastmile_qr_scan", "ios": "https://dc.lft.to/lastmile_qr_scan"}, "is_reserved": 0, "is_disabled": 0, "type": "electric_scooter", "bike_id": "94ce21114cdadecae2ac9acf2b995ecc"}, {"lon": -77.05569433333334, "lat": 38.899967, "name": "75390b87f5ed5a111fc958b31a11d798", "fusion_lat": 0.0, "fusion_lon": 0.0, "rental_uris": {"android": "https://dc.lft.to/lastmile_qr_scan", "ios": "https://dc.lft.to/lastmile_qr_scan"}, "is_reserved": 0, "is_disabled": 0, "type": "electric_scooter", "bike_id": "75390b87f5ed5a111fc958b31a11d798"}, {"lon": -76.9993745, "lat": 38.896176, "name": "469ee5bfa4521f3a208421c672dd6403", "fusion_lat": 0.0, "fusion_lon": 0.0, "rental_uris": {"android": "https://dc.lft.to/lastmile_qr_scan", "ios": "https://dc.lft.to/lastmile_qr_scan"}, "is_reserved": 0, "is_disabled": 0, "type": "electric_scooter", "bike_id": "469ee5bfa4521f3a208421c672dd6403"}, {"lon": -77.03219066666666, "lat": 38.892226, "name": "4ec85c3e7189c6f86e0a2696c76e8005", "fusion_lat": 0.0, "fusion_lon": 0.0, "rental_uris": {"android": "https://dc.lft.to/lastmile_qr_scan", "ios": "https://dc.lft.to/lastmile_qr_scan"}, "is_reserved": 0, "is_disabled": 0, "type": "electric_scooter", "bike_id": "4ec85c3e7189c6f86e0a2696c76e8005"}, {"lon": -77.04484866666667, "lat": 38.91404083333333, "name": "28f081fba2a0dd71926555140404c3f8", "fusion_lat": 0.0, "fusion_lon": 0.0, "rental_uris": {"android": "https://dc.lft.to/lastmile_qr_scan", "ios": "https://dc.lft.to/lastmile_qr_scan"}, "is_reserved": 0, "is_disabled": 0, "type": "electric_scooter", "bike_id": "28f081fba2a0dd71926555140404c3f8"}, {"lon": -77.0246475, "lat": 38.919075166666666, "name": "bcb1f6490705fd1b9bf441ec9a7da862", "fusion_lat": 0.0, "fusion_lon": 0.0, "rental_uris": {"android": "https://dc.lft.to/lastmile_qr_scan", "ios": "https://dc.lft.to/lastmile_qr_scan"}, "is_reserved": 0, "is_disabled": 0, "type": "electric_scooter", "bike_id": "bcb1f6490705fd1b9bf441ec9a7da862"}, {"lon": -77.037197, "lat": 38.906259166666665, "name": "7f89d5cb372fb8aa1b6ec64d0966be24", "fusion_lat": 0.0, "fusion_lon": 0.0, "rental_uris": {"android": "https://dc.lft.to/lastmile_qr_scan", "ios": "https://dc.lft.to/lastmile_qr_scan"}, "is_reserved": 0, "is_disabled": 0, "type": "electric_scooter", "bike_id": "7f89d5cb372fb8aa1b6ec64d0966be24"}, {"lon": -77.0289295, "lat": 38.958398333333335, "name": "0b0205d88b88823b57aacb77643d16d0", "fusion_lat": 0.0, "fusion_lon": 0.0, "rental_uris": {"android": "https://dc.lft.to/lastmile_qr_scan", "ios": "https://dc.lft.to/lastmile_qr_scan"}, "is_reserved": 0, "is_disabled": 0, "type": "electric_scooter", "bike_id": "0b0205d88b88823b57aacb77643d16d0"}, {"lon": -77.04908416666666, "lat": 38.897304166666665, "name": "0ef75b9f56f82b0cdcfe1e060f043d6f", "fusion_lat": 0.0, "fusion_lon": 0.0, "rental_uris": {"android": "https://dc.lft.to/lastmile_qr_scan", "ios": "https://dc.lft.to/lastmile_qr_scan"}, "is_reserved": 0, "is_disabled": 0, "type": "electric_scooter", "bike_id": "0ef75b9f56f82b0cdcfe1e060f043d6f"}, {"lon": -77.0360135, "lat": 38.956172333333335, "name": "9c043aaa4cedaa8fec320551ec3ee77c", "fusion_lat": 0.0, "fusion_lon": 0.0, "rental_uris": {"android": "https://dc.lft.to/lastmile_qr_scan", "ios": "https://dc.lft.to/lastmile_qr_scan"}, "is_reserved": 0, "is_disabled": 0, "type": "electric_scooter", "bike_id": "9c043aaa4cedaa8fec320551ec3ee77c"}, {"lon": -76.94655733333333, "lat": 38.898252166666666, "name": "e9ef807a1855987293b7963fb3e3660d", "fusion_lat": 0.0, "fusion_lon": 0.0, "rental_uris": {"android": "https://dc.lft.to/lastmile_qr_scan", "ios": "https://dc.lft.to/lastmile_qr_scan"}, "is_reserved": 0, "is_disabled": 0, "type": "electric_scooter", "bike_id": "e9ef807a1855987293b7963fb3e3660d"}, {"lon": -77.18742683333333, "lat": 38.893516, "name": "42b71db81f522ecdb2736ce71efa1c83", "fusion_lat": 0.0, "fusion_lon": 0.0, "rental_uris": {"android": "https://dc.lft.to/lastmile_qr_scan", "ios": "https://dc.lft.to/lastmile_qr_scan"}, "is_reserved": 0, "is_disabled": 0, "type": "electric_bike", "bike_id": "42b71db81f522ecdb2736ce71efa1c83"}, {"lon": -77.04021733333333, "lat": 38.90109183333333, "name": "bc160d17cb8892e236d64c189c82656b", "fusion_lat": 0.0, "fusion_lon": 0.0, "rental_uris": {"android": "https://dc.lft.to/lastmile_qr_scan", "ios": "https://dc.lft.to/lastmile_qr_scan"}, "is_reserved": 0, "is_disabled": 0, "type": "electric_bike", "bike_id": "bc160d17cb8892e236d64c189c82656b"}, {"lon": -77.00256583333334, "lat": 38.90717216666667, "name": "e2b6d566c0d23bd4f554f17b6f741295", "fusion_lat": 0.0, "fusion_lon": 0.0, "rental_uris": {"android": "https://dc.lft.to/lastmile_qr_scan", "ios": "https://dc.lft.to/lastmile_qr_scan"}, "is_reserved": 0, "is_disabled": 0, "type": "electric_scooter", "bike_id": "e2b6d566c0d23bd4f554f17b6f741295"}, {"lon": -77.02337966666667, "lat": 38.92927383333333, "name": "635cc9c5e206080db995864aac3dfbe1", "fusion_lat": 0.0, "fusion_lon": 0.0, "rental_uris": {"android": "https://dc.lft.to/lastmile_qr_scan", "ios": "https://dc.lft.to/lastmile_qr_scan"}, "is_reserved": 0, "is_disabled": 0, "type": "electric_scooter", "bike_id": "635cc9c5e206080db995864aac3dfbe1"}, {"lon": -76.9725455, "lat": 38.957432, "name": "0baa6600964a7ebce2920d99d180f696", "fusion_lat": 0.0, "fusion_lon": 0.0, "rental_uris": {"android": "https://dc.lft.to/lastmile_qr_scan", "ios": "https://dc.lft.to/lastmile_qr_scan"}, "is_reserved": 0, "is_disabled": 0, "type": "electric_bike", "bike_id": "0baa6600964a7ebce2920d99d180f696"}, {"lon": -77.0343915, "lat": 38.9180795, "name": "825abb20ef2f029c758909333d3375b2", "fusion_lat": 0.0, "fusion_lon": 0.0, "rental_uris": {"android": "https://dc.lft.to/lastmile_qr_scan", "ios": "https://dc.lft.to/lastmile_qr_scan"}, "is_reserved": 0, "is_disabled": 0, "type": "electric_scooter", "bike_id": "825abb20ef2f029c758909333d3375b2"}, {"lon": -76.9565775, "lat": 38.896109, "name": "4e78b7c2781fbd98d69cfd21b9251054", "fusion_lat": 0.0, "fusion_lon": 0.0, "rental_uris": {"android": "https://dc.lft.to/lastmile_qr_scan", "ios": "https://dc.lft.to/lastmile_qr_scan"}, "is_reserved": 0, "is_disabled": 0, "type": "electric_scooter", "bike_id": "4e78b7c2781fbd98d69cfd21b9251054"}, {"lon": -77.033053, "lat": 38.925526833333336, "name": "4c3bf4a9ab2db2c76dcceb2c0a89de9c", "fusion_lat": 0.0, "fusion_lon": 0.0, "rental_uris": {"android": "https://dc.lft.to/lastmile_qr_scan", "ios": "https://dc.lft.to/lastmile_qr_scan"}, "is_reserved": 0, "is_disabled": 0, "type": "electric_scooter", "bike_id": "4c3bf4a9ab2db2c76dcceb2c0a89de9c"}, {"lon": -76.9837275, "lat": 38.86112516666667, "name": "2f394463eed52ad7d1efb22501ba22c9", "fusion_lat": 0.0, "fusion_lon": 0.0, "rental_uris": {"android": "https://dc.lft.to/lastmile_qr_scan", "ios": "https://dc.lft.to/lastmile_qr_scan"}, "is_reserved": 0, "is_disabled": 0, "type": "electric_scooter", "bike_id": "2f394463eed52ad7d1efb22501ba22c9"}, {"lon": -77.03457666666667, "lat": 38.918125, "name": "5672837c114a584d8aea3d26882d3d7d", "fusion_lat": 0.0, "fusion_lon": 0.0, "rental_uris": {"android": "https://dc.lft.to/lastmile_qr_scan", "ios": "https://dc.lft.to/lastmile_qr_scan"}, "is_reserved": 0, "is_disabled": 0, "type": "electric_scooter", "bike_id": "5672837c114a584d8aea3d26882d3d7d"}, {"lon": -77.0409065, "lat": 38.920101333333335, "name": "78f1684e28f972de4db0e68b321eb680", "fusion_lat": 0.0, "fusion_lon": 0.0, "rental_uris": {"android": "https://dc.lft.to/lastmile_qr_scan", "ios": "https://dc.lft.to/lastmile_qr_scan"}, "is_reserved": 0, "is_disabled": 0, "type": "electric_scooter", "bike_id": "78f1684e28f972de4db0e68b321eb680"}, {"lon": -77.04411716666667, "lat": 38.91079766666667, "name": "6b012441f1bab91ce1ff153476b6e6f8", "fusion_lat": 0.0, "fusion_lon": 0.0, "rental_uris": {"android": "https://dc.lft.to/lastmile_qr_scan", "ios": "https://dc.lft.to/lastmile_qr_scan"}, "is_reserved": 0, "is_disabled": 0, "type": "electric_scooter", "bike_id": "6b012441f1bab91ce1ff153476b6e6f8"}, {"lon": -77.01148966666666, "lat": 38.95674233333333, "name": "d4e951db43652cf716aab5ad2006af30", "fusion_lat": 0.0, "fusion_lon": 0.0, "rental_uris": {"android": "https://dc.lft.to/lastmile_qr_scan", "ios": "https://dc.lft.to/lastmile_qr_scan"}, "is_reserved": 0, "is_disabled": 0, "type": "electric_scooter", "bike_id": "d4e951db43652cf716aab5ad2006af30"}, {"lon": -77.00206833333333, "lat": 38.822514, "name": "b4b8e33d28a5707eeea4c2160b705e4d", "fusion_lat": 0.0, "fusion_lon": 0.0, "rental_uris": {"android": "https://dc.lft.to/lastmile_qr_scan", "ios": "https://dc.lft.to/lastmile_qr_scan"}, "is_reserved": 0, "is_disabled": 0, "type": "electric_scooter", "bike_id": "b4b8e33d28a5707eeea4c2160b705e4d"}, {"lon": -77.0197775, "lat": 38.88365683333333, "name": "61ec80a6a84a5189c03808314e5cd1f8", "fusion_lat": 0.0, "fusion_lon": 0.0, "rental_uris": {"android": "https://dc.lft.to/lastmile_qr_scan", "ios": "https://dc.lft.to/lastmile_qr_scan"}, "is_reserved": 0, "is_disabled": 0, "type": "electric_scooter", "bike_id": "61ec80a6a84a5189c03808314e5cd1f8"}, {"lon": -77.11229283333333, "lat": 38.81218466666667, "name": "1e3de8011368e9451d4535461ed4dcc7", "fusion_lat": 0.0, "fusion_lon": 0.0, "rental_uris": {"android": "https://dc.lft.to/lastmile_qr_scan", "ios": "https://dc.lft.to/lastmile_qr_scan"}, "is_reserved": 0, "is_disabled": 0, "type": "electric_bike", "bike_id": "1e3de8011368e9451d4535461ed4dcc7"}, {"lon": -77.022053, "lat": 38.887158666666664, "name": "1452ae28b8386e89b44df816bec206f5", "fusion_lat": 0.0, "fusion_lon": 0.0, "rental_uris": {"android": "https://dc.lft.to/lastmile_qr_scan", "ios": "https://dc.lft.to/lastmile_qr_scan"}, "is_reserved": 0, "is_disabled": 0, "type": "electric_scooter", "bike_id": "1452ae28b8386e89b44df816bec206f5"}, {"lon": -77.05000933333334, "lat": 38.89228933333333, "name": "4434489fb8e8d6b1820680fc0d2c730a", "fusion_lat": 0.0, "fusion_lon": 0.0, "rental_uris": {"android": "https://dc.lft.to/lastmile_qr_scan", "ios": "https://dc.lft.to/lastmile_qr_scan"}, "is_reserved": 0, "is_disabled": 0, "type": "electric_scooter", "bike_id": "4434489fb8e8d6b1820680fc0d2c730a"}, {"lon": -76.98702083333333, "lat": 38.90020083333334, "name": "ce40ba1c76722768c69d826b46539379", "fusion_lat": 0.0, "fusion_lon": 0.0, "rental_uris": {"android": "https://dc.lft.to/lastmile_qr_scan", "ios": "https://dc.lft.to/lastmile_qr_scan"}, "is_reserved": 0, "is_disabled": 0, "type": "electric_scooter", "bike_id": "ce40ba1c76722768c69d826b46539379"}, {"lon": -77.06087733333334, "lat": 38.905255833333335, "name": "a113120f9b38ebb7fe45fd002cfd54ea", "fusion_lat": 0.0, "fusion_lon": 0.0, "rental_uris": {"android": "https://dc.lft.to/lastmile_qr_scan", "ios": "https://dc.lft.to/lastmile_qr_scan"}, "is_reserved": 0, "is_disabled": 0, "type": "electric_scooter", "bike_id": "a113120f9b38ebb7fe45fd002cfd54ea"}, {"lon": -77.02259416666666, "lat": 38.91264316666667, "name": "bdce4030039621bb82b75abcedfee543", "fusion_lat": 0.0, "fusion_lon": 0.0, "rental_uris": {"android": "https://dc.lft.to/lastmile_qr_scan", "ios": "https://dc.lft.to/lastmile_qr_scan"}, "is_reserved": 0, "is_disabled": 0, "type": "electric_scooter", "bike_id": "bdce4030039621bb82b75abcedfee543"}, {"lon": -77.0252675, "lat": 38.92128616666667, "name": "06ffc3664e96dca9fa3e670eb3658c5a", "fusion_lat": 0.0, "fusion_lon": 0.0, "rental_uris": {"android": "https://dc.lft.to/lastmile_qr_scan", "ios": "https://dc.lft.to/lastmile_qr_scan"}, "is_reserved": 0, "is_disabled": 0, "type": "electric_scooter", "bike_id": "06ffc3664e96dca9fa3e670eb3658c5a"}, {"lon": -77.02967283333334, "lat": 38.9226005, "name": "905f63b34acea6a8af3e0716f5c67d7d", "fusion_lat": 0.0, "fusion_lon": 0.0, "rental_uris": {"android": "https://dc.lft.to/lastmile_qr_scan", "ios": "https://dc.lft.to/lastmile_qr_scan"}, "is_reserved": 0, "is_disabled": 0, "type": "electric_scooter", "bike_id": "905f63b34acea6a8af3e0716f5c67d7d"}, {"lon": -77.007128, "lat": 38.905689333333335, "name": "be41bee516d746eacedb71b88c4c53dc", "fusion_lat": 0.0, "fusion_lon": 0.0, "rental_uris": {"android": "https://dc.lft.to/lastmile_qr_scan", "ios": "https://dc.lft.to/lastmile_qr_scan"}, "is_reserved": 0, "is_disabled": 0, "type": "electric_scooter", "bike_id": "be41bee516d746eacedb71b88c4c53dc"}, {"lon": -77.02293816666666, "lat": 38.91685283333333, "name": "abca6dcb2339ccdefd9fa1979ab44428", "fusion_lat": 0.0, "fusion_lon": 0.0, "rental_uris": {"android": "https://dc.lft.to/lastmile_qr_scan", "ios": "https://dc.lft.to/lastmile_qr_scan"}, "is_reserved": 0, "is_disabled": 0, "type": "electric_scooter", "bike_id": "abca6dcb2339ccdefd9fa1979ab44428"}, {"lon": -76.98123066666666, "lat": 38.89671366666666, "name": "63fdcde356fe18126eebcf26aa29af8e", "fusion_lat": 0.0, "fusion_lon": 0.0, "rental_uris": {"android": "https://dc.lft.to/lastmile_qr_scan", "ios": "https://dc.lft.to/lastmile_qr_scan"}, "is_reserved": 0, "is_disabled": 0, "type": "electric_bike", "bike_id": "63fdcde356fe18126eebcf26aa29af8e"}, {"lon": -77.0217905, "lat": 38.9082965, "name": "6f808a7ce9c0c94f0b77eb8757213f2d", "fusion_lat": 0.0, "fusion_lon": 0.0, "rental_uris": {"android": "https://dc.lft.to/lastmile_qr_scan", "ios": "https://dc.lft.to/lastmile_qr_scan"}, "is_reserved": 0, "is_disabled": 0, "type": "electric_scooter", "bike_id": "6f808a7ce9c0c94f0b77eb8757213f2d"}, {"lon": -76.9492785, "lat": 38.89476166666667, "name": "2a566618102c848011e17cd7182ff738", "fusion_lat": 0.0, "fusion_lon": 0.0, "rental_uris": {"android": "https://dc.lft.to/lastmile_qr_scan", "ios": "https://dc.lft.to/lastmile_qr_scan"}, "is_reserved": 0, "is_disabled": 0, "type": "electric_scooter", "bike_id": "2a566618102c848011e17cd7182ff738"}, {"lon": -77.02824216666667, "lat": 38.895311166666666, "name": "eaf545847657d5d9769073d0b99002fd", "fusion_lat": 0.0, "fusion_lon": 0.0, "rental_uris": {"android": "https://dc.lft.to/lastmile_qr_scan", "ios": "https://dc.lft.to/lastmile_qr_scan"}, "is_reserved": 0, "is_disabled": 0, "type": "electric_scooter", "bike_id": "eaf545847657d5d9769073d0b99002fd"}, {"lon": -77.04803433333333, "lat": 38.897287, "name": "14b1529595e075a7f0725871e1f532d8", "fusion_lat": 0.0, "fusion_lon": 0.0, "rental_uris": {"android": "https://dc.lft.to/lastmile_qr_scan", "ios": "https://dc.lft.to/lastmile_qr_scan"}, "is_reserved": 0, "is_disabled": 0, "type": "electric_scooter", "bike_id": "14b1529595e075a7f0725871e1f532d8"}, {"lon": -77.02344333333333, "lat": 38.962058999999996, "name": "e790c2a337a3bfe4a735e9410c058697", "fusion_lat": 0.0, "fusion_lon": 0.0, "rental_uris": {"android": "https://dc.lft.to/lastmile_qr_scan", "ios": "https://dc.lft.to/lastmile_qr_scan"}, "is_reserved": 0, "is_disabled": 0, "type": "electric_scooter", "bike_id": "e790c2a337a3bfe4a735e9410c058697"}, {"lon": -77.00520533333334, "lat": 38.9290375, "name": "fce652d5f8194c23f4ae02aff7db1c55", "fusion_lat": 0.0, "fusion_lon": 0.0, "rental_uris": {"android": "https://dc.lft.to/lastmile_qr_scan", "ios": "https://dc.lft.to/lastmile_qr_scan"}, "is_reserved": 0, "is_disabled": 0, "type": "electric_scooter", "bike_id": "fce652d5f8194c23f4ae02aff7db1c55"}, {"lon": -76.99547116666666, "lat": 38.884181166666664, "name": "bd32d4b7d8ab19ad1bb5483c11d2039a", "fusion_lat": 0.0, "fusion_lon": 0.0, "rental_uris": {"android": "https://dc.lft.to/lastmile_qr_scan", "ios": "https://dc.lft.to/lastmile_qr_scan"}, "is_reserved": 0, "is_disabled": 0, "type": "electric_scooter", "bike_id": "bd32d4b7d8ab19ad1bb5483c11d2039a"}, {"lon": -77.05320166666667, "lat": 38.9234775, "name": "549b6e080e10b2c6815d58e2e638001b", "fusion_lat": 0.0, "fusion_lon": 0.0, "rental_uris": {"android": "https://dc.lft.to/lastmile_qr_scan", "ios": "https://dc.lft.to/lastmile_qr_scan"}, "is_reserved": 0, "is_disabled": 0, "type": "electric_scooter", "bike_id": "549b6e080e10b2c6815d58e2e638001b"}, {"lon": -77.01585766666666, "lat": 38.8848545, "name": "cb12d1bcad6b51a403c5a798945d8c60", "fusion_lat": 0.0, "fusion_lon": 0.0, "rental_uris": {"android": "https://dc.lft.to/lastmile_qr_scan", "ios": "https://dc.lft.to/lastmile_qr_scan"}, "is_reserved": 0, "is_disabled": 0, "type": "electric_bike", "bike_id": "cb12d1bcad6b51a403c5a798945d8c60"}, {"lon": -77.038745, "lat": 38.9082, "name": "8373cbaf9a7999085da8515464e0f827", "fusion_lat": 0.0, "fusion_lon": 0.0, "rental_uris": {"android": "https://dc.lft.to/lastmile_qr_scan", "ios": "https://dc.lft.to/lastmile_qr_scan"}, "is_reserved": 0, "is_disabled": 0, "type": "electric_scooter", "bike_id": "8373cbaf9a7999085da8515464e0f827"}, {"lon": -77.02969333333333, "lat": 38.916804166666665, "name": "8bdbe76025776f7cacb30481188ac63b", "fusion_lat": 0.0, "fusion_lon": 0.0, "rental_uris": {"android": "https://dc.lft.to/lastmile_qr_scan", "ios": "https://dc.lft.to/lastmile_qr_scan"}, "is_reserved": 0, "is_disabled": 0, "type": "electric_scooter", "bike_id": "8bdbe76025776f7cacb30481188ac63b"}, {"lon": -77.01425083333334, "lat": 38.94228016666667, "name": "cb77d6492054c630a91b2c832dddebc7", "fusion_lat": 0.0, "fusion_lon": 0.0, "rental_uris": {"android": "https://dc.lft.to/lastmile_qr_scan", "ios": "https://dc.lft.to/lastmile_qr_scan"}, "is_reserved": 0, "is_disabled": 0, "type": "electric_scooter", "bike_id": "cb77d6492054c630a91b2c832dddebc7"}, {"lon": -77.05732066666667, "lat": 38.933707166666665, "name": "ac80c767d7bcd2e895e38740ca061146", "fusion_lat": 0.0, "fusion_lon": 0.0, "rental_uris": {"android": "https://dc.lft.to/lastmile_qr_scan", "ios": "https://dc.lft.to/lastmile_qr_scan"}, "is_reserved": 0, "is_disabled": 0, "type": "electric_scooter", "bike_id": "ac80c767d7bcd2e895e38740ca061146"}, {"lon": -77.02188766666667, "lat": 38.89640283333333, "name": "85200bf3f66794c5e7bc6f466c373c13", "fusion_lat": 0.0, "fusion_lon": 0.0, "rental_uris": {"android": "https://dc.lft.to/lastmile_qr_scan", "ios": "https://dc.lft.to/lastmile_qr_scan"}, "is_reserved": 0, "is_disabled": 0, "type": "electric_scooter", "bike_id": "85200bf3f66794c5e7bc6f466c373c13"}, {"lon": -77.01186433333334, "lat": 38.900304166666665, "name": "f7daf1b880c213b0e7ef9dc1e25ff81d", "fusion_lat": 0.0, "fusion_lon": 0.0, "rental_uris": {"android": "https://dc.lft.to/lastmile_qr_scan", "ios": "https://dc.lft.to/lastmile_qr_scan"}, "is_reserved": 0, "is_disabled": 0, "type": "electric_scooter", "bike_id": "f7daf1b880c213b0e7ef9dc1e25ff81d"}, {"lon": -77.02454416666667, "lat": 38.917143, "name": "330ae428dfdab99ff5d3afe5a3bb62ad", "fusion_lat": 0.0, "fusion_lon": 0.0, "rental_uris": {"android": "https://dc.lft.to/lastmile_qr_scan", "ios": "https://dc.lft.to/lastmile_qr_scan"}, "is_reserved": 0, "is_disabled": 0, "type": "electric_scooter", "bike_id": "330ae428dfdab99ff5d3afe5a3bb62ad"}, {"lon": -77.00571083333334, "lat": 38.92725016666667, "name": "a587d4f0efe841f5aeaee13b7aaed1d4", "fusion_lat": 0.0, "fusion_lon": 0.0, "rental_uris": {"android": "https://dc.lft.to/lastmile_qr_scan", "ios": "https://dc.lft.to/lastmile_qr_scan"}, "is_reserved": 0, "is_disabled": 0, "type": "electric_scooter", "bike_id": "a587d4f0efe841f5aeaee13b7aaed1d4"}, {"lon": -77.0239435, "lat": 38.90981983333333, "name": "a3bab6598888764f17288f1113010493", "fusion_lat": 0.0, "fusion_lon": 0.0, "rental_uris": {"android": "https://dc.lft.to/lastmile_qr_scan", "ios": "https://dc.lft.to/lastmile_qr_scan"}, "is_reserved": 0, "is_disabled": 0, "type": "electric_scooter", "bike_id": "a3bab6598888764f17288f1113010493"}, {"lon": -77.0278695, "lat": 38.9538395, "name": "c487e4835a5c7eb0dbafd49d87bed6a3", "fusion_lat": 0.0, "fusion_lon": 0.0, "rental_uris": {"android": "https://dc.lft.to/lastmile_qr_scan", "ios": "https://dc.lft.to/lastmile_qr_scan"}, "is_reserved": 0, "is_disabled": 0, "type": "electric_scooter", "bike_id": "c487e4835a5c7eb0dbafd49d87bed6a3"}, {"lon": -77.01415016666667, "lat": 38.890913, "name": "da1366a56b05f61020363248b6635a78", "fusion_lat": 0.0, "fusion_lon": 0.0, "rental_uris": {"android": "https://dc.lft.to/lastmile_qr_scan", "ios": "https://dc.lft.to/lastmile_qr_scan"}, "is_reserved": 0, "is_disabled": 0, "type": "electric_scooter", "bike_id": "da1366a56b05f61020363248b6635a78"}, {"lon": -77.03230116666667, "lat": 38.89224016666667, "name": "a15c724e7f1570671228f4dc15b72977", "fusion_lat": 0.0, "fusion_lon": 0.0, "rental_uris": {"android": "https://dc.lft.to/lastmile_qr_scan", "ios": "https://dc.lft.to/lastmile_qr_scan"}, "is_reserved": 0, "is_disabled": 0, "type": "electric_scooter", "bike_id": "a15c724e7f1570671228f4dc15b72977"}, {"lon": -77.03273566666667, "lat": 38.93446316666667, "name": "d090d9677a6e0eefa9336fbadd0dc0f5", "fusion_lat": 0.0, "fusion_lon": 0.0, "rental_uris": {"android": "https://dc.lft.to/lastmile_qr_scan", "ios": "https://dc.lft.to/lastmile_qr_scan"}, "is_reserved": 0, "is_disabled": 0, "type": "electric_scooter", "bike_id": "d090d9677a6e0eefa9336fbadd0dc0f5"}, {"lon": -77.07724016666667, "lat": 38.947042833333334, "name": "33ba9bd2ddadd3daaf10d56cb3678498", "fusion_lat": 0.0, "fusion_lon": 0.0, "rental_uris": {"android": "https://dc.lft.to/lastmile_qr_scan", "ios": "https://dc.lft.to/lastmile_qr_scan"}, "is_reserved": 0, "is_disabled": 0, "type": "electric_scooter", "bike_id": "33ba9bd2ddadd3daaf10d56cb3678498"}, {"lon": -77.0336865, "lat": 38.9322575, "name": "928a1d5f070dba4421bf5c5cc0317943", "fusion_lat": 0.0, "fusion_lon": 0.0, "rental_uris": {"android": "https://dc.lft.to/lastmile_qr_scan", "ios": "https://dc.lft.to/lastmile_qr_scan"}, "is_reserved": 0, "is_disabled": 0, "type": "electric_scooter", "bike_id": "928a1d5f070dba4421bf5c5cc0317943"}, {"lon": -77.02397483333333, "lat": 38.90693, "name": "1f75d791a7defed0c7c509d2f52fceda", "fusion_lat": 0.0, "fusion_lon": 0.0, "rental_uris": {"android": "https://dc.lft.to/lastmile_qr_scan", "ios": "https://dc.lft.to/lastmile_qr_scan"}, "is_reserved": 0, "is_disabled": 0, "type": "electric_scooter", "bike_id": "1f75d791a7defed0c7c509d2f52fceda"}, {"lon": -76.97306733333333, "lat": 38.919897666666664, "name": "a9919c6b3e9bc8f5b7fe76c72551eafd", "fusion_lat": 0.0, "fusion_lon": 0.0, "rental_uris": {"android": "https://dc.lft.to/lastmile_qr_scan", "ios": "https://dc.lft.to/lastmile_qr_scan"}, "is_reserved": 0, "is_disabled": 0, "type": "electric_scooter", "bike_id": "a9919c6b3e9bc8f5b7fe76c72551eafd"}, {"lon": -77.00605866666666, "lat": 38.8849, "name": "c8495d687838927ee202a366338a0b55", "fusion_lat": 0.0, "fusion_lon": 0.0, "rental_uris": {"android": "https://dc.lft.to/lastmile_qr_scan", "ios": "https://dc.lft.to/lastmile_qr_scan"}, "is_reserved": 0, "is_disabled": 0, "type": "electric_scooter", "bike_id": "c8495d687838927ee202a366338a0b55"}, {"lon": -77.04236116666667, "lat": 38.938629666666664, "name": "7bf594069f754b8a1a90fdc564aba401", "fusion_lat": 0.0, "fusion_lon": 0.0, "rental_uris": {"android": "https://dc.lft.to/lastmile_qr_scan", "ios": "https://dc.lft.to/lastmile_qr_scan"}, "is_reserved": 0, "is_disabled": 0, "type": "electric_bike", "bike_id": "7bf594069f754b8a1a90fdc564aba401"}, {"lon": -77.02886883333333, "lat": 38.9072035, "name": "84a1d2421cee31257257f5dd472d47c6", "fusion_lat": 0.0, "fusion_lon": 0.0, "rental_uris": {"android": "https://dc.lft.to/lastmile_qr_scan", "ios": "https://dc.lft.to/lastmile_qr_scan"}, "is_reserved": 0, "is_disabled": 0, "type": "electric_bike", "bike_id": "84a1d2421cee31257257f5dd472d47c6"}, {"lon": -77.03386083333334, "lat": 38.93842, "name": "cfc2a2f116184f81f87f2970f7323c34", "fusion_lat": 0.0, "fusion_lon": 0.0, "rental_uris": {"android": "https://dc.lft.to/lastmile_qr_scan", "ios": "https://dc.lft.to/lastmile_qr_scan"}, "is_reserved": 0, "is_disabled": 0, "type": "electric_scooter", "bike_id": "cfc2a2f116184f81f87f2970f7323c34"}, {"lon": -77.04407266666666, "lat": 38.90586183333333, "name": "e266412395a64fabd13a6c11a408b324", "fusion_lat": 0.0, "fusion_lon": 0.0, "rental_uris": {"android": "https://dc.lft.to/lastmile_qr_scan", "ios": "https://dc.lft.to/lastmile_qr_scan"}, "is_reserved": 0, "is_disabled": 0, "type": "electric_scooter", "bike_id": "e266412395a64fabd13a6c11a408b324"}, {"lon": -77.04796466666667, "lat": 38.89375116666667, "name": "1c68050f746bf92b2a848802fed399c4", "fusion_lat": 0.0, "fusion_lon": 0.0, "rental_uris": {"android": "https://dc.lft.to/lastmile_qr_scan", "ios": "https://dc.lft.to/lastmile_qr_scan"}, "is_reserved": 0, "is_disabled": 0, "type": "electric_scooter", "bike_id": "1c68050f746bf92b2a848802fed399c4"}, {"lon": -77.036622, "lat": 38.925568166666665, "name": "025b6137ba9a7d8b2c02eff67c7617c0", "fusion_lat": 0.0, "fusion_lon": 0.0, "rental_uris": {"android": "https://dc.lft.to/lastmile_qr_scan", "ios": "https://dc.lft.to/lastmile_qr_scan"}, "is_reserved": 0, "is_disabled": 0, "type": "electric_scooter", "bike_id": "025b6137ba9a7d8b2c02eff67c7617c0"}, {"lon": -77.054417, "lat": 38.89606283333333, "name": "077785520f9a2a15f1958311990d6cd0", "fusion_lat": 0.0, "fusion_lon": 0.0, "rental_uris": {"android": "https://dc.lft.to/lastmile_qr_scan", "ios": "https://dc.lft.to/lastmile_qr_scan"}, "is_reserved": 0, "is_disabled": 0, "type": "electric_scooter", "bike_id": "077785520f9a2a15f1958311990d6cd0"}, {"lon": -77.0237665, "lat": 38.90200383333333, "name": "f74e718a6a3cfc9a3e6024cd539a0caa", "fusion_lat": 0.0, "fusion_lon": 0.0, "rental_uris": {"android": "https://dc.lft.to/lastmile_qr_scan", "ios": "https://dc.lft.to/lastmile_qr_scan"}, "is_reserved": 0, "is_disabled": 0, "type": "electric_scooter", "bike_id": "f74e718a6a3cfc9a3e6024cd539a0caa"}, {"lon": -77.0184295, "lat": 38.90879783333333, "name": "d1b6dd259aa91c16f39039157d3754a0", "fusion_lat": 0.0, "fusion_lon": 0.0, "rental_uris": {"android": "https://dc.lft.to/lastmile_qr_scan", "ios": "https://dc.lft.to/lastmile_qr_scan"}, "is_reserved": 0, "is_disabled": 0, "type": "electric_scooter", "bike_id": "d1b6dd259aa91c16f39039157d3754a0"}, {"lon": -77.01654016666667, "lat": 38.953325666666665, "name": "9b4bf9c39cff61917009d18193e3afc0", "fusion_lat": 0.0, "fusion_lon": 0.0, "rental_uris": {"android": "https://dc.lft.to/lastmile_qr_scan", "ios": "https://dc.lft.to/lastmile_qr_scan"}, "is_reserved": 0, "is_disabled": 0, "type": "electric_scooter", "bike_id": "9b4bf9c39cff61917009d18193e3afc0"}, {"lon": -77.02178916666666, "lat": 38.90188033333333, "name": "7c93a8fb86af5a7abb30e07eedaca171", "fusion_lat": 0.0, "fusion_lon": 0.0, "rental_uris": {"android": "https://dc.lft.to/lastmile_qr_scan", "ios": "https://dc.lft.to/lastmile_qr_scan"}, "is_reserved": 0, "is_disabled": 0, "type": "electric_scooter", "bike_id": "7c93a8fb86af5a7abb30e07eedaca171"}, {"lon": -77.00267, "lat": 38.877515833333334, "name": "198fc3c3b3985645f31d3bcbe53ccd9f", "fusion_lat": 0.0, "fusion_lon": 0.0, "rental_uris": {"android": "https://dc.lft.to/lastmile_qr_scan", "ios": "https://dc.lft.to/lastmile_qr_scan"}, "is_reserved": 0, "is_disabled": 0, "type": "electric_scooter", "bike_id": "198fc3c3b3985645f31d3bcbe53ccd9f"}, {"lon": -76.98263766666666, "lat": 38.86352, "name": "0f94b5a33bc1498bad0c6eec84de9584", "fusion_lat": 0.0, "fusion_lon": 0.0, "rental_uris": {"android": "https://dc.lft.to/lastmile_qr_scan", "ios": "https://dc.lft.to/lastmile_qr_scan"}, "is_reserved": 0, "is_disabled": 0, "type": "electric_scooter", "bike_id": "0f94b5a33bc1498bad0c6eec84de9584"}, {"lon": -77.01195333333334, "lat": 38.900288833333335, "name": "00c9fedffa1eb8223e9c8304c7bee83a", "fusion_lat": 0.0, "fusion_lon": 0.0, "rental_uris": {"android": "https://dc.lft.to/lastmile_qr_scan", "ios": "https://dc.lft.to/lastmile_qr_scan"}, "is_reserved": 0, "is_disabled": 0, "type": "electric_scooter", "bike_id": "00c9fedffa1eb8223e9c8304c7bee83a"}, {"lon": -77.02719466666667, "lat": 38.89219816666667, "name": "b760ffb313a03f7ae075a6e6f138e1d9", "fusion_lat": 0.0, "fusion_lon": 0.0, "rental_uris": {"android": "https://dc.lft.to/lastmile_qr_scan", "ios": "https://dc.lft.to/lastmile_qr_scan"}, "is_reserved": 0, "is_disabled": 0, "type": "electric_scooter", "bike_id": "b760ffb313a03f7ae075a6e6f138e1d9"}, {"lon": -77.07276216666666, "lat": 38.93180616666667, "name": "a92c4e1dff3aae740f6879e5c762385e", "fusion_lat": 0.0, "fusion_lon": 0.0, "rental_uris": {"android": "https://dc.lft.to/lastmile_qr_scan", "ios": "https://dc.lft.to/lastmile_qr_scan"}, "is_reserved": 0, "is_disabled": 0, "type": "electric_scooter", "bike_id": "a92c4e1dff3aae740f6879e5c762385e"}, {"lon": -76.93831316666666, "lat": 38.8976205, "name": "30a2145dcf47640f06f71bd7293597ae", "fusion_lat": 0.0, "fusion_lon": 0.0, "rental_uris": {"android": "https://dc.lft.to/lastmile_qr_scan", "ios": "https://dc.lft.to/lastmile_qr_scan"}, "is_reserved": 0, "is_disabled": 0, "type": "electric_scooter", "bike_id": "30a2145dcf47640f06f71bd7293597ae"}, {"lon": -77.05005766666666, "lat": 38.89230883333333, "name": "1f8ad52e022850a0a08a0e536192f8a0", "fusion_lat": 0.0, "fusion_lon": 0.0, "rental_uris": {"android": "https://dc.lft.to/lastmile_qr_scan", "ios": "https://dc.lft.to/lastmile_qr_scan"}, "is_reserved": 0, "is_disabled": 0, "type": "electric_scooter", "bike_id": "1f8ad52e022850a0a08a0e536192f8a0"}, {"lon": -77.00114683333334, "lat": 38.894368166666666, "name": "65d93c73f40999ee350aaa3068a2a21e", "fusion_lat": 0.0, "fusion_lon": 0.0, "rental_uris": {"android": "https://dc.lft.to/lastmile_qr_scan", "ios": "https://dc.lft.to/lastmile_qr_scan"}, "is_reserved": 0, "is_disabled": 0, "type": "electric_scooter", "bike_id": "65d93c73f40999ee350aaa3068a2a21e"}, {"lon": -77.00212616666667, "lat": 38.911046166666665, "name": "8d74ec5c9bab26a4c562d56f689fe75a", "fusion_lat": 0.0, "fusion_lon": 0.0, "rental_uris": {"android": "https://dc.lft.to/lastmile_qr_scan", "ios": "https://dc.lft.to/lastmile_qr_scan"}, "is_reserved": 0, "is_disabled": 0, "type": "electric_scooter", "bike_id": "8d74ec5c9bab26a4c562d56f689fe75a"}, {"lon": -77.03518666666666, "lat": 38.922563, "name": "5a785cb3cad3a90d9e96358defefaec2", "fusion_lat": 0.0, "fusion_lon": 0.0, "rental_uris": {"android": "https://dc.lft.to/lastmile_qr_scan", "ios": "https://dc.lft.to/lastmile_qr_scan"}, "is_reserved": 0, "is_disabled": 0, "type": "electric_scooter", "bike_id": "5a785cb3cad3a90d9e96358defefaec2"}, {"lon": -77.0325765, "lat": 38.93528666666667, "name": "358380d76f45f86f93df7d79bb739cfd", "fusion_lat": 0.0, "fusion_lon": 0.0, "rental_uris": {"android": "https://dc.lft.to/lastmile_qr_scan", "ios": "https://dc.lft.to/lastmile_qr_scan"}, "is_reserved": 0, "is_disabled": 0, "type": "electric_scooter", "bike_id": "358380d76f45f86f93df7d79bb739cfd"}, {"lon": -77.04423933333334, "lat": 38.9212015, "name": "ff03a58f0c796690b3a2dfe502e0f67b", "fusion_lat": 0.0, "fusion_lon": 0.0, "rental_uris": {"android": "https://dc.lft.to/lastmile_qr_scan", "ios": "https://dc.lft.to/lastmile_qr_scan"}, "is_reserved": 0, "is_disabled": 0, "type": "electric_scooter", "bike_id": "ff03a58f0c796690b3a2dfe502e0f67b"}, {"lon": -77.031611, "lat": 38.923668166666666, "name": "bd8ade114dfe0519f31a40956d880c76", "fusion_lat": 0.0, "fusion_lon": 0.0, "rental_uris": {"android": "https://dc.lft.to/lastmile_qr_scan", "ios": "https://dc.lft.to/lastmile_qr_scan"}, "is_reserved": 0, "is_disabled": 0, "type": "electric_scooter", "bike_id": "bd8ade114dfe0519f31a40956d880c76"}, {"lon": -77.02428733333333, "lat": 38.9155325, "name": "7d951ee02942f990baa14ea55d18198e", "fusion_lat": 0.0, "fusion_lon": 0.0, "rental_uris": {"android": "https://dc.lft.to/lastmile_qr_scan", "ios": "https://dc.lft.to/lastmile_qr_scan"}, "is_reserved": 0, "is_disabled": 0, "type": "electric_scooter", "bike_id": "7d951ee02942f990baa14ea55d18198e"}, {"lon": -77.04687816666667, "lat": 38.92099916666667, "name": "2e6c873000293fbcd2daede894914258", "fusion_lat": 0.0, "fusion_lon": 0.0, "rental_uris": {"android": "https://dc.lft.to/lastmile_qr_scan", "ios": "https://dc.lft.to/lastmile_qr_scan"}, "is_reserved": 0, "is_disabled": 0, "type": "electric_scooter", "bike_id": "2e6c873000293fbcd2daede894914258"}, {"lon": -77.03280533333333, "lat": 38.939912, "name": "941cf61095f04dd5a3e3a726d9ba7823", "fusion_lat": 0.0, "fusion_lon": 0.0, "rental_uris": {"android": "https://dc.lft.to/lastmile_qr_scan", "ios": "https://dc.lft.to/lastmile_qr_scan"}, "is_reserved": 0, "is_disabled": 0, "type": "electric_scooter", "bike_id": "941cf61095f04dd5a3e3a726d9ba7823"}, {"lon": -77.0347325, "lat": 38.9181665, "name": "52c831a858d666d8885f78cf8ff0f9bf", "fusion_lat": 0.0, "fusion_lon": 0.0, "rental_uris": {"android": "https://dc.lft.to/lastmile_qr_scan", "ios": "https://dc.lft.to/lastmile_qr_scan"}, "is_reserved": 0, "is_disabled": 0, "type": "electric_scooter", "bike_id": "52c831a858d666d8885f78cf8ff0f9bf"}, {"lon": -76.99061916666666, "lat": 38.926610833333335, "name": "cfd545f71e3eb1b830241b2d7ca503fb", "fusion_lat": 0.0, "fusion_lon": 0.0, "rental_uris": {"android": "https://dc.lft.to/lastmile_qr_scan", "ios": "https://dc.lft.to/lastmile_qr_scan"}, "is_reserved": 0, "is_disabled": 0, "type": "electric_scooter", "bike_id": "cfd545f71e3eb1b830241b2d7ca503fb"}, {"lon": -77.0575535, "lat": 38.905023, "name": "1704de5459bf19822475686167aa520b", "fusion_lat": 0.0, "fusion_lon": 0.0, "rental_uris": {"android": "https://dc.lft.to/lastmile_qr_scan", "ios": "https://dc.lft.to/lastmile_qr_scan"}, "is_reserved": 0, "is_disabled": 0, "type": "electric_scooter", "bike_id": "1704de5459bf19822475686167aa520b"}, {"lon": -77.02343533333334, "lat": 38.9359935, "name": "7b3d955e27bc757fc331385fbf706618", "fusion_lat": 0.0, "fusion_lon": 0.0, "rental_uris": {"android": "https://dc.lft.to/lastmile_qr_scan", "ios": "https://dc.lft.to/lastmile_qr_scan"}, "is_reserved": 0, "is_disabled": 0, "type": "electric_scooter", "bike_id": "7b3d955e27bc757fc331385fbf706618"}, {"lon": -76.98681633333334, "lat": 38.88213183333333, "name": "215fbe96a047c62a3c9c954a6c56eca6", "fusion_lat": 0.0, "fusion_lon": 0.0, "rental_uris": {"android": "https://dc.lft.to/lastmile_qr_scan", "ios": "https://dc.lft.to/lastmile_qr_scan"}, "is_reserved": 0, "is_disabled": 0, "type": "electric_scooter", "bike_id": "215fbe96a047c62a3c9c954a6c56eca6"}, {"lon": -76.979596, "lat": 38.90382916666667, "name": "8aaf12cac1128ade220baca531056183", "fusion_lat": 0.0, "fusion_lon": 0.0, "rental_uris": {"android": "https://dc.lft.to/lastmile_qr_scan", "ios": "https://dc.lft.to/lastmile_qr_scan"}, "is_reserved": 0, "is_disabled": 0, "type": "electric_scooter", "bike_id": "8aaf12cac1128ade220baca531056183"}, {"lon": -77.00877516666667, "lat": 38.91402883333333, "name": "7432b0fbbfbc694c17ea4ab62cbb2608", "fusion_lat": 0.0, "fusion_lon": 0.0, "rental_uris": {"android": "https://dc.lft.to/lastmile_qr_scan", "ios": "https://dc.lft.to/lastmile_qr_scan"}, "is_reserved": 0, "is_disabled": 0, "type": "electric_scooter", "bike_id": "7432b0fbbfbc694c17ea4ab62cbb2608"}, {"lon": -77.03162416666666, "lat": 38.91415583333333, "name": "98660bc38af1907abbd424802225af3f", "fusion_lat": 0.0, "fusion_lon": 0.0, "rental_uris": {"android": "https://dc.lft.to/lastmile_qr_scan", "ios": "https://dc.lft.to/lastmile_qr_scan"}, "is_reserved": 0, "is_disabled": 0, "type": "electric_scooter", "bike_id": "98660bc38af1907abbd424802225af3f"}, {"lon": -77.10340466666666, "lat": 38.85223966666667, "name": "caa2842f02969e5acf6cc6a9c9bd37b3", "fusion_lat": 0.0, "fusion_lon": 0.0, "rental_uris": {"android": "https://dc.lft.to/lastmile_qr_scan", "ios": "https://dc.lft.to/lastmile_qr_scan"}, "is_reserved": 0, "is_disabled": 0, "type": "electric_bike", "bike_id": "caa2842f02969e5acf6cc6a9c9bd37b3"}, {"lon": -77.02980266666667, "lat": 38.962280166666666, "name": "663c57dcdf947902c8fe0f890b1f9b11", "fusion_lat": 0.0, "fusion_lon": 0.0, "rental_uris": {"android": "https://dc.lft.to/lastmile_qr_scan", "ios": "https://dc.lft.to/lastmile_qr_scan"}, "is_reserved": 0, "is_disabled": 0, "type": "electric_scooter", "bike_id": "663c57dcdf947902c8fe0f890b1f9b11"}, {"lon": -77.03203466666666, "lat": 38.91458083333333, "name": "fe5d8bff19f400b88395c45c512f7b66", "fusion_lat": 0.0, "fusion_lon": 0.0, "rental_uris": {"android": "https://dc.lft.to/lastmile_qr_scan", "ios": "https://dc.lft.to/lastmile_qr_scan"}, "is_reserved": 0, "is_disabled": 0, "type": "electric_scooter", "bike_id": "fe5d8bff19f400b88395c45c512f7b66"}, {"lon": -77.02166483333333, "lat": 38.886318833333334, "name": "70cde98a92c9a894b9cbe0b455c054e9", "fusion_lat": 0.0, "fusion_lon": 0.0, "rental_uris": {"android": "https://dc.lft.to/lastmile_qr_scan", "ios": "https://dc.lft.to/lastmile_qr_scan"}, "is_reserved": 0, "is_disabled": 0, "type": "electric_scooter", "bike_id": "70cde98a92c9a894b9cbe0b455c054e9"}, {"lon": -77.0013645, "lat": 38.9041205, "name": "167e6fae6a9444cd43acb4b8ded1dcff", "fusion_lat": 0.0, "fusion_lon": 0.0, "rental_uris": {"android": "https://dc.lft.to/lastmile_qr_scan", "ios": "https://dc.lft.to/lastmile_qr_scan"}, "is_reserved": 0, "is_disabled": 0, "type": "electric_scooter", "bike_id": "167e6fae6a9444cd43acb4b8ded1dcff"}, {"lon": -77.04208883333334, "lat": 38.933372, "name": "382bb2737665358b9f81ae2ca764a16b", "fusion_lat": 0.0, "fusion_lon": 0.0, "rental_uris": {"android": "https://dc.lft.to/lastmile_qr_scan", "ios": "https://dc.lft.to/lastmile_qr_scan"}, "is_reserved": 0, "is_disabled": 0, "type": "electric_bike", "bike_id": "382bb2737665358b9f81ae2ca764a16b"}, {"lon": -77.06401883333334, "lat": 38.84344733333333, "name": "9c6df2d362f35390214a1e940208ecf6", "fusion_lat": 0.0, "fusion_lon": 0.0, "rental_uris": {"android": "https://dc.lft.to/lastmile_qr_scan", "ios": "https://dc.lft.to/lastmile_qr_scan"}, "is_reserved": 0, "is_disabled": 0, "type": "electric_bike", "bike_id": "9c6df2d362f35390214a1e940208ecf6"}, {"lon": -77.03499666666667, "lat": 38.917083833333336, "name": "6bd51e8c24e41d51353f97984a930816", "fusion_lat": 0.0, "fusion_lon": 0.0, "rental_uris": {"android": "https://dc.lft.to/lastmile_qr_scan", "ios": "https://dc.lft.to/lastmile_qr_scan"}, "is_reserved": 0, "is_disabled": 0, "type": "electric_scooter", "bike_id": "6bd51e8c24e41d51353f97984a930816"}, {"lon": -77.043473, "lat": 38.90496666666667, "name": "dbcf49829b61c23e1832370e03018862", "fusion_lat": 0.0, "fusion_lon": 0.0, "rental_uris": {"android": "https://dc.lft.to/lastmile_qr_scan", "ios": "https://dc.lft.to/lastmile_qr_scan"}, "is_reserved": 0, "is_disabled": 0, "type": "electric_scooter", "bike_id": "dbcf49829b61c23e1832370e03018862"}, {"lon": -77.0283135, "lat": 38.910278166666664, "name": "3e8cc7dd290db2289ac7502da442a30b", "fusion_lat": 0.0, "fusion_lon": 0.0, "rental_uris": {"android": "https://dc.lft.to/lastmile_qr_scan", "ios": "https://dc.lft.to/lastmile_qr_scan"}, "is_reserved": 0, "is_disabled": 0, "type": "electric_scooter", "bike_id": "3e8cc7dd290db2289ac7502da442a30b"}, {"lon": -76.95529916666666, "lat": 38.8887155, "name": "ecc8ab85833dd576b9f1bbd4a91a4102", "fusion_lat": 0.0, "fusion_lon": 0.0, "rental_uris": {"android": "https://dc.lft.to/lastmile_qr_scan", "ios": "https://dc.lft.to/lastmile_qr_scan"}, "is_reserved": 0, "is_disabled": 0, "type": "electric_scooter", "bike_id": "ecc8ab85833dd576b9f1bbd4a91a4102"}, {"lon": -77.031732, "lat": 38.893490166666666, "name": "631940d92c1009f6b51c28fcee42b27a", "fusion_lat": 0.0, "fusion_lon": 0.0, "rental_uris": {"android": "https://dc.lft.to/lastmile_qr_scan", "ios": "https://dc.lft.to/lastmile_qr_scan"}, "is_reserved": 0, "is_disabled": 0, "type": "electric_scooter", "bike_id": "631940d92c1009f6b51c28fcee42b27a"}, {"lon": -77.02387316666666, "lat": 38.911565, "name": "4b4633ca35976327afff2a84620d89c3", "fusion_lat": 0.0, "fusion_lon": 0.0, "rental_uris": {"android": "https://dc.lft.to/lastmile_qr_scan", "ios": "https://dc.lft.to/lastmile_qr_scan"}, "is_reserved": 0, "is_disabled": 0, "type": "electric_scooter", "bike_id": "4b4633ca35976327afff2a84620d89c3"}, {"lon": -77.0300065, "lat": 38.899845166666665, "name": "1b0117145fd061a126412d5ba60837e2", "fusion_lat": 0.0, "fusion_lon": 0.0, "rental_uris": {"android": "https://dc.lft.to/lastmile_qr_scan", "ios": "https://dc.lft.to/lastmile_qr_scan"}, "is_reserved": 0, "is_disabled": 0, "type": "electric_scooter", "bike_id": "1b0117145fd061a126412d5ba60837e2"}, {"lon": -77.034439, "lat": 38.907224, "name": "665ac72cdcc94fd587fa7b55be7a0069", "fusion_lat": 0.0, "fusion_lon": 0.0, "rental_uris": {"android": "https://dc.lft.to/lastmile_qr_scan", "ios": "https://dc.lft.to/lastmile_qr_scan"}, "is_reserved": 0, "is_disabled": 0, "type": "electric_scooter", "bike_id": "665ac72cdcc94fd587fa7b55be7a0069"}, {"lon": -77.03017116666666, "lat": 38.93489366666667, "name": "3eff9f701fed8008530464d83327dbf8", "fusion_lat": 0.0, "fusion_lon": 0.0, "rental_uris": {"android": "https://dc.lft.to/lastmile_qr_scan", "ios": "https://dc.lft.to/lastmile_qr_scan"}, "is_reserved": 0, "is_disabled": 0, "type": "electric_bike", "bike_id": "3eff9f701fed8008530464d83327dbf8"}, {"lon": -77.03359433333334, "lat": 38.88756516666667, "name": "e6cea0f18187587d9344124bccebc3cb", "fusion_lat": 0.0, "fusion_lon": 0.0, "rental_uris": {"android": "https://dc.lft.to/lastmile_qr_scan", "ios": "https://dc.lft.to/lastmile_qr_scan"}, "is_reserved": 0, "is_disabled": 0, "type": "electric_scooter", "bike_id": "e6cea0f18187587d9344124bccebc3cb"}, {"lon": -76.99564116666667, "lat": 38.928778, "name": "fdae46c38d6bc0bde34fcdaad5094c03", "fusion_lat": 0.0, "fusion_lon": 0.0, "rental_uris": {"android": "https://dc.lft.to/lastmile_qr_scan", "ios": "https://dc.lft.to/lastmile_qr_scan"}, "is_reserved": 0, "is_disabled": 0, "type": "electric_scooter", "bike_id": "fdae46c38d6bc0bde34fcdaad5094c03"}, {"lon": -76.94891133333333, "lat": 38.895256, "name": "58f82db2c908a3184fb0d677542bb501", "fusion_lat": 0.0, "fusion_lon": 0.0, "rental_uris": {"android": "https://dc.lft.to/lastmile_qr_scan", "ios": "https://dc.lft.to/lastmile_qr_scan"}, "is_reserved": 0, "is_disabled": 0, "type": "electric_scooter", "bike_id": "58f82db2c908a3184fb0d677542bb501"}, {"lon": -77.02592533333333, "lat": 38.892439833333334, "name": "c62fd8be1e5b64713ad78ac0e811695c", "fusion_lat": 0.0, "fusion_lon": 0.0, "rental_uris": {"android": "https://dc.lft.to/lastmile_qr_scan", "ios": "https://dc.lft.to/lastmile_qr_scan"}, "is_reserved": 0, "is_disabled": 0, "type": "electric_scooter", "bike_id": "c62fd8be1e5b64713ad78ac0e811695c"}, {"lon": -76.93874583333333, "lat": 38.900834833333334, "name": "6c1c7ffe4cca5702208f246d9654c745", "fusion_lat": 0.0, "fusion_lon": 0.0, "rental_uris": {"android": "https://dc.lft.to/lastmile_qr_scan", "ios": "https://dc.lft.to/lastmile_qr_scan"}, "is_reserved": 0, "is_disabled": 0, "type": "electric_scooter", "bike_id": "6c1c7ffe4cca5702208f246d9654c745"}, {"lon": -77.03207283333333, "lat": 38.917828, "name": "c636ea8cf2909a36d0baf1068a461b00", "fusion_lat": 0.0, "fusion_lon": 0.0, "rental_uris": {"android": "https://dc.lft.to/lastmile_qr_scan", "ios": "https://dc.lft.to/lastmile_qr_scan"}, "is_reserved": 0, "is_disabled": 0, "type": "electric_scooter", "bike_id": "c636ea8cf2909a36d0baf1068a461b00"}, {"lon": -77.0334095, "lat": 38.901442333333335, "name": "1fc85098f44c8e85ef59da54c3d9020f", "fusion_lat": 0.0, "fusion_lon": 0.0, "rental_uris": {"android": "https://dc.lft.to/lastmile_qr_scan", "ios": "https://dc.lft.to/lastmile_qr_scan"}, "is_reserved": 0, "is_disabled": 0, "type": "electric_scooter", "bike_id": "1fc85098f44c8e85ef59da54c3d9020f"}, {"lon": -77.05234983333334, "lat": 38.925142, "name": "7550555894e8f6654433f5e03141457a", "fusion_lat": 0.0, "fusion_lon": 0.0, "rental_uris": {"android": "https://dc.lft.to/lastmile_qr_scan", "ios": "https://dc.lft.to/lastmile_qr_scan"}, "is_reserved": 0, "is_disabled": 0, "type": "electric_scooter", "bike_id": "7550555894e8f6654433f5e03141457a"}, {"lon": -77.00625266666667, "lat": 38.9028685, "name": "731f11a512e9402fb84e9e5059293207", "fusion_lat": 0.0, "fusion_lon": 0.0, "rental_uris": {"android": "https://dc.lft.to/lastmile_qr_scan", "ios": "https://dc.lft.to/lastmile_qr_scan"}, "is_reserved": 0, "is_disabled": 0, "type": "electric_scooter", "bike_id": "731f11a512e9402fb84e9e5059293207"}, {"lon": -77.02686366666667, "lat": 38.89222783333334, "name": "a83925b2cdf0c29bba79ed29a19ac945", "fusion_lat": 0.0, "fusion_lon": 0.0, "rental_uris": {"android": "https://dc.lft.to/lastmile_qr_scan", "ios": "https://dc.lft.to/lastmile_qr_scan"}, "is_reserved": 0, "is_disabled": 0, "type": "electric_scooter", "bike_id": "a83925b2cdf0c29bba79ed29a19ac945"}, {"lon": -76.97217033333334, "lat": 38.84482233333333, "name": "dd5eacd655fcc847c6f4cf427c798cec", "fusion_lat": 0.0, "fusion_lon": 0.0, "rental_uris": {"android": "https://dc.lft.to/lastmile_qr_scan", "ios": "https://dc.lft.to/lastmile_qr_scan"}, "is_reserved": 0, "is_disabled": 0, "type": "electric_bike", "bike_id": "dd5eacd655fcc847c6f4cf427c798cec"}, {"lon": -77.06780016666667, "lat": 38.949683666666665, "name": "efb3b5812c00e8801489cbaf034b62bb", "fusion_lat": 0.0, "fusion_lon": 0.0, "rental_uris": {"android": "https://dc.lft.to/lastmile_qr_scan", "ios": "https://dc.lft.to/lastmile_qr_scan"}, "is_reserved": 0, "is_disabled": 0, "type": "electric_scooter", "bike_id": "efb3b5812c00e8801489cbaf034b62bb"}, {"lon": -77.00731733333333, "lat": 38.95972866666666, "name": "9f66aa4e95cbaca623bda6348e113c9b", "fusion_lat": 0.0, "fusion_lon": 0.0, "rental_uris": {"android": "https://dc.lft.to/lastmile_qr_scan", "ios": "https://dc.lft.to/lastmile_qr_scan"}, "is_reserved": 0, "is_disabled": 0, "type": "electric_scooter", "bike_id": "9f66aa4e95cbaca623bda6348e113c9b"}, {"lon": -77.0185095, "lat": 38.919713333333334, "name": "2c12fd31d2ec0c8507a36e953631beb5", "fusion_lat": 0.0, "fusion_lon": 0.0, "rental_uris": {"android": "https://dc.lft.to/lastmile_qr_scan", "ios": "https://dc.lft.to/lastmile_qr_scan"}, "is_reserved": 0, "is_disabled": 0, "type": "electric_scooter", "bike_id": "2c12fd31d2ec0c8507a36e953631beb5"}, {"lon": -76.97706183333334, "lat": 38.89900216666667, "name": "9b0462ecc7172154bbb19274db94e72a", "fusion_lat": 0.0, "fusion_lon": 0.0, "rental_uris": {"android": "https://dc.lft.to/lastmile_qr_scan", "ios": "https://dc.lft.to/lastmile_qr_scan"}, "is_reserved": 0, "is_disabled": 0, "type": "electric_scooter", "bike_id": "9b0462ecc7172154bbb19274db94e72a"}, {"lon": -77.03846966666667, "lat": 38.918241333333334, "name": "c321a3b783a188fd3060ac4a652165e5", "fusion_lat": 0.0, "fusion_lon": 0.0, "rental_uris": {"android": "https://dc.lft.to/lastmile_qr_scan", "ios": "https://dc.lft.to/lastmile_qr_scan"}, "is_reserved": 0, "is_disabled": 0, "type": "electric_scooter", "bike_id": "c321a3b783a188fd3060ac4a652165e5"}, {"lon": -77.02716633333333, "lat": 38.9095425, "name": "784f9f4e363a14e8f042738ac0b4bf72", "fusion_lat": 0.0, "fusion_lon": 0.0, "rental_uris": {"android": "https://dc.lft.to/lastmile_qr_scan", "ios": "https://dc.lft.to/lastmile_qr_scan"}, "is_reserved": 0, "is_disabled": 0, "type": "electric_scooter", "bike_id": "784f9f4e363a14e8f042738ac0b4bf72"}, {"lon": -77.02650266666667, "lat": 38.881154, "name": "38ff37bf380cb32aab5f2ac642ffe0db", "fusion_lat": 0.0, "fusion_lon": 0.0, "rental_uris": {"android": "https://dc.lft.to/lastmile_qr_scan", "ios": "https://dc.lft.to/lastmile_qr_scan"}, "is_reserved": 0, "is_disabled": 0, "type": "electric_scooter", "bike_id": "38ff37bf380cb32aab5f2ac642ffe0db"}, {"lon": -77.000277, "lat": 38.87638, "name": "f97666e9b4f96eb965adda38f3c18ae0", "fusion_lat": 0.0, "fusion_lon": 0.0, "rental_uris": {"android": "https://dc.lft.to/lastmile_qr_scan", "ios": "https://dc.lft.to/lastmile_qr_scan"}, "is_reserved": 0, "is_disabled": 0, "type": "electric_scooter", "bike_id": "f97666e9b4f96eb965adda38f3c18ae0"}, {"lon": -76.9317805, "lat": 38.898812, "name": "3856f7e83ccdea6c6eca243c81661ec1", "fusion_lat": 0.0, "fusion_lon": 0.0, "rental_uris": {"android": "https://dc.lft.to/lastmile_qr_scan", "ios": "https://dc.lft.to/lastmile_qr_scan"}, "is_reserved": 0, "is_disabled": 0, "type": "electric_scooter", "bike_id": "3856f7e83ccdea6c6eca243c81661ec1"}, {"lon": -77.01888616666666, "lat": 38.909976, "name": "3391dd3b8bdd6186f2357c305541fe97", "fusion_lat": 0.0, "fusion_lon": 0.0, "rental_uris": {"android": "https://dc.lft.to/lastmile_qr_scan", "ios": "https://dc.lft.to/lastmile_qr_scan"}, "is_reserved": 0, "is_disabled": 0, "type": "electric_scooter", "bike_id": "3391dd3b8bdd6186f2357c305541fe97"}, {"lon": -77.07167216666667, "lat": 38.90776566666667, "name": "8e1ec1f026e6860d85fbec1698ffbff7", "fusion_lat": 0.0, "fusion_lon": 0.0, "rental_uris": {"android": "https://dc.lft.to/lastmile_qr_scan", "ios": "https://dc.lft.to/lastmile_qr_scan"}, "is_reserved": 0, "is_disabled": 0, "type": "electric_scooter", "bike_id": "8e1ec1f026e6860d85fbec1698ffbff7"}, {"lon": -76.9874595, "lat": 38.85791666666667, "name": "628a8247b0a7b7f2e87e5a4127beebad", "fusion_lat": 0.0, "fusion_lon": 0.0, "rental_uris": {"android": "https://dc.lft.to/lastmile_qr_scan", "ios": "https://dc.lft.to/lastmile_qr_scan"}, "is_reserved": 0, "is_disabled": 0, "type": "electric_bike", "bike_id": "628a8247b0a7b7f2e87e5a4127beebad"}, {"lon": -77.0271995, "lat": 38.89707666666666, "name": "5305f6dc8011118d1b627c45881d165f", "fusion_lat": 0.0, "fusion_lon": 0.0, "rental_uris": {"android": "https://dc.lft.to/lastmile_qr_scan", "ios": "https://dc.lft.to/lastmile_qr_scan"}, "is_reserved": 0, "is_disabled": 0, "type": "electric_scooter", "bike_id": "5305f6dc8011118d1b627c45881d165f"}, {"lon": -77.02967933333333, "lat": 38.89209183333333, "name": "de03cfedc4ba9cf352f65887450baf8e", "fusion_lat": 0.0, "fusion_lon": 0.0, "rental_uris": {"android": "https://dc.lft.to/lastmile_qr_scan", "ios": "https://dc.lft.to/lastmile_qr_scan"}, "is_reserved": 0, "is_disabled": 0, "type": "electric_scooter", "bike_id": "de03cfedc4ba9cf352f65887450baf8e"}, {"lon": -77.03142183333334, "lat": 38.910316333333334, "name": "5c47a774fa1bfd8fbc1c94b5a6fa5c8f", "fusion_lat": 0.0, "fusion_lon": 0.0, "rental_uris": {"android": "https://dc.lft.to/lastmile_qr_scan", "ios": "https://dc.lft.to/lastmile_qr_scan"}, "is_reserved": 0, "is_disabled": 0, "type": "electric_scooter", "bike_id": "5c47a774fa1bfd8fbc1c94b5a6fa5c8f"}, {"lon": -77.04333716666666, "lat": 38.903704833333336, "name": "e16da49b8c6b35660f734e15955db854", "fusion_lat": 0.0, "fusion_lon": 0.0, "rental_uris": {"android": "https://dc.lft.to/lastmile_qr_scan", "ios": "https://dc.lft.to/lastmile_qr_scan"}, "is_reserved": 0, "is_disabled": 0, "type": "electric_scooter", "bike_id": "e16da49b8c6b35660f734e15955db854"}, {"lon": -77.03995816666666, "lat": 38.898928166666664, "name": "946ddbb5bb63d111bd3bd48f91508e72", "fusion_lat": 0.0, "fusion_lon": 0.0, "rental_uris": {"android": "https://dc.lft.to/lastmile_qr_scan", "ios": "https://dc.lft.to/lastmile_qr_scan"}, "is_reserved": 0, "is_disabled": 0, "type": "electric_scooter", "bike_id": "946ddbb5bb63d111bd3bd48f91508e72"}, {"lon": -76.983976, "lat": 38.922011833333336, "name": "42a241a957790add0bd4979953e12049", "fusion_lat": 0.0, "fusion_lon": 0.0, "rental_uris": {"android": "https://dc.lft.to/lastmile_qr_scan", "ios": "https://dc.lft.to/lastmile_qr_scan"}, "is_reserved": 0, "is_disabled": 0, "type": "electric_bike", "bike_id": "42a241a957790add0bd4979953e12049"}, {"lon": -77.12627083333334, "lat": 39.05812066666667, "name": "c37bacd2895078044ff43c46784e1c64", "fusion_lat": 0.0, "fusion_lon": 0.0, "rental_uris": {"android": "https://dc.lft.to/lastmile_qr_scan", "ios": "https://dc.lft.to/lastmile_qr_scan"}, "is_reserved": 0, "is_disabled": 0, "type": "electric_bike", "bike_id": "c37bacd2895078044ff43c46784e1c64"}, {"lon": -77.032134, "lat": 38.91630633333333, "name": "fd5194c685626322ccd7661d63a96f6c", "fusion_lat": 0.0, "fusion_lon": 0.0, "rental_uris": {"android": "https://dc.lft.to/lastmile_qr_scan", "ios": "https://dc.lft.to/lastmile_qr_scan"}, "is_reserved": 0, "is_disabled": 0, "type": "electric_scooter", "bike_id": "fd5194c685626322ccd7661d63a96f6c"}, {"lon": -77.03185466666666, "lat": 38.91930083333333, "name": "63b44af5730d71962f5f735bbe10a0c4", "fusion_lat": 0.0, "fusion_lon": 0.0, "rental_uris": {"android": "https://dc.lft.to/lastmile_qr_scan", "ios": "https://dc.lft.to/lastmile_qr_scan"}, "is_reserved": 0, "is_disabled": 0, "type": "electric_scooter", "bike_id": "63b44af5730d71962f5f735bbe10a0c4"}, {"lon": -77.03218583333333, "lat": 38.892190166666666, "name": "87d3dd9f337caf88860717f0b7a1c87c", "fusion_lat": 0.0, "fusion_lon": 0.0, "rental_uris": {"android": "https://dc.lft.to/lastmile_qr_scan", "ios": "https://dc.lft.to/lastmile_qr_scan"}, "is_reserved": 0, "is_disabled": 0, "type": "electric_scooter", "bike_id": "87d3dd9f337caf88860717f0b7a1c87c"}, {"lon": -77.0328425, "lat": 38.8988545, "name": "6b7c2d2e9d52a8c0cccfaf6df6cf5aa1", "fusion_lat": 0.0, "fusion_lon": 0.0, "rental_uris": {"android": "https://dc.lft.to/lastmile_qr_scan", "ios": "https://dc.lft.to/lastmile_qr_scan"}, "is_reserved": 0, "is_disabled": 0, "type": "electric_scooter", "bike_id": "6b7c2d2e9d52a8c0cccfaf6df6cf5aa1"}, {"lon": -76.998266, "lat": 38.844161, "name": "f867e8060e7a3db3b46936ecaf26d637", "fusion_lat": 0.0, "fusion_lon": 0.0, "rental_uris": {"android": "https://dc.lft.to/lastmile_qr_scan", "ios": "https://dc.lft.to/lastmile_qr_scan"}, "is_reserved": 0, "is_disabled": 0, "type": "electric_scooter", "bike_id": "f867e8060e7a3db3b46936ecaf26d637"}, {"lon": -77.03135133333333, "lat": 38.915663333333335, "name": "53486a3dac8a1432d52478fd689b6002", "fusion_lat": 0.0, "fusion_lon": 0.0, "rental_uris": {"android": "https://dc.lft.to/lastmile_qr_scan", "ios": "https://dc.lft.to/lastmile_qr_scan"}, "is_reserved": 0, "is_disabled": 0, "type": "electric_scooter", "bike_id": "53486a3dac8a1432d52478fd689b6002"}, {"lon": -77.01232883333333, "lat": 38.91549716666667, "name": "7e6c0260c2b7e2542ea6a9c83c15e007", "fusion_lat": 0.0, "fusion_lon": 0.0, "rental_uris": {"android": "https://dc.lft.to/lastmile_qr_scan", "ios": "https://dc.lft.to/lastmile_qr_scan"}, "is_reserved": 0, "is_disabled": 0, "type": "electric_scooter", "bike_id": "7e6c0260c2b7e2542ea6a9c83c15e007"}, {"lon": -77.03161883333334, "lat": 38.91606783333334, "name": "6077f2f087bca5c899d568f95477f5a6", "fusion_lat": 0.0, "fusion_lon": 0.0, "rental_uris": {"android": "https://dc.lft.to/lastmile_qr_scan", "ios": "https://dc.lft.to/lastmile_qr_scan"}, "is_reserved": 0, "is_disabled": 0, "type": "electric_scooter", "bike_id": "6077f2f087bca5c899d568f95477f5a6"}, {"lon": -77.03654866666666, "lat": 38.921120333333334, "name": "89a9fbcd8fe9f0f8356bf4aa1d969c7c", "fusion_lat": 0.0, "fusion_lon": 0.0, "rental_uris": {"android": "https://dc.lft.to/lastmile_qr_scan", "ios": "https://dc.lft.to/lastmile_qr_scan"}, "is_reserved": 0, "is_disabled": 0, "type": "electric_scooter", "bike_id": "89a9fbcd8fe9f0f8356bf4aa1d969c7c"}, {"lon": -76.94782583333334, "lat": 38.8944115, "name": "cf32a8e663c3ee8f1ec6e53e4c3fdce3", "fusion_lat": 0.0, "fusion_lon": 0.0, "rental_uris": {"android": "https://dc.lft.to/lastmile_qr_scan", "ios": "https://dc.lft.to/lastmile_qr_scan"}, "is_reserved": 0, "is_disabled": 0, "type": "electric_bike", "bike_id": "cf32a8e663c3ee8f1ec6e53e4c3fdce3"}, {"lon": -77.0283015, "lat": 38.9328485, "name": "fd02e77401d395218fcef6b9714a58e5", "fusion_lat": 0.0, "fusion_lon": 0.0, "rental_uris": {"android": "https://dc.lft.to/lastmile_qr_scan", "ios": "https://dc.lft.to/lastmile_qr_scan"}, "is_reserved": 0, "is_disabled": 0, "type": "electric_scooter", "bike_id": "fd02e77401d395218fcef6b9714a58e5"}, {"lon": -77.36093683333333, "lat": 38.939630666666666, "name": "16a74b4394e817c2c2b3cc23cce0b6ed", "fusion_lat": 0.0, "fusion_lon": 0.0, "rental_uris": {"android": "https://dc.lft.to/lastmile_qr_scan", "ios": "https://dc.lft.to/lastmile_qr_scan"}, "is_reserved": 0, "is_disabled": 0, "type": "electric_bike", "bike_id": "16a74b4394e817c2c2b3cc23cce0b6ed"}, {"lon": -76.979873, "lat": 38.877510666666666, "name": "732b860ac9d66edb369a3031f4039570", "fusion_lat": 0.0, "fusion_lon": 0.0, "rental_uris": {"android": "https://dc.lft.to/lastmile_qr_scan", "ios": "https://dc.lft.to/lastmile_qr_scan"}, "is_reserved": 0, "is_disabled": 0, "type": "electric_bike", "bike_id": "732b860ac9d66edb369a3031f4039570"}, {"lon": -77.01975783333333, "lat": 38.90021516666667, "name": "1734d9c873fcc71575b411183e6630ad", "fusion_lat": 0.0, "fusion_lon": 0.0, "rental_uris": {"android": "https://dc.lft.to/lastmile_qr_scan", "ios": "https://dc.lft.to/lastmile_qr_scan"}, "is_reserved": 0, "is_disabled": 0, "type": "electric_scooter", "bike_id": "1734d9c873fcc71575b411183e6630ad"}, {"lon": -77.00104516666667, "lat": 38.894312, "name": "468f7cf684fd05f07073c9974ba21184", "fusion_lat": 0.0, "fusion_lon": 0.0, "rental_uris": {"android": "https://dc.lft.to/lastmile_qr_scan", "ios": "https://dc.lft.to/lastmile_qr_scan"}, "is_reserved": 0, "is_disabled": 0, "type": "electric_scooter", "bike_id": "468f7cf684fd05f07073c9974ba21184"}, {"lon": -77.020957, "lat": 38.91009866666667, "name": "f7124e0ad05e4fc6c4a773be2f31965f", "fusion_lat": 0.0, "fusion_lon": 0.0, "rental_uris": {"android": "https://dc.lft.to/lastmile_qr_scan", "ios": "https://dc.lft.to/lastmile_qr_scan"}, "is_reserved": 0, "is_disabled": 0, "type": "electric_scooter", "bike_id": "f7124e0ad05e4fc6c4a773be2f31965f"}, {"lon": -77.02535516666667, "lat": 38.940938333333335, "name": "a19f4108a98433eecbbf55ebbcac6950", "fusion_lat": 0.0, "fusion_lon": 0.0, "rental_uris": {"android": "https://dc.lft.to/lastmile_qr_scan", "ios": "https://dc.lft.to/lastmile_qr_scan"}, "is_reserved": 0, "is_disabled": 0, "type": "electric_scooter", "bike_id": "a19f4108a98433eecbbf55ebbcac6950"}, {"lon": -77.045826, "lat": 38.9022425, "name": "a526f62dd37d16be234157b7ef247ac4", "fusion_lat": 0.0, "fusion_lon": 0.0, "rental_uris": {"android": "https://dc.lft.to/lastmile_qr_scan", "ios": "https://dc.lft.to/lastmile_qr_scan"}, "is_reserved": 0, "is_disabled": 0, "type": "electric_scooter", "bike_id": "a526f62dd37d16be234157b7ef247ac4"}, {"lon": -77.03286383333334, "lat": 38.922146833333336, "name": "1180b7d7fff61443a25505504838d4ec", "fusion_lat": 0.0, "fusion_lon": 0.0, "rental_uris": {"android": "https://dc.lft.to/lastmile_qr_scan", "ios": "https://dc.lft.to/lastmile_qr_scan"}, "is_reserved": 0, "is_disabled": 0, "type": "electric_scooter", "bike_id": "1180b7d7fff61443a25505504838d4ec"}, {"lon": -77.02737416666666, "lat": 38.928528, "name": "ca7454ed477e0d900c6930fb19673fb8", "fusion_lat": 0.0, "fusion_lon": 0.0, "rental_uris": {"android": "https://dc.lft.to/lastmile_qr_scan", "ios": "https://dc.lft.to/lastmile_qr_scan"}, "is_reserved": 0, "is_disabled": 0, "type": "electric_scooter", "bike_id": "ca7454ed477e0d900c6930fb19673fb8"}, {"lon": -76.9994215, "lat": 38.919286, "name": "4a3785584c545753b5b96f649f12da41", "fusion_lat": 0.0, "fusion_lon": 0.0, "rental_uris": {"android": "https://dc.lft.to/lastmile_qr_scan", "ios": "https://dc.lft.to/lastmile_qr_scan"}, "is_reserved": 0, "is_disabled": 0, "type": "electric_scooter", "bike_id": "4a3785584c545753b5b96f649f12da41"}, {"lon": -77.1298275, "lat": 38.79987883333333, "name": "798e66fcc64003529a264a4f53f2e9dd", "fusion_lat": 0.0, "fusion_lon": 0.0, "rental_uris": {"android": "https://dc.lft.to/lastmile_qr_scan", "ios": "https://dc.lft.to/lastmile_qr_scan"}, "is_reserved": 0, "is_disabled": 0, "type": "electric_bike", "bike_id": "798e66fcc64003529a264a4f53f2e9dd"}, {"lon": -77.06392816666667, "lat": 38.929038166666665, "name": "c4bcde15b638d434958085a79c3523fe", "fusion_lat": 0.0, "fusion_lon": 0.0, "rental_uris": {"android": "https://dc.lft.to/lastmile_qr_scan", "ios": "https://dc.lft.to/lastmile_qr_scan"}, "is_reserved": 0, "is_disabled": 0, "type": "electric_scooter", "bike_id": "c4bcde15b638d434958085a79c3523fe"}, {"lon": -77.043788, "lat": 38.892172, "name": "1b7e9eeb3888cb48f05b8dbe1c905248", "fusion_lat": 0.0, "fusion_lon": 0.0, "rental_uris": {"android": "https://dc.lft.to/lastmile_qr_scan", "ios": "https://dc.lft.to/lastmile_qr_scan"}, "is_reserved": 0, "is_disabled": 0, "type": "electric_scooter", "bike_id": "1b7e9eeb3888cb48f05b8dbe1c905248"}, {"lon": -77.128155, "lat": 38.865371, "name": "e519e8c1d4b757e2688b8ee2ab1c65ed", "fusion_lat": 0.0, "fusion_lon": 0.0, "rental_uris": {"android": "https://dc.lft.to/lastmile_qr_scan", "ios": "https://dc.lft.to/lastmile_qr_scan"}, "is_reserved": 0, "is_disabled": 0, "type": "electric_bike", "bike_id": "e519e8c1d4b757e2688b8ee2ab1c65ed"}, {"lon": -77.07046683333333, "lat": 38.8244625, "name": "1074c62d5f018453714ffb8659ef6bba", "fusion_lat": 0.0, "fusion_lon": 0.0, "rental_uris": {"android": "https://dc.lft.to/lastmile_qr_scan", "ios": "https://dc.lft.to/lastmile_qr_scan"}, "is_reserved": 0, "is_disabled": 0, "type": "electric_bike", "bike_id": "1074c62d5f018453714ffb8659ef6bba"}, {"lon": -77.016989, "lat": 38.90518683333333, "name": "b32f737ed11035e66e051eab136ec46a", "fusion_lat": 0.0, "fusion_lon": 0.0, "rental_uris": {"android": "https://dc.lft.to/lastmile_qr_scan", "ios": "https://dc.lft.to/lastmile_qr_scan"}, "is_reserved": 0, "is_disabled": 0, "type": "electric_scooter", "bike_id": "b32f737ed11035e66e051eab136ec46a"}, {"lon": -77.06891483333334, "lat": 38.940315166666664, "name": "5666a5cc6228cf170ab5a0474b300034", "fusion_lat": 0.0, "fusion_lon": 0.0, "rental_uris": {"android": "https://dc.lft.to/lastmile_qr_scan", "ios": "https://dc.lft.to/lastmile_qr_scan"}, "is_reserved": 0, "is_disabled": 0, "type": "electric_scooter", "bike_id": "5666a5cc6228cf170ab5a0474b300034"}, {"lon": -76.95759916666667, "lat": 38.88432016666667, "name": "9eb12f2a9e2f2f704ac2f53723e0ee9a", "fusion_lat": 0.0, "fusion_lon": 0.0, "rental_uris": {"android": "https://dc.lft.to/lastmile_qr_scan", "ios": "https://dc.lft.to/lastmile_qr_scan"}, "is_reserved": 0, "is_disabled": 0, "type": "electric_scooter", "bike_id": "9eb12f2a9e2f2f704ac2f53723e0ee9a"}, {"lon": -77.02956683333333, "lat": 38.91721233333333, "name": "891df445759abd9b17d475e524bbde02", "fusion_lat": 0.0, "fusion_lon": 0.0, "rental_uris": {"android": "https://dc.lft.to/lastmile_qr_scan", "ios": "https://dc.lft.to/lastmile_qr_scan"}, "is_reserved": 0, "is_disabled": 0, "type": "electric_scooter", "bike_id": "891df445759abd9b17d475e524bbde02"}, {"lon": -77.05359116666666, "lat": 38.927964833333334, "name": "be5e101b00ab43393223524d860335a1", "fusion_lat": 0.0, "fusion_lon": 0.0, "rental_uris": {"android": "https://dc.lft.to/lastmile_qr_scan", "ios": "https://dc.lft.to/lastmile_qr_scan"}, "is_reserved": 0, "is_disabled": 0, "type": "electric_scooter", "bike_id": "be5e101b00ab43393223524d860335a1"}, {"lon": -77.03001616666667, "lat": 38.910269, "name": "0861dd5c05f1b5210419f683c858beee", "fusion_lat": 0.0, "fusion_lon": 0.0, "rental_uris": {"android": "https://dc.lft.to/lastmile_qr_scan", "ios": "https://dc.lft.to/lastmile_qr_scan"}, "is_reserved": 0, "is_disabled": 0, "type": "electric_scooter", "bike_id": "0861dd5c05f1b5210419f683c858beee"}, {"lon": -76.98329283333334, "lat": 38.86171083333333, "name": "12d563a514ba0f4271e02c20e11a5d17", "fusion_lat": 0.0, "fusion_lon": 0.0, "rental_uris": {"android": "https://dc.lft.to/lastmile_qr_scan", "ios": "https://dc.lft.to/lastmile_qr_scan"}, "is_reserved": 0, "is_disabled": 0, "type": "electric_scooter", "bike_id": "12d563a514ba0f4271e02c20e11a5d17"}, {"lon": -77.02963416666667, "lat": 38.92408316666667, "name": "b2d423c0898567e5f36f8ca8d175d834", "fusion_lat": 0.0, "fusion_lon": 0.0, "rental_uris": {"android": "https://dc.lft.to/lastmile_qr_scan", "ios": "https://dc.lft.to/lastmile_qr_scan"}, "is_reserved": 0, "is_disabled": 0, "type": "electric_scooter", "bike_id": "b2d423c0898567e5f36f8ca8d175d834"}, {"lon": -77.0141595, "lat": 38.928167333333334, "name": "80042f90dce16b43849185fd12706656", "fusion_lat": 0.0, "fusion_lon": 0.0, "rental_uris": {"android": "https://dc.lft.to/lastmile_qr_scan", "ios": "https://dc.lft.to/lastmile_qr_scan"}, "is_reserved": 0, "is_disabled": 0, "type": "electric_scooter", "bike_id": "80042f90dce16b43849185fd12706656"}, {"lon": -77.023597, "lat": 38.92514, "name": "4fcdc9b39a2054d31d5e23b17cd2eee7", "fusion_lat": 0.0, "fusion_lon": 0.0, "rental_uris": {"android": "https://dc.lft.to/lastmile_qr_scan", "ios": "https://dc.lft.to/lastmile_qr_scan"}, "is_reserved": 0, "is_disabled": 0, "type": "electric_scooter", "bike_id": "4fcdc9b39a2054d31d5e23b17cd2eee7"}, {"lon": -77.052987, "lat": 38.925549833333335, "name": "db6b91eaad517af825843f60862711e3", "fusion_lat": 0.0, "fusion_lon": 0.0, "rental_uris": {"android": "https://dc.lft.to/lastmile_qr_scan", "ios": "https://dc.lft.to/lastmile_qr_scan"}, "is_reserved": 0, "is_disabled": 0, "type": "electric_scooter", "bike_id": "db6b91eaad517af825843f60862711e3"}, {"lon": -77.15268033333334, "lat": 39.10565366666667, "name": "ee3a80e1ffca91174dfd003380b79f12", "fusion_lat": 0.0, "fusion_lon": 0.0, "rental_uris": {"android": "https://dc.lft.to/lastmile_qr_scan", "ios": "https://dc.lft.to/lastmile_qr_scan"}, "is_reserved": 0, "is_disabled": 0, "type": "electric_bike", "bike_id": "ee3a80e1ffca91174dfd003380b79f12"}, {"lon": -77.0345805, "lat": 38.9181475, "name": "341bcd2d3ba645a4d2d216ed0f7c7e59", "fusion_lat": 0.0, "fusion_lon": 0.0, "rental_uris": {"android": "https://dc.lft.to/lastmile_qr_scan", "ios": "https://dc.lft.to/lastmile_qr_scan"}, "is_reserved": 0, "is_disabled": 0, "type": "electric_scooter", "bike_id": "341bcd2d3ba645a4d2d216ed0f7c7e59"}, {"lon": -77.0331655, "lat": 38.90147666666667, "name": "49b031f18002cbc27647370abb3f9649", "fusion_lat": 0.0, "fusion_lon": 0.0, "rental_uris": {"android": "https://dc.lft.to/lastmile_qr_scan", "ios": "https://dc.lft.to/lastmile_qr_scan"}, "is_reserved": 0, "is_disabled": 0, "type": "electric_scooter", "bike_id": "49b031f18002cbc27647370abb3f9649"}, {"lon": -77.0318795, "lat": 38.921729166666665, "name": "fd66ca556572d3c20bb6c386e68cfb68", "fusion_lat": 0.0, "fusion_lon": 0.0, "rental_uris": {"android": "https://dc.lft.to/lastmile_qr_scan", "ios": "https://dc.lft.to/lastmile_qr_scan"}, "is_reserved": 0, "is_disabled": 0, "type": "electric_scooter", "bike_id": "fd66ca556572d3c20bb6c386e68cfb68"}, {"lon": -77.02955333333334, "lat": 38.905005333333335, "name": "b4c9003301db66dd04c0fa908db875f0", "fusion_lat": 0.0, "fusion_lon": 0.0, "rental_uris": {"android": "https://dc.lft.to/lastmile_qr_scan", "ios": "https://dc.lft.to/lastmile_qr_scan"}, "is_reserved": 0, "is_disabled": 0, "type": "electric_scooter", "bike_id": "b4c9003301db66dd04c0fa908db875f0"}, {"lon": -76.99851816666667, "lat": 38.90047933333334, "name": "0d807227033226c450ca6d2e5a4156af", "fusion_lat": 0.0, "fusion_lon": 0.0, "rental_uris": {"android": "https://dc.lft.to/lastmile_qr_scan", "ios": "https://dc.lft.to/lastmile_qr_scan"}, "is_reserved": 0, "is_disabled": 0, "type": "electric_scooter", "bike_id": "0d807227033226c450ca6d2e5a4156af"}, {"lon": -76.988521, "lat": 38.9034525, "name": "ce8b3f8ea668153a9a6317722d41fc2e", "fusion_lat": 0.0, "fusion_lon": 0.0, "rental_uris": {"android": "https://dc.lft.to/lastmile_qr_scan", "ios": "https://dc.lft.to/lastmile_qr_scan"}, "is_reserved": 0, "is_disabled": 0, "type": "electric_scooter", "bike_id": "ce8b3f8ea668153a9a6317722d41fc2e"}, {"lon": -77.02717516666667, "lat": 38.89982466666667, "name": "059ba09faf7acf5cd0406836689ffb80", "fusion_lat": 0.0, "fusion_lon": 0.0, "rental_uris": {"android": "https://dc.lft.to/lastmile_qr_scan", "ios": "https://dc.lft.to/lastmile_qr_scan"}, "is_reserved": 0, "is_disabled": 0, "type": "electric_scooter", "bike_id": "059ba09faf7acf5cd0406836689ffb80"}, {"lon": -77.0230295, "lat": 38.9090145, "name": "14328f0c0d7524cf3e475c73e03285da", "fusion_lat": 0.0, "fusion_lon": 0.0, "rental_uris": {"android": "https://dc.lft.to/lastmile_qr_scan", "ios": "https://dc.lft.to/lastmile_qr_scan"}, "is_reserved": 0, "is_disabled": 0, "type": "electric_scooter", "bike_id": "14328f0c0d7524cf3e475c73e03285da"}, {"lon": -77.04872666666667, "lat": 38.904643666666665, "name": "b9a30b3d328152b89c954201e2583372", "fusion_lat": 0.0, "fusion_lon": 0.0, "rental_uris": {"android": "https://dc.lft.to/lastmile_qr_scan", "ios": "https://dc.lft.to/lastmile_qr_scan"}, "is_reserved": 0, "is_disabled": 0, "type": "electric_scooter", "bike_id": "b9a30b3d328152b89c954201e2583372"}, {"lon": -77.03310366666666, "lat": 38.908257, "name": "05dc30e40758d7a9575f63ca6ef0c309", "fusion_lat": 0.0, "fusion_lon": 0.0, "rental_uris": {"android": "https://dc.lft.to/lastmile_qr_scan", "ios": "https://dc.lft.to/lastmile_qr_scan"}, "is_reserved": 0, "is_disabled": 0, "type": "electric_scooter", "bike_id": "05dc30e40758d7a9575f63ca6ef0c309"}, {"lon": -77.02147566666666, "lat": 38.928269, "name": "98d2c851597a1d1a032cc9f31f96fcbe", "fusion_lat": 0.0, "fusion_lon": 0.0, "rental_uris": {"android": "https://dc.lft.to/lastmile_qr_scan", "ios": "https://dc.lft.to/lastmile_qr_scan"}, "is_reserved": 0, "is_disabled": 0, "type": "electric_scooter", "bike_id": "98d2c851597a1d1a032cc9f31f96fcbe"}, {"lon": -77.0290055, "lat": 38.88423016666667, "name": "e7849e9bbe1faeb91e3583deb582f9fe", "fusion_lat": 0.0, "fusion_lon": 0.0, "rental_uris": {"android": "https://dc.lft.to/lastmile_qr_scan", "ios": "https://dc.lft.to/lastmile_qr_scan"}, "is_reserved": 0, "is_disabled": 0, "type": "electric_scooter", "bike_id": "e7849e9bbe1faeb91e3583deb582f9fe"}, {"lon": -77.01535733333333, "lat": 38.88736633333333, "name": "bb0d522e98165da9ce2e55158c5b9b93", "fusion_lat": 0.0, "fusion_lon": 0.0, "rental_uris": {"android": "https://dc.lft.to/lastmile_qr_scan", "ios": "https://dc.lft.to/lastmile_qr_scan"}, "is_reserved": 0, "is_disabled": 0, "type": "electric_scooter", "bike_id": "bb0d522e98165da9ce2e55158c5b9b93"}, {"lon": -77.07898166666666, "lat": 38.839326166666666, "name": "3c5687acdc330b3845238643995fee48", "fusion_lat": 0.0, "fusion_lon": 0.0, "rental_uris": {"android": "https://dc.lft.to/lastmile_qr_scan", "ios": "https://dc.lft.to/lastmile_qr_scan"}, "is_reserved": 0, "is_disabled": 0, "type": "electric_bike", "bike_id": "3c5687acdc330b3845238643995fee48"}, {"lon": -77.001013, "lat": 38.87370466666667, "name": "c10c32460c1411336bb2f497c75079fb", "fusion_lat": 0.0, "fusion_lon": 0.0, "rental_uris": {"android": "https://dc.lft.to/lastmile_qr_scan", "ios": "https://dc.lft.to/lastmile_qr_scan"}, "is_reserved": 0, "is_disabled": 0, "type": "electric_scooter", "bike_id": "c10c32460c1411336bb2f497c75079fb"}, {"lon": -77.02199866666666, "lat": 38.91121366666667, "name": "94802d485f65c48f3c845bfd6d56e33d", "fusion_lat": 0.0, "fusion_lon": 0.0, "rental_uris": {"android": "https://dc.lft.to/lastmile_qr_scan", "ios": "https://dc.lft.to/lastmile_qr_scan"}, "is_reserved": 0, "is_disabled": 0, "type": "electric_scooter", "bike_id": "94802d485f65c48f3c845bfd6d56e33d"}, {"lon": -77.02780966666667, "lat": 38.91813616666666, "name": "c70be2172c41c9f56d25586a1fe8a435", "fusion_lat": 0.0, "fusion_lon": 0.0, "rental_uris": {"android": "https://dc.lft.to/lastmile_qr_scan", "ios": "https://dc.lft.to/lastmile_qr_scan"}, "is_reserved": 0, "is_disabled": 0, "type": "electric_scooter", "bike_id": "c70be2172c41c9f56d25586a1fe8a435"}, {"lon": -77.0298025, "lat": 38.89570783333333, "name": "2e1ed4a6fdff32eac4c5e37a76b70757", "fusion_lat": 0.0, "fusion_lon": 0.0, "rental_uris": {"android": "https://dc.lft.to/lastmile_qr_scan", "ios": "https://dc.lft.to/lastmile_qr_scan"}, "is_reserved": 0, "is_disabled": 0, "type": "electric_scooter", "bike_id": "2e1ed4a6fdff32eac4c5e37a76b70757"}, {"lon": -77.11419616666667, "lat": 38.84286816666667, "name": "6ee6b231866072b0ef38f193612483cb", "fusion_lat": 0.0, "fusion_lon": 0.0, "rental_uris": {"android": "https://dc.lft.to/lastmile_qr_scan", "ios": "https://dc.lft.to/lastmile_qr_scan"}, "is_reserved": 0, "is_disabled": 0, "type": "electric_bike", "bike_id": "6ee6b231866072b0ef38f193612483cb"}, {"lon": -77.050871, "lat": 38.81325616666667, "name": "74bfad4dfd6e4c65e757ede8a87e6bba", "fusion_lat": 0.0, "fusion_lon": 0.0, "rental_uris": {"android": "https://dc.lft.to/lastmile_qr_scan", "ios": "https://dc.lft.to/lastmile_qr_scan"}, "is_reserved": 0, "is_disabled": 0, "type": "electric_bike", "bike_id": "74bfad4dfd6e4c65e757ede8a87e6bba"}, {"lon": -77.01128566666667, "lat": 38.913316, "name": "ccf623c8ef101fafe1da4944c0a98893", "fusion_lat": 0.0, "fusion_lon": 0.0, "rental_uris": {"android": "https://dc.lft.to/lastmile_qr_scan", "ios": "https://dc.lft.to/lastmile_qr_scan"}, "is_reserved": 0, "is_disabled": 0, "type": "electric_scooter", "bike_id": "ccf623c8ef101fafe1da4944c0a98893"}, {"lon": -76.99953366666666, "lat": 38.90867, "name": "e47532b1c8222859e131db45c7060e05", "fusion_lat": 0.0, "fusion_lon": 0.0, "rental_uris": {"android": "https://dc.lft.to/lastmile_qr_scan", "ios": "https://dc.lft.to/lastmile_qr_scan"}, "is_reserved": 0, "is_disabled": 0, "type": "electric_scooter", "bike_id": "e47532b1c8222859e131db45c7060e05"}, {"lon": -77.03709016666667, "lat": 38.91662316666667, "name": "19c19b738248be11ce9f716e2e9e1d93", "fusion_lat": 0.0, "fusion_lon": 0.0, "rental_uris": {"android": "https://dc.lft.to/lastmile_qr_scan", "ios": "https://dc.lft.to/lastmile_qr_scan"}, "is_reserved": 0, "is_disabled": 0, "type": "electric_scooter", "bike_id": "19c19b738248be11ce9f716e2e9e1d93"}, {"lon": -77.01412, "lat": 38.92802433333333, "name": "2a5191d39aa20c34a4a727444c2557de", "fusion_lat": 0.0, "fusion_lon": 0.0, "rental_uris": {"android": "https://dc.lft.to/lastmile_qr_scan", "ios": "https://dc.lft.to/lastmile_qr_scan"}, "is_reserved": 0, "is_disabled": 0, "type": "electric_scooter", "bike_id": "2a5191d39aa20c34a4a727444c2557de"}, {"lon": -77.033423, "lat": 38.917207, "name": "e8762e0e24c487174416d8966321b739", "fusion_lat": 0.0, "fusion_lon": 0.0, "rental_uris": {"android": "https://dc.lft.to/lastmile_qr_scan", "ios": "https://dc.lft.to/lastmile_qr_scan"}, "is_reserved": 0, "is_disabled": 0, "type": "electric_scooter", "bike_id": "e8762e0e24c487174416d8966321b739"}, {"lon": -77.02812516666667, "lat": 38.8817775, "name": "d58544ac9350c1688cdce1e9c85f31ef", "fusion_lat": 0.0, "fusion_lon": 0.0, "rental_uris": {"android": "https://dc.lft.to/lastmile_qr_scan", "ios": "https://dc.lft.to/lastmile_qr_scan"}, "is_reserved": 0, "is_disabled": 0, "type": "electric_scooter", "bike_id": "d58544ac9350c1688cdce1e9c85f31ef"}, {"lon": -77.02768583333334, "lat": 38.894716833333334, "name": "dc72eb5ffc9a2061412d9944a34fe79b", "fusion_lat": 0.0, "fusion_lon": 0.0, "rental_uris": {"android": "https://dc.lft.to/lastmile_qr_scan", "ios": "https://dc.lft.to/lastmile_qr_scan"}, "is_reserved": 0, "is_disabled": 0, "type": "electric_scooter", "bike_id": "dc72eb5ffc9a2061412d9944a34fe79b"}, {"lon": -77.03399783333333, "lat": 38.92279166666667, "name": "5455f712e55f9b2bcb86bc7197cc22db", "fusion_lat": 0.0, "fusion_lon": 0.0, "rental_uris": {"android": "https://dc.lft.to/lastmile_qr_scan", "ios": "https://dc.lft.to/lastmile_qr_scan"}, "is_reserved": 0, "is_disabled": 0, "type": "electric_scooter", "bike_id": "5455f712e55f9b2bcb86bc7197cc22db"}, {"lon": -77.0406955, "lat": 38.9174675, "name": "9538c36e95f3d2b745af1ee58e80351c", "fusion_lat": 0.0, "fusion_lon": 0.0, "rental_uris": {"android": "https://dc.lft.to/lastmile_qr_scan", "ios": "https://dc.lft.to/lastmile_qr_scan"}, "is_reserved": 0, "is_disabled": 0, "type": "electric_scooter", "bike_id": "9538c36e95f3d2b745af1ee58e80351c"}, {"lon": -76.987139, "lat": 38.862641833333335, "name": "981519699ed1cb1dcbdfb32bc25bafb5", "fusion_lat": 0.0, "fusion_lon": 0.0, "rental_uris": {"android": "https://dc.lft.to/lastmile_qr_scan", "ios": "https://dc.lft.to/lastmile_qr_scan"}, "is_reserved": 0, "is_disabled": 0, "type": "electric_scooter", "bike_id": "981519699ed1cb1dcbdfb32bc25bafb5"}, {"lon": -77.046108, "lat": 38.922375, "name": "2cf68358d3d6b6e91fc122d5359f8d56", "fusion_lat": 0.0, "fusion_lon": 0.0, "rental_uris": {"android": "https://dc.lft.to/lastmile_qr_scan", "ios": "https://dc.lft.to/lastmile_qr_scan"}, "is_reserved": 0, "is_disabled": 0, "type": "electric_scooter", "bike_id": "2cf68358d3d6b6e91fc122d5359f8d56"}, {"lon": -77.03175366666666, "lat": 38.914176166666664, "name": "247cf9d54cd3650c5719bd439c6fa9ae", "fusion_lat": 0.0, "fusion_lon": 0.0, "rental_uris": {"android": "https://dc.lft.to/lastmile_qr_scan", "ios": "https://dc.lft.to/lastmile_qr_scan"}, "is_reserved": 0, "is_disabled": 0, "type": "electric_scooter", "bike_id": "247cf9d54cd3650c5719bd439c6fa9ae"}, {"lon": -77.03842916666666, "lat": 38.91016183333333, "name": "5decce4198cfbf00e97794a17c4ef933", "fusion_lat": 0.0, "fusion_lon": 0.0, "rental_uris": {"android": "https://dc.lft.to/lastmile_qr_scan", "ios": "https://dc.lft.to/lastmile_qr_scan"}, "is_reserved": 0, "is_disabled": 0, "type": "electric_scooter", "bike_id": "5decce4198cfbf00e97794a17c4ef933"}, {"lon": -77.01762133333334, "lat": 38.90255116666667, "name": "ec1b3a7766c0919a93cc4e346dd9d985", "fusion_lat": 0.0, "fusion_lon": 0.0, "rental_uris": {"android": "https://dc.lft.to/lastmile_qr_scan", "ios": "https://dc.lft.to/lastmile_qr_scan"}, "is_reserved": 0, "is_disabled": 0, "type": "electric_scooter", "bike_id": "ec1b3a7766c0919a93cc4e346dd9d985"}, {"lon": -76.94720183333334, "lat": 38.89734933333333, "name": "2e11850ac3ea852198392a6be9a19139", "fusion_lat": 0.0, "fusion_lon": 0.0, "rental_uris": {"android": "https://dc.lft.to/lastmile_qr_scan", "ios": "https://dc.lft.to/lastmile_qr_scan"}, "is_reserved": 0, "is_disabled": 0, "type": "electric_scooter", "bike_id": "2e11850ac3ea852198392a6be9a19139"},