{"data": {"bikes": [{"rental_uris": {"ios": "https://dc.lft.to/lastmile_qr_scan", "android": "https://dc.lft.to/lastmile_qr_scan"}, "lon": -77.05150766666667, "type": "electric_scooter", "fusion_lat": 0.0, "lat": 38.90121633333333, "name": "e79fe4330e251ddc41efe44099724da3", "fusion_lon": 0.0, "bike_id": "e79fe4330e251ddc41efe44099724da3", "is_disabled": 0, "is_reserved": 0}, {"rental_uris": {"ios": "https://dc.lft.to/lastmile_qr_scan", "android": "https://dc.lft.to/lastmile_qr_scan"}, "lon": -76.9997525, "type": "electric_scooter", "fusion_lat": 0.0, "lat": 38.838351, "name": "ae51fef721fdbd1e4bf6d74f6a4996d4", "fusion_lon": 0.0, "bike_id": "ae51fef721fdbd1e4bf6d74f6a4996d4", "is_disabled": 0, "is_reserved": 0}, {"rental_uris": {"ios": "https://dc.lft.to/lastmile_qr_scan", "android": "https://dc.lft.to/lastmile_qr_scan"}, "lon": -77.06986716666667, "type": "electric_scooter", "fusion_lat": 0.0, "lat": 38.95481816666667, "name": "25f2ad1844021cfe4f087d4c232de498", "fusion_lon": 0.0, "bike_id": "25f2ad1844021cfe4f087d4c232de498", "is_disabled": 0, "is_reserved": 0}, {"rental_uris": {"ios": "https://dc.lft.to/lastmile_qr_scan", "android": "https://dc.lft.to/lastmile_qr_scan"}, "lon": -77.001953, "type": "electric_scooter", "fusion_lat": 0.0, "lat": 38.90028016666667, "name": "94aa941a609109b2879107dd3a1fc916", "fusion_lon": 0.0, "bike_id": "94aa941a609109b2879107dd3a1fc916", "is_disabled": 0, "is_reserved": 0}, {"rental_uris": {"ios": "https://dc.lft.to/lastmile_qr_scan", "android": "https://dc.lft.to/lastmile_qr_scan"}, "lon": -77.03960083333334, "type": "electric_scooter", "fusion_lat": 0.0, "lat": 38.895302, "name": "f928207d1a6c8fc596769216434dd04c", "fusion_lon": 0.0, "bike_id": "f928207d1a6c8fc596769216434dd04c", "is_disabled": 0, "is_reserved": 0}, {"rental_uris": {"ios": "https://dc.lft.to/lastmile_qr_scan", "android": "https://dc.lft.to/lastmile_qr_scan"}, "lon": -76.99499816666666, "type": "electric_bike", "fusion_lat": 0.0, "lat": 38.99994983333333, "name": "2689b3ae8578a375c060cfc56d2b462f", "fusion_lon": 0.0, "bike_id": "2689b3ae8578a375c060cfc56d2b462f", "is_disabled": 0, "is_reserved": 0}, {"rental_uris": {"ios": "https://dc.lft.to/lastmile_qr_scan", "android": "https://dc.lft.to/lastmile_qr_scan"}, "lon": -77.052838, "type": "electric_scooter", "fusion_lat": 0.0, "lat": 38.92787216666667, "name": "78ddbad0a83edbace7d997d01b619f97", "fusion_lon": 0.0, "bike_id": "78ddbad0a83edbace7d997d01b619f97", "is_disabled": 0, "is_reserved": 0}, {"rental_uris": {"ios": "https://dc.lft.to/lastmile_qr_scan", "android": "https://dc.lft.to/lastmile_qr_scan"}, "lon": -77.05971633333333, "type": "electric_scooter", "fusion_lat": 0.0, "lat": 38.905312, "name": "8e46ebc18bc84bfbfdc4f306cefcf456", "fusion_lon": 0.0, "bike_id": "8e46ebc18bc84bfbfdc4f306cefcf456", "is_disabled": 0, "is_reserved": 0}, {"rental_uris": {"ios": "https://dc.lft.to/lastmile_qr_scan", "android": "https://dc.lft.to/lastmile_qr_scan"}, "lon": -77.031845, "type": "electric_scooter", "fusion_lat": 0.0, "lat": 38.88733516666667, "name": "1ca8f5cebb128cf32112520dbc22cf31", "fusion_lon": 0.0, "bike_id": "1ca8f5cebb128cf32112520dbc22cf31", "is_disabled": 0, "is_reserved": 0}, {"rental_uris": {"ios": "https://dc.lft.to/lastmile_qr_scan", "android": "https://dc.lft.to/lastmile_qr_scan"}, "lon": -77.06753833333333, "type": "electric_bike", "fusion_lat": 0.0, "lat": 38.91537183333333, "name": "d680ed22c374222a5443f542c620a7d2", "fusion_lon": 0.0, "bike_id": "d680ed22c374222a5443f542c620a7d2", "is_disabled": 0, "is_reserved": 0}, {"rental_uris": {"ios": "https://dc.lft.to/lastmile_qr_scan", "android": "https://dc.lft.to/lastmile_qr_scan"}, "lon": -77.03224566666667, "type": "electric_scooter", "fusion_lat": 0.0, "lat": 38.92667633333333, "name": "1f4b980cc091a66a03dde028ba1a2d56", "fusion_lon": 0.0, "bike_id": "1f4b980cc091a66a03dde028ba1a2d56", "is_disabled": 0, "is_reserved": 0}, {"rental_uris": {"ios": "https://dc.lft.to/lastmile_qr_scan", "android": "https://dc.lft.to/lastmile_qr_scan"}, "lon": -76.98951433333333, "type": "electric_scooter", "fusion_lat": 0.0, "lat": 38.900369, "name": "8e8771804548c56333009a83bac67d58", "fusion_lon": 0.0, "bike_id": "8e8771804548c56333009a83bac67d58", "is_disabled": 0, "is_reserved": 0}, {"rental_uris": {"ios": "https://dc.lft.to/lastmile_qr_scan", "android": "https://dc.lft.to/lastmile_qr_scan"}, "lon": -77.12897066666666, "type": "electric_bike", "fusion_lat": 0.0, "lat": 38.863728333333334, "name": "63c0fe133f9f85888c11882768fc7cf2", "fusion_lon": 0.0, "bike_id": "63c0fe133f9f85888c11882768fc7cf2", "is_disabled": 0, "is_reserved": 0}, {"rental_uris": {"ios": "https://dc.lft.to/lastmile_qr_scan", "android": "https://dc.lft.to/lastmile_qr_scan"}, "lon": -77.05953783333334, "type": "electric_scooter", "fusion_lat": 0.0, "lat": 38.91190816666666, "name": "e5dbc9edc3eb97df3d0205423b0f851b", "fusion_lon": 0.0, "bike_id": "e5dbc9edc3eb97df3d0205423b0f851b", "is_disabled": 0, "is_reserved": 0}, {"rental_uris": {"ios": "https://dc.lft.to/lastmile_qr_scan", "android": "https://dc.lft.to/lastmile_qr_scan"}, "lon": -77.04785016666666, "type": "electric_scooter", "fusion_lat": 0.0, "lat": 38.897658166666666, "name": "7dec11da77d48b0021f969b2326af333", "fusion_lon": 0.0, "bike_id": "7dec11da77d48b0021f969b2326af333", "is_disabled": 0, "is_reserved": 0}, {"rental_uris": {"ios": "https://dc.lft.to/lastmile_qr_scan", "android": "https://dc.lft.to/lastmile_qr_scan"}, "lon": -77.06602166666667, "type": "electric_scooter", "fusion_lat": 0.0, "lat": 38.905382833333334, "name": "eb11d1e66ff3ae05b08d47385f685916", "fusion_lon": 0.0, "bike_id": "eb11d1e66ff3ae05b08d47385f685916", "is_disabled": 0, "is_reserved": 0}, {"rental_uris": {"ios": "https://dc.lft.to/lastmile_qr_scan", "android": "https://dc.lft.to/lastmile_qr_scan"}, "lon": -77.08825183333333, "type": "electric_bike", "fusion_lat": 0.0, "lat": 38.9097085, "name": "1960cc1fdaea378259bd259f9fd08728", "fusion_lon": 0.0, "bike_id": "1960cc1fdaea378259bd259f9fd08728", "is_disabled": 0, "is_reserved": 0}, {"rental_uris": {"ios": "https://dc.lft.to/lastmile_qr_scan", "android": "https://dc.lft.to/lastmile_qr_scan"}, "lon": -77.02694633333333, "type": "electric_scooter", "fusion_lat": 0.0, "lat": 38.918327, "name": "7746b63fa681554366f32d25d1867626", "fusion_lon": 0.0, "bike_id": "7746b63fa681554366f32d25d1867626", "is_disabled": 0, "is_reserved": 0}, {"rental_uris": {"ios": "https://dc.lft.to/lastmile_qr_scan", "android": "https://dc.lft.to/lastmile_qr_scan"}, "lon": -77.0402555, "type": "electric_scooter", "fusion_lat": 0.0, "lat": 38.923543, "name": "b677d445577064e37b4b29832806b959", "fusion_lon": 0.0, "bike_id": "b677d445577064e37b4b29832806b959", "is_disabled": 0, "is_reserved": 0}, {"rental_uris": {"ios": "https://dc.lft.to/lastmile_qr_scan", "android": "https://dc.lft.to/lastmile_qr_scan"}, "lon": -77.0187085, "type": "electric_scooter", "fusion_lat": 0.0, "lat": 38.94894266666667, "name": "a6e265fce365f8255f45e7f6aa97100d", "fusion_lon": 0.0, "bike_id": "a6e265fce365f8255f45e7f6aa97100d", "is_disabled": 0, "is_reserved": 0}, {"rental_uris": {"ios": "https://dc.lft.to/lastmile_qr_scan", "android": "https://dc.lft.to/lastmile_qr_scan"}, "lon": -77.03773416666667, "type": "electric_scooter", "fusion_lat": 0.0, "lat": 38.916835, "name": "f4fbffd8bb3e2d1983d455c99bc333c1", "fusion_lon": 0.0, "bike_id": "f4fbffd8bb3e2d1983d455c99bc333c1", "is_disabled": 0, "is_reserved": 0}, {"rental_uris": {"ios": "https://dc.lft.to/lastmile_qr_scan", "android": "https://dc.lft.to/lastmile_qr_scan"}, "lon": -76.96520633333333, "type": "electric_scooter", "fusion_lat": 0.0, "lat": 38.8762445, "name": "2212c05238b40bd7dc252dced6699d69", "fusion_lon": 0.0, "bike_id": "2212c05238b40bd7dc252dced6699d69", "is_disabled": 0, "is_reserved": 0}, {"rental_uris": {"ios": "https://dc.lft.to/lastmile_qr_scan", "android": "https://dc.lft.to/lastmile_qr_scan"}, "lon": -77.12961633333333, "type": "electric_bike", "fusion_lat": 0.0, "lat": 38.85214716666667, "name": "d34feda8aebb01e3801a63971bf17c9f", "fusion_lon": 0.0, "bike_id": "d34feda8aebb01e3801a63971bf17c9f", "is_disabled": 0, "is_reserved": 0}, {"rental_uris": {"ios": "https://dc.lft.to/lastmile_qr_scan", "android": "https://dc.lft.to/lastmile_qr_scan"}, "lon": -76.983737, "type": "electric_scooter", "fusion_lat": 0.0, "lat": 38.8955125, "name": "1921887d9c03c890d8049a2cf4888c25", "fusion_lon": 0.0, "bike_id": "1921887d9c03c890d8049a2cf4888c25", "is_disabled": 0, "is_reserved": 0}, {"rental_uris": {"ios": "https://dc.lft.to/lastmile_qr_scan", "android": "https://dc.lft.to/lastmile_qr_scan"}, "lon": -77.05473783333333, "type": "electric_scooter", "fusion_lat": 0.0, "lat": 38.893886333333334, "name": "9f0b93ee575f6bd19e57324dddda10e8", "fusion_lon": 0.0, "bike_id": "9f0b93ee575f6bd19e57324dddda10e8", "is_disabled": 0, "is_reserved": 0}, {"rental_uris": {"ios": "https://dc.lft.to/lastmile_qr_scan", "android": "https://dc.lft.to/lastmile_qr_scan"}, "lon": -76.93225233333334, "type": "electric_bike", "fusion_lat": 0.0, "lat": 38.86590266666666, "name": "1ec6805a6520f952e0bdb330e7b4f95f", "fusion_lon": 0.0, "bike_id": "1ec6805a6520f952e0bdb330e7b4f95f", "is_disabled": 0, "is_reserved": 0}, {"rental_uris": {"ios": "https://dc.lft.to/lastmile_qr_scan", "android": "https://dc.lft.to/lastmile_qr_scan"}, "lon": -77.01780133333334, "type": "electric_scooter", "fusion_lat": 0.0, "lat": 38.877289166666664, "name": "6d6f44d91f5bb91d829a392ea650d88b", "fusion_lon": 0.0, "bike_id": "6d6f44d91f5bb91d829a392ea650d88b", "is_disabled": 0, "is_reserved": 0}, {"rental_uris": {"ios": "https://dc.lft.to/lastmile_qr_scan", "android": "https://dc.lft.to/lastmile_qr_scan"}, "lon": -77.02211566666666, "type": "electric_scooter", "fusion_lat": 0.0, "lat": 38.8960615, "name": "8a7f38f36fce960ff827cf027b7e46a4", "fusion_lon": 0.0, "bike_id": "8a7f38f36fce960ff827cf027b7e46a4", "is_disabled": 0, "is_reserved": 0}, {"rental_uris": {"ios": "https://dc.lft.to/lastmile_qr_scan", "android": "https://dc.lft.to/lastmile_qr_scan"}, "lon": -76.997024, "type": "electric_scooter", "fusion_lat": 0.0, "lat": 38.900971, "name": "03df452d3b514d82798e29b26e375987", "fusion_lon": 0.0, "bike_id": "03df452d3b514d82798e29b26e375987", "is_disabled": 0, "is_reserved": 0}, {"rental_uris": {"ios": "https://dc.lft.to/lastmile_qr_scan", "android": "https://dc.lft.to/lastmile_qr_scan"}, "lon": -77.02165883333333, "type": "electric_bike", "fusion_lat": 0.0, "lat": 38.95741666666667, "name": "df6b3a7cec1e165580022b7d1d45157c", "fusion_lon": 0.0, "bike_id": "df6b3a7cec1e165580022b7d1d45157c", "is_disabled": 0, "is_reserved": 0}, {"rental_uris": {"ios": "https://dc.lft.to/lastmile_qr_scan", "android": "https://dc.lft.to/lastmile_qr_scan"}, "lon": -76.94759816666667, "type": "electric_scooter", "fusion_lat": 0.0, "lat": 38.900555833333335, "name": "10abd4a42a622e146392acfd6e7aac9b", "fusion_lon": 0.0, "bike_id": "10abd4a42a622e146392acfd6e7aac9b", "is_disabled": 0, "is_reserved": 0}, {"rental_uris": {"ios": "https://dc.lft.to/lastmile_qr_scan", "android": "https://dc.lft.to/lastmile_qr_scan"}, "lon": -76.959898, "type": "electric_scooter", "fusion_lat": 0.0, "lat": 38.880372333333334, "name": "6664cfeb34c39537100283ad765fa6ab", "fusion_lon": 0.0, "bike_id": "6664cfeb34c39537100283ad765fa6ab", "is_disabled": 0, "is_reserved": 0}, {"rental_uris": {"ios": "https://dc.lft.to/lastmile_qr_scan", "android": "https://dc.lft.to/lastmile_qr_scan"}, "lon": -77.02119183333333, "type": "electric_scooter", "fusion_lat": 0.0, "lat": 38.895049, "name": "fa278f9a4ec90bc612b4e52e99c3c54f", "fusion_lon": 0.0, "bike_id": "fa278f9a4ec90bc612b4e52e99c3c54f", "is_disabled": 0, "is_reserved": 0}, {"rental_uris": {"ios": "https://dc.lft.to/lastmile_qr_scan", "android": "https://dc.lft.to/lastmile_qr_scan"}, "lon": -76.97287216666666, "type": "electric_scooter", "fusion_lat": 0.0, "lat": 38.90338216666667, "name": "5128af231e6e1ff37fd0bb3071685802", "fusion_lon": 0.0, "bike_id": "5128af231e6e1ff37fd0bb3071685802", "is_disabled": 0, "is_reserved": 0}, {"rental_uris": {"ios": "https://dc.lft.to/lastmile_qr_scan", "android": "https://dc.lft.to/lastmile_qr_scan"}, "lon": -77.04739183333334, "type": "electric_scooter", "fusion_lat": 0.0, "lat": 38.905163333333334, "name": "5356927b50467d610431d56d03171d2c", "fusion_lon": 0.0, "bike_id": "5356927b50467d610431d56d03171d2c", "is_disabled": 0, "is_reserved": 0}, {"rental_uris": {"ios": "https://dc.lft.to/lastmile_qr_scan", "android": "https://dc.lft.to/lastmile_qr_scan"}, "lon": -76.958992, "type": "electric_bike", "fusion_lat": 0.0, "lat": 38.985060833333335, "name": "d3b46178cd07a680f6266d8016674b47", "fusion_lon": 0.0, "bike_id": "d3b46178cd07a680f6266d8016674b47", "is_disabled": 0, "is_reserved": 0}, {"rental_uris": {"ios": "https://dc.lft.to/lastmile_qr_scan", "android": "https://dc.lft.to/lastmile_qr_scan"}, "lon": -77.001972, "type": "electric_scooter", "fusion_lat": 0.0, "lat": 38.900362, "name": "b20b94705e41896b61eb4a1c1480b77f", "fusion_lon": 0.0, "bike_id": "b20b94705e41896b61eb4a1c1480b77f", "is_disabled": 0, "is_reserved": 0}, {"rental_uris": {"ios": "https://dc.lft.to/lastmile_qr_scan", "android": "https://dc.lft.to/lastmile_qr_scan"}, "lon": -76.928939, "type": "electric_scooter", "fusion_lat": 0.0, "lat": 38.893317833333334, "name": "dd05887ac7afbf3c0b6c097ca5d77392", "fusion_lon": 0.0, "bike_id": "dd05887ac7afbf3c0b6c097ca5d77392", "is_disabled": 0, "is_reserved": 0}, {"rental_uris": {"ios": "https://dc.lft.to/lastmile_qr_scan", "android": "https://dc.lft.to/lastmile_qr_scan"}, "lon": -77.04685516666666, "type": "electric_scooter", "fusion_lat": 0.0, "lat": 38.892211, "name": "83ab814effac8146a2d00da80d64e702", "fusion_lon": 0.0, "bike_id": "83ab814effac8146a2d00da80d64e702", "is_disabled": 0, "is_reserved": 0}, {"rental_uris": {"ios": "https://dc.lft.to/lastmile_qr_scan", "android": "https://dc.lft.to/lastmile_qr_scan"}, "lon": -77.027808, "type": "electric_scooter", "fusion_lat": 0.0, "lat": 38.8922, "name": "e9b031c9a5fce7f0896d7caf52605a44", "fusion_lon": 0.0, "bike_id": "e9b031c9a5fce7f0896d7caf52605a44", "is_disabled": 0, "is_reserved": 0}, {"rental_uris": {"ios": "https://dc.lft.to/lastmile_qr_scan", "android": "https://dc.lft.to/lastmile_qr_scan"}, "lon": -77.0105305, "type": "electric_scooter", "fusion_lat": 0.0, "lat": 38.87933116666667, "name": "489db260b138c171e87a033046cde4db", "fusion_lon": 0.0, "bike_id": "489db260b138c171e87a033046cde4db", "is_disabled": 0, "is_reserved": 0}, {"rental_uris": {"ios": "https://dc.lft.to/lastmile_qr_scan", "android": "https://dc.lft.to/lastmile_qr_scan"}, "lon": -77.026977, "type": "electric_scooter", "fusion_lat": 0.0, "lat": 38.94977683333333, "name": "45eadd9e685352ec5206967ee1529b8c", "fusion_lon": 0.0, "bike_id": "45eadd9e685352ec5206967ee1529b8c", "is_disabled": 0, "is_reserved": 0}, {"rental_uris": {"ios": "https://dc.lft.to/lastmile_qr_scan", "android": "https://dc.lft.to/lastmile_qr_scan"}, "lon": -77.02209233333333, "type": "electric_scooter", "fusion_lat": 0.0, "lat": 38.89603, "name": "92fad7b1cabf60b2e6c6970ad28418e2", "fusion_lon": 0.0, "bike_id": "92fad7b1cabf60b2e6c6970ad28418e2", "is_disabled": 0, "is_reserved": 0}, {"rental_uris": {"ios": "https://dc.lft.to/lastmile_qr_scan", "android": "https://dc.lft.to/lastmile_qr_scan"}, "lon": -77.04597616666666, "type": "electric_scooter", "fusion_lat": 0.0, "lat": 38.903679, "name": "e22bb1b42ed99490bca254766ff5bd9c", "fusion_lon": 0.0, "bike_id": "e22bb1b42ed99490bca254766ff5bd9c", "is_disabled": 0, "is_reserved": 0}, {"rental_uris": {"ios": "https://dc.lft.to/lastmile_qr_scan", "android": "https://dc.lft.to/lastmile_qr_scan"}, "lon": -77.0018505, "type": "electric_scooter", "fusion_lat": 0.0, "lat": 38.87384333333333, "name": "04207756e278439fd6f98f1d8a09321e", "fusion_lon": 0.0, "bike_id": "04207756e278439fd6f98f1d8a09321e", "is_disabled": 0, "is_reserved": 0}, {"rental_uris": {"ios": "https://dc.lft.to/lastmile_qr_scan", "android": "https://dc.lft.to/lastmile_qr_scan"}, "lon": -77.02224033333333, "type": "electric_scooter", "fusion_lat": 0.0, "lat": 38.89217, "name": "d7b2f909b2e0cb6ee393945947218d92", "fusion_lon": 0.0, "bike_id": "d7b2f909b2e0cb6ee393945947218d92", "is_disabled": 0, "is_reserved": 0}, {"rental_uris": {"ios": "https://dc.lft.to/lastmile_qr_scan", "android": "https://dc.lft.to/lastmile_qr_scan"}, "lon": -77.03201683333333, "type": "electric_scooter", "fusion_lat": 0.0, "lat": 38.91275133333333, "name": "46ced27cd30b9150827d4f6e07e25c6c", "fusion_lon": 0.0, "bike_id": "46ced27cd30b9150827d4f6e07e25c6c", "is_disabled": 0, "is_reserved": 0}, {"rental_uris": {"ios": "https://dc.lft.to/lastmile_qr_scan", "android": "https://dc.lft.to/lastmile_qr_scan"}, "lon": -76.96628733333333, "type": "electric_bike", "fusion_lat": 0.0, "lat": 38.94196783333334, "name": "b154751438a39e68da796044737cee7d", "fusion_lon": 0.0, "bike_id": "b154751438a39e68da796044737cee7d", "is_disabled": 0, "is_reserved": 0}, {"rental_uris": {"ios": "https://dc.lft.to/lastmile_qr_scan", "android": "https://dc.lft.to/lastmile_qr_scan"}, "lon": -77.012024, "type": "electric_bike", "fusion_lat": 0.0, "lat": 38.87081033333333, "name": "dc8b8bf142307b64b7bd11f7977b9231", "fusion_lon": 0.0, "bike_id": "dc8b8bf142307b64b7bd11f7977b9231", "is_disabled": 0, "is_reserved": 0}, {"rental_uris": {"ios": "https://dc.lft.to/lastmile_qr_scan", "android": "https://dc.lft.to/lastmile_qr_scan"}, "lon": -77.03209883333334, "type": "electric_scooter", "fusion_lat": 0.0, "lat": 38.899528, "name": "c16ce6c185c823f7a6f3e756f8aa8396", "fusion_lon": 0.0, "bike_id": "c16ce6c185c823f7a6f3e756f8aa8396", "is_disabled": 0, "is_reserved": 0}, {"rental_uris": {"ios": "https://dc.lft.to/lastmile_qr_scan", "android": "https://dc.lft.to/lastmile_qr_scan"}, "lon": -77.019852, "type": "electric_scooter", "fusion_lat": 0.0, "lat": 38.915168, "name": "3d00a9d7f5a47f2fc29000ba417fe56f", "fusion_lon": 0.0, "bike_id": "3d00a9d7f5a47f2fc29000ba417fe56f", "is_disabled": 0, "is_reserved": 0}, {"rental_uris": {"ios": "https://dc.lft.to/lastmile_qr_scan", "android": "https://dc.lft.to/lastmile_qr_scan"}, "lon": -76.98506466666667, "type": "electric_scooter", "fusion_lat": 0.0, "lat": 38.90086933333333, "name": "49857be90263f0f2803be9bf9c42054a", "fusion_lon": 0.0, "bike_id": "49857be90263f0f2803be9bf9c42054a", "is_disabled": 0, "is_reserved": 0}, {"rental_uris": {"ios": "https://dc.lft.to/lastmile_qr_scan", "android": "https://dc.lft.to/lastmile_qr_scan"}, "lon": -77.0420395, "type": "electric_scooter", "fusion_lat": 0.0, "lat": 38.911017333333334, "name": "4fd22bde4088b046e5400c22da167404", "fusion_lon": 0.0, "bike_id": "4fd22bde4088b046e5400c22da167404", "is_disabled": 0, "is_reserved": 0}, {"rental_uris": {"ios": "https://dc.lft.to/lastmile_qr_scan", "android": "https://dc.lft.to/lastmile_qr_scan"}, "lon": -77.046964, "type": "electric_scooter", "fusion_lat": 0.0, "lat": 38.897366833333336, "name": "55252550339cd27ae5873f97ca58b791", "fusion_lon": 0.0, "bike_id": "55252550339cd27ae5873f97ca58b791", "is_disabled": 0, "is_reserved": 0}, {"rental_uris": {"ios": "https://dc.lft.to/lastmile_qr_scan", "android": "https://dc.lft.to/lastmile_qr_scan"}, "lon": -77.043712, "type": "electric_scooter", "fusion_lat": 0.0, "lat": 38.9206305, "name": "c03285883d5e6d764045858a21cf0edb", "fusion_lon": 0.0, "bike_id": "c03285883d5e6d764045858a21cf0edb", "is_disabled": 0, "is_reserved": 0}, {"rental_uris": {"ios": "https://dc.lft.to/lastmile_qr_scan", "android": "https://dc.lft.to/lastmile_qr_scan"}, "lon": -77.022996, "type": "electric_scooter", "fusion_lat": 0.0, "lat": 38.91690583333333, "name": "e239627bdec60e824652b2ad2105d9dd", "fusion_lon": 0.0, "bike_id": "e239627bdec60e824652b2ad2105d9dd", "is_disabled": 0, "is_reserved": 0}, {"rental_uris": {"ios": "https://dc.lft.to/lastmile_qr_scan", "android": "https://dc.lft.to/lastmile_qr_scan"}, "lon": -77.0916275, "type": "electric_bike", "fusion_lat": 0.0, "lat": 38.967577166666665, "name": "dc5329b99aaf2c4b4ebe183253a2eeb9", "fusion_lon": 0.0, "bike_id": "dc5329b99aaf2c4b4ebe183253a2eeb9", "is_disabled": 0, "is_reserved": 0}, {"rental_uris": {"ios": "https://dc.lft.to/lastmile_qr_scan", "android": "https://dc.lft.to/lastmile_qr_scan"}, "lon": -77.02709983333334, "type": "electric_scooter", "fusion_lat": 0.0, "lat": 38.90665833333333, "name": "51bff84bb3638145d64a11f4bc98b70e", "fusion_lon": 0.0, "bike_id": "51bff84bb3638145d64a11f4bc98b70e", "is_disabled": 0, "is_reserved": 0}, {"rental_uris": {"ios": "https://dc.lft.to/lastmile_qr_scan", "android": "https://dc.lft.to/lastmile_qr_scan"}, "lon": -77.05406233333333, "type": "electric_scooter", "fusion_lat": 0.0, "lat": 38.903996666666664, "name": "89167d93d4781422f01cf99ba1eb0db0", "fusion_lon": 0.0, "bike_id": "89167d93d4781422f01cf99ba1eb0db0", "is_disabled": 0, "is_reserved": 0}, {"rental_uris": {"ios": "https://dc.lft.to/lastmile_qr_scan", "android": "https://dc.lft.to/lastmile_qr_scan"}, "lon": -77.02213766666667, "type": "electric_scooter", "fusion_lat": 0.0, "lat": 38.905648166666666, "name": "db92ec05512fa3d05fe8803ffb518676", "fusion_lon": 0.0, "bike_id": "db92ec05512fa3d05fe8803ffb518676", "is_disabled": 0, "is_reserved": 0}, {"rental_uris": {"ios": "https://dc.lft.to/lastmile_qr_scan", "android": "https://dc.lft.to/lastmile_qr_scan"}, "lon": -77.02948416666666, "type": "electric_scooter", "fusion_lat": 0.0, "lat": 38.905070333333335, "name": "d0f5bf8541a0d28fe8fca4ba210ae922", "fusion_lon": 0.0, "bike_id": "d0f5bf8541a0d28fe8fca4ba210ae922", "is_disabled": 0, "is_reserved": 0}, {"rental_uris": {"ios": "https://dc.lft.to/lastmile_qr_scan", "android": "https://dc.lft.to/lastmile_qr_scan"}, "lon": -77.13092116666667, "type": "electric_bike", "fusion_lat": 0.0, "lat": 38.861597, "name": "b4f66683a505b3692a444e4508cfacb0", "fusion_lon": 0.0, "bike_id": "b4f66683a505b3692a444e4508cfacb0", "is_disabled": 0, "is_reserved": 0}, {"rental_uris": {"ios": "https://dc.lft.to/lastmile_qr_scan", "android": "https://dc.lft.to/lastmile_qr_scan"}, "lon": -77.02330583333334, "type": "electric_scooter", "fusion_lat": 0.0, "lat": 38.8834365, "name": "2f0a6558eb545300783c60fb50d98029", "fusion_lon": 0.0, "bike_id": "2f0a6558eb545300783c60fb50d98029", "is_disabled": 0, "is_reserved": 0}, {"rental_uris": {"ios": "https://dc.lft.to/lastmile_qr_scan", "android": "https://dc.lft.to/lastmile_qr_scan"}, "lon": -77.01986783333334, "type": "electric_bike", "fusion_lat": 0.0, "lat": 38.956635, "name": "639d11d7521e91d4d21d219f1a776b88", "fusion_lon": 0.0, "bike_id": "639d11d7521e91d4d21d219f1a776b88", "is_disabled": 0, "is_reserved": 0}, {"rental_uris": {"ios": "https://dc.lft.to/lastmile_qr_scan", "android": "https://dc.lft.to/lastmile_qr_scan"}, "lon": -76.97216066666667, "type": "electric_scooter", "fusion_lat": 0.0, "lat": 38.854899, "name": "38e2bd8060e73796d7f1232292dde15c", "fusion_lon": 0.0, "bike_id": "38e2bd8060e73796d7f1232292dde15c", "is_disabled": 0, "is_reserved": 0}, {"rental_uris": {"ios": "https://dc.lft.to/lastmile_qr_scan", "android": "https://dc.lft.to/lastmile_qr_scan"}, "lon": -77.0397065, "type": "electric_scooter", "fusion_lat": 0.0, "lat": 38.900129666666665, "name": "7b8606966c857894ff1aec2ed20660f6", "fusion_lon": 0.0, "bike_id": "7b8606966c857894ff1aec2ed20660f6", "is_disabled": 0, "is_reserved": 0}, {"rental_uris": {"ios": "https://dc.lft.to/lastmile_qr_scan", "android": "https://dc.lft.to/lastmile_qr_scan"}, "lon": -77.02209166666667, "type": "electric_scooter", "fusion_lat": 0.0, "lat": 38.89601566666666, "name": "5a9a7559a410f4e92e30d708961eeb4f", "fusion_lon": 0.0, "bike_id": "5a9a7559a410f4e92e30d708961eeb4f", "is_disabled": 0, "is_reserved": 0}, {"rental_uris": {"ios": "https://dc.lft.to/lastmile_qr_scan", "android": "https://dc.lft.to/lastmile_qr_scan"}, "lon": -77.046877, "type": "electric_scooter", "fusion_lat": 0.0, "lat": 38.903682833333335, "name": "bb522179d5c75adbe7d68f2504e3ca56", "fusion_lon": 0.0, "bike_id": "bb522179d5c75adbe7d68f2504e3ca56", "is_disabled": 0, "is_reserved": 0}, {"rental_uris": {"ios": "https://dc.lft.to/lastmile_qr_scan", "android": "https://dc.lft.to/lastmile_qr_scan"}, "lon": -77.04494883333334, "type": "electric_scooter", "fusion_lat": 0.0, "lat": 38.911853, "name": "221e15d66dd470e3ec8d5a2d10fb11b3", "fusion_lon": 0.0, "bike_id": "221e15d66dd470e3ec8d5a2d10fb11b3", "is_disabled": 0, "is_reserved": 0}, {"rental_uris": {"ios": "https://dc.lft.to/lastmile_qr_scan", "android": "https://dc.lft.to/lastmile_qr_scan"}, "lon": -77.043412, "type": "electric_scooter", "fusion_lat": 0.0, "lat": 38.90812533333333, "name": "b8d8d997bfa2b202838409d37e90ac7a", "fusion_lon": 0.0, "bike_id": "b8d8d997bfa2b202838409d37e90ac7a", "is_disabled": 0, "is_reserved": 0}, {"rental_uris": {"ios": "https://dc.lft.to/lastmile_qr_scan", "android": "https://dc.lft.to/lastmile_qr_scan"}, "lon": -77.03938966666666, "type": "electric_scooter", "fusion_lat": 0.0, "lat": 38.89903233333333, "name": "1af4790ddfdb3c5c51013637c6198853", "fusion_lon": 0.0, "bike_id": "1af4790ddfdb3c5c51013637c6198853", "is_disabled": 0, "is_reserved": 0}, {"rental_uris": {"ios": "https://dc.lft.to/lastmile_qr_scan", "android": "https://dc.lft.to/lastmile_qr_scan"}, "lon": -76.94627816666667, "type": "electric_bike", "fusion_lat": 0.0, "lat": 38.94623816666667, "name": "1162e82eb5477076ad9a47336321ef8e", "fusion_lon": 0.0, "bike_id": "1162e82eb5477076ad9a47336321ef8e", "is_disabled": 0, "is_reserved": 0}, {"rental_uris": {"ios": "https://dc.lft.to/lastmile_qr_scan", "android": "https://dc.lft.to/lastmile_qr_scan"}, "lon": -77.02635783333334, "type": "electric_scooter", "fusion_lat": 0.0, "lat": 38.89605616666667, "name": "1ab2a46e9a2a0570c3b0119941d545d1", "fusion_lon": 0.0, "bike_id": "1ab2a46e9a2a0570c3b0119941d545d1", "is_disabled": 0, "is_reserved": 0}, {"rental_uris": {"ios": "https://dc.lft.to/lastmile_qr_scan", "android": "https://dc.lft.to/lastmile_qr_scan"}, "lon": -77.0324295, "type": "electric_scooter", "fusion_lat": 0.0, "lat": 38.909757666666664, "name": "de8d20fdcb6971142951eab99e76bfba", "fusion_lon": 0.0, "bike_id": "de8d20fdcb6971142951eab99e76bfba", "is_disabled": 0, "is_reserved": 0}, {"rental_uris": {"ios": "https://dc.lft.to/lastmile_qr_scan", "android": "https://dc.lft.to/lastmile_qr_scan"}, "lon": -77.02916333333333, "type": "electric_scooter", "fusion_lat": 0.0, "lat": 38.8954865, "name": "77b3be0f6c107ba129fefd04dfffac16", "fusion_lon": 0.0, "bike_id": "77b3be0f6c107ba129fefd04dfffac16", "is_disabled": 0, "is_reserved": 0}, {"rental_uris": {"ios": "https://dc.lft.to/lastmile_qr_scan", "android": "https://dc.lft.to/lastmile_qr_scan"}, "lon": -76.99870333333334, "type": "electric_scooter", "fusion_lat": 0.0, "lat": 38.90746266666667, "name": "147c62e9458b1e59fbdb4fab01dc9db7", "fusion_lon": 0.0, "bike_id": "147c62e9458b1e59fbdb4fab01dc9db7", "is_disabled": 0, "is_reserved": 0}, {"rental_uris": {"ios": "https://dc.lft.to/lastmile_qr_scan", "android": "https://dc.lft.to/lastmile_qr_scan"}, "lon": -77.06304883333334, "type": "electric_scooter", "fusion_lat": 0.0, "lat": 38.906954666666664, "name": "037e8e9e7c3f34454006c656e2107bf3", "fusion_lon": 0.0, "bike_id": "037e8e9e7c3f34454006c656e2107bf3", "is_disabled": 0, "is_reserved": 0}, {"rental_uris": {"ios": "https://dc.lft.to/lastmile_qr_scan", "android": "https://dc.lft.to/lastmile_qr_scan"}, "lon": -76.93716683333334, "type": "electric_scooter", "fusion_lat": 0.0, "lat": 38.89586166666667, "name": "b8deb8f41d0c9d360cf579b8e3ae4c09", "fusion_lon": 0.0, "bike_id": "b8deb8f41d0c9d360cf579b8e3ae4c09", "is_disabled": 0, "is_reserved": 0}, {"rental_uris": {"ios": "https://dc.lft.to/lastmile_qr_scan", "android": "https://dc.lft.to/lastmile_qr_scan"}, "lon": -77.041061, "type": "electric_scooter", "fusion_lat": 0.0, "lat": 38.924452, "name": "da7752a7ba6dacb1097c83ec003e29cd", "fusion_lon": 0.0, "bike_id": "da7752a7ba6dacb1097c83ec003e29cd", "is_disabled": 0, "is_reserved": 0}, {"rental_uris": {"ios": "https://dc.lft.to/lastmile_qr_scan", "android": "https://dc.lft.to/lastmile_qr_scan"}, "lon": -77.03413583333334, "type": "electric_scooter", "fusion_lat": 0.0, "lat": 38.9353765, "name": "bd918c6f055ca52b0b6ddda99758e1ad", "fusion_lon": 0.0, "bike_id": "bd918c6f055ca52b0b6ddda99758e1ad", "is_disabled": 0, "is_reserved": 0}, {"rental_uris": {"ios": "https://dc.lft.to/lastmile_qr_scan", "android": "https://dc.lft.to/lastmile_qr_scan"}, "lon": -77.00651066666667, "type": "electric_scooter", "fusion_lat": 0.0, "lat": 38.87179483333333, "name": "ee8df6f8f50f6850e4f91fc44ab528f7", "fusion_lon": 0.0, "bike_id": "ee8df6f8f50f6850e4f91fc44ab528f7", "is_disabled": 0, "is_reserved": 0}, {"rental_uris": {"ios": "https://dc.lft.to/lastmile_qr_scan", "android": "https://dc.lft.to/lastmile_qr_scan"}, "lon": -77.02598366666666, "type": "electric_scooter", "fusion_lat": 0.0, "lat": 38.892587166666665, "name": "63cf731843ec1fcd8d96d417c3498192", "fusion_lon": 0.0, "bike_id": "63cf731843ec1fcd8d96d417c3498192", "is_disabled": 0, "is_reserved": 0}, {"rental_uris": {"ios": "https://dc.lft.to/lastmile_qr_scan", "android": "https://dc.lft.to/lastmile_qr_scan"}, "lon": -77.05621933333333, "type": "electric_bike", "fusion_lat": 0.0, "lat": 38.92399666666667, "name": "2fa7a3eb1c21fc0fadfdbab381e7502b", "fusion_lon": 0.0, "bike_id": "2fa7a3eb1c21fc0fadfdbab381e7502b", "is_disabled": 0, "is_reserved": 0}, {"rental_uris": {"ios": "https://dc.lft.to/lastmile_qr_scan", "android": "https://dc.lft.to/lastmile_qr_scan"}, "lon": -77.02338816666666, "type": "electric_scooter", "fusion_lat": 0.0, "lat": 38.925124333333336, "name": "1404cc5e55a33ab0126fae3df5940753", "fusion_lon": 0.0, "bike_id": "1404cc5e55a33ab0126fae3df5940753", "is_disabled": 0, "is_reserved": 0}, {"rental_uris": {"ios": "https://dc.lft.to/lastmile_qr_scan", "android": "https://dc.lft.to/lastmile_qr_scan"}, "lon": -77.04867566666667, "type": "electric_scooter", "fusion_lat": 0.0, "lat": 38.908501333333334, "name": "29bd7c9fefad8180d821407b74f10dae", "fusion_lon": 0.0, "bike_id": "29bd7c9fefad8180d821407b74f10dae", "is_disabled": 0, "is_reserved": 0}, {"rental_uris": {"ios": "https://dc.lft.to/lastmile_qr_scan", "android": "https://dc.lft.to/lastmile_qr_scan"}, "lon": -77.03223616666666, "type": "electric_scooter", "fusion_lat": 0.0, "lat": 38.926689333333336, "name": "71c906bbfb7e925d60030ad127441743", "fusion_lon": 0.0, "bike_id": "71c906bbfb7e925d60030ad127441743", "is_disabled": 0, "is_reserved": 0}, {"rental_uris": {"ios": "https://dc.lft.to/lastmile_qr_scan", "android": "https://dc.lft.to/lastmile_qr_scan"}, "lon": -77.05810733333334, "type": "electric_scooter", "fusion_lat": 0.0, "lat": 38.934492666666664, "name": "ed83d68121b1d6b7c46525ad5d1a6723", "fusion_lon": 0.0, "bike_id": "ed83d68121b1d6b7c46525ad5d1a6723", "is_disabled": 0, "is_reserved": 0}, {"rental_uris": {"ios": "https://dc.lft.to/lastmile_qr_scan", "android": "https://dc.lft.to/lastmile_qr_scan"}, "lon": -76.97404016666667, "type": "electric_scooter", "fusion_lat": 0.0, "lat": 38.90157933333333, "name": "9ef6abd8533e5f07022502dc793b5e97", "fusion_lon": 0.0, "bike_id": "9ef6abd8533e5f07022502dc793b5e97", "is_disabled": 0, "is_reserved": 0}, {"rental_uris": {"ios": "https://dc.lft.to/lastmile_qr_scan", "android": "https://dc.lft.to/lastmile_qr_scan"}, "lon": -76.97490466666666, "type": "electric_bike", "fusion_lat": 0.0, "lat": 38.92001916666667, "name": "1ee47b7576e5d951c6d5ef66d33bf78c", "fusion_lon": 0.0, "bike_id": "1ee47b7576e5d951c6d5ef66d33bf78c", "is_disabled": 0, "is_reserved": 0}, {"rental_uris": {"ios": "https://dc.lft.to/lastmile_qr_scan", "android": "https://dc.lft.to/lastmile_qr_scan"}, "lon": -77.04249333333334, "type": "electric_scooter", "fusion_lat": 0.0, "lat": 38.908171833333334, "name": "95e6d0c89ce5a7083460662ef1fe5323", "fusion_lon": 0.0, "bike_id": "95e6d0c89ce5a7083460662ef1fe5323", "is_disabled": 0, "is_reserved": 0}, {"rental_uris": {"ios": "https://dc.lft.to/lastmile_qr_scan", "android": "https://dc.lft.to/lastmile_qr_scan"}, "lon": -76.99795183333333, "type": "electric_scooter", "fusion_lat": 0.0, "lat": 38.9087045, "name": "2ae7b40166c274b453787b74972106f6", "fusion_lon": 0.0, "bike_id": "2ae7b40166c274b453787b74972106f6", "is_disabled": 0, "is_reserved": 0}, {"rental_uris": {"ios": "https://dc.lft.to/lastmile_qr_scan", "android": "https://dc.lft.to/lastmile_qr_scan"}, "lon": -77.04183516666667, "type": "electric_scooter", "fusion_lat": 0.0, "lat": 38.900519, "name": "f1ad6f8745cdd1cfb6dfccda8d282f12", "fusion_lon": 0.0, "bike_id": "f1ad6f8745cdd1cfb6dfccda8d282f12", "is_disabled": 0, "is_reserved": 0}, {"rental_uris": {"ios": "https://dc.lft.to/lastmile_qr_scan", "android": "https://dc.lft.to/lastmile_qr_scan"}, "lon": -77.13595116666667, "type": "electric_bike", "fusion_lat": 0.0, "lat": 39.05345966666667, "name": "1b67cc2aa1061b38906402c07074c005", "fusion_lon": 0.0, "bike_id": "1b67cc2aa1061b38906402c07074c005", "is_disabled": 0, "is_reserved": 0}, {"rental_uris": {"ios": "https://dc.lft.to/lastmile_qr_scan", "android": "https://dc.lft.to/lastmile_qr_scan"}, "lon": -77.01252783333334, "type": "electric_scooter", "fusion_lat": 0.0, "lat": 38.89962333333333, "name": "ee91bc716358f2f82550326713d453ea", "fusion_lon": 0.0, "bike_id": "ee91bc716358f2f82550326713d453ea", "is_disabled": 0, "is_reserved": 0}, {"rental_uris": {"ios": "https://dc.lft.to/lastmile_qr_scan", "android": "https://dc.lft.to/lastmile_qr_scan"}, "lon": -77.0418755, "type": "electric_scooter", "fusion_lat": 0.0, "lat": 38.92017466666667, "name": "f77dec9847dc658af694713b81327a97", "fusion_lon": 0.0, "bike_id": "f77dec9847dc658af694713b81327a97", "is_disabled": 0, "is_reserved": 0}, {"rental_uris": {"ios": "https://dc.lft.to/lastmile_qr_scan", "android": "https://dc.lft.to/lastmile_qr_scan"}, "lon": -77.07345066666667, "type": "electric_scooter", "fusion_lat": 0.0, "lat": 38.935544166666666, "name": "d179fd157b6246cac6f876be81ddfd9e", "fusion_lon": 0.0, "bike_id": "d179fd157b6246cac6f876be81ddfd9e", "is_disabled": 0, "is_reserved": 0}, {"rental_uris": {"ios": "https://dc.lft.to/lastmile_qr_scan", "android": "https://dc.lft.to/lastmile_qr_scan"}, "lon": -76.991464, "type": "electric_scooter", "fusion_lat": 0.0, "lat": 38.90041433333333, "name": "cf553c18483c631d101d2f455d432eb0", "fusion_lon": 0.0, "bike_id": "cf553c18483c631d101d2f455d432eb0", "is_disabled": 0, "is_reserved": 0}, {"rental_uris": {"ios": "https://dc.lft.to/lastmile_qr_scan", "android": "https://dc.lft.to/lastmile_qr_scan"}, "lon": -76.98719833333334, "type": "electric_scooter", "fusion_lat": 0.0, "lat": 38.86260016666667, "name": "a8fd9dacca7b8ca4334536f45cf3b8bd", "fusion_lon": 0.0, "bike_id": "a8fd9dacca7b8ca4334536f45cf3b8bd", "is_disabled": 0, "is_reserved": 0}, {"rental_uris": {"ios": "https://dc.lft.to/lastmile_qr_scan", "android": "https://dc.lft.to/lastmile_qr_scan"}, "lon": -77.01173266666666, "type": "electric_scooter", "fusion_lat": 0.0, "lat": 38.9002735, "name": "dd9e36a5dc92edf2c78010aec4884da2", "fusion_lon": 0.0, "bike_id": "dd9e36a5dc92edf2c78010aec4884da2", "is_disabled": 0, "is_reserved": 0}, {"rental_uris": {"ios": "https://dc.lft.to/lastmile_qr_scan", "android": "https://dc.lft.to/lastmile_qr_scan"}, "lon": -77.12263883333334, "type": "electric_bike", "fusion_lat": 0.0, "lat": 38.853325, "name": "1a89ac432e697b803f092f3d8d6e6217", "fusion_lon": 0.0, "bike_id": "1a89ac432e697b803f092f3d8d6e6217", "is_disabled": 0, "is_reserved": 0}, {"rental_uris": {"ios": "https://dc.lft.to/lastmile_qr_scan", "android": "https://dc.lft.to/lastmile_qr_scan"}, "lon": -76.994963, "type": "electric_scooter", "fusion_lat": 0.0, "lat": 38.862415, "name": "4d448bc1eee61f4da278c4bf842caa64", "fusion_lon": 0.0, "bike_id": "4d448bc1eee61f4da278c4bf842caa64", "is_disabled": 0, "is_reserved": 0}, {"rental_uris": {"ios": "https://dc.lft.to/lastmile_qr_scan", "android": "https://dc.lft.to/lastmile_qr_scan"}, "lon": -77.03664083333334, "type": "electric_scooter", "fusion_lat": 0.0, "lat": 38.91816216666667, "name": "b93223747cbd2977e1ab39630b5071d1", "fusion_lon": 0.0, "bike_id": "b93223747cbd2977e1ab39630b5071d1", "is_disabled": 0, "is_reserved": 0}, {"rental_uris": {"ios": "https://dc.lft.to/lastmile_qr_scan", "android": "https://dc.lft.to/lastmile_qr_scan"}, "lon": -77.01354566666667, "type": "electric_scooter", "fusion_lat": 0.0, "lat": 38.9193195, "name": "164f1f92d15ca6513a697afc48f1fb58", "fusion_lon": 0.0, "bike_id": "164f1f92d15ca6513a697afc48f1fb58", "is_disabled": 0, "is_reserved": 0}, {"rental_uris": {"ios": "https://dc.lft.to/lastmile_qr_scan", "android": "https://dc.lft.to/lastmile_qr_scan"}, "lon": -77.0362145, "type": "electric_scooter", "fusion_lat": 0.0, "lat": 38.9285585, "name": "1e5543631e25a03d05206e05d8dd7bde", "fusion_lon": 0.0, "bike_id": "1e5543631e25a03d05206e05d8dd7bde", "is_disabled": 0, "is_reserved": 0}, {"rental_uris": {"ios": "https://dc.lft.to/lastmile_qr_scan", "android": "https://dc.lft.to/lastmile_qr_scan"}, "lon": -76.9317395, "type": "electric_scooter", "fusion_lat": 0.0, "lat": 38.898846666666664, "name": "119411a3089d575fef8bde4545e0df94", "fusion_lon": 0.0, "bike_id": "119411a3089d575fef8bde4545e0df94", "is_disabled": 0, "is_reserved": 0}, {"rental_uris": {"ios": "https://dc.lft.to/lastmile_qr_scan", "android": "https://dc.lft.to/lastmile_qr_scan"}, "lon": -77.02980866666667, "type": "electric_scooter", "fusion_lat": 0.0, "lat": 38.946000833333336, "name": "a64052932d7585ea88f3be3a3349c489", "fusion_lon": 0.0, "bike_id": "a64052932d7585ea88f3be3a3349c489", "is_disabled": 0, "is_reserved": 0}, {"rental_uris": {"ios": "https://dc.lft.to/lastmile_qr_scan", "android": "https://dc.lft.to/lastmile_qr_scan"}, "lon": -77.00201416666667, "type": "electric_scooter", "fusion_lat": 0.0, "lat": 38.900352833333336, "name": "f5a7d6cc9d6fb3232a4d21d243a7573c", "fusion_lon": 0.0, "bike_id": "f5a7d6cc9d6fb3232a4d21d243a7573c", "is_disabled": 0, "is_reserved": 0}, {"rental_uris": {"ios": "https://dc.lft.to/lastmile_qr_scan", "android": "https://dc.lft.to/lastmile_qr_scan"}, "lon": -77.04198016666666, "type": "electric_scooter", "fusion_lat": 0.0, "lat": 38.9209765, "name": "d081a8a8fe76fa1690a7c7a0b0e55536", "fusion_lon": 0.0, "bike_id": "d081a8a8fe76fa1690a7c7a0b0e55536", "is_disabled": 0, "is_reserved": 0}, {"rental_uris": {"ios": "https://dc.lft.to/lastmile_qr_scan", "android": "https://dc.lft.to/lastmile_qr_scan"}, "lon": -77.01449116666667, "type": "electric_scooter", "fusion_lat": 0.0, "lat": 38.929778, "name": "d2b7c925bb6a03e59a9bb71eb869a455", "fusion_lon": 0.0, "bike_id": "d2b7c925bb6a03e59a9bb71eb869a455", "is_disabled": 0, "is_reserved": 0}, {"rental_uris": {"ios": "https://dc.lft.to/lastmile_qr_scan", "android": "https://dc.lft.to/lastmile_qr_scan"}, "lon": -77.002668, "type": "electric_scooter", "fusion_lat": 0.0, "lat": 38.88751883333333, "name": "5a8470b6a6c0cf6ed9171dd15faebcce", "fusion_lon": 0.0, "bike_id": "5a8470b6a6c0cf6ed9171dd15faebcce", "is_disabled": 0, "is_reserved": 0}, {"rental_uris": {"ios": "https://dc.lft.to/lastmile_qr_scan", "android": "https://dc.lft.to/lastmile_qr_scan"}, "lon": -77.03184216666666, "type": "electric_scooter", "fusion_lat": 0.0, "lat": 38.91823516666667, "name": "e5fbeb5385341b51244e28850f5c65f6", "fusion_lon": 0.0, "bike_id": "e5fbeb5385341b51244e28850f5c65f6", "is_disabled": 0, "is_reserved": 0}, {"rental_uris": {"ios": "https://dc.lft.to/lastmile_qr_scan", "android": "https://dc.lft.to/lastmile_qr_scan"}, "lon": -77.02964083333333, "type": "electric_scooter", "fusion_lat": 0.0, "lat": 38.92688666666667, "name": "83602392134f3dcc0138dd34584c8bf5", "fusion_lon": 0.0, "bike_id": "83602392134f3dcc0138dd34584c8bf5", "is_disabled": 0, "is_reserved": 0}, {"rental_uris": {"ios": "https://dc.lft.to/lastmile_qr_scan", "android": "https://dc.lft.to/lastmile_qr_scan"}, "lon": -77.04813683333333, "type": "electric_scooter", "fusion_lat": 0.0, "lat": 38.92040316666667, "name": "89dcb0a33eb14664297d4cdfbe6ed132", "fusion_lon": 0.0, "bike_id": "89dcb0a33eb14664297d4cdfbe6ed132", "is_disabled": 0, "is_reserved": 0}, {"rental_uris": {"ios": "https://dc.lft.to/lastmile_qr_scan", "android": "https://dc.lft.to/lastmile_qr_scan"}, "lon": -77.03715266666667, "type": "electric_scooter", "fusion_lat": 0.0, "lat": 38.910456, "name": "d9f1708cd7cdfdef7f54e6d6474710b5", "fusion_lon": 0.0, "bike_id": "d9f1708cd7cdfdef7f54e6d6474710b5", "is_disabled": 0, "is_reserved": 0}, {"rental_uris": {"ios": "https://dc.lft.to/lastmile_qr_scan", "android": "https://dc.lft.to/lastmile_qr_scan"}, "lon": -77.02397433333333, "type": "electric_scooter", "fusion_lat": 0.0, "lat": 38.937002666666665, "name": "66f6fd76853d756797e082fd83c7dc9b", "fusion_lon": 0.0, "bike_id": "66f6fd76853d756797e082fd83c7dc9b", "is_disabled": 0, "is_reserved": 0}, {"rental_uris": {"ios": "https://dc.lft.to/lastmile_qr_scan", "android": "https://dc.lft.to/lastmile_qr_scan"}, "lon": -76.99817233333333, "type": "electric_bike", "fusion_lat": 0.0, "lat": 38.8442935, "name": "b03c076c2fccb8634d84b616bbb8f552", "fusion_lon": 0.0, "bike_id": "b03c076c2fccb8634d84b616bbb8f552", "is_disabled": 0, "is_reserved": 0}, {"rental_uris": {"ios": "https://dc.lft.to/lastmile_qr_scan", "android": "https://dc.lft.to/lastmile_qr_scan"}, "lon": -77.0401135, "type": "electric_scooter", "fusion_lat": 0.0, "lat": 38.932493666666666, "name": "8d8202cf3e5acadfe18f779be57f09b9", "fusion_lon": 0.0, "bike_id": "8d8202cf3e5acadfe18f779be57f09b9", "is_disabled": 0, "is_reserved": 0}, {"rental_uris": {"ios": "https://dc.lft.to/lastmile_qr_scan", "android": "https://dc.lft.to/lastmile_qr_scan"}, "lon": -77.02111483333333, "type": "electric_scooter", "fusion_lat": 0.0, "lat": 38.9141085, "name": "9f646d21032206b00efeb42679ee807b", "fusion_lon": 0.0, "bike_id": "9f646d21032206b00efeb42679ee807b", "is_disabled": 0, "is_reserved": 0}, {"rental_uris": {"ios": "https://dc.lft.to/lastmile_qr_scan", "android": "https://dc.lft.to/lastmile_qr_scan"}, "lon": -76.99661183333333, "type": "electric_scooter", "fusion_lat": 0.0, "lat": 38.900422166666665, "name": "fe271c392594132dc0c20024b291ac19", "fusion_lon": 0.0, "bike_id": "fe271c392594132dc0c20024b291ac19", "is_disabled": 0, "is_reserved": 0}, {"rental_uris": {"ios": "https://dc.lft.to/lastmile_qr_scan", "android": "https://dc.lft.to/lastmile_qr_scan"}, "lon": -77.00526216666667, "type": "electric_scooter", "fusion_lat": 0.0, "lat": 38.92898816666667, "name": "e1b31ae73a44975ab31b56c2a96adee1", "fusion_lon": 0.0, "bike_id": "e1b31ae73a44975ab31b56c2a96adee1", "is_disabled": 0, "is_reserved": 0}, {"rental_uris": {"ios": "https://dc.lft.to/lastmile_qr_scan", "android": "https://dc.lft.to/lastmile_qr_scan"}, "lon": -76.98710283333334, "type": "electric_scooter", "fusion_lat": 0.0, "lat": 38.865374333333335, "name": "2710b07dc21085e8405a2a6acbe5491c", "fusion_lon": 0.0, "bike_id": "2710b07dc21085e8405a2a6acbe5491c", "is_disabled": 0, "is_reserved": 0}, {"rental_uris": {"ios": "https://dc.lft.to/lastmile_qr_scan", "android": "https://dc.lft.to/lastmile_qr_scan"}, "lon": -77.0375715, "type": "electric_scooter", "fusion_lat": 0.0, "lat": 38.92899833333333, "name": "4cafd63831c30beee2de2bc7bbf5fcbe", "fusion_lon": 0.0, "bike_id": "4cafd63831c30beee2de2bc7bbf5fcbe", "is_disabled": 0, "is_reserved": 0}, {"rental_uris": {"ios": "https://dc.lft.to/lastmile_qr_scan", "android": "https://dc.lft.to/lastmile_qr_scan"}, "lon": -77.01187816666666, "type": "electric_scooter", "fusion_lat": 0.0, "lat": 38.90032133333333, "name": "c86d42e6fdd765eec2e4782ef07defa9", "fusion_lon": 0.0, "bike_id": "c86d42e6fdd765eec2e4782ef07defa9", "is_disabled": 0, "is_reserved": 0}, {"rental_uris": {"ios": "https://dc.lft.to/lastmile_qr_scan", "android": "https://dc.lft.to/lastmile_qr_scan"}, "lon": -77.0318725, "type": "electric_scooter", "fusion_lat": 0.0, "lat": 38.89952066666667, "name": "37814e0a08272b0c2c05cf6ac91bd962", "fusion_lon": 0.0, "bike_id": "37814e0a08272b0c2c05cf6ac91bd962", "is_disabled": 0, "is_reserved": 0}, {"rental_uris": {"ios": "https://dc.lft.to/lastmile_qr_scan", "android": "https://dc.lft.to/lastmile_qr_scan"}, "lon": -77.03949316666667, "type": "electric_scooter", "fusion_lat": 0.0, "lat": 38.89908533333333, "name": "a3d2362fca62c7deb1705f1b316d86b4", "fusion_lon": 0.0, "bike_id": "a3d2362fca62c7deb1705f1b316d86b4", "is_disabled": 0, "is_reserved": 0}, {"rental_uris": {"ios": "https://dc.lft.to/lastmile_qr_scan", "android": "https://dc.lft.to/lastmile_qr_scan"}, "lon": -77.04544116666666, "type": "electric_scooter", "fusion_lat": 0.0, "lat": 38.907192, "name": "aaa64cb5d993e30ee5fe74611a6d9d89", "fusion_lon": 0.0, "bike_id": "aaa64cb5d993e30ee5fe74611a6d9d89", "is_disabled": 0, "is_reserved": 0}, {"rental_uris": {"ios": "https://dc.lft.to/lastmile_qr_scan", "android": "https://dc.lft.to/lastmile_qr_scan"}, "lon": -77.03538966666666, "type": "electric_scooter", "fusion_lat": 0.0, "lat": 38.91809216666667, "name": "15490b6b6928c954aa1017b6c7da3cbc", "fusion_lon": 0.0, "bike_id": "15490b6b6928c954aa1017b6c7da3cbc", "is_disabled": 0, "is_reserved": 0}, {"rental_uris": {"ios": "https://dc.lft.to/lastmile_qr_scan", "android": "https://dc.lft.to/lastmile_qr_scan"}, "lon": -77.03403, "type": "electric_scooter", "fusion_lat": 0.0, "lat": 38.92267366666667, "name": "cb5f0e58a604b6cb29fc817e0118e9f7", "fusion_lon": 0.0, "bike_id": "cb5f0e58a604b6cb29fc817e0118e9f7", "is_disabled": 0, "is_reserved": 0}, {"rental_uris": {"ios": "https://dc.lft.to/lastmile_qr_scan", "android": "https://dc.lft.to/lastmile_qr_scan"}, "lon": -77.02801366666667, "type": "electric_scooter", "fusion_lat": 0.0, "lat": 38.89831816666667, "name": "c0ed523cb191bd958ba3be2b6f760f93", "fusion_lon": 0.0, "bike_id": "c0ed523cb191bd958ba3be2b6f760f93", "is_disabled": 0, "is_reserved": 0}, {"rental_uris": {"ios": "https://dc.lft.to/lastmile_qr_scan", "android": "https://dc.lft.to/lastmile_qr_scan"}, "lon": -77.02829666666666, "type": "electric_scooter", "fusion_lat": 0.0, "lat": 38.886527, "name": "b5c92be6bc6e66d0ee3f361c4e490183", "fusion_lon": 0.0, "bike_id": "b5c92be6bc6e66d0ee3f361c4e490183", "is_disabled": 0, "is_reserved": 0}, {"rental_uris": {"ios": "https://dc.lft.to/lastmile_qr_scan", "android": "https://dc.lft.to/lastmile_qr_scan"}, "lon": -77.0549955, "type": "electric_scooter", "fusion_lat": 0.0, "lat": 38.929737333333335, "name": "22329179728755dd2bb3c1d889599b06", "fusion_lon": 0.0, "bike_id": "22329179728755dd2bb3c1d889599b06", "is_disabled": 0, "is_reserved": 0}, {"rental_uris": {"ios": "https://dc.lft.to/lastmile_qr_scan", "android": "https://dc.lft.to/lastmile_qr_scan"}, "lon": -76.948908, "type": "electric_scooter", "fusion_lat": 0.0, "lat": 38.89526883333333, "name": "90396b7549bb7d61c4d3396ec3daf757", "fusion_lon": 0.0, "bike_id": "90396b7549bb7d61c4d3396ec3daf757", "is_disabled": 0, "is_reserved": 0}, {"rental_uris": {"ios": "https://dc.lft.to/lastmile_qr_scan", "android": "https://dc.lft.to/lastmile_qr_scan"}, "lon": -77.02155066666667, "type": "electric_scooter", "fusion_lat": 0.0, "lat": 38.92602633333333, "name": "5a2566a67506eb932a744e5e65c6e385", "fusion_lon": 0.0, "bike_id": "5a2566a67506eb932a744e5e65c6e385", "is_disabled": 0, "is_reserved": 0}, {"rental_uris": {"ios": "https://dc.lft.to/lastmile_qr_scan", "android": "https://dc.lft.to/lastmile_qr_scan"}, "lon": -76.9900015, "type": "electric_scooter", "fusion_lat": 0.0, "lat": 38.86503366666667, "name": "daf15591edcda31272952175b9de4871", "fusion_lon": 0.0, "bike_id": "daf15591edcda31272952175b9de4871", "is_disabled": 0, "is_reserved": 0}, {"rental_uris": {"ios": "https://dc.lft.to/lastmile_qr_scan", "android": "https://dc.lft.to/lastmile_qr_scan"}, "lon": -77.0528935, "type": "electric_scooter", "fusion_lat": 0.0, "lat": 38.91891866666667, "name": "39d771d7e64b4931d3d457ed33014b8c", "fusion_lon": 0.0, "bike_id": "39d771d7e64b4931d3d457ed33014b8c", "is_disabled": 0, "is_reserved": 0}, {"rental_uris": {"ios": "https://dc.lft.to/lastmile_qr_scan", "android": "https://dc.lft.to/lastmile_qr_scan"}, "lon": -77.070639, "type": "electric_scooter", "fusion_lat": 0.0, "lat": 38.952196666666666, "name": "d5da01d4b8c2499d1a3b84f038bb4c1d", "fusion_lon": 0.0, "bike_id": "d5da01d4b8c2499d1a3b84f038bb4c1d", "is_disabled": 0, "is_reserved": 0}, {"rental_uris": {"ios": "https://dc.lft.to/lastmile_qr_scan", "android": "https://dc.lft.to/lastmile_qr_scan"}, "lon": -77.0085605, "type": "electric_bike", "fusion_lat": 0.0, "lat": 38.82726866666667, "name": "6cc9c0f33dee5548cf37b0652822822a", "fusion_lon": 0.0, "bike_id": "6cc9c0f33dee5548cf37b0652822822a", "is_disabled": 0, "is_reserved": 0}, {"rental_uris": {"ios": "https://dc.lft.to/lastmile_qr_scan", "android": "https://dc.lft.to/lastmile_qr_scan"}, "lon": -77.04195383333334, "type": "electric_scooter", "fusion_lat": 0.0, "lat": 38.903425, "name": "c428290347765b0a90cf2ee70a346f00", "fusion_lon": 0.0, "bike_id": "c428290347765b0a90cf2ee70a346f00", "is_disabled": 0, "is_reserved": 0}, {"rental_uris": {"ios": "https://dc.lft.to/lastmile_qr_scan", "android": "https://dc.lft.to/lastmile_qr_scan"}, "lon": -77.05403683333333, "type": "electric_scooter", "fusion_lat": 0.0, "lat": 38.9026995, "name": "dd0a8b44136713818063120dfb329684", "fusion_lon": 0.0, "bike_id": "dd0a8b44136713818063120dfb329684", "is_disabled": 0, "is_reserved": 0}, {"rental_uris": {"ios": "https://dc.lft.to/lastmile_qr_scan", "android": "https://dc.lft.to/lastmile_qr_scan"}, "lon": -77.04703616666667, "type": "electric_scooter", "fusion_lat": 0.0, "lat": 38.922309166666665, "name": "bea50a9642b6796d0d475bdd3ccccb1e", "fusion_lon": 0.0, "bike_id": "bea50a9642b6796d0d475bdd3ccccb1e", "is_disabled": 0, "is_reserved": 0}, {"rental_uris": {"ios": "https://dc.lft.to/lastmile_qr_scan", "android": "https://dc.lft.to/lastmile_qr_scan"}, "lon": -77.022255, "type": "electric_scooter", "fusion_lat": 0.0, "lat": 38.9386785, "name": "19821bb4ca19c6665f54058b9ceb9f7a", "fusion_lon": 0.0, "bike_id": "19821bb4ca19c6665f54058b9ceb9f7a", "is_disabled": 0, "is_reserved": 0}, {"rental_uris": {"ios": "https://dc.lft.to/lastmile_qr_scan", "android": "https://dc.lft.to/lastmile_qr_scan"}, "lon": -77.02161866666667, "type": "electric_scooter", "fusion_lat": 0.0, "lat": 38.92611333333333, "name": "0dd67b3e33ace49e4d9cd86cfddf2018", "fusion_lon": 0.0, "bike_id": "0dd67b3e33ace49e4d9cd86cfddf2018", "is_disabled": 0, "is_reserved": 0}, {"rental_uris": {"ios": "https://dc.lft.to/lastmile_qr_scan", "android": "https://dc.lft.to/lastmile_qr_scan"}, "lon": -77.0448665, "type": "electric_scooter", "fusion_lat": 0.0, "lat": 38.91183983333333, "name": "11fb9f30ba8b6dd6de0ce1581645326e", "fusion_lon": 0.0, "bike_id": "11fb9f30ba8b6dd6de0ce1581645326e", "is_disabled": 0, "is_reserved": 0}, {"rental_uris": {"ios": "https://dc.lft.to/lastmile_qr_scan", "android": "https://dc.lft.to/lastmile_qr_scan"}, "lon": -77.04253716666666, "type": "electric_scooter", "fusion_lat": 0.0, "lat": 38.915875666666665, "name": "7bf83b383b00f1c3265a98a39d4803bb", "fusion_lon": 0.0, "bike_id": "7bf83b383b00f1c3265a98a39d4803bb", "is_disabled": 0, "is_reserved": 0}, {"rental_uris": {"ios": "https://dc.lft.to/lastmile_qr_scan", "android": "https://dc.lft.to/lastmile_qr_scan"}, "lon": -76.9962755, "type": "electric_scooter", "fusion_lat": 0.0, "lat": 38.92189783333333, "name": "4153ada12bbc24e2399e75ad15f55ea1", "fusion_lon": 0.0, "bike_id": "4153ada12bbc24e2399e75ad15f55ea1", "is_disabled": 0, "is_reserved": 0}, {"rental_uris": {"ios": "https://dc.lft.to/lastmile_qr_scan", "android": "https://dc.lft.to/lastmile_qr_scan"}, "lon": -77.02231533333334, "type": "electric_scooter", "fusion_lat": 0.0, "lat": 38.91423316666667, "name": "bd39fa97a5e87dc89ee168831ef7fa40", "fusion_lon": 0.0, "bike_id": "bd39fa97a5e87dc89ee168831ef7fa40", "is_disabled": 0, "is_reserved": 0}, {"rental_uris": {"ios": "https://dc.lft.to/lastmile_qr_scan", "android": "https://dc.lft.to/lastmile_qr_scan"}, "lon": -77.0368895, "type": "electric_scooter", "fusion_lat": 0.0, "lat": 38.90569983333334, "name": "e81b3d3ea0d6cc2dee961bf1548e6be0", "fusion_lon": 0.0, "bike_id": "e81b3d3ea0d6cc2dee961bf1548e6be0", "is_disabled": 0, "is_reserved": 0}, {"rental_uris": {"ios": "https://dc.lft.to/lastmile_qr_scan", "android": "https://dc.lft.to/lastmile_qr_scan"}, "lon": -77.05883183333333, "type": "electric_scooter", "fusion_lat": 0.0, "lat": 38.936333833333336, "name": "e4aba517576027590a372ecd725b7ae7", "fusion_lon": 0.0, "bike_id": "e4aba517576027590a372ecd725b7ae7", "is_disabled": 0, "is_reserved": 0}, {"rental_uris": {"ios": "https://dc.lft.to/lastmile_qr_scan", "android": "https://dc.lft.to/lastmile_qr_scan"}, "lon": -77.03227133333333, "type": "electric_scooter", "fusion_lat": 0.0, "lat": 38.917086833333336, "name": "15058ba0a957dbb4c29917319f3b798e", "fusion_lon": 0.0, "bike_id": "15058ba0a957dbb4c29917319f3b798e", "is_disabled": 0, "is_reserved": 0}, {"rental_uris": {"ios": "https://dc.lft.to/lastmile_qr_scan", "android": "https://dc.lft.to/lastmile_qr_scan"}, "lon": -77.03183983333334, "type": "electric_scooter", "fusion_lat": 0.0, "lat": 38.9210645, "name": "b82ed18c0bec87091da423a88e294a86", "fusion_lon": 0.0, "bike_id": "b82ed18c0bec87091da423a88e294a86", "is_disabled": 0, "is_reserved": 0}, {"rental_uris": {"ios": "https://dc.lft.to/lastmile_qr_scan", "android": "https://dc.lft.to/lastmile_qr_scan"}, "lon": -77.12373733333334, "type": "electric_bike", "fusion_lat": 0.0, "lat": 38.847386666666665, "name": "cf369079af5a62ef2e1e31a29d3ec86a", "fusion_lon": 0.0, "bike_id": "cf369079af5a62ef2e1e31a29d3ec86a", "is_disabled": 0, "is_reserved": 0}, {"rental_uris": {"ios": "https://dc.lft.to/lastmile_qr_scan", "android": "https://dc.lft.to/lastmile_qr_scan"}, "lon": -76.98823066666667, "type": "electric_scooter", "fusion_lat": 0.0, "lat": 38.880232666666664, "name": "219509cada619b48e0493fc550f164a7", "fusion_lon": 0.0, "bike_id": "219509cada619b48e0493fc550f164a7", "is_disabled": 0, "is_reserved": 0}, {"rental_uris": {"ios": "https://dc.lft.to/lastmile_qr_scan", "android": "https://dc.lft.to/lastmile_qr_scan"}, "lon": -77.032178, "type": "electric_scooter", "fusion_lat": 0.0, "lat": 38.91805816666667, "name": "d9b34d681c176c2063946e971ed9209c", "fusion_lon": 0.0, "bike_id": "d9b34d681c176c2063946e971ed9209c", "is_disabled": 0, "is_reserved": 0}, {"rental_uris": {"ios": "https://dc.lft.to/lastmile_qr_scan", "android": "https://dc.lft.to/lastmile_qr_scan"}, "lon": -77.02528266666667, "type": "electric_scooter", "fusion_lat": 0.0, "lat": 38.9405865, "name": "e37b950e97e143fb4c08ebccbe5dc88b", "fusion_lon": 0.0, "bike_id": "e37b950e97e143fb4c08ebccbe5dc88b", "is_disabled": 0, "is_reserved": 0}, {"rental_uris": {"ios": "https://dc.lft.to/lastmile_qr_scan", "android": "https://dc.lft.to/lastmile_qr_scan"}, "lon": -77.03581283333334, "type": "electric_scooter", "fusion_lat": 0.0, "lat": 38.9314125, "name": "b341548d31019b51e6c857423f370887", "fusion_lon": 0.0, "bike_id": "b341548d31019b51e6c857423f370887", "is_disabled": 0, "is_reserved": 0}, {"rental_uris": {"ios": "https://dc.lft.to/lastmile_qr_scan", "android": "https://dc.lft.to/lastmile_qr_scan"}, "lon": -76.99632883333334, "type": "electric_bike", "fusion_lat": 0.0, "lat": 38.84662083333333, "name": "7a83df76085d8f3752f3d4893e609161", "fusion_lon": 0.0, "bike_id": "7a83df76085d8f3752f3d4893e609161", "is_disabled": 0, "is_reserved": 0}, {"rental_uris": {"ios": "https://dc.lft.to/lastmile_qr_scan", "android": "https://dc.lft.to/lastmile_qr_scan"}, "lon": -77.070625, "type": "electric_scooter", "fusion_lat": 0.0, "lat": 38.901099, "name": "277240ed289ba381d857604693672119", "fusion_lon": 0.0, "bike_id": "277240ed289ba381d857604693672119", "is_disabled": 0, "is_reserved": 0}, {"rental_uris": {"ios": "https://dc.lft.to/lastmile_qr_scan", "android": "https://dc.lft.to/lastmile_qr_scan"}, "lon": -77.06878033333334, "type": "electric_scooter", "fusion_lat": 0.0, "lat": 38.90508033333333, "name": "c807f78244cddccecacd71a4e95a6ff8", "fusion_lon": 0.0, "bike_id": "c807f78244cddccecacd71a4e95a6ff8", "is_disabled": 0, "is_reserved": 0}, {"rental_uris": {"ios": "https://dc.lft.to/lastmile_qr_scan", "android": "https://dc.lft.to/lastmile_qr_scan"}, "lon": -77.0356735, "type": "electric_scooter", "fusion_lat": 0.0, "lat": 38.927381833333335, "name": "0b75ecd1962646a5b667dc91775b1ea4", "fusion_lon": 0.0, "bike_id": "0b75ecd1962646a5b667dc91775b1ea4", "is_disabled": 0, "is_reserved": 0}, {"rental_uris": {"ios": "https://dc.lft.to/lastmile_qr_scan", "android": "https://dc.lft.to/lastmile_qr_scan"}, "lon": -77.03211383333333, "type": "electric_scooter", "fusion_lat": 0.0, "lat": 38.911055833333336, "name": "d949f46955ec56d09c9375f0b630f5b6", "fusion_lon": 0.0, "bike_id": "d949f46955ec56d09c9375f0b630f5b6", "is_disabled": 0, "is_reserved": 0}, {"rental_uris": {"ios": "https://dc.lft.to/lastmile_qr_scan", "android": "https://dc.lft.to/lastmile_qr_scan"}, "lon": -77.03665066666667, "type": "electric_scooter", "fusion_lat": 0.0, "lat": 38.92932, "name": "199b7aa95b023273fc79ed5fe1869798", "fusion_lon": 0.0, "bike_id": "199b7aa95b023273fc79ed5fe1869798", "is_disabled": 0, "is_reserved": 0}, {"rental_uris": {"ios": "https://dc.lft.to/lastmile_qr_scan", "android": "https://dc.lft.to/lastmile_qr_scan"}, "lon": -77.02822816666666, "type": "electric_scooter", "fusion_lat": 0.0, "lat": 38.896398833333336, "name": "84611ecdaa6230d5e7a547a7bfabb84d", "fusion_lon": 0.0, "bike_id": "84611ecdaa6230d5e7a547a7bfabb84d", "is_disabled": 0, "is_reserved": 0}, {"rental_uris": {"ios": "https://dc.lft.to/lastmile_qr_scan", "android": "https://dc.lft.to/lastmile_qr_scan"}, "lon": -77.017554, "type": "electric_scooter", "fusion_lat": 0.0, "lat": 38.88410733333333, "name": "4e9f4cac839577a3652e1ba1840a3249", "fusion_lon": 0.0, "bike_id": "4e9f4cac839577a3652e1ba1840a3249", "is_disabled": 0, "is_reserved": 0}, {"rental_uris": {"ios": "https://dc.lft.to/lastmile_qr_scan", "android": "https://dc.lft.to/lastmile_qr_scan"}, "lon": -77.03874066666667, "type": "electric_scooter", "fusion_lat": 0.0, "lat": 38.931539, "name": "bf318a0d1973ad054433b9feb190d959", "fusion_lon": 0.0, "bike_id": "bf318a0d1973ad054433b9feb190d959", "is_disabled": 0, "is_reserved": 0}, {"rental_uris": {"ios": "https://dc.lft.to/lastmile_qr_scan", "android": "https://dc.lft.to/lastmile_qr_scan"}, "lon": -77.02225433333334, "type": "electric_scooter", "fusion_lat": 0.0, "lat": 38.89194633333334, "name": "19a8f844eeca6f058a83e61972747085", "fusion_lon": 0.0, "bike_id": "19a8f844eeca6f058a83e61972747085", "is_disabled": 0, "is_reserved": 0}, {"rental_uris": {"ios": "https://dc.lft.to/lastmile_qr_scan", "android": "https://dc.lft.to/lastmile_qr_scan"}, "lon": -77.04772366666667, "type": "electric_bike", "fusion_lat": 0.0, "lat": 39.0531225, "name": "a2b716c739711395740702be6254d330", "fusion_lon": 0.0, "bike_id": "a2b716c739711395740702be6254d330", "is_disabled": 0, "is_reserved": 0}, {"rental_uris": {"ios": "https://dc.lft.to/lastmile_qr_scan", "android": "https://dc.lft.to/lastmile_qr_scan"}, "lon": -76.99502016666666, "type": "electric_scooter", "fusion_lat": 0.0, "lat": 38.86246716666667, "name": "108f077302c2ad2335e5e67603e80620", "fusion_lon": 0.0, "bike_id": "108f077302c2ad2335e5e67603e80620", "is_disabled": 0, "is_reserved": 0}, {"rental_uris": {"ios": "https://dc.lft.to/lastmile_qr_scan", "android": "https://dc.lft.to/lastmile_qr_scan"}, "lon": -77.05695566666667, "type": "electric_scooter", "fusion_lat": 0.0, "lat": 38.9054055, "name": "e797e8daaeea279ad3e8d8ce17416909", "fusion_lon": 0.0, "bike_id": "e797e8daaeea279ad3e8d8ce17416909", "is_disabled": 0, "is_reserved": 0}, {"rental_uris": {"ios": "https://dc.lft.to/lastmile_qr_scan", "android": "https://dc.lft.to/lastmile_qr_scan"}, "lon": -76.98904416666667, "type": "electric_scooter", "fusion_lat": 0.0, "lat": 38.866879833333336, "name": "aef83efe5ece8f8d64e02b3239e5193e", "fusion_lon": 0.0, "bike_id": "aef83efe5ece8f8d64e02b3239e5193e", "is_disabled": 0, "is_reserved": 0}, {"rental_uris": {"ios": "https://dc.lft.to/lastmile_qr_scan", "android": "https://dc.lft.to/lastmile_qr_scan"}, "lon": -76.95357266666667, "type": "electric_bike", "fusion_lat": 0.0, "lat": 38.93952, "name": "9bd709fb952e158f9e966cb8ad02556f", "fusion_lon": 0.0, "bike_id": "9bd709fb952e158f9e966cb8ad02556f", "is_disabled": 0, "is_reserved": 0}, {"rental_uris": {"ios": "https://dc.lft.to/lastmile_qr_scan", "android": "https://dc.lft.to/lastmile_qr_scan"}, "lon": -77.04871283333334, "type": "electric_scooter", "fusion_lat": 0.0, "lat": 38.90850966666667, "name": "b9c0c402d160c719f92211f412222edf", "fusion_lon": 0.0, "bike_id": "b9c0c402d160c719f92211f412222edf", "is_disabled": 0, "is_reserved": 0}, {"rental_uris": {"ios": "https://dc.lft.to/lastmile_qr_scan", "android": "https://dc.lft.to/lastmile_qr_scan"}, "lon": -77.17848583333334, "type": "electric_bike", "fusion_lat": 0.0, "lat": 39.08858266666667, "name": "99e3c8d5ac9845d97c37ef8c5ab71f2c", "fusion_lon": 0.0, "bike_id": "99e3c8d5ac9845d97c37ef8c5ab71f2c", "is_disabled": 0, "is_reserved": 0}, {"rental_uris": {"ios": "https://dc.lft.to/lastmile_qr_scan", "android": "https://dc.lft.to/lastmile_qr_scan"}, "lon": -77.04333, "type": "electric_scooter", "fusion_lat": 0.0, "lat": 38.89224733333333, "name": "7107ea3517a7c73f0227b7fd1045e356", "fusion_lon": 0.0, "bike_id": "7107ea3517a7c73f0227b7fd1045e356", "is_disabled": 0, "is_reserved": 0}, {"rental_uris": {"ios": "https://dc.lft.to/lastmile_qr_scan", "android": "https://dc.lft.to/lastmile_qr_scan"}, "lon": -77.02124816666667, "type": "electric_scooter", "fusion_lat": 0.0, "lat": 38.91606516666667, "name": "5e99519f98f9ac908e12651631d26312", "fusion_lon": 0.0, "bike_id": "5e99519f98f9ac908e12651631d26312", "is_disabled": 0, "is_reserved": 0}, {"rental_uris": {"ios": "https://dc.lft.to/lastmile_qr_scan", "android": "https://dc.lft.to/lastmile_qr_scan"}, "lon": -77.001206, "type": "electric_scooter", "fusion_lat": 0.0, "lat": 38.87797316666666, "name": "4016793ba8fa5e3792e9f439318888bc", "fusion_lon": 0.0, "bike_id": "4016793ba8fa5e3792e9f439318888bc", "is_disabled": 0, "is_reserved": 0}, {"rental_uris": {"ios": "https://dc.lft.to/lastmile_qr_scan", "android": "https://dc.lft.to/lastmile_qr_scan"}, "lon": -77.0237125, "type": "electric_scooter", "fusion_lat": 0.0, "lat": 38.9190365, "name": "f93e62b4e8230052eed41c6c8c42d752", "fusion_lon": 0.0, "bike_id": "f93e62b4e8230052eed41c6c8c42d752", "is_disabled": 0, "is_reserved": 0}, {"rental_uris": {"ios": "https://dc.lft.to/lastmile_qr_scan", "android": "https://dc.lft.to/lastmile_qr_scan"}, "lon": -77.02415483333333, "type": "electric_scooter", "fusion_lat": 0.0, "lat": 38.8921845, "name": "5a1f969d4f5db35b87b8a3480c2be6d2", "fusion_lon": 0.0, "bike_id": "5a1f969d4f5db35b87b8a3480c2be6d2", "is_disabled": 0, "is_reserved": 0}, {"rental_uris": {"ios": "https://dc.lft.to/lastmile_qr_scan", "android": "https://dc.lft.to/lastmile_qr_scan"}, "lon": -77.0296095, "type": "electric_scooter", "fusion_lat": 0.0, "lat": 38.88439316666667, "name": "f9d335224297be194697c2f735a8d45d", "fusion_lon": 0.0, "bike_id": "f9d335224297be194697c2f735a8d45d", "is_disabled": 0, "is_reserved": 0}, {"rental_uris": {"ios": "https://dc.lft.to/lastmile_qr_scan", "android": "https://dc.lft.to/lastmile_qr_scan"}, "lon": -77.04377733333334, "type": "electric_scooter", "fusion_lat": 0.0, "lat": 38.92068733333333, "name": "b4d936b3029a1e11cc9a1d673b4a90f1", "fusion_lon": 0.0, "bike_id": "b4d936b3029a1e11cc9a1d673b4a90f1", "is_disabled": 0, "is_reserved": 0}, {"rental_uris": {"ios": "https://dc.lft.to/lastmile_qr_scan", "android": "https://dc.lft.to/lastmile_qr_scan"}, "lon": -77.03218916666667, "type": "electric_scooter", "fusion_lat": 0.0, "lat": 38.925844166666664, "name": "fd9b50e84b04591ddb1ab9bf00569c30", "fusion_lon": 0.0, "bike_id": "fd9b50e84b04591ddb1ab9bf00569c30", "is_disabled": 0, "is_reserved": 0}, {"rental_uris": {"ios": "https://dc.lft.to/lastmile_qr_scan", "android": "https://dc.lft.to/lastmile_qr_scan"}, "lon": -76.9781065, "type": "electric_scooter", "fusion_lat": 0.0, "lat": 38.906709166666666, "name": "5f1bb15ce3517c256aa78963b4d722c2", "fusion_lon": 0.0, "bike_id": "5f1bb15ce3517c256aa78963b4d722c2", "is_disabled": 0, "is_reserved": 0}, {"rental_uris": {"ios": "https://dc.lft.to/lastmile_qr_scan", "android": "https://dc.lft.to/lastmile_qr_scan"}, "lon": -77.11204633333334, "type": "electric_bike", "fusion_lat": 0.0, "lat": 38.813045, "name": "9b08f60bb6e087328328376a1ebb430b", "fusion_lon": 0.0, "bike_id": "9b08f60bb6e087328328376a1ebb430b", "is_disabled": 0, "is_reserved": 0}, {"rental_uris": {"ios": "https://dc.lft.to/lastmile_qr_scan", "android": "https://dc.lft.to/lastmile_qr_scan"}, "lon": -77.1226005, "type": "electric_bike", "fusion_lat": 0.0, "lat": 38.891857333333334, "name": "8e4d0b4d6a899159cedf652893685c18", "fusion_lon": 0.0, "bike_id": "8e4d0b4d6a899159cedf652893685c18", "is_disabled": 0, "is_reserved": 0}, {"rental_uris": {"ios": "https://dc.lft.to/lastmile_qr_scan", "android": "https://dc.lft.to/lastmile_qr_scan"}, "lon": -76.93542666666667, "type": "electric_bike", "fusion_lat": 0.0, "lat": 38.955504833333336, "name": "bd0f345e95810e286270ef1835f5a023", "fusion_lon": 0.0, "bike_id": "bd0f345e95810e286270ef1835f5a023", "is_disabled": 0, "is_reserved": 0}, {"rental_uris": {"ios": "https://dc.lft.to/lastmile_qr_scan", "android": "https://dc.lft.to/lastmile_qr_scan"}, "lon": -77.03720716666666, "type": "electric_scooter", "fusion_lat": 0.0, "lat": 38.933583, "name": "c0fc224d20dab98745e12b3d41a57b21", "fusion_lon": 0.0, "bike_id": "c0fc224d20dab98745e12b3d41a57b21", "is_disabled": 0, "is_reserved": 0}, {"rental_uris": {"ios": "https://dc.lft.to/lastmile_qr_scan", "android": "https://dc.lft.to/lastmile_qr_scan"}, "lon": -77.076832, "type": "electric_bike", "fusion_lat": 0.0, "lat": 38.8319135, "name": "10678b0d37ce0dd00ef5c639e3bc46d3", "fusion_lon": 0.0, "bike_id": "10678b0d37ce0dd00ef5c639e3bc46d3", "is_disabled": 0, "is_reserved": 0}, {"rental_uris": {"ios": "https://dc.lft.to/lastmile_qr_scan", "android": "https://dc.lft.to/lastmile_qr_scan"}, "lon": -77.031947, "type": "electric_scooter", "fusion_lat": 0.0, "lat": 38.91652, "name": "a97e06790f105ab4f10ed9cdcaf9a7c5", "fusion_lon": 0.0, "bike_id": "a97e06790f105ab4f10ed9cdcaf9a7c5", "is_disabled": 0, "is_reserved": 0}, {"rental_uris": {"ios": "https://dc.lft.to/lastmile_qr_scan", "android": "https://dc.lft.to/lastmile_qr_scan"}, "lon": -77.05145183333333, "type": "electric_scooter", "fusion_lat": 0.0, "lat": 38.90233516666667, "name": "3d4ac11accd4881fd693ffba332c2bef", "fusion_lon": 0.0, "bike_id": "3d4ac11accd4881fd693ffba332c2bef", "is_disabled": 0, "is_reserved": 0}, {"rental_uris": {"ios": "https://dc.lft.to/lastmile_qr_scan", "android": "https://dc.lft.to/lastmile_qr_scan"}, "lon": -77.03329966666666, "type": "electric_scooter", "fusion_lat": 0.0, "lat": 38.928824666666664, "name": "604a6ac8b335884dd619984335f31057", "fusion_lon": 0.0, "bike_id": "604a6ac8b335884dd619984335f31057", "is_disabled": 0, "is_reserved": 0}, {"rental_uris": {"ios": "https://dc.lft.to/lastmile_qr_scan", "android": "https://dc.lft.to/lastmile_qr_scan"}, "lon": -77.031916, "type": "electric_scooter", "fusion_lat": 0.0, "lat": 38.916688, "name": "250fcb3e599cc2e6a5ac05ea016e206d", "fusion_lon": 0.0, "bike_id": "250fcb3e599cc2e6a5ac05ea016e206d", "is_disabled": 0, "is_reserved": 0}, {"rental_uris": {"ios": "https://dc.lft.to/lastmile_qr_scan", "android": "https://dc.lft.to/lastmile_qr_scan"}, "lon": -77.01228, "type": "electric_scooter", "fusion_lat": 0.0, "lat": 38.900307, "name": "c4f376b0a33972abe1a833dbf118e436", "fusion_lon": 0.0, "bike_id": "c4f376b0a33972abe1a833dbf118e436", "is_disabled": 0, "is_reserved": 0}, {"rental_uris": {"ios": "https://dc.lft.to/lastmile_qr_scan", "android": "https://dc.lft.to/lastmile_qr_scan"}, "lon": -76.99824683333334, "type": "electric_scooter", "fusion_lat": 0.0, "lat": 38.88117666666667, "name": "86cd0dd51bf14be5fae8dca668bd9220", "fusion_lon": 0.0, "bike_id": "86cd0dd51bf14be5fae8dca668bd9220", "is_disabled": 0, "is_reserved": 0}, {"rental_uris": {"ios": "https://dc.lft.to/lastmile_qr_scan", "android": "https://dc.lft.to/lastmile_qr_scan"}, "lon": -77.07774483333333, "type": "electric_scooter", "fusion_lat": 0.0, "lat": 38.9455865, "name": "ef1c454cb3d8b96a1be850a7dce6a708", "fusion_lon": 0.0, "bike_id": "ef1c454cb3d8b96a1be850a7dce6a708", "is_disabled": 0, "is_reserved": 0}, {"rental_uris": {"ios": "https://dc.lft.to/lastmile_qr_scan", "android": "https://dc.lft.to/lastmile_qr_scan"}, "lon": -77.0623515, "type": "electric_scooter", "fusion_lat": 0.0, "lat": 38.90683083333333, "name": "ec359ecfa2e87af7e94c41970e1a9385", "fusion_lon": 0.0, "bike_id": "ec359ecfa2e87af7e94c41970e1a9385", "is_disabled": 0, "is_reserved": 0}, {"rental_uris": {"ios": "https://dc.lft.to/lastmile_qr_scan", "android": "https://dc.lft.to/lastmile_qr_scan"}, "lon": -77.0026105, "type": "electric_scooter", "fusion_lat": 0.0, "lat": 38.898947166666666, "name": "a5de221d45a1afaedfe611a75beeae67", "fusion_lon": 0.0, "bike_id": "a5de221d45a1afaedfe611a75beeae67", "is_disabled": 0, "is_reserved": 0}, {"rental_uris": {"ios": "https://dc.lft.to/lastmile_qr_scan", "android": "https://dc.lft.to/lastmile_qr_scan"}, "lon": -76.98950383333333, "type": "electric_scooter", "fusion_lat": 0.0, "lat": 38.90135866666667, "name": "1fe640bafe69325ec39d55b600ea2331", "fusion_lon": 0.0, "bike_id": "1fe640bafe69325ec39d55b600ea2331", "is_disabled": 0, "is_reserved": 0}, {"rental_uris": {"ios": "https://dc.lft.to/lastmile_qr_scan", "android": "https://dc.lft.to/lastmile_qr_scan"}, "lon": -77.0379905, "type": "electric_scooter", "fusion_lat": 0.0, "lat": 38.926311, "name": "9e5ab3cc8e3521fd5d1dc345be2b3975", "fusion_lon": 0.0, "bike_id": "9e5ab3cc8e3521fd5d1dc345be2b3975", "is_disabled": 0, "is_reserved": 0}, {"rental_uris": {"ios": "https://dc.lft.to/lastmile_qr_scan", "android": "https://dc.lft.to/lastmile_qr_scan"}, "lon": -77.0154995, "type": "electric_scooter", "fusion_lat": 0.0, "lat": 38.89169533333333, "name": "6aa01cffc43b88c3360fb941a9b2b9f4", "fusion_lon": 0.0, "bike_id": "6aa01cffc43b88c3360fb941a9b2b9f4", "is_disabled": 0, "is_reserved": 0}, {"rental_uris": {"ios": "https://dc.lft.to/lastmile_qr_scan", "android": "https://dc.lft.to/lastmile_qr_scan"}, "lon": -77.01975133333333, "type": "electric_scooter", "fusion_lat": 0.0, "lat": 38.88741816666667, "name": "db099d7f07f629003a72934afc0b25c3", "fusion_lon": 0.0, "bike_id": "db099d7f07f629003a72934afc0b25c3", "is_disabled": 0, "is_reserved": 0}, {"rental_uris": {"ios": "https://dc.lft.to/lastmile_qr_scan", "android": "https://dc.lft.to/lastmile_qr_scan"}, "lon": -77.03844033333333, "type": "electric_scooter", "fusion_lat": 0.0, "lat": 38.910518333333336, "name": "5d682a7243df1e0cb76580f8dd5e26b7", "fusion_lon": 0.0, "bike_id": "5d682a7243df1e0cb76580f8dd5e26b7", "is_disabled": 0, "is_reserved": 0}, {"rental_uris": {"ios": "https://dc.lft.to/lastmile_qr_scan", "android": "https://dc.lft.to/lastmile_qr_scan"}, "lon": -77.103319, "type": "electric_bike", "fusion_lat": 0.0, "lat": 38.85225066666667, "name": "432f256fc20f24e7b72be5c837398d60", "fusion_lon": 0.0, "bike_id": "432f256fc20f24e7b72be5c837398d60", "is_disabled": 0, "is_reserved": 0}, {"rental_uris": {"ios": "https://dc.lft.to/lastmile_qr_scan", "android": "https://dc.lft.to/lastmile_qr_scan"}, "lon": -77.0375935, "type": "electric_scooter", "fusion_lat": 0.0, "lat": 38.916910333333334, "name": "76905d75cc0dd85163294b4679c1f666", "fusion_lon": 0.0, "bike_id": "76905d75cc0dd85163294b4679c1f666", "is_disabled": 0, "is_reserved": 0}, {"rental_uris": {"ios": "https://dc.lft.to/lastmile_qr_scan", "android": "https://dc.lft.to/lastmile_qr_scan"}, "lon": -77.0273105, "type": "electric_scooter", "fusion_lat": 0.0, "lat": 38.8816085, "name": "2d8df0e528209fc000fc6de4d33312b8", "fusion_lon": 0.0, "bike_id": "2d8df0e528209fc000fc6de4d33312b8", "is_disabled": 0, "is_reserved": 0}, {"rental_uris": {"ios": "https://dc.lft.to/lastmile_qr_scan", "android": "https://dc.lft.to/lastmile_qr_scan"}, "lon": -77.03001216666667, "type": "electric_scooter", "fusion_lat": 0.0, "lat": 38.89746483333333, "name": "824243a43316d21aeaa1a6b8d8cc6780", "fusion_lon": 0.0, "bike_id": "824243a43316d21aeaa1a6b8d8cc6780", "is_disabled": 0, "is_reserved": 0}, {"rental_uris": {"ios": "https://dc.lft.to/lastmile_qr_scan", "android": "https://dc.lft.to/lastmile_qr_scan"}, "lon": -77.00136116666667, "type": "electric_scooter", "fusion_lat": 0.0, "lat": 38.9040935, "name": "aa4cedeef0c3e5781db331033ac66a08", "fusion_lon": 0.0, "bike_id": "aa4cedeef0c3e5781db331033ac66a08", "is_disabled": 0, "is_reserved": 0}, {"rental_uris": {"ios": "https://dc.lft.to/lastmile_qr_scan", "android": "https://dc.lft.to/lastmile_qr_scan"}, "lon": -76.92723416666666, "type": "electric_scooter", "fusion_lat": 0.0, "lat": 38.880375, "name": "f27698a4f02bed52598569e9f34d6a71", "fusion_lon": 0.0, "bike_id": "f27698a4f02bed52598569e9f34d6a71", "is_disabled": 0, "is_reserved": 0}, {"rental_uris": {"ios": "https://dc.lft.to/lastmile_qr_scan", "android": "https://dc.lft.to/lastmile_qr_scan"}, "lon": -77.00879166666667, "type": "electric_scooter", "fusion_lat": 0.0, "lat": 38.91400933333333, "name": "bab15de45cc94eb7eacf92ae778cca71", "fusion_lon": 0.0, "bike_id": "bab15de45cc94eb7eacf92ae778cca71", "is_disabled": 0, "is_reserved": 0}, {"rental_uris": {"ios": "https://dc.lft.to/lastmile_qr_scan", "android": "https://dc.lft.to/lastmile_qr_scan"}, "lon": -77.022116, "type": "electric_scooter", "fusion_lat": 0.0, "lat": 38.90566833333333, "name": "4b0a55e2aed124b4bcdd0b84387d9d94", "fusion_lon": 0.0, "bike_id": "4b0a55e2aed124b4bcdd0b84387d9d94", "is_disabled": 0, "is_reserved": 0}, {"rental_uris": {"ios": "https://dc.lft.to/lastmile_qr_scan", "android": "https://dc.lft.to/lastmile_qr_scan"}, "lon": -77.02975616666667, "type": "electric_scooter", "fusion_lat": 0.0, "lat": 38.962272666666664, "name": "0b908cfe9fc2b46d8db819442b6d8112", "fusion_lon": 0.0, "bike_id": "0b908cfe9fc2b46d8db819442b6d8112", "is_disabled": 0, "is_reserved": 0}, {"rental_uris": {"ios": "https://dc.lft.to/lastmile_qr_scan", "android": "https://dc.lft.to/lastmile_qr_scan"}, "lon": -76.92589116666667, "type": "electric_scooter", "fusion_lat": 0.0, "lat": 38.897308333333335, "name": "5284fecff624c558ad6c85da76204d13", "fusion_lon": 0.0, "bike_id": "5284fecff624c558ad6c85da76204d13", "is_disabled": 0, "is_reserved": 0}, {"rental_uris": {"ios": "https://dc.lft.to/lastmile_qr_scan", "android": "https://dc.lft.to/lastmile_qr_scan"}, "lon": -77.01271416666667, "type": "electric_bike", "fusion_lat": 0.0, "lat": 38.88118733333334, "name": "3966d2a059b0a466135bc4e6da2a628e", "fusion_lon": 0.0, "bike_id": "3966d2a059b0a466135bc4e6da2a628e", "is_disabled": 0, "is_reserved": 0}, {"rental_uris": {"ios": "https://dc.lft.to/lastmile_qr_scan", "android": "https://dc.lft.to/lastmile_qr_scan"}, "lon": -77.00709516666667, "type": "electric_scooter", "fusion_lat": 0.0, "lat": 38.8848885, "name": "16ebae6aed44dd28a09bf5e5670fce26", "fusion_lon": 0.0, "bike_id": "16ebae6aed44dd28a09bf5e5670fce26", "is_disabled": 0, "is_reserved": 0}, {"rental_uris": {"ios": "https://dc.lft.to/lastmile_qr_scan", "android": "https://dc.lft.to/lastmile_qr_scan"}, "lon": -77.02217966666667, "type": "electric_scooter", "fusion_lat": 0.0, "lat": 38.892197333333336, "name": "053ebc9195c66a5fabf03bcbca4e56d9", "fusion_lon": 0.0, "bike_id": "053ebc9195c66a5fabf03bcbca4e56d9", "is_disabled": 0, "is_reserved": 0}, {"rental_uris": {"ios": "https://dc.lft.to/lastmile_qr_scan", "android": "https://dc.lft.to/lastmile_qr_scan"}, "lon": -77.0423475, "type": "electric_scooter", "fusion_lat": 0.0, "lat": 38.91109516666667, "name": "5a84cf4c152203baba75347f4e64e2df", "fusion_lon": 0.0, "bike_id": "5a84cf4c152203baba75347f4e64e2df", "is_disabled": 0, "is_reserved": 0}, {"rental_uris": {"ios": "https://dc.lft.to/lastmile_qr_scan", "android": "https://dc.lft.to/lastmile_qr_scan"}, "lon": -76.98816066666667, "type": "electric_scooter", "fusion_lat": 0.0, "lat": 38.90336283333333, "name": "5667284d826509b85efb3cd41f5088b3", "fusion_lon": 0.0, "bike_id": "5667284d826509b85efb3cd41f5088b3", "is_disabled": 0, "is_reserved": 0}, {"rental_uris": {"ios": "https://dc.lft.to/lastmile_qr_scan", "android": "https://dc.lft.to/lastmile_qr_scan"}, "lon": -77.02751166666667, "type": "electric_scooter", "fusion_lat": 0.0, "lat": 38.9237995, "name": "6318e2ce8cfc19056f3c8db6a33722a4", "fusion_lon": 0.0, "bike_id": "6318e2ce8cfc19056f3c8db6a33722a4", "is_disabled": 0, "is_reserved": 0}, {"rental_uris": {"ios": "https://dc.lft.to/lastmile_qr_scan", "android": "https://dc.lft.to/lastmile_qr_scan"}, "lon": -76.9329945, "type": "electric_scooter", "fusion_lat": 0.0, "lat": 38.898777, "name": "cb46a9da7daeebc67abfbf7eebebb31d", "fusion_lon": 0.0, "bike_id": "cb46a9da7daeebc67abfbf7eebebb31d", "is_disabled": 0, "is_reserved": 0}, {"rental_uris": {"ios": "https://dc.lft.to/lastmile_qr_scan", "android": "https://dc.lft.to/lastmile_qr_scan"}, "lon": -77.09553716666667, "type": "electric_scooter", "fusion_lat": 0.0, "lat": 38.91656066666667, "name": "853675790bb2d83ed0d92f91d50bf8fb", "fusion_lon": 0.0, "bike_id": "853675790bb2d83ed0d92f91d50bf8fb", "is_disabled": 0, "is_reserved": 0}, {"rental_uris": {"ios": "https://dc.lft.to/lastmile_qr_scan", "android": "https://dc.lft.to/lastmile_qr_scan"}, "lon": -77.03287433333334, "type": "electric_scooter", "fusion_lat": 0.0, "lat": 38.900192833333335, "name": "190686d4d9c0b75227e95745f22cb8bd", "fusion_lon": 0.0, "bike_id": "190686d4d9c0b75227e95745f22cb8bd", "is_disabled": 0, "is_reserved": 0}, {"rental_uris": {"ios": "https://dc.lft.to/lastmile_qr_scan", "android": "https://dc.lft.to/lastmile_qr_scan"}, "lon": -76.98580816666667, "type": "electric_scooter", "fusion_lat": 0.0, "lat": 38.90658833333333, "name": "8f8628c79674ef7c945c9540201731f9", "fusion_lon": 0.0, "bike_id": "8f8628c79674ef7c945c9540201731f9", "is_disabled": 0, "is_reserved": 0}, {"rental_uris": {"ios": "https://dc.lft.to/lastmile_qr_scan", "android": "https://dc.lft.to/lastmile_qr_scan"}, "lon": -77.0217325, "type": "electric_scooter", "fusion_lat": 0.0, "lat": 38.8947735, "name": "049e87d81a010ba6a20d0e7c935f3ce6", "fusion_lon": 0.0, "bike_id": "049e87d81a010ba6a20d0e7c935f3ce6", "is_disabled": 0, "is_reserved": 0}, {"rental_uris": {"ios": "https://dc.lft.to/lastmile_qr_scan", "android": "https://dc.lft.to/lastmile_qr_scan"}, "lon": -77.01759416666667, "type": "electric_scooter", "fusion_lat": 0.0, "lat": 38.876858666666664, "name": "8f0fc04b1567fe810ed0e04584178851", "fusion_lon": 0.0, "bike_id": "8f0fc04b1567fe810ed0e04584178851", "is_disabled": 0, "is_reserved": 0}, {"rental_uris": {"ios": "https://dc.lft.to/lastmile_qr_scan", "android": "https://dc.lft.to/lastmile_qr_scan"}, "lon": -77.000624, "type": "electric_scooter", "fusion_lat": 0.0, "lat": 38.90679166666666, "name": "82f777b346e53400b3d613cdd53c10ad", "fusion_lon": 0.0, "bike_id": "82f777b346e53400b3d613cdd53c10ad", "is_disabled": 0, "is_reserved": 0}, {"rental_uris": {"ios": "https://dc.lft.to/lastmile_qr_scan", "android": "https://dc.lft.to/lastmile_qr_scan"}, "lon": -77.012194, "type": "electric_scooter", "fusion_lat": 0.0, "lat": 38.9097675, "name": "0bee4a50e077019c124da2913179dba3", "fusion_lon": 0.0, "bike_id": "0bee4a50e077019c124da2913179dba3", "is_disabled": 0, "is_reserved": 0}, {"rental_uris": {"ios": "https://dc.lft.to/lastmile_qr_scan", "android": "https://dc.lft.to/lastmile_qr_scan"}, "lon": -77.0453535, "type": "electric_bike", "fusion_lat": 0.0, "lat": 38.920044833333336, "name": "f1d32d8913228a873c9a7e68dc3f5043", "fusion_lon": 0.0, "bike_id": "f1d32d8913228a873c9a7e68dc3f5043", "is_disabled": 0, "is_reserved": 0}, {"rental_uris": {"ios": "https://dc.lft.to/lastmile_qr_scan", "android": "https://dc.lft.to/lastmile_qr_scan"}, "lon": -77.05860733333333, "type": "electric_scooter", "fusion_lat": 0.0, "lat": 38.93605383333333, "name": "f49edde8a3350a4de40eb278992df73e", "fusion_lon": 0.0, "bike_id": "f49edde8a3350a4de40eb278992df73e", "is_disabled": 0, "is_reserved": 0}, {"rental_uris": {"ios": "https://dc.lft.to/lastmile_qr_scan", "android": "https://dc.lft.to/lastmile_qr_scan"}, "lon": -77.16234466666667, "type": "electric_bike", "fusion_lat": 0.0, "lat": 38.88655333333333, "name": "f7fa216e25426908cb9df1aefb597eb7", "fusion_lon": 0.0, "bike_id": "f7fa216e25426908cb9df1aefb597eb7", "is_disabled": 0, "is_reserved": 0}, {"rental_uris": {"ios": "https://dc.lft.to/lastmile_qr_scan", "android": "https://dc.lft.to/lastmile_qr_scan"}, "lon": -77.01064766666667, "type": "electric_scooter", "fusion_lat": 0.0, "lat": 38.87475216666667, "name": "d6612f2f910e7636f37620e9d8b5bf85", "fusion_lon": 0.0, "bike_id": "d6612f2f910e7636f37620e9d8b5bf85", "is_disabled": 0, "is_reserved": 0}, {"rental_uris": {"ios": "https://dc.lft.to/lastmile_qr_scan", "android": "https://dc.lft.to/lastmile_qr_scan"}, "lon": -77.02798983333334, "type": "electric_scooter", "fusion_lat": 0.0, "lat": 38.910646666666665, "name": "208ed188cbd1d77c94c8acf8d9936fe8", "fusion_lon": 0.0, "bike_id": "208ed188cbd1d77c94c8acf8d9936fe8", "is_disabled": 0, "is_reserved": 0}, {"rental_uris": {"ios": "https://dc.lft.to/lastmile_qr_scan", "android": "https://dc.lft.to/lastmile_qr_scan"}, "lon": -77.02791666666667, "type": "electric_scooter", "fusion_lat": 0.0, "lat": 38.88734083333333, "name": "586440708d986d56338d1be1894beb91", "fusion_lon": 0.0, "bike_id": "586440708d986d56338d1be1894beb91", "is_disabled": 0, "is_reserved": 0}, {"rental_uris": {"ios": "https://dc.lft.to/lastmile_qr_scan", "android": "https://dc.lft.to/lastmile_qr_scan"}, "lon": -76.99006966666667, "type": "electric_scooter", "fusion_lat": 0.0, "lat": 38.9039555, "name": "4063c91fbacbdfae6ef1e8e79815cf6b", "fusion_lon": 0.0, "bike_id": "4063c91fbacbdfae6ef1e8e79815cf6b", "is_disabled": 0, "is_reserved": 0}, {"rental_uris": {"ios": "https://dc.lft.to/lastmile_qr_scan", "android": "https://dc.lft.to/lastmile_qr_scan"}, "lon": -77.03984633333333, "type": "electric_scooter", "fusion_lat": 0.0, "lat": 38.89220483333333, "name": "3b9a565441e35a35cc40bbb42ad1f42a", "fusion_lon": 0.0, "bike_id": "3b9a565441e35a35cc40bbb42ad1f42a", "is_disabled": 0, "is_reserved": 0}, {"rental_uris": {"ios": "https://dc.lft.to/lastmile_qr_scan", "android": "https://dc.lft.to/lastmile_qr_scan"}, "lon": -77.03289333333333, "type": "electric_scooter", "fusion_lat": 0.0, "lat": 38.90968266666667, "name": "e78ec2bead44f451cb1a1f438a58ea80", "fusion_lon": 0.0, "bike_id": "e78ec2bead44f451cb1a1f438a58ea80", "is_disabled": 0, "is_reserved": 0}, {"rental_uris": {"ios": "https://dc.lft.to/lastmile_qr_scan", "android": "https://dc.lft.to/lastmile_qr_scan"}, "lon": -77.00976533333333, "type": "electric_scooter", "fusion_lat": 0.0, "lat": 38.91415883333333, "name": "a02726597065b497e896397603840fcc", "fusion_lon": 0.0, "bike_id": "a02726597065b497e896397603840fcc", "is_disabled": 0, "is_reserved": 0}, {"rental_uris": {"ios": "https://dc.lft.to/lastmile_qr_scan", "android": "https://dc.lft.to/lastmile_qr_scan"}, "lon": -76.9166105, "type": "electric_bike", "fusion_lat": 0.0, "lat": 38.86867566666667, "name": "e1d9ba31f4fd4ab1d885c530a8890f8c", "fusion_lon": 0.0, "bike_id": "e1d9ba31f4fd4ab1d885c530a8890f8c", "is_disabled": 0, "is_reserved": 0}, {"rental_uris": {"ios": "https://dc.lft.to/lastmile_qr_scan", "android": "https://dc.lft.to/lastmile_qr_scan"}, "lon": -76.94855266666667, "type": "electric_scooter", "fusion_lat": 0.0, "lat": 38.89587216666666, "name": "4e5fadffcac250817bb15be46d5b0378", "fusion_lon": 0.0, "bike_id": "4e5fadffcac250817bb15be46d5b0378", "is_disabled": 0, "is_reserved": 0}, {"rental_uris": {"ios": "https://dc.lft.to/lastmile_qr_scan", "android": "https://dc.lft.to/lastmile_qr_scan"}, "lon": -77.03671966666667, "type": "electric_scooter", "fusion_lat": 0.0, "lat": 38.92986916666667, "name": "6f0648dc1a57b4f788c78ad813049eba", "fusion_lon": 0.0, "bike_id": "6f0648dc1a57b4f788c78ad813049eba", "is_disabled": 0, "is_reserved": 0}, {"rental_uris": {"ios": "https://dc.lft.to/lastmile_qr_scan", "android": "https://dc.lft.to/lastmile_qr_scan"}, "lon": -77.04595333333333, "type": "electric_scooter", "fusion_lat": 0.0, "lat": 38.90241983333333, "name": "22ebf95737b6a1c560822ad1fdd64f49", "fusion_lon": 0.0, "bike_id": "22ebf95737b6a1c560822ad1fdd64f49", "is_disabled": 0, "is_reserved": 0}, {"rental_uris": {"ios": "https://dc.lft.to/lastmile_qr_scan", "android": "https://dc.lft.to/lastmile_qr_scan"}, "lon": -77.02453016666666, "type": "electric_scooter", "fusion_lat": 0.0, "lat": 38.979330166666664, "name": "8704072edda006e63ccbfaef0bf6c3fa", "fusion_lon": 0.0, "bike_id": "8704072edda006e63ccbfaef0bf6c3fa", "is_disabled": 0, "is_reserved": 0}, {"rental_uris": {"ios": "https://dc.lft.to/lastmile_qr_scan", "android": "https://dc.lft.to/lastmile_qr_scan"}, "lon": -76.97330883333333, "type": "electric_bike", "fusion_lat": 0.0, "lat": 38.850568, "name": "6cd2a439a909e23267701d99ccd44647", "fusion_lon": 0.0, "bike_id": "6cd2a439a909e23267701d99ccd44647", "is_disabled": 0, "is_reserved": 0}, {"rental_uris": {"ios": "https://dc.lft.to/lastmile_qr_scan", "android": "https://dc.lft.to/lastmile_qr_scan"}, "lon": -77.0322245, "type": "electric_scooter", "fusion_lat": 0.0, "lat": 38.9387445, "name": "b43b8c735bab6154e89476adad0daaec", "fusion_lon": 0.0, "bike_id": "b43b8c735bab6154e89476adad0daaec", "is_disabled": 0, "is_reserved": 0}, {"rental_uris": {"ios": "https://dc.lft.to/lastmile_qr_scan", "android": "https://dc.lft.to/lastmile_qr_scan"}, "lon": -77.05033016666667, "type": "electric_scooter", "fusion_lat": 0.0, "lat": 38.89656516666667, "name": "52335b4dd75d08a0c09fad9522b0c843", "fusion_lon": 0.0, "bike_id": "52335b4dd75d08a0c09fad9522b0c843", "is_disabled": 0, "is_reserved": 0}, {"rental_uris": {"ios": "https://dc.lft.to/lastmile_qr_scan", "android": "https://dc.lft.to/lastmile_qr_scan"}, "lon": -77.04683916666667, "type": "electric_scooter", "fusion_lat": 0.0, "lat": 38.89602216666667, "name": "5373d85560f8c64f4f16b6b0cb504a45", "fusion_lon": 0.0, "bike_id": "5373d85560f8c64f4f16b6b0cb504a45", "is_disabled": 0, "is_reserved": 0}, {"rental_uris": {"ios": "https://dc.lft.to/lastmile_qr_scan", "android": "https://dc.lft.to/lastmile_qr_scan"}, "lon": -77.06521966666666, "type": "electric_scooter", "fusion_lat": 0.0, "lat": 38.9053165, "name": "7dc5ed037938c695dcb4cc9cbb796014", "fusion_lon": 0.0, "bike_id": "7dc5ed037938c695dcb4cc9cbb796014", "is_disabled": 0, "is_reserved": 0}, {"rental_uris": {"ios": "https://dc.lft.to/lastmile_qr_scan", "android": "https://dc.lft.to/lastmile_qr_scan"}, "lon": -77.063634, "type": "electric_scooter", "fusion_lat": 0.0, "lat": 38.90928483333333, "name": "90b49af1b08261766009710c8e282401", "fusion_lon": 0.0, "bike_id": "90b49af1b08261766009710c8e282401", "is_disabled": 0, "is_reserved": 0}, {"rental_uris": {"ios": "https://dc.lft.to/lastmile_qr_scan", "android": "https://dc.lft.to/lastmile_qr_scan"}, "lon": -77.04367916666666, "type": "electric_scooter", "fusion_lat": 0.0, "lat": 38.921121, "name": "2d4f80fad171cb0c7092e800ce299aa3", "fusion_lon": 0.0, "bike_id": "2d4f80fad171cb0c7092e800ce299aa3", "is_disabled": 0, "is_reserved": 0}, {"rental_uris": {"ios": "https://dc.lft.to/lastmile_qr_scan", "android": "https://dc.lft.to/lastmile_qr_scan"}, "lon": -77.05417866666667, "type": "electric_scooter", "fusion_lat": 0.0, "lat": 38.928321333333336, "name": "8e05227607f85991396d172f71aa74c8", "fusion_lon": 0.0, "bike_id": "8e05227607f85991396d172f71aa74c8", "is_disabled": 0, "is_reserved": 0}, {"rental_uris": {"ios": "https://dc.lft.to/lastmile_qr_scan", "android": "https://dc.lft.to/lastmile_qr_scan"}, "lon": -76.97725366666667, "type": "electric_scooter", "fusion_lat": 0.0, "lat": 38.87245, "name": "e9f4454749e0c7a545cf8022c7ef50a2", "fusion_lon": 0.0, "bike_id": "e9f4454749e0c7a545cf8022c7ef50a2", "is_disabled": 0, "is_reserved": 0}, {"rental_uris": {"ios": "https://dc.lft.to/lastmile_qr_scan", "android": "https://dc.lft.to/lastmile_qr_scan"}, "lon": -77.02467466666667, "type": "electric_scooter", "fusion_lat": 0.0, "lat": 38.938445333333334, "name": "d9681985e5870214d2216883d48a8483", "fusion_lon": 0.0, "bike_id": "d9681985e5870214d2216883d48a8483", "is_disabled": 0, "is_reserved": 0}, {"rental_uris": {"ios": "https://dc.lft.to/lastmile_qr_scan", "android": "https://dc.lft.to/lastmile_qr_scan"}, "lon": -76.99809033333334, "type": "electric_scooter", "fusion_lat": 0.0, "lat": 38.908725833333335, "name": "da865106b53d8e07e0fc7efe887232a3", "fusion_lon": 0.0, "bike_id": "da865106b53d8e07e0fc7efe887232a3", "is_disabled": 0, "is_reserved": 0}, {"rental_uris": {"ios": "https://dc.lft.to/lastmile_qr_scan", "android": "https://dc.lft.to/lastmile_qr_scan"}, "lon": -76.98087716666667, "type": "electric_bike", "fusion_lat": 0.0, "lat": 38.902832333333336, "name": "b03d7c02acfc3db4380f7c942b60b48a", "fusion_lon": 0.0, "bike_id": "b03d7c02acfc3db4380f7c942b60b48a", "is_disabled": 0, "is_reserved": 0}, {"rental_uris": {"ios": "https://dc.lft.to/lastmile_qr_scan", "android": "https://dc.lft.to/lastmile_qr_scan"}, "lon": -77.00646183333333, "type": "electric_scooter", "fusion_lat": 0.0, "lat": 38.87631916666667, "name": "9679d852d133fb2f26401f89acc3b0be", "fusion_lon": 0.0, "bike_id": "9679d852d133fb2f26401f89acc3b0be", "is_disabled": 0, "is_reserved": 0}, {"rental_uris": {"ios": "https://dc.lft.to/lastmile_qr_scan", "android": "https://dc.lft.to/lastmile_qr_scan"}, "lon": -77.0790665, "type": "electric_bike", "fusion_lat": 0.0, "lat": 38.83932, "name": "bae2211c1f5569abb17103955314d2a4", "fusion_lon": 0.0, "bike_id": "bae2211c1f5569abb17103955314d2a4", "is_disabled": 0, "is_reserved": 0}, {"rental_uris": {"ios": "https://dc.lft.to/lastmile_qr_scan", "android": "https://dc.lft.to/lastmile_qr_scan"}, "lon": -76.93619, "type": "electric_bike", "fusion_lat": 0.0, "lat": 38.970468833333335, "name": "aec7d406980e2c123d1c35bdb7517304", "fusion_lon": 0.0, "bike_id": "aec7d406980e2c123d1c35bdb7517304", "is_disabled": 0, "is_reserved": 0}, {"rental_uris": {"ios": "https://dc.lft.to/lastmile_qr_scan", "android": "https://dc.lft.to/lastmile_qr_scan"}, "lon": -76.999685, "type": "electric_scooter", "fusion_lat": 0.0, "lat": 38.901363833333335, "name": "18fb009cee3d086cf88a8b821d7f3ddc", "fusion_lon": 0.0, "bike_id": "18fb009cee3d086cf88a8b821d7f3ddc", "is_disabled": 0, "is_reserved": 0}, {"rental_uris": {"ios": "https://dc.lft.to/lastmile_qr_scan", "android": "https://dc.lft.to/lastmile_qr_scan"}, "lon": -77.050984, "type": "electric_scooter", "fusion_lat": 0.0, "lat": 38.90525866666667, "name": "b3ab63c9ec1686cfe7c3c4cdbdc8f7da", "fusion_lon": 0.0, "bike_id": "b3ab63c9ec1686cfe7c3c4cdbdc8f7da", "is_disabled": 0, "is_reserved": 0}, {"rental_uris": {"ios": "https://dc.lft.to/lastmile_qr_scan", "android": "https://dc.lft.to/lastmile_qr_scan"}, "lon": -77.05499783333333, "type": "electric_scooter", "fusion_lat": 0.0, "lat": 38.929709333333335, "name": "9947b12eaec8c79ae44950c0b202bdfc", "fusion_lon": 0.0, "bike_id": "9947b12eaec8c79ae44950c0b202bdfc", "is_disabled": 0, "is_reserved": 0}, {"rental_uris": {"ios": "https://dc.lft.to/lastmile_qr_scan", "android": "https://dc.lft.to/lastmile_qr_scan"}, "lon": -77.125051, "type": "electric_bike", "fusion_lat": 0.0, "lat": 39.02414666666667, "name": "ffd2db0aa5e2397236f1758b1665f962", "fusion_lon": 0.0, "bike_id": "ffd2db0aa5e2397236f1758b1665f962", "is_disabled": 0, "is_reserved": 0}, {"rental_uris": {"ios": "https://dc.lft.to/lastmile_qr_scan", "android": "https://dc.lft.to/lastmile_qr_scan"}, "lon": -77.0411895, "type": "electric_scooter", "fusion_lat": 0.0, "lat": 38.900004833333334, "name": "d4c7b6926f2cdc38a4cc800207a99c36", "fusion_lon": 0.0, "bike_id": "d4c7b6926f2cdc38a4cc800207a99c36", "is_disabled": 0, "is_reserved": 0}, {"rental_uris": {"ios": "https://dc.lft.to/lastmile_qr_scan", "android": "https://dc.lft.to/lastmile_qr_scan"}, "lon": -76.95759333333334, "type": "electric_scooter", "fusion_lat": 0.0, "lat": 38.884307, "name": "f0f2a4adab389e02e2d31ea555408635", "fusion_lon": 0.0, "bike_id": "f0f2a4adab389e02e2d31ea555408635", "is_disabled": 0, "is_reserved": 0}, {"rental_uris": {"ios": "https://dc.lft.to/lastmile_qr_scan", "android": "https://dc.lft.to/lastmile_qr_scan"}, "lon": -77.03406083333333, "type": "electric_scooter", "fusion_lat": 0.0, "lat": 38.92265666666667, "name": "654402c444424b33992feef342e8e04e", "fusion_lon": 0.0, "bike_id": "654402c444424b33992feef342e8e04e", "is_disabled": 0, "is_reserved": 0}, {"rental_uris": {"ios": "https://dc.lft.to/lastmile_qr_scan", "android": "https://dc.lft.to/lastmile_qr_scan"}, "lon": -77.05211583333333, "type": "electric_scooter", "fusion_lat": 0.0, "lat": 38.92587416666667, "name": "71e7527561fc5d9a2e9ee07d26d2f20e", "fusion_lon": 0.0, "bike_id": "71e7527561fc5d9a2e9ee07d26d2f20e", "is_disabled": 0, "is_reserved": 0}, {"rental_uris": {"ios": "https://dc.lft.to/lastmile_qr_scan", "android": "https://dc.lft.to/lastmile_qr_scan"}, "lon": -77.043829, "type": "electric_scooter", "fusion_lat": 0.0, "lat": 38.916583333333335, "name": "8263d21a5d12c19d8c309ec3674d09f5", "fusion_lon": 0.0, "bike_id": "8263d21a5d12c19d8c309ec3674d09f5", "is_disabled": 0, "is_reserved": 0}, {"rental_uris": {"ios": "https://dc.lft.to/lastmile_qr_scan", "android": "https://dc.lft.to/lastmile_qr_scan"}, "lon": -77.024831, "type": "electric_scooter", "fusion_lat": 0.0, "lat": 38.9171755, "name": "b735d5c4e88303379713234a926bf9f7", "fusion_lon": 0.0, "bike_id": "b735d5c4e88303379713234a926bf9f7", "is_disabled": 0, "is_reserved": 0}, {"rental_uris": {"ios": "https://dc.lft.to/lastmile_qr_scan", "android": "https://dc.lft.to/lastmile_qr_scan"}, "lon": -77.03867383333333, "type": "electric_scooter", "fusion_lat": 0.0, "lat": 38.92023916666667, "name": "0b0761731076bf7c8badf6c86453eea4", "fusion_lon": 0.0, "bike_id": "0b0761731076bf7c8badf6c86453eea4", "is_disabled": 0, "is_reserved": 0}, {"rental_uris": {"ios": "https://dc.lft.to/lastmile_qr_scan", "android": "https://dc.lft.to/lastmile_qr_scan"}, "lon": -77.03525083333334, "type": "electric_bike", "fusion_lat": 0.0, "lat": 38.965373, "name": "d120cbf5a9d13ee24787f1828672b7fd", "fusion_lon": 0.0, "bike_id": "d120cbf5a9d13ee24787f1828672b7fd", "is_disabled": 0, "is_reserved": 0}, {"rental_uris": {"ios": "https://dc.lft.to/lastmile_qr_scan", "android": "https://dc.lft.to/lastmile_qr_scan"}, "lon": -77.0651935, "type": "electric_bike", "fusion_lat": 0.0, "lat": 38.904508, "name": "1afc821264f149dfd6bc9780fc6a3081", "fusion_lon": 0.0, "bike_id": "1afc821264f149dfd6bc9780fc6a3081", "is_disabled": 0, "is_reserved": 0}, {"rental_uris": {"ios": "https://dc.lft.to/lastmile_qr_scan", "android": "https://dc.lft.to/lastmile_qr_scan"}, "lon": -77.04042616666666, "type": "electric_scooter", "fusion_lat": 0.0, "lat": 38.902702166666664, "name": "3fc693826f902fbe14bdd1499dec947e", "fusion_lon": 0.0, "bike_id": "3fc693826f902fbe14bdd1499dec947e", "is_disabled": 0, "is_reserved": 0}, {"rental_uris": {"ios": "https://dc.lft.to/lastmile_qr_scan", "android": "https://dc.lft.to/lastmile_qr_scan"}, "lon": -77.01768616666666, "type": "electric_scooter", "fusion_lat": 0.0, "lat": 38.8772595, "name": "e9f612691ae2e7c0ff0acc4ad754aa8e", "fusion_lon": 0.0, "bike_id": "e9f612691ae2e7c0ff0acc4ad754aa8e", "is_disabled": 0, "is_reserved": 0}, {"rental_uris": {"ios": "https://dc.lft.to/lastmile_qr_scan", "android": "https://dc.lft.to/lastmile_qr_scan"}, "lon": -77.01823416666667, "type": "electric_scooter", "fusion_lat": 0.0, "lat": 38.900667, "name": "23be294df040c8153f5ecf13a81e2b7a", "fusion_lon": 0.0, "bike_id": "23be294df040c8153f5ecf13a81e2b7a", "is_disabled": 0, "is_reserved": 0}, {"rental_uris": {"ios": "https://dc.lft.to/lastmile_qr_scan", "android": "https://dc.lft.to/lastmile_qr_scan"}, "lon": -77.03262816666667, "type": "electric_scooter", "fusion_lat": 0.0, "lat": 38.938984833333336, "name": "d4737d401d4211189db7a56d78d5f230", "fusion_lon": 0.0, "bike_id": "d4737d401d4211189db7a56d78d5f230", "is_disabled": 0, "is_reserved": 0}, {"rental_uris": {"ios": "https://dc.lft.to/lastmile_qr_scan", "android": "https://dc.lft.to/lastmile_qr_scan"}, "lon": -76.97879733333333, "type": "electric_scooter", "fusion_lat": 0.0, "lat": 38.885068, "name": "8c2089e904d784bd85ef6449edb1bb7e", "fusion_lon": 0.0, "bike_id": "8c2089e904d784bd85ef6449edb1bb7e", "is_disabled": 0, "is_reserved": 0}, {"rental_uris": {"ios": "https://dc.lft.to/lastmile_qr_scan", "android": "https://dc.lft.to/lastmile_qr_scan"}, "lon": -77.01096066666666, "type": "electric_scooter", "fusion_lat": 0.0, "lat": 38.8944815, "name": "e87704b5cd0e61e5cbbbf86fccb65988", "fusion_lon": 0.0, "bike_id": "e87704b5cd0e61e5cbbbf86fccb65988", "is_disabled": 0, "is_reserved": 0}, {"rental_uris": {"ios": "https://dc.lft.to/lastmile_qr_scan", "android": "https://dc.lft.to/lastmile_qr_scan"}, "lon": -76.98696833333334, "type": "electric_scooter", "fusion_lat": 0.0, "lat": 38.907053, "name": "16dd29d938198bd6364dd8055c639a05", "fusion_lon": 0.0, "bike_id": "16dd29d938198bd6364dd8055c639a05", "is_disabled": 0, "is_reserved": 0}, {"rental_uris": {"ios": "https://dc.lft.to/lastmile_qr_scan", "android": "https://dc.lft.to/lastmile_qr_scan"}, "lon": -77.00208083333334, "type": "electric_bike", "fusion_lat": 0.0, "lat": 38.8193555, "name": "ced9924171a88819f38dbb52be4d17ce", "fusion_lon": 0.0, "bike_id": "ced9924171a88819f38dbb52be4d17ce", "is_disabled": 0, "is_reserved": 0}, {"rental_uris": {"ios": "https://dc.lft.to/lastmile_qr_scan", "android": "https://dc.lft.to/lastmile_qr_scan"}, "lon": -77.01171016666666, "type": "electric_scooter", "fusion_lat": 0.0, "lat": 38.9002705, "name": "aea31de41aa0cba582c27ea2564b3b88", "fusion_lon": 0.0, "bike_id": "aea31de41aa0cba582c27ea2564b3b88", "is_disabled": 0, "is_reserved": 0}, {"rental_uris": {"ios": "https://dc.lft.to/lastmile_qr_scan", "android": "https://dc.lft.to/lastmile_qr_scan"}, "lon": -77.006331, "type": "electric_scooter", "fusion_lat": 0.0, "lat": 38.829305833333336, "name": "3ad3d7996574d43fd8c2b7932ee2216e", "fusion_lon": 0.0, "bike_id": "3ad3d7996574d43fd8c2b7932ee2216e", "is_disabled": 0, "is_reserved": 0}, {"rental_uris": {"ios": "https://dc.lft.to/lastmile_qr_scan", "android": "https://dc.lft.to/lastmile_qr_scan"}, "lon": -77.01377566666666, "type": "electric_scooter", "fusion_lat": 0.0, "lat": 38.869603166666664, "name": "34f00114cf48a19e1bfa9f3f64c2b664", "fusion_lon": 0.0, "bike_id": "34f00114cf48a19e1bfa9f3f64c2b664", "is_disabled": 0, "is_reserved": 0}, {"rental_uris": {"ios": "https://dc.lft.to/lastmile_qr_scan", "android": "https://dc.lft.to/lastmile_qr_scan"}, "lon": -77.02590933333333, "type": "electric_scooter", "fusion_lat": 0.0, "lat": 38.8963585, "name": "72f751bcec3acc7df3abcf605b88ea74", "fusion_lon": 0.0, "bike_id": "72f751bcec3acc7df3abcf605b88ea74", "is_disabled": 0, "is_reserved": 0}, {"rental_uris": {"ios": "https://dc.lft.to/lastmile_qr_scan", "android": "https://dc.lft.to/lastmile_qr_scan"}, "lon": -76.990006, "type": "electric_scooter", "fusion_lat": 0.0, "lat": 38.8650105, "name": "277f6748b7b66a5e088072f6b29251db", "fusion_lon": 0.0, "bike_id": "277f6748b7b66a5e088072f6b29251db", "is_disabled": 0, "is_reserved": 0}, {"rental_uris": {"ios": "https://dc.lft.to/lastmile_qr_scan", "android": "https://dc.lft.to/lastmile_qr_scan"}, "lon": -77.023649, "type": "electric_scooter", "fusion_lat": 0.0, "lat": 38.90303183333333, "name": "844fa821fcac23f6d93c1ac199e270a7", "fusion_lon": 0.0, "bike_id": "844fa821fcac23f6d93c1ac199e270a7", "is_disabled": 0, "is_reserved": 0}, {"rental_uris": {"ios": "https://dc.lft.to/lastmile_qr_scan", "android": "https://dc.lft.to/lastmile_qr_scan"}, "lon": -77.032856, "type": "electric_scooter", "fusion_lat": 0.0, "lat": 38.92923583333334, "name": "557a2f9ba239052680f5156314f8b34b", "fusion_lon": 0.0, "bike_id": "557a2f9ba239052680f5156314f8b34b", "is_disabled": 0, "is_reserved": 0}, {"rental_uris": {"ios": "https://dc.lft.to/lastmile_qr_scan", "android": "https://dc.lft.to/lastmile_qr_scan"},