{"data": {"bikes": [{"fusion_lat": 0.0, "lon": -77.00382383333333, "is_reserved": 0, "bike_id": "facb270a0d1d1b00d739e1bd6ae5ae18", "fusion_lon": 0.0, "rental_uris": {"android": "https://dc.lft.to/lastmile_qr_scan", "ios": "https://dc.lft.to/lastmile_qr_scan"}, "name": "facb270a0d1d1b00d739e1bd6ae5ae18", "type": "electric_scooter", "lat": 38.9236025, "is_disabled": 0}, {"fusion_lat": 0.0, "lon": -77.03084616666666, "is_reserved": 0, "bike_id": "37c22b3f16e1213383359ae1f44a7173", "fusion_lon": 0.0, "rental_uris": {"android": "https://dc.lft.to/lastmile_qr_scan", "ios": "https://dc.lft.to/lastmile_qr_scan"}, "name": "37c22b3f16e1213383359ae1f44a7173", "type": "electric_scooter", "lat": 38.9224705, "is_disabled": 0}, {"fusion_lat": 0.0, "lon": -77.055887, "is_reserved": 0, "bike_id": "db72d8334b30824f6f2727156c29aabc", "fusion_lon": 0.0, "rental_uris": {"android": "https://dc.lft.to/lastmile_qr_scan", "ios": "https://dc.lft.to/lastmile_qr_scan"}, "name": "db72d8334b30824f6f2727156c29aabc", "type": "electric_scooter", "lat": 38.90778183333333, "is_disabled": 0}, {"fusion_lat": 0.0, "lon": -77.023726, "is_reserved": 0, "bike_id": "2312cceaddfc3b405ba21cda26ad3110", "fusion_lon": 0.0, "rental_uris": {"android": "https://dc.lft.to/lastmile_qr_scan", "ios": "https://dc.lft.to/lastmile_qr_scan"}, "name": "2312cceaddfc3b405ba21cda26ad3110", "type": "electric_scooter", "lat": 38.902068666666665, "is_disabled": 0}, {"fusion_lat": 0.0, "lon": -77.02390216666667, "is_reserved": 0, "bike_id": "f1307395327f635cb2788c6d2d7c0e60", "fusion_lon": 0.0, "rental_uris": {"android": "https://dc.lft.to/lastmile_qr_scan", "ios": "https://dc.lft.to/lastmile_qr_scan"}, "name": "f1307395327f635cb2788c6d2d7c0e60", "type": "electric_scooter", "lat": 38.9199645, "is_disabled": 0}, {"fusion_lat": 0.0, "lon": -77.04237816666667, "is_reserved": 0, "bike_id": "6568c7a5ccaffe51753d8c2c5b070056", "fusion_lon": 0.0, "rental_uris": {"android": "https://dc.lft.to/lastmile_qr_scan", "ios": "https://dc.lft.to/lastmile_qr_scan"}, "name": "6568c7a5ccaffe51753d8c2c5b070056", "type": "electric_scooter", "lat": 38.8996955, "is_disabled": 0}, {"fusion_lat": 0.0, "lon": -77.02365816666666, "is_reserved": 0, "bike_id": "b788128d7ad11a3b4781fd565f25c7cf", "fusion_lon": 0.0, "rental_uris": {"android": "https://dc.lft.to/lastmile_qr_scan", "ios": "https://dc.lft.to/lastmile_qr_scan"}, "name": "b788128d7ad11a3b4781fd565f25c7cf", "type": "electric_scooter", "lat": 38.892238166666665, "is_disabled": 0}, {"fusion_lat": 0.0, "lon": -76.97328483333334, "is_reserved": 0, "bike_id": "12468652f91b33068eba205b0cb572c4", "fusion_lon": 0.0, "rental_uris": {"android": "https://dc.lft.to/lastmile_qr_scan", "ios": "https://dc.lft.to/lastmile_qr_scan"}, "name": "12468652f91b33068eba205b0cb572c4", "type": "electric_scooter", "lat": 38.904083166666666, "is_disabled": 0}, {"fusion_lat": 0.0, "lon": -77.02729183333334, "is_reserved": 0, "bike_id": "9c474b8dd5b776837b222a804e5556dd", "fusion_lon": 0.0, "rental_uris": {"android": "https://dc.lft.to/lastmile_qr_scan", "ios": "https://dc.lft.to/lastmile_qr_scan"}, "name": "9c474b8dd5b776837b222a804e5556dd", "type": "electric_scooter", "lat": 38.9500915, "is_disabled": 0}, {"fusion_lat": 0.0, "lon": -77.02384566666667, "is_reserved": 0, "bike_id": "6401b1018d82b2abc1052b85af135829", "fusion_lon": 0.0, "rental_uris": {"android": "https://dc.lft.to/lastmile_qr_scan", "ios": "https://dc.lft.to/lastmile_qr_scan"}, "name": "6401b1018d82b2abc1052b85af135829", "type": "electric_scooter", "lat": 38.909554, "is_disabled": 0}, {"fusion_lat": 0.0, "lon": -77.02524566666666, "is_reserved": 0, "bike_id": "51c96f31899afd3e32b2ed834a84cdab", "fusion_lon": 0.0, "rental_uris": {"android": "https://dc.lft.to/lastmile_qr_scan", "ios": "https://dc.lft.to/lastmile_qr_scan"}, "name": "51c96f31899afd3e32b2ed834a84cdab", "type": "electric_scooter", "lat": 38.9297775, "is_disabled": 0}, {"fusion_lat": 0.0, "lon": -77.00331883333334, "is_reserved": 0, "bike_id": "1f8eeb736d0c8f6d67837b8eef31bc88", "fusion_lon": 0.0, "rental_uris": {"android": "https://dc.lft.to/lastmile_qr_scan", "ios": "https://dc.lft.to/lastmile_qr_scan"}, "name": "1f8eeb736d0c8f6d67837b8eef31bc88", "type": "electric_scooter", "lat": 38.889887, "is_disabled": 0}, {"fusion_lat": 0.0, "lon": -77.0470485, "is_reserved": 0, "bike_id": "d7db5d60d64000adadeef345af9a37d4", "fusion_lon": 0.0, "rental_uris": {"android": "https://dc.lft.to/lastmile_qr_scan", "ios": "https://dc.lft.to/lastmile_qr_scan"}, "name": "d7db5d60d64000adadeef345af9a37d4", "type": "electric_scooter", "lat": 38.92192633333333, "is_disabled": 0}, {"fusion_lat": 0.0, "lon": -76.995167, "is_reserved": 0, "bike_id": "de4a3e3c5217a158524a7f3cc938ecae", "fusion_lon": 0.0, "rental_uris": {"android": "https://dc.lft.to/lastmile_qr_scan", "ios": "https://dc.lft.to/lastmile_qr_scan"}, "name": "de4a3e3c5217a158524a7f3cc938ecae", "type": "electric_scooter", "lat": 38.896205333333334, "is_disabled": 0}, {"fusion_lat": 0.0, "lon": -77.050216, "is_reserved": 0, "bike_id": "3c12f876cf76ecf43b8186e10e8a8b8c", "fusion_lon": 0.0, "rental_uris": {"android": "https://dc.lft.to/lastmile_qr_scan", "ios": "https://dc.lft.to/lastmile_qr_scan"}, "name": "3c12f876cf76ecf43b8186e10e8a8b8c", "type": "electric_scooter", "lat": 38.923557833333334, "is_disabled": 0}, {"fusion_lat": 0.0, "lon": -77.02973033333333, "is_reserved": 0, "bike_id": "3f91ccc6a47f1b2796d509bb60c43e94", "fusion_lon": 0.0, "rental_uris": {"android": "https://dc.lft.to/lastmile_qr_scan", "ios": "https://dc.lft.to/lastmile_qr_scan"}, "name": "3f91ccc6a47f1b2796d509bb60c43e94", "type": "electric_scooter", "lat": 38.90726866666667, "is_disabled": 0}, {"fusion_lat": 0.0, "lon": -77.0354385, "is_reserved": 0, "bike_id": "33045a28c3674a9f5920ec7001ba2752", "fusion_lon": 0.0, "rental_uris": {"android": "https://dc.lft.to/lastmile_qr_scan", "ios": "https://dc.lft.to/lastmile_qr_scan"}, "name": "33045a28c3674a9f5920ec7001ba2752", "type": "electric_scooter", "lat": 38.924132, "is_disabled": 0}, {"fusion_lat": 0.0, "lon": -77.03836666666666, "is_reserved": 0, "bike_id": "f873ec6a9793203d347a6e968cd36b00", "fusion_lon": 0.0, "rental_uris": {"android": "https://dc.lft.to/lastmile_qr_scan", "ios": "https://dc.lft.to/lastmile_qr_scan"}, "name": "f873ec6a9793203d347a6e968cd36b00", "type": "electric_scooter", "lat": 38.91735416666667, "is_disabled": 0}, {"fusion_lat": 0.0, "lon": -77.03422416666666, "is_reserved": 0, "bike_id": "1a5638d46b12729ba1c6c41aa342d161", "fusion_lon": 0.0, "rental_uris": {"android": "https://dc.lft.to/lastmile_qr_scan", "ios": "https://dc.lft.to/lastmile_qr_scan"}, "name": "1a5638d46b12729ba1c6c41aa342d161", "type": "electric_scooter", "lat": 38.90968566666667, "is_disabled": 0}, {"fusion_lat": 0.0, "lon": -77.03389166666666, "is_reserved": 0, "bike_id": "73eb75e87ee5905d7561d78911c37a8f", "fusion_lon": 0.0, "rental_uris": {"android": "https://dc.lft.to/lastmile_qr_scan", "ios": "https://dc.lft.to/lastmile_qr_scan"}, "name": "73eb75e87ee5905d7561d78911c37a8f", "type": "electric_scooter", "lat": 38.938823, "is_disabled": 0}, {"fusion_lat": 0.0, "lon": -77.025093, "is_reserved": 0, "bike_id": "7df0d201d35e25819984d9c72363b500", "fusion_lon": 0.0, "rental_uris": {"android": "https://dc.lft.to/lastmile_qr_scan", "ios": "https://dc.lft.to/lastmile_qr_scan"}, "name": "7df0d201d35e25819984d9c72363b500", "type": "electric_scooter", "lat": 38.92070783333333, "is_disabled": 0}, {"fusion_lat": 0.0, "lon": -77.01769516666667, "is_reserved": 0, "bike_id": "8f568b40a0d91f4b4585494b0a9e2f08", "fusion_lon": 0.0, "rental_uris": {"android": "https://dc.lft.to/lastmile_qr_scan", "ios": "https://dc.lft.to/lastmile_qr_scan"}, "name": "8f568b40a0d91f4b4585494b0a9e2f08", "type": "electric_scooter", "lat": 38.885723, "is_disabled": 0}, {"fusion_lat": 0.0, "lon": -76.94805833333334, "is_reserved": 0, "bike_id": "9eb78b4f73e5dd81d66ba3af9ba67074", "fusion_lon": 0.0, "rental_uris": {"android": "https://dc.lft.to/lastmile_qr_scan", "ios": "https://dc.lft.to/lastmile_qr_scan"}, "name": "9eb78b4f73e5dd81d66ba3af9ba67074", "type": "electric_bike", "lat": 38.8619035, "is_disabled": 0}, {"fusion_lat": 0.0, "lon": -76.9374795, "is_reserved": 0, "bike_id": "6215bda307478b2d54de428d7a29304c", "fusion_lon": 0.0, "rental_uris": {"android": "https://dc.lft.to/lastmile_qr_scan", "ios": "https://dc.lft.to/lastmile_qr_scan"}, "name": "6215bda307478b2d54de428d7a29304c", "type": "electric_scooter", "lat": 38.890497333333336, "is_disabled": 0}, {"fusion_lat": 0.0, "lon": -77.00424816666667, "is_reserved": 0, "bike_id": "f9a9188f5bb74da351ab04da30867489", "fusion_lon": 0.0, "rental_uris": {"android": "https://dc.lft.to/lastmile_qr_scan", "ios": "https://dc.lft.to/lastmile_qr_scan"}, "name": "f9a9188f5bb74da351ab04da30867489", "type": "electric_scooter", "lat": 38.90563933333333, "is_disabled": 0}, {"fusion_lat": 0.0, "lon": -77.04691833333334, "is_reserved": 0, "bike_id": "c6152dab42a5004e26e76cd7fea629ac", "fusion_lon": 0.0, "rental_uris": {"android": "https://dc.lft.to/lastmile_qr_scan", "ios": "https://dc.lft.to/lastmile_qr_scan"}, "name": "c6152dab42a5004e26e76cd7fea629ac", "type": "electric_scooter", "lat": 38.915729, "is_disabled": 0}, {"fusion_lat": 0.0, "lon": -77.04331233333333, "is_reserved": 0, "bike_id": "e523d9620b87c4a0d475bc57e1b47cda", "fusion_lon": 0.0, "rental_uris": {"android": "https://dc.lft.to/lastmile_qr_scan", "ios": "https://dc.lft.to/lastmile_qr_scan"}, "name": "e523d9620b87c4a0d475bc57e1b47cda", "type": "electric_scooter", "lat": 38.90434533333333, "is_disabled": 0}, {"fusion_lat": 0.0, "lon": -77.04516883333334, "is_reserved": 0, "bike_id": "0240c7466bc1185629cb5ddf8ab3cc61", "fusion_lon": 0.0, "rental_uris": {"android": "https://dc.lft.to/lastmile_qr_scan", "ios": "https://dc.lft.to/lastmile_qr_scan"}, "name": "0240c7466bc1185629cb5ddf8ab3cc61", "type": "electric_bike", "lat": 38.942003666666665, "is_disabled": 0}, {"fusion_lat": 0.0, "lon": -77.01151983333334, "is_reserved": 0, "bike_id": "62fc6a9f57aedb6232d742ced27f6787", "fusion_lon": 0.0, "rental_uris": {"android": "https://dc.lft.to/lastmile_qr_scan", "ios": "https://dc.lft.to/lastmile_qr_scan"}, "name": "62fc6a9f57aedb6232d742ced27f6787", "type": "electric_scooter", "lat": 38.911158666666665, "is_disabled": 0}, {"fusion_lat": 0.0, "lon": -77.0294045, "is_reserved": 0, "bike_id": "dfc84e80b5b6272e1983a801a88ac5de", "fusion_lon": 0.0, "rental_uris": {"android": "https://dc.lft.to/lastmile_qr_scan", "ios": "https://dc.lft.to/lastmile_qr_scan"}, "name": "dfc84e80b5b6272e1983a801a88ac5de", "type": "electric_scooter", "lat": 38.9207765, "is_disabled": 0}, {"fusion_lat": 0.0, "lon": -76.993334, "is_reserved": 0, "bike_id": "ba4e53d21f18c7f2eee08d905c0a04e0", "fusion_lon": 0.0, "rental_uris": {"android": "https://dc.lft.to/lastmile_qr_scan", "ios": "https://dc.lft.to/lastmile_qr_scan"}, "name": "ba4e53d21f18c7f2eee08d905c0a04e0", "type": "electric_bike", "lat": 38.893635333333336, "is_disabled": 0}, {"fusion_lat": 0.0, "lon": -77.03878433333334, "is_reserved": 0, "bike_id": "018b46ecf0515a755d7394983caaaff7", "fusion_lon": 0.0, "rental_uris": {"android": "https://dc.lft.to/lastmile_qr_scan", "ios": "https://dc.lft.to/lastmile_qr_scan"}, "name": "018b46ecf0515a755d7394983caaaff7", "type": "electric_scooter", "lat": 38.9312325, "is_disabled": 0}, {"fusion_lat": 0.0, "lon": -77.040207, "is_reserved": 0, "bike_id": "8adaed22656e3b25591c16c3ac45ffcf", "fusion_lon": 0.0, "rental_uris": {"android": "https://dc.lft.to/lastmile_qr_scan", "ios": "https://dc.lft.to/lastmile_qr_scan"}, "name": "8adaed22656e3b25591c16c3ac45ffcf", "type": "electric_scooter", "lat": 38.92240566666667, "is_disabled": 0}, {"fusion_lat": 0.0, "lon": -77.02431566666667, "is_reserved": 0, "bike_id": "4444c3847473c000b4a96670ca516bb5", "fusion_lon": 0.0, "rental_uris": {"android": "https://dc.lft.to/lastmile_qr_scan", "ios": "https://dc.lft.to/lastmile_qr_scan"}, "name": "4444c3847473c000b4a96670ca516bb5", "type": "electric_scooter", "lat": 38.927252333333335, "is_disabled": 0}, {"fusion_lat": 0.0, "lon": -76.98712083333334, "is_reserved": 0, "bike_id": "02c18ceb3232a8dcca354d1c479cdb4c", "fusion_lon": 0.0, "rental_uris": {"android": "https://dc.lft.to/lastmile_qr_scan", "ios": "https://dc.lft.to/lastmile_qr_scan"}, "name": "02c18ceb3232a8dcca354d1c479cdb4c", "type": "electric_scooter", "lat": 38.86628316666667, "is_disabled": 0}, {"fusion_lat": 0.0, "lon": -77.033536, "is_reserved": 0, "bike_id": "5533a3724073b291754c03f3e23eae67", "fusion_lon": 0.0, "rental_uris": {"android": "https://dc.lft.to/lastmile_qr_scan", "ios": "https://dc.lft.to/lastmile_qr_scan"}, "name": "5533a3724073b291754c03f3e23eae67", "type": "electric_scooter", "lat": 38.90828116666667, "is_disabled": 0}, {"fusion_lat": 0.0, "lon": -77.03378083333334, "is_reserved": 0, "bike_id": "16b47e317624bdc5555ae756304af130", "fusion_lon": 0.0, "rental_uris": {"android": "https://dc.lft.to/lastmile_qr_scan", "ios": "https://dc.lft.to/lastmile_qr_scan"}, "name": "16b47e317624bdc5555ae756304af130", "type": "electric_scooter", "lat": 38.92533616666667, "is_disabled": 0}, {"fusion_lat": 0.0, "lon": -77.07433, "is_reserved": 0, "bike_id": "928bdd7cfddd071004692254aac4e329", "fusion_lon": 0.0, "rental_uris": {"android": "https://dc.lft.to/lastmile_qr_scan", "ios": "https://dc.lft.to/lastmile_qr_scan"}, "name": "928bdd7cfddd071004692254aac4e329", "type": "electric_bike", "lat": 38.999469500000004, "is_disabled": 0}, {"fusion_lat": 0.0, "lon": -77.01078283333334, "is_reserved": 0, "bike_id": "7deb288df653636caa73aaeb9e7163c4", "fusion_lon": 0.0, "rental_uris": {"android": "https://dc.lft.to/lastmile_qr_scan", "ios": "https://dc.lft.to/lastmile_qr_scan"}, "name": "7deb288df653636caa73aaeb9e7163c4", "type": "electric_scooter", "lat": 38.907863666666664, "is_disabled": 0}, {"fusion_lat": 0.0, "lon": -77.0278875, "is_reserved": 0, "bike_id": "ede9046942001817156a4b340ecf328b", "fusion_lon": 0.0, "rental_uris": {"android": "https://dc.lft.to/lastmile_qr_scan", "ios": "https://dc.lft.to/lastmile_qr_scan"}, "name": "ede9046942001817156a4b340ecf328b", "type": "electric_scooter", "lat": 38.93083333333333, "is_disabled": 0}, {"fusion_lat": 0.0, "lon": -77.000565, "is_reserved": 0, "bike_id": "737610243b808053c62a1fea8da6f1de", "fusion_lon": 0.0, "rental_uris": {"android": "https://dc.lft.to/lastmile_qr_scan", "ios": "https://dc.lft.to/lastmile_qr_scan"}, "name": "737610243b808053c62a1fea8da6f1de", "type": "electric_scooter", "lat": 38.8983555, "is_disabled": 0}, {"fusion_lat": 0.0, "lon": -77.00188866666667, "is_reserved": 0, "bike_id": "e8807fa021fa43794ccf4eb4230fb572", "fusion_lon": 0.0, "rental_uris": {"android": "https://dc.lft.to/lastmile_qr_scan", "ios": "https://dc.lft.to/lastmile_qr_scan"}, "name": "e8807fa021fa43794ccf4eb4230fb572", "type": "electric_scooter", "lat": 38.903794500000004, "is_disabled": 0}, {"fusion_lat": 0.0, "lon": -76.9512815, "is_reserved": 0, "bike_id": "6812516b8e1250d645b3c9ec49379151", "fusion_lon": 0.0, "rental_uris": {"android": "https://dc.lft.to/lastmile_qr_scan", "ios": "https://dc.lft.to/lastmile_qr_scan"}, "name": "6812516b8e1250d645b3c9ec49379151", "type": "electric_scooter", "lat": 38.89030733333333, "is_disabled": 0}, {"fusion_lat": 0.0, "lon": -77.05014383333334, "is_reserved": 0, "bike_id": "3a59481f01f89450bbcc429ac272d1f8", "fusion_lon": 0.0, "rental_uris": {"android": "https://dc.lft.to/lastmile_qr_scan", "ios": "https://dc.lft.to/lastmile_qr_scan"}, "name": "3a59481f01f89450bbcc429ac272d1f8", "type": "electric_scooter", "lat": 38.9028755, "is_disabled": 0}, {"fusion_lat": 0.0, "lon": -76.98793316666666, "is_reserved": 0, "bike_id": "7b98ef6dbd46aed2d979bb25edc17abb", "fusion_lon": 0.0, "rental_uris": {"android": "https://dc.lft.to/lastmile_qr_scan", "ios": "https://dc.lft.to/lastmile_qr_scan"}, "name": "7b98ef6dbd46aed2d979bb25edc17abb", "type": "electric_bike", "lat": 38.90609283333333, "is_disabled": 0}, {"fusion_lat": 0.0, "lon": -77.00736716666667, "is_reserved": 0, "bike_id": "661f7deafc23b1b8c439a1202f547bb3", "fusion_lon": 0.0, "rental_uris": {"android": "https://dc.lft.to/lastmile_qr_scan", "ios": "https://dc.lft.to/lastmile_qr_scan"}, "name": "661f7deafc23b1b8c439a1202f547bb3", "type": "electric_scooter", "lat": 38.925451, "is_disabled": 0}, {"fusion_lat": 0.0, "lon": -77.05000516666666, "is_reserved": 0, "bike_id": "a13db365667cd5018e855584056c8b45", "fusion_lon": 0.0, "rental_uris": {"android": "https://dc.lft.to/lastmile_qr_scan", "ios": "https://dc.lft.to/lastmile_qr_scan"}, "name": "a13db365667cd5018e855584056c8b45", "type": "electric_scooter", "lat": 38.892333, "is_disabled": 0}, {"fusion_lat": 0.0, "lon": -77.03643233333334, "is_reserved": 0, "bike_id": "933228bde454279090702c5195eb341e", "fusion_lon": 0.0, "rental_uris": {"android": "https://dc.lft.to/lastmile_qr_scan", "ios": "https://dc.lft.to/lastmile_qr_scan"}, "name": "933228bde454279090702c5195eb341e", "type": "electric_scooter", "lat": 38.922647166666664, "is_disabled": 0}, {"fusion_lat": 0.0, "lon": -77.02165166666667, "is_reserved": 0, "bike_id": "e0c2b3337e339326e8813f4ddb161332", "fusion_lon": 0.0, "rental_uris": {"android": "https://dc.lft.to/lastmile_qr_scan", "ios": "https://dc.lft.to/lastmile_qr_scan"}, "name": "e0c2b3337e339326e8813f4ddb161332", "type": "electric_scooter", "lat": 38.9161305, "is_disabled": 0}, {"fusion_lat": 0.0, "lon": -76.94964666666667, "is_reserved": 0, "bike_id": "a87f207793d3080db213ff7d08ede8cb", "fusion_lon": 0.0, "rental_uris": {"android": "https://dc.lft.to/lastmile_qr_scan", "ios": "https://dc.lft.to/lastmile_qr_scan"}, "name": "a87f207793d3080db213ff7d08ede8cb", "type": "electric_scooter", "lat": 38.90493, "is_disabled": 0}, {"fusion_lat": 0.0, "lon": -77.04715266666666, "is_reserved": 0, "bike_id": "c61dd45a509a8beda4ca1996af13f367", "fusion_lon": 0.0, "rental_uris": {"android": "https://dc.lft.to/lastmile_qr_scan", "ios": "https://dc.lft.to/lastmile_qr_scan"}, "name": "c61dd45a509a8beda4ca1996af13f367", "type": "electric_scooter", "lat": 38.922246, "is_disabled": 0}, {"fusion_lat": 0.0, "lon": -77.03132433333333, "is_reserved": 0, "bike_id": "ff1326b24a39646fefa7360f8aaec7a0", "fusion_lon": 0.0, "rental_uris": {"android": "https://dc.lft.to/lastmile_qr_scan", "ios": "https://dc.lft.to/lastmile_qr_scan"}, "name": "ff1326b24a39646fefa7360f8aaec7a0", "type": "electric_scooter", "lat": 38.9149385, "is_disabled": 0}, {"fusion_lat": 0.0, "lon": -77.01113766666667, "is_reserved": 0, "bike_id": "2563cda773dc6f99a5c70613924f5ed2", "fusion_lon": 0.0, "rental_uris": {"android": "https://dc.lft.to/lastmile_qr_scan", "ios": "https://dc.lft.to/lastmile_qr_scan"}, "name": "2563cda773dc6f99a5c70613924f5ed2", "type": "electric_scooter", "lat": 38.894932833333336, "is_disabled": 0}, {"fusion_lat": 0.0, "lon": -77.01764633333333, "is_reserved": 0, "bike_id": "2d7e5f5ed3266c6f5cef33caf1568ddf", "fusion_lon": 0.0, "rental_uris": {"android": "https://dc.lft.to/lastmile_qr_scan", "ios": "https://dc.lft.to/lastmile_qr_scan"}, "name": "2d7e5f5ed3266c6f5cef33caf1568ddf", "type": "electric_scooter", "lat": 38.903954, "is_disabled": 0}, {"fusion_lat": 0.0, "lon": -77.04561216666667, "is_reserved": 0, "bike_id": "e2358f890370d5e06e9fd05cc5a58e1b", "fusion_lon": 0.0, "rental_uris": {"android": "https://dc.lft.to/lastmile_qr_scan", "ios": "https://dc.lft.to/lastmile_qr_scan"}, "name": "e2358f890370d5e06e9fd05cc5a58e1b", "type": "electric_scooter", "lat": 38.924130166666664, "is_disabled": 0}, {"fusion_lat": 0.0, "lon": -77.02488333333334, "is_reserved": 0, "bike_id": "36255cf9e16b40a027039b491314a156", "fusion_lon": 0.0, "rental_uris": {"android": "https://dc.lft.to/lastmile_qr_scan", "ios": "https://dc.lft.to/lastmile_qr_scan"}, "name": "36255cf9e16b40a027039b491314a156", "type": "electric_scooter", "lat": 38.93863133333333, "is_disabled": 0}, {"fusion_lat": 0.0, "lon": -76.9954405, "is_reserved": 0, "bike_id": "3cf1a5c60676b4d87eea434150e18d28", "fusion_lon": 0.0, "rental_uris": {"android": "https://dc.lft.to/lastmile_qr_scan", "ios": "https://dc.lft.to/lastmile_qr_scan"}, "name": "3cf1a5c60676b4d87eea434150e18d28", "type": "electric_scooter", "lat": 38.862599, "is_disabled": 0}, {"fusion_lat": 0.0, "lon": -77.0409895, "is_reserved": 0, "bike_id": "e3a21c6e082c03c374054f29ebf3fc62", "fusion_lon": 0.0, "rental_uris": {"android": "https://dc.lft.to/lastmile_qr_scan", "ios": "https://dc.lft.to/lastmile_qr_scan"}, "name": "e3a21c6e082c03c374054f29ebf3fc62", "type": "electric_scooter", "lat": 38.91064466666667, "is_disabled": 0}, {"fusion_lat": 0.0, "lon": -77.0333425, "is_reserved": 0, "bike_id": "74cdde5c3b1d6222a6f0cbd5e6ef87d8", "fusion_lon": 0.0, "rental_uris": {"android": "https://dc.lft.to/lastmile_qr_scan", "ios": "https://dc.lft.to/lastmile_qr_scan"}, "name": "74cdde5c3b1d6222a6f0cbd5e6ef87d8", "type": "electric_scooter", "lat": 38.92171466666667, "is_disabled": 0}, {"fusion_lat": 0.0, "lon": -76.99031416666666, "is_reserved": 0, "bike_id": "9d537697ca2611af70635a6c8030bc0f", "fusion_lon": 0.0, "rental_uris": {"android": "https://dc.lft.to/lastmile_qr_scan", "ios": "https://dc.lft.to/lastmile_qr_scan"}, "name": "9d537697ca2611af70635a6c8030bc0f", "type": "electric_scooter", "lat": 38.898468333333334, "is_disabled": 0}, {"fusion_lat": 0.0, "lon": -77.023899, "is_reserved": 0, "bike_id": "8af9419fb23bdb9474f8ede03d66f115", "fusion_lon": 0.0, "rental_uris": {"android": "https://dc.lft.to/lastmile_qr_scan", "ios": "https://dc.lft.to/lastmile_qr_scan"}, "name": "8af9419fb23bdb9474f8ede03d66f115", "type": "electric_scooter", "lat": 38.925999833333336, "is_disabled": 0}, {"fusion_lat": 0.0, "lon": -77.00238433333334, "is_reserved": 0, "bike_id": "ab026df09828b49e1ff182fc7e998f25", "fusion_lon": 0.0, "rental_uris": {"android": "https://dc.lft.to/lastmile_qr_scan", "ios": "https://dc.lft.to/lastmile_qr_scan"}, "name": "ab026df09828b49e1ff182fc7e998f25", "type": "electric_scooter", "lat": 38.95721116666667, "is_disabled": 0}, {"fusion_lat": 0.0, "lon": -77.01694966666666, "is_reserved": 0, "bike_id": "dcf3eaffd0479ace6c7c03fa9b55af83", "fusion_lon": 0.0, "rental_uris": {"android": "https://dc.lft.to/lastmile_qr_scan", "ios": "https://dc.lft.to/lastmile_qr_scan"}, "name": "dcf3eaffd0479ace6c7c03fa9b55af83", "type": "electric_scooter", "lat": 38.97496783333333, "is_disabled": 0}, {"fusion_lat": 0.0, "lon": -76.96920766666666, "is_reserved": 0, "bike_id": "7a25fc76a7507f67803b83eccf9342b0", "fusion_lon": 0.0, "rental_uris": {"android": "https://dc.lft.to/lastmile_qr_scan", "ios": "https://dc.lft.to/lastmile_qr_scan"}, "name": "7a25fc76a7507f67803b83eccf9342b0", "type": "electric_bike", "lat": 38.95121666666667, "is_disabled": 0}, {"fusion_lat": 0.0, "lon": -77.02979016666667, "is_reserved": 0, "bike_id": "0a95892d6ca4a0e1b8c6dd3993a4a72a", "fusion_lon": 0.0, "rental_uris": {"android": "https://dc.lft.to/lastmile_qr_scan", "ios": "https://dc.lft.to/lastmile_qr_scan"}, "name": "0a95892d6ca4a0e1b8c6dd3993a4a72a", "type": "electric_scooter", "lat": 38.9219665, "is_disabled": 0}, {"fusion_lat": 0.0, "lon": -76.98818966666667, "is_reserved": 0, "bike_id": "8c848c5d3faf8c6fb375180b8bfbe045", "fusion_lon": 0.0, "rental_uris": {"android": "https://dc.lft.to/lastmile_qr_scan", "ios": "https://dc.lft.to/lastmile_qr_scan"}, "name": "8c848c5d3faf8c6fb375180b8bfbe045", "type": "electric_scooter", "lat": 38.89078633333333, "is_disabled": 0}, {"fusion_lat": 0.0, "lon": -77.22797583333333, "is_reserved": 0, "bike_id": "af04f48b563780ef9d4dfa3764892c93", "fusion_lon": 0.0, "rental_uris": {"android": "https://dc.lft.to/lastmile_qr_scan", "ios": "https://dc.lft.to/lastmile_qr_scan"}, "name": "af04f48b563780ef9d4dfa3764892c93", "type": "electric_bike", "lat": 38.910158833333334, "is_disabled": 0}, {"fusion_lat": 0.0, "lon": -77.03167166666667, "is_reserved": 0, "bike_id": "9e1b3a6de1cff88b6f8bef98a3919899", "fusion_lon": 0.0, "rental_uris": {"android": "https://dc.lft.to/lastmile_qr_scan", "ios": "https://dc.lft.to/lastmile_qr_scan"}, "name": "9e1b3a6de1cff88b6f8bef98a3919899", "type": "electric_scooter", "lat": 38.917935, "is_disabled": 0}, {"fusion_lat": 0.0, "lon": -77.04762483333333, "is_reserved": 0, "bike_id": "64668c7d1aef22f5717cf998641b55d2", "fusion_lon": 0.0, "rental_uris": {"android": "https://dc.lft.to/lastmile_qr_scan", "ios": "https://dc.lft.to/lastmile_qr_scan"}, "name": "64668c7d1aef22f5717cf998641b55d2", "type": "electric_scooter", "lat": 38.91752733333333, "is_disabled": 0}, {"fusion_lat": 0.0, "lon": -77.0199475, "is_reserved": 0, "bike_id": "ec52cf8a1736dc235ac9211a1c8e6bb7", "fusion_lon": 0.0, "rental_uris": {"android": "https://dc.lft.to/lastmile_qr_scan", "ios": "https://dc.lft.to/lastmile_qr_scan"}, "name": "ec52cf8a1736dc235ac9211a1c8e6bb7", "type": "electric_scooter", "lat": 38.96627516666667, "is_disabled": 0}, {"fusion_lat": 0.0, "lon": -77.02498366666667, "is_reserved": 0, "bike_id": "0fc6c2b0319647638732c73026a78a05", "fusion_lon": 0.0, "rental_uris": {"android": "https://dc.lft.to/lastmile_qr_scan", "ios": "https://dc.lft.to/lastmile_qr_scan"}, "name": "0fc6c2b0319647638732c73026a78a05", "type": "electric_scooter", "lat": 38.938608333333335, "is_disabled": 0}, {"fusion_lat": 0.0, "lon": -77.03215066666667, "is_reserved": 0, "bike_id": "5a92dd31f44d86e8447d9f8c659547fd", "fusion_lon": 0.0, "rental_uris": {"android": "https://dc.lft.to/lastmile_qr_scan", "ios": "https://dc.lft.to/lastmile_qr_scan"}, "name": "5a92dd31f44d86e8447d9f8c659547fd", "type": "electric_scooter", "lat": 38.8965035, "is_disabled": 0}, {"fusion_lat": 0.0, "lon": -76.99369666666666, "is_reserved": 0, "bike_id": "14ded4618dd30de73e41a9d2de31c341", "fusion_lon": 0.0, "rental_uris": {"android": "https://dc.lft.to/lastmile_qr_scan", "ios": "https://dc.lft.to/lastmile_qr_scan"}, "name": "14ded4618dd30de73e41a9d2de31c341", "type": "electric_scooter", "lat": 38.88310366666666, "is_disabled": 0}, {"fusion_lat": 0.0, "lon": -77.03956216666667, "is_reserved": 0, "bike_id": "893d461f2d4994e9ba10b2e9ccc40367", "fusion_lon": 0.0, "rental_uris": {"android": "https://dc.lft.to/lastmile_qr_scan", "ios": "https://dc.lft.to/lastmile_qr_scan"}, "name": "893d461f2d4994e9ba10b2e9ccc40367", "type": "electric_scooter", "lat": 38.892406, "is_disabled": 0}, {"fusion_lat": 0.0, "lon": -76.9959125, "is_reserved": 0, "bike_id": "c78b10af2d45dba15ec2ea627ab664e8", "fusion_lon": 0.0, "rental_uris": {"android": "https://dc.lft.to/lastmile_qr_scan", "ios": "https://dc.lft.to/lastmile_qr_scan"}, "name": "c78b10af2d45dba15ec2ea627ab664e8", "type": "electric_scooter", "lat": 38.892253833333335, "is_disabled": 0}, {"fusion_lat": 0.0, "lon": -77.03267816666667, "is_reserved": 0, "bike_id": "e2dce356b2ae2b619e4c54f99ad8956c", "fusion_lon": 0.0, "rental_uris": {"android": "https://dc.lft.to/lastmile_qr_scan", "ios": "https://dc.lft.to/lastmile_qr_scan"}, "name": "e2dce356b2ae2b619e4c54f99ad8956c", "type": "electric_scooter", "lat": 38.928441166666666, "is_disabled": 0}, {"fusion_lat": 0.0, "lon": -77.00550466666667, "is_reserved": 0, "bike_id": "1155948770e49fbea77e37412fda73db", "fusion_lon": 0.0, "rental_uris": {"android": "https://dc.lft.to/lastmile_qr_scan", "ios": "https://dc.lft.to/lastmile_qr_scan"}, "name": "1155948770e49fbea77e37412fda73db", "type": "electric_scooter", "lat": 38.90033783333333, "is_disabled": 0}, {"fusion_lat": 0.0, "lon": -77.02371416666666, "is_reserved": 0, "bike_id": "5a1a56d7541dfa3051168e7201e4150d", "fusion_lon": 0.0, "rental_uris": {"android": "https://dc.lft.to/lastmile_qr_scan", "ios": "https://dc.lft.to/lastmile_qr_scan"}, "name": "5a1a56d7541dfa3051168e7201e4150d", "type": "electric_bike", "lat": 38.94754566666667, "is_disabled": 0}, {"fusion_lat": 0.0, "lon": -77.01204166666666, "is_reserved": 0, "bike_id": "7ec029a051799ca2ec440927d65c42fc", "fusion_lon": 0.0, "rental_uris": {"android": "https://dc.lft.to/lastmile_qr_scan", "ios": "https://dc.lft.to/lastmile_qr_scan"}, "name": "7ec029a051799ca2ec440927d65c42fc", "type": "electric_scooter", "lat": 38.915970333333334, "is_disabled": 0}, {"fusion_lat": 0.0, "lon": -76.99455616666667, "is_reserved": 0, "bike_id": "a1ab82def7d808428e548b20318abd17", "fusion_lon": 0.0, "rental_uris": {"android": "https://dc.lft.to/lastmile_qr_scan", "ios": "https://dc.lft.to/lastmile_qr_scan"}, "name": "a1ab82def7d808428e548b20318abd17", "type": "electric_scooter", "lat": 38.86220983333333, "is_disabled": 0}, {"fusion_lat": 0.0, "lon": -77.02569166666666, "is_reserved": 0, "bike_id": "e32ab71e66f6244849be5f35cf23ee19", "fusion_lon": 0.0, "rental_uris": {"android": "https://dc.lft.to/lastmile_qr_scan", "ios": "https://dc.lft.to/lastmile_qr_scan"}, "name": "e32ab71e66f6244849be5f35cf23ee19", "type": "electric_scooter", "lat": 38.880745833333336, "is_disabled": 0}, {"fusion_lat": 0.0, "lon": -76.93346466666667, "is_reserved": 0, "bike_id": "df6aea13aebab32583319715c0e2cc81", "fusion_lon": 0.0, "rental_uris": {"android": "https://dc.lft.to/lastmile_qr_scan", "ios": "https://dc.lft.to/lastmile_qr_scan"}, "name": "df6aea13aebab32583319715c0e2cc81", "type": "electric_scooter", "lat": 38.898939666666664, "is_disabled": 0}, {"fusion_lat": 0.0, "lon": -77.027593, "is_reserved": 0, "bike_id": "c19416f1b7edfec341546d02b8829033", "fusion_lon": 0.0, "rental_uris": {"android": "https://dc.lft.to/lastmile_qr_scan", "ios": "https://dc.lft.to/lastmile_qr_scan"}, "name": "c19416f1b7edfec341546d02b8829033", "type": "electric_scooter", "lat": 38.954276666666665, "is_disabled": 0}, {"fusion_lat": 0.0, "lon": -77.07268233333333, "is_reserved": 0, "bike_id": "9d226859bf494f772ce26fab47af0871", "fusion_lon": 0.0, "rental_uris": {"android": "https://dc.lft.to/lastmile_qr_scan", "ios": "https://dc.lft.to/lastmile_qr_scan"}, "name": "9d226859bf494f772ce26fab47af0871", "type": "electric_scooter", "lat": 38.934808, "is_disabled": 0}, {"fusion_lat": 0.0, "lon": -76.98747016666667, "is_reserved": 0, "bike_id": "79af87d7bafafebc2b4978f58257b6dd", "fusion_lon": 0.0, "rental_uris": {"android": "https://dc.lft.to/lastmile_qr_scan", "ios": "https://dc.lft.to/lastmile_qr_scan"}, "name": "79af87d7bafafebc2b4978f58257b6dd", "type": "electric_scooter", "lat": 38.844856, "is_disabled": 0}, {"fusion_lat": 0.0, "lon": -76.96465883333333, "is_reserved": 0, "bike_id": "19f02c04914c2872dd879a28c63a67d9", "fusion_lon": 0.0, "rental_uris": {"android": "https://dc.lft.to/lastmile_qr_scan", "ios": "https://dc.lft.to/lastmile_qr_scan"}, "name": "19f02c04914c2872dd879a28c63a67d9", "type": "electric_scooter", "lat": 38.93446983333333, "is_disabled": 0}, {"fusion_lat": 0.0, "lon": -77.03259033333333, "is_reserved": 0, "bike_id": "ce2cd15dc102f4d5da00cd33204c0a0b", "fusion_lon": 0.0, "rental_uris": {"android": "https://dc.lft.to/lastmile_qr_scan", "ios": "https://dc.lft.to/lastmile_qr_scan"}, "name": "ce2cd15dc102f4d5da00cd33204c0a0b", "type": "electric_scooter", "lat": 38.9274305, "is_disabled": 0}, {"fusion_lat": 0.0, "lon": -76.98530483333333, "is_reserved": 0, "bike_id": "dbdbf2920142af93b24e0870b7cdc63e", "fusion_lon": 0.0, "rental_uris": {"android": "https://dc.lft.to/lastmile_qr_scan", "ios": "https://dc.lft.to/lastmile_qr_scan"}, "name": "dbdbf2920142af93b24e0870b7cdc63e", "type": "electric_scooter", "lat": 38.910287, "is_disabled": 0}, {"fusion_lat": 0.0, "lon": -77.02541666666667, "is_reserved": 0, "bike_id": "44117bc7b023a40752dd5f35f3ebfe6b", "fusion_lon": 0.0, "rental_uris": {"android": "https://dc.lft.to/lastmile_qr_scan", "ios": "https://dc.lft.to/lastmile_qr_scan"}, "name": "44117bc7b023a40752dd5f35f3ebfe6b", "type": "electric_scooter", "lat": 38.952563833333336, "is_disabled": 0}, {"fusion_lat": 0.0, "lon": -77.0268145, "is_reserved": 0, "bike_id": "ace4b615fbeae8e1c00d77fbe0146c0f", "fusion_lon": 0.0, "rental_uris": {"android": "https://dc.lft.to/lastmile_qr_scan", "ios": "https://dc.lft.to/lastmile_qr_scan"}, "name": "ace4b615fbeae8e1c00d77fbe0146c0f", "type": "electric_scooter", "lat": 38.927734666666666, "is_disabled": 0}, {"fusion_lat": 0.0, "lon": -77.02680666666667, "is_reserved": 0, "bike_id": "a63394f7146005ca9de6b5de59a39bf4", "fusion_lon": 0.0, "rental_uris": {"android": "https://dc.lft.to/lastmile_qr_scan", "ios": "https://dc.lft.to/lastmile_qr_scan"}, "name": "a63394f7146005ca9de6b5de59a39bf4", "type": "electric_scooter", "lat": 38.9848945, "is_disabled": 0}, {"fusion_lat": 0.0, "lon": -77.02947533333334, "is_reserved": 0, "bike_id": "4f292f7a205e4c5db900a37930bc69cc", "fusion_lon": 0.0, "rental_uris": {"android": "https://dc.lft.to/lastmile_qr_scan", "ios": "https://dc.lft.to/lastmile_qr_scan"}, "name": "4f292f7a205e4c5db900a37930bc69cc", "type": "electric_scooter", "lat": 38.93252483333333, "is_disabled": 0}, {"fusion_lat": 0.0, "lon": -77.03774833333334, "is_reserved": 0, "bike_id": "99e942d81c4bceec6fa16967b505d853", "fusion_lon": 0.0, "rental_uris": {"android": "https://dc.lft.to/lastmile_qr_scan", "ios": "https://dc.lft.to/lastmile_qr_scan"}, "name": "99e942d81c4bceec6fa16967b505d853", "type": "electric_scooter", "lat": 38.916851666666666, "is_disabled": 0}, {"fusion_lat": 0.0, "lon": -76.99182933333333, "is_reserved": 0, "bike_id": "2c9783e39a33007394368a0a9b82a436", "fusion_lon": 0.0, "rental_uris": {"android": "https://dc.lft.to/lastmile_qr_scan", "ios": "https://dc.lft.to/lastmile_qr_scan"}, "name": "2c9783e39a33007394368a0a9b82a436", "type": "electric_scooter", "lat": 38.900300666666666, "is_disabled": 0}, {"fusion_lat": 0.0, "lon": -77.03152683333333, "is_reserved": 0, "bike_id": "b75e0a4c4e800c8f93e001f3760f35ab", "fusion_lon": 0.0, "rental_uris": {"android": "https://dc.lft.to/lastmile_qr_scan", "ios": "https://dc.lft.to/lastmile_qr_scan"}, "name": "b75e0a4c4e800c8f93e001f3760f35ab", "type": "electric_scooter", "lat": 38.884221833333335, "is_disabled": 0}, {"fusion_lat": 0.0, "lon": -76.99217583333333, "is_reserved": 0, "bike_id": "789ef44b17f97e1277b1bd4673a842d3", "fusion_lon": 0.0, "rental_uris": {"android": "https://dc.lft.to/lastmile_qr_scan", "ios": "https://dc.lft.to/lastmile_qr_scan"}, "name": "789ef44b17f97e1277b1bd4673a842d3", "type": "electric_scooter", "lat": 38.89514583333333, "is_disabled": 0}, {"fusion_lat": 0.0, "lon": -76.99695783333334, "is_reserved": 0, "bike_id": "31b2f5bf5124e2129088833c40495782", "fusion_lon": 0.0, "rental_uris": {"android": "https://dc.lft.to/lastmile_qr_scan", "ios": "https://dc.lft.to/lastmile_qr_scan"}, "name": "31b2f5bf5124e2129088833c40495782", "type": "electric_scooter", "lat": 38.908348, "is_disabled": 0}, {"fusion_lat": 0.0, "lon": -77.02379966666666, "is_reserved": 0, "bike_id": "a2a5a1997f8d78fdb42d9973aa321a70", "fusion_lon": 0.0, "rental_uris": {"android": "https://dc.lft.to/lastmile_qr_scan", "ios": "https://dc.lft.to/lastmile_qr_scan"}, "name": "a2a5a1997f8d78fdb42d9973aa321a70", "type": "electric_scooter", "lat": 38.919588833333336, "is_disabled": 0}, {"fusion_lat": 0.0, "lon": -77.02691416666667, "is_reserved": 0, "bike_id": "4d25276f0f632994c7721faa18dff06c", "fusion_lon": 0.0, "rental_uris": {"android": "https://dc.lft.to/lastmile_qr_scan", "ios": "https://dc.lft.to/lastmile_qr_scan"}, "name": "4d25276f0f632994c7721faa18dff06c", "type": "electric_scooter", "lat": 38.948907, "is_disabled": 0}, {"fusion_lat": 0.0, "lon": -77.03526933333333, "is_reserved": 0, "bike_id": "89a1fd8834491a59f4e7868ffab2092b", "fusion_lon": 0.0, "rental_uris": {"android": "https://dc.lft.to/lastmile_qr_scan", "ios": "https://dc.lft.to/lastmile_qr_scan"}, "name": "89a1fd8834491a59f4e7868ffab2092b", "type": "electric_scooter", "lat": 38.915568666666665, "is_disabled": 0}, {"fusion_lat": 0.0, "lon": -77.0180005, "is_reserved": 0, "bike_id": "9298e14482497aac5f820df34994e66a", "fusion_lon": 0.0, "rental_uris": {"android": "https://dc.lft.to/lastmile_qr_scan", "ios": "https://dc.lft.to/lastmile_qr_scan"}, "name": "9298e14482497aac5f820df34994e66a", "type": "electric_scooter", "lat": 38.89316316666667, "is_disabled": 0}, {"fusion_lat": 0.0, "lon": -77.04339983333334, "is_reserved": 0, "bike_id": "276ba9ae70242ab0b4232ad2b2c48b81", "fusion_lon": 0.0, "rental_uris": {"android": "https://dc.lft.to/lastmile_qr_scan", "ios": "https://dc.lft.to/lastmile_qr_scan"}, "name": "276ba9ae70242ab0b4232ad2b2c48b81", "type": "electric_scooter", "lat": 38.902810833333334, "is_disabled": 0}, {"fusion_lat": 0.0, "lon": -77.03254266666667, "is_reserved": 0, "bike_id": "1d1b9f173fee3f67f8b606e60646c2ec", "fusion_lon": 0.0, "rental_uris": {"android": "https://dc.lft.to/lastmile_qr_scan", "ios": "https://dc.lft.to/lastmile_qr_scan"}, "name": "1d1b9f173fee3f67f8b606e60646c2ec", "type": "electric_scooter", "lat": 38.9325555, "is_disabled": 0}, {"fusion_lat": 0.0, "lon": -76.9501905, "is_reserved": 0, "bike_id": "dad06fd875c7b9477a6df837373b6448", "fusion_lon": 0.0, "rental_uris": {"android": "https://dc.lft.to/lastmile_qr_scan", "ios": "https://dc.lft.to/lastmile_qr_scan"}, "name": "dad06fd875c7b9477a6df837373b6448", "type": "electric_scooter", "lat": 38.8938495, "is_disabled": 0}, {"fusion_lat": 0.0, "lon": -77.085937, "is_reserved": 0, "bike_id": "d52c79aec187eab1ce4f9fb0eef380ac", "fusion_lon": 0.0, "rental_uris": {"android": "https://dc.lft.to/lastmile_qr_scan", "ios": "https://dc.lft.to/lastmile_qr_scan"}, "name": "d52c79aec187eab1ce4f9fb0eef380ac", "type": "electric_scooter", "lat": 38.9087485, "is_disabled": 0}, {"fusion_lat": 0.0, "lon": -77.041735, "is_reserved": 0, "bike_id": "f266805a3fef2ecf7ac14d0881dd7e35", "fusion_lon": 0.0, "rental_uris": {"android": "https://dc.lft.to/lastmile_qr_scan", "ios": "https://dc.lft.to/lastmile_qr_scan"}, "name": "f266805a3fef2ecf7ac14d0881dd7e35", "type": "electric_scooter", "lat": 38.9198155, "is_disabled": 0}, {"fusion_lat": 0.0, "lon": -77.03598133333334, "is_reserved": 0, "bike_id": "96c9bcf5fd843b134408b69eef7f1ba3", "fusion_lon": 0.0, "rental_uris": {"android": "https://dc.lft.to/lastmile_qr_scan", "ios": "https://dc.lft.to/lastmile_qr_scan"}, "name": "96c9bcf5fd843b134408b69eef7f1ba3", "type": "electric_scooter", "lat": 38.91762466666667, "is_disabled": 0}, {"fusion_lat": 0.0, "lon": -77.0472825, "is_reserved": 0, "bike_id": "20ab79b5323de7dc605b84d485eab6cc", "fusion_lon": 0.0, "rental_uris": {"android": "https://dc.lft.to/lastmile_qr_scan", "ios": "https://dc.lft.to/lastmile_qr_scan"}, "name": "20ab79b5323de7dc605b84d485eab6cc", "type": "electric_scooter", "lat": 38.912652, "is_disabled": 0}, {"fusion_lat": 0.0, "lon": -77.00131883333333, "is_reserved": 0, "bike_id": "ff8864e7936315bcca3e24436995f45e", "fusion_lon": 0.0, "rental_uris": {"android": "https://dc.lft.to/lastmile_qr_scan", "ios": "https://dc.lft.to/lastmile_qr_scan"}, "name": "ff8864e7936315bcca3e24436995f45e", "type": "electric_scooter", "lat": 38.907465333333334, "is_disabled": 0}, {"fusion_lat": 0.0, "lon": -76.9994345, "is_reserved": 0, "bike_id": "50f6876431005982bf63c8ccf14cf7ab", "fusion_lon": 0.0, "rental_uris": {"android": "https://dc.lft.to/lastmile_qr_scan", "ios": "https://dc.lft.to/lastmile_qr_scan"}, "name": "50f6876431005982bf63c8ccf14cf7ab", "type": "electric_scooter", "lat": 38.89643266666667, "is_disabled": 0}, {"fusion_lat": 0.0, "lon": -76.98884633333333, "is_reserved": 0, "bike_id": "c57417f370c91cdafd1991d8dbb267bf", "fusion_lon": 0.0, "rental_uris": {"android": "https://dc.lft.to/lastmile_qr_scan", "ios": "https://dc.lft.to/lastmile_qr_scan"}, "name": "c57417f370c91cdafd1991d8dbb267bf", "type": "electric_scooter", "lat": 38.866486333333334, "is_disabled": 0}, {"fusion_lat": 0.0, "lon": -77.01815566666667, "is_reserved": 0, "bike_id": "7082d1fafccabe32964d4692b0c2dec0", "fusion_lon": 0.0, "rental_uris": {"android": "https://dc.lft.to/lastmile_qr_scan", "ios": "https://dc.lft.to/lastmile_qr_scan"}, "name": "7082d1fafccabe32964d4692b0c2dec0", "type": "electric_scooter", "lat": 38.90142816666667, "is_disabled": 0}, {"fusion_lat": 0.0, "lon": -77.04309816666667, "is_reserved": 0, "bike_id": "bb305868a5b2cc42e1ddeb4480af199b", "fusion_lon": 0.0, "rental_uris": {"android": "https://dc.lft.to/lastmile_qr_scan", "ios": "https://dc.lft.to/lastmile_qr_scan"}, "name": "bb305868a5b2cc42e1ddeb4480af199b", "type": "electric_scooter", "lat": 38.92667866666667, "is_disabled": 0}, {"fusion_lat": 0.0, "lon": -77.04804333333334, "is_reserved": 0, "bike_id": "b94f9dcc5e5b08059ec15288206cf673", "fusion_lon": 0.0, "rental_uris": {"android": "https://dc.lft.to/lastmile_qr_scan", "ios": "https://dc.lft.to/lastmile_qr_scan"}, "name": "b94f9dcc5e5b08059ec15288206cf673", "type": "electric_scooter", "lat": 38.92049183333334, "is_disabled": 0}, {"fusion_lat": 0.0, "lon": -77.03433066666666, "is_reserved": 0, "bike_id": "8f3c46c27fe667bc4f0f97bb44fcec28", "fusion_lon": 0.0, "rental_uris": {"android": "https://dc.lft.to/lastmile_qr_scan", "ios": "https://dc.lft.to/lastmile_qr_scan"}, "name": "8f3c46c27fe667bc4f0f97bb44fcec28", "type": "electric_scooter", "lat": 38.919403833333334, "is_disabled": 0}, {"fusion_lat": 0.0, "lon": -77.06658716666666, "is_reserved": 0, "bike_id": "1b3047746ae648696ef210345c1d99e9", "fusion_lon": 0.0, "rental_uris": {"android": "https://dc.lft.to/lastmile_qr_scan", "ios": "https://dc.lft.to/lastmile_qr_scan"}, "name": "1b3047746ae648696ef210345c1d99e9", "type": "electric_scooter", "lat": 38.9496335, "is_disabled": 0}, {"fusion_lat": 0.0, "lon": -76.93753566666666, "is_reserved": 0, "bike_id": "0b0b1a720fef96f200549b0619007260", "fusion_lon": 0.0, "rental_uris": {"android": "https://dc.lft.to/lastmile_qr_scan", "ios": "https://dc.lft.to/lastmile_qr_scan"}, "name": "0b0b1a720fef96f200549b0619007260", "type": "electric_scooter", "lat": 38.90374166666667, "is_disabled": 0}, {"fusion_lat": 0.0, "lon": -77.0371375, "is_reserved": 0, "bike_id": "fea868fc1859c3ba6317ec94aa07ee21", "fusion_lon": 0.0, "rental_uris": {"android": "https://dc.lft.to/lastmile_qr_scan", "ios": "https://dc.lft.to/lastmile_qr_scan"}, "name": "fea868fc1859c3ba6317ec94aa07ee21", "type": "electric_scooter", "lat": 38.9356615, "is_disabled": 0}, {"fusion_lat": 0.0, "lon": -77.0363605, "is_reserved": 0, "bike_id": "bfcf67e65507c1776a2039bab14f78e7", "fusion_lon": 0.0, "rental_uris": {"android": "https://dc.lft.to/lastmile_qr_scan", "ios": "https://dc.lft.to/lastmile_qr_scan"}, "name": "bfcf67e65507c1776a2039bab14f78e7", "type": "electric_scooter", "lat": 38.9367205, "is_disabled": 0}, {"fusion_lat": 0.0, "lon": -77.01774166666667, "is_reserved": 0, "bike_id": "3d3443ea2855bb2dc4cdd0ff846c2a49", "fusion_lon": 0.0, "rental_uris": {"android": "https://dc.lft.to/lastmile_qr_scan", "ios": "https://dc.lft.to/lastmile_qr_scan"}, "name": "3d3443ea2855bb2dc4cdd0ff846c2a49", "type": "electric_scooter", "lat": 38.921117333333335, "is_disabled": 0}, {"fusion_lat": 0.0, "lon": -76.99881033333334, "is_reserved": 0, "bike_id": "477d12419397ced5fd7fa7d43a1abc8d", "fusion_lon": 0.0, "rental_uris": {"android": "https://dc.lft.to/lastmile_qr_scan", "ios": "https://dc.lft.to/lastmile_qr_scan"}, "name": "477d12419397ced5fd7fa7d43a1abc8d", "type": "electric_scooter", "lat": 38.92055366666666, "is_disabled": 0}, {"fusion_lat": 0.0, "lon": -76.970204, "is_reserved": 0, "bike_id": "67f625ee488e07633b21312772fd9b88", "fusion_lon": 0.0, "rental_uris": {"android": "https://dc.lft.to/lastmile_qr_scan", "ios": "https://dc.lft.to/lastmile_qr_scan"}, "name": "67f625ee488e07633b21312772fd9b88", "type": "electric_scooter", "lat": 38.925364, "is_disabled": 0}, {"fusion_lat": 0.0, "lon": -77.05645783333334, "is_reserved": 0, "bike_id": "517e49bbfd71f2a975896279a684e527", "fusion_lon": 0.0, "rental_uris": {"android": "https://dc.lft.to/lastmile_qr_scan", "ios": "https://dc.lft.to/lastmile_qr_scan"}, "name": "517e49bbfd71f2a975896279a684e527", "type": "electric_scooter", "lat": 38.90763116666667, "is_disabled": 0}, {"fusion_lat": 0.0, "lon": -77.02275833333333, "is_reserved": 0, "bike_id": "6ba01fe3d0bfc81f9774b6f084d5daff", "fusion_lon": 0.0, "rental_uris": {"android": "https://dc.lft.to/lastmile_qr_scan", "ios": "https://dc.lft.to/lastmile_qr_scan"}, "name": "6ba01fe3d0bfc81f9774b6f084d5daff", "type": "electric_scooter", "lat": 38.91229533333333, "is_disabled": 0}, {"fusion_lat": 0.0, "lon": -76.98766216666667, "is_reserved": 0, "bike_id": "04f6bac8098045fbfeed3751dc39ca4c", "fusion_lon": 0.0, "rental_uris": {"android": "https://dc.lft.to/lastmile_qr_scan", "ios": "https://dc.lft.to/lastmile_qr_scan"}, "name": "04f6bac8098045fbfeed3751dc39ca4c", "type": "electric_scooter", "lat": 38.9002925, "is_disabled": 0}, {"fusion_lat": 0.0, "lon": -77.0176335, "is_reserved": 0, "bike_id": "9e080da74329d63b773e7b6af220f60d", "fusion_lon": 0.0, "rental_uris": {"android": "https://dc.lft.to/lastmile_qr_scan", "ios": "https://dc.lft.to/lastmile_qr_scan"}, "name": "9e080da74329d63b773e7b6af220f60d", "type": "electric_scooter", "lat": 38.87694283333333, "is_disabled": 0}, {"fusion_lat": 0.0, "lon": -77.03451283333334, "is_reserved": 0, "bike_id": "022ee2a3f58a08d2c6be2842656cce07", "fusion_lon": 0.0, "rental_uris": {"android": "https://dc.lft.to/lastmile_qr_scan", "ios": "https://dc.lft.to/lastmile_qr_scan"}, "name": "022ee2a3f58a08d2c6be2842656cce07", "type": "electric_scooter", "lat": 38.90805616666667, "is_disabled": 0}, {"fusion_lat": 0.0, "lon": -77.2084115, "is_reserved": 0, "bike_id": "40ba266cecf63198556dd33f6c62ceea", "fusion_lon": 0.0, "rental_uris": {"android": "https://dc.lft.to/lastmile_qr_scan", "ios": "https://dc.lft.to/lastmile_qr_scan"}, "name": "40ba266cecf63198556dd33f6c62ceea", "type": "electric_bike", "lat": 38.92469066666666, "is_disabled": 0}, {"fusion_lat": 0.0, "lon": -77.02845283333333, "is_reserved": 0, "bike_id": "8b0a068a18a0dcddb2cbf71a19c4e73b", "fusion_lon": 0.0, "rental_uris": {"android": "https://dc.lft.to/lastmile_qr_scan", "ios": "https://dc.lft.to/lastmile_qr_scan"}, "name": "8b0a068a18a0dcddb2cbf71a19c4e73b", "type": "electric_scooter", "lat": 38.887442666666665, "is_disabled": 0}, {"fusion_lat": 0.0, "lon": -77.04146533333333, "is_reserved": 0, "bike_id": "0db74693fefc4b33faae827df9761ee9", "fusion_lon": 0.0, "rental_uris": {"android": "https://dc.lft.to/lastmile_qr_scan", "ios": "https://dc.lft.to/lastmile_qr_scan"}, "name": "0db74693fefc4b33faae827df9761ee9", "type": "electric_scooter", "lat": 38.8921605, "is_disabled": 0}, {"fusion_lat": 0.0, "lon": -77.00952733333334, "is_reserved": 0, "bike_id": "293094d5af74800f55145c4a1663eeb5", "fusion_lon": 0.0, "rental_uris": {"android": "https://dc.lft.to/lastmile_qr_scan", "ios": "https://dc.lft.to/lastmile_qr_scan"}, "name": "293094d5af74800f55145c4a1663eeb5", "type": "electric_scooter", "lat": 38.89749483333333, "is_disabled": 0}, {"fusion_lat": 0.0, "lon": -76.97421333333334, "is_reserved": 0, "bike_id": "a0d454f5764f0a40497269b364ab79e1", "fusion_lon": 0.0, "rental_uris": {"android": "https://dc.lft.to/lastmile_qr_scan", "ios": "https://dc.lft.to/lastmile_qr_scan"}, "name": "a0d454f5764f0a40497269b364ab79e1", "type": "electric_scooter", "lat": 38.904064, "is_disabled": 0}, {"fusion_lat": 0.0, "lon": -77.01902783333334, "is_reserved": 0, "bike_id": "ff8eaa64f17dad292d30bd56339964fa", "fusion_lon": 0.0, "rental_uris": {"android": "https://dc.lft.to/lastmile_qr_scan", "ios": "https://dc.lft.to/lastmile_qr_scan"}, "name": "ff8eaa64f17dad292d30bd56339964fa", "type": "electric_scooter", "lat": 38.91933933333333, "is_disabled": 0}, {"fusion_lat": 0.0, "lon": -76.937499, "is_reserved": 0, "bike_id": "5f1449e36b1f85f0f2c663d86ee3e210", "fusion_lon": 0.0, "rental_uris": {"android": "https://dc.lft.to/lastmile_qr_scan", "ios": "https://dc.lft.to/lastmile_qr_scan"}, "name": "5f1449e36b1f85f0f2c663d86ee3e210", "type": "electric_scooter", "lat": 38.8904655, "is_disabled": 0}, {"fusion_lat": 0.0, "lon": -77.01781316666667, "is_reserved": 0, "bike_id": "6fb2dd6bb60737201d81ee3dfda5c284", "fusion_lon": 0.0, "rental_uris": {"android": "https://dc.lft.to/lastmile_qr_scan", "ios": "https://dc.lft.to/lastmile_qr_scan"}, "name": "6fb2dd6bb60737201d81ee3dfda5c284", "type": "electric_scooter", "lat": 38.921218833333334, "is_disabled": 0}, {"fusion_lat": 0.0, "lon": -76.94376583333333, "is_reserved": 0, "bike_id": "564e4df858624d135c48796a6b34ad62", "fusion_lon": 0.0, "rental_uris": {"android": "https://dc.lft.to/lastmile_qr_scan", "ios": "https://dc.lft.to/lastmile_qr_scan"}, "name": "564e4df858624d135c48796a6b34ad62", "type": "electric_scooter", "lat": 38.893271666666664, "is_disabled": 0}, {"fusion_lat": 0.0, "lon": -77.09060916666667, "is_reserved": 0, "bike_id": "91caeabffd96da9b3c51a304d993e467", "fusion_lon": 0.0, "rental_uris": {"android": "https://dc.lft.to/lastmile_qr_scan", "ios": "https://dc.lft.to/lastmile_qr_scan"}, "name": "91caeabffd96da9b3c51a304d993e467", "type": "electric_bike", "lat": 38.8625615, "is_disabled": 0}, {"fusion_lat": 0.0, "lon": -77.03371166666666, "is_reserved": 0, "bike_id": "8f13f635ff59edfef6884621a30a4437", "fusion_lon": 0.0, "rental_uris": {"android": "https://dc.lft.to/lastmile_qr_scan", "ios": "https://dc.lft.to/lastmile_qr_scan"}, "name": "8f13f635ff59edfef6884621a30a4437", "type": "electric_scooter", "lat": 38.8990205, "is_disabled": 0}, {"fusion_lat": 0.0, "lon": -76.98622566666667, "is_reserved": 0, "bike_id": "c8547aed42cf67615d9d6db172ad7e79", "fusion_lon": 0.0, "rental_uris": {"android": "https://dc.lft.to/lastmile_qr_scan", "ios": "https://dc.lft.to/lastmile_qr_scan"}, "name": "c8547aed42cf67615d9d6db172ad7e79", "type": "electric_scooter", "lat": 38.90113233333334, "is_disabled": 0}, {"fusion_lat": 0.0, "lon": -76.98717683333334, "is_reserved": 0, "bike_id": "805f6998901d002b19d9ac890d9f98e7", "fusion_lon": 0.0, "rental_uris": {"android": "https://dc.lft.to/lastmile_qr_scan", "ios": "https://dc.lft.to/lastmile_qr_scan"}, "name": "805f6998901d002b19d9ac890d9f98e7", "type": "electric_scooter", "lat": 38.899643, "is_disabled": 0}, {"fusion_lat": 0.0, "lon": -77.03948333333334, "is_reserved": 0, "bike_id": "1b1d493ac24f2d7d7f36e5ea2538cda0", "fusion_lon": 0.0, "rental_uris": {"android": "https://dc.lft.to/lastmile_qr_scan", "ios": "https://dc.lft.to/lastmile_qr_scan"}, "name": "1b1d493ac24f2d7d7f36e5ea2538cda0", "type": "electric_bike", "lat": 38.9326305, "is_disabled": 0}, {"fusion_lat": 0.0, "lon": -77.03226433333333, "is_reserved": 0, "bike_id": "281c1fea0ec4295b488459a264cbc415", "fusion_lon": 0.0, "rental_uris": {"android": "https://dc.lft.to/lastmile_qr_scan", "ios": "https://dc.lft.to/lastmile_qr_scan"}, "name": "281c1fea0ec4295b488459a264cbc415", "type": "electric_scooter", "lat": 38.91561033333333, "is_disabled": 0}, {"fusion_lat": 0.0, "lon": -76.94964283333333, "is_reserved": 0, "bike_id": "2de4acfe8cbcd2dea1d6d552cb8faa0e", "fusion_lon": 0.0, "rental_uris": {"android": "https://dc.lft.to/lastmile_qr_scan", "ios": "https://dc.lft.to/lastmile_qr_scan"}, "name": "2de4acfe8cbcd2dea1d6d552cb8faa0e", "type": "electric_scooter", "lat": 38.894417, "is_disabled": 0}, {"fusion_lat": 0.0, "lon": -77.00831233333334, "is_reserved": 0, "bike_id": "42c0c0eab251df3ad225451397f51de8", "fusion_lon": 0.0, "rental_uris": {"android": "https://dc.lft.to/lastmile_qr_scan", "ios": "https://dc.lft.to/lastmile_qr_scan"}, "name": "42c0c0eab251df3ad225451397f51de8", "type": "electric_scooter", "lat": 38.92247833333333, "is_disabled": 0}, {"fusion_lat": 0.0, "lon": -76.997746, "is_reserved": 0, "bike_id": "e2aa89966fa79980a7ee53731fb15fac", "fusion_lon": 0.0, "rental_uris": {"android": "https://dc.lft.to/lastmile_qr_scan", "ios": "https://dc.lft.to/lastmile_qr_scan"}, "name": "e2aa89966fa79980a7ee53731fb15fac", "type": "electric_scooter", "lat": 38.844330166666666, "is_disabled": 0}, {"fusion_lat": 0.0, "lon": -76.97824966666667, "is_reserved": 0, "bike_id": "65dc4f94764a1074d5c3e76178e2ee9e", "fusion_lon": 0.0, "rental_uris": {"android": "https://dc.lft.to/lastmile_qr_scan", "ios": "https://dc.lft.to/lastmile_qr_scan"}, "name": "65dc4f94764a1074d5c3e76178e2ee9e", "type": "electric_bike", "lat": 38.843648, "is_disabled": 0}, {"fusion_lat": 0.0, "lon": -77.02589116666667, "is_reserved": 0, "bike_id": "382f8e5c5f462ec23e530e54d4289dea", "fusion_lon": 0.0, "rental_uris": {"android": "https://dc.lft.to/lastmile_qr_scan", "ios": "https://dc.lft.to/lastmile_qr_scan"}, "name": "382f8e5c5f462ec23e530e54d4289dea", "type": "electric_scooter", "lat": 38.96391583333333, "is_disabled": 0}, {"fusion_lat": 0.0, "lon": -77.03223733333333, "is_reserved": 0, "bike_id": "40e911ebebfb23c29ab82ac292b58094", "fusion_lon": 0.0, "rental_uris": {"android": "https://dc.lft.to/lastmile_qr_scan", "ios": "https://dc.lft.to/lastmile_qr_scan"}, "name": "40e911ebebfb23c29ab82ac292b58094", "type": "electric_scooter", "lat": 38.896442666666665, "is_disabled": 0}, {"fusion_lat": 0.0, "lon": -77.027872, "is_reserved": 0, "bike_id": "41a5773ca0a2c0102c262cf103f9688a", "fusion_lon": 0.0, "rental_uris": {"android": "https://dc.lft.to/lastmile_qr_scan", "ios": "https://dc.lft.to/lastmile_qr_scan"}, "name": "41a5773ca0a2c0102c262cf103f9688a", "type": "electric_scooter", "lat": 38.930828, "is_disabled": 0}, {"fusion_lat": 0.0, "lon": -77.03437433333333, "is_reserved": 0, "bike_id": "1bacdec1e6e6bf66dea0f6bfab2394c4", "fusion_lon": 0.0, "rental_uris": {"android": "https://dc.lft.to/lastmile_qr_scan", "ios": "https://dc.lft.to/lastmile_qr_scan"}, "name": "1bacdec1e6e6bf66dea0f6bfab2394c4", "type": "electric_scooter", "lat": 38.91689983333333, "is_disabled": 0}, {"fusion_lat": 0.0, "lon": -76.977242, "is_reserved": 0, "bike_id": "b5576ed027aff3446ccd4c1019fd8e7f", "fusion_lon": 0.0, "rental_uris": {"android": "https://dc.lft.to/lastmile_qr_scan", "ios": "https://dc.lft.to/lastmile_qr_scan"}, "name": "b5576ed027aff3446ccd4c1019fd8e7f", "type": "electric_scooter", "lat": 38.87247083333333, "is_disabled": 0}, {"fusion_lat": 0.0, "lon": -77.0234615, "is_reserved": 0, "bike_id": "901399525ed08f0c3ed0bf8e8102b7a5", "fusion_lon": 0.0, "rental_uris": {"android": "https://dc.lft.to/lastmile_qr_scan", "ios": "https://dc.lft.to/lastmile_qr_scan"}, "name": "901399525ed08f0c3ed0bf8e8102b7a5", "type": "electric_scooter", "lat": 38.9461225, "is_disabled": 0}, {"fusion_lat": 0.0, "lon": -77.031817, "is_reserved": 0, "bike_id": "7d1351451230fcae8dba3779798aac98", "fusion_lon": 0.0, "rental_uris": {"android": "https://dc.lft.to/lastmile_qr_scan", "ios": "https://dc.lft.to/lastmile_qr_scan"}, "name": "7d1351451230fcae8dba3779798aac98", "type": "electric_scooter", "lat": 38.91793033333333, "is_disabled": 0}, {"fusion_lat": 0.0, "lon": -76.99060416666667, "is_reserved": 0, "bike_id": "6c58df6c63f05d62f29b262d5d98cd15", "fusion_lon": 0.0, "rental_uris": {"android": "https://dc.lft.to/lastmile_qr_scan", "ios": "https://dc.lft.to/lastmile_qr_scan"}, "name": "6c58df6c63f05d62f29b262d5d98cd15", "type": "electric_scooter", "lat": 38.86364783333333, "is_disabled": 0}, {"fusion_lat": 0.0, "lon": -77.03144716666667, "is_reserved": 0, "bike_id": "73ac6ac440964302255bceb3cc6d94de", "fusion_lon": 0.0, "rental_uris": {"android": "https://dc.lft.to/lastmile_qr_scan", "ios": "https://dc.lft.to/lastmile_qr_scan"}, "name": "73ac6ac440964302255bceb3cc6d94de", "type": "electric_scooter", "lat": 38.91412366666667, "is_disabled": 0}, {"fusion_lat": 0.0, "lon": -77.02085816666667, "is_reserved": 0, "bike_id": "28db0ac44f1c0a507e6c98bde034579b", "fusion_lon": 0.0, "rental_uris": {"android": "https://dc.lft.to/lastmile_qr_scan", "ios": "https://dc.lft.to/lastmile_qr_scan"}, "name": "28db0ac44f1c0a507e6c98bde034579b", "type": "electric_scooter", "lat": 38.92148, "is_disabled": 0}, {"fusion_lat": 0.0, "lon": -77.04499033333333, "is_reserved": 0, "bike_id": "9edda32edd79bed28bb7fdb337259d2a", "fusion_lon": 0.0, "rental_uris": {"android": "https://dc.lft.to/lastmile_qr_scan", "ios": "https://dc.lft.to/lastmile_qr_scan"}, "name": "9edda32edd79bed28bb7fdb337259d2a", "type": "electric_scooter", "lat": 38.911079, "is_disabled": 0}, {"fusion_lat": 0.0, "lon": -77.02363216666667, "is_reserved": 0, "bike_id": "ab1d665a212770cde7451fe13e908e43", "fusion_lon": 0.0, "rental_uris": {"android": "https://dc.lft.to/lastmile_qr_scan", "ios": "https://dc.lft.to/lastmile_qr_scan"}, "name": "ab1d665a212770cde7451fe13e908e43", "type": "electric_scooter", "lat": 38.9306735, "is_disabled": 0}, {"fusion_lat": 0.0, "lon": -77.04439566666667, "is_reserved": 0, "bike_id": "47aa50a8c3fdf19821232fd853e5cf39", "fusion_lon": 0.0, "rental_uris": {"android": "https://dc.lft.to/lastmile_qr_scan", "ios": "https://dc.lft.to/lastmile_qr_scan"}, "name": "47aa50a8c3fdf19821232fd853e5cf39", "type": "electric_scooter", "lat": 38.921716833333335, "is_disabled": 0}, {"fusion_lat": 0.0, "lon": -76.93608966666666, "is_reserved": 0, "bike_id": "3bf417ac158fb75d4b813d88c3ac198a", "fusion_lon": 0.0, "rental_uris": {"android": "https://dc.lft.to/lastmile_qr_scan", "ios": "https://dc.lft.to/lastmile_qr_scan"}, "name": "3bf417ac158fb75d4b813d88c3ac198a", "type": "electric_scooter", "lat": 38.896840166666664, "is_disabled": 0}, {"fusion_lat": 0.0, "lon": -76.97530466666667, "is_reserved": 0, "bike_id": "d6ac014c430b4cd97739045021f23318", "fusion_lon": 0.0, "rental_uris": {"android": "https://dc.lft.to/lastmile_qr_scan", "ios": "https://dc.lft.to/lastmile_qr_scan"}, "name": "d6ac014c430b4cd97739045021f23318", "type": "electric_scooter", "lat": 38.89953716666667, "is_disabled": 0}, {"fusion_lat": 0.0, "lon": -77.03561933333333, "is_reserved": 0, "bike_id": "36888c9fbd5d94aa5c7ae542099539d3", "fusion_lon": 0.0, "rental_uris": {"android": "https://dc.lft.to/lastmile_qr_scan", "ios": "https://dc.lft.to/lastmile_qr_scan"}, "name": "36888c9fbd5d94aa5c7ae542099539d3", "type": "electric_scooter", "lat": 38.90965716666667, "is_disabled": 0}, {"fusion_lat": 0.0, "lon": -77.02559316666667, "is_reserved": 0, "bike_id": "63a65f3135728cf7be1c861a60e6fa81", "fusion_lon": 0.0, "rental_uris": {"android": "https://dc.lft.to/lastmile_qr_scan", "ios": "https://dc.lft.to/lastmile_qr_scan"}, "name": "63a65f3135728cf7be1c861a60e6fa81", "type": "electric_scooter", "lat": 38.9308675, "is_disabled": 0}, {"fusion_lat": 0.0, "lon": -77.05956533333334, "is_reserved": 0, "bike_id": "e0959d77f91b2ee6242b8609fda40d0b", "fusion_lon": 0.0, "rental_uris": {"android": "https://dc.lft.to/lastmile_qr_scan", "ios": "https://dc.lft.to/lastmile_qr_scan"}, "name": "e0959d77f91b2ee6242b8609fda40d0b", "type": "electric_scooter", "lat": 38.907608, "is_disabled": 0}, {"fusion_lat": 0.0, "lon": -77.01199783333334, "is_reserved": 0, "bike_id": "1f4d13c29b5cec07afd73bedf3000f67", "fusion_lon": 0.0, "rental_uris": {"android": "https://dc.lft.to/lastmile_qr_scan", "ios": "https://dc.lft.to/lastmile_qr_scan"}, "name": "1f4d13c29b5cec07afd73bedf3000f67", "type": "electric_scooter", "lat": 38.9159865, "is_disabled": 0}, {"fusion_lat": 0.0, "lon": -76.97940116666666, "is_reserved": 0, "bike_id": "b2672bc87c6d8ceee39ee78708ef1aec", "fusion_lon": 0.0, "rental_uris": {"android": "https://dc.lft.to/lastmile_qr_scan", "ios": "https://dc.lft.to/lastmile_qr_scan"}, "name": "b2672bc87c6d8ceee39ee78708ef1aec", "type": "electric_scooter", "lat": 38.90185483333333, "is_disabled": 0}, {"fusion_lat": 0.0, "lon": -77.0349335, "is_reserved": 0, "bike_id": "f7f80e5cef6251a673cfe0a0e32f4465", "fusion_lon": 0.0, "rental_uris": {"android": "https://dc.lft.to/lastmile_qr_scan", "ios": "https://dc.lft.to/lastmile_qr_scan"}, "name": "f7f80e5cef6251a673cfe0a0e32f4465", "type": "electric_scooter", "lat": 38.935556, "is_disabled": 0}, {"fusion_lat": 0.0, "lon": -77.03204733333334, "is_reserved": 0, "bike_id": "9b96402a6876622a6e9930830f103e74", "fusion_lon": 0.0, "rental_uris": {"android": "https://dc.lft.to/lastmile_qr_scan", "ios": "https://dc.lft.to/lastmile_qr_scan"}, "name": "9b96402a6876622a6e9930830f103e74", "type": "electric_scooter", "lat": 38.92058516666667, "is_disabled": 0}, {"fusion_lat": 0.0, "lon": -77.0451125, "is_reserved": 0, "bike_id": "910f5a70b59fad18962b6c9d31362395", "fusion_lon": 0.0, "rental_uris": {"android": "https://dc.lft.to/lastmile_qr_scan", "ios": "https://dc.lft.to/lastmile_qr_scan"}, "name": "910f5a70b59fad18962b6c9d31362395", "type": "electric_scooter", "lat": 38.90787233333333, "is_disabled": 0}, {"fusion_lat": 0.0, "lon": -77.00451316666667, "is_reserved": 0, "bike_id": "fa875a57aa4a315fbb421c85759e6e4d", "fusion_lon": 0.0, "rental_uris": {"android": "https://dc.lft.to/lastmile_qr_scan", "ios": "https://dc.lft.to/lastmile_qr_scan"}, "name": "fa875a57aa4a315fbb421c85759e6e4d", "type": "electric_scooter", "lat": 38.876579166666666, "is_disabled": 0}, {"fusion_lat": 0.0, "lon": -76.982722, "is_reserved": 0, "bike_id": "cafa645d179999295fd8a3a98bfe174f", "fusion_lon": 0.0, "rental_uris": {"android": "https://dc.lft.to/lastmile_qr_scan", "ios": "https://dc.lft.to/lastmile_qr_scan"}, "name": "cafa645d179999295fd8a3a98bfe174f", "type": "electric_scooter", "lat": 38.8992395, "is_disabled": 0}, {"fusion_lat": 0.0, "lon": -77.04364216666667, "is_reserved": 0, "bike_id": "d44416f605cf8a4524cd4a4c0e23d562", "fusion_lon": 0.0, "rental_uris": {"android": "https://dc.lft.to/lastmile_qr_scan", "ios": "https://dc.lft.to/lastmile_qr_scan"}, "name": "d44416f605cf8a4524cd4a4c0e23d562", "type": "electric_scooter", "lat": 38.902746666666665, "is_disabled": 0}, {"fusion_lat": 0.0, "lon": -77.02872416666666, "is_reserved": 0, "bike_id": "8954273874fb65352775dbac407a3358", "fusion_lon": 0.0, "rental_uris": {"android": "https://dc.lft.to/lastmile_qr_scan", "ios": "https://dc.lft.to/lastmile_qr_scan"}, "name": "8954273874fb65352775dbac407a3358", "type": "electric_scooter", "lat": 38.92568333333333, "is_disabled": 0}, {"fusion_lat": 0.0, "lon": -77.05691983333334, "is_reserved": 0, "bike_id": "72e16a8e85993f72aabdd11e5f452595", "fusion_lon": 0.0, "rental_uris": {"android": "https://dc.lft.to/lastmile_qr_scan", "ios": "https://dc.lft.to/lastmile_qr_scan"}, "name": "72e16a8e85993f72aabdd11e5f452595", "type": "electric_scooter", "lat": 38.90601766666666, "is_disabled": 0}, {"fusion_lat": 0.0, "lon": -77.08394366666667, "is_reserved": 0, "bike_id": "83d866d38e95dc297d843bb888357b23", "fusion_lon": 0.0, "rental_uris": {"android": "https://dc.lft.to/lastmile_qr_scan", "ios": "https://dc.lft.to/lastmile_qr_scan"}, "name": "83d866d38e95dc297d843bb888357b23", "type": "electric_scooter", "lat": 38.90804466666667, "is_disabled": 0}, {"fusion_lat": 0.0, "lon": -77.02617833333333, "is_reserved": 0, "bike_id": "724e47f04257040487e18d4639626525", "fusion_lon": 0.0, "rental_uris": {"android": "https://dc.lft.to/lastmile_qr_scan", "ios": "https://dc.lft.to/lastmile_qr_scan"}, "name": "724e47f04257040487e18d4639626525", "type": "electric_scooter", "lat": 38.929774, "is_disabled": 0}, {"fusion_lat": 0.0, "lon": -77.036899, "is_reserved": 0, "bike_id": "fb8e76d3fccd2549059ea0786a084766", "fusion_lon": 0.0, "rental_uris": {"android": "https://dc.lft.to/lastmile_qr_scan", "ios": "https://dc.lft.to/lastmile_qr_scan"}, "name": "fb8e76d3fccd2549059ea0786a084766", "type": "electric_scooter", "lat": 38.91678316666667, "is_disabled": 0}, {"fusion_lat": 0.0, "lon": -77.049874, "is_reserved": 0, "bike_id": "c33e9b029b45ac519b64311fe6317b6b", "fusion_lon": 0.0, "rental_uris": {"android": "https://dc.lft.to/lastmile_qr_scan", "ios": "https://dc.lft.to/lastmile_qr_scan"}, "name": "c33e9b029b45ac519b64311fe6317b6b", "type": "electric_scooter", "lat": 38.897542333333334, "is_disabled": 0}, {"fusion_lat": 0.0, "lon": -77.0325635, "is_reserved": 0, "bike_id": "5493bbad9d5df5bd125449c9932ef5b2", "fusion_lon": 0.0, "rental_uris": {"android": "https://dc.lft.to/lastmile_qr_scan", "ios": "https://dc.lft.to/lastmile_qr_scan"}, "name": "5493bbad9d5df5bd125449c9932ef5b2", "type": "electric_scooter", "lat": 38.94153583333333, "is_disabled": 0}, {"fusion_lat": 0.0, "lon": -77.038511, "is_reserved": 0, "bike_id": "d4defb7aa1bcd062d4d43cf583f61f2b", "fusion_lon": 0.0, "rental_uris": {"android": "https://dc.lft.to/lastmile_qr_scan", "ios": "https://dc.lft.to/lastmile_qr_scan"}, "name": "d4defb7aa1bcd062d4d43cf583f61f2b", "type": "electric_scooter", "lat": 38.91669433333333, "is_disabled": 0}, {"fusion_lat": 0.0, "lon": -76.9984875, "is_reserved": 0, "bike_id": "ba8b0383972dbec61cd8b0a91f2e4602", "fusion_lon": 0.0, "rental_uris": {"android": "https://dc.lft.to/lastmile_qr_scan", "ios": "https://dc.lft.to/lastmile_qr_scan"}, "name": "ba8b0383972dbec61cd8b0a91f2e4602", "type": "electric_scooter", "lat": 38.900156333333335, "is_disabled": 0}, {"fusion_lat": 0.0, "lon": -76.99379516666667, "is_reserved": 0, "bike_id": "a54ef1ebfae77ed2bf73b1d2f2d16f00", "fusion_lon": 0.0, "rental_uris": {"android": "https://dc.lft.to/lastmile_qr_scan", "ios": "https://dc.lft.to/lastmile_qr_scan"}, "name": "a54ef1ebfae77ed2bf73b1d2f2d16f00", "type": "electric_bike", "lat": 38.97187366666667, "is_disabled": 0}, {"fusion_lat": 0.0, "lon": -77.05738166666667, "is_reserved": 0, "bike_id": "f82d7598e1d04573e85d48bf470116fc", "fusion_lon": 0.0, "rental_uris": {"android": "https://dc.lft.to/lastmile_qr_scan", "ios": "https://dc.lft.to/lastmile_qr_scan"}, "name": "f82d7598e1d04573e85d48bf470116fc", "type": "electric_scooter", "lat": 38.933944, "is_disabled": 0}, {"fusion_lat": 0.0, "lon": -77.02945266666667, "is_reserved": 0, "bike_id": "5780331fe8c71bcb6638b97a56a71373", "fusion_lon": 0.0, "rental_uris": {"android": "https://dc.lft.to/lastmile_qr_scan", "ios": "https://dc.lft.to/lastmile_qr_scan"}, "name": "5780331fe8c71bcb6638b97a56a71373", "type": "electric_scooter", "lat": 38.916862, "is_disabled": 0}, {"fusion_lat": 0.0, "lon": -76.99931766666667, "is_reserved": 0, "bike_id": "909c6fd07258ad054824dc81abbc7f36", "fusion_lon": 0.0, "rental_uris": {"android": "https://dc.lft.to/lastmile_qr_scan", "ios": "https://dc.lft.to/lastmile_qr_scan"}, "name": "909c6fd07258ad054824dc81abbc7f36", "type": "electric_scooter", "lat": 38.843017, "is_disabled": 0}, {"fusion_lat": 0.0, "lon": -77.02488366666667, "is_reserved": 0, "bike_id": "87fa2f3a406c1bf83a0813e8378c7baa", "fusion_lon": 0.0, "rental_uris": {"android": "https://dc.lft.to/lastmile_qr_scan", "ios": "https://dc.lft.to/lastmile_qr_scan"}, "name": "87fa2f3a406c1bf83a0813e8378c7baa", "type": "electric_scooter", "lat": 38.9375545, "is_disabled": 0}, {"fusion_lat": 0.0, "lon": -77.062651, "is_reserved": 0, "bike_id": "6f5464084ba14124c3914fffc65f3d0c", "fusion_lon": 0.0, "rental_uris": {"android": "https://dc.lft.to/lastmile_qr_scan", "ios": "https://dc.lft.to/lastmile_qr_scan"}, "name": "6f5464084ba14124c3914fffc65f3d0c", "type": "electric_scooter", "lat": 38.905681666666666, "is_disabled": 0}, {"fusion_lat": 0.0, "lon": -76.9487335, "is_reserved": 0, "bike_id": "0b935b5f6a314ada6c50c380e4c905e5", "fusion_lon": 0.0, "rental_uris": {"android": "https://dc.lft.to/lastmile_qr_scan", "ios": "https://dc.lft.to/lastmile_qr_scan"}, "name": "0b935b5f6a314ada6c50c380e4c905e5", "type": "electric_scooter", "lat": 38.895482666666666, "is_disabled": 0}, {"fusion_lat": 0.0, "lon": -77.0732635, "is_reserved": 0, "bike_id": "f286b984c2dba1a34cd6e52eb78b4392", "fusion_lon": 0.0, "rental_uris": {"android": "https://dc.lft.to/lastmile_qr_scan", "ios": "https://dc.lft.to/lastmile_qr_scan"}, "name": "f286b984c2dba1a34cd6e52eb78b4392", "type": "electric_scooter", "lat": 38.92609933333333, "is_disabled": 0}, {"fusion_lat": 0.0, "lon": -77.01070566666667, "is_reserved": 0, "bike_id": "791d322f987e0d5c15d357fcba5cdf4c", "fusion_lon": 0.0, "rental_uris": {"android": "https://dc.lft.to/lastmile_qr_scan", "ios": "https://dc.lft.to/lastmile_qr_scan"}, "name": "791d322f987e0d5c15d357fcba5cdf4c", "type": "electric_scooter", "lat": 38.917742, "is_disabled": 0}, {"fusion_lat": 0.0, "lon": -77.01863716666666, "is_reserved": 0, "bike_id": "df19ce8c78b7ef22f6e91eac00d05d8e", "fusion_lon": 0.0, "rental_uris": {"android": "https://dc.lft.to/lastmile_qr_scan", "ios": "https://dc.lft.to/lastmile_qr_scan"}, "name": "df19ce8c78b7ef22f6e91eac00d05d8e", "type": "electric_scooter", "lat": 38.97367766666667, "is_disabled": 0}, {"fusion_lat": 0.0, "lon": -76.99629, "is_reserved": 0, "bike_id": "bad4d4adfe410b105b11a17ebe51e64d", "fusion_lon": 0.0, "rental_uris": {"android": "https://dc.lft.to/lastmile_qr_scan", "ios": "https://dc.lft.to/lastmile_qr_scan"}, "name": "bad4d4adfe410b105b11a17ebe51e64d", "type": "electric_scooter", "lat": 38.900235, "is_disabled": 0}, {"fusion_lat": 0.0, "lon": -77.01521233333334, "is_reserved": 0, "bike_id": "27f0ba4d9a8a971640560d53214e47d2", "fusion_lon": 0.0, "rental_uris": {"android": "https://dc.lft.to/lastmile_qr_scan", "ios": "https://dc.lft.to/lastmile_qr_scan"}, "name": "27f0ba4d9a8a971640560d53214e47d2", "type": "electric_bike", "lat": 38.91870216666667, "is_disabled": 0}, {"fusion_lat": 0.0, "lon": -77.04196283333333, "is_reserved": 0, "bike_id": "2467015203d0b7eac0c54d6a9c25a130", "fusion_lon": 0.0, "rental_uris": {"android": "https://dc.lft.to/lastmile_qr_scan", "ios": "https://dc.lft.to/lastmile_qr_scan"}, "name": "2467015203d0b7eac0c54d6a9c25a130", "type": "electric_scooter", "lat": 38.9196965, "is_disabled": 0}, {"fusion_lat": 0.0, "lon": -77.03638616666667, "is_reserved": 0, "bike_id": "f5c78739cf165c89aa527df00dfe4b66", "fusion_lon": 0.0, "rental_uris": {"android": "https://dc.lft.to/lastmile_qr_scan", "ios": "https://dc.lft.to/lastmile_qr_scan"}, "name": "f5c78739cf165c89aa527df00dfe4b66", "type": "electric_scooter", "lat": 38.918274333333336, "is_disabled": 0}, {"fusion_lat": 0.0, "lon": -77.04092416666667, "is_reserved": 0, "bike_id": "d39eb5d66467e9acae696c95300dffbb", "fusion_lon": 0.0, "rental_uris": {"android": "https://dc.lft.to/lastmile_qr_scan", "ios": "https://dc.lft.to/lastmile_qr_scan"}, "name": "d39eb5d66467e9acae696c95300dffbb", "type": "electric_scooter", "lat": 38.9177865, "is_disabled": 0}, {"fusion_lat": 0.0, "lon": -77.08577333333334, "is_reserved": 0, "bike_id": "9cbd353559a30f3c4483bf6da81f36dd", "fusion_lon": 0.0, "rental_uris": {"android": "https://dc.lft.to/lastmile_qr_scan", "ios": "https://dc.lft.to/lastmile_qr_scan"}, "name": "9cbd353559a30f3c4483bf6da81f36dd", "type": "electric_bike", "lat": 38.8443, "is_disabled": 0}, {"fusion_lat": 0.0, "lon": -77.073759, "is_reserved": 0, "bike_id": "84258661d69a6aa90e211666c011e558", "fusion_lon": 0.0, "rental_uris": {"android": "https://dc.lft.to/lastmile_qr_scan", "ios": "https://dc.lft.to/lastmile_qr_scan"}, "name": "84258661d69a6aa90e211666c011e558", "type": "electric_bike", "lat": 38.961937166666665, "is_disabled": 0}, {"fusion_lat": 0.0, "lon": -76.9906745, "is_reserved": 0, "bike_id": "5984289b4575ae94f54b9f5c6e86635b", "fusion_lon": 0.0, "rental_uris": {"android": "https://dc.lft.to/lastmile_qr_scan", "ios": "https://dc.lft.to/lastmile_qr_scan"}, "name": "5984289b4575ae94f54b9f5c6e86635b", "type": "electric_scooter", "lat": 38.863747000000004, "is_disabled": 0}, {"fusion_lat": 0.0, "lon": -77.02964816666666, "is_reserved": 0, "bike_id": "bf9b5826339fc65396a6eb609b121690", "fusion_lon": 0.0, "rental_uris": {"android": "https://dc.lft.to/lastmile_qr_scan", "ios": "https://dc.lft.to/lastmile_qr_scan"}, "name": "bf9b5826339fc65396a6eb609b121690", "type": "electric_scooter", "lat": 38.925684333333336, "is_disabled": 0}, {"fusion_lat": 0.0, "lon": -77.02583316666667, "is_reserved": 0, "bike_id": "1ce61f6d630152fade6ac641e721b2bb", "fusion_lon": 0.0, "rental_uris": {"android": "https://dc.lft.to/lastmile_qr_scan", "ios": "https://dc.lft.to/lastmile_qr_scan"}, "name": "1ce61f6d630152fade6ac641e721b2bb", "type": "electric_scooter", "lat": 38.905106, "is_disabled": 0}, {"fusion_lat": 0.0, "lon": -77.03831916666667, "is_reserved": 0, "bike_id": "8520a6d660f818d301ab68ab68e38d75", "fusion_lon": 0.0, "rental_uris": {"android": "https://dc.lft.to/lastmile_qr_scan", "ios": "https://dc.lft.to/lastmile_qr_scan"}, "name": "8520a6d660f818d301ab68ab68e38d75", "type": "electric_scooter", "lat": 38.911935166666666, "is_disabled": 0}, {"fusion_lat": 0.0, "lon": -77.06400766666667, "is_reserved": 0, "bike_id": "962df84efaf834e168526861f2967ec3", "fusion_lon": 0.0, "rental_uris": {"android": "https://dc.lft.to/lastmile_qr_scan", "ios": "https://dc.lft.to/lastmile_qr_scan"}, "name": "962df84efaf834e168526861f2967ec3", "type": "electric_scooter", "lat": 38.943226, "is_disabled": 0}, {"fusion_lat": 0.0, "lon": -76.99035016666667, "is_reserved": 0, "bike_id": "e953cb4a78c009bdbd6f3efedb65921d", "fusion_lon": 0.0, "rental_uris": {"android": "https://dc.lft.to/lastmile_qr_scan", "ios": "https://dc.lft.to/lastmile_qr_scan"}, "name": "e953cb4a78c009bdbd6f3efedb65921d", "type": "electric_scooter", "lat": 38.902834166666665, "is_disabled": 0}, {"fusion_lat": 0.0, "lon": -76.92198816666667, "is_reserved": 0, "bike_id": "d311e43bbc9cfbf3f6e65298a5b1c89b", "fusion_lon": 0.0, "rental_uris": {"android": "https://dc.lft.to/lastmile_qr_scan", "ios": "https://dc.lft.to/lastmile_qr_scan"}, "name": "d311e43bbc9cfbf3f6e65298a5b1c89b", "type": "electric_bike", "lat": 38.89493916666667, "is_disabled": 0}, {"fusion_lat": 0.0, "lon": -77.0059705, "is_reserved": 0, "bike_id": "3f450f738c6ebd1f8eea5a5ed972b339", "fusion_lon": 0.0, "rental_uris": {"android": "https://dc.lft.to/lastmile_qr_scan", "ios": "https://dc.lft.to/lastmile_qr_scan"}, "name": "3f450f738c6ebd1f8eea5a5ed972b339", "type": "electric_scooter", "lat": 38.8851765, "is_disabled": 0}, {"fusion_lat": 0.0, "lon": -77.00343333333333, "is_reserved": 0, "bike_id": "0e3709016499361f5a37dc0290e6077b", "fusion_lon": 0.0, "rental_uris": {"android": "https://dc.lft.to/lastmile_qr_scan", "ios": "https://dc.lft.to/lastmile_qr_scan"}, "name": "0e3709016499361f5a37dc0290e6077b", "type": "electric_scooter", "lat": 38.916115166666664, "is_disabled": 0}, {"fusion_lat": 0.0, "lon": -77.0021915, "is_reserved": 0, "bike_id": "0c0bd2c3650d859ce3c1f9a314972df3", "fusion_lon": 0.0, "rental_uris": {"android": "https://dc.lft.to/lastmile_qr_scan", "ios": "https://dc.lft.to/lastmile_qr_scan"}, "name": "0c0bd2c3650d859ce3c1f9a314972df3", "type": "electric_scooter", "lat": 38.90024966666667, "is_disabled": 0}, {"fusion_lat": 0.0, "lon": -77.02183783333334, "is_reserved": 0, "bike_id": "0e538df2df76d0f11b5c7d72250ddf05", "fusion_lon": 0.0, "rental_uris": {"android": "https://dc.lft.to/lastmile_qr_scan", "ios": "https://dc.lft.to/lastmile_qr_scan"}, "name": "0e538df2df76d0f11b5c7d72250ddf05", "type": "electric_scooter", "lat": 38.90952733333334, "is_disabled": 0}, {"fusion_lat": 0.0, "lon": -77.036574, "is_reserved": 0, "bike_id": "537ae197bb1b0c5ea03387cfb927a19f", "fusion_lon": 0.0, "rental_uris": {"android": "https://dc.lft.to/lastmile_qr_scan", "ios": "https://dc.lft.to/lastmile_qr_scan"}, "name": "537ae197bb1b0c5ea03387cfb927a19f", "type": "electric_scooter", "lat": 38.93153483333333, "is_disabled": 0}, {"fusion_lat": 0.0, "lon": -77.01985183333333, "is_reserved": 0, "bike_id": "838b87a1139fe6211543ea8616ba0678", "fusion_lon": 0.0, "rental_uris": {"android": "https://dc.lft.to/lastmile_qr_scan", "ios": "https://dc.lft.to/lastmile_qr_scan"}, "name": "838b87a1139fe6211543ea8616ba0678", "type": "electric_bike", "lat": 38.922687833333335, "is_disabled": 0}, {"fusion_lat": 0.0, "lon": -77.02194166666666, "is_reserved": 0, "bike_id": "1bd3db2bc8893198ea1e2e948a4b9907", "fusion_lon": 0.0, "rental_uris": {"android": "https://dc.lft.to/lastmile_qr_scan", "ios": "https://dc.lft.to/lastmile_qr_scan"}, "name": "1bd3db2bc8893198ea1e2e948a4b9907", "type": "electric_scooter", "lat": 38.926157333333336, "is_disabled": 0}, {"fusion_lat": 0.0, "lon": -77.04404666666667, "is_reserved": 0, "bike_id": "1319b7781528c29e173b68a1660e9bb5", "fusion_lon": 0.0, "rental_uris": {"android": "https://dc.lft.to/lastmile_qr_scan", "ios": "https://dc.lft.to/lastmile_qr_scan"}, "name": "1319b7781528c29e173b68a1660e9bb5", "type": "electric_scooter", "lat": 38.92452383333333, "is_disabled": 0}, {"fusion_lat": 0.0, "lon": -77.03842116666667, "is_reserved": 0, "bike_id": "1f22b6fb029f1c7d9cb63f0bd5f7c681", "fusion_lon": 0.0, "rental_uris": {"android": "https://dc.lft.to/lastmile_qr_scan", "ios": "https://dc.lft.to/lastmile_qr_scan"}, "name": "1f22b6fb029f1c7d9cb63f0bd5f7c681", "type": "electric_scooter", "lat": 38.903628, "is_disabled": 0}, {"fusion_lat": 0.0, "lon": -76.99032816666667, "is_reserved": 0, "bike_id": "436eb539756396b28ff7b29f55008740", "fusion_lon": 0.0, "rental_uris": {"android": "https://dc.lft.to/lastmile_qr_scan", "ios": "https://dc.lft.to/lastmile_qr_scan"}, "name": "436eb539756396b28ff7b29f55008740", "type": "electric_scooter", "lat": 38.8985375, "is_disabled": 0}, {"fusion_lat": 0.0, "lon": -77.06973266666667, "is_reserved": 0, "bike_id": "6e6c174c90a9f5425ede6caf8847c65f", "fusion_lon": 0.0, "rental_uris": {"android": "https://dc.lft.to/lastmile_qr_scan", "ios": "https://dc.lft.to/lastmile_qr_scan"}, "name": "6e6c174c90a9f5425ede6caf8847c65f", "type": "electric_scooter", "lat": 38.952556333333334, "is_disabled": 0}, {"fusion_lat": 0.0, "lon": -76.989249, "is_reserved": 0, "bike_id": "c7c78ba4aa0397aae6ed73d7d1472402", "fusion_lon": 0.0, "rental_uris": {"android": "https://dc.lft.to/lastmile_qr_scan", "ios": "https://dc.lft.to/lastmile_qr_scan"}, "name": "c7c78ba4aa0397aae6ed73d7d1472402", "type": "electric_scooter", "lat": 38.85812166666667, "is_disabled": 0}, {"fusion_lat": 0.0, "lon": -76.9070675, "is_reserved": 0, "bike_id": "3f55c5fa2572820d70b1e4db89f95348", "fusion_lon": 0.0, "rental_uris": {"android": "https://dc.lft.to/lastmile_qr_scan", "ios": "https://dc.lft.to/lastmile_qr_scan"}, "name": "3f55c5fa2572820d70b1e4db89f95348", "type": "electric_bike", "lat": 38.895992, "is_disabled": 0}, {"fusion_lat": 0.0, "lon": -76.9809295, "is_reserved": 0, "bike_id": "28f3046a4314777a11e0e2fdacd0c8f3", "fusion_lon": 0.0, "rental_uris": {"android": "https://dc.lft.to/lastmile_qr_scan", "ios": "https://dc.lft.to/lastmile_qr_scan"}, "name": "28f3046a4314777a11e0e2fdacd0c8f3", "type": "electric_bike", "lat": 38.953571, "is_disabled": 0}, {"fusion_lat": 0.0, "lon": -77.02201616666666, "is_reserved": 0, "bike_id": "72f85d5762608fd15d0715ff3989dd18", "fusion_lon": 0.0, "rental_uris": {"android": "https://dc.lft.to/lastmile_qr_scan", "ios": "https://dc.lft.to/lastmile_qr_scan"}, "name": "72f85d5762608fd15d0715ff3989dd18", "type": "electric_scooter", "lat": 38.92038866666667, "is_disabled": 0}, {"fusion_lat": 0.0, "lon": -77.014092, "is_reserved": 0, "bike_id": "6043bcf10db68d75fa2a726936df2f6b", "fusion_lon": 0.0, "rental_uris": {"android": "https://dc.lft.to/lastmile_qr_scan", "ios": "https://dc.lft.to/lastmile_qr_scan"}, "name": "6043bcf10db68d75fa2a726936df2f6b", "type": "electric_scooter", "lat": 38.87577733333333, "is_disabled": 0}, {"fusion_lat": 0.0, "lon": -77.03832433333334, "is_reserved": 0, "bike_id": "106f027f2d36c5f2da6212221d187670", "fusion_lon": 0.0, "rental_uris": {"android": "https://dc.lft.to/lastmile_qr_scan", "ios": "https://dc.lft.to/lastmile_qr_scan"}, "name": "106f027f2d36c5f2da6212221d187670", "type": "electric_scooter", "lat": 38.911921, "is_disabled": 0}, {"fusion_lat": 0.0, "lon": -77.03448416666667, "is_reserved": 0, "bike_id": "e47cfbc4db3f9ad0b118a1d4add0eb7e", "fusion_lon": 0.0, "rental_uris": {"android": "https://dc.lft.to/lastmile_qr_scan", "ios": "https://dc.lft.to/lastmile_qr_scan"}, "name": "e47cfbc4db3f9ad0b118a1d4add0eb7e", "type": "electric_scooter", "lat": 38.918188, "is_disabled": 0}, {"fusion_lat": 0.0, "lon": -77.02407983333333, "is_reserved": 0, "bike_id": "b3b88d1bc5324bea0998be08469b32d7", "fusion_lon": 0.0, "rental_uris": {"android": "https://dc.lft.to/lastmile_qr_scan", "ios": "https://dc.lft.to/lastmile_qr_scan"}, "name": "b3b88d1bc5324bea0998be08469b32d7", "type": "electric_scooter", "lat": 38.933614666666664, "is_disabled": 0}, {"fusion_lat": 0.0, "lon": -76.93642, "is_reserved": 0, "bike_id": "c7856d9bf3101328f00cad6d15a0c55a", "fusion_lon": 0.0, "rental_uris": {"android": "https://dc.lft.to/lastmile_qr_scan", "ios": "https://dc.lft.to/lastmile_qr_scan"}, "name": "c7856d9bf3101328f00cad6d15a0c55a", "type": "electric_scooter", "lat": 38.900638, "is_disabled": 0}, {"fusion_lat": 0.0, "lon": -77.04751766666666, "is_reserved": 0, "bike_id": "3674cf0cf071febec308d45b5619e63c", "fusion_lon": 0.0, "rental_uris": {"android": "https://dc.lft.to/lastmile_qr_scan", "ios": "https://dc.lft.to/lastmile_qr_scan"}, "name": "3674cf0cf071febec308d45b5619e63c", "type": "electric_scooter", "lat": 38.90069966666667, "is_disabled": 0}, {"fusion_lat": 0.0, "lon": -76.93010666666666, "is_reserved": 0, "bike_id": "2e9e077a49902e1f62657e4d0a5f016a", "fusion_lon": 0.0, "rental_uris": {"android": "https://dc.lft.to/lastmile_qr_scan", "ios": "https://dc.lft.to/lastmile_qr_scan"}, "name": "2e9e077a49902e1f62657e4d0a5f016a", "type": "electric_bike", "lat": 38.896503, "is_disabled": 0}, {"fusion_lat": 0.0, "lon": -77.026496, "is_reserved": 0, "bike_id": "298d9f2eaaf0986372738171df6500ab", "fusion_lon": 0.0, "rental_uris": {"android": "https://dc.lft.to/lastmile_qr_scan", "ios": "https://dc.lft.to/lastmile_qr_scan"}, "name": "298d9f2eaaf0986372738171df6500ab", "type": "electric_scooter", "lat": 38.97565133333333, "is_disabled": 0}, {"fusion_lat": 0.0, "lon": -76.94932816666666, "is_reserved": 0, "bike_id": "8964a8de61ec346b64aef371319f2bf3", "fusion_lon": 0.0, "rental_uris": {"android": "https://dc.lft.to/lastmile_qr_scan", "ios": "https://dc.lft.to/lastmile_qr_scan"}, "name": "8964a8de61ec346b64aef371319f2bf3", "type": "electric_scooter", "lat": 38.8934805, "is_disabled": 0}, {"fusion_lat": 0.0, "lon": -77.0309375, "is_reserved": 0, "bike_id": "65073ce33d6991cd26409cfa11f8b4ae", "fusion_lon": 0.0, "rental_uris": {"android": "https://dc.lft.to/lastmile_qr_scan", "ios": "https://dc.lft.to/lastmile_qr_scan"}, "name": "65073ce33d6991cd26409cfa11f8b4ae", "type": "electric_bike", "lat": 38.93248666666667, "is_disabled": 0}, {"fusion_lat": 0.0, "lon": -77.03204216666667, "is_reserved": 0, "bike_id": "ece3a59e86fe3f7fb7e4eec688e04a43", "fusion_lon": 0.0, "rental_uris": {"android": "https://dc.lft.to/lastmile_qr_scan", "ios": "https://dc.lft.to/lastmile_qr_scan"}, "name": "ece3a59e86fe3f7fb7e4eec688e04a43", "type": "electric_scooter", "lat": 38.905405, "is_disabled": 0}, {"fusion_lat": 0.0, "lon": -77.08401183333334, "is_reserved": 0, "bike_id": "7f4996e82656af293836601e0efeb6a1", "fusion_lon": 0.0, "rental_uris": {"android": "https://dc.lft.to/lastmile_qr_scan", "ios": "https://dc.lft.to/lastmile_qr_scan"}, "name": "7f4996e82656af293836601e0efeb6a1", "type": "electric_scooter", "lat": 38.908037, "is_disabled": 0}, {"fusion_lat": 0.0, "lon": -77.03100583333334, "is_reserved": 0, "bike_id": "6e62c0dd461e52850848b92d884f09a6", "fusion_lon": 0.0, "rental_uris": {"android": "https://dc.lft.to/lastmile_qr_scan", "ios": "https://dc.lft.to/lastmile_qr_scan"}, "name": "6e62c0dd461e52850848b92d884f09a6", "type": "electric_scooter", "lat": 38.950730166666666, "is_disabled": 0}, {"fusion_lat": 0.0, "lon": -77.004581, "is_reserved": 0, "bike_id": "69bf67588fd0152e77ff568803d911fc", "fusion_lon": 0.0, "rental_uris": {"android": "https://dc.lft.to/lastmile_qr_scan", "ios": "https://dc.lft.to/lastmile_qr_scan"}, "name": "69bf67588fd0152e77ff568803d911fc", "type": "electric_scooter", "lat": 38.911978, "is_disabled": 0}, {"fusion_lat": 0.0, "lon": -77.0382715, "is_reserved": 0, "bike_id": "b926839638cba7253e8ec494fb57b0a0", "fusion_lon": 0.0, "rental_uris": {"android": "https://dc.lft.to/lastmile_qr_scan", "ios": "https://dc.lft.to/lastmile_qr_scan"}, "name": "b926839638cba7253e8ec494fb57b0a0", "type": "electric_scooter", "lat": 38.904258666666664, "is_disabled": 0}, {"fusion_lat": 0.0, "lon": -76.99502, "is_reserved": 0, "bike_id": "ff3a7708efa557f1fc6c9f0bc13f4136", "fusion_lon": 0.0, "rental_uris": {"android": "https://dc.lft.to/lastmile_qr_scan", "ios": "https://dc.lft.to/lastmile_qr_scan"}, "name": "ff3a7708efa557f1fc6c9f0bc13f4136", "type": "electric_scooter", "lat": 38.8800855, "is_disabled": 0}, {"fusion_lat": 0.0, "lon": -77.036578, "is_reserved": 0, "bike_id": "0ae680d2ffde53792923a6a4f2938699", "fusion_lon": 0.0, "rental_uris": {"android": "https://dc.lft.to/lastmile_qr_scan", "ios": "https://dc.lft.to/lastmile_qr_scan"}, "name": "0ae680d2ffde53792923a6a4f2938699", "type": "electric_scooter", "lat": 38.902742833333335, "is_disabled": 0}, {"fusion_lat": 0.0, "lon": -77.04302016666666, "is_reserved": 0, "bike_id": "c012c9517cf76f328764ab662b705777", "fusion_lon": 0.0, "rental_uris": {"android": "https://dc.lft.to/lastmile_qr_scan", "ios": "https://dc.lft.to/lastmile_qr_scan"}, "name": "c012c9517cf76f328764ab662b705777", "type": "electric_scooter", "lat": 38.893623166666664, "is_disabled": 0}, {"fusion_lat": 0.0, "lon": -77.03215716666666, "is_reserved": 0, "bike_id": "15047b78789bb8faca6f9ae213229c31", "fusion_lon": 0.0, "rental_uris": {"android": "https://dc.lft.to/lastmile_qr_scan", "ios": "https://dc.lft.to/lastmile_qr_scan"}, "name": "15047b78789bb8faca6f9ae213229c31", "type": "electric_scooter", "lat": 38.9140585, "is_disabled": 0}, {"fusion_lat": 0.0, "lon": -77.0369005, "is_reserved": 0, "bike_id": "65223166aff3a9c410a946aaf61f20e4", "fusion_lon": 0.0, "rental_uris": {"android": "https://dc.lft.to/lastmile_qr_scan", "ios": "https://dc.lft.to/lastmile_qr_scan"}, "name": "65223166aff3a9c410a946aaf61f20e4", "type": "electric_scooter", "lat": 38.9167825, "is_disabled": 0}, {"fusion_lat": 0.0, "lon": -76.94630583333333, "is_reserved": 0, "bike_id": "59af67b02d991c578c7f4889d23892c1", "fusion_lon": 0.0, "rental_uris": {"android": "https://dc.lft.to/lastmile_qr_scan", "ios": "https://dc.lft.to/lastmile_qr_scan"}, "name": "59af67b02d991c578c7f4889d23892c1", "type": "electric_scooter", "lat": 38.898438, "is_disabled": 0}, {"fusion_lat": 0.0, "lon": -77.05531116666667, "is_reserved": 0, "bike_id": "93a1293885d2418895bbcd9f89dde6e3", "fusion_lon": 0.0, "rental_uris": {"android": "https://dc.lft.to/lastmile_qr_scan", "ios": "https://dc.lft.to/lastmile_qr_scan"}, "name": "93a1293885d2418895bbcd9f89dde6e3", "type": "electric_scooter", "lat": 38.92802066666667, "is_disabled": 0}, {"fusion_lat": 0.0, "lon": -77.07474666666667, "is_reserved": 0, "bike_id": "aa0747676f4ea897dc5721e5338ccdf5", "fusion_lon": 0.0, "rental_uris": {"android": "https://dc.lft.to/lastmile_qr_scan", "ios": "https://dc.lft.to/lastmile_qr_scan"}, "name": "aa0747676f4ea897dc5721e5338ccdf5", "type": "electric_scooter", "lat": 38.963767, "is_disabled": 0}, {"fusion_lat": 0.0, "lon": -76.9487785, "is_reserved": 0, "bike_id": "f358f1c0732f087812b364ee1a5eae5b", "fusion_lon": 0.0, "rental_uris": {"android": "https://dc.lft.to/lastmile_qr_scan", "ios": "https://dc.lft.to/lastmile_qr_scan"}, "name": "f358f1c0732f087812b364ee1a5eae5b", "type": "electric_scooter", "lat": 38.895483666666664, "is_disabled": 0}, {"fusion_lat": 0.0, "lon": -77.024019, "is_reserved": 0, "bike_id": "0c1f455994e9d2eac7701f02a9416bd8", "fusion_lon": 0.0, "rental_uris": {"android": "https://dc.lft.to/lastmile_qr_scan", "ios": "https://dc.lft.to/lastmile_qr_scan"}, "name": "0c1f455994e9d2eac7701f02a9416bd8", "type": "electric_scooter", "lat": 38.9573515, "is_disabled": 0}, {"fusion_lat": 0.0, "lon": -77.02788533333333, "is_reserved": 0, "bike_id": "16dc2ced9165db6e03d025d2c3040ebc", "fusion_lon": 0.0, "rental_uris": {"android": "https://dc.lft.to/lastmile_qr_scan", "ios": "https://dc.lft.to/lastmile_qr_scan"}, "name": "16dc2ced9165db6e03d025d2c3040ebc", "type": "electric_scooter", "lat": 38.927703666666666, "is_disabled": 0}, {"fusion_lat": 0.0, "lon": -76.98100666666667, "is_reserved": 0, "bike_id": "7d0c00c597f303dffe379e6e848e96b6", "fusion_lon": 0.0, "rental_uris": {"android": "https://dc.lft.to/lastmile_qr_scan", "ios": "https://dc.lft.to/lastmile_qr_scan"}, "name": "7d0c00c597f303dffe379e6e848e96b6", "type": "electric_scooter", "lat": 38.903914, "is_disabled": 0}, {"fusion_lat": 0.0, "lon": -77.02516616666666, "is_reserved": 0, "bike_id": "2c324d5f08465d85d58f5b56bec91dbe", "fusion_lon": 0.0, "rental_uris": {"android": "https://dc.lft.to/lastmile_qr_scan", "ios": "https://dc.lft.to/lastmile_qr_scan"}, "name": "2c324d5f08465d85d58f5b56bec91dbe", "type": "electric_scooter", "lat": 38.920755, "is_disabled": 0}, {"fusion_lat": 0.0, "lon": -77.00723183333334, "is_reserved": 0, "bike_id": "27618bad2f8859c9e36aa717c61a4086", "fusion_lon": 0.0, "rental_uris": {"android": "https://dc.lft.to/lastmile_qr_scan", "ios": "https://dc.lft.to/lastmile_qr_scan"}, "name": "27618bad2f8859c9e36aa717c61a4086", "type": "electric_scooter", "lat": 38.88490816666667, "is_disabled": 0}, {"fusion_lat": 0.0, "lon": -77.034657, "is_reserved": 0, "bike_id": "7c0ecd25bae30fce321f9b893a424e91", "fusion_lon": 0.0, "rental_uris": {"android": "https://dc.lft.to/lastmile_qr_scan", "ios": "https://dc.lft.to/lastmile_qr_scan"}, "name": "7c0ecd25bae30fce321f9b893a424e91", "type": "electric_scooter", "lat": 38.918775333333336, "is_disabled": 0}, {"fusion_lat": 0.0, "lon": -76.9965315, "is_reserved": 0, "bike_id": "d0f91c47f51b84430a86de5a526c1953", "fusion_lon": 0.0, "rental_uris": {"android": "https://dc.lft.to/lastmile_qr_scan", "ios": "https://dc.lft.to/lastmile_qr_scan"}, "name": "d0f91c47f51b84430a86de5a526c1953", "type": "electric_bike", "lat": 38.9882315, "is_disabled": 0}, {"fusion_lat": 0.0, "lon": -77.0673015, "is_reserved": 0, "bike_id": "f977551f09aa2eade5781dddc0e964ee", "fusion_lon": 0.0, "rental_uris": {"android": "https://dc.lft.to/lastmile_qr_scan", "ios": "https://dc.lft.to/lastmile_qr_scan"}, "name": "f977551f09aa2eade5781dddc0e964ee", "type": "electric_scooter", "lat": 38.9068065, "is_disabled": 0}, {"fusion_lat": 0.0, "lon": -77.01770433333333, "is_reserved": 0, "bike_id": "e0dbe024b383219ae2dcf5971784b29a", "fusion_lon": 0.0, "rental_uris": {"android": "https://dc.lft.to/lastmile_qr_scan", "ios": "https://dc.lft.to/lastmile_qr_scan"}, "name": "e0dbe024b383219ae2dcf5971784b29a", "type": "electric_scooter", "lat": 38.887123333333335, "is_disabled": 0}, {"fusion_lat": 0.0, "lon": -77.03870666666667, "is_reserved": 0, "bike_id": "86de3dc94962b7fb3494ccd585c1bec4", "fusion_lon": 0.0, "rental_uris": {"android": "https://dc.lft.to/lastmile_qr_scan", "ios": "https://dc.lft.to/lastmile_qr_scan"}, "name": "86de3dc94962b7fb3494ccd585c1bec4", "type": "electric_scooter", "lat": 38.907871, "is_disabled": 0}, {"fusion_lat": 0.0, "lon": -77.0480855, "is_reserved": 0, "bike_id": "cb268a25ae4e93e3dfd24dfb53ffb10d", "fusion_lon": 0.0, "rental_uris": {"android": "https://dc.lft.to/lastmile_qr_scan", "ios": "https://dc.lft.to/lastmile_qr_scan"}, "name": "cb268a25ae4e93e3dfd24dfb53ffb10d", "type": "electric_scooter", "lat": 38.90485316666667, "is_disabled": 0}, {"fusion_lat": 0.0, "lon": -77.02307316666666, "is_reserved": 0, "bike_id": "6f76efede7c615e6296ba3bcfd691793", "fusion_lon": 0.0, "rental_uris": {"android": "https://dc.lft.to/lastmile_qr_scan", "ios": "https://dc.lft.to/lastmile_qr_scan"}, "name": "6f76efede7c615e6296ba3bcfd691793", "type": "electric_scooter", "lat": 38.91782716666667, "is_disabled": 0}, {"fusion_lat": 0.0, "lon": -77.0338575, "is_reserved": 0, "bike_id": "fc1dc6a4d08b86717c5e1fcbeb6cb172", "fusion_lon": 0.0, "rental_uris": {"android": "https://dc.lft.to/lastmile_qr_scan", "ios": "https://dc.lft.to/lastmile_qr_scan"}, "name": "fc1dc6a4d08b86717c5e1fcbeb6cb172", "type": "electric_scooter", "lat": 38.92358016666667, "is_disabled": 0}, {"fusion_lat": 0.0, "lon": -77.0259695, "is_reserved": 0, "bike_id": "2dfb20c970dbc82c1259dc5bf3dfdcf1", "fusion_lon": 0.0, "rental_uris": {"android": "https://dc.lft.to/lastmile_qr_scan", "ios": "https://dc.lft.to/lastmile_qr_scan"}, "name": "2dfb20c970dbc82c1259dc5bf3dfdcf1", "type": "electric_scooter", "lat": 38.925832666666665, "is_disabled": 0}, {"fusion_lat": 0.0, "lon": -77.03680583333333, "is_reserved": 0, "bike_id": "73ed36916b790a33793092d643643311", "fusion_lon": 0.0, "rental_uris": {"android": "https://dc.lft.to/lastmile_qr_scan", "ios": "https://dc.lft.to/lastmile_qr_scan"}, "name": "73ed36916b790a33793092d643643311", "type": "electric_scooter", "lat": 38.91037683333333, "is_disabled": 0}, {"fusion_lat": 0.0, "lon": -77.031824, "is_reserved": 0, "bike_id": "397bf31bd0ddf556c82e9d0e1b2dbfe6", "fusion_lon": 0.0, "rental_uris": {"android": "https://dc.lft.to/lastmile_qr_scan", "ios": "https://dc.lft.to/lastmile_qr_scan"}, "name": "397bf31bd0ddf556c82e9d0e1b2dbfe6", "type": "electric_scooter", "lat": 38.90827316666667, "is_disabled": 0}, {"fusion_lat": 0.0, "lon": -77.021601, "is_reserved": 0, "bike_id": "02f5dbd727d4c8900a7504a37cdcd12d", "fusion_lon": 0.0, "rental_uris": {"android": "https://dc.lft.to/lastmile_qr_scan", "ios": "https://dc.lft.to/lastmile_qr_scan"}, "name": "02f5dbd727d4c8900a7504a37cdcd12d", "type": "electric_scooter", "lat": 38.929091666666665, "is_disabled": 0}, {"fusion_lat": 0.0, "lon": -77.01218783333333, "is_reserved": 0, "bike_id": "e8e7216707c48a90e39aca32f3d5029b", "fusion_lon": 0.0, "rental_uris": {"android": "https://dc.lft.to/lastmile_qr_scan", "ios": "https://dc.lft.to/lastmile_qr_scan"}, "name": "e8e7216707c48a90e39aca32f3d5029b", "type": "electric_scooter", "lat": 38.917539166666664, "is_disabled": 0}, {"fusion_lat": 0.0, "lon": -76.98113366666666, "is_reserved": 0, "bike_id": "9a17d72c1d6ed07e19f04b2dce4ed274", "fusion_lon": 0.0, "rental_uris": {"android": "https://dc.lft.to/lastmile_qr_scan", "ios": "https://dc.lft.to/lastmile_qr_scan"}, "name": "9a17d72c1d6ed07e19f04b2dce4ed274", "type": "electric_scooter", "lat": 38.90414116666667, "is_disabled": 0}, {"fusion_lat": 0.0, "lon": -76.98355933333333, "is_reserved": 0, "bike_id": "65d3d08b6063907d67bcf15f8deeea23", "fusion_lon": 0.0, "rental_uris": {"android": "https://dc.lft.to/lastmile_qr_scan", "ios": "https://dc.lft.to/lastmile_qr_scan"}, "name": "65d3d08b6063907d67bcf15f8deeea23", "type": "electric_scooter", "lat": 38.915414, "is_disabled": 0}, {"fusion_lat": 0.0, "lon": -77.005894, "is_reserved": 0, "bike_id": "daf93c4124f6724ac5710799ba06933a", "fusion_lon": 0.0, "rental_uris": {"android": "https://dc.lft.to/lastmile_qr_scan", "ios": "https://dc.lft.to/lastmile_qr_scan"}, "name": "daf93c4124f6724ac5710799ba06933a", "type": "electric_scooter", "lat": 38.9055515, "is_disabled": 0}, {"fusion_lat": 0.0, "lon": -77.03080066666666, "is_reserved": 0, "bike_id": "78eb6640183ba81a2464cb0a1d2ad6b1", "fusion_lon": 0.0, "rental_uris": {"android": "https://dc.lft.to/lastmile_qr_scan", "ios": "https://dc.lft.to/lastmile_qr_scan"}, "name": "78eb6640183ba81a2464cb0a1d2ad6b1", "type": "electric_scooter", "lat": 38.92246683333333, "is_disabled": 0}, {"fusion_lat": 0.0, "lon": -77.03177866666667, "is_reserved": 0, "bike_id": "07ccc049c9cd9770f7528f68c5004a5d", "fusion_lon": 0.0, "rental_uris": {"android": "https://dc.lft.to/lastmile_qr_scan", "ios": "https://dc.lft.to/lastmile_qr_scan"}, "name": "07ccc049c9cd9770f7528f68c5004a5d", "type": "electric_scooter", "lat": 38.916488333333334, "is_disabled": 0}, {"fusion_lat": 0.0, "lon": -77.02795766666667, "is_reserved": 0, "bike_id": "d7b7a25d41135edc05523047c753bc55", "fusion_lon": 0.0, "rental_uris": {"android": "https://dc.lft.to/lastmile_qr_scan", "ios": "https://dc.lft.to/lastmile_qr_scan"}, "name": "d7b7a25d41135edc05523047c753bc55", "type": "electric_scooter", "lat": 38.954033833333334, "is_disabled": 0}, {"fusion_lat": 0.0, "lon": -76.998263, "is_reserved": 0, "bike_id": "13866af9f8564661f4e7751d7036cd33", "fusion_lon": 0.0, "rental_uris": {"android": "https://dc.lft.to/lastmile_qr_scan", "ios": "https://dc.lft.to/lastmile_qr_scan"}, "name": "13866af9f8564661f4e7751d7036cd33", "type": "electric_scooter", "lat": 38.908663, "is_disabled": 0}, {"fusion_lat": 0.0, "lon": -77.04374516666667, "is_reserved": 0, "bike_id": "27b3880674e96c9987337524eb83a46b", "fusion_lon": 0.0, "rental_uris": {"android": "https://dc.lft.to/lastmile_qr_scan", "ios": "https://dc.lft.to/lastmile_qr_scan"}, "name": "27b3880674e96c9987337524eb83a46b", "type": "electric_scooter", "lat": 38.89220316666667, "is_disabled": 0}, {"fusion_lat": 0.0, "lon": -76.98388833333334, "is_reserved": 0, "bike_id": "ae6fc8a9bab74a72c8457758d7fe2d77", "fusion_lon": 0.0, "rental_uris": {"android": "https://dc.lft.to/lastmile_qr_scan", "ios": "https://dc.lft.to/lastmile_qr_scan"}, "name": "ae6fc8a9bab74a72c8457758d7fe2d77", "type": "electric_scooter", "lat": 38.86703583333333, "is_disabled": 0}, {"fusion_lat": 0.0, "lon": -77.00963966666667, "is_reserved": 0, "bike_id": "80ba6c6767106a0d2cc1fe60e94c0535", "fusion_lon": 0.0, "rental_uris": {"android": "https://dc.lft.to/lastmile_qr_scan", "ios": "https://dc.lft.to/lastmile_qr_scan"}, "name": "80ba6c6767106a0d2cc1fe60e94c0535", "type": "electric_scooter", "lat": 38.917056, "is_disabled": 0}, {"fusion_lat": 0.0, "lon": -77.01224716666667, "is_reserved": 0, "bike_id": "c43e2ed0fe3929c0bbd532d5144579ec", "fusion_lon": 0.0, "rental_uris": {"android": "https://dc.lft.to/lastmile_qr_scan", "ios": "https://dc.lft.to/lastmile_qr_scan"}, "name": "c43e2ed0fe3929c0bbd532d5144579ec", "type": "electric_scooter", "lat": 38.914325833333336, "is_disabled": 0}, {"fusion_lat": 0.0, "lon": -77.0588605, "is_reserved": 0, "bike_id": "3e5c925c4cbe0dd5753f0945d2e54dc4", "fusion_lon": 0.0, "rental_uris": {"android": "https://dc.lft.to/lastmile_qr_scan", "ios": "https://dc.lft.to/lastmile_qr_scan"}, "name": "3e5c925c4cbe0dd5753f0945d2e54dc4", "type": "electric_scooter", "lat": 38.91823516666667, "is_disabled": 0}, {"fusion_lat": 0.0, "lon": -76.98103333333333, "is_reserved": 0, "bike_id": "239cb7ce23e8ae43203e7db1481d30f9", "fusion_lon": 0.0, "rental_uris": {"android": "https://dc.lft.to/lastmile_qr_scan", "ios": "https://dc.lft.to/lastmile_qr_scan"}, "name": "239cb7ce23e8ae43203e7db1481d30f9", "type": "electric_scooter", "lat": 38.90413616666667, "is_disabled": 0}, {"fusion_lat": 0.0, "lon": -77.02308616666667, "is_reserved": 0, "bike_id": "4aa7271e89bc3dd30ddb73a0f426bd6a", "fusion_lon": 0.0, "rental_uris": {"android": "https://dc.lft.to/lastmile_qr_scan", "ios": "https://dc.lft.to/lastmile_qr_scan"}, "name": "4aa7271e89bc3dd30ddb73a0f426bd6a", "type": "electric_scooter", "lat": 38.909094, "is_disabled": 0}, {"fusion_lat": 0.0, "lon": -77.0709725, "is_reserved": 0, "bike_id": "e4ef2e6a18faad3eb3baa94128c6ea72", "fusion_lon": 0.0, "rental_uris": {"android": "https://dc.lft.to/lastmile_qr_scan", "ios": "https://dc.lft.to/lastmile_qr_scan"}, "name": "e4ef2e6a18faad3eb3baa94128c6ea72", "type": "electric_scooter", "lat": 38.907718, "is_disabled": 0}, {"fusion_lat": 0.0, "lon": -76.97561366666666, "is_reserved": 0, "bike_id": "ba03623809fa680ce4604ccdbf02c85c", "fusion_lon": 0.0, "rental_uris": {"android": "https://dc.lft.to/lastmile_qr_scan", "ios": "https://dc.lft.to/lastmile_qr_scan"}, "name": "ba03623809fa680ce4604ccdbf02c85c", "type": "electric_bike", "lat": 38.924569166666664, "is_disabled": 0}, {"fusion_lat": 0.0, "lon": -77.04683933333334, "is_reserved": 0, "bike_id": "8a6f0d11b69b2b4d06c2e9ceb902c420", "fusion_lon": 0.0, "rental_uris": {"android": "https://dc.lft.to/lastmile_qr_scan", "ios": "https://dc.lft.to/lastmile_qr_scan"}, "name": "8a6f0d11b69b2b4d06c2e9ceb902c420", "type": "electric_scooter", "lat": 38.92133716666667, "is_disabled": 0}, {"fusion_lat": 0.0, "lon": -77.01761866666666, "is_reserved": 0, "bike_id": "b20325d4a49907b762fd2c6315bd562a", "fusion_lon": 0.0, "rental_uris": {"android": "https://dc.lft.to/lastmile_qr_scan", "ios": "https://dc.lft.to/lastmile_qr_scan"}, "name": "b20325d4a49907b762fd2c6315bd562a", "type": "electric_scooter", "lat": 38.87687, "is_disabled": 0}, {"fusion_lat": 0.0, "lon": -77.01714783333334, "is_reserved": 0, "bike_id": "fdb7398b86196d04de621671f557eb67", "fusion_lon": 0.0, "rental_uris": {"android": "https://dc.lft.to/lastmile_qr_scan", "ios": "https://dc.lft.to/lastmile_qr_scan"}, "name": "fdb7398b86196d04de621671f557eb67", "type": "electric_scooter", "lat": 38.97490066666667, "is_disabled": 0}, {"fusion_lat": 0.0, "lon": -76.99828883333333, "is_reserved": 0, "bike_id": "5fa1dfd207b5c73cfe046b0e1466fa53", "fusion_lon": 0.0, "rental_uris": {"android": "https://dc.lft.to/lastmile_qr_scan", "ios": "https://dc.lft.to/lastmile_qr_scan"}, "name": "5fa1dfd207b5c73cfe046b0e1466fa53", "type": "electric_scooter", "lat": 38.883234, "is_disabled": 0},