{"data": {"bikes": [{"type": "electric_scooter", "rental_uris": {"ios": "https://dc.lft.to/lastmile_qr_scan", "android": "https://dc.lft.to/lastmile_qr_scan"}, "lon": -77.0417695, "fusion_lon": 0.0, "is_disabled": 0, "lat": 38.91983166666667, "bike_id": "2fb472847bd0464830f24186d44a241e", "name": "2fb472847bd0464830f24186d44a241e", "is_reserved": 0, "fusion_lat": 0.0}, {"type": "electric_scooter", "rental_uris": {"ios": "https://dc.lft.to/lastmile_qr_scan", "android": "https://dc.lft.to/lastmile_qr_scan"}, "lon": -77.02383633333334, "fusion_lon": 0.0, "is_disabled": 0, "lat": 38.9173465, "bike_id": "c50ec593534e289814ee65c613b7041b", "name": "c50ec593534e289814ee65c613b7041b", "is_reserved": 0, "fusion_lat": 0.0}, {"type": "electric_scooter", "rental_uris": {"ios": "https://dc.lft.to/lastmile_qr_scan", "android": "https://dc.lft.to/lastmile_qr_scan"}, "lon": -76.99961883333333, "fusion_lon": 0.0, "is_disabled": 0, "lat": 38.90868583333334, "bike_id": "7e95f2fabd8b31ec76ede329eceac9db", "name": "7e95f2fabd8b31ec76ede329eceac9db", "is_reserved": 0, "fusion_lat": 0.0}, {"type": "electric_bike", "rental_uris": {"ios": "https://dc.lft.to/lastmile_qr_scan", "android": "https://dc.lft.to/lastmile_qr_scan"}, "lon": -77.00204066666667, "fusion_lon": 0.0, "is_disabled": 0, "lat": 38.81931633333333, "bike_id": "f0453dfeee92732a47f30ba09c65d2d4", "name": "f0453dfeee92732a47f30ba09c65d2d4", "is_reserved": 0, "fusion_lat": 0.0}, {"type": "electric_scooter", "rental_uris": {"ios": "https://dc.lft.to/lastmile_qr_scan", "android": "https://dc.lft.to/lastmile_qr_scan"}, "lon": -76.99845316666666, "fusion_lon": 0.0, "is_disabled": 0, "lat": 38.90039683333333, "bike_id": "35ea1c64db31f8346563138e2c171063", "name": "35ea1c64db31f8346563138e2c171063", "is_reserved": 0, "fusion_lat": 0.0}, {"type": "electric_scooter", "rental_uris": {"ios": "https://dc.lft.to/lastmile_qr_scan", "android": "https://dc.lft.to/lastmile_qr_scan"}, "lon": -76.98502966666666, "fusion_lon": 0.0, "is_disabled": 0, "lat": 38.89473016666667, "bike_id": "b2ac58c76ebf437b9554831da74d4dc0", "name": "b2ac58c76ebf437b9554831da74d4dc0", "is_reserved": 0, "fusion_lat": 0.0}, {"type": "electric_bike", "rental_uris": {"ios": "https://dc.lft.to/lastmile_qr_scan", "android": "https://dc.lft.to/lastmile_qr_scan"}, "lon": -77.04135983333333, "fusion_lon": 0.0, "is_disabled": 0, "lat": 38.804990833333335, "bike_id": "9117877db4c26e8263fb81f84709daa4", "name": "9117877db4c26e8263fb81f84709daa4", "is_reserved": 0, "fusion_lat": 0.0}, {"type": "electric_scooter", "rental_uris": {"ios": "https://dc.lft.to/lastmile_qr_scan", "android": "https://dc.lft.to/lastmile_qr_scan"}, "lon": -77.04353416666666, "fusion_lon": 0.0, "is_disabled": 0, "lat": 38.90524633333333, "bike_id": "0d8eefb228462ceca8e1c2687f766d1b", "name": "0d8eefb228462ceca8e1c2687f766d1b", "is_reserved": 0, "fusion_lat": 0.0}, {"type": "electric_scooter", "rental_uris": {"ios": "https://dc.lft.to/lastmile_qr_scan", "android": "https://dc.lft.to/lastmile_qr_scan"}, "lon": -77.04846483333333, "fusion_lon": 0.0, "is_disabled": 0, "lat": 38.91187383333333, "bike_id": "6baf5e2cdc1ab62d9009262a7a97bf43", "name": "6baf5e2cdc1ab62d9009262a7a97bf43", "is_reserved": 0, "fusion_lat": 0.0}, {"type": "electric_scooter", "rental_uris": {"ios": "https://dc.lft.to/lastmile_qr_scan", "android": "https://dc.lft.to/lastmile_qr_scan"}, "lon": -77.03199066666667, "fusion_lon": 0.0, "is_disabled": 0, "lat": 38.9176925, "bike_id": "89ecfdfb8acc97397452c1a69821c62a", "name": "89ecfdfb8acc97397452c1a69821c62a", "is_reserved": 0, "fusion_lat": 0.0}, {"type": "electric_scooter", "rental_uris": {"ios": "https://dc.lft.to/lastmile_qr_scan", "android": "https://dc.lft.to/lastmile_qr_scan"}, "lon": -77.02694666666666, "fusion_lon": 0.0, "is_disabled": 0, "lat": 38.906051166666664, "bike_id": "4de497ad1a3cab729970dbd455a06f4b", "name": "4de497ad1a3cab729970dbd455a06f4b", "is_reserved": 0, "fusion_lat": 0.0}, {"type": "electric_scooter", "rental_uris": {"ios": "https://dc.lft.to/lastmile_qr_scan", "android": "https://dc.lft.to/lastmile_qr_scan"}, "lon": -77.04215933333333, "fusion_lon": 0.0, "is_disabled": 0, "lat": 38.911201, "bike_id": "e4560d5c45af90cb3af826139d017516", "name": "e4560d5c45af90cb3af826139d017516", "is_reserved": 0, "fusion_lat": 0.0}, {"type": "electric_scooter", "rental_uris": {"ios": "https://dc.lft.to/lastmile_qr_scan", "android": "https://dc.lft.to/lastmile_qr_scan"}, "lon": -77.04008316666666, "fusion_lon": 0.0, "is_disabled": 0, "lat": 38.92430133333333, "bike_id": "cfd785533a68d9d7dc99d5874e567a96", "name": "cfd785533a68d9d7dc99d5874e567a96", "is_reserved": 0, "fusion_lat": 0.0}, {"type": "electric_scooter", "rental_uris": {"ios": "https://dc.lft.to/lastmile_qr_scan", "android": "https://dc.lft.to/lastmile_qr_scan"}, "lon": -77.0429585, "fusion_lon": 0.0, "is_disabled": 0, "lat": 38.92262766666666, "bike_id": "acaab680240f86ae8d5d404f29c6c80e", "name": "acaab680240f86ae8d5d404f29c6c80e", "is_reserved": 0, "fusion_lat": 0.0}, {"type": "electric_scooter", "rental_uris": {"ios": "https://dc.lft.to/lastmile_qr_scan", "android": "https://dc.lft.to/lastmile_qr_scan"}, "lon": -77.04409316666667, "fusion_lon": 0.0, "is_disabled": 0, "lat": 38.9135595, "bike_id": "a8d103c1dccc40d96ca730d3f30d98ed", "name": "a8d103c1dccc40d96ca730d3f30d98ed", "is_reserved": 0, "fusion_lat": 0.0}, {"type": "electric_scooter", "rental_uris": {"ios": "https://dc.lft.to/lastmile_qr_scan", "android": "https://dc.lft.to/lastmile_qr_scan"}, "lon": -77.02600233333334, "fusion_lon": 0.0, "is_disabled": 0, "lat": 38.90615866666667, "bike_id": "eb9ad3f710cd624e190094391c1fc0ed", "name": "eb9ad3f710cd624e190094391c1fc0ed", "is_reserved": 0, "fusion_lat": 0.0}, {"type": "electric_scooter", "rental_uris": {"ios": "https://dc.lft.to/lastmile_qr_scan", "android": "https://dc.lft.to/lastmile_qr_scan"}, "lon": -76.94874666666666, "fusion_lon": 0.0, "is_disabled": 0, "lat": 38.895014333333336, "bike_id": "4f728994d80807c4e7dbf6576ac23c1a", "name": "4f728994d80807c4e7dbf6576ac23c1a", "is_reserved": 0, "fusion_lat": 0.0}, {"type": "electric_scooter", "rental_uris": {"ios": "https://dc.lft.to/lastmile_qr_scan", "android": "https://dc.lft.to/lastmile_qr_scan"}, "lon": -77.04242266666667, "fusion_lon": 0.0, "is_disabled": 0, "lat": 38.922135, "bike_id": "9b3be01f3221630acf29dcbe61601f65", "name": "9b3be01f3221630acf29dcbe61601f65", "is_reserved": 0, "fusion_lat": 0.0}, {"type": "electric_scooter", "rental_uris": {"ios": "https://dc.lft.to/lastmile_qr_scan", "android": "https://dc.lft.to/lastmile_qr_scan"}, "lon": -77.02683166666667, "fusion_lon": 0.0, "is_disabled": 0, "lat": 38.8992475, "bike_id": "0ae657e30d106edd2fb16c01747a935d", "name": "0ae657e30d106edd2fb16c01747a935d", "is_reserved": 0, "fusion_lat": 0.0}, {"type": "electric_bike", "rental_uris": {"ios": "https://dc.lft.to/lastmile_qr_scan", "android": "https://dc.lft.to/lastmile_qr_scan"}, "lon": -77.044155, "fusion_lon": 0.0, "is_disabled": 0, "lat": 39.015670166666666, "bike_id": "2b75a0f89510f29429ca870eceb60b97", "name": "2b75a0f89510f29429ca870eceb60b97", "is_reserved": 0, "fusion_lat": 0.0}, {"type": "electric_bike", "rental_uris": {"ios": "https://dc.lft.to/lastmile_qr_scan", "android": "https://dc.lft.to/lastmile_qr_scan"}, "lon": -77.03824366666667, "fusion_lon": 0.0, "is_disabled": 0, "lat": 38.914081833333334, "bike_id": "89760d547ea0f2b1ac25c0ac4be0320e", "name": "89760d547ea0f2b1ac25c0ac4be0320e", "is_reserved": 0, "fusion_lat": 0.0}, {"type": "electric_scooter", "rental_uris": {"ios": "https://dc.lft.to/lastmile_qr_scan", "android": "https://dc.lft.to/lastmile_qr_scan"}, "lon": -77.0268875, "fusion_lon": 0.0, "is_disabled": 0, "lat": 38.916894166666665, "bike_id": "4098bf8b69e264712ccf4b74932edfb6", "name": "4098bf8b69e264712ccf4b74932edfb6", "is_reserved": 0, "fusion_lat": 0.0}, {"type": "electric_scooter", "rental_uris": {"ios": "https://dc.lft.to/lastmile_qr_scan", "android": "https://dc.lft.to/lastmile_qr_scan"}, "lon": -77.02603583333334, "fusion_lon": 0.0, "is_disabled": 0, "lat": 38.905288, "bike_id": "f07eb6e05377ee72fbb0e63b77bd5b1d", "name": "f07eb6e05377ee72fbb0e63b77bd5b1d", "is_reserved": 0, "fusion_lat": 0.0}, {"type": "electric_scooter", "rental_uris": {"ios": "https://dc.lft.to/lastmile_qr_scan", "android": "https://dc.lft.to/lastmile_qr_scan"}, "lon": -77.043697, "fusion_lon": 0.0, "is_disabled": 0, "lat": 38.89221766666667, "bike_id": "b3faa29e193b7b7a7879e8a464103075", "name": "b3faa29e193b7b7a7879e8a464103075", "is_reserved": 0, "fusion_lat": 0.0}, {"type": "electric_scooter", "rental_uris": {"ios": "https://dc.lft.to/lastmile_qr_scan", "android": "https://dc.lft.to/lastmile_qr_scan"}, "lon": -77.02333233333333, "fusion_lon": 0.0, "is_disabled": 0, "lat": 38.917745833333335, "bike_id": "bcd7fa5da3a78c0f98f005d8fc48a0fb", "name": "bcd7fa5da3a78c0f98f005d8fc48a0fb", "is_reserved": 0, "fusion_lat": 0.0}, {"type": "electric_scooter", "rental_uris": {"ios": "https://dc.lft.to/lastmile_qr_scan", "android": "https://dc.lft.to/lastmile_qr_scan"}, "lon": -77.0447395, "fusion_lon": 0.0, "is_disabled": 0, "lat": 38.915360166666666, "bike_id": "e2106ed295b51dc7421d7d9ef74d9750", "name": "e2106ed295b51dc7421d7d9ef74d9750", "is_reserved": 0, "fusion_lat": 0.0}, {"type": "electric_scooter", "rental_uris": {"ios": "https://dc.lft.to/lastmile_qr_scan", "android": "https://dc.lft.to/lastmile_qr_scan"}, "lon": -77.02788516666666, "fusion_lon": 0.0, "is_disabled": 0, "lat": 38.9613105, "bike_id": "8ab6ccdbfe3e071d80420f0df4fcd575", "name": "8ab6ccdbfe3e071d80420f0df4fcd575", "is_reserved": 0, "fusion_lat": 0.0}, {"type": "electric_scooter", "rental_uris": {"ios": "https://dc.lft.to/lastmile_qr_scan", "android": "https://dc.lft.to/lastmile_qr_scan"}, "lon": -77.04014683333334, "fusion_lon": 0.0, "is_disabled": 0, "lat": 38.922064166666665, "bike_id": "91ba6092f17ea95fbb35d378b13735dc", "name": "91ba6092f17ea95fbb35d378b13735dc", "is_reserved": 0, "fusion_lat": 0.0}, {"type": "electric_scooter", "rental_uris": {"ios": "https://dc.lft.to/lastmile_qr_scan", "android": "https://dc.lft.to/lastmile_qr_scan"}, "lon": -77.04027533333333, "fusion_lon": 0.0, "is_disabled": 0, "lat": 38.9180605, "bike_id": "4bbd6012644a1f34a58ee31359a75065", "name": "4bbd6012644a1f34a58ee31359a75065", "is_reserved": 0, "fusion_lat": 0.0}, {"type": "electric_scooter", "rental_uris": {"ios": "https://dc.lft.to/lastmile_qr_scan", "android": "https://dc.lft.to/lastmile_qr_scan"}, "lon": -77.04228583333334, "fusion_lon": 0.0, "is_disabled": 0, "lat": 38.90781483333333, "bike_id": "9611e6881e9a93298186daa419453569", "name": "9611e6881e9a93298186daa419453569", "is_reserved": 0, "fusion_lat": 0.0}, {"type": "electric_scooter", "rental_uris": {"ios": "https://dc.lft.to/lastmile_qr_scan", "android": "https://dc.lft.to/lastmile_qr_scan"}, "lon": -77.03078533333333, "fusion_lon": 0.0, "is_disabled": 0, "lat": 38.911093, "bike_id": "f749838d9711186a9d9c449325f0d285", "name": "f749838d9711186a9d9c449325f0d285", "is_reserved": 0, "fusion_lat": 0.0}, {"type": "electric_scooter", "rental_uris": {"ios": "https://dc.lft.to/lastmile_qr_scan", "android": "https://dc.lft.to/lastmile_qr_scan"}, "lon": -76.9463535, "fusion_lon": 0.0, "is_disabled": 0, "lat": 38.89843033333333, "bike_id": "6cf3ed4653be2e5fe1c93f5a3354aae0", "name": "6cf3ed4653be2e5fe1c93f5a3354aae0", "is_reserved": 0, "fusion_lat": 0.0}, {"type": "electric_scooter", "rental_uris": {"ios": "https://dc.lft.to/lastmile_qr_scan", "android": "https://dc.lft.to/lastmile_qr_scan"}, "lon": -77.03869916666666, "fusion_lon": 0.0, "is_disabled": 0, "lat": 38.9156315, "bike_id": "5c793d8fd8f4e14d7588df2769ae37aa", "name": "5c793d8fd8f4e14d7588df2769ae37aa", "is_reserved": 0, "fusion_lat": 0.0}, {"type": "electric_scooter", "rental_uris": {"ios": "https://dc.lft.to/lastmile_qr_scan", "android": "https://dc.lft.to/lastmile_qr_scan"}, "lon": -77.0365795, "fusion_lon": 0.0, "is_disabled": 0, "lat": 38.917234, "bike_id": "d3147003b304f417c2419af5c86e498d", "name": "d3147003b304f417c2419af5c86e498d", "is_reserved": 0, "fusion_lat": 0.0}, {"type": "electric_scooter", "rental_uris": {"ios": "https://dc.lft.to/lastmile_qr_scan", "android": "https://dc.lft.to/lastmile_qr_scan"}, "lon": -77.0328865, "fusion_lon": 0.0, "is_disabled": 0, "lat": 38.8992025, "bike_id": "ee76323637e5513fa8ec058a631d159f", "name": "ee76323637e5513fa8ec058a631d159f", "is_reserved": 0, "fusion_lat": 0.0}, {"type": "electric_scooter", "rental_uris": {"ios": "https://dc.lft.to/lastmile_qr_scan", "android": "https://dc.lft.to/lastmile_qr_scan"}, "lon": -77.03852516666667, "fusion_lon": 0.0, "is_disabled": 0, "lat": 38.932667333333335, "bike_id": "44e6928707fda88d15c22085f52b59ad", "name": "44e6928707fda88d15c22085f52b59ad", "is_reserved": 0, "fusion_lat": 0.0}, {"type": "electric_scooter", "rental_uris": {"ios": "https://dc.lft.to/lastmile_qr_scan", "android": "https://dc.lft.to/lastmile_qr_scan"}, "lon": -77.0261145, "fusion_lon": 0.0, "is_disabled": 0, "lat": 38.91415966666667, "bike_id": "1c5bba8e9941ad1eddcf71349b4a491d", "name": "1c5bba8e9941ad1eddcf71349b4a491d", "is_reserved": 0, "fusion_lat": 0.0}, {"type": "electric_scooter", "rental_uris": {"ios": "https://dc.lft.to/lastmile_qr_scan", "android": "https://dc.lft.to/lastmile_qr_scan"}, "lon": -77.01334083333333, "fusion_lon": 0.0, "is_disabled": 0, "lat": 38.88140466666667, "bike_id": "5a70d570deaf4eb63555908bc19511db", "name": "5a70d570deaf4eb63555908bc19511db", "is_reserved": 0, "fusion_lat": 0.0}, {"type": "electric_bike", "rental_uris": {"ios": "https://dc.lft.to/lastmile_qr_scan", "android": "https://dc.lft.to/lastmile_qr_scan"}, "lon": -77.187421, "fusion_lon": 0.0, "is_disabled": 0, "lat": 38.89355783333333, "bike_id": "96009199a3b8b8bbf3b5f65511b3f65b", "name": "96009199a3b8b8bbf3b5f65511b3f65b", "is_reserved": 0, "fusion_lat": 0.0}, {"type": "electric_scooter", "rental_uris": {"ios": "https://dc.lft.to/lastmile_qr_scan", "android": "https://dc.lft.to/lastmile_qr_scan"}, "lon": -77.04390516666666, "fusion_lon": 0.0, "is_disabled": 0, "lat": 38.910733666666665, "bike_id": "a54d86c0fa52018834fe1321750a7566", "name": "a54d86c0fa52018834fe1321750a7566", "is_reserved": 0, "fusion_lat": 0.0}, {"type": "electric_bike", "rental_uris": {"ios": "https://dc.lft.to/lastmile_qr_scan", "android": "https://dc.lft.to/lastmile_qr_scan"}, "lon": -76.94796183333334, "fusion_lon": 0.0, "is_disabled": 0, "lat": 38.894025166666665, "bike_id": "5563bc2e0a88e2918e92cdd6ad2b2ef0", "name": "5563bc2e0a88e2918e92cdd6ad2b2ef0", "is_reserved": 0, "fusion_lat": 0.0}, {"type": "electric_bike", "rental_uris": {"ios": "https://dc.lft.to/lastmile_qr_scan", "android": "https://dc.lft.to/lastmile_qr_scan"}, "lon": -76.990176, "fusion_lon": 0.0, "is_disabled": 0, "lat": 38.95479816666667, "bike_id": "2a481e78c07d64f6f0dbf67286ab7fdf", "name": "2a481e78c07d64f6f0dbf67286ab7fdf", "is_reserved": 0, "fusion_lat": 0.0}, {"type": "electric_bike", "rental_uris": {"ios": "https://dc.lft.to/lastmile_qr_scan", "android": "https://dc.lft.to/lastmile_qr_scan"}, "lon": -77.006805, "fusion_lon": 0.0, "is_disabled": 0, "lat": 38.94509683333333, "bike_id": "1da9f8566f745de0fbcc98a295780f7f", "name": "1da9f8566f745de0fbcc98a295780f7f", "is_reserved": 0, "fusion_lat": 0.0}, {"type": "electric_bike", "rental_uris": {"ios": "https://dc.lft.to/lastmile_qr_scan", "android": "https://dc.lft.to/lastmile_qr_scan"}, "lon": -76.9626395, "fusion_lon": 0.0, "is_disabled": 0, "lat": 38.88246316666667, "bike_id": "ea0af60522c4935e987cd63bdaf6e3e8", "name": "ea0af60522c4935e987cd63bdaf6e3e8", "is_reserved": 0, "fusion_lat": 0.0}, {"type": "electric_scooter", "rental_uris": {"ios": "https://dc.lft.to/lastmile_qr_scan", "android": "https://dc.lft.to/lastmile_qr_scan"}, "lon": -76.98345283333333, "fusion_lon": 0.0, "is_disabled": 0, "lat": 38.90745583333333, "bike_id": "6fa3727a51cb8c2062e6ec77c74fb430", "name": "6fa3727a51cb8c2062e6ec77c74fb430", "is_reserved": 0, "fusion_lat": 0.0}, {"type": "electric_scooter", "rental_uris": {"ios": "https://dc.lft.to/lastmile_qr_scan", "android": "https://dc.lft.to/lastmile_qr_scan"}, "lon": -77.04440116666666, "fusion_lon": 0.0, "is_disabled": 0, "lat": 38.9125855, "bike_id": "7e6635ee34fb024f901c5c95622dc7e1", "name": "7e6635ee34fb024f901c5c95622dc7e1", "is_reserved": 0, "fusion_lat": 0.0}, {"type": "electric_scooter", "rental_uris": {"ios": "https://dc.lft.to/lastmile_qr_scan", "android": "https://dc.lft.to/lastmile_qr_scan"}, "lon": -76.95416566666667, "fusion_lon": 0.0, "is_disabled": 0, "lat": 38.890639666666665, "bike_id": "a7e493cdd2f14c25eb1c068b2de35b03", "name": "a7e493cdd2f14c25eb1c068b2de35b03", "is_reserved": 0, "fusion_lat": 0.0}, {"type": "electric_scooter", "rental_uris": {"ios": "https://dc.lft.to/lastmile_qr_scan", "android": "https://dc.lft.to/lastmile_qr_scan"}, "lon": -77.00611133333334, "fusion_lon": 0.0, "is_disabled": 0, "lat": 38.871798166666665, "bike_id": "efa639ba7f72d0990da940ed255928f2", "name": "efa639ba7f72d0990da940ed255928f2", "is_reserved": 0, "fusion_lat": 0.0}, {"type": "electric_scooter", "rental_uris": {"ios": "https://dc.lft.to/lastmile_qr_scan", "android": "https://dc.lft.to/lastmile_qr_scan"}, "lon": -77.03214783333334, "fusion_lon": 0.0, "is_disabled": 0, "lat": 38.920014333333334, "bike_id": "f8d221b6ff63eeafdeae2cec34623d90", "name": "f8d221b6ff63eeafdeae2cec34623d90", "is_reserved": 0, "fusion_lat": 0.0}, {"type": "electric_scooter", "rental_uris": {"ios": "https://dc.lft.to/lastmile_qr_scan", "android": "https://dc.lft.to/lastmile_qr_scan"}, "lon": -77.03858083333333, "fusion_lon": 0.0, "is_disabled": 0, "lat": 38.8675315, "bike_id": "1d8fef3ca677e1c5e50a65bc40a31de5", "name": "1d8fef3ca677e1c5e50a65bc40a31de5", "is_reserved": 0, "fusion_lat": 0.0}, {"type": "electric_scooter", "rental_uris": {"ios": "https://dc.lft.to/lastmile_qr_scan", "android": "https://dc.lft.to/lastmile_qr_scan"}, "lon": -77.02601916666667, "fusion_lon": 0.0, "is_disabled": 0, "lat": 38.9168995, "bike_id": "9cebb003bbedf3e9de41c217571a6d0f", "name": "9cebb003bbedf3e9de41c217571a6d0f", "is_reserved": 0, "fusion_lat": 0.0}, {"type": "electric_scooter", "rental_uris": {"ios": "https://dc.lft.to/lastmile_qr_scan", "android": "https://dc.lft.to/lastmile_qr_scan"}, "lon": -77.0343775, "fusion_lon": 0.0, "is_disabled": 0, "lat": 38.907299333333334, "bike_id": "83f8a40c29fee251b6a75f946fed9d7f", "name": "83f8a40c29fee251b6a75f946fed9d7f", "is_reserved": 0, "fusion_lat": 0.0}, {"type": "electric_scooter", "rental_uris": {"ios": "https://dc.lft.to/lastmile_qr_scan", "android": "https://dc.lft.to/lastmile_qr_scan"}, "lon": -77.0223305, "fusion_lon": 0.0, "is_disabled": 0, "lat": 38.9125885, "bike_id": "3e2aa14fc990de546f9ab213af83192f", "name": "3e2aa14fc990de546f9ab213af83192f", "is_reserved": 0, "fusion_lat": 0.0}, {"type": "electric_bike", "rental_uris": {"ios": "https://dc.lft.to/lastmile_qr_scan", "android": "https://dc.lft.to/lastmile_qr_scan"}, "lon": -76.9783385, "fusion_lon": 0.0, "is_disabled": 0, "lat": 38.8707365, "bike_id": "518cba5d2f601774f983837214b59ad1", "name": "518cba5d2f601774f983837214b59ad1", "is_reserved": 0, "fusion_lat": 0.0}, {"type": "electric_scooter", "rental_uris": {"ios": "https://dc.lft.to/lastmile_qr_scan", "android": "https://dc.lft.to/lastmile_qr_scan"}, "lon": -77.01040016666667, "fusion_lon": 0.0, "is_disabled": 0, "lat": 38.86667033333333, "bike_id": "5cdee49b579f32f313f1c59b6b6d14b6", "name": "5cdee49b579f32f313f1c59b6b6d14b6", "is_reserved": 0, "fusion_lat": 0.0}, {"type": "electric_scooter", "rental_uris": {"ios": "https://dc.lft.to/lastmile_qr_scan", "android": "https://dc.lft.to/lastmile_qr_scan"}, "lon": -77.0427715, "fusion_lon": 0.0, "is_disabled": 0, "lat": 38.9230595, "bike_id": "334aaea91fb8604ca8d79b5c0c032f9f", "name": "334aaea91fb8604ca8d79b5c0c032f9f", "is_reserved": 0, "fusion_lat": 0.0}, {"type": "electric_scooter", "rental_uris": {"ios": "https://dc.lft.to/lastmile_qr_scan", "android": "https://dc.lft.to/lastmile_qr_scan"}, "lon": -77.0336975, "fusion_lon": 0.0, "is_disabled": 0, "lat": 38.89923366666667, "bike_id": "8d74d453d0634cfbb393f361c98af752", "name": "8d74d453d0634cfbb393f361c98af752", "is_reserved": 0, "fusion_lat": 0.0}, {"type": "electric_scooter", "rental_uris": {"ios": "https://dc.lft.to/lastmile_qr_scan", "android": "https://dc.lft.to/lastmile_qr_scan"}, "lon": -76.98690866666666, "fusion_lon": 0.0, "is_disabled": 0, "lat": 38.86725033333333, "bike_id": "998ac7364978cf9e5aac905184b655d5", "name": "998ac7364978cf9e5aac905184b655d5", "is_reserved": 0, "fusion_lat": 0.0}, {"type": "electric_scooter", "rental_uris": {"ios": "https://dc.lft.to/lastmile_qr_scan", "android": "https://dc.lft.to/lastmile_qr_scan"}, "lon": -77.03195833333334, "fusion_lon": 0.0, "is_disabled": 0, "lat": 38.9097895, "bike_id": "9e0156f5b7880949e1d68f57db548935", "name": "9e0156f5b7880949e1d68f57db548935", "is_reserved": 0, "fusion_lat": 0.0}, {"type": "electric_scooter", "rental_uris": {"ios": "https://dc.lft.to/lastmile_qr_scan", "android": "https://dc.lft.to/lastmile_qr_scan"}, "lon": -77.04027416666666, "fusion_lon": 0.0, "is_disabled": 0, "lat": 38.93060833333333, "bike_id": "689935ab470a79713fb4a5fbc7b3998c", "name": "689935ab470a79713fb4a5fbc7b3998c", "is_reserved": 0, "fusion_lat": 0.0}, {"type": "electric_scooter", "rental_uris": {"ios": "https://dc.lft.to/lastmile_qr_scan", "android": "https://dc.lft.to/lastmile_qr_scan"}, "lon": -77.02446116666667, "fusion_lon": 0.0, "is_disabled": 0, "lat": 38.91877566666667, "bike_id": "c097a11c911e6dd040b98c7683f75a98", "name": "c097a11c911e6dd040b98c7683f75a98", "is_reserved": 0, "fusion_lat": 0.0}, {"type": "electric_scooter", "rental_uris": {"ios": "https://dc.lft.to/lastmile_qr_scan", "android": "https://dc.lft.to/lastmile_qr_scan"}, "lon": -77.029875, "fusion_lon": 0.0, "is_disabled": 0, "lat": 38.9050895, "bike_id": "4d10c996b757ccb7185fd4728e8a86b7", "name": "4d10c996b757ccb7185fd4728e8a86b7", "is_reserved": 0, "fusion_lat": 0.0}, {"type": "electric_scooter", "rental_uris": {"ios": "https://dc.lft.to/lastmile_qr_scan", "android": "https://dc.lft.to/lastmile_qr_scan"}, "lon": -77.02313283333334, "fusion_lon": 0.0, "is_disabled": 0, "lat": 38.91617816666667, "bike_id": "207de00871715dbf820029c22508a809", "name": "207de00871715dbf820029c22508a809", "is_reserved": 0, "fusion_lat": 0.0}, {"type": "electric_scooter", "rental_uris": {"ios": "https://dc.lft.to/lastmile_qr_scan", "android": "https://dc.lft.to/lastmile_qr_scan"}, "lon": -77.02298133333333, "fusion_lon": 0.0, "is_disabled": 0, "lat": 38.916077333333334, "bike_id": "aaa1bca19a1262d21517e5b1e10b3eb1", "name": "aaa1bca19a1262d21517e5b1e10b3eb1", "is_reserved": 0, "fusion_lat": 0.0}, {"type": "electric_scooter", "rental_uris": {"ios": "https://dc.lft.to/lastmile_qr_scan", "android": "https://dc.lft.to/lastmile_qr_scan"}, "lon": -77.02538683333333, "fusion_lon": 0.0, "is_disabled": 0, "lat": 38.91269366666667, "bike_id": "ecc91ace4c8cb8fb9fe5cf448e622363", "name": "ecc91ace4c8cb8fb9fe5cf448e622363", "is_reserved": 0, "fusion_lat": 0.0}, {"type": "electric_bike", "rental_uris": {"ios": "https://dc.lft.to/lastmile_qr_scan", "android": "https://dc.lft.to/lastmile_qr_scan"}, "lon": -77.06570033333334, "fusion_lon": 0.0, "is_disabled": 0, "lat": 38.86996216666667, "bike_id": "7b0cb9373ebcf38e194bca2f4b7e2e46", "name": "7b0cb9373ebcf38e194bca2f4b7e2e46", "is_reserved": 0, "fusion_lat": 0.0}, {"type": "electric_scooter", "rental_uris": {"ios": "https://dc.lft.to/lastmile_qr_scan", "android": "https://dc.lft.to/lastmile_qr_scan"}, "lon": -77.03655033333334, "fusion_lon": 0.0, "is_disabled": 0, "lat": 38.92135366666667, "bike_id": "f7c7fad8458547dde7e89f7702d07f03", "name": "f7c7fad8458547dde7e89f7702d07f03", "is_reserved": 0, "fusion_lat": 0.0}, {"type": "electric_scooter", "rental_uris": {"ios": "https://dc.lft.to/lastmile_qr_scan", "android": "https://dc.lft.to/lastmile_qr_scan"}, "lon": -77.04368366666667, "fusion_lon": 0.0, "is_disabled": 0, "lat": 38.921101166666666, "bike_id": "9725329ce6f1dddbee2986b0faa9322f", "name": "9725329ce6f1dddbee2986b0faa9322f", "is_reserved": 0, "fusion_lat": 0.0}, {"type": "electric_scooter", "rental_uris": {"ios": "https://dc.lft.to/lastmile_qr_scan", "android": "https://dc.lft.to/lastmile_qr_scan"}, "lon": -77.02418116666666, "fusion_lon": 0.0, "is_disabled": 0, "lat": 38.92752083333333, "bike_id": "ed480695cd3b9a1c5bf6255b59c02ee2", "name": "ed480695cd3b9a1c5bf6255b59c02ee2", "is_reserved": 0, "fusion_lat": 0.0}, {"type": "electric_scooter", "rental_uris": {"ios": "https://dc.lft.to/lastmile_qr_scan", "android": "https://dc.lft.to/lastmile_qr_scan"}, "lon": -77.0435675, "fusion_lon": 0.0, "is_disabled": 0, "lat": 38.901496, "bike_id": "b180a0389af81f4f34f5d68fc399f613", "name": "b180a0389af81f4f34f5d68fc399f613", "is_reserved": 0, "fusion_lat": 0.0}, {"type": "electric_scooter", "rental_uris": {"ios": "https://dc.lft.to/lastmile_qr_scan", "android": "https://dc.lft.to/lastmile_qr_scan"}, "lon": -77.03647166666667, "fusion_lon": 0.0, "is_disabled": 0, "lat": 38.917802, "bike_id": "94ef7f012b1c1bae0957236039a5ae61", "name": "94ef7f012b1c1bae0957236039a5ae61", "is_reserved": 0, "fusion_lat": 0.0}, {"type": "electric_scooter", "rental_uris": {"ios": "https://dc.lft.to/lastmile_qr_scan", "android": "https://dc.lft.to/lastmile_qr_scan"}, "lon": -77.03840516666666, "fusion_lon": 0.0, "is_disabled": 0, "lat": 38.91107, "bike_id": "fc063fc26ea08f20d8c4a99d4f93315a", "name": "fc063fc26ea08f20d8c4a99d4f93315a", "is_reserved": 0, "fusion_lat": 0.0}, {"type": "electric_scooter", "rental_uris": {"ios": "https://dc.lft.to/lastmile_qr_scan", "android": "https://dc.lft.to/lastmile_qr_scan"}, "lon": -77.01531883333334, "fusion_lon": 0.0, "is_disabled": 0, "lat": 38.887362, "bike_id": "36772a083e5f289473a963a83bec0f56", "name": "36772a083e5f289473a963a83bec0f56", "is_reserved": 0, "fusion_lat": 0.0}, {"type": "electric_scooter", "rental_uris": {"ios": "https://dc.lft.to/lastmile_qr_scan", "android": "https://dc.lft.to/lastmile_qr_scan"}, "lon": -77.0154665, "fusion_lon": 0.0, "is_disabled": 0, "lat": 38.8841105, "bike_id": "03b5bcdf2900ddbf920d9b9e5e763b68", "name": "03b5bcdf2900ddbf920d9b9e5e763b68", "is_reserved": 0, "fusion_lat": 0.0}, {"type": "electric_scooter", "rental_uris": {"ios": "https://dc.lft.to/lastmile_qr_scan", "android": "https://dc.lft.to/lastmile_qr_scan"}, "lon": -77.03181566666666, "fusion_lon": 0.0, "is_disabled": 0, "lat": 38.897679333333336, "bike_id": "bac0cc2f1f1e81318ea62aacbae49aa0", "name": "bac0cc2f1f1e81318ea62aacbae49aa0", "is_reserved": 0, "fusion_lat": 0.0}, {"type": "electric_scooter", "rental_uris": {"ios": "https://dc.lft.to/lastmile_qr_scan", "android": "https://dc.lft.to/lastmile_qr_scan"}, "lon": -77.05130133333333, "fusion_lon": 0.0, "is_disabled": 0, "lat": 38.90584233333333, "bike_id": "5c381799a035d879b19089a9e5f807a7", "name": "5c381799a035d879b19089a9e5f807a7", "is_reserved": 0, "fusion_lat": 0.0}, {"type": "electric_scooter", "rental_uris": {"ios": "https://dc.lft.to/lastmile_qr_scan", "android": "https://dc.lft.to/lastmile_qr_scan"}, "lon": -77.03300866666666, "fusion_lon": 0.0, "is_disabled": 0, "lat": 38.9564095, "bike_id": "5aae16997e5e9ee36ad4e33c58576a63", "name": "5aae16997e5e9ee36ad4e33c58576a63", "is_reserved": 0, "fusion_lat": 0.0}, {"type": "electric_bike", "rental_uris": {"ios": "https://dc.lft.to/lastmile_qr_scan", "android": "https://dc.lft.to/lastmile_qr_scan"}, "lon": -77.1149155, "fusion_lon": 0.0, "is_disabled": 0, "lat": 39.0692545, "bike_id": "801b16deae083cdab5f97aedf12e3042", "name": "801b16deae083cdab5f97aedf12e3042", "is_reserved": 0, "fusion_lat": 0.0}, {"type": "electric_scooter", "rental_uris": {"ios": "https://dc.lft.to/lastmile_qr_scan", "android": "https://dc.lft.to/lastmile_qr_scan"}, "lon": -77.02405816666666, "fusion_lon": 0.0, "is_disabled": 0, "lat": 38.92898366666667, "bike_id": "7195c58be33fb8570e41541e9d394463", "name": "7195c58be33fb8570e41541e9d394463", "is_reserved": 0, "fusion_lat": 0.0}, {"type": "electric_bike", "rental_uris": {"ios": "https://dc.lft.to/lastmile_qr_scan", "android": "https://dc.lft.to/lastmile_qr_scan"}, "lon": -77.00800683333334, "fusion_lon": 0.0, "is_disabled": 0, "lat": 38.949206, "bike_id": "a0897bfb02cd5a74ff2af24c691aa4bb", "name": "a0897bfb02cd5a74ff2af24c691aa4bb", "is_reserved": 0, "fusion_lat": 0.0}, {"type": "electric_scooter", "rental_uris": {"ios": "https://dc.lft.to/lastmile_qr_scan", "android": "https://dc.lft.to/lastmile_qr_scan"}, "lon": -77.041618, "fusion_lon": 0.0, "is_disabled": 0, "lat": 38.927951666666665, "bike_id": "948eafc11c340a2f3a9075fcf737a2cf", "name": "948eafc11c340a2f3a9075fcf737a2cf", "is_reserved": 0, "fusion_lat": 0.0}, {"type": "electric_scooter", "rental_uris": {"ios": "https://dc.lft.to/lastmile_qr_scan", "android": "https://dc.lft.to/lastmile_qr_scan"}, "lon": -77.040253, "fusion_lon": 0.0, "is_disabled": 0, "lat": 38.921733333333336, "bike_id": "df678db415aeaa0f8cda10f6178adb20", "name": "df678db415aeaa0f8cda10f6178adb20", "is_reserved": 0, "fusion_lat": 0.0}, {"type": "electric_scooter", "rental_uris": {"ios": "https://dc.lft.to/lastmile_qr_scan", "android": "https://dc.lft.to/lastmile_qr_scan"}, "lon": -77.044216, "fusion_lon": 0.0, "is_disabled": 0, "lat": 38.910091333333334, "bike_id": "d606fdf48a6df13aa693964111c0e959", "name": "d606fdf48a6df13aa693964111c0e959", "is_reserved": 0, "fusion_lat": 0.0}, {"type": "electric_scooter", "rental_uris": {"ios": "https://dc.lft.to/lastmile_qr_scan", "android": "https://dc.lft.to/lastmile_qr_scan"}, "lon": -77.03170583333333, "fusion_lon": 0.0, "is_disabled": 0, "lat": 38.923695333333335, "bike_id": "26c5fb9cfa700c3350322495cbf4fead", "name": "26c5fb9cfa700c3350322495cbf4fead", "is_reserved": 0, "fusion_lat": 0.0}, {"type": "electric_bike", "rental_uris": {"ios": "https://dc.lft.to/lastmile_qr_scan", "android": "https://dc.lft.to/lastmile_qr_scan"}, "lon": -77.09963316666666, "fusion_lon": 0.0, "is_disabled": 0, "lat": 38.93357533333333, "bike_id": "dc9f106257aba58604f39e4d3146a359", "name": "dc9f106257aba58604f39e4d3146a359", "is_reserved": 0, "fusion_lat": 0.0}, {"type": "electric_scooter", "rental_uris": {"ios": "https://dc.lft.to/lastmile_qr_scan", "android": "https://dc.lft.to/lastmile_qr_scan"}, "lon": -77.02826883333333, "fusion_lon": 0.0, "is_disabled": 0, "lat": 38.931907333333335, "bike_id": "a49bb5c9e797c028a6c6a82f52928e01", "name": "a49bb5c9e797c028a6c6a82f52928e01", "is_reserved": 0, "fusion_lat": 0.0}, {"type": "electric_scooter", "rental_uris": {"ios": "https://dc.lft.to/lastmile_qr_scan", "android": "https://dc.lft.to/lastmile_qr_scan"}, "lon": -77.04140066666666, "fusion_lon": 0.0, "is_disabled": 0, "lat": 38.91219, "bike_id": "9b86ed5906ae0d44579a28f705be84da", "name": "9b86ed5906ae0d44579a28f705be84da", "is_reserved": 0, "fusion_lat": 0.0}, {"type": "electric_scooter", "rental_uris": {"ios": "https://dc.lft.to/lastmile_qr_scan", "android": "https://dc.lft.to/lastmile_qr_scan"}, "lon": -77.03806733333333, "fusion_lon": 0.0, "is_disabled": 0, "lat": 38.92065933333333, "bike_id": "18a4f9afc24fd61437151a8ef30d0e7e", "name": "18a4f9afc24fd61437151a8ef30d0e7e", "is_reserved": 0, "fusion_lat": 0.0}, {"type": "electric_scooter", "rental_uris": {"ios": "https://dc.lft.to/lastmile_qr_scan", "android": "https://dc.lft.to/lastmile_qr_scan"}, "lon": -77.03808833333333, "fusion_lon": 0.0, "is_disabled": 0, "lat": 38.91269916666667, "bike_id": "45ed4fa2b6f11e003e932ba261b10a6b", "name": "45ed4fa2b6f11e003e932ba261b10a6b", "is_reserved": 0, "fusion_lat": 0.0}, {"type": "electric_scooter", "rental_uris": {"ios": "https://dc.lft.to/lastmile_qr_scan", "android": "https://dc.lft.to/lastmile_qr_scan"}, "lon": -77.03150116666667, "fusion_lon": 0.0, "is_disabled": 0, "lat": 38.915608166666665, "bike_id": "d88b112ba39fc8f21b0aff6af58e8fd6", "name": "d88b112ba39fc8f21b0aff6af58e8fd6", "is_reserved": 0, "fusion_lat": 0.0}, {"type": "electric_scooter", "rental_uris": {"ios": "https://dc.lft.to/lastmile_qr_scan", "android": "https://dc.lft.to/lastmile_qr_scan"}, "lon": -77.03209366666667, "fusion_lon": 0.0, "is_disabled": 0, "lat": 38.915749, "bike_id": "05ab08dff4c51b367c6a9f9a28d46679", "name": "05ab08dff4c51b367c6a9f9a28d46679", "is_reserved": 0, "fusion_lat": 0.0}, {"type": "electric_bike", "rental_uris": {"ios": "https://dc.lft.to/lastmile_qr_scan", "android": "https://dc.lft.to/lastmile_qr_scan"}, "lon": -77.02391216666666, "fusion_lon": 0.0, "is_disabled": 0, "lat": 38.96274283333333, "bike_id": "54a12ce4d94fb9002d940db0679d35f6", "name": "54a12ce4d94fb9002d940db0679d35f6", "is_reserved": 0, "fusion_lat": 0.0}, {"type": "electric_bike", "rental_uris": {"ios": "https://dc.lft.to/lastmile_qr_scan", "android": "https://dc.lft.to/lastmile_qr_scan"}, "lon": -76.9248045, "fusion_lon": 0.0, "is_disabled": 0, "lat": 38.958831, "bike_id": "fe68bf6796212c617141f8094c9d7925", "name": "fe68bf6796212c617141f8094c9d7925", "is_reserved": 0, "fusion_lat": 0.0}, {"type": "electric_scooter", "rental_uris": {"ios": "https://dc.lft.to/lastmile_qr_scan", "android": "https://dc.lft.to/lastmile_qr_scan"}, "lon": -77.02647433333334, "fusion_lon": 0.0, "is_disabled": 0, "lat": 38.92536583333333, "bike_id": "eb1e313dce7c1b4e5c33cce5fe2bdd82", "name": "eb1e313dce7c1b4e5c33cce5fe2bdd82", "is_reserved": 0, "fusion_lat": 0.0}, {"type": "electric_scooter", "rental_uris": {"ios": "https://dc.lft.to/lastmile_qr_scan", "android": "https://dc.lft.to/lastmile_qr_scan"}, "lon": -77.00592816666666, "fusion_lon": 0.0, "is_disabled": 0, "lat": 38.905648166666666, "bike_id": "f52f6c5aeff1dbd263392deada1687e3", "name": "f52f6c5aeff1dbd263392deada1687e3", "is_reserved": 0, "fusion_lat": 0.0}, {"type": "electric_scooter", "rental_uris": {"ios": "https://dc.lft.to/lastmile_qr_scan", "android": "https://dc.lft.to/lastmile_qr_scan"}, "lon": -77.0297425, "fusion_lon": 0.0, "is_disabled": 0, "lat": 38.91687783333333, "bike_id": "d902f20aab5844b6d802d54574be4c4d", "name": "d902f20aab5844b6d802d54574be4c4d", "is_reserved": 0, "fusion_lat": 0.0}, {"type": "electric_scooter", "rental_uris": {"ios": "https://dc.lft.to/lastmile_qr_scan", "android": "https://dc.lft.to/lastmile_qr_scan"}, "lon": -77.07885016666667, "fusion_lon": 0.0, "is_disabled": 0, "lat": 38.92064416666667, "bike_id": "c6cc30ac8c822f59f346be47084ad1fc", "name": "c6cc30ac8c822f59f346be47084ad1fc", "is_reserved": 0, "fusion_lat": 0.0}, {"type": "electric_scooter", "rental_uris": {"ios": "https://dc.lft.to/lastmile_qr_scan", "android": "https://dc.lft.to/lastmile_qr_scan"}, "lon": -77.00586916666667, "fusion_lon": 0.0, "is_disabled": 0, "lat": 38.90564116666667, "bike_id": "646051d90a5f3a63975ad698a53b12b1", "name": "646051d90a5f3a63975ad698a53b12b1", "is_reserved": 0, "fusion_lat": 0.0}, {"type": "electric_scooter", "rental_uris": {"ios": "https://dc.lft.to/lastmile_qr_scan", "android": "https://dc.lft.to/lastmile_qr_scan"}, "lon": -77.05858366666666, "fusion_lon": 0.0, "is_disabled": 0, "lat": 38.936073666666665, "bike_id": "300e53cfdd6f395021eac245732f93c5", "name": "300e53cfdd6f395021eac245732f93c5", "is_reserved": 0, "fusion_lat": 0.0}, {"type": "electric_scooter", "rental_uris": {"ios": "https://dc.lft.to/lastmile_qr_scan", "android": "https://dc.lft.to/lastmile_qr_scan"}, "lon": -77.01755883333334, "fusion_lon": 0.0, "is_disabled": 0, "lat": 38.9025745, "bike_id": "bc42a890e369813bb8f4055626b0939f", "name": "bc42a890e369813bb8f4055626b0939f", "is_reserved": 0, "fusion_lat": 0.0}, {"type": "electric_scooter", "rental_uris": {"ios": "https://dc.lft.to/lastmile_qr_scan", "android": "https://dc.lft.to/lastmile_qr_scan"}, "lon": -77.02175, "fusion_lon": 0.0, "is_disabled": 0, "lat": 38.942903, "bike_id": "269e33d3ac67876530117625d8b0125a", "name": "269e33d3ac67876530117625d8b0125a", "is_reserved": 0, "fusion_lat": 0.0}, {"type": "electric_scooter", "rental_uris": {"ios": "https://dc.lft.to/lastmile_qr_scan", "android": "https://dc.lft.to/lastmile_qr_scan"}, "lon": -76.96525166666666, "fusion_lon": 0.0, "is_disabled": 0, "lat": 38.87626016666667, "bike_id": "99a6df0090d6a98d1ffe71a411aa2894", "name": "99a6df0090d6a98d1ffe71a411aa2894", "is_reserved": 0, "fusion_lat": 0.0}, {"type": "electric_scooter", "rental_uris": {"ios": "https://dc.lft.to/lastmile_qr_scan", "android": "https://dc.lft.to/lastmile_qr_scan"}, "lon": -76.97627333333334, "fusion_lon": 0.0, "is_disabled": 0, "lat": 38.898768833333335, "bike_id": "2650292e128d06c172ce9dcf73435d23", "name": "2650292e128d06c172ce9dcf73435d23", "is_reserved": 0, "fusion_lat": 0.0}, {"type": "electric_scooter", "rental_uris": {"ios": "https://dc.lft.to/lastmile_qr_scan", "android": "https://dc.lft.to/lastmile_qr_scan"}, "lon": -77.039793, "fusion_lon": 0.0, "is_disabled": 0, "lat": 38.8987615, "bike_id": "5ae7ad2268d66edbcc6bcf983e8ef1c6", "name": "5ae7ad2268d66edbcc6bcf983e8ef1c6", "is_reserved": 0, "fusion_lat": 0.0}, {"type": "electric_scooter", "rental_uris": {"ios": "https://dc.lft.to/lastmile_qr_scan", "android": "https://dc.lft.to/lastmile_qr_scan"}, "lon": -76.94155583333334, "fusion_lon": 0.0, "is_disabled": 0, "lat": 38.883645666666666, "bike_id": "eacfd075f9e20b9e5a7daf650d339cb9", "name": "eacfd075f9e20b9e5a7daf650d339cb9", "is_reserved": 0, "fusion_lat": 0.0}, {"type": "electric_scooter", "rental_uris": {"ios": "https://dc.lft.to/lastmile_qr_scan", "android": "https://dc.lft.to/lastmile_qr_scan"}, "lon": -77.03435566666667, "fusion_lon": 0.0, "is_disabled": 0, "lat": 38.9043315, "bike_id": "4ff2f55396861e97d1d100d40ce98d8b", "name": "4ff2f55396861e97d1d100d40ce98d8b", "is_reserved": 0, "fusion_lat": 0.0}, {"type": "electric_scooter", "rental_uris": {"ios": "https://dc.lft.to/lastmile_qr_scan", "android": "https://dc.lft.to/lastmile_qr_scan"}, "lon": -76.92621633333333, "fusion_lon": 0.0, "is_disabled": 0, "lat": 38.884590333333335, "bike_id": "aa0a7c67b278743983b141f4f2a94bb6", "name": "aa0a7c67b278743983b141f4f2a94bb6", "is_reserved": 0, "fusion_lat": 0.0}, {"type": "electric_scooter", "rental_uris": {"ios": "https://dc.lft.to/lastmile_qr_scan", "android": "https://dc.lft.to/lastmile_qr_scan"}, "lon": -77.0265155, "fusion_lon": 0.0, "is_disabled": 0, "lat": 38.892213, "bike_id": "6ef746f1cc2db3124f4c41d7fde579a6", "name": "6ef746f1cc2db3124f4c41d7fde579a6", "is_reserved": 0, "fusion_lat": 0.0}, {"type": "electric_scooter", "rental_uris": {"ios": "https://dc.lft.to/lastmile_qr_scan", "android": "https://dc.lft.to/lastmile_qr_scan"}, "lon": -77.046625, "fusion_lon": 0.0, "is_disabled": 0, "lat": 38.89241883333333, "bike_id": "39fa0138bbef24d7e1b1e2eace3bee9a", "name": "39fa0138bbef24d7e1b1e2eace3bee9a", "is_reserved": 0, "fusion_lat": 0.0}, {"type": "electric_scooter", "rental_uris": {"ios": "https://dc.lft.to/lastmile_qr_scan", "android": "https://dc.lft.to/lastmile_qr_scan"}, "lon": -77.02335366666667, "fusion_lon": 0.0, "is_disabled": 0, "lat": 38.9167955, "bike_id": "0f7c99a18184a7cfcc8bd35744c99d69", "name": "0f7c99a18184a7cfcc8bd35744c99d69", "is_reserved": 0, "fusion_lat": 0.0}, {"type": "electric_scooter", "rental_uris": {"ios": "https://dc.lft.to/lastmile_qr_scan", "android": "https://dc.lft.to/lastmile_qr_scan"}, "lon": -77.045226, "fusion_lon": 0.0, "is_disabled": 0, "lat": 38.91823083333333, "bike_id": "04e4d889620ab7704f037af3c7dfd350", "name": "04e4d889620ab7704f037af3c7dfd350", "is_reserved": 0, "fusion_lat": 0.0}, {"type": "electric_scooter", "rental_uris": {"ios": "https://dc.lft.to/lastmile_qr_scan", "android": "https://dc.lft.to/lastmile_qr_scan"}, "lon": -76.968681, "fusion_lon": 0.0, "is_disabled": 0, "lat": 38.870892833333336, "bike_id": "b061f7167b828ab95736c250e509eae0", "name": "b061f7167b828ab95736c250e509eae0", "is_reserved": 0, "fusion_lat": 0.0}, {"type": "electric_scooter", "rental_uris": {"ios": "https://dc.lft.to/lastmile_qr_scan", "android": "https://dc.lft.to/lastmile_qr_scan"}, "lon": -77.04012666666667, "fusion_lon": 0.0, "is_disabled": 0, "lat": 38.92165583333333, "bike_id": "ffdb69ce1977f87c190f5984e4ec25d6", "name": "ffdb69ce1977f87c190f5984e4ec25d6", "is_reserved": 0, "fusion_lat": 0.0}, {"type": "electric_scooter", "rental_uris": {"ios": "https://dc.lft.to/lastmile_qr_scan", "android": "https://dc.lft.to/lastmile_qr_scan"}, "lon": -77.0450855, "fusion_lon": 0.0, "is_disabled": 0, "lat": 38.89225916666667, "bike_id": "a9ed30decc6a3529114bf04459cbeb2c", "name": "a9ed30decc6a3529114bf04459cbeb2c", "is_reserved": 0, "fusion_lat": 0.0}, {"type": "electric_scooter", "rental_uris": {"ios": "https://dc.lft.to/lastmile_qr_scan", "android": "https://dc.lft.to/lastmile_qr_scan"}, "lon": -76.995151, "fusion_lon": 0.0, "is_disabled": 0, "lat": 38.894892, "bike_id": "0e37053dfaeb0bab629e19c08f61abf2", "name": "0e37053dfaeb0bab629e19c08f61abf2", "is_reserved": 0, "fusion_lat": 0.0}, {"type": "electric_scooter", "rental_uris": {"ios": "https://dc.lft.to/lastmile_qr_scan", "android": "https://dc.lft.to/lastmile_qr_scan"}, "lon": -77.0336595, "fusion_lon": 0.0, "is_disabled": 0, "lat": 38.887606, "bike_id": "f2e8acbc9379ed86bf013c83e4121536", "name": "f2e8acbc9379ed86bf013c83e4121536", "is_reserved": 0, "fusion_lat": 0.0}, {"type": "electric_scooter", "rental_uris": {"ios": "https://dc.lft.to/lastmile_qr_scan", "android": "https://dc.lft.to/lastmile_qr_scan"}, "lon": -77.0379605, "fusion_lon": 0.0, "is_disabled": 0, "lat": 38.926261, "bike_id": "bd29583f62977f39e27b407df569bccd", "name": "bd29583f62977f39e27b407df569bccd", "is_reserved": 0, "fusion_lat": 0.0}, {"type": "electric_scooter", "rental_uris": {"ios": "https://dc.lft.to/lastmile_qr_scan", "android": "https://dc.lft.to/lastmile_qr_scan"}, "lon": -77.027755, "fusion_lon": 0.0, "is_disabled": 0, "lat": 38.89220566666667, "bike_id": "5cd38894e933db50b759c9f6322188e9", "name": "5cd38894e933db50b759c9f6322188e9", "is_reserved": 0, "fusion_lat": 0.0}, {"type": "electric_scooter", "rental_uris": {"ios": "https://dc.lft.to/lastmile_qr_scan", "android": "https://dc.lft.to/lastmile_qr_scan"}, "lon": -77.0437995, "fusion_lon": 0.0, "is_disabled": 0, "lat": 38.921396333333334, "bike_id": "97058af8f61c7fd42ed59187dd3c3abb", "name": "97058af8f61c7fd42ed59187dd3c3abb", "is_reserved": 0, "fusion_lat": 0.0}, {"type": "electric_scooter", "rental_uris": {"ios": "https://dc.lft.to/lastmile_qr_scan", "android": "https://dc.lft.to/lastmile_qr_scan"}, "lon": -76.9660405, "fusion_lon": 0.0, "is_disabled": 0, "lat": 38.873865, "bike_id": "dea0253a77ef6d8fa23ff27976dfeffd", "name": "dea0253a77ef6d8fa23ff27976dfeffd", "is_reserved": 0, "fusion_lat": 0.0}, {"type": "electric_scooter", "rental_uris": {"ios": "https://dc.lft.to/lastmile_qr_scan", "android": "https://dc.lft.to/lastmile_qr_scan"}, "lon": -77.03869033333334, "fusion_lon": 0.0, "is_disabled": 0, "lat": 38.93254266666667, "bike_id": "792253a4b09126ea5861976843e477bb", "name": "792253a4b09126ea5861976843e477bb", "is_reserved": 0, "fusion_lat": 0.0}, {"type": "electric_scooter", "rental_uris": {"ios": "https://dc.lft.to/lastmile_qr_scan", "android": "https://dc.lft.to/lastmile_qr_scan"}, "lon": -77.03179566666667, "fusion_lon": 0.0, "is_disabled": 0, "lat": 38.907904, "bike_id": "4773b09ebffe73475d583b57a8f6796a", "name": "4773b09ebffe73475d583b57a8f6796a", "is_reserved": 0, "fusion_lat": 0.0}, {"type": "electric_scooter", "rental_uris": {"ios": "https://dc.lft.to/lastmile_qr_scan", "android": "https://dc.lft.to/lastmile_qr_scan"}, "lon": -77.0296885, "fusion_lon": 0.0, "is_disabled": 0, "lat": 38.916863166666666, "bike_id": "56b7ae1ba10cae53eed7a128620d30a8", "name": "56b7ae1ba10cae53eed7a128620d30a8", "is_reserved": 0, "fusion_lat": 0.0}, {"type": "electric_scooter", "rental_uris": {"ios": "https://dc.lft.to/lastmile_qr_scan", "android": "https://dc.lft.to/lastmile_qr_scan"}, "lon": -76.97441216666667, "fusion_lon": 0.0, "is_disabled": 0, "lat": 38.8642705, "bike_id": "2190ac9dc382cd6efc7b60feecde3413", "name": "2190ac9dc382cd6efc7b60feecde3413", "is_reserved": 0, "fusion_lat": 0.0}, {"type": "electric_scooter", "rental_uris": {"ios": "https://dc.lft.to/lastmile_qr_scan", "android": "https://dc.lft.to/lastmile_qr_scan"}, "lon": -77.002269, "fusion_lon": 0.0, "is_disabled": 0, "lat": 38.92509833333333, "bike_id": "f256bbbfaaf1336417f94007c2dc74bf", "name": "f256bbbfaaf1336417f94007c2dc74bf", "is_reserved": 0, "fusion_lat": 0.0}, {"type": "electric_bike", "rental_uris": {"ios": "https://dc.lft.to/lastmile_qr_scan", "android": "https://dc.lft.to/lastmile_qr_scan"}, "lon": -76.93650266666667, "fusion_lon": 0.0, "is_disabled": 0, "lat": 38.87153766666667, "bike_id": "4648c02d756baee4153407eca1f6d3c2", "name": "4648c02d756baee4153407eca1f6d3c2", "is_reserved": 0, "fusion_lat": 0.0}, {"type": "electric_scooter", "rental_uris": {"ios": "https://dc.lft.to/lastmile_qr_scan", "android": "https://dc.lft.to/lastmile_qr_scan"}, "lon": -77.04328883333334, "fusion_lon": 0.0, "is_disabled": 0, "lat": 38.892248, "bike_id": "2c3945972ca1104f9eb6666929d94c51", "name": "2c3945972ca1104f9eb6666929d94c51", "is_reserved": 0, "fusion_lat": 0.0}, {"type": "electric_bike", "rental_uris": {"ios": "https://dc.lft.to/lastmile_qr_scan", "android": "https://dc.lft.to/lastmile_qr_scan"}, "lon": -76.9719105, "fusion_lon": 0.0, "is_disabled": 0, "lat": 38.91787766666667, "bike_id": "1a60cd26bc02637178f2fca9bd37c733", "name": "1a60cd26bc02637178f2fca9bd37c733", "is_reserved": 0, "fusion_lat": 0.0}, {"type": "electric_scooter", "rental_uris": {"ios": "https://dc.lft.to/lastmile_qr_scan", "android": "https://dc.lft.to/lastmile_qr_scan"}, "lon": -76.98208833333334, "fusion_lon": 0.0, "is_disabled": 0, "lat": 38.9019655, "bike_id": "0f88e64bc4da2518dcc0aca2ea334fbe", "name": "0f88e64bc4da2518dcc0aca2ea334fbe", "is_reserved": 0, "fusion_lat": 0.0}, {"type": "electric_scooter", "rental_uris": {"ios": "https://dc.lft.to/lastmile_qr_scan", "android": "https://dc.lft.to/lastmile_qr_scan"}, "lon": -77.03968666666667, "fusion_lon": 0.0, "is_disabled": 0, "lat": 38.90257483333333, "bike_id": "92d66c29284bd80528129c3ddac711f1", "name": "92d66c29284bd80528129c3ddac711f1", "is_reserved": 0, "fusion_lat": 0.0}, {"type": "electric_scooter", "rental_uris": {"ios": "https://dc.lft.to/lastmile_qr_scan", "android": "https://dc.lft.to/lastmile_qr_scan"}, "lon": -77.07331983333333, "fusion_lon": 0.0, "is_disabled": 0, "lat": 38.93357733333333, "bike_id": "86e69cbe9e4a876b4a6a6eb154075a85", "name": "86e69cbe9e4a876b4a6a6eb154075a85", "is_reserved": 0, "fusion_lat": 0.0}, {"type": "electric_scooter", "rental_uris": {"ios": "https://dc.lft.to/lastmile_qr_scan", "android": "https://dc.lft.to/lastmile_qr_scan"}, "lon": -77.0432925, "fusion_lon": 0.0, "is_disabled": 0, "lat": 38.89226583333333, "bike_id": "0d41504b3aa034348323b23382a012ad", "name": "0d41504b3aa034348323b23382a012ad", "is_reserved": 0, "fusion_lat": 0.0}, {"type": "electric_scooter", "rental_uris": {"ios": "https://dc.lft.to/lastmile_qr_scan", "android": "https://dc.lft.to/lastmile_qr_scan"}, "lon": -77.01723683333333, "fusion_lon": 0.0, "is_disabled": 0, "lat": 38.915879, "bike_id": "8665e83cebea6274f2d6760f1d6c2360", "name": "8665e83cebea6274f2d6760f1d6c2360", "is_reserved": 0, "fusion_lat": 0.0}, {"type": "electric_scooter", "rental_uris": {"ios": "https://dc.lft.to/lastmile_qr_scan", "android": "https://dc.lft.to/lastmile_qr_scan"}, "lon": -77.00410883333333, "fusion_lon": 0.0, "is_disabled": 0, "lat": 38.876729833333336, "bike_id": "f8424d61bff53f13f78efa5a86b3d1bf", "name": "f8424d61bff53f13f78efa5a86b3d1bf", "is_reserved": 0, "fusion_lat": 0.0}, {"type": "electric_scooter", "rental_uris": {"ios": "https://dc.lft.to/lastmile_qr_scan", "android": "https://dc.lft.to/lastmile_qr_scan"}, "lon": -77.02466133333333, "fusion_lon": 0.0, "is_disabled": 0, "lat": 38.918408, "bike_id": "b3cea8160627c5048e073bff6060bf07", "name": "b3cea8160627c5048e073bff6060bf07", "is_reserved": 0, "fusion_lat": 0.0}, {"type": "electric_scooter", "rental_uris": {"ios": "https://dc.lft.to/lastmile_qr_scan", "android": "https://dc.lft.to/lastmile_qr_scan"}, "lon": -77.0417315, "fusion_lon": 0.0, "is_disabled": 0, "lat": 38.91803816666667, "bike_id": "03717d76a8b6bd7b66a229a6117e0892", "name": "03717d76a8b6bd7b66a229a6117e0892", "is_reserved": 0, "fusion_lat": 0.0}, {"type": "electric_scooter", "rental_uris": {"ios": "https://dc.lft.to/lastmile_qr_scan", "android": "https://dc.lft.to/lastmile_qr_scan"}, "lon": -77.02701983333333, "fusion_lon": 0.0, "is_disabled": 0, "lat": 38.9045775, "bike_id": "a881108f809378d84af8625845aea1bd", "name": "a881108f809378d84af8625845aea1bd", "is_reserved": 0, "fusion_lat": 0.0}, {"type": "electric_scooter", "rental_uris": {"ios": "https://dc.lft.to/lastmile_qr_scan", "android": "https://dc.lft.to/lastmile_qr_scan"}, "lon": -77.03220583333334, "fusion_lon": 0.0, "is_disabled": 0, "lat": 38.90963566666667, "bike_id": "4fe4a431564de74e6ac4c9afa5d599e2", "name": "4fe4a431564de74e6ac4c9afa5d599e2", "is_reserved": 0, "fusion_lat": 0.0}, {"type": "electric_scooter", "rental_uris": {"ios": "https://dc.lft.to/lastmile_qr_scan", "android": "https://dc.lft.to/lastmile_qr_scan"}, "lon": -77.039841, "fusion_lon": 0.0, "is_disabled": 0, "lat": 38.892233833333336, "bike_id": "57b8ecde09386cfa22ce0e878021eac6", "name": "57b8ecde09386cfa22ce0e878021eac6", "is_reserved": 0, "fusion_lat": 0.0}, {"type": "electric_scooter", "rental_uris": {"ios": "https://dc.lft.to/lastmile_qr_scan", "android": "https://dc.lft.to/lastmile_qr_scan"}, "lon": -76.93173466666667, "fusion_lon": 0.0, "is_disabled": 0, "lat": 38.89885016666667, "bike_id": "b87bec534c891a13309bd023212751e9", "name": "b87bec534c891a13309bd023212751e9", "is_reserved": 0, "fusion_lat": 0.0}, {"type": "electric_scooter", "rental_uris": {"ios": "https://dc.lft.to/lastmile_qr_scan", "android": "https://dc.lft.to/lastmile_qr_scan"}, "lon": -77.057224, "fusion_lon": 0.0, "is_disabled": 0, "lat": 38.93361816666667, "bike_id": "12911c23a09f6f3ef62855da610d5405", "name": "12911c23a09f6f3ef62855da610d5405", "is_reserved": 0, "fusion_lat": 0.0}, {"type": "electric_scooter", "rental_uris": {"ios": "https://dc.lft.to/lastmile_qr_scan", "android": "https://dc.lft.to/lastmile_qr_scan"}, "lon": -77.0296445, "fusion_lon": 0.0, "is_disabled": 0, "lat": 38.90777533333333, "bike_id": "5ee15e964f361780f838171cbcf64d34", "name": "5ee15e964f361780f838171cbcf64d34", "is_reserved": 0, "fusion_lat": 0.0}, {"type": "electric_scooter", "rental_uris": {"ios": "https://dc.lft.to/lastmile_qr_scan", "android": "https://dc.lft.to/lastmile_qr_scan"}, "lon": -77.03775516666667, "fusion_lon": 0.0, "is_disabled": 0, "lat": 38.92980383333333, "bike_id": "960759521a8cb41973550f1c5cde1124", "name": "960759521a8cb41973550f1c5cde1124", "is_reserved": 0, "fusion_lat": 0.0}, {"type": "electric_bike", "rental_uris": {"ios": "https://dc.lft.to/lastmile_qr_scan", "android": "https://dc.lft.to/lastmile_qr_scan"}, "lon": -77.026271, "fusion_lon": 0.0, "is_disabled": 0, "lat": 38.962179666666664, "bike_id": "257413e0abe32a0646c83a9e1f6d2f48", "name": "257413e0abe32a0646c83a9e1f6d2f48", "is_reserved": 0, "fusion_lat": 0.0}, {"type": "electric_scooter", "rental_uris": {"ios": "https://dc.lft.to/lastmile_qr_scan", "android": "https://dc.lft.to/lastmile_qr_scan"}, "lon": -77.0491105, "fusion_lon": 0.0, "is_disabled": 0, "lat": 38.900856833333336, "bike_id": "2f900ee045c1a7f2fe5947d93eaf54fb", "name": "2f900ee045c1a7f2fe5947d93eaf54fb", "is_reserved": 0, "fusion_lat": 0.0}, {"type": "electric_bike", "rental_uris": {"ios": "https://dc.lft.to/lastmile_qr_scan", "android": "https://dc.lft.to/lastmile_qr_scan"}, "lon": -77.36092816666667, "fusion_lon": 0.0, "is_disabled": 0, "lat": 38.9395015, "bike_id": "ef6e68260545d3042969de28abbcd739", "name": "ef6e68260545d3042969de28abbcd739", "is_reserved": 0, "fusion_lat": 0.0}, {"type": "electric_bike", "rental_uris": {"ios": "https://dc.lft.to/lastmile_qr_scan", "android": "https://dc.lft.to/lastmile_qr_scan"}, "lon": -77.07387783333333, "fusion_lon": 0.0, "is_disabled": 0, "lat": 38.9617845, "bike_id": "2edef446aaab494b30b8274384947756", "name": "2edef446aaab494b30b8274384947756", "is_reserved": 0, "fusion_lat": 0.0}, {"type": "electric_bike", "rental_uris": {"ios": "https://dc.lft.to/lastmile_qr_scan", "android": "https://dc.lft.to/lastmile_qr_scan"}, "lon": -76.88376716666667, "fusion_lon": 0.0, "is_disabled": 0, "lat": 38.99817616666667, "bike_id": "deb4a4c34e135fde618497c40b03465a", "name": "deb4a4c34e135fde618497c40b03465a", "is_reserved": 0, "fusion_lat": 0.0}, {"type": "electric_scooter", "rental_uris": {"ios": "https://dc.lft.to/lastmile_qr_scan", "android": "https://dc.lft.to/lastmile_qr_scan"}, "lon": -77.0317275, "fusion_lon": 0.0, "is_disabled": 0, "lat": 38.9210555, "bike_id": "42ad21635fcb2e1b68d3ce2f0ee59d7c", "name": "42ad21635fcb2e1b68d3ce2f0ee59d7c", "is_reserved": 0, "fusion_lat": 0.0}, {"type": "electric_scooter", "rental_uris": {"ios": "https://dc.lft.to/lastmile_qr_scan", "android": "https://dc.lft.to/lastmile_qr_scan"}, "lon": -77.04647033333333, "fusion_lon": 0.0, "is_disabled": 0, "lat": 38.892251, "bike_id": "3ddaedda9986d53886434b4f6912dee4", "name": "3ddaedda9986d53886434b4f6912dee4", "is_reserved": 0, "fusion_lat": 0.0}, {"type": "electric_bike", "rental_uris": {"ios": "https://dc.lft.to/lastmile_qr_scan", "android": "https://dc.lft.to/lastmile_qr_scan"}, "lon": -76.94584, "fusion_lon": 0.0, "is_disabled": 0, "lat": 38.95336483333333, "bike_id": "b7f33cc1aa5a7a1972953f6d60a1b916", "name": "b7f33cc1aa5a7a1972953f6d60a1b916", "is_reserved": 0, "fusion_lat": 0.0}, {"type": "electric_scooter", "rental_uris": {"ios": "https://dc.lft.to/lastmile_qr_scan", "android": "https://dc.lft.to/lastmile_qr_scan"}, "lon": -76.95145966666666, "fusion_lon": 0.0, "is_disabled": 0, "lat": 38.890408, "bike_id": "7573a217a2b679bb1ed8b4182c61f9df", "name": "7573a217a2b679bb1ed8b4182c61f9df", "is_reserved": 0, "fusion_lat": 0.0}, {"type": "electric_scooter", "rental_uris": {"ios": "https://dc.lft.to/lastmile_qr_scan", "android": "https://dc.lft.to/lastmile_qr_scan"}, "lon": -77.0329215, "fusion_lon": 0.0, "is_disabled": 0, "lat": 38.927496833333336, "bike_id": "f665e256a6813b6e9026c643da7d6230", "name": "f665e256a6813b6e9026c643da7d6230", "is_reserved": 0, "fusion_lat": 0.0}, {"type": "electric_bike", "rental_uris": {"ios": "https://dc.lft.to/lastmile_qr_scan", "android": "https://dc.lft.to/lastmile_qr_scan"}, "lon": -76.99002283333333, "fusion_lon": 0.0, "is_disabled": 0, "lat": 38.95491, "bike_id": "3f1c1b895504ead4c646a99bf798f5e8", "name": "3f1c1b895504ead4c646a99bf798f5e8", "is_reserved": 0, "fusion_lat": 0.0}, {"type": "electric_scooter", "rental_uris": {"ios": "https://dc.lft.to/lastmile_qr_scan", "android": "https://dc.lft.to/lastmile_qr_scan"}, "lon": -77.03156716666666, "fusion_lon": 0.0, "is_disabled": 0, "lat": 38.920813833333334, "bike_id": "2cbacdf360bc97ec2a0b1c8a369204cd", "name": "2cbacdf360bc97ec2a0b1c8a369204cd", "is_reserved": 0, "fusion_lat": 0.0}, {"type": "electric_scooter", "rental_uris": {"ios": "https://dc.lft.to/lastmile_qr_scan", "android": "https://dc.lft.to/lastmile_qr_scan"}, "lon": -77.0316605, "fusion_lon": 0.0, "is_disabled": 0, "lat": 38.897616, "bike_id": "6a0ee24637f4a19600fdb84883ff02c5", "name": "6a0ee24637f4a19600fdb84883ff02c5", "is_reserved": 0, "fusion_lat": 0.0}, {"type": "electric_scooter", "rental_uris": {"ios": "https://dc.lft.to/lastmile_qr_scan", "android": "https://dc.lft.to/lastmile_qr_scan"}, "lon": -77.03781183333334, "fusion_lon": 0.0, "is_disabled": 0, "lat": 38.925767666666665, "bike_id": "e3991e8e8a2f5771846bcaf1d38c7ba4", "name": "e3991e8e8a2f5771846bcaf1d38c7ba4", "is_reserved": 0, "fusion_lat": 0.0}, {"type": "electric_scooter", "rental_uris": {"ios": "https://dc.lft.to/lastmile_qr_scan", "android": "https://dc.lft.to/lastmile_qr_scan"}, "lon": -76.93038566666667, "fusion_lon": 0.0, "is_disabled": 0, "lat": 38.89569016666667, "bike_id": "d739f46892ac8e44adeac1c5686dbe55", "name": "d739f46892ac8e44adeac1c5686dbe55", "is_reserved": 0, "fusion_lat": 0.0}, {"type": "electric_scooter", "rental_uris": {"ios": "https://dc.lft.to/lastmile_qr_scan", "android": "https://dc.lft.to/lastmile_qr_scan"}, "lon": -77.0218255, "fusion_lon": 0.0, "is_disabled": 0, "lat": 38.9097655, "bike_id": "6b81fde3c248ad94085700cd4246e5f1", "name": "6b81fde3c248ad94085700cd4246e5f1", "is_reserved": 0, "fusion_lat": 0.0}, {"type": "electric_scooter", "rental_uris": {"ios": "https://dc.lft.to/lastmile_qr_scan", "android": "https://dc.lft.to/lastmile_qr_scan"}, "lon": -77.04045, "fusion_lon": 0.0, "is_disabled": 0, "lat": 38.899193833333335, "bike_id": "8a03a58cb6680aab58aceaec0b6352ac", "name": "8a03a58cb6680aab58aceaec0b6352ac", "is_reserved": 0, "fusion_lat": 0.0}, {"type": "electric_scooter", "rental_uris": {"ios": "https://dc.lft.to/lastmile_qr_scan", "android": "https://dc.lft.to/lastmile_qr_scan"}, "lon": -77.003424, "fusion_lon": 0.0, "is_disabled": 0, "lat": 38.88741316666667, "bike_id": "36a530ed29aaeee28988b633159e13da", "name": "36a530ed29aaeee28988b633159e13da", "is_reserved": 0, "fusion_lat": 0.0}, {"type": "electric_scooter", "rental_uris": {"ios": "https://dc.lft.to/lastmile_qr_scan", "android": "https://dc.lft.to/lastmile_qr_scan"}, "lon": -77.0272165, "fusion_lon": 0.0, "is_disabled": 0, "lat": 38.951860833333335, "bike_id": "a4c3a4ae955d7c208c048a4a2cb52692", "name": "a4c3a4ae955d7c208c048a4a2cb52692", "is_reserved": 0, "fusion_lat": 0.0}, {"type": "electric_scooter", "rental_uris": {"ios": "https://dc.lft.to/lastmile_qr_scan", "android": "https://dc.lft.to/lastmile_qr_scan"}, "lon": -77.03665066666667, "fusion_lon": 0.0, "is_disabled": 0, "lat": 38.902888, "bike_id": "aa1a217610ed443077cd21f673b21730", "name": "aa1a217610ed443077cd21f673b21730", "is_reserved": 0, "fusion_lat": 0.0}, {"type": "electric_scooter", "rental_uris": {"ios": "https://dc.lft.to/lastmile_qr_scan", "android": "https://dc.lft.to/lastmile_qr_scan"}, "lon": -77.03184483333334, "fusion_lon": 0.0, "is_disabled": 0, "lat": 38.91332083333333, "bike_id": "d94c10694d97d336b332e39dd72fa990", "name": "d94c10694d97d336b332e39dd72fa990", "is_reserved": 0, "fusion_lat": 0.0}, {"type": "electric_scooter", "rental_uris": {"ios": "https://dc.lft.to/lastmile_qr_scan", "android": "https://dc.lft.to/lastmile_qr_scan"}, "lon": -77.024922, "fusion_lon": 0.0, "is_disabled": 0, "lat": 38.9193815, "bike_id": "0bf02e22bea0d8a7210f13330674470d", "name": "0bf02e22bea0d8a7210f13330674470d", "is_reserved": 0, "fusion_lat": 0.0}, {"type": "electric_scooter", "rental_uris": {"ios": "https://dc.lft.to/lastmile_qr_scan", "android": "https://dc.lft.to/lastmile_qr_scan"}, "lon": -77.07327916666667, "fusion_lon": 0.0, "is_disabled": 0, "lat": 38.9249275, "bike_id": "d10c1c5c7a57f2b1f3bdc8f75bafcc35", "name": "d10c1c5c7a57f2b1f3bdc8f75bafcc35", "is_reserved": 0, "fusion_lat": 0.0}, {"type": "electric_scooter", "rental_uris": {"ios": "https://dc.lft.to/lastmile_qr_scan", "android": "https://dc.lft.to/lastmile_qr_scan"}, "lon": -77.0393465, "fusion_lon": 0.0, "is_disabled": 0, "lat": 38.91555733333333, "bike_id": "4b01eec78f1f1ffdcca5be6578228376", "name": "4b01eec78f1f1ffdcca5be6578228376", "is_reserved": 0, "fusion_lat": 0.0}, {"type": "electric_scooter", "rental_uris": {"ios": "https://dc.lft.to/lastmile_qr_scan", "android": "https://dc.lft.to/lastmile_qr_scan"}, "lon": -77.03659866666666, "fusion_lon": 0.0, "is_disabled": 0, "lat": 38.917226, "bike_id": "21d6bad6e41955e67fb7e38822958ec5", "name": "21d6bad6e41955e67fb7e38822958ec5", "is_reserved": 0, "fusion_lat": 0.0}, {"type": "electric_scooter", "rental_uris": {"ios": "https://dc.lft.to/lastmile_qr_scan", "android": "https://dc.lft.to/lastmile_qr_scan"}, "lon": -77.04230633333333, "fusion_lon": 0.0, "is_disabled": 0, "lat": 38.92201333333333, "bike_id": "7540719f2822e4ba95f5115f18f02cca", "name": "7540719f2822e4ba95f5115f18f02cca", "is_reserved": 0, "fusion_lat": 0.0}, {"type": "electric_scooter", "rental_uris": {"ios": "https://dc.lft.to/lastmile_qr_scan", "android": "https://dc.lft.to/lastmile_qr_scan"}, "lon": -77.04146866666666, "fusion_lon": 0.0, "is_disabled": 0, "lat": 38.8922125, "bike_id": "042e2b8efa7fc762b19a3fd865b32957", "name": "042e2b8efa7fc762b19a3fd865b32957", "is_reserved": 0, "fusion_lat": 0.0}, {"type": "electric_scooter", "rental_uris": {"ios": "https://dc.lft.to/lastmile_qr_scan", "android": "https://dc.lft.to/lastmile_qr_scan"}, "lon": -77.026968, "fusion_lon": 0.0, "is_disabled": 0, "lat": 38.91122516666667, "bike_id": "16a1c56fbf29f6edb4e4330b6439ede3", "name": "16a1c56fbf29f6edb4e4330b6439ede3", "is_reserved": 0, "fusion_lat": 0.0}, {"type": "electric_scooter", "rental_uris": {"ios": "https://dc.lft.to/lastmile_qr_scan", "android": "https://dc.lft.to/lastmile_qr_scan"}, "lon": -76.98889366666667, "fusion_lon": 0.0, "is_disabled": 0, "lat": 38.8665665, "bike_id": "c6b73ed3d6e046d5e46c35e32dcb85e4", "name": "c6b73ed3d6e046d5e46c35e32dcb85e4", "is_reserved": 0, "fusion_lat": 0.0}, {"type": "electric_scooter", "rental_uris": {"ios": "https://dc.lft.to/lastmile_qr_scan", "android": "https://dc.lft.to/lastmile_qr_scan"}, "lon": -77.03298866666667, "fusion_lon": 0.0, "is_disabled": 0, "lat": 38.956410166666664, "bike_id": "454aed48fdd4953c388c9d6c90e9c1cd", "name": "454aed48fdd4953c388c9d6c90e9c1cd", "is_reserved": 0, "fusion_lat": 0.0}, {"type": "electric_scooter", "rental_uris": {"ios": "https://dc.lft.to/lastmile_qr_scan", "android": "https://dc.lft.to/lastmile_qr_scan"}, "lon": -77.052692, "fusion_lon": 0.0, "is_disabled": 0, "lat": 38.925452166666666, "bike_id": "4ba003b95f7b75996dcec9c877725b8f", "name": "4ba003b95f7b75996dcec9c877725b8f", "is_reserved": 0, "fusion_lat": 0.0}, {"type": "electric_bike", "rental_uris": {"ios": "https://dc.lft.to/lastmile_qr_scan", "android": "https://dc.lft.to/lastmile_qr_scan"}, "lon": -77.12730216666667, "fusion_lon": 0.0, "is_disabled": 0, "lat": 38.89558316666667, "bike_id": "b9e2aa817be03ebda7e0842b0fdfa480", "name": "b9e2aa817be03ebda7e0842b0fdfa480", "is_reserved": 0, "fusion_lat": 0.0}, {"type": "electric_scooter", "rental_uris": {"ios": "https://dc.lft.to/lastmile_qr_scan", "android": "https://dc.lft.to/lastmile_qr_scan"}, "lon": -77.05237983333333, "fusion_lon": 0.0, "is_disabled": 0, "lat": 38.923431, "bike_id": "1e2ef4ef71e0a9846c723456b025b53c", "name": "1e2ef4ef71e0a9846c723456b025b53c", "is_reserved": 0, "fusion_lat": 0.0}, {"type": "electric_scooter", "rental_uris": {"ios": "https://dc.lft.to/lastmile_qr_scan", "android": "https://dc.lft.to/lastmile_qr_scan"}, "lon": -77.03462066666667, "fusion_lon": 0.0, "is_disabled": 0, "lat": 38.9096205, "bike_id": "90d2bf4c3959d8e54e0aa3557fd2ea3e", "name": "90d2bf4c3959d8e54e0aa3557fd2ea3e", "is_reserved": 0, "fusion_lat": 0.0}, {"type": "electric_scooter", "rental_uris": {"ios": "https://dc.lft.to/lastmile_qr_scan", "android": "https://dc.lft.to/lastmile_qr_scan"}, "lon": -77.03257283333333, "fusion_lon": 0.0, "is_disabled": 0, "lat": 38.939731, "bike_id": "3891487af35940b03950c08ec0429770", "name": "3891487af35940b03950c08ec0429770", "is_reserved": 0, "fusion_lat": 0.0}, {"type": "electric_scooter", "rental_uris": {"ios": "https://dc.lft.to/lastmile_qr_scan", "android": "https://dc.lft.to/lastmile_qr_scan"}, "lon": -76.9837845, "fusion_lon": 0.0, "is_disabled": 0, "lat": 38.86115683333333, "bike_id": "0e8db020add3c542a8096055323f7ccb", "name": "0e8db020add3c542a8096055323f7ccb", "is_reserved": 0, "fusion_lat": 0.0}, {"type": "electric_scooter", "rental_uris": {"ios": "https://dc.lft.to/lastmile_qr_scan", "android": "https://dc.lft.to/lastmile_qr_scan"}, "lon": -77.021923, "fusion_lon": 0.0, "is_disabled": 0, "lat": 38.916618666666665, "bike_id": "ff97fe03cf7204d5adf6924cf12507c1", "name": "ff97fe03cf7204d5adf6924cf12507c1", "is_reserved": 0, "fusion_lat": 0.0}, {"type": "electric_scooter", "rental_uris": {"ios": "https://dc.lft.to/lastmile_qr_scan", "android": "https://dc.lft.to/lastmile_qr_scan"}, "lon": -77.05139416666667, "fusion_lon": 0.0, "is_disabled": 0, "lat": 38.904400333333335, "bike_id": "20be05c4eb22f4e5e3147953b7f72c61", "name": "20be05c4eb22f4e5e3147953b7f72c61", "is_reserved": 0, "fusion_lat": 0.0}, {"type": "electric_scooter", "rental_uris": {"ios": "https://dc.lft.to/lastmile_qr_scan", "android": "https://dc.lft.to/lastmile_qr_scan"}, "lon": -77.02639333333333, "fusion_lon": 0.0, "is_disabled": 0, "lat": 38.91064183333334, "bike_id": "edbafd6452f1f03d0574a16ce4f4d392", "name": "edbafd6452f1f03d0574a16ce4f4d392", "is_reserved": 0, "fusion_lat": 0.0}, {"type": "electric_scooter", "rental_uris": {"ios": "https://dc.lft.to/lastmile_qr_scan", "android": "https://dc.lft.to/lastmile_qr_scan"}, "lon": -77.02392216666667, "fusion_lon": 0.0, "is_disabled": 0, "lat": 38.906223833333335, "bike_id": "7dde3f1ff0bd38b7eac4fbc8c71b673f", "name": "7dde3f1ff0bd38b7eac4fbc8c71b673f", "is_reserved": 0, "fusion_lat": 0.0}, {"type": "electric_scooter", "rental_uris": {"ios": "https://dc.lft.to/lastmile_qr_scan", "android": "https://dc.lft.to/lastmile_qr_scan"}, "lon": -77.040413, "fusion_lon": 0.0, "is_disabled": 0, "lat": 38.9185855, "bike_id": "5eb7ce02ed8d5b63dbcfcf71717fc574", "name": "5eb7ce02ed8d5b63dbcfcf71717fc574", "is_reserved": 0, "fusion_lat": 0.0}, {"type": "electric_scooter", "rental_uris": {"ios": "https://dc.lft.to/lastmile_qr_scan", "android": "https://dc.lft.to/lastmile_qr_scan"}, "lon": -77.02805766666667, "fusion_lon": 0.0, "is_disabled": 0, "lat": 38.9309885, "bike_id": "0bfccdca3dfc10f3bf8225dc970b2f06", "name": "0bfccdca3dfc10f3bf8225dc970b2f06", "is_reserved": 0, "fusion_lat": 0.0}, {"type": "electric_scooter", "rental_uris": {"ios": "https://dc.lft.to/lastmile_qr_scan", "android": "https://dc.lft.to/lastmile_qr_scan"}, "lon": -77.022023, "fusion_lon": 0.0, "is_disabled": 0, "lat": 38.91545583333333, "bike_id": "3ba42f43c2a695158bd63053d26da28d", "name": "3ba42f43c2a695158bd63053d26da28d", "is_reserved": 0, "fusion_lat": 0.0}, {"type": "electric_scooter", "rental_uris": {"ios": "https://dc.lft.to/lastmile_qr_scan", "android": "https://dc.lft.to/lastmile_qr_scan"}, "lon": -77.01769233333333, "fusion_lon": 0.0, "is_disabled": 0, "lat": 38.877024, "bike_id": "6e372d7dae2ac3cac607f1ba4b5fc832", "name": "6e372d7dae2ac3cac607f1ba4b5fc832", "is_reserved": 0, "fusion_lat": 0.0}, {"type": "electric_scooter", "rental_uris": {"ios": "https://dc.lft.to/lastmile_qr_scan", "android": "https://dc.lft.to/lastmile_qr_scan"}, "lon": -76.99250333333333, "fusion_lon": 0.0, "is_disabled": 0, "lat": 38.86379016666667, "bike_id": "f6db8cd36b0ce9e59f0ca5a8da680970", "name": "f6db8cd36b0ce9e59f0ca5a8da680970", "is_reserved": 0, "fusion_lat": 0.0}, {"type": "electric_scooter", "rental_uris": {"ios": "https://dc.lft.to/lastmile_qr_scan", "android": "https://dc.lft.to/lastmile_qr_scan"}, "lon": -77.041602, "fusion_lon": 0.0, "is_disabled": 0, "lat": 38.918035833333334, "bike_id": "93b46250a1d589fb00b59dc676dff872", "name": "93b46250a1d589fb00b59dc676dff872", "is_reserved": 0, "fusion_lat": 0.0}, {"type": "electric_scooter", "rental_uris": {"ios": "https://dc.lft.to/lastmile_qr_scan", "android": "https://dc.lft.to/lastmile_qr_scan"}, "lon": -77.02723033333334, "fusion_lon": 0.0, "is_disabled": 0, "lat": 38.90686633333333, "bike_id": "9cbb7aa79db6700d962206b5c66b9c5b", "name": "9cbb7aa79db6700d962206b5c66b9c5b", "is_reserved": 0, "fusion_lat": 0.0}, {"type": "electric_scooter", "rental_uris": {"ios": "https://dc.lft.to/lastmile_qr_scan", "android": "https://dc.lft.to/lastmile_qr_scan"}, "lon": -76.981923, "fusion_lon": 0.0, "is_disabled": 0, "lat": 38.856775666666664, "bike_id": "31d2777a27d2035cb554b10e8358e7a5", "name": "31d2777a27d2035cb554b10e8358e7a5", "is_reserved": 0, "fusion_lat": 0.0}, {"type": "electric_scooter", "rental_uris": {"ios": "https://dc.lft.to/lastmile_qr_scan", "android": "https://dc.lft.to/lastmile_qr_scan"}, "lon": -77.0084345, "fusion_lon": 0.0, "is_disabled": 0, "lat": 38.921338666666664, "bike_id": "a54d4ba12ae5f82786a639e6da45ff05", "name": "a54d4ba12ae5f82786a639e6da45ff05", "is_reserved": 0, "fusion_lat": 0.0}, {"type": "electric_scooter", "rental_uris": {"ios": "https://dc.lft.to/lastmile_qr_scan", "android": "https://dc.lft.to/lastmile_qr_scan"}, "lon": -77.043048, "fusion_lon": 0.0, "is_disabled": 0, "lat": 38.90156833333333, "bike_id": "f60c3a98061446580d752a9b78502c14", "name": "f60c3a98061446580d752a9b78502c14", "is_reserved": 0, "fusion_lat": 0.0}, {"type": "electric_scooter", "rental_uris": {"ios": "https://dc.lft.to/lastmile_qr_scan", "android": "https://dc.lft.to/lastmile_qr_scan"}, "lon": -77.07277416666666, "fusion_lon": 0.0, "is_disabled": 0, "lat": 38.93485166666667, "bike_id": "d6a9f86bddcaabe56abbcc859d997956", "name": "d6a9f86bddcaabe56abbcc859d997956", "is_reserved": 0, "fusion_lat": 0.0}, {"type": "electric_scooter", "rental_uris": {"ios": "https://dc.lft.to/lastmile_qr_scan", "android": "https://dc.lft.to/lastmile_qr_scan"}, "lon": -77.03759233333334, "fusion_lon": 0.0, "is_disabled": 0, "lat": 38.92936183333333, "bike_id": "7aed28e1baa0dda88e1ae277b036cc12", "name": "7aed28e1baa0dda88e1ae277b036cc12", "is_reserved": 0, "fusion_lat": 0.0}, {"type": "electric_scooter", "rental_uris": {"ios": "https://dc.lft.to/lastmile_qr_scan", "android": "https://dc.lft.to/lastmile_qr_scan"}, "lon": -77.01454666666666, "fusion_lon": 0.0, "is_disabled": 0, "lat": 38.92741133333333, "bike_id": "6ccab6374463c62896f21e80b4f404fe", "name": "6ccab6374463c62896f21e80b4f404fe", "is_reserved": 0, "fusion_lat": 0.0}, {"type": "electric_bike", "rental_uris": {"ios": "https://dc.lft.to/lastmile_qr_scan", "android": "https://dc.lft.to/lastmile_qr_scan"}, "lon": -76.99769883333333, "fusion_lon": 0.0, "is_disabled": 0, "lat": 38.837409, "bike_id": "f4970f33490bf7e3538948f74f800cee", "name": "f4970f33490bf7e3538948f74f800cee", "is_reserved": 0, "fusion_lat": 0.0}, {"type": "electric_scooter", "rental_uris": {"ios": "https://dc.lft.to/lastmile_qr_scan", "android": "https://dc.lft.to/lastmile_qr_scan"}, "lon": -76.94877883333334, "fusion_lon": 0.0, "is_disabled": 0, "lat": 38.895028, "bike_id": "ed0566cd72848fcb54d6e439613e8579", "name": "ed0566cd72848fcb54d6e439613e8579", "is_reserved": 0, "fusion_lat": 0.0}, {"type": "electric_bike", "rental_uris": {"ios": "https://dc.lft.to/lastmile_qr_scan", "android": "https://dc.lft.to/lastmile_qr_scan"}, "lon": -76.99134333333333, "fusion_lon": 0.0, "is_disabled": 0, "lat": 38.84639416666667, "bike_id": "b9f5ad1041de17cc257fe81730e3a506", "name": "b9f5ad1041de17cc257fe81730e3a506", "is_reserved": 0, "fusion_lat": 0.0}, {"type": "electric_scooter", "rental_uris": {"ios": "https://dc.lft.to/lastmile_qr_scan", "android": "https://dc.lft.to/lastmile_qr_scan"}, "lon": -77.02226116666667, "fusion_lon": 0.0, "is_disabled": 0, "lat": 38.892226, "bike_id": "03e98bb756ee3784bc60e95de46a8b03", "name": "03e98bb756ee3784bc60e95de46a8b03", "is_reserved": 0, "fusion_lat": 0.0}, {"type": "electric_bike", "rental_uris": {"ios": "https://dc.lft.to/lastmile_qr_scan", "android": "https://dc.lft.to/lastmile_qr_scan"}, "lon": -77.0564525, "fusion_lon": 0.0, "is_disabled": 0, "lat": 38.936888333333336, "bike_id": "a1e03d5e3354ba233c0c70f6a960688b", "name": "a1e03d5e3354ba233c0c70f6a960688b", "is_reserved": 0, "fusion_lat": 0.0}, {"type": "electric_scooter", "rental_uris": {"ios": "https://dc.lft.to/lastmile_qr_scan", "android": "https://dc.lft.to/lastmile_qr_scan"}, "lon": -77.03389983333334, "fusion_lon": 0.0, "is_disabled": 0, "lat": 38.9245455, "bike_id": "b4944908490926066ee269282eec10ef", "name": "b4944908490926066ee269282eec10ef", "is_reserved": 0, "fusion_lat": 0.0}, {"type": "electric_scooter", "rental_uris": {"ios": "https://dc.lft.to/lastmile_qr_scan", "android": "https://dc.lft.to/lastmile_qr_scan"}, "lon": -77.01780416666666, "fusion_lon": 0.0, "is_disabled": 0, "lat": 38.887188, "bike_id": "26295329aab593ecd6441fdec6ccb114", "name": "26295329aab593ecd6441fdec6ccb114", "is_reserved": 0, "fusion_lat": 0.0}, {"type": "electric_scooter", "rental_uris": {"ios": "https://dc.lft.to/lastmile_qr_scan", "android": "https://dc.lft.to/lastmile_qr_scan"}, "lon": -77.0435675, "fusion_lon": 0.0, "is_disabled": 0, "lat": 38.90836383333333, "bike_id": "50cd2d81483b9dd7f917d2e821fd161b", "name": "50cd2d81483b9dd7f917d2e821fd161b", "is_reserved": 0, "fusion_lat": 0.0}, {"type": "electric_scooter", "rental_uris": {"ios": "https://dc.lft.to/lastmile_qr_scan", "android": "https://dc.lft.to/lastmile_qr_scan"}, "lon": -76.95132633333333, "fusion_lon": 0.0, "is_disabled": 0, "lat": 38.89029033333333, "bike_id": "eaf0c8467166c1508242cacd8f0bc37c", "name": "eaf0c8467166c1508242cacd8f0bc37c", "is_reserved": 0, "fusion_lat": 0.0}, {"type": "electric_bike", "rental_uris": {"ios": "https://dc.lft.to/lastmile_qr_scan", "android": "https://dc.lft.to/lastmile_qr_scan"}, "lon": -77.07515766666667, "fusion_lon": 0.0, "is_disabled": 0, "lat": 38.8480355, "bike_id": "8c3b93814988ea6ad1bf365017265020", "name": "8c3b93814988ea6ad1bf365017265020", "is_reserved": 0, "fusion_lat": 0.0}, {"type": "electric_scooter", "rental_uris": {"ios": "https://dc.lft.to/lastmile_qr_scan", "android": "https://dc.lft.to/lastmile_qr_scan"}, "lon": -77.02228316666667, "fusion_lon": 0.0, "is_disabled": 0, "lat": 38.9355435, "bike_id": "bfba74371ddf8a0f7b3ab82e36da1733", "name": "bfba74371ddf8a0f7b3ab82e36da1733", "is_reserved": 0, "fusion_lat": 0.0}, {"type": "electric_bike", "rental_uris": {"ios": "https://dc.lft.to/lastmile_qr_scan", "android": "https://dc.lft.to/lastmile_qr_scan"}, "lon": -77.03946016666667, "fusion_lon": 0.0, "is_disabled": 0, "lat": 38.86502133333333, "bike_id": "2c3a532f812802c55ec186f251ea933d", "name": "2c3a532f812802c55ec186f251ea933d", "is_reserved": 0, "fusion_lat": 0.0}, {"type": "electric_bike", "rental_uris": {"ios": "https://dc.lft.to/lastmile_qr_scan", "android": "https://dc.lft.to/lastmile_qr_scan"}, "lon": -77.1189755, "fusion_lon": 0.0, "is_disabled": 0, "lat": 39.075003, "bike_id": "7418a6402f4375b6444ea07c25666045", "name": "7418a6402f4375b6444ea07c25666045", "is_reserved": 0, "fusion_lat": 0.0}, {"type": "electric_scooter", "rental_uris": {"ios": "https://dc.lft.to/lastmile_qr_scan", "android": "https://dc.lft.to/lastmile_qr_scan"}, "lon": -77.03730816666666, "fusion_lon": 0.0, "is_disabled": 0, "lat": 38.9306995, "bike_id": "1950286880be55525861446f0f4aba0d", "name": "1950286880be55525861446f0f4aba0d", "is_reserved": 0, "fusion_lat": 0.0}, {"type": "electric_scooter", "rental_uris": {"ios": "https://dc.lft.to/lastmile_qr_scan", "android": "https://dc.lft.to/lastmile_qr_scan"}, "lon": -77.00578316666666, "fusion_lon": 0.0, "is_disabled": 0, "lat": 38.881813, "bike_id": "36986c289f65674276ff0db54534741e", "name": "36986c289f65674276ff0db54534741e", "is_reserved": 0, "fusion_lat": 0.0}, {"type": "electric_bike", "rental_uris": {"ios": "https://dc.lft.to/lastmile_qr_scan", "android": "https://dc.lft.to/lastmile_qr_scan"}, "lon": -77.05078266666666, "fusion_lon": 0.0, "is_disabled": 0, "lat": 38.81324583333333, "bike_id": "4bd7783a75af7752ab85ae6ef27d10bf", "name": "4bd7783a75af7752ab85ae6ef27d10bf", "is_reserved": 0, "fusion_lat": 0.0}, {"type": "electric_scooter", "rental_uris": {"ios": "https://dc.lft.to/lastmile_qr_scan", "android": "https://dc.lft.to/lastmile_qr_scan"}, "lon": -77.0298695, "fusion_lon": 0.0, "is_disabled": 0, "lat": 38.905075833333335, "bike_id": "c4d15bb884bc1a607ef455d53f7cfe74", "name": "c4d15bb884bc1a607ef455d53f7cfe74", "is_reserved": 0, "fusion_lat": 0.0}, {"type": "electric_scooter", "rental_uris": {"ios": "https://dc.lft.to/lastmile_qr_scan", "android": "https://dc.lft.to/lastmile_qr_scan"}, "lon": -77.05018316666667, "fusion_lon": 0.0, "is_disabled": 0, "lat": 38.906711, "bike_id": "e4a058bc6adcbd4ee660899a05b428dd", "name": "e4a058bc6adcbd4ee660899a05b428dd", "is_reserved": 0, "fusion_lat": 0.0}, {"type": "electric_scooter", "rental_uris": {"ios": "https://dc.lft.to/lastmile_qr_scan", "android": "https://dc.lft.to/lastmile_qr_scan"}, "lon": -77.01767183333334, "fusion_lon": 0.0, "is_disabled": 0, "lat": 38.88140333333333, "bike_id": "cd492bdbd5ab2b6de724f91ac907da5f", "name": "cd492bdbd5ab2b6de724f91ac907da5f", "is_reserved": 0, "fusion_lat": 0.0}, {"type": "electric_scooter", "rental_uris": {"ios": "https://dc.lft.to/lastmile_qr_scan", "android": "https://dc.lft.to/lastmile_qr_scan"}, "lon": -77.028262, "fusion_lon": 0.0, "is_disabled": 0, "lat": 38.887330166666665, "bike_id": "47510ef6e2c4bf151baf434120d13ad8", "name": "47510ef6e2c4bf151baf434120d13ad8", "is_reserved": 0, "fusion_lat": 0.0}, {"type": "electric_bike", "rental_uris": {"ios": "https://dc.lft.to/lastmile_qr_scan", "android": "https://dc.lft.to/lastmile_qr_scan"}, "lon": -77.03733716666666, "fusion_lon": 0.0, "is_disabled": 0, "lat": 38.92025983333333, "bike_id": "53d0062aaf466dcb18570c52c99bb302", "name": "53d0062aaf466dcb18570c52c99bb302", "is_reserved": 0, "fusion_lat": 0.0}, {"type": "electric_scooter", "rental_uris": {"ios": "https://dc.lft.to/lastmile_qr_scan", "android": "https://dc.lft.to/lastmile_qr_scan"}, "lon": -77.04647616666666, "fusion_lon": 0.0, "is_disabled": 0, "lat": 38.892220333333334, "bike_id": "bb968021dd501d32c7b0ffae94d1d4cf", "name": "bb968021dd501d32c7b0ffae94d1d4cf", "is_reserved": 0, "fusion_lat": 0.0}, {"type": "electric_scooter", "rental_uris": {"ios": "https://dc.lft.to/lastmile_qr_scan", "android": "https://dc.lft.to/lastmile_qr_scan"}, "lon": -77.03870833333333, "fusion_lon": 0.0, "is_disabled": 0, "lat": 38.911772, "bike_id": "4bcd3c67a116465dc8991d02f4d21870", "name": "4bcd3c67a116465dc8991d02f4d21870", "is_reserved": 0, "fusion_lat": 0.0}, {"type": "electric_scooter", "rental_uris": {"ios": "https://dc.lft.to/lastmile_qr_scan", "android": "https://dc.lft.to/lastmile_qr_scan"}, "lon": -77.02559933333333, "fusion_lon": 0.0, "is_disabled": 0, "lat": 38.924245166666665, "bike_id": "751f88ed1a62614454707c3d3629022a", "name": "751f88ed1a62614454707c3d3629022a", "is_reserved": 0, "fusion_lat": 0.0}, {"type": "electric_scooter", "rental_uris": {"ios": "https://dc.lft.to/lastmile_qr_scan", "android": "https://dc.lft.to/lastmile_qr_scan"}, "lon": -77.01223166666666, "fusion_lon": 0.0, "is_disabled": 0, "lat": 38.91499833333334, "bike_id": "927e573cf1249cf38c6648c8aac2350a", "name": "927e573cf1249cf38c6648c8aac2350a", "is_reserved": 0, "fusion_lat": 0.0}, {"type": "electric_scooter", "rental_uris": {"ios": "https://dc.lft.to/lastmile_qr_scan", "android": "https://dc.lft.to/lastmile_qr_scan"}, "lon": -77.05470983333333, "fusion_lon": 0.0, "is_disabled": 0, "lat": 38.896079666666665, "bike_id": "3e54c235d0a0f701a250a8f8b0a68ad9", "name": "3e54c235d0a0f701a250a8f8b0a68ad9", "is_reserved": 0, "fusion_lat": 0.0}, {"type": "electric_scooter", "rental_uris": {"ios": "https://dc.lft.to/lastmile_qr_scan", "android": "https://dc.lft.to/lastmile_qr_scan"}, "lon": -77.048954, "fusion_lon": 0.0, "is_disabled": 0, "lat": 38.892249666666665, "bike_id": "0fe4084fd91df3c6b275182cd0d9525f", "name": "0fe4084fd91df3c6b275182cd0d9525f", "is_reserved": 0, "fusion_lat": 0.0}, {"type": "electric_scooter", "rental_uris": {"ios": "https://dc.lft.to/lastmile_qr_scan", "android": "https://dc.lft.to/lastmile_qr_scan"}, "lon": -77.022834, "fusion_lon": 0.0, "is_disabled": 0, "lat": 38.924219666666666, "bike_id": "1551eff6176f86ef821c6ed4f8d665c1", "name": "1551eff6176f86ef821c6ed4f8d665c1", "is_reserved": 0, "fusion_lat": 0.0}, {"type": "electric_scooter", "rental_uris": {"ios": "https://dc.lft.to/lastmile_qr_scan", "android": "https://dc.lft.to/lastmile_qr_scan"}, "lon": -77.0250845, "fusion_lon": 0.0, "is_disabled": 0, "lat": 38.91972366666667, "bike_id": "ec8f7f5b08aaa2997b5743d05c38ddbc", "name": "ec8f7f5b08aaa2997b5743d05c38ddbc", "is_reserved": 0, "fusion_lat": 0.0}, {"type": "electric_scooter", "rental_uris": {"ios": "https://dc.lft.to/lastmile_qr_scan", "android": "https://dc.lft.to/lastmile_qr_scan"}, "lon": -77.057718, "fusion_lon": 0.0, "is_disabled": 0, "lat": 38.924618833333334, "bike_id": "41c90fb8004c1b0d622993a5168b6c43", "name": "41c90fb8004c1b0d622993a5168b6c43", "is_reserved": 0, "fusion_lat": 0.0}, {"type": "electric_scooter", "rental_uris": {"ios": "https://dc.lft.to/lastmile_qr_scan", "android": "https://dc.lft.to/lastmile_qr_scan"}, "lon": -77.0390965, "fusion_lon": 0.0, "is_disabled": 0, "lat": 38.92470616666667, "bike_id": "9f3f673e7be67fb3f01f4b2759a23bf0", "name": "9f3f673e7be67fb3f01f4b2759a23bf0", "is_reserved": 0, "fusion_lat": 0.0}, {"type": "electric_scooter", "rental_uris": {"ios": "https://dc.lft.to/lastmile_qr_scan", "android": "https://dc.lft.to/lastmile_qr_scan"}, "lon": -76.99495216666666, "fusion_lon": 0.0, "is_disabled": 0, "lat": 38.86243833333333, "bike_id": "19ba2602dfadcbf36eaa5c8a8167b52d", "name": "19ba2602dfadcbf36eaa5c8a8167b52d", "is_reserved": 0, "fusion_lat": 0.0}, {"type": "electric_scooter", "rental_uris": {"ios": "https://dc.lft.to/lastmile_qr_scan", "android": "https://dc.lft.to/lastmile_qr_scan"}, "lon": -77.03646716666667, "fusion_lon": 0.0, "is_disabled": 0, "lat": 38.91681833333333, "bike_id": "a95eec799017b2773196dc708e74ed94", "name": "a95eec799017b2773196dc708e74ed94", "is_reserved": 0, "fusion_lat": 0.0}, {"type": "electric_scooter", "rental_uris": {"ios": "https://dc.lft.to/lastmile_qr_scan", "android": "https://dc.lft.to/lastmile_qr_scan"}, "lon": -76.99583883333334, "fusion_lon": 0.0, "is_disabled": 0, "lat": 38.851802666666664, "bike_id": "6aa337faeac91722289728538c4091b6", "name": "6aa337faeac91722289728538c4091b6", "is_reserved": 0, "fusion_lat": 0.0}, {"type": "electric_scooter", "rental_uris": {"ios": "https://dc.lft.to/lastmile_qr_scan", "android": "https://dc.lft.to/lastmile_qr_scan"}, "lon": -77.03872916666667, "fusion_lon": 0.0, "is_disabled": 0, "lat": 38.91046866666667, "bike_id": "d55adb537f8dc6ff761c2f8fcc1c0705", "name": "d55adb537f8dc6ff761c2f8fcc1c0705", "is_reserved": 0, "fusion_lat": 0.0}, {"type": "electric_scooter", "rental_uris": {"ios": "https://dc.lft.to/lastmile_qr_scan", "android": "https://dc.lft.to/lastmile_qr_scan"}, "lon": -76.98519183333333, "fusion_lon": 0.0, "is_disabled": 0, "lat": 38.91548683333333, "bike_id": "e8a84ba596204448257800fb15065632", "name": "e8a84ba596204448257800fb15065632", "is_reserved": 0, "fusion_lat": 0.0}, {"type": "electric_scooter", "rental_uris": {"ios": "https://dc.lft.to/lastmile_qr_scan", "android": "https://dc.lft.to/lastmile_qr_scan"}, "lon": -77.02249083333334, "fusion_lon": 0.0, "is_disabled": 0, "lat": 38.8786275, "bike_id": "0c77807000b2ab5e1b771a07245939f5", "name": "0c77807000b2ab5e1b771a07245939f5", "is_reserved": 0, "fusion_lat": 0.0}, {"type": "electric_scooter", "rental_uris": {"ios": "https://dc.lft.to/lastmile_qr_scan", "android": "https://dc.lft.to/lastmile_qr_scan"}, "lon": -77.0137095, "fusion_lon": 0.0, "is_disabled": 0, "lat": 38.8865575, "bike_id": "4992a108828c2d7f2e231bc8c1dfe4e8", "name": "4992a108828c2d7f2e231bc8c1dfe4e8", "is_reserved": 0, "fusion_lat": 0.0}, {"type": "electric_scooter", "rental_uris": {"ios": "https://dc.lft.to/lastmile_qr_scan", "android": "https://dc.lft.to/lastmile_qr_scan"}, "lon": -77.02012633333334, "fusion_lon": 0.0, "is_disabled": 0, "lat": 38.9241795, "bike_id": "32c42751444230f02b2ef021df25b1aa", "name": "32c42751444230f02b2ef021df25b1aa", "is_reserved": 0, "fusion_lat": 0.0}, {"type": "electric_scooter", "rental_uris": {"ios": "https://dc.lft.to/lastmile_qr_scan", "android": "https://dc.lft.to/lastmile_qr_scan"}, "lon": -77.03854366666667, "fusion_lon": 0.0, "is_disabled": 0, "lat": 38.910188166666664, "bike_id": "16b226299d3b7cc5589d63b9c2560d74", "name": "16b226299d3b7cc5589d63b9c2560d74", "is_reserved": 0, "fusion_lat": 0.0}, {"type": "electric_scooter", "rental_uris": {"ios": "https://dc.lft.to/lastmile_qr_scan", "android": "https://dc.lft.to/lastmile_qr_scan"}, "lon": -76.96525666666666, "fusion_lon": 0.0, "is_disabled": 0, "lat": 38.876240833333334, "bike_id": "2ee123463c22e9a97608004b4e72046a", "name": "2ee123463c22e9a97608004b4e72046a", "is_reserved": 0, "fusion_lat": 0.0}, {"type": "electric_bike", "rental_uris": {"ios": "https://dc.lft.to/lastmile_qr_scan", "android": "https://dc.lft.to/lastmile_qr_scan"}, "lon": -77.10775866666667, "fusion_lon": 0.0, "is_disabled": 0, "lat": 38.89218483333333, "bike_id": "a71f247b84729ea3eca6674c80b73309", "name": "a71f247b84729ea3eca6674c80b73309", "is_reserved": 0, "fusion_lat": 0.0}, {"type": "electric_scooter", "rental_uris": {"ios": "https://dc.lft.to/lastmile_qr_scan", "android": "https://dc.lft.to/lastmile_qr_scan"}, "lon": -77.0045285, "fusion_lon": 0.0, "is_disabled": 0, "lat": 38.911454, "bike_id": "d6f67c37798d15fe258cd32c277a50f9", "name": "d6f67c37798d15fe258cd32c277a50f9", "is_reserved": 0, "fusion_lat": 0.0}, {"type": "electric_scooter", "rental_uris": {"ios": "https://dc.lft.to/lastmile_qr_scan", "android": "https://dc.lft.to/lastmile_qr_scan"}, "lon": -77.0058705, "fusion_lon": 0.0, "is_disabled": 0, "lat": 38.906395833333335, "bike_id": "9c130c0aca7f68cef95d4d4d2cd42b36", "name": "9c130c0aca7f68cef95d4d4d2cd42b36", "is_reserved": 0, "fusion_lat": 0.0}, {"type": "electric_scooter", "rental_uris": {"ios": "https://dc.lft.to/lastmile_qr_scan", "android": "https://dc.lft.to/lastmile_qr_scan"}, "lon": -77.02324133333333, "fusion_lon": 0.0, "is_disabled": 0, "lat": 38.90230533333333, "bike_id": "937b36ddb7df381c1119899d30e78911", "name": "937b36ddb7df381c1119899d30e78911", "is_reserved": 0, "fusion_lat": 0.0}, {"type": "electric_scooter", "rental_uris": {"ios": "https://dc.lft.to/lastmile_qr_scan", "android": "https://dc.lft.to/lastmile_qr_scan"}, "lon": -77.02174283333333, "fusion_lon": 0.0, "is_disabled": 0, "lat": 38.94297133333333, "bike_id": "15705535f7cd685da2883bee832d15c4", "name": "15705535f7cd685da2883bee832d15c4", "is_reserved": 0, "fusion_lat": 0.0}, {"type": "electric_bike", "rental_uris": {"ios": "https://dc.lft.to/lastmile_qr_scan", "android": "https://dc.lft.to/lastmile_qr_scan"}, "lon": -77.033482, "fusion_lon": 0.0, "is_disabled": 0, "lat": 38.969420166666666, "bike_id": "5a4abb0e8d05398af6f49db57fa6bdb4", "name": "5a4abb0e8d05398af6f49db57fa6bdb4", "is_reserved": 0, "fusion_lat": 0.0}, {"type": "electric_scooter", "rental_uris": {"ios": "https://dc.lft.to/lastmile_qr_scan", "android": "https://dc.lft.to/lastmile_qr_scan"}, "lon": -76.93139683333334, "fusion_lon": 0.0, "is_disabled": 0, "lat": 38.893417166666666, "bike_id": "8f2d312927ec0d6de6785498791937e9", "name": "8f2d312927ec0d6de6785498791937e9", "is_reserved": 0, "fusion_lat": 0.0}, {"type": "electric_scooter", "rental_uris": {"ios": "https://dc.lft.to/lastmile_qr_scan", "android": "https://dc.lft.to/lastmile_qr_scan"}, "lon": -77.03198166666667, "fusion_lon": 0.0, "is_disabled": 0, "lat": 38.911722, "bike_id": "fdc6401abf93bf878389109c6ae47224", "name": "fdc6401abf93bf878389109c6ae47224", "is_reserved": 0, "fusion_lat": 0.0}, {"type": "electric_scooter", "rental_uris": {"ios": "https://dc.lft.to/lastmile_qr_scan", "android": "https://dc.lft.to/lastmile_qr_scan"}, "lon": -77.00577183333333, "fusion_lon": 0.0, "is_disabled": 0, "lat": 38.908832833333335, "bike_id": "b9baee02f099ea324fbdf389c8a207a0", "name": "b9baee02f099ea324fbdf389c8a207a0", "is_reserved": 0, "fusion_lat": 0.0}, {"type": "electric_scooter", "rental_uris": {"ios": "https://dc.lft.to/lastmile_qr_scan", "android": "https://dc.lft.to/lastmile_qr_scan"}, "lon": -76.9993965, "fusion_lon": 0.0, "is_disabled": 0, "lat": 38.88975816666667, "bike_id": "99dd2094774d2918e92d64ca646570c3", "name": "99dd2094774d2918e92d64ca646570c3", "is_reserved": 0, "fusion_lat": 0.0}, {"type": "electric_scooter", "rental_uris": {"ios": "https://dc.lft.to/lastmile_qr_scan", "android": "https://dc.lft.to/lastmile_qr_scan"}, "lon": -76.98582483333334, "fusion_lon": 0.0, "is_disabled": 0, "lat": 38.854502, "bike_id": "50a1b87914f787e112fc84cd5c1e8e1b", "name": "50a1b87914f787e112fc84cd5c1e8e1b", "is_reserved": 0, "fusion_lat": 0.0}, {"type": "electric_scooter", "rental_uris": {"ios": "https://dc.lft.to/lastmile_qr_scan", "android": "https://dc.lft.to/lastmile_qr_scan"}, "lon": -77.05754533333334, "fusion_lon": 0.0, "is_disabled": 0, "lat": 38.923841333333336, "bike_id": "32edd4f402fc9559f1c8aff57e40006f", "name": "32edd4f402fc9559f1c8aff57e40006f", "is_reserved": 0, "fusion_lat": 0.0}, {"type": "electric_bike", "rental_uris": {"ios": "https://dc.lft.to/lastmile_qr_scan", "android": "https://dc.lft.to/lastmile_qr_scan"}, "lon": -77.0262935, "fusion_lon": 0.0, "is_disabled": 0, "lat": 38.9622455, "bike_id": "03dfb1a8efb8bcf3c79a64b4419a11ae", "name": "03dfb1a8efb8bcf3c79a64b4419a11ae", "is_reserved": 0, "fusion_lat": 0.0}, {"type": "electric_scooter", "rental_uris": {"ios": "https://dc.lft.to/lastmile_qr_scan", "android": "https://dc.lft.to/lastmile_qr_scan"}, "lon": -77.0366065, "fusion_lon": 0.0, "is_disabled": 0, "lat": 38.922499, "bike_id": "db9f8884553fbffcbf505d3f7f1d367e", "name": "db9f8884553fbffcbf505d3f7f1d367e", "is_reserved": 0, "fusion_lat": 0.0}, {"type": "electric_scooter", "rental_uris": {"ios": "https://dc.lft.to/lastmile_qr_scan", "android": "https://dc.lft.to/lastmile_qr_scan"}, "lon": -77.04454233333334, "fusion_lon": 0.0, "is_disabled": 0, "lat": 38.91192866666667, "bike_id": "93edd9f87711ee28d84511ad950d4496", "name": "93edd9f87711ee28d84511ad950d4496", "is_reserved": 0, "fusion_lat": 0.0}, {"type": "electric_scooter", "rental_uris": {"ios": "https://dc.lft.to/lastmile_qr_scan", "android": "https://dc.lft.to/lastmile_qr_scan"}, "lon": -77.02437216666667, "fusion_lon": 0.0, "is_disabled": 0, "lat": 38.956297666666664, "bike_id": "d78a4ad479cd8fd66fd5c8f1f478d72e", "name": "d78a4ad479cd8fd66fd5c8f1f478d72e", "is_reserved": 0, "fusion_lat": 0.0}, {"type": "electric_scooter", "rental_uris": {"ios": "https://dc.lft.to/lastmile_qr_scan", "android": "https://dc.lft.to/lastmile_qr_scan"}, "lon": -77.043334, "fusion_lon": 0.0, "is_disabled": 0, "lat": 38.8952495, "bike_id": "adda46454a22822c7c2a517f5c603f2a", "name": "adda46454a22822c7c2a517f5c603f2a", "is_reserved": 0, "fusion_lat": 0.0}, {"type": "electric_scooter", "rental_uris": {"ios": "https://dc.lft.to/lastmile_qr_scan", "android": "https://dc.lft.to/lastmile_qr_scan"}, "lon": -77.07304033333334, "fusion_lon": 0.0, "is_disabled": 0, "lat": 38.928857666666666, "bike_id": "c5fbb6b85697ac15156e8ce0098a3ba4", "name": "c5fbb6b85697ac15156e8ce0098a3ba4", "is_reserved": 0, "fusion_lat": 0.0}, {"type": "electric_scooter", "rental_uris": {"ios": "https://dc.lft.to/lastmile_qr_scan", "android": "https://dc.lft.to/lastmile_qr_scan"}, "lon": -77.02352083333334, "fusion_lon": 0.0, "is_disabled": 0, "lat": 38.91779433333333, "bike_id": "8c6e081640be360974f230f09d66b249", "name": "8c6e081640be360974f230f09d66b249", "is_reserved": 0, "fusion_lat": 0.0}, {"type": "electric_scooter", "rental_uris": {"ios": "https://dc.lft.to/lastmile_qr_scan", "android": "https://dc.lft.to/lastmile_qr_scan"}, "lon": -77.03190366666666, "fusion_lon": 0.0, "is_disabled": 0, "lat": 38.9173755, "bike_id": "c7fdabf2fb377d41935311017c983e91", "name": "c7fdabf2fb377d41935311017c983e91", "is_reserved": 0, "fusion_lat": 0.0}, {"type": "electric_scooter", "rental_uris": {"ios": "https://dc.lft.to/lastmile_qr_scan", "android": "https://dc.lft.to/lastmile_qr_scan"}, "lon": -77.037574, "fusion_lon": 0.0, "is_disabled": 0, "lat": 38.912819666666664, "bike_id": "1076dd811cd74addf907fe947198ff48", "name": "1076dd811cd74addf907fe947198ff48", "is_reserved": 0, "fusion_lat": 0.0}, {"type": "electric_scooter", "rental_uris": {"ios": "https://dc.lft.to/lastmile_qr_scan", "android": "https://dc.lft.to/lastmile_qr_scan"}, "lon": -76.988837, "fusion_lon": 0.0, "is_disabled": 0, "lat": 38.86652683333333, "bike_id": "17bec8408b0cda997d26b735e9760bb8", "name": "17bec8408b0cda997d26b735e9760bb8", "is_reserved": 0, "fusion_lat": 0.0}, {"type": "electric_scooter", "rental_uris": {"ios": "https://dc.lft.to/lastmile_qr_scan", "android": "https://dc.lft.to/lastmile_qr_scan"}, "lon": -77.04355716666667, "fusion_lon": 0.0, "is_disabled": 0, "lat": 38.91299433333333, "bike_id": "d0864f89ceccfe2ec26feb521d4fddf1", "name": "d0864f89ceccfe2ec26feb521d4fddf1", "is_reserved": 0, "fusion_lat": 0.0}, {"type": "electric_scooter", "rental_uris": {"ios": "https://dc.lft.to/lastmile_qr_scan", "android": "https://dc.lft.to/lastmile_qr_scan"}, "lon": -76.933681, "fusion_lon": 0.0, "is_disabled": 0, "lat": 38.89908466666667, "bike_id": "26a57e80f70d565a5ed26771f1d929ac", "name": "26a57e80f70d565a5ed26771f1d929ac", "is_reserved": 0, "fusion_lat": 0.0}, {"type": "electric_scooter", "rental_uris": {"ios": "https://dc.lft.to/lastmile_qr_scan", "android": "https://dc.lft.to/lastmile_qr_scan"}, "lon": -77.02496083333334, "fusion_lon": 0.0, "is_disabled": 0, "lat": 38.918074833333336, "bike_id": "c7d88366e3246520fc216c0d00e0fe39", "name": "c7d88366e3246520fc216c0d00e0fe39", "is_reserved": 0, "fusion_lat": 0.0}, {"type": "electric_scooter", "rental_uris": {"ios": "https://dc.lft.to/lastmile_qr_scan", "android": "https://dc.lft.to/lastmile_qr_scan"}, "lon": -77.01056383333334, "fusion_lon": 0.0, "is_disabled": 0, "lat": 38.896055833333335, "bike_id": "3ae102783fb0e433b7198db675bb2ff7", "name": "3ae102783fb0e433b7198db675bb2ff7", "is_reserved": 0, "fusion_lat": 0.0}, {"type": "electric_scooter", "rental_uris": {"ios": "https://dc.lft.to/lastmile_qr_scan", "android": "https://dc.lft.to/lastmile_qr_scan"}, "lon": -77.041976, "fusion_lon": 0.0, "is_disabled": 0, "lat": 38.8922195, "bike_id": "4b38a5f345d990f2507b4d7d7f938804", "name": "4b38a5f345d990f2507b4d7d7f938804", "is_reserved": 0, "fusion_lat": 0.0}, {"type": "electric_scooter", "rental_uris": {"ios": "https://dc.lft.to/lastmile_qr_scan", "android": "https://dc.lft.to/lastmile_qr_scan"}, "lon": -77.06890516666667, "fusion_lon": 0.0, "is_disabled": 0, "lat": 38.904191833333336, "bike_id": "46f118434dfe48f04ecc7742a93c0239", "name": "46f118434dfe48f04ecc7742a93c0239", "is_reserved": 0, "fusion_lat": 0.0}, {"type": "electric_scooter", "rental_uris": {"ios": "https://dc.lft.to/lastmile_qr_scan", "android": "https://dc.lft.to/lastmile_qr_scan"}, "lon": -76.93524583333334, "fusion_lon": 0.0, "is_disabled": 0, "lat": 38.878963, "bike_id": "67bfe7b1c29678c554483aff384d1b33", "name": "67bfe7b1c29678c554483aff384d1b33", "is_reserved": 0, "fusion_lat": 0.0}, {"type": "electric_scooter", "rental_uris": {"ios": "https://dc.lft.to/lastmile_qr_scan", "android": "https://dc.lft.to/lastmile_qr_scan"}, "lon": -77.03651366666666, "fusion_lon": 0.0, "is_disabled": 0, "lat": 38.92080683333333, "bike_id": "1475157d9a2e13e557682314a6ebaba7", "name": "1475157d9a2e13e557682314a6ebaba7", "is_reserved": 0, "fusion_lat": 0.0}, {"type": "electric_scooter", "rental_uris": {"ios": "https://dc.lft.to/lastmile_qr_scan", "android": "https://dc.lft.to/lastmile_qr_scan"}, "lon": -76.9939195, "fusion_lon": 0.0, "is_disabled": 0, "lat": 38.91016333333334, "bike_id": "166ebc59d867e138872e0cb3df6b1697", "name": "166ebc59d867e138872e0cb3df6b1697", "is_reserved": 0, "fusion_lat": 0.0}, {"type": "electric_scooter", "rental_uris": {"ios": "https://dc.lft.to/lastmile_qr_scan", "android": "https://dc.lft.to/lastmile_qr_scan"}, "lon": -77.053388, "fusion_lon": 0.0, "is_disabled": 0, "lat": 38.9233425, "bike_id": "f7e83677a258bba71d2a2ee29ed6d3e8", "name": "f7e83677a258bba71d2a2ee29ed6d3e8", "is_reserved": 0, "fusion_lat": 0.0}, {"type": "electric_scooter", "rental_uris": {"ios": "https://dc.lft.to/lastmile_qr_scan", "android": "https://dc.lft.to/lastmile_qr_scan"}, "lon": -77.03681183333333, "fusion_lon": 0.0, "is_disabled": 0, "lat": 38.91911266666666, "bike_id": "bf4da01abc3d346c94f83461a692a305", "name": "bf4da01abc3d346c94f83461a692a305", "is_reserved": 0, "fusion_lat": 0.0}, {"type": "electric_scooter", "rental_uris": {"ios": "https://dc.lft.to/lastmile_qr_scan", "android": "https://dc.lft.to/lastmile_qr_scan"}, "lon": -77.0327955, "fusion_lon": 0.0, "is_disabled": 0, "lat": 38.89881583333333, "bike_id": "0e7fbeef56e64705162af54649c3e434", "name": "0e7fbeef56e64705162af54649c3e434", "is_reserved": 0, "fusion_lat": 0.0}, {"type": "electric_scooter", "rental_uris": {"ios": "https://dc.lft.to/lastmile_qr_scan", "android": "https://dc.lft.to/lastmile_qr_scan"}, "lon": -77.0486755, "fusion_lon": 0.0, "is_disabled": 0, "lat": 38.909579, "bike_id": "5495a8ce2eb9cda6a865f67b256d9e1b", "name": "5495a8ce2eb9cda6a865f67b256d9e1b", "is_reserved": 0, "fusion_lat": 0.0}, {"type": "electric_scooter", "rental_uris": {"ios": "https://dc.lft.to/lastmile_qr_scan", "android": "https://dc.lft.to/lastmile_qr_scan"}, "lon": -77.01768966666667, "fusion_lon": 0.0, "is_disabled": 0, "lat": 38.88593216666666, "bike_id": "d0c9fa4ce61cb508fb2fd76ac9977051", "name": "d0c9fa4ce61cb508fb2fd76ac9977051", "is_reserved": 0, "fusion_lat": 0.0}, {"type": "electric_scooter", "rental_uris": {"ios": "https://dc.lft.to/lastmile_qr_scan", "android": "https://dc.lft.to/lastmile_qr_scan"}, "lon": -77.017393, "fusion_lon": 0.0, "is_disabled": 0, "lat": 38.920385, "bike_id": "bac289dc49e25d24d0c5ee23dd75cd04", "name": "bac289dc49e25d24d0c5ee23dd75cd04", "is_reserved": 0, "fusion_lat": 0.0}, {"type": "electric_scooter", "rental_uris": {"ios": "https://dc.lft.to/lastmile_qr_scan", "android": "https://dc.lft.to/lastmile_qr_scan"}, "lon": -77.03186433333333, "fusion_lon": 0.0, "is_disabled": 0, "lat": 38.913327833333334, "bike_id": "3a6ccdc386d225511e7994e1f8544df2", "name": "3a6ccdc386d225511e7994e1f8544df2", "is_reserved": 0, "fusion_lat": 0.0}, {"type": "electric_scooter", "rental_uris": {"ios": "https://dc.lft.to/lastmile_qr_scan", "android": "https://dc.lft.to/lastmile_qr_scan"}, "lon": -77.03210466666667, "fusion_lon": 0.0, "is_disabled": 0, "lat": 38.895707, "bike_id": "2bef9297417d2c42e9ac0f95bbda95dd", "name": "2bef9297417d2c42e9ac0f95bbda95dd", "is_reserved": 0, "fusion_lat": 0.0}, {"type": "electric_scooter", "rental_uris": {"ios": "https://dc.lft.to/lastmile_qr_scan", "android": "https://dc.lft.to/lastmile_qr_scan"}, "lon": -77.00996633333334, "fusion_lon": 0.0, "is_disabled": 0, "lat": 38.9025975, "bike_id": "aae40bce30574fba987ea1687329abe1", "name": "aae40bce30574fba987ea1687329abe1", "is_reserved": 0, "fusion_lat": 0.0}, {"type": "electric_scooter", "rental_uris": {"ios": "https://dc.lft.to/lastmile_qr_scan", "android": "https://dc.lft.to/lastmile_qr_scan"}, "lon": -77.00609383333334, "fusion_lon": 0.0, "is_disabled": 0, "lat": 38.871824, "bike_id": "9f24cffe3ca9ad014cd799d47c7cd67e", "name": "9f24cffe3ca9ad014cd799d47c7cd67e", "is_reserved": 0, "fusion_lat": 0.0}, {"type": "electric_scooter", "rental_uris": {"ios": "https://dc.lft.to/lastmile_qr_scan", "android": "https://dc.lft.to/lastmile_qr_scan"}, "lon": -77.023058, "fusion_lon": 0.0, "is_disabled": 0, "lat": 38.9261065, "bike_id": "eb7ee70c840744b1c9437745ad362e2d", "name": "eb7ee70c840744b1c9437745ad362e2d", "is_reserved": 0, "fusion_lat": 0.0}, {"type": "electric_scooter", "rental_uris": {"ios": "https://dc.lft.to/lastmile_qr_scan", "android": "https://dc.lft.to/lastmile_qr_scan"}, "lon": -76.93298133333333, "fusion_lon": 0.0, "is_disabled": 0, "lat": 38.892210666666664, "bike_id": "f58dde9e1ab2a2e2ab4af1c4413d21b7", "name": "f58dde9e1ab2a2e2ab4af1c4413d21b7", "is_reserved": 0, "fusion_lat": 0.0}, {"type": "electric_scooter", "rental_uris": {"ios": "https://dc.lft.to/lastmile_qr_scan", "android": "https://dc.lft.to/lastmile_qr_scan"}, "lon": -77.041891, "fusion_lon": 0.0, "is_disabled": 0, "lat": 38.8928815, "bike_id": "65d1aeb47ce79c904343890f2868020f", "name": "65d1aeb47ce79c904343890f2868020f", "is_reserved": 0, "fusion_lat": 0.0}, {"type": "electric_scooter", "rental_uris": {"ios": "https://dc.lft.to/lastmile_qr_scan", "android": "https://dc.lft.to/lastmile_qr_scan"}, "lon": -77.05599783333334, "fusion_lon": 0.0, "is_disabled": 0, "lat": 38.900964333333334, "bike_id": "ced4c25a6642eb5b3249d8f957326c3b", "name": "ced4c25a6642eb5b3249d8f957326c3b", "is_reserved": 0, "fusion_lat": 0.0}, {"type": "electric_scooter", "rental_uris": {"ios": "https://dc.lft.to/lastmile_qr_scan", "android": "https://dc.lft.to/lastmile_qr_scan"},