{"data": {"bikes": [{"type": "electric_scooter", "name": "e5331599042ac1671f0221d08766e087", "fusion_lat": 0.0, "fusion_lon": 0.0, "lon": -77.02410933333333, "is_disabled": 0, "bike_id": "e5331599042ac1671f0221d08766e087", "is_reserved": 0, "rental_uris": {"android": "https://dc.lft.to/lastmile_qr_scan", "ios": "https://dc.lft.to/lastmile_qr_scan"}, "lat": 38.92095583333333}, {"type": "electric_scooter", "name": "cd625f0306d6ba3756e6d1302d8c8e6a", "fusion_lat": 0.0, "fusion_lon": 0.0, "lon": -77.0262985, "is_disabled": 0, "bike_id": "cd625f0306d6ba3756e6d1302d8c8e6a", "is_reserved": 0, "rental_uris": {"android": "https://dc.lft.to/lastmile_qr_scan", "ios": "https://dc.lft.to/lastmile_qr_scan"}, "lat": 38.938609666666665}, {"type": "electric_scooter", "name": "2338cd499214f169e8087f63f3dd1105", "fusion_lat": 0.0, "fusion_lon": 0.0, "lon": -76.99765883333333, "is_disabled": 0, "bike_id": "2338cd499214f169e8087f63f3dd1105", "is_reserved": 0, "rental_uris": {"android": "https://dc.lft.to/lastmile_qr_scan", "ios": "https://dc.lft.to/lastmile_qr_scan"}, "lat": 38.911198166666665}, {"type": "electric_scooter", "name": "2da35b06420b1b77d3c7fdcb5b356190", "fusion_lat": 0.0, "fusion_lon": 0.0, "lon": -77.00059033333334, "is_disabled": 0, "bike_id": "2da35b06420b1b77d3c7fdcb5b356190", "is_reserved": 0, "rental_uris": {"android": "https://dc.lft.to/lastmile_qr_scan", "ios": "https://dc.lft.to/lastmile_qr_scan"}, "lat": 38.878837}, {"type": "electric_scooter", "name": "459becaf303d8d637a98953c7dd1792f", "fusion_lat": 0.0, "fusion_lon": 0.0, "lon": -77.04625416666667, "is_disabled": 0, "bike_id": "459becaf303d8d637a98953c7dd1792f", "is_reserved": 0, "rental_uris": {"android": "https://dc.lft.to/lastmile_qr_scan", "ios": "https://dc.lft.to/lastmile_qr_scan"}, "lat": 38.90672633333333}, {"type": "electric_scooter", "name": "d764212dbe1e647d9cf5af9c55d0cb6e", "fusion_lat": 0.0, "fusion_lon": 0.0, "lon": -77.00199216666667, "is_disabled": 0, "bike_id": "d764212dbe1e647d9cf5af9c55d0cb6e", "is_reserved": 0, "rental_uris": {"android": "https://dc.lft.to/lastmile_qr_scan", "ios": "https://dc.lft.to/lastmile_qr_scan"}, "lat": 38.9023745}, {"type": "electric_scooter", "name": "5517b30289a646ad9487b989351b71d1", "fusion_lat": 0.0, "fusion_lon": 0.0, "lon": -77.02095833333334, "is_disabled": 0, "bike_id": "5517b30289a646ad9487b989351b71d1", "is_reserved": 0, "rental_uris": {"android": "https://dc.lft.to/lastmile_qr_scan", "ios": "https://dc.lft.to/lastmile_qr_scan"}, "lat": 38.8959655}, {"type": "electric_scooter", "name": "cb17fbb47caeec3a66ebe178724de4fd", "fusion_lat": 0.0, "fusion_lon": 0.0, "lon": -77.05325266666667, "is_disabled": 0, "bike_id": "cb17fbb47caeec3a66ebe178724de4fd", "is_reserved": 0, "rental_uris": {"android": "https://dc.lft.to/lastmile_qr_scan", "ios": "https://dc.lft.to/lastmile_qr_scan"}, "lat": 38.904598}, {"type": "electric_scooter", "name": "ad9980881935605189d1fb17657c6ebf", "fusion_lat": 0.0, "fusion_lon": 0.0, "lon": -77.04551933333333, "is_disabled": 0, "bike_id": "ad9980881935605189d1fb17657c6ebf", "is_reserved": 0, "rental_uris": {"android": "https://dc.lft.to/lastmile_qr_scan", "ios": "https://dc.lft.to/lastmile_qr_scan"}, "lat": 38.90370866666667}, {"type": "electric_scooter", "name": "8026ceafed11cd0aa1a70ff7eb660beb", "fusion_lat": 0.0, "fusion_lon": 0.0, "lon": -77.02431016666667, "is_disabled": 0, "bike_id": "8026ceafed11cd0aa1a70ff7eb660beb", "is_reserved": 0, "rental_uris": {"android": "https://dc.lft.to/lastmile_qr_scan", "ios": "https://dc.lft.to/lastmile_qr_scan"}, "lat": 38.91553183333333}, {"type": "electric_scooter", "name": "131cbf64ff8dfa11854288c09e1024bd", "fusion_lat": 0.0, "fusion_lon": 0.0, "lon": -77.00279566666667, "is_disabled": 0, "bike_id": "131cbf64ff8dfa11854288c09e1024bd", "is_reserved": 0, "rental_uris": {"android": "https://dc.lft.to/lastmile_qr_scan", "ios": "https://dc.lft.to/lastmile_qr_scan"}, "lat": 38.905887}, {"type": "electric_scooter", "name": "5e3ff35c8c2379ec164cbb664ff034bb", "fusion_lat": 0.0, "fusion_lon": 0.0, "lon": -76.998723, "is_disabled": 0, "bike_id": "5e3ff35c8c2379ec164cbb664ff034bb", "is_reserved": 0, "rental_uris": {"android": "https://dc.lft.to/lastmile_qr_scan", "ios": "https://dc.lft.to/lastmile_qr_scan"}, "lat": 38.90026483333333}, {"type": "electric_bike", "name": "d8331f2e1e4751da0a71d36196c4b3fc", "fusion_lat": 0.0, "fusion_lon": 0.0, "lon": -77.049905, "is_disabled": 0, "bike_id": "d8331f2e1e4751da0a71d36196c4b3fc", "is_reserved": 0, "rental_uris": {"android": "https://dc.lft.to/lastmile_qr_scan", "ios": "https://dc.lft.to/lastmile_qr_scan"}, "lat": 38.8052625}, {"type": "electric_scooter", "name": "a81e7686ed1f72e813d6e56e39e7cc3c", "fusion_lat": 0.0, "fusion_lon": 0.0, "lon": -77.04767383333333, "is_disabled": 0, "bike_id": "a81e7686ed1f72e813d6e56e39e7cc3c", "is_reserved": 0, "rental_uris": {"android": "https://dc.lft.to/lastmile_qr_scan", "ios": "https://dc.lft.to/lastmile_qr_scan"}, "lat": 38.9175525}, {"type": "electric_scooter", "name": "2da96bce2aceaf3504348cf879594506", "fusion_lat": 0.0, "fusion_lon": 0.0, "lon": -77.0603635, "is_disabled": 0, "bike_id": "2da96bce2aceaf3504348cf879594506", "is_reserved": 0, "rental_uris": {"android": "https://dc.lft.to/lastmile_qr_scan", "ios": "https://dc.lft.to/lastmile_qr_scan"}, "lat": 38.90227133333333}, {"type": "electric_scooter", "name": "d40caa4707643182f247728af91d2a7f", "fusion_lat": 0.0, "fusion_lon": 0.0, "lon": -77.04034033333333, "is_disabled": 0, "bike_id": "d40caa4707643182f247728af91d2a7f", "is_reserved": 0, "rental_uris": {"android": "https://dc.lft.to/lastmile_qr_scan", "ios": "https://dc.lft.to/lastmile_qr_scan"}, "lat": 38.899281}, {"type": "electric_bike", "name": "cae9ec699460bd40d6bcc2a3ce1ad961", "fusion_lat": 0.0, "fusion_lon": 0.0, "lon": -76.994814, "is_disabled": 0, "bike_id": "cae9ec699460bd40d6bcc2a3ce1ad961", "is_reserved": 0, "rental_uris": {"android": "https://dc.lft.to/lastmile_qr_scan", "ios": "https://dc.lft.to/lastmile_qr_scan"}, "lat": 38.9383245}, {"type": "electric_scooter", "name": "6a12e2a098ce340e05a23c0dcd2eb9a3", "fusion_lat": 0.0, "fusion_lon": 0.0, "lon": -77.029532, "is_disabled": 0, "bike_id": "6a12e2a098ce340e05a23c0dcd2eb9a3", "is_reserved": 0, "rental_uris": {"android": "https://dc.lft.to/lastmile_qr_scan", "ios": "https://dc.lft.to/lastmile_qr_scan"}, "lat": 38.91674033333334}, {"type": "electric_scooter", "name": "05af80200d10dcb4d1cd3a4a7e030f2c", "fusion_lat": 0.0, "fusion_lon": 0.0, "lon": -76.9833925, "is_disabled": 0, "bike_id": "05af80200d10dcb4d1cd3a4a7e030f2c", "is_reserved": 0, "rental_uris": {"android": "https://dc.lft.to/lastmile_qr_scan", "ios": "https://dc.lft.to/lastmile_qr_scan"}, "lat": 38.895432}, {"type": "electric_scooter", "name": "36ef77ea92593ab2819a3993d3ef539d", "fusion_lat": 0.0, "fusion_lon": 0.0, "lon": -77.045559, "is_disabled": 0, "bike_id": "36ef77ea92593ab2819a3993d3ef539d", "is_reserved": 0, "rental_uris": {"android": "https://dc.lft.to/lastmile_qr_scan", "ios": "https://dc.lft.to/lastmile_qr_scan"}, "lat": 38.9038745}, {"type": "electric_scooter", "name": "cef1e7b8aeffdb9a7eb17220fa170346", "fusion_lat": 0.0, "fusion_lon": 0.0, "lon": -77.05076566666666, "is_disabled": 0, "bike_id": "cef1e7b8aeffdb9a7eb17220fa170346", "is_reserved": 0, "rental_uris": {"android": "https://dc.lft.to/lastmile_qr_scan", "ios": "https://dc.lft.to/lastmile_qr_scan"}, "lat": 38.9038315}, {"type": "electric_scooter", "name": "003df1ffbc417d2089877274d9f03e6e", "fusion_lat": 0.0, "fusion_lon": 0.0, "lon": -77.01224566666667, "is_disabled": 0, "bike_id": "003df1ffbc417d2089877274d9f03e6e", "is_reserved": 0, "rental_uris": {"android": "https://dc.lft.to/lastmile_qr_scan", "ios": "https://dc.lft.to/lastmile_qr_scan"}, "lat": 38.915468}, {"type": "electric_scooter", "name": "d245f313a2bd75e71b63b8387a00db0e", "fusion_lat": 0.0, "fusion_lon": 0.0, "lon": -77.03665516666666, "is_disabled": 0, "bike_id": "d245f313a2bd75e71b63b8387a00db0e", "is_reserved": 0, "rental_uris": {"android": "https://dc.lft.to/lastmile_qr_scan", "ios": "https://dc.lft.to/lastmile_qr_scan"}, "lat": 38.918148333333335}, {"type": "electric_scooter", "name": "46b137c22362042d9c0ce85e32846325", "fusion_lat": 0.0, "fusion_lon": 0.0, "lon": -76.98346466666666, "is_disabled": 0, "bike_id": "46b137c22362042d9c0ce85e32846325", "is_reserved": 0, "rental_uris": {"android": "https://dc.lft.to/lastmile_qr_scan", "ios": "https://dc.lft.to/lastmile_qr_scan"}, "lat": 38.900986833333334}, {"type": "electric_scooter", "name": "794e868625e026932ea1241bf9a09bb1", "fusion_lat": 0.0, "fusion_lon": 0.0, "lon": -77.04175733333334, "is_disabled": 0, "bike_id": "794e868625e026932ea1241bf9a09bb1", "is_reserved": 0, "rental_uris": {"android": "https://dc.lft.to/lastmile_qr_scan", "ios": "https://dc.lft.to/lastmile_qr_scan"}, "lat": 38.901648333333334}, {"type": "electric_scooter", "name": "0508be95e3cb89d69a1b9b7045ae3a60", "fusion_lat": 0.0, "fusion_lon": 0.0, "lon": -77.02496833333333, "is_disabled": 0, "bike_id": "0508be95e3cb89d69a1b9b7045ae3a60", "is_reserved": 0, "rental_uris": {"android": "https://dc.lft.to/lastmile_qr_scan", "ios": "https://dc.lft.to/lastmile_qr_scan"}, "lat": 38.9057025}, {"type": "electric_bike", "name": "594866827424eb6fd391f8ad9280f686", "fusion_lat": 0.0, "fusion_lon": 0.0, "lon": -77.021748, "is_disabled": 0, "bike_id": "594866827424eb6fd391f8ad9280f686", "is_reserved": 0, "rental_uris": {"android": "https://dc.lft.to/lastmile_qr_scan", "ios": "https://dc.lft.to/lastmile_qr_scan"}, "lat": 38.895711666666664}, {"type": "electric_scooter", "name": "0b67faa70dae8ba2a45e28e514d40dd3", "fusion_lat": 0.0, "fusion_lon": 0.0, "lon": -77.02608016666667, "is_disabled": 0, "bike_id": "0b67faa70dae8ba2a45e28e514d40dd3", "is_reserved": 0, "rental_uris": {"android": "https://dc.lft.to/lastmile_qr_scan", "ios": "https://dc.lft.to/lastmile_qr_scan"}, "lat": 38.903593666666666}, {"type": "electric_scooter", "name": "6232fde04f9c416065f51865e816f2d1", "fusion_lat": 0.0, "fusion_lon": 0.0, "lon": -77.010644, "is_disabled": 0, "bike_id": "6232fde04f9c416065f51865e816f2d1", "is_reserved": 0, "rental_uris": {"android": "https://dc.lft.to/lastmile_qr_scan", "ios": "https://dc.lft.to/lastmile_qr_scan"}, "lat": 38.91819683333333}, {"type": "electric_scooter", "name": "f6255bbe0fdf2c2303af22cae5547018", "fusion_lat": 0.0, "fusion_lon": 0.0, "lon": -77.03459466666666, "is_disabled": 0, "bike_id": "f6255bbe0fdf2c2303af22cae5547018", "is_reserved": 0, "rental_uris": {"android": "https://dc.lft.to/lastmile_qr_scan", "ios": "https://dc.lft.to/lastmile_qr_scan"}, "lat": 38.920540333333335}, {"type": "electric_scooter", "name": "a0729419fcaf37d84fd855075ab4c43c", "fusion_lat": 0.0, "fusion_lon": 0.0, "lon": -77.035567, "is_disabled": 0, "bike_id": "a0729419fcaf37d84fd855075ab4c43c", "is_reserved": 0, "rental_uris": {"android": "https://dc.lft.to/lastmile_qr_scan", "ios": "https://dc.lft.to/lastmile_qr_scan"}, "lat": 38.9235305}, {"type": "electric_scooter", "name": "feee8be9635b970c4e4eaeaecbc1ef63", "fusion_lat": 0.0, "fusion_lon": 0.0, "lon": -77.00581266666667, "is_disabled": 0, "bike_id": "feee8be9635b970c4e4eaeaecbc1ef63", "is_reserved": 0, "rental_uris": {"android": "https://dc.lft.to/lastmile_qr_scan", "ios": "https://dc.lft.to/lastmile_qr_scan"}, "lat": 38.90545133333333}, {"type": "electric_scooter", "name": "94cda8ccc33fa567157db24e5ac3338f", "fusion_lat": 0.0, "fusion_lon": 0.0, "lon": -77.03662016666667, "is_disabled": 0, "bike_id": "94cda8ccc33fa567157db24e5ac3338f", "is_reserved": 0, "rental_uris": {"android": "https://dc.lft.to/lastmile_qr_scan", "ios": "https://dc.lft.to/lastmile_qr_scan"}, "lat": 38.92117016666667}, {"type": "electric_scooter", "name": "f5a72cb544084ff7dfafa7289ba2b2ac", "fusion_lat": 0.0, "fusion_lon": 0.0, "lon": -77.01746883333334, "is_disabled": 0, "bike_id": "f5a72cb544084ff7dfafa7289ba2b2ac", "is_reserved": 0, "rental_uris": {"android": "https://dc.lft.to/lastmile_qr_scan", "ios": "https://dc.lft.to/lastmile_qr_scan"}, "lat": 38.912501166666665}, {"type": "electric_bike", "name": "3951704cdce668915460064b7fd1dd29", "fusion_lat": 0.0, "fusion_lon": 0.0, "lon": -77.00002466666666, "is_disabled": 0, "bike_id": "3951704cdce668915460064b7fd1dd29", "is_reserved": 0, "rental_uris": {"android": "https://dc.lft.to/lastmile_qr_scan", "ios": "https://dc.lft.to/lastmile_qr_scan"}, "lat": 38.923900333333336}, {"type": "electric_scooter", "name": "05ce65eff9ff36c8093eebebf4dbac05", "fusion_lat": 0.0, "fusion_lon": 0.0, "lon": -77.01837983333333, "is_disabled": 0, "bike_id": "05ce65eff9ff36c8093eebebf4dbac05", "is_reserved": 0, "rental_uris": {"android": "https://dc.lft.to/lastmile_qr_scan", "ios": "https://dc.lft.to/lastmile_qr_scan"}, "lat": 38.909574666666664}, {"type": "electric_bike", "name": "7daa48f31c42f2ff5368e7d80afd3945", "fusion_lat": 0.0, "fusion_lon": 0.0, "lon": -76.94166433333334, "is_disabled": 0, "bike_id": "7daa48f31c42f2ff5368e7d80afd3945", "is_reserved": 0, "rental_uris": {"android": "https://dc.lft.to/lastmile_qr_scan", "ios": "https://dc.lft.to/lastmile_qr_scan"}, "lat": 38.865513666666665}, {"type": "electric_scooter", "name": "a8833711e3122ccd0f79d0e0afd58f87", "fusion_lat": 0.0, "fusion_lon": 0.0, "lon": -77.03265766666667, "is_disabled": 0, "bike_id": "a8833711e3122ccd0f79d0e0afd58f87", "is_reserved": 0, "rental_uris": {"android": "https://dc.lft.to/lastmile_qr_scan", "ios": "https://dc.lft.to/lastmile_qr_scan"}, "lat": 38.93315116666667}, {"type": "electric_scooter", "name": "8382adfd17a0136e7917b5873fe28487", "fusion_lat": 0.0, "fusion_lon": 0.0, "lon": -77.00987083333334, "is_disabled": 0, "bike_id": "8382adfd17a0136e7917b5873fe28487", "is_reserved": 0, "rental_uris": {"android": "https://dc.lft.to/lastmile_qr_scan", "ios": "https://dc.lft.to/lastmile_qr_scan"}, "lat": 38.87301316666667}, {"type": "electric_scooter", "name": "51cc40e77048d9dc7bd0f47e0fe7895f", "fusion_lat": 0.0, "fusion_lon": 0.0, "lon": -77.05221583333334, "is_disabled": 0, "bike_id": "51cc40e77048d9dc7bd0f47e0fe7895f", "is_reserved": 0, "rental_uris": {"android": "https://dc.lft.to/lastmile_qr_scan", "ios": "https://dc.lft.to/lastmile_qr_scan"}, "lat": 38.89966066666667}, {"type": "electric_scooter", "name": "349bc3a94b63ce4d967d83159dabfeb5", "fusion_lat": 0.0, "fusion_lon": 0.0, "lon": -77.03445633333334, "is_disabled": 0, "bike_id": "349bc3a94b63ce4d967d83159dabfeb5", "is_reserved": 0, "rental_uris": {"android": "https://dc.lft.to/lastmile_qr_scan", "ios": "https://dc.lft.to/lastmile_qr_scan"}, "lat": 38.9221925}, {"type": "electric_scooter", "name": "6692f71abd591c25c2a5f7e5df6fc7f5", "fusion_lat": 0.0, "fusion_lon": 0.0, "lon": -77.0320175, "is_disabled": 0, "bike_id": "6692f71abd591c25c2a5f7e5df6fc7f5", "is_reserved": 0, "rental_uris": {"android": "https://dc.lft.to/lastmile_qr_scan", "ios": "https://dc.lft.to/lastmile_qr_scan"}, "lat": 38.91678816666666}, {"type": "electric_bike", "name": "4541bd5f32823121762dd6504dee19f6", "fusion_lat": 0.0, "fusion_lon": 0.0, "lon": -77.10615866666667, "is_disabled": 0, "bike_id": "4541bd5f32823121762dd6504dee19f6", "is_reserved": 0, "rental_uris": {"android": "https://dc.lft.to/lastmile_qr_scan", "ios": "https://dc.lft.to/lastmile_qr_scan"}, "lat": 38.837293333333335}, {"type": "electric_scooter", "name": "a4db6d1c6add3716274bb767dcb264bf", "fusion_lat": 0.0, "fusion_lon": 0.0, "lon": -77.0320665, "is_disabled": 0, "bike_id": "a4db6d1c6add3716274bb767dcb264bf", "is_reserved": 0, "rental_uris": {"android": "https://dc.lft.to/lastmile_qr_scan", "ios": "https://dc.lft.to/lastmile_qr_scan"}, "lat": 38.912022}, {"type": "electric_scooter", "name": "fd1ce41285fa25b069392602177f52e7", "fusion_lat": 0.0, "fusion_lon": 0.0, "lon": -77.0348065, "is_disabled": 0, "bike_id": "fd1ce41285fa25b069392602177f52e7", "is_reserved": 0, "rental_uris": {"android": "https://dc.lft.to/lastmile_qr_scan", "ios": "https://dc.lft.to/lastmile_qr_scan"}, "lat": 38.90035783333333}, {"type": "electric_scooter", "name": "59d50a91991b10bafe3c349a18d4b45c", "fusion_lat": 0.0, "fusion_lon": 0.0, "lon": -76.997728, "is_disabled": 0, "bike_id": "59d50a91991b10bafe3c349a18d4b45c", "is_reserved": 0, "rental_uris": {"android": "https://dc.lft.to/lastmile_qr_scan", "ios": "https://dc.lft.to/lastmile_qr_scan"}, "lat": 38.91114066666667}, {"type": "electric_scooter", "name": "cda91e28e60c2a422090abaacbeff76e", "fusion_lat": 0.0, "fusion_lon": 0.0, "lon": -77.03183833333334, "is_disabled": 0, "bike_id": "cda91e28e60c2a422090abaacbeff76e", "is_reserved": 0, "rental_uris": {"android": "https://dc.lft.to/lastmile_qr_scan", "ios": "https://dc.lft.to/lastmile_qr_scan"}, "lat": 38.892489166666664}, {"type": "electric_scooter", "name": "bb50748cb02a7ef319cdf52fcec2cc45", "fusion_lat": 0.0, "fusion_lon": 0.0, "lon": -77.02333433333334, "is_disabled": 0, "bike_id": "bb50748cb02a7ef319cdf52fcec2cc45", "is_reserved": 0, "rental_uris": {"android": "https://dc.lft.to/lastmile_qr_scan", "ios": "https://dc.lft.to/lastmile_qr_scan"}, "lat": 38.922325666666666}, {"type": "electric_scooter", "name": "d2251f1a816af772e5d6199dd0468310", "fusion_lat": 0.0, "fusion_lon": 0.0, "lon": -77.01695016666666, "is_disabled": 0, "bike_id": "d2251f1a816af772e5d6199dd0468310", "is_reserved": 0, "rental_uris": {"android": "https://dc.lft.to/lastmile_qr_scan", "ios": "https://dc.lft.to/lastmile_qr_scan"}, "lat": 38.9138465}, {"type": "electric_scooter", "name": "dbac4474dd9106e7aeb30f9fb506fd01", "fusion_lat": 0.0, "fusion_lon": 0.0, "lon": -77.03572483333333, "is_disabled": 0, "bike_id": "dbac4474dd9106e7aeb30f9fb506fd01", "is_reserved": 0, "rental_uris": {"android": "https://dc.lft.to/lastmile_qr_scan", "ios": "https://dc.lft.to/lastmile_qr_scan"}, "lat": 38.91823866666667}, {"type": "electric_scooter", "name": "23cac445942c5391bf5b52d936a3842c", "fusion_lat": 0.0, "fusion_lon": 0.0, "lon": -77.0271535, "is_disabled": 0, "bike_id": "23cac445942c5391bf5b52d936a3842c", "is_reserved": 0, "rental_uris": {"android": "https://dc.lft.to/lastmile_qr_scan", "ios": "https://dc.lft.to/lastmile_qr_scan"}, "lat": 38.9182105}, {"type": "electric_scooter", "name": "0e4463901077ab3250646ceb8c21fcae", "fusion_lat": 0.0, "fusion_lon": 0.0, "lon": -77.043413, "is_disabled": 0, "bike_id": "0e4463901077ab3250646ceb8c21fcae", "is_reserved": 0, "rental_uris": {"android": "https://dc.lft.to/lastmile_qr_scan", "ios": "https://dc.lft.to/lastmile_qr_scan"}, "lat": 38.89684666666667}, {"type": "electric_scooter", "name": "1ef27c26fac3b711b6ebef884ced1c35", "fusion_lat": 0.0, "fusion_lon": 0.0, "lon": -76.99037133333333, "is_disabled": 0, "bike_id": "1ef27c26fac3b711b6ebef884ced1c35", "is_reserved": 0, "rental_uris": {"android": "https://dc.lft.to/lastmile_qr_scan", "ios": "https://dc.lft.to/lastmile_qr_scan"}, "lat": 38.8888065}, {"type": "electric_scooter", "name": "212079cfdf05c97a77d2464d03bdfa21", "fusion_lat": 0.0, "fusion_lon": 0.0, "lon": -77.01503666666666, "is_disabled": 0, "bike_id": "212079cfdf05c97a77d2464d03bdfa21", "is_reserved": 0, "rental_uris": {"android": "https://dc.lft.to/lastmile_qr_scan", "ios": "https://dc.lft.to/lastmile_qr_scan"}, "lat": 38.92667933333333}, {"type": "electric_scooter", "name": "780060c7f048f93484348dee313bfe7e", "fusion_lat": 0.0, "fusion_lon": 0.0, "lon": -77.021106, "is_disabled": 0, "bike_id": "780060c7f048f93484348dee313bfe7e", "is_reserved": 0, "rental_uris": {"android": "https://dc.lft.to/lastmile_qr_scan", "ios": "https://dc.lft.to/lastmile_qr_scan"}, "lat": 38.90938033333333}, {"type": "electric_scooter", "name": "fe95f939cbfb45f601412a73a41fb8ed", "fusion_lat": 0.0, "fusion_lon": 0.0, "lon": -76.97213066666667, "is_disabled": 0, "bike_id": "fe95f939cbfb45f601412a73a41fb8ed", "is_reserved": 0, "rental_uris": {"android": "https://dc.lft.to/lastmile_qr_scan", "ios": "https://dc.lft.to/lastmile_qr_scan"}, "lat": 38.917170166666665}, {"type": "electric_scooter", "name": "59c7b81dd52323ba453b3d2896717e28", "fusion_lat": 0.0, "fusion_lon": 0.0, "lon": -77.01380016666667, "is_disabled": 0, "bike_id": "59c7b81dd52323ba453b3d2896717e28", "is_reserved": 0, "rental_uris": {"android": "https://dc.lft.to/lastmile_qr_scan", "ios": "https://dc.lft.to/lastmile_qr_scan"}, "lat": 38.8982735}, {"type": "electric_scooter", "name": "6820e724b14e6bf923326105a5eda7ba", "fusion_lat": 0.0, "fusion_lon": 0.0, "lon": -77.017821, "is_disabled": 0, "bike_id": "6820e724b14e6bf923326105a5eda7ba", "is_reserved": 0, "rental_uris": {"android": "https://dc.lft.to/lastmile_qr_scan", "ios": "https://dc.lft.to/lastmile_qr_scan"}, "lat": 38.877585}, {"type": "electric_scooter", "name": "964164a5cacd8eaee781438091c2d168", "fusion_lat": 0.0, "fusion_lon": 0.0, "lon": -77.01973566666666, "is_disabled": 0, "bike_id": "964164a5cacd8eaee781438091c2d168", "is_reserved": 0, "rental_uris": {"android": "https://dc.lft.to/lastmile_qr_scan", "ios": "https://dc.lft.to/lastmile_qr_scan"}, "lat": 38.90505}, {"type": "electric_scooter", "name": "7e37f8592f98e8f99d205a44f30abc48", "fusion_lat": 0.0, "fusion_lon": 0.0, "lon": -77.05426283333334, "is_disabled": 0, "bike_id": "7e37f8592f98e8f99d205a44f30abc48", "is_reserved": 0, "rental_uris": {"android": "https://dc.lft.to/lastmile_qr_scan", "ios": "https://dc.lft.to/lastmile_qr_scan"}, "lat": 38.9233}, {"type": "electric_scooter", "name": "a33f51757ee8442d817c9bc3dbb744f0", "fusion_lat": 0.0, "fusion_lon": 0.0, "lon": -77.04408733333334, "is_disabled": 0, "bike_id": "a33f51757ee8442d817c9bc3dbb744f0", "is_reserved": 0, "rental_uris": {"android": "https://dc.lft.to/lastmile_qr_scan", "ios": "https://dc.lft.to/lastmile_qr_scan"}, "lat": 38.895944}, {"type": "electric_bike", "name": "7de581124e0bd2e28c120364e0d42b00", "fusion_lat": 0.0, "fusion_lon": 0.0, "lon": -77.09967816666666, "is_disabled": 0, "bike_id": "7de581124e0bd2e28c120364e0d42b00", "is_reserved": 0, "rental_uris": {"android": "https://dc.lft.to/lastmile_qr_scan", "ios": "https://dc.lft.to/lastmile_qr_scan"}, "lat": 38.857873166666664}, {"type": "electric_scooter", "name": "5133602c0c6c7e0cb21fdce1369c66bf", "fusion_lat": 0.0, "fusion_lon": 0.0, "lon": -76.929245, "is_disabled": 0, "bike_id": "5133602c0c6c7e0cb21fdce1369c66bf", "is_reserved": 0, "rental_uris": {"android": "https://dc.lft.to/lastmile_qr_scan", "ios": "https://dc.lft.to/lastmile_qr_scan"}, "lat": 38.89206633333333}, {"type": "electric_scooter", "name": "17b53842905035c7d9e2c2e5c3416448", "fusion_lat": 0.0, "fusion_lon": 0.0, "lon": -77.0323515, "is_disabled": 0, "bike_id": "17b53842905035c7d9e2c2e5c3416448", "is_reserved": 0, "rental_uris": {"android": "https://dc.lft.to/lastmile_qr_scan", "ios": "https://dc.lft.to/lastmile_qr_scan"}, "lat": 38.91410916666667}, {"type": "electric_bike", "name": "e08dd051f84dbd6ee27709d36721de20", "fusion_lat": 0.0, "fusion_lon": 0.0, "lon": -77.09453566666667, "is_disabled": 0, "bike_id": "e08dd051f84dbd6ee27709d36721de20", "is_reserved": 0, "rental_uris": {"android": "https://dc.lft.to/lastmile_qr_scan", "ios": "https://dc.lft.to/lastmile_qr_scan"}, "lat": 38.807550666666664}, {"type": "electric_bike", "name": "a8e9606b5d79bca030506b004d4dbf06", "fusion_lat": 0.0, "fusion_lon": 0.0, "lon": -77.08409816666666, "is_disabled": 0, "bike_id": "a8e9606b5d79bca030506b004d4dbf06", "is_reserved": 0, "rental_uris": {"android": "https://dc.lft.to/lastmile_qr_scan", "ios": "https://dc.lft.to/lastmile_qr_scan"}, "lat": 38.91299466666667}, {"type": "electric_scooter", "name": "07b09bdfd3466f624b133bdcef898328", "fusion_lat": 0.0, "fusion_lon": 0.0, "lon": -77.0066585, "is_disabled": 0, "bike_id": "07b09bdfd3466f624b133bdcef898328", "is_reserved": 0, "rental_uris": {"android": "https://dc.lft.to/lastmile_qr_scan", "ios": "https://dc.lft.to/lastmile_qr_scan"}, "lat": 38.9000045}, {"type": "electric_bike", "name": "acd763ff0d79c610ff081e198b589c8b", "fusion_lat": 0.0, "fusion_lon": 0.0, "lon": -76.982231, "is_disabled": 0, "bike_id": "acd763ff0d79c610ff081e198b589c8b", "is_reserved": 0, "rental_uris": {"android": "https://dc.lft.to/lastmile_qr_scan", "ios": "https://dc.lft.to/lastmile_qr_scan"}, "lat": 38.87878666666667}, {"type": "electric_scooter", "name": "4b30f47bd1319de43e9e40ac9a804ff5", "fusion_lat": 0.0, "fusion_lon": 0.0, "lon": -77.01870033333333, "is_disabled": 0, "bike_id": "4b30f47bd1319de43e9e40ac9a804ff5", "is_reserved": 0, "rental_uris": {"android": "https://dc.lft.to/lastmile_qr_scan", "ios": "https://dc.lft.to/lastmile_qr_scan"}, "lat": 38.87657383333333}, {"type": "electric_scooter", "name": "134bc54c5f078f62fe4daf1334efa0a9", "fusion_lat": 0.0, "fusion_lon": 0.0, "lon": -77.02960716666666, "is_disabled": 0, "bike_id": "134bc54c5f078f62fe4daf1334efa0a9", "is_reserved": 0, "rental_uris": {"android": "https://dc.lft.to/lastmile_qr_scan", "ios": "https://dc.lft.to/lastmile_qr_scan"}, "lat": 38.9323555}, {"type": "electric_bike", "name": "4cf61f33c791cd6cef8974255e3a96fa", "fusion_lat": 0.0, "fusion_lon": 0.0, "lon": -76.9791745, "is_disabled": 0, "bike_id": "4cf61f33c791cd6cef8974255e3a96fa", "is_reserved": 0, "rental_uris": {"android": "https://dc.lft.to/lastmile_qr_scan", "ios": "https://dc.lft.to/lastmile_qr_scan"}, "lat": 38.916743833333335}, {"type": "electric_bike", "name": "35086c15b3334dd7615090a5f88a0abc", "fusion_lat": 0.0, "fusion_lon": 0.0, "lon": -77.1021375, "is_disabled": 0, "bike_id": "35086c15b3334dd7615090a5f88a0abc", "is_reserved": 0, "rental_uris": {"android": "https://dc.lft.to/lastmile_qr_scan", "ios": "https://dc.lft.to/lastmile_qr_scan"}, "lat": 38.920010833333336}, {"type": "electric_scooter", "name": "b3e9cea494c70632ca7fb24d56334b62", "fusion_lat": 0.0, "fusion_lon": 0.0, "lon": -77.025897, "is_disabled": 0, "bike_id": "b3e9cea494c70632ca7fb24d56334b62", "is_reserved": 0, "rental_uris": {"android": "https://dc.lft.to/lastmile_qr_scan", "ios": "https://dc.lft.to/lastmile_qr_scan"}, "lat": 38.95809066666666}, {"type": "electric_bike", "name": "a60acb8dc44b0e531ef4b66ef4ee5a0b", "fusion_lat": 0.0, "fusion_lon": 0.0, "lon": -76.9869635, "is_disabled": 0, "bike_id": "a60acb8dc44b0e531ef4b66ef4ee5a0b", "is_reserved": 0, "rental_uris": {"android": "https://dc.lft.to/lastmile_qr_scan", "ios": "https://dc.lft.to/lastmile_qr_scan"}, "lat": 38.94467866666667}, {"type": "electric_scooter", "name": "891cd1c8dbfb214b73a473193a28776a", "fusion_lat": 0.0, "fusion_lon": 0.0, "lon": -77.03335216666666, "is_disabled": 0, "bike_id": "891cd1c8dbfb214b73a473193a28776a", "is_reserved": 0, "rental_uris": {"android": "https://dc.lft.to/lastmile_qr_scan", "ios": "https://dc.lft.to/lastmile_qr_scan"}, "lat": 38.938839}, {"type": "electric_scooter", "name": "001e2de0e70cb90007cce0e42ee83bb9", "fusion_lat": 0.0, "fusion_lon": 0.0, "lon": -77.03469883333334, "is_disabled": 0, "bike_id": "001e2de0e70cb90007cce0e42ee83bb9", "is_reserved": 0, "rental_uris": {"android": "https://dc.lft.to/lastmile_qr_scan", "ios": "https://dc.lft.to/lastmile_qr_scan"}, "lat": 38.905364166666665}, {"type": "electric_bike", "name": "9839cbadf6114ef0a44eea069533bc0f", "fusion_lat": 0.0, "fusion_lon": 0.0, "lon": -76.96914533333333, "is_disabled": 0, "bike_id": "9839cbadf6114ef0a44eea069533bc0f", "is_reserved": 0, "rental_uris": {"android": "https://dc.lft.to/lastmile_qr_scan", "ios": "https://dc.lft.to/lastmile_qr_scan"}, "lat": 38.84610166666667}, {"type": "electric_bike", "name": "129251d0fc69c2334688634f759b7f7b", "fusion_lat": 0.0, "fusion_lon": 0.0, "lon": -76.96261216666667, "is_disabled": 0, "bike_id": "129251d0fc69c2334688634f759b7f7b", "is_reserved": 0, "rental_uris": {"android": "https://dc.lft.to/lastmile_qr_scan", "ios": "https://dc.lft.to/lastmile_qr_scan"}, "lat": 38.96785233333333}, {"type": "electric_bike", "name": "2f09b794da0268ca2f6b270b26d19fbf", "fusion_lat": 0.0, "fusion_lon": 0.0, "lon": -77.086186, "is_disabled": 0, "bike_id": "2f09b794da0268ca2f6b270b26d19fbf", "is_reserved": 0, "rental_uris": {"android": "https://dc.lft.to/lastmile_qr_scan", "ios": "https://dc.lft.to/lastmile_qr_scan"}, "lat": 38.931255}, {"type": "electric_bike", "name": "1898d03a0b81c13301954bc5bbcbf2dd", "fusion_lat": 0.0, "fusion_lon": 0.0, "lon": -77.03622283333333, "is_disabled": 0, "bike_id": "1898d03a0b81c13301954bc5bbcbf2dd", "is_reserved": 0, "rental_uris": {"android": "https://dc.lft.to/lastmile_qr_scan", "ios": "https://dc.lft.to/lastmile_qr_scan"}, "lat": 38.972954333333334}, {"type": "electric_scooter", "name": "380c3a187a2a3cdf2dee7c1f1a70e417", "fusion_lat": 0.0, "fusion_lon": 0.0, "lon": -77.0089745, "is_disabled": 0, "bike_id": "380c3a187a2a3cdf2dee7c1f1a70e417", "is_reserved": 0, "rental_uris": {"android": "https://dc.lft.to/lastmile_qr_scan", "ios": "https://dc.lft.to/lastmile_qr_scan"}, "lat": 38.8960185}, {"type": "electric_scooter", "name": "b585b8bd184a926a3f692f8d33104a5a", "fusion_lat": 0.0, "fusion_lon": 0.0, "lon": -77.03318833333333, "is_disabled": 0, "bike_id": "b585b8bd184a926a3f692f8d33104a5a", "is_reserved": 0, "rental_uris": {"android": "https://dc.lft.to/lastmile_qr_scan", "ios": "https://dc.lft.to/lastmile_qr_scan"}, "lat": 38.9156485}, {"type": "electric_scooter", "name": "8aee1163c98f0b6ac259af07f920583f", "fusion_lat": 0.0, "fusion_lon": 0.0, "lon": -77.02401483333334, "is_disabled": 0, "bike_id": "8aee1163c98f0b6ac259af07f920583f", "is_reserved": 0, "rental_uris": {"android": "https://dc.lft.to/lastmile_qr_scan", "ios": "https://dc.lft.to/lastmile_qr_scan"}, "lat": 38.897299}, {"type": "electric_scooter", "name": "e911740d22706a957a50ed5cc33030a1", "fusion_lat": 0.0, "fusion_lon": 0.0, "lon": -77.04007683333333, "is_disabled": 0, "bike_id": "e911740d22706a957a50ed5cc33030a1", "is_reserved": 0, "rental_uris": {"android": "https://dc.lft.to/lastmile_qr_scan", "ios": "https://dc.lft.to/lastmile_qr_scan"}, "lat": 38.922277333333334}, {"type": "electric_scooter", "name": "4bff1d47957217be716daf673aff3a25", "fusion_lat": 0.0, "fusion_lon": 0.0, "lon": -77.02779266666667, "is_disabled": 0, "bike_id": "4bff1d47957217be716daf673aff3a25", "is_reserved": 0, "rental_uris": {"android": "https://dc.lft.to/lastmile_qr_scan", "ios": "https://dc.lft.to/lastmile_qr_scan"}, "lat": 38.9307425}, {"type": "electric_scooter", "name": "75fea07719a9bd244576b332084fab95", "fusion_lat": 0.0, "fusion_lon": 0.0, "lon": -77.01999, "is_disabled": 0, "bike_id": "75fea07719a9bd244576b332084fab95", "is_reserved": 0, "rental_uris": {"android": "https://dc.lft.to/lastmile_qr_scan", "ios": "https://dc.lft.to/lastmile_qr_scan"}, "lat": 38.9118475}, {"type": "electric_scooter", "name": "12029b524adc5aa87be290f45fa30901", "fusion_lat": 0.0, "fusion_lon": 0.0, "lon": -77.05162316666667, "is_disabled": 0, "bike_id": "12029b524adc5aa87be290f45fa30901", "is_reserved": 0, "rental_uris": {"android": "https://dc.lft.to/lastmile_qr_scan", "ios": "https://dc.lft.to/lastmile_qr_scan"}, "lat": 38.902700333333335}, {"type": "electric_scooter", "name": "60282019db165c9a8d71ab18b1666ed3", "fusion_lat": 0.0, "fusion_lon": 0.0, "lon": -77.04084483333334, "is_disabled": 0, "bike_id": "60282019db165c9a8d71ab18b1666ed3", "is_reserved": 0, "rental_uris": {"android": "https://dc.lft.to/lastmile_qr_scan", "ios": "https://dc.lft.to/lastmile_qr_scan"}, "lat": 38.92025983333333}, {"type": "electric_scooter", "name": "32fef5701898168b2561a70c8e416307", "fusion_lat": 0.0, "fusion_lon": 0.0, "lon": -77.03903966666667, "is_disabled": 0, "bike_id": "32fef5701898168b2561a70c8e416307", "is_reserved": 0, "rental_uris": {"android": "https://dc.lft.to/lastmile_qr_scan", "ios": "https://dc.lft.to/lastmile_qr_scan"}, "lat": 38.91423316666667}, {"type": "electric_scooter", "name": "79a0f57caa59fa93935c74319eec87d3", "fusion_lat": 0.0, "fusion_lon": 0.0, "lon": -76.94663966666667, "is_disabled": 0, "bike_id": "79a0f57caa59fa93935c74319eec87d3", "is_reserved": 0, "rental_uris": {"android": "https://dc.lft.to/lastmile_qr_scan", "ios": "https://dc.lft.to/lastmile_qr_scan"}, "lat": 38.898681333333336}, {"type": "electric_scooter", "name": "9497bf554ff8190c784ea271854fddf0", "fusion_lat": 0.0, "fusion_lon": 0.0, "lon": -76.932691, "is_disabled": 0, "bike_id": "9497bf554ff8190c784ea271854fddf0", "is_reserved": 0, "rental_uris": {"android": "https://dc.lft.to/lastmile_qr_scan", "ios": "https://dc.lft.to/lastmile_qr_scan"}, "lat": 38.8874845}, {"type": "electric_scooter", "name": "4cc90fb68ccfaa43c00d337b1ce73a51", "fusion_lat": 0.0, "fusion_lon": 0.0, "lon": -77.03860283333333, "is_disabled": 0, "bike_id": "4cc90fb68ccfaa43c00d337b1ce73a51", "is_reserved": 0, "rental_uris": {"android": "https://dc.lft.to/lastmile_qr_scan", "ios": "https://dc.lft.to/lastmile_qr_scan"}, "lat": 38.911742333333336}, {"type": "electric_scooter", "name": "32becfc883db519e42a0aa355fd22e74", "fusion_lat": 0.0, "fusion_lon": 0.0, "lon": -77.02447516666666, "is_disabled": 0, "bike_id": "32becfc883db519e42a0aa355fd22e74", "is_reserved": 0, "rental_uris": {"android": "https://dc.lft.to/lastmile_qr_scan", "ios": "https://dc.lft.to/lastmile_qr_scan"}, "lat": 38.94979883333333}, {"type": "electric_bike", "name": "cd53302e0ca0c1690651dd380426a46b", "fusion_lat": 0.0, "fusion_lon": 0.0, "lon": -77.02956783333333, "is_disabled": 0, "bike_id": "cd53302e0ca0c1690651dd380426a46b", "is_reserved": 0, "rental_uris": {"android": "https://dc.lft.to/lastmile_qr_scan", "ios": "https://dc.lft.to/lastmile_qr_scan"}, "lat": 38.927275}, {"type": "electric_scooter", "name": "4b070ce36aeb0f8a283a6ce6d6db3060", "fusion_lat": 0.0, "fusion_lon": 0.0, "lon": -77.064572, "is_disabled": 0, "bike_id": "4b070ce36aeb0f8a283a6ce6d6db3060", "is_reserved": 0, "rental_uris": {"android": "https://dc.lft.to/lastmile_qr_scan", "ios": "https://dc.lft.to/lastmile_qr_scan"}, "lat": 38.94894266666667}, {"type": "electric_scooter", "name": "5c1b808126e8c192e1e9ef0d5d67ef03", "fusion_lat": 0.0, "fusion_lon": 0.0, "lon": -76.9299705, "is_disabled": 0, "bike_id": "5c1b808126e8c192e1e9ef0d5d67ef03", "is_reserved": 0, "rental_uris": {"android": "https://dc.lft.to/lastmile_qr_scan", "ios": "https://dc.lft.to/lastmile_qr_scan"}, "lat": 38.889899}, {"type": "electric_scooter", "name": "4ee86f0728da38b48eb8e5f9fc98d869", "fusion_lat": 0.0, "fusion_lon": 0.0, "lon": -77.0320485, "is_disabled": 0, "bike_id": "4ee86f0728da38b48eb8e5f9fc98d869", "is_reserved": 0, "rental_uris": {"android": "https://dc.lft.to/lastmile_qr_scan", "ios": "https://dc.lft.to/lastmile_qr_scan"}, "lat": 38.912006833333336}, {"type": "electric_scooter", "name": "a506688e926f364e90106796495c8f0b", "fusion_lat": 0.0, "fusion_lon": 0.0, "lon": -77.01834766666667, "is_disabled": 0, "bike_id": "a506688e926f364e90106796495c8f0b", "is_reserved": 0, "rental_uris": {"android": "https://dc.lft.to/lastmile_qr_scan", "ios": "https://dc.lft.to/lastmile_qr_scan"}, "lat": 38.90956883333333}, {"type": "electric_scooter", "name": "d8ca9c90c810746028a891a4f94b8972", "fusion_lat": 0.0, "fusion_lon": 0.0, "lon": -77.00566016666667, "is_disabled": 0, "bike_id": "d8ca9c90c810746028a891a4f94b8972", "is_reserved": 0, "rental_uris": {"android": "https://dc.lft.to/lastmile_qr_scan", "ios": "https://dc.lft.to/lastmile_qr_scan"}, "lat": 38.880341666666666}, {"type": "electric_scooter", "name": "16e36dde616bf2212a35df56266c4762", "fusion_lat": 0.0, "fusion_lon": 0.0, "lon": -77.061085, "is_disabled": 0, "bike_id": "16e36dde616bf2212a35df56266c4762", "is_reserved": 0, "rental_uris": {"android": "https://dc.lft.to/lastmile_qr_scan", "ios": "https://dc.lft.to/lastmile_qr_scan"}, "lat": 38.912822166666665}, {"type": "electric_scooter", "name": "f426008274bad8e74dc3685fabb5e072", "fusion_lat": 0.0, "fusion_lon": 0.0, "lon": -76.99171783333334, "is_disabled": 0, "bike_id": "f426008274bad8e74dc3685fabb5e072", "is_reserved": 0, "rental_uris": {"android": "https://dc.lft.to/lastmile_qr_scan", "ios": "https://dc.lft.to/lastmile_qr_scan"}, "lat": 38.9004365}, {"type": "electric_scooter", "name": "51ff5102268888c07a3434b3ed4a9c18", "fusion_lat": 0.0, "fusion_lon": 0.0, "lon": -77.02300916666667, "is_disabled": 0, "bike_id": "51ff5102268888c07a3434b3ed4a9c18", "is_reserved": 0, "rental_uris": {"android": "https://dc.lft.to/lastmile_qr_scan", "ios": "https://dc.lft.to/lastmile_qr_scan"}, "lat": 38.894972833333334}, {"type": "electric_scooter", "name": "13121f1c8d36f99d1771b65549c45bff", "fusion_lat": 0.0, "fusion_lon": 0.0, "lon": -77.00362083333333, "is_disabled": 0, "bike_id": "13121f1c8d36f99d1771b65549c45bff", "is_reserved": 0, "rental_uris": {"android": "https://dc.lft.to/lastmile_qr_scan", "ios": "https://dc.lft.to/lastmile_qr_scan"}, "lat": 38.876939166666666}, {"type": "electric_scooter", "name": "0ea156674dee6bb96d9a3b4e54205162", "fusion_lat": 0.0, "fusion_lon": 0.0, "lon": -77.02646333333334, "is_disabled": 0, "bike_id": "0ea156674dee6bb96d9a3b4e54205162", "is_reserved": 0, "rental_uris": {"android": "https://dc.lft.to/lastmile_qr_scan", "ios": "https://dc.lft.to/lastmile_qr_scan"}, "lat": 38.930990333333334}, {"type": "electric_scooter", "name": "72b46714b13b8b8726a7f3353d594ea1", "fusion_lat": 0.0, "fusion_lon": 0.0, "lon": -77.038428, "is_disabled": 0, "bike_id": "72b46714b13b8b8726a7f3353d594ea1", "is_reserved": 0, "rental_uris": {"android": "https://dc.lft.to/lastmile_qr_scan", "ios": "https://dc.lft.to/lastmile_qr_scan"}, "lat": 38.90719083333333}, {"type": "electric_scooter", "name": "14e114f7d65ff9cd1803c70f2f83ce6c", "fusion_lat": 0.0, "fusion_lon": 0.0, "lon": -77.1102835, "is_disabled": 0, "bike_id": "14e114f7d65ff9cd1803c70f2f83ce6c", "is_reserved": 0, "rental_uris": {"android": "https://dc.lft.to/lastmile_qr_scan", "ios": "https://dc.lft.to/lastmile_qr_scan"}, "lat": 38.877085}, {"type": "electric_scooter", "name": "1ce24e2aebaef79d506ab2ce19d7e9d2", "fusion_lat": 0.0, "fusion_lon": 0.0, "lon": -77.02432866666666, "is_disabled": 0, "bike_id": "1ce24e2aebaef79d506ab2ce19d7e9d2", "is_reserved": 0, "rental_uris": {"android": "https://dc.lft.to/lastmile_qr_scan", "ios": "https://dc.lft.to/lastmile_qr_scan"}, "lat": 38.92058983333333}, {"type": "electric_scooter", "name": "ab6be4ebb83d68da28fc7963a4b22cd4", "fusion_lat": 0.0, "fusion_lon": 0.0, "lon": -77.02445333333333, "is_disabled": 0, "bike_id": "ab6be4ebb83d68da28fc7963a4b22cd4", "is_reserved": 0, "rental_uris": {"android": "https://dc.lft.to/lastmile_qr_scan", "ios": "https://dc.lft.to/lastmile_qr_scan"}, "lat": 38.92345866666667}, {"type": "electric_scooter", "name": "820d49793f837240c6d183b804c03cb1", "fusion_lat": 0.0, "fusion_lon": 0.0, "lon": -77.03267083333333, "is_disabled": 0, "bike_id": "820d49793f837240c6d183b804c03cb1", "is_reserved": 0, "rental_uris": {"android": "https://dc.lft.to/lastmile_qr_scan", "ios": "https://dc.lft.to/lastmile_qr_scan"}, "lat": 38.931536}, {"type": "electric_scooter", "name": "e12dc134e6c7e34f59c6cc3e188a2b56", "fusion_lat": 0.0, "fusion_lon": 0.0, "lon": -77.02803783333333, "is_disabled": 0, "bike_id": "e12dc134e6c7e34f59c6cc3e188a2b56", "is_reserved": 0, "rental_uris": {"android": "https://dc.lft.to/lastmile_qr_scan", "ios": "https://dc.lft.to/lastmile_qr_scan"}, "lat": 38.91056966666667}, {"type": "electric_scooter", "name": "b443468244b71d755a1fb9e95116d99f", "fusion_lat": 0.0, "fusion_lon": 0.0, "lon": -77.01887633333334, "is_disabled": 0, "bike_id": "b443468244b71d755a1fb9e95116d99f", "is_reserved": 0, "rental_uris": {"android": "https://dc.lft.to/lastmile_qr_scan", "ios": "https://dc.lft.to/lastmile_qr_scan"}, "lat": 38.89746783333333}, {"type": "electric_scooter", "name": "227851f8c7577ab552a59a23df9074f8", "fusion_lat": 0.0, "fusion_lon": 0.0, "lon": -77.03202116666667, "is_disabled": 0, "bike_id": "227851f8c7577ab552a59a23df9074f8", "is_reserved": 0, "rental_uris": {"android": "https://dc.lft.to/lastmile_qr_scan", "ios": "https://dc.lft.to/lastmile_qr_scan"}, "lat": 38.9120095}, {"type": "electric_scooter", "name": "d17a993f1f8b454b5d53b46520147600", "fusion_lat": 0.0, "fusion_lon": 0.0, "lon": -77.0230285, "is_disabled": 0, "bike_id": "d17a993f1f8b454b5d53b46520147600", "is_reserved": 0, "rental_uris": {"android": "https://dc.lft.to/lastmile_qr_scan", "ios": "https://dc.lft.to/lastmile_qr_scan"}, "lat": 38.928248333333336}, {"type": "electric_bike", "name": "f5dac7ca51f8151d8f208373a5408133", "fusion_lat": 0.0, "fusion_lon": 0.0, "lon": -76.9569965, "is_disabled": 0, "bike_id": "f5dac7ca51f8151d8f208373a5408133", "is_reserved": 0, "rental_uris": {"android": "https://dc.lft.to/lastmile_qr_scan", "ios": "https://dc.lft.to/lastmile_qr_scan"}, "lat": 38.8509035}, {"type": "electric_scooter", "name": "685b445e8f4c370b22c7b831d7c6de6d", "fusion_lat": 0.0, "fusion_lon": 0.0, "lon": -77.03384516666667, "is_disabled": 0, "bike_id": "685b445e8f4c370b22c7b831d7c6de6d", "is_reserved": 0, "rental_uris": {"android": "https://dc.lft.to/lastmile_qr_scan", "ios": "https://dc.lft.to/lastmile_qr_scan"}, "lat": 38.90026833333334}, {"type": "electric_bike", "name": "770f3dd90174d4da233b05436e2947ae", "fusion_lat": 0.0, "fusion_lon": 0.0, "lon": -77.090215, "is_disabled": 0, "bike_id": "770f3dd90174d4da233b05436e2947ae", "is_reserved": 0, "rental_uris": {"android": "https://dc.lft.to/lastmile_qr_scan", "ios": "https://dc.lft.to/lastmile_qr_scan"}, "lat": 38.926479}, {"type": "electric_scooter", "name": "32da4255762c6a5f2e27e1d76ff58515", "fusion_lat": 0.0, "fusion_lon": 0.0, "lon": -77.01800133333333, "is_disabled": 0, "bike_id": "32da4255762c6a5f2e27e1d76ff58515", "is_reserved": 0, "rental_uris": {"android": "https://dc.lft.to/lastmile_qr_scan", "ios": "https://dc.lft.to/lastmile_qr_scan"}, "lat": 38.91948083333333}, {"type": "electric_scooter", "name": "71940c66919e95d47c812abe5c55f2b4", "fusion_lat": 0.0, "fusion_lon": 0.0, "lon": -77.00583716666667, "is_disabled": 0, "bike_id": "71940c66919e95d47c812abe5c55f2b4", "is_reserved": 0, "rental_uris": {"android": "https://dc.lft.to/lastmile_qr_scan", "ios": "https://dc.lft.to/lastmile_qr_scan"}, "lat": 38.90552733333333}, {"type": "electric_scooter", "name": "d9d8edc3f6e7638db0193fd70631863f", "fusion_lat": 0.0, "fusion_lon": 0.0, "lon": -76.95743, "is_disabled": 0, "bike_id": "d9d8edc3f6e7638db0193fd70631863f", "is_reserved": 0, "rental_uris": {"android": "https://dc.lft.to/lastmile_qr_scan", "ios": "https://dc.lft.to/lastmile_qr_scan"}, "lat": 38.8839215}, {"type": "electric_scooter", "name": "48792d84734b9ce8bc6b38db1a54c06a", "fusion_lat": 0.0, "fusion_lon": 0.0, "lon": -77.0146575, "is_disabled": 0, "bike_id": "48792d84734b9ce8bc6b38db1a54c06a", "is_reserved": 0, "rental_uris": {"android": "https://dc.lft.to/lastmile_qr_scan", "ios": "https://dc.lft.to/lastmile_qr_scan"}, "lat": 38.91759}, {"type": "electric_scooter", "name": "b05e3ee2e1076c5d5339ec45c72e0a56", "fusion_lat": 0.0, "fusion_lon": 0.0, "lon": -77.040148, "is_disabled": 0, "bike_id": "b05e3ee2e1076c5d5339ec45c72e0a56", "is_reserved": 0, "rental_uris": {"android": "https://dc.lft.to/lastmile_qr_scan", "ios": "https://dc.lft.to/lastmile_qr_scan"}, "lat": 38.90589466666667}, {"type": "electric_scooter", "name": "c042d3d8c3780dd553d83ed4055edb45", "fusion_lat": 0.0, "fusion_lon": 0.0, "lon": -77.02574733333333, "is_disabled": 0, "bike_id": "c042d3d8c3780dd553d83ed4055edb45", "is_reserved": 0, "rental_uris": {"android": "https://dc.lft.to/lastmile_qr_scan", "ios": "https://dc.lft.to/lastmile_qr_scan"}, "lat": 38.901477166666666}, {"type": "electric_scooter", "name": "dc35d5b3660f0f200f368a95b76332c8", "fusion_lat": 0.0, "fusion_lon": 0.0, "lon": -77.02285316666666, "is_disabled": 0, "bike_id": "dc35d5b3660f0f200f368a95b76332c8", "is_reserved": 0, "rental_uris": {"android": "https://dc.lft.to/lastmile_qr_scan", "ios": "https://dc.lft.to/lastmile_qr_scan"}, "lat": 38.91706583333333}, {"type": "electric_scooter", "name": "9595d3820001bc54b287522f78ad61d5", "fusion_lat": 0.0, "fusion_lon": 0.0, "lon": -77.02238583333333, "is_disabled": 0, "bike_id": "9595d3820001bc54b287522f78ad61d5", "is_reserved": 0, "rental_uris": {"android": "https://dc.lft.to/lastmile_qr_scan", "ios": "https://dc.lft.to/lastmile_qr_scan"}, "lat": 38.9085485}, {"type": "electric_scooter", "name": "3751ff5173b11971fc90c2a1970c9511", "fusion_lat": 0.0, "fusion_lon": 0.0, "lon": -76.988498, "is_disabled": 0, "bike_id": "3751ff5173b11971fc90c2a1970c9511", "is_reserved": 0, "rental_uris": {"android": "https://dc.lft.to/lastmile_qr_scan", "ios": "https://dc.lft.to/lastmile_qr_scan"}, "lat": 38.891701166666664}, {"type": "electric_scooter", "name": "08fc02b5fc45826cec5c62dff6920527", "fusion_lat": 0.0, "fusion_lon": 0.0, "lon": -76.99913566666666, "is_disabled": 0, "bike_id": "08fc02b5fc45826cec5c62dff6920527", "is_reserved": 0, "rental_uris": {"android": "https://dc.lft.to/lastmile_qr_scan", "ios": "https://dc.lft.to/lastmile_qr_scan"}, "lat": 38.924585}, {"type": "electric_bike", "name": "e25347a5242bd38f561b2efc7250f8c6", "fusion_lat": 0.0, "fusion_lon": 0.0, "lon": -77.127354, "is_disabled": 0, "bike_id": "e25347a5242bd38f561b2efc7250f8c6", "is_reserved": 0, "rental_uris": {"android": "https://dc.lft.to/lastmile_qr_scan", "ios": "https://dc.lft.to/lastmile_qr_scan"}, "lat": 38.8956225}, {"type": "electric_scooter", "name": "f4834669a5a5817bd446d435e9324d61", "fusion_lat": 0.0, "fusion_lon": 0.0, "lon": -77.029571, "is_disabled": 0, "bike_id": "f4834669a5a5817bd446d435e9324d61", "is_reserved": 0, "rental_uris": {"android": "https://dc.lft.to/lastmile_qr_scan", "ios": "https://dc.lft.to/lastmile_qr_scan"}, "lat": 38.9168975}, {"type": "electric_scooter", "name": "207199648c8709e032808065f60cf3d2", "fusion_lat": 0.0, "fusion_lon": 0.0, "lon": -77.02793, "is_disabled": 0, "bike_id": "207199648c8709e032808065f60cf3d2", "is_reserved": 0, "rental_uris": {"android": "https://dc.lft.to/lastmile_qr_scan", "ios": "https://dc.lft.to/lastmile_qr_scan"}, "lat": 38.93192233333333}, {"type": "electric_scooter", "name": "d58170a967d82bf482eb294e10fb20a1", "fusion_lat": 0.0, "fusion_lon": 0.0, "lon": -77.0318565, "is_disabled": 0, "bike_id": "d58170a967d82bf482eb294e10fb20a1", "is_reserved": 0, "rental_uris": {"android": "https://dc.lft.to/lastmile_qr_scan", "ios": "https://dc.lft.to/lastmile_qr_scan"}, "lat": 38.91822716666667}, {"type": "electric_scooter", "name": "f84d36fa7e2b0b2a84eab2db24a9e6ba", "fusion_lat": 0.0, "fusion_lon": 0.0, "lon": -77.03202833333333, "is_disabled": 0, "bike_id": "f84d36fa7e2b0b2a84eab2db24a9e6ba", "is_reserved": 0, "rental_uris": {"android": "https://dc.lft.to/lastmile_qr_scan", "ios": "https://dc.lft.to/lastmile_qr_scan"}, "lat": 38.9184185}, {"type": "electric_scooter", "name": "c4a651153237039eee9a1b04cd432675", "fusion_lat": 0.0, "fusion_lon": 0.0, "lon": -77.026123, "is_disabled": 0, "bike_id": "c4a651153237039eee9a1b04cd432675", "is_reserved": 0, "rental_uris": {"android": "https://dc.lft.to/lastmile_qr_scan", "ios": "https://dc.lft.to/lastmile_qr_scan"}, "lat": 38.906031666666664}, {"type": "electric_scooter", "name": "a076169614866835c9937030612e182b", "fusion_lat": 0.0, "fusion_lon": 0.0, "lon": -77.04887483333333, "is_disabled": 0, "bike_id": "a076169614866835c9937030612e182b", "is_reserved": 0, "rental_uris": {"android": "https://dc.lft.to/lastmile_qr_scan", "ios": "https://dc.lft.to/lastmile_qr_scan"}, "lat": 38.90059333333333}, {"type": "electric_scooter", "name": "7775de294f1661c5a63b93dffb3ca536", "fusion_lat": 0.0, "fusion_lon": 0.0, "lon": -77.03808583333333, "is_disabled": 0, "bike_id": "7775de294f1661c5a63b93dffb3ca536", "is_reserved": 0, "rental_uris": {"android": "https://dc.lft.to/lastmile_qr_scan", "ios": "https://dc.lft.to/lastmile_qr_scan"}, "lat": 38.9103525}, {"type": "electric_scooter", "name": "3009c092602c79728e729e49c087ef53", "fusion_lat": 0.0, "fusion_lon": 0.0, "lon": -76.94700033333334, "is_disabled": 0, "bike_id": "3009c092602c79728e729e49c087ef53", "is_reserved": 0, "rental_uris": {"android": "https://dc.lft.to/lastmile_qr_scan", "ios": "https://dc.lft.to/lastmile_qr_scan"}, "lat": 38.897333833333334}, {"type": "electric_bike", "name": "0bd03afdac170b566143bf7edd7fa999", "fusion_lat": 0.0, "fusion_lon": 0.0, "lon": -77.04506133333334, "is_disabled": 0, "bike_id": "0bd03afdac170b566143bf7edd7fa999", "is_reserved": 0, "rental_uris": {"android": "https://dc.lft.to/lastmile_qr_scan", "ios": "https://dc.lft.to/lastmile_qr_scan"}, "lat": 39.02114666666667}, {"type": "electric_scooter", "name": "bdd52622667d560ad6ed6eec1f786c59", "fusion_lat": 0.0, "fusion_lon": 0.0, "lon": -77.03644233333333, "is_disabled": 0, "bike_id": "bdd52622667d560ad6ed6eec1f786c59", "is_reserved": 0, "rental_uris": {"android": "https://dc.lft.to/lastmile_qr_scan", "ios": "https://dc.lft.to/lastmile_qr_scan"}, "lat": 38.91735}, {"type": "electric_scooter", "name": "5053e91f83a0fd419abe4d110ec9e32f", "fusion_lat": 0.0, "fusion_lon": 0.0, "lon": -76.9983485, "is_disabled": 0, "bike_id": "5053e91f83a0fd419abe4d110ec9e32f", "is_reserved": 0, "rental_uris": {"android": "https://dc.lft.to/lastmile_qr_scan", "ios": "https://dc.lft.to/lastmile_qr_scan"}, "lat": 38.90062183333333}, {"type": "electric_scooter", "name": "418245e86ef8b30558f2ffa712a52c4b", "fusion_lat": 0.0, "fusion_lon": 0.0, "lon": -77.01855866666666, "is_disabled": 0, "bike_id": "418245e86ef8b30558f2ffa712a52c4b", "is_reserved": 0, "rental_uris": {"android": "https://dc.lft.to/lastmile_qr_scan", "ios": "https://dc.lft.to/lastmile_qr_scan"}, "lat": 38.94925716666667}, {"type": "electric_scooter", "name": "23ad0890c598e82121f107e15294cbdb", "fusion_lat": 0.0, "fusion_lon": 0.0, "lon": -77.0343845, "is_disabled": 0, "bike_id": "23ad0890c598e82121f107e15294cbdb", "is_reserved": 0, "rental_uris": {"android": "https://dc.lft.to/lastmile_qr_scan", "ios": "https://dc.lft.to/lastmile_qr_scan"}, "lat": 38.9178965}, {"type": "electric_scooter", "name": "8b08a64c8ced03f63cf7c3aba5e348d3", "fusion_lat": 0.0, "fusion_lon": 0.0, "lon": -77.03728566666666, "is_disabled": 0, "bike_id": "8b08a64c8ced03f63cf7c3aba5e348d3", "is_reserved": 0, "rental_uris": {"android": "https://dc.lft.to/lastmile_qr_scan", "ios": "https://dc.lft.to/lastmile_qr_scan"}, "lat": 38.92030583333333}, {"type": "electric_scooter", "name": "9a307ee03073ee672fe4c190cafd2c88", "fusion_lat": 0.0, "fusion_lon": 0.0, "lon": -77.01388416666667, "is_disabled": 0, "bike_id": "9a307ee03073ee672fe4c190cafd2c88", "is_reserved": 0, "rental_uris": {"android": "https://dc.lft.to/lastmile_qr_scan", "ios": "https://dc.lft.to/lastmile_qr_scan"}, "lat": 38.875957}, {"type": "electric_scooter", "name": "041b9a5bf7e6eab40fb1eb97b6a10769", "fusion_lat": 0.0, "fusion_lon": 0.0, "lon": -76.99346483333333, "is_disabled": 0, "bike_id": "041b9a5bf7e6eab40fb1eb97b6a10769", "is_reserved": 0, "rental_uris": {"android": "https://dc.lft.to/lastmile_qr_scan", "ios": "https://dc.lft.to/lastmile_qr_scan"}, "lat": 38.90017783333333}, {"type": "electric_bike", "name": "0eadac99aef33ee23eca747d1055d846", "fusion_lat": 0.0, "fusion_lon": 0.0, "lon": -76.9631835, "is_disabled": 0, "bike_id": "0eadac99aef33ee23eca747d1055d846", "is_reserved": 0, "rental_uris": {"android": "https://dc.lft.to/lastmile_qr_scan", "ios": "https://dc.lft.to/lastmile_qr_scan"}, "lat": 38.938978666666664}, {"type": "electric_scooter", "name": "530f2ee48588ff98c90d2dd613b1f9ca", "fusion_lat": 0.0, "fusion_lon": 0.0, "lon": -77.02812533333334, "is_disabled": 0, "bike_id": "530f2ee48588ff98c90d2dd613b1f9ca", "is_reserved": 0, "rental_uris": {"android": "https://dc.lft.to/lastmile_qr_scan", "ios": "https://dc.lft.to/lastmile_qr_scan"}, "lat": 38.89941966666667}, {"type": "electric_scooter", "name": "bb1c1b49a40ed8c544f1d0793ffeaf9e", "fusion_lat": 0.0, "fusion_lon": 0.0, "lon": -77.03642616666667, "is_disabled": 0, "bike_id": "bb1c1b49a40ed8c544f1d0793ffeaf9e", "is_reserved": 0, "rental_uris": {"android": "https://dc.lft.to/lastmile_qr_scan", "ios": "https://dc.lft.to/lastmile_qr_scan"}, "lat": 38.91734316666667}, {"type": "electric_scooter", "name": "0c6a530202a068026ab5eb4a7b92308b", "fusion_lat": 0.0, "fusion_lon": 0.0, "lon": -77.02076933333333, "is_disabled": 0, "bike_id": "0c6a530202a068026ab5eb4a7b92308b", "is_reserved": 0, "rental_uris": {"android": "https://dc.lft.to/lastmile_qr_scan", "ios": "https://dc.lft.to/lastmile_qr_scan"}, "lat": 38.930243833333336}, {"type": "electric_scooter", "name": "2eb6d9f5ad6d7216629811b0c1ea9645", "fusion_lat": 0.0, "fusion_lon": 0.0, "lon": -76.99036366666667, "is_disabled": 0, "bike_id": "2eb6d9f5ad6d7216629811b0c1ea9645", "is_reserved": 0, "rental_uris": {"android": "https://dc.lft.to/lastmile_qr_scan", "ios": "https://dc.lft.to/lastmile_qr_scan"}, "lat": 38.888711}, {"type": "electric_bike", "name": "a5f5643c5f680e596931120cd4932bb5", "fusion_lat": 0.0, "fusion_lon": 0.0, "lon": -76.97536316666667, "is_disabled": 0, "bike_id": "a5f5643c5f680e596931120cd4932bb5", "is_reserved": 0, "rental_uris": {"android": "https://dc.lft.to/lastmile_qr_scan", "ios": "https://dc.lft.to/lastmile_qr_scan"}, "lat": 38.9033225}, {"type": "electric_scooter", "name": "8649462bda0ad456c2304b4f39034f58", "fusion_lat": 0.0, "fusion_lon": 0.0, "lon": -77.00213766666667, "is_disabled": 0, "bike_id": "8649462bda0ad456c2304b4f39034f58", "is_reserved": 0, "rental_uris": {"android": "https://dc.lft.to/lastmile_qr_scan", "ios": "https://dc.lft.to/lastmile_qr_scan"}, "lat": 38.911045333333334}, {"type": "electric_bike", "name": "a5dcc7da65953faa3b50c6dc410bad13", "fusion_lat": 0.0, "fusion_lon": 0.0, "lon": -77.003777, "is_disabled": 0, "bike_id": "a5dcc7da65953faa3b50c6dc410bad13", "is_reserved": 0, "rental_uris": {"android": "https://dc.lft.to/lastmile_qr_scan", "ios": "https://dc.lft.to/lastmile_qr_scan"}, "lat": 38.83606733333333}, {"type": "electric_scooter", "name": "6034d93afb7773ba515cbe1efc525147", "fusion_lat": 0.0, "fusion_lon": 0.0, "lon": -77.0498665, "is_disabled": 0, "bike_id": "6034d93afb7773ba515cbe1efc525147", "is_reserved": 0, "rental_uris": {"android": "https://dc.lft.to/lastmile_qr_scan", "ios": "https://dc.lft.to/lastmile_qr_scan"}, "lat": 38.9011425}, {"type": "electric_scooter", "name": "701e617d1c2261b83737fe058aafd767", "fusion_lat": 0.0, "fusion_lon": 0.0, "lon": -77.03507983333333, "is_disabled": 0, "bike_id": "701e617d1c2261b83737fe058aafd767", "is_reserved": 0, "rental_uris": {"android": "https://dc.lft.to/lastmile_qr_scan", "ios": "https://dc.lft.to/lastmile_qr_scan"}, "lat": 38.92154716666667}, {"type": "electric_scooter", "name": "5516561eaa5ecbb7ea579ad6098974ed", "fusion_lat": 0.0, "fusion_lon": 0.0, "lon": -77.02201033333333, "is_disabled": 0, "bike_id": "5516561eaa5ecbb7ea579ad6098974ed", "is_reserved": 0, "rental_uris": {"android": "https://dc.lft.to/lastmile_qr_scan", "ios": "https://dc.lft.to/lastmile_qr_scan"}, "lat": 38.90187983333333}, {"type": "electric_scooter", "name": "2b3ba5b6245931bf246636a725e1cb3e", "fusion_lat": 0.0, "fusion_lon": 0.0, "lon": -77.02344916666667, "is_disabled": 0, "bike_id": "2b3ba5b6245931bf246636a725e1cb3e", "is_reserved": 0, "rental_uris": {"android": "https://dc.lft.to/lastmile_qr_scan", "ios": "https://dc.lft.to/lastmile_qr_scan"}, "lat": 38.881398}, {"type": "electric_scooter", "name": "fa7f32432f8cacaa077c5c9174e7fbbb", "fusion_lat": 0.0, "fusion_lon": 0.0, "lon": -77.07208283333334, "is_disabled": 0, "bike_id": "fa7f32432f8cacaa077c5c9174e7fbbb", "is_reserved": 0, "rental_uris": {"android": "https://dc.lft.to/lastmile_qr_scan", "ios": "https://dc.lft.to/lastmile_qr_scan"}, "lat": 38.91264833333334}, {"type": "electric_scooter", "name": "a31a378f9529bb47d63b5191c49b3c10", "fusion_lat": 0.0, "fusion_lon": 0.0, "lon": -77.0273325, "is_disabled": 0, "bike_id": "a31a378f9529bb47d63b5191c49b3c10", "is_reserved": 0, "rental_uris": {"android": "https://dc.lft.to/lastmile_qr_scan", "ios": "https://dc.lft.to/lastmile_qr_scan"}, "lat": 38.92488133333333}, {"type": "electric_scooter", "name": "4746bf46760fe570b9e8d5f689dcf72b", "fusion_lat": 0.0, "fusion_lon": 0.0, "lon": -77.007509, "is_disabled": 0, "bike_id": "4746bf46760fe570b9e8d5f689dcf72b", "is_reserved": 0, "rental_uris": {"android": "https://dc.lft.to/lastmile_qr_scan", "ios": "https://dc.lft.to/lastmile_qr_scan"}, "lat": 38.90460133333333}, {"type": "electric_scooter", "name": "f19fcbce182977dc686c560e16692baf", "fusion_lat": 0.0, "fusion_lon": 0.0, "lon": -77.041325, "is_disabled": 0, "bike_id": "f19fcbce182977dc686c560e16692baf", "is_reserved": 0, "rental_uris": {"android": "https://dc.lft.to/lastmile_qr_scan", "ios": "https://dc.lft.to/lastmile_qr_scan"}, "lat": 38.9211735}, {"type": "electric_scooter", "name": "bf23a93aaae409b080c660312ef1d735", "fusion_lat": 0.0, "fusion_lon": 0.0, "lon": -76.9903195, "is_disabled": 0, "bike_id": "bf23a93aaae409b080c660312ef1d735", "is_reserved": 0, "rental_uris": {"android": "https://dc.lft.to/lastmile_qr_scan", "ios": "https://dc.lft.to/lastmile_qr_scan"}, "lat": 38.88873783333333}, {"type": "electric_scooter", "name": "ed6d1ede459fdc7246730de21e5897fc", "fusion_lat": 0.0, "fusion_lon": 0.0, "lon": -77.062936, "is_disabled": 0, "bike_id": "ed6d1ede459fdc7246730de21e5897fc", "is_reserved": 0, "rental_uris": {"android": "https://dc.lft.to/lastmile_qr_scan", "ios": "https://dc.lft.to/lastmile_qr_scan"}, "lat": 38.9045865}, {"type": "electric_scooter", "name": "318c834282ee9d728bb8345928f91e8a", "fusion_lat": 0.0, "fusion_lon": 0.0, "lon": -77.00391483333334, "is_disabled": 0, "bike_id": "318c834282ee9d728bb8345928f91e8a", "is_reserved": 0, "rental_uris": {"android": "https://dc.lft.to/lastmile_qr_scan", "ios": "https://dc.lft.to/lastmile_qr_scan"}, "lat": 38.87611}, {"type": "electric_scooter", "name": "64558ad7d7a04a27679c07b1245f96f5", "fusion_lat": 0.0, "fusion_lon": 0.0, "lon": -77.03665666666667, "is_disabled": 0, "bike_id": "64558ad7d7a04a27679c07b1245f96f5", "is_reserved": 0, "rental_uris": {"android": "https://dc.lft.to/lastmile_qr_scan", "ios": "https://dc.lft.to/lastmile_qr_scan"}, "lat": 38.9209285}, {"type": "electric_bike", "name": "bccebc2550be65d0e8d0800c19cde4cc", "fusion_lat": 0.0, "fusion_lon": 0.0, "lon": -76.9818345, "is_disabled": 0, "bike_id": "bccebc2550be65d0e8d0800c19cde4cc", "is_reserved": 0, "rental_uris": {"android": "https://dc.lft.to/lastmile_qr_scan", "ios": "https://dc.lft.to/lastmile_qr_scan"}, "lat": 38.88405766666666}, {"type": "electric_scooter", "name": "4b4ff90c6a792794c8dc0099f8a5ba22", "fusion_lat": 0.0, "fusion_lon": 0.0, "lon": -77.004808, "is_disabled": 0, "bike_id": "4b4ff90c6a792794c8dc0099f8a5ba22", "is_reserved": 0, "rental_uris": {"android": "https://dc.lft.to/lastmile_qr_scan", "ios": "https://dc.lft.to/lastmile_qr_scan"}, "lat": 38.87460933333333}, {"type": "electric_scooter", "name": "80419f97d2d9127dea0da00edf39e845", "fusion_lat": 0.0, "fusion_lon": 0.0, "lon": -77.01642233333334, "is_disabled": 0, "bike_id": "80419f97d2d9127dea0da00edf39e845", "is_reserved": 0, "rental_uris": {"android": "https://dc.lft.to/lastmile_qr_scan", "ios": "https://dc.lft.to/lastmile_qr_scan"}, "lat": 38.9159665}, {"type": "electric_scooter", "name": "d628473e5b82d5d0ad80debea1dc864a", "fusion_lat": 0.0, "fusion_lon": 0.0, "lon": -77.03175816666666, "is_disabled": 0, "bike_id": "d628473e5b82d5d0ad80debea1dc864a", "is_reserved": 0, "rental_uris": {"android": "https://dc.lft.to/lastmile_qr_scan", "ios": "https://dc.lft.to/lastmile_qr_scan"}, "lat": 38.924990333333334}, {"type": "electric_scooter", "name": "9fddfd43dabb9b6e197db5fd5781f6ee", "fusion_lat": 0.0, "fusion_lon": 0.0, "lon": -77.0259385, "is_disabled": 0, "bike_id": "9fddfd43dabb9b6e197db5fd5781f6ee", "is_reserved": 0, "rental_uris": {"android": "https://dc.lft.to/lastmile_qr_scan", "ios": "https://dc.lft.to/lastmile_qr_scan"}, "lat": 38.905192166666666}, {"type": "electric_scooter", "name": "5d95c88d67eef54994543179f0d56a42", "fusion_lat": 0.0, "fusion_lon": 0.0, "lon": -77.04231133333333, "is_disabled": 0, "bike_id": "5d95c88d67eef54994543179f0d56a42", "is_reserved": 0, "rental_uris": {"android": "https://dc.lft.to/lastmile_qr_scan", "ios": "https://dc.lft.to/lastmile_qr_scan"}, "lat": 38.911169666666666}, {"type": "electric_scooter", "name": "efa3ae9711a271ebc5a589ac64e89436", "fusion_lat": 0.0, "fusion_lon": 0.0, "lon": -76.98003916666667, "is_disabled": 0, "bike_id": "efa3ae9711a271ebc5a589ac64e89436", "is_reserved": 0, "rental_uris": {"android": "https://dc.lft.to/lastmile_qr_scan", "ios": "https://dc.lft.to/lastmile_qr_scan"}, "lat": 38.902435}, {"type": "electric_scooter", "name": "8f92535be78cb56bb3f50877f012c4c3", "fusion_lat": 0.0, "fusion_lon": 0.0, "lon": -77.03615383333333, "is_disabled": 0, "bike_id": "8f92535be78cb56bb3f50877f012c4c3", "is_reserved": 0, "rental_uris": {"android": "https://dc.lft.to/lastmile_qr_scan", "ios": "https://dc.lft.to/lastmile_qr_scan"}, "lat": 38.90336166666667}, {"type": "electric_scooter", "name": "ffdc167f0aee5aded7c64134b51e6247", "fusion_lat": 0.0, "fusion_lon": 0.0, "lon": -77.01628116666667, "is_disabled": 0, "bike_id": "ffdc167f0aee5aded7c64134b51e6247", "is_reserved": 0, "rental_uris": {"android": "https://dc.lft.to/lastmile_qr_scan", "ios": "https://dc.lft.to/lastmile_qr_scan"}, "lat": 38.88746233333333}, {"type": "electric_scooter", "name": "b26ad48911a908bc879a91cdffb570f7", "fusion_lat": 0.0, "fusion_lon": 0.0, "lon": -77.059154, "is_disabled": 0, "bike_id": "b26ad48911a908bc879a91cdffb570f7", "is_reserved": 0, "rental_uris": {"android": "https://dc.lft.to/lastmile_qr_scan", "ios": "https://dc.lft.to/lastmile_qr_scan"}, "lat": 38.901614333333335}, {"type": "electric_scooter", "name": "3e3bc766196da566157db41729b13e48", "fusion_lat": 0.0, "fusion_lon": 0.0, "lon": -77.04183983333333, "is_disabled": 0, "bike_id": "3e3bc766196da566157db41729b13e48", "is_reserved": 0, "rental_uris": {"android": "https://dc.lft.to/lastmile_qr_scan", "ios": "https://dc.lft.to/lastmile_qr_scan"}, "lat": 38.91825083333333}, {"type": "electric_scooter", "name": "36c61f6a1b63b01252e2362dc137a93f", "fusion_lat": 0.0, "fusion_lon": 0.0, "lon": -77.01087183333334, "is_disabled": 0, "bike_id": "36c61f6a1b63b01252e2362dc137a93f", "is_reserved": 0, "rental_uris": {"android": "https://dc.lft.to/lastmile_qr_scan", "ios": "https://dc.lft.to/lastmile_qr_scan"}, "lat": 38.903310833333336}, {"type": "electric_scooter", "name": "51ee3523ded77842fe92db0c32ac0db0", "fusion_lat": 0.0, "fusion_lon": 0.0, "lon": -77.03659233333333, "is_disabled": 0, "bike_id": "51ee3523ded77842fe92db0c32ac0db0", "is_reserved": 0, "rental_uris": {"android": "https://dc.lft.to/lastmile_qr_scan", "ios": "https://dc.lft.to/lastmile_qr_scan"}, "lat": 38.92043433333333}, {"type": "electric_scooter", "name": "8696023f0546d07832b7c6b8e53d001e", "fusion_lat": 0.0, "fusion_lon": 0.0, "lon": -77.02176866666667, "is_disabled": 0, "bike_id": "8696023f0546d07832b7c6b8e53d001e", "is_reserved": 0, "rental_uris": {"android": "https://dc.lft.to/lastmile_qr_scan", "ios": "https://dc.lft.to/lastmile_qr_scan"}, "lat": 38.91112366666667}, {"type": "electric_scooter", "name": "cbb046a2ead715a51882927a6389ab44", "fusion_lat": 0.0, "fusion_lon": 0.0, "lon": -77.02892, "is_disabled": 0, "bike_id": "cbb046a2ead715a51882927a6389ab44", "is_reserved": 0, "rental_uris": {"android": "https://dc.lft.to/lastmile_qr_scan", "ios": "https://dc.lft.to/lastmile_qr_scan"}, "lat": 38.936083333333336}, {"type": "electric_scooter", "name": "f07d9796db3692e0ab837d2a9127c194", "fusion_lat": 0.0, "fusion_lon": 0.0, "lon": -77.02280066666667, "is_disabled": 0, "bike_id": "f07d9796db3692e0ab837d2a9127c194", "is_reserved": 0, "rental_uris": {"android": "https://dc.lft.to/lastmile_qr_scan", "ios": "https://dc.lft.to/lastmile_qr_scan"}, "lat": 38.89848633333333}, {"type": "electric_bike", "name": "cb9f8cd53e86e714c933e1f5c176ce11", "fusion_lat": 0.0, "fusion_lon": 0.0, "lon": -77.03014233333333, "is_disabled": 0, "bike_id": "cb9f8cd53e86e714c933e1f5c176ce11", "is_reserved": 0, "rental_uris": {"android": "https://dc.lft.to/lastmile_qr_scan", "ios": "https://dc.lft.to/lastmile_qr_scan"}, "lat": 38.9002065}, {"type": "electric_scooter", "name": "a1c701f1e8347b13c57bcf67b8616837", "fusion_lat": 0.0, "fusion_lon": 0.0, "lon": -77.02944383333333, "is_disabled": 0, "bike_id": "a1c701f1e8347b13c57bcf67b8616837", "is_reserved": 0, "rental_uris": {"android": "https://dc.lft.to/lastmile_qr_scan", "ios": "https://dc.lft.to/lastmile_qr_scan"}, "lat": 38.9071445}, {"type": "electric_scooter", "name": "7a63af1576bbe5806f4e76a534432ce4", "fusion_lat": 0.0, "fusion_lon": 0.0, "lon": -76.98085583333334, "is_disabled": 0, "bike_id": "7a63af1576bbe5806f4e76a534432ce4", "is_reserved": 0, "rental_uris": {"android": "https://dc.lft.to/lastmile_qr_scan", "ios": "https://dc.lft.to/lastmile_qr_scan"}, "lat": 38.89439333333333}, {"type": "electric_scooter", "name": "af48b890ab57605642e2fe75c40e8391", "fusion_lat": 0.0, "fusion_lon": 0.0, "lon": -77.0344775, "is_disabled": 0, "bike_id": "af48b890ab57605642e2fe75c40e8391", "is_reserved": 0, "rental_uris": {"android": "https://dc.lft.to/lastmile_qr_scan", "ios": "https://dc.lft.to/lastmile_qr_scan"}, "lat": 38.913946333333335}, {"type": "electric_scooter", "name": "689f0e37741bcee9ad575518fb343408", "fusion_lat": 0.0, "fusion_lon": 0.0, "lon": -77.03379683333333, "is_disabled": 0, "bike_id": "689f0e37741bcee9ad575518fb343408", "is_reserved": 0, "rental_uris": {"android": "https://dc.lft.to/lastmile_qr_scan", "ios": "https://dc.lft.to/lastmile_qr_scan"}, "lat": 38.900138166666665}, {"type": "electric_scooter", "name": "5ebde44e8ab2e355f2cc6da682d7a060", "fusion_lat": 0.0, "fusion_lon": 0.0, "lon": -77.0269365, "is_disabled": 0, "bike_id": "5ebde44e8ab2e355f2cc6da682d7a060", "is_reserved": 0, "rental_uris": {"android": "https://dc.lft.to/lastmile_qr_scan", "ios": "https://dc.lft.to/lastmile_qr_scan"}, "lat": 38.9066785}, {"type": "electric_scooter", "name": "10c2d9826fb1b66e85cf878c8e6654fb", "fusion_lat": 0.0, "fusion_lon": 0.0, "lon": -76.99837633333334, "is_disabled": 0, "bike_id": "10c2d9826fb1b66e85cf878c8e6654fb", "is_reserved": 0, "rental_uris": {"android": "https://dc.lft.to/lastmile_qr_scan", "ios": "https://dc.lft.to/lastmile_qr_scan"}, "lat": 38.90055383333333}, {"type": "electric_scooter", "name": "ac8aad91f51a360a4a83cdc61220f608", "fusion_lat": 0.0, "fusion_lon": 0.0, "lon": -77.02488233333334, "is_disabled": 0, "bike_id": "ac8aad91f51a360a4a83cdc61220f608", "is_reserved": 0, "rental_uris": {"android": "https://dc.lft.to/lastmile_qr_scan", "ios": "https://dc.lft.to/lastmile_qr_scan"}, "lat": 38.94187483333333}, {"type": "electric_scooter", "name": "aff7c52ac7472e1ef05834ad45c9321f", "fusion_lat": 0.0, "fusion_lon": 0.0, "lon": -77.07305783333334, "is_disabled": 0, "bike_id": "aff7c52ac7472e1ef05834ad45c9321f", "is_reserved": 0, "rental_uris": {"android": "https://dc.lft.to/lastmile_qr_scan", "ios": "https://dc.lft.to/lastmile_qr_scan"}, "lat": 38.9232195}, {"type": "electric_scooter", "name": "045ef9160318aa52822b37c85d943676", "fusion_lat": 0.0, "fusion_lon": 0.0, "lon": -77.00855066666666, "is_disabled": 0, "bike_id": "045ef9160318aa52822b37c85d943676", "is_reserved": 0, "rental_uris": {"android": "https://dc.lft.to/lastmile_qr_scan", "ios": "https://dc.lft.to/lastmile_qr_scan"}, "lat": 38.8792745}, {"type": "electric_scooter", "name": "279fe659ee63fcfb83a33f92584e5d67", "fusion_lat": 0.0, "fusion_lon": 0.0, "lon": -77.02227616666667, "is_disabled": 0, "bike_id": "279fe659ee63fcfb83a33f92584e5d67", "is_reserved": 0, "rental_uris": {"android": "https://dc.lft.to/lastmile_qr_scan", "ios": "https://dc.lft.to/lastmile_qr_scan"}, "lat": 38.93553633333333}, {"type": "electric_scooter", "name": "303701f7a09db942089d3aea7eda9453", "fusion_lat": 0.0, "fusion_lon": 0.0, "lon": -77.03964033333334, "is_disabled": 0, "bike_id": "303701f7a09db942089d3aea7eda9453", "is_reserved": 0, "rental_uris": {"android": "https://dc.lft.to/lastmile_qr_scan", "ios": "https://dc.lft.to/lastmile_qr_scan"}, "lat": 38.93149016666667}, {"type": "electric_scooter", "name": "901577a4e997a8eeaa53ddab9d7948a9", "fusion_lat": 0.0, "fusion_lon": 0.0, "lon": -77.03459633333334, "is_disabled": 0, "bike_id": "901577a4e997a8eeaa53ddab9d7948a9", "is_reserved": 0, "rental_uris": {"android": "https://dc.lft.to/lastmile_qr_scan", "ios": "https://dc.lft.to/lastmile_qr_scan"}, "lat": 38.928879}, {"type": "electric_scooter", "name": "dc1d8154e604851b4cededf712645840", "fusion_lat": 0.0, "fusion_lon": 0.0, "lon": -77.03628533333334, "is_disabled": 0, "bike_id": "dc1d8154e604851b4cededf712645840", "is_reserved": 0, "rental_uris": {"android": "https://dc.lft.to/lastmile_qr_scan", "ios": "https://dc.lft.to/lastmile_qr_scan"}, "lat": 38.936811166666665}, {"type": "electric_scooter", "name": "af0502f2788decb480c43d427dff2eaf", "fusion_lat": 0.0, "fusion_lon": 0.0, "lon": -77.02362, "is_disabled": 0, "bike_id": "af0502f2788decb480c43d427dff2eaf", "is_reserved": 0, "rental_uris": {"android": "https://dc.lft.to/lastmile_qr_scan", "ios": "https://dc.lft.to/lastmile_qr_scan"}, "lat": 38.90962666666667}, {"type": "electric_scooter", "name": "46cba0adb837e2f8f4d530d274299ad6", "fusion_lat": 0.0, "fusion_lon": 0.0, "lon": -77.03213616666666, "is_disabled": 0, "bike_id": "46cba0adb837e2f8f4d530d274299ad6", "is_reserved": 0, "rental_uris": {"android": "https://dc.lft.to/lastmile_qr_scan", "ios": "https://dc.lft.to/lastmile_qr_scan"}, "lat": 38.90719083333333}, {"type": "electric_scooter", "name": "4dbbfd932691f623e168429f0feabe4d", "fusion_lat": 0.0, "fusion_lon": 0.0, "lon": -77.02183, "is_disabled": 0, "bike_id": "4dbbfd932691f623e168429f0feabe4d", "is_reserved": 0, "rental_uris": {"android": "https://dc.lft.to/lastmile_qr_scan", "ios": "https://dc.lft.to/lastmile_qr_scan"}, "lat": 38.9021345}, {"type": "electric_scooter", "name": "8a86dbca968bfb6e6518e5b6f4fdae8d", "fusion_lat": 0.0, "fusion_lon": 0.0, "lon": -76.98096266666667, "is_disabled": 0, "bike_id": "8a86dbca968bfb6e6518e5b6f4fdae8d", "is_reserved": 0, "rental_uris": {"android": "https://dc.lft.to/lastmile_qr_scan", "ios": "https://dc.lft.to/lastmile_qr_scan"}, "lat": 38.904184}, {"type": "electric_scooter", "name": "eaf78a847baefd5d4a8982239ce6b6ed", "fusion_lat": 0.0, "fusion_lon": 0.0, "lon": -77.03885766666667, "is_disabled": 0, "bike_id": "eaf78a847baefd5d4a8982239ce6b6ed", "is_reserved": 0, "rental_uris": {"android": "https://dc.lft.to/lastmile_qr_scan", "ios": "https://dc.lft.to/lastmile_qr_scan"}, "lat": 38.922175833333334}, {"type": "electric_scooter", "name": "d1ece474cef72d2e719b1e88fd1ea9af", "fusion_lat": 0.0, "fusion_lon": 0.0, "lon": -77.0477585, "is_disabled": 0, "bike_id": "d1ece474cef72d2e719b1e88fd1ea9af", "is_reserved": 0, "rental_uris": {"android": "https://dc.lft.to/lastmile_qr_scan", "ios": "https://dc.lft.to/lastmile_qr_scan"}, "lat": 38.908542833333335}, {"type": "electric_scooter", "name": "2b6cfc70b6b0abc58b9650d1feb9d04a", "fusion_lat": 0.0, "fusion_lon": 0.0, "lon": -77.03768616666666, "is_disabled": 0, "bike_id": "2b6cfc70b6b0abc58b9650d1feb9d04a", "is_reserved": 0, "rental_uris": {"android": "https://dc.lft.to/lastmile_qr_scan", "ios": "https://dc.lft.to/lastmile_qr_scan"}, "lat": 38.902329333333334}, {"type": "electric_scooter", "name": "5f1d890d6a1923871093234764574821", "fusion_lat": 0.0, "fusion_lon": 0.0, "lon": -77.01757016666667, "is_disabled": 0, "bike_id": "5f1d890d6a1923871093234764574821", "is_reserved": 0, "rental_uris": {"android": "https://dc.lft.to/lastmile_qr_scan", "ios": "https://dc.lft.to/lastmile_qr_scan"}, "lat": 38.8768585}, {"type": "electric_scooter", "name": "a3df8d03c4d493b18d215966d157f53d", "fusion_lat": 0.0, "fusion_lon": 0.0, "lon": -77.017053, "is_disabled": 0, "bike_id": "a3df8d03c4d493b18d215966d157f53d", "is_reserved": 0, "rental_uris": {"android": "https://dc.lft.to/lastmile_qr_scan", "ios": "https://dc.lft.to/lastmile_qr_scan"}, "lat": 38.87295366666667}, {"type": "electric_scooter", "name": "d8559b2b23e83409f50bc62c855655c0", "fusion_lat": 0.0, "fusion_lon": 0.0, "lon": -77.03921733333334, "is_disabled": 0, "bike_id": "d8559b2b23e83409f50bc62c855655c0", "is_reserved": 0, "rental_uris": {"android": "https://dc.lft.to/lastmile_qr_scan", "ios": "https://dc.lft.to/lastmile_qr_scan"}, "lat": 38.92102583333333}, {"type": "electric_scooter", "name": "1a9329cb624194844171ebe3b3ce93a7", "fusion_lat": 0.0, "fusion_lon": 0.0, "lon": -77.0362875, "is_disabled": 0, "bike_id": "1a9329cb624194844171ebe3b3ce93a7", "is_reserved": 0, "rental_uris": {"android": "https://dc.lft.to/lastmile_qr_scan", "ios": "https://dc.lft.to/lastmile_qr_scan"}, "lat": 38.90382}, {"type": "electric_scooter", "name": "ca70382e52f76fa2b33c1cae3a523f70", "fusion_lat": 0.0, "fusion_lon": 0.0, "lon": -76.92626033333333, "is_disabled": 0, "bike_id": "ca70382e52f76fa2b33c1cae3a523f70", "is_reserved": 0, "rental_uris": {"android": "https://dc.lft.to/lastmile_qr_scan", "ios": "https://dc.lft.to/lastmile_qr_scan"}, "lat": 38.8837425}, {"type": "electric_scooter", "name": "ff62bd647ec5776cd807c5e70ecead6d", "fusion_lat": 0.0, "fusion_lon": 0.0, "lon": -77.03391366666666, "is_disabled": 0, "bike_id": "ff62bd647ec5776cd807c5e70ecead6d", "is_reserved": 0, "rental_uris": {"android": "https://dc.lft.to/lastmile_qr_scan", "ios": "https://dc.lft.to/lastmile_qr_scan"}, "lat": 38.909863}, {"type": "electric_scooter", "name": "f5372fddba88e841d1c769bf14046407", "fusion_lat": 0.0, "fusion_lon": 0.0, "lon": -76.92509683333333, "is_disabled": 0, "bike_id": "f5372fddba88e841d1c769bf14046407", "is_reserved": 0, "rental_uris": {"android": "https://dc.lft.to/lastmile_qr_scan", "ios": "https://dc.lft.to/lastmile_qr_scan"}, "lat": 38.885972333333335}, {"type": "electric_scooter", "name": "696529d71ed126a31ed0e7f615bba532", "fusion_lat": 0.0, "fusion_lon": 0.0, "lon": -77.036343, "is_disabled": 0, "bike_id": "696529d71ed126a31ed0e7f615bba532", "is_reserved": 0, "rental_uris": {"android": "https://dc.lft.to/lastmile_qr_scan", "ios": "https://dc.lft.to/lastmile_qr_scan"}, "lat": 38.93309466666667}, {"type": "electric_scooter", "name": "0ff9b8f9774c39a0a79a433142a7d7d7", "fusion_lat": 0.0, "fusion_lon": 0.0, "lon": -77.0042785, "is_disabled": 0, "bike_id": "0ff9b8f9774c39a0a79a433142a7d7d7", "is_reserved": 0, "rental_uris": {"android": "https://dc.lft.to/lastmile_qr_scan", "ios": "https://dc.lft.to/lastmile_qr_scan"}, "lat": 38.929484333333335}, {"type": "electric_scooter", "name": "677e989b92752428c77ebfbe5bf63183", "fusion_lat": 0.0, "fusion_lon": 0.0, "lon": -77.0366545, "is_disabled": 0, "bike_id": "677e989b92752428c77ebfbe5bf63183", "is_reserved": 0, "rental_uris": {"android": "https://dc.lft.to/lastmile_qr_scan", "ios": "https://dc.lft.to/lastmile_qr_scan"}, "lat": 38.910684}, {"type": "electric_scooter", "name": "026e2d05af84db0173620b3a04eb006f", "fusion_lat": 0.0, "fusion_lon": 0.0, "lon": -77.05694833333334, "is_disabled": 0, "bike_id": "026e2d05af84db0173620b3a04eb006f", "is_reserved": 0, "rental_uris": {"android": "https://dc.lft.to/lastmile_qr_scan", "ios": "https://dc.lft.to/lastmile_qr_scan"}, "lat": 38.937206333333336}, {"type": "electric_scooter", "name": "d3c13524f7d0f14aec2afa1da7fe6838", "fusion_lat": 0.0, "fusion_lon": 0.0, "lon": -76.98379633333333, "is_disabled": 0, "bike_id": "d3c13524f7d0f14aec2afa1da7fe6838", "is_reserved": 0, "rental_uris": {"android": "https://dc.lft.to/lastmile_qr_scan", "ios": "https://dc.lft.to/lastmile_qr_scan"}, "lat": 38.91283133333334}, {"type": "electric_scooter", "name": "80e550d912ea2b419aacfc4ca0ba1393", "fusion_lat": 0.0, "fusion_lon": 0.0, "lon": -77.0371075, "is_disabled": 0, "bike_id": "80e550d912ea2b419aacfc4ca0ba1393", "is_reserved": 0, "rental_uris": {"android": "https://dc.lft.to/lastmile_qr_scan", "ios": "https://dc.lft.to/lastmile_qr_scan"}, "lat": 38.91479916666667}, {"type": "electric_scooter", "name": "3a8c0878b6f8665f70864dcaa61cedb3", "fusion_lat": 0.0, "fusion_lon": 0.0, "lon": -77.03655883333333, "is_disabled": 0, "bike_id": "3a8c0878b6f8665f70864dcaa61cedb3", "is_reserved": 0, "rental_uris": {"android": "https://dc.lft.to/lastmile_qr_scan", "ios": "https://dc.lft.to/lastmile_qr_scan"}, "lat": 38.9362895}, {"type": "electric_scooter", "name": "7ebfe64ba9db1cea5a1dd583bba248b8", "fusion_lat": 0.0, "fusion_lon": 0.0, "lon": -77.03041666666667, "is_disabled": 0, "bike_id": "7ebfe64ba9db1cea5a1dd583bba248b8", "is_reserved": 0, "rental_uris": {"android": "https://dc.lft.to/lastmile_qr_scan", "ios": "https://dc.lft.to/lastmile_qr_scan"}, "lat": 38.990353}, {"type": "electric_scooter", "name": "67321303155c3bb4a4d3e915dd45a761", "fusion_lat": 0.0, "fusion_lon": 0.0, "lon": -77.02573466666666, "is_disabled": 0, "bike_id": "67321303155c3bb4a4d3e915dd45a761", "is_reserved": 0, "rental_uris": {"android": "https://dc.lft.to/lastmile_qr_scan", "ios": "https://dc.lft.to/lastmile_qr_scan"}, "lat": 38.91258916666666}, {"type": "electric_scooter", "name": "0fc17e20f1e3a8edf5dc9f3152ced4d3", "fusion_lat": 0.0, "fusion_lon": 0.0, "lon": -77.0550095, "is_disabled": 0, "bike_id": "0fc17e20f1e3a8edf5dc9f3152ced4d3", "is_reserved": 0, "rental_uris": {"android": "https://dc.lft.to/lastmile_qr_scan", "ios": "https://dc.lft.to/lastmile_qr_scan"}, "lat": 38.92840366666667}, {"type": "electric_scooter", "name": "2b4004f7ca5fea0e724981215a1200a9", "fusion_lat": 0.0, "fusion_lon": 0.0, "lon": -77.011862, "is_disabled": 0, "bike_id": "2b4004f7ca5fea0e724981215a1200a9", "is_reserved": 0, "rental_uris": {"android": "https://dc.lft.to/lastmile_qr_scan", "ios": "https://dc.lft.to/lastmile_qr_scan"}, "lat": 38.9003305}, {"type": "electric_scooter", "name": "7f6e686d028d744ca95d5e5ed6055abe", "fusion_lat": 0.0, "fusion_lon": 0.0, "lon": -77.03087766666667, "is_disabled": 0, "bike_id": "7f6e686d028d744ca95d5e5ed6055abe", "is_reserved": 0, "rental_uris": {"android": "https://dc.lft.to/lastmile_qr_scan", "ios": "https://dc.lft.to/lastmile_qr_scan"}, "lat": 38.8953955}, {"type": "electric_scooter", "name": "d3c556ff1d0cb860b719e3b890ff47db", "fusion_lat": 0.0, "fusion_lon": 0.0, "lon": -77.02550766666667, "is_disabled": 0, "bike_id": "d3c556ff1d0cb860b719e3b890ff47db", "is_reserved": 0, "rental_uris": {"android": "https://dc.lft.to/lastmile_qr_scan", "ios": "https://dc.lft.to/lastmile_qr_scan"}, "lat": 38.935182833333336}, {"type": "electric_scooter", "name": "09d2ae54dc522cf9014ac752bde1b1bc", "fusion_lat": 0.0, "fusion_lon": 0.0, "lon": -77.02974833333333, "is_disabled": 0, "bike_id": "09d2ae54dc522cf9014ac752bde1b1bc", "is_reserved": 0, "rental_uris": {"android": "https://dc.lft.to/lastmile_qr_scan", "ios": "https://dc.lft.to/lastmile_qr_scan"}, "lat": 38.92633383333333}, {"type": "electric_scooter", "name": "a157152c0aeacf7d8bf7085156baa9f7", "fusion_lat": 0.0, "fusion_lon": 0.0, "lon": -77.04603866666666, "is_disabled": 0, "bike_id": "a157152c0aeacf7d8bf7085156baa9f7", "is_reserved": 0, "rental_uris": {"android": "https://dc.lft.to/lastmile_qr_scan", "ios": "https://dc.lft.to/lastmile_qr_scan"}, "lat": 38.932961}, {"type": "electric_scooter", "name": "53f1d0fd86eb942bad23edb0b47e3851", "fusion_lat": 0.0, "fusion_lon": 0.0, "lon": -77.0366535, "is_disabled": 0, "bike_id": "53f1d0fd86eb942bad23edb0b47e3851", "is_reserved": 0, "rental_uris": {"android": "https://dc.lft.to/lastmile_qr_scan", "ios": "https://dc.lft.to/lastmile_qr_scan"}, "lat": 38.91812083333333}, {"type": "electric_scooter", "name": "74afd5817867f046c19c683c51eae354", "fusion_lat": 0.0, "fusion_lon": 0.0, "lon": -77.07270366666667, "is_disabled": 0, "bike_id": "74afd5817867f046c19c683c51eae354", "is_reserved": 0, "rental_uris": {"android": "https://dc.lft.to/lastmile_qr_scan", "ios": "https://dc.lft.to/lastmile_qr_scan"}, "lat": 38.934750666666666}, {"type": "electric_scooter", "name": "fbd658cab407733bff52a5b0da2d7304", "fusion_lat": 0.0, "fusion_lon": 0.0, "lon": -77.0216605, "is_disabled": 0, "bike_id": "fbd658cab407733bff52a5b0da2d7304", "is_reserved": 0, "rental_uris": {"android": "https://dc.lft.to/lastmile_qr_scan", "ios": "https://dc.lft.to/lastmile_qr_scan"}, "lat": 38.907818166666665}, {"type": "electric_scooter", "name": "178965a53f4a65ede4668e0e8a256d69", "fusion_lat": 0.0, "fusion_lon": 0.0, "lon": -77.0340305, "is_disabled": 0, "bike_id": "178965a53f4a65ede4668e0e8a256d69", "is_reserved": 0, "rental_uris": {"android": "https://dc.lft.to/lastmile_qr_scan", "ios": "https://dc.lft.to/lastmile_qr_scan"}, "lat": 38.9243935}, {"type": "electric_scooter", "name": "16eea42186c78295f196a5766c7e48e2", "fusion_lat": 0.0, "fusion_lon": 0.0, "lon": -77.03661083333333, "is_disabled": 0, "bike_id": "16eea42186c78295f196a5766c7e48e2", "is_reserved": 0, "rental_uris": {"android": "https://dc.lft.to/lastmile_qr_scan", "ios": "https://dc.lft.to/lastmile_qr_scan"}, "lat": 38.913197333333336}, {"type": "electric_scooter", "name": "7706f7d992fb80e7fc8d4bc1d017dc80", "fusion_lat": 0.0, "fusion_lon": 0.0, "lon": -77.03473766666667, "is_disabled": 0, "bike_id": "7706f7d992fb80e7fc8d4bc1d017dc80", "is_reserved": 0, "rental_uris": {"android": "https://dc.lft.to/lastmile_qr_scan", "ios": "https://dc.lft.to/lastmile_qr_scan"}, "lat": 38.935348166666664}, {"type": "electric_scooter", "name": "8555b06599a9ae6df17964d4ee9d05b6", "fusion_lat": 0.0, "fusion_lon": 0.0, "lon": -77.05501216666667, "is_disabled": 0, "bike_id": "8555b06599a9ae6df17964d4ee9d05b6", "is_reserved": 0, "rental_uris": {"android": "https://dc.lft.to/lastmile_qr_scan", "ios": "https://dc.lft.to/lastmile_qr_scan"}, "lat": 38.928375333333335}, {"type": "electric_scooter", "name": "c7f4856120819b64239cb19b1534a40f", "fusion_lat": 0.0, "fusion_lon": 0.0, "lon": -77.034512, "is_disabled": 0, "bike_id": "c7f4856120819b64239cb19b1534a40f", "is_reserved": 0, "rental_uris": {"android": "https://dc.lft.to/lastmile_qr_scan", "ios": "https://dc.lft.to/lastmile_qr_scan"}, "lat": 38.91598616666667}, {"type": "electric_scooter", "name": "3f03e29e74f778dea743b6eb81d6a34f", "fusion_lat": 0.0, "fusion_lon": 0.0, "lon": -77.03933716666667, "is_disabled": 0, "bike_id": "3f03e29e74f778dea743b6eb81d6a34f", "is_reserved": 0, "rental_uris": {"android": "https://dc.lft.to/lastmile_qr_scan", "ios": "https://dc.lft.to/lastmile_qr_scan"}, "lat": 38.902613}, {"type": "electric_scooter", "name": "e2dcbbe5e00dc4146a590fa56609071b", "fusion_lat": 0.0, "fusion_lon": 0.0, "lon": -77.0005385, "is_disabled": 0, "bike_id": "e2dcbbe5e00dc4146a590fa56609071b", "is_reserved": 0, "rental_uris": {"android": "https://dc.lft.to/lastmile_qr_scan", "ios": "https://dc.lft.to/lastmile_qr_scan"}, "lat": 38.87879866666667}, {"type": "electric_scooter", "name": "766f0fbc41481e56636fe31fc89aae79", "fusion_lat": 0.0, "fusion_lon": 0.0, "lon": -76.94468816666667, "is_disabled": 0, "bike_id": "766f0fbc41481e56636fe31fc89aae79", "is_reserved": 0, "rental_uris": {"android": "https://dc.lft.to/lastmile_qr_scan", "ios": "https://dc.lft.to/lastmile_qr_scan"}, "lat": 38.8902945}, {"type": "electric_bike", "name": "6c66c5cba4a0b1d98b2866d10dd5e396", "fusion_lat": 0.0, "fusion_lon": 0.0, "lon": -77.0605335, "is_disabled": 0, "bike_id": "6c66c5cba4a0b1d98b2866d10dd5e396", "is_reserved": 0, "rental_uris": {"android": "https://dc.lft.to/lastmile_qr_scan", "ios": "https://dc.lft.to/lastmile_qr_scan"}, "lat": 38.94340183333333}, {"type": "electric_scooter", "name": "c5b203264b0ea840e92b189d1b18b886", "fusion_lat": 0.0, "fusion_lon": 0.0, "lon": -77.038687, "is_disabled": 0, "bike_id": "c5b203264b0ea840e92b189d1b18b886", "is_reserved": 0, "rental_uris": {"android": "https://dc.lft.to/lastmile_qr_scan", "ios": "https://dc.lft.to/lastmile_qr_scan"}, "lat": 38.915504}, {"type": "electric_scooter", "name": "fe9892bab9c386cfc983ad743f1a4663", "fusion_lat": 0.0, "fusion_lon": 0.0, "lon": -77.05370533333334, "is_disabled": 0, "bike_id": "fe9892bab9c386cfc983ad743f1a4663", "is_reserved": 0, "rental_uris": {"android": "https://dc.lft.to/lastmile_qr_scan", "ios": "https://dc.lft.to/lastmile_qr_scan"}, "lat": 38.90375316666667}, {"type": "electric_scooter", "name": "3d942c096b836f24c8c5ce13a3dd4be3", "fusion_lat": 0.0, "fusion_lon": 0.0, "lon": -77.03297733333333, "is_disabled": 0, "bike_id": "3d942c096b836f24c8c5ce13a3dd4be3", "is_reserved": 0, "rental_uris": {"android": "https://dc.lft.to/lastmile_qr_scan", "ios": "https://dc.lft.to/lastmile_qr_scan"}, "lat": 38.92750183333333}, {"type": "electric_bike", "name": "b03b39e89da33371fec079baa0b6caf8", "fusion_lat": 0.0, "fusion_lon": 0.0, "lon": -76.9917905, "is_disabled": 0, "bike_id": "b03b39e89da33371fec079baa0b6caf8", "is_reserved": 0, "rental_uris": {"android": "https://dc.lft.to/lastmile_qr_scan", "ios": "https://dc.lft.to/lastmile_qr_scan"}, "lat": 38.96080216666667}, {"type": "electric_scooter", "name": "299f5cc881e519695b3b9932d24b6635", "fusion_lat": 0.0, "fusion_lon": 0.0, "lon": -77.06090533333334, "is_disabled": 0, "bike_id": "299f5cc881e519695b3b9932d24b6635", "is_reserved": 0, "rental_uris": {"android": "https://dc.lft.to/lastmile_qr_scan", "ios": "https://dc.lft.to/lastmile_qr_scan"}, "lat": 38.940546166666664}, {"type": "electric_bike", "name": "4b07529dbe61a5d27e4c40826b5b4f56", "fusion_lat": 0.0, "fusion_lon": 0.0, "lon": -77.016672, "is_disabled": 0, "bike_id": "4b07529dbe61a5d27e4c40826b5b4f56", "is_reserved": 0, "rental_uris": {"android": "https://dc.lft.to/lastmile_qr_scan", "ios": "https://dc.lft.to/lastmile_qr_scan"}, "lat": 38.881442666666665}, {"type": "electric_scooter", "name": "28a12119ee233053a066a9afd2a3578f", "fusion_lat": 0.0, "fusion_lon": 0.0, "lon": -77.02179416666667, "is_disabled": 0, "bike_id": "28a12119ee233053a066a9afd2a3578f", "is_reserved": 0, "rental_uris": {"android": "https://dc.lft.to/lastmile_qr_scan", "ios": "https://dc.lft.to/lastmile_qr_scan"}, "lat": 38.905439666666666}, {"type": "electric_bike", "name": "496f0d67149182e5a65cc82eb7466325", "fusion_lat": 0.0, "fusion_lon": 0.0, "lon": -77.001355, "is_disabled": 0, "bike_id": "496f0d67149182e5a65cc82eb7466325", "is_reserved": 0, "rental_uris": {"android": "https://dc.lft.to/lastmile_qr_scan", "ios": "https://dc.lft.to/lastmile_qr_scan"}, "lat": 38.994972}, {"type": "electric_scooter", "name": "750d2af3b200c2a604a7a1afe52a21b1", "fusion_lat": 0.0, "fusion_lon": 0.0, "lon": -77.0312025, "is_disabled": 0, "bike_id": "750d2af3b200c2a604a7a1afe52a21b1", "is_reserved": 0, "rental_uris": {"android": "https://dc.lft.to/lastmile_qr_scan", "ios": "https://dc.lft.to/lastmile_qr_scan"}, "lat": 38.92307983333333}, {"type": "electric_scooter", "name": "4c9b3c3ce839ac993cae1d9d8afb4fb6", "fusion_lat": 0.0, "fusion_lon": 0.0, "lon": -76.99793366666667, "is_disabled": 0, "bike_id": "4c9b3c3ce839ac993cae1d9d8afb4fb6", "is_reserved": 0, "rental_uris": {"android": "https://dc.lft.to/lastmile_qr_scan", "ios": "https://dc.lft.to/lastmile_qr_scan"}, "lat": 38.876313333333336}, {"type": "electric_scooter", "name": "c9c2c8e78f0e6f257a5a1baa10d98b55", "fusion_lat": 0.0, "fusion_lon": 0.0, "lon": -76.97564416666667, "is_disabled": 0, "bike_id": "c9c2c8e78f0e6f257a5a1baa10d98b55", "is_reserved": 0, "rental_uris": {"android": "https://dc.lft.to/lastmile_qr_scan", "ios": "https://dc.lft.to/lastmile_qr_scan"}, "lat": 38.94422866666667}, {"type": "electric_bike", "name": "3d494b4fd44f9aa451f8246816706ae9", "fusion_lat": 0.0, "fusion_lon": 0.0, "lon": -76.9579345, "is_disabled": 0, "bike_id": "3d494b4fd44f9aa451f8246816706ae9", "is_reserved": 0, "rental_uris": {"android": "https://dc.lft.to/lastmile_qr_scan", "ios": "https://dc.lft.to/lastmile_qr_scan"}, "lat": 38.980454}, {"type": "electric_scooter", "name": "e355c835dc3efaf3c158235d5dede4a7", "fusion_lat": 0.0, "fusion_lon": 0.0, "lon": -76.94930966666666, "is_disabled": 0, "bike_id": "e355c835dc3efaf3c158235d5dede4a7", "is_reserved": 0, "rental_uris": {"android": "https://dc.lft.to/lastmile_qr_scan", "ios": "https://dc.lft.to/lastmile_qr_scan"}, "lat": 38.895309166666664}, {"type": "electric_scooter", "name": "780c8295453347dd98909497397ee4c9", "fusion_lat": 0.0, "fusion_lon": 0.0, "lon": -76.994095, "is_disabled": 0, "bike_id": "780c8295453347dd98909497397ee4c9", "is_reserved": 0, "rental_uris": {"android": "https://dc.lft.to/lastmile_qr_scan", "ios": "https://dc.lft.to/lastmile_qr_scan"}, "lat": 38.877836}, {"type": "electric_scooter", "name": "e8bdb8ffa5d79ca1420183dc4dbfb29f", "fusion_lat": 0.0, "fusion_lon": 0.0, "lon": -77.07340683333334, "is_disabled": 0, "bike_id": "e8bdb8ffa5d79ca1420183dc4dbfb29f", "is_reserved": 0, "rental_uris": {"android": "https://dc.lft.to/lastmile_qr_scan", "ios": "https://dc.lft.to/lastmile_qr_scan"}, "lat": 38.96093233333333}, {"type": "electric_scooter", "name": "fc98c65332603a93093c2816f04bf8f0", "fusion_lat": 0.0, "fusion_lon": 0.0, "lon": -77.03072866666666, "is_disabled": 0, "bike_id": "fc98c65332603a93093c2816f04bf8f0", "is_reserved": 0, "rental_uris": {"android": "https://dc.lft.to/lastmile_qr_scan", "ios": "https://dc.lft.to/lastmile_qr_scan"}, "lat": 38.920388833333334}, {"type": "electric_scooter", "name": "8ac40502347534485dd7e91564d44d55", "fusion_lat": 0.0, "fusion_lon": 0.0, "lon": -77.03174183333333, "is_disabled": 0, "bike_id": "8ac40502347534485dd7e91564d44d55", "is_reserved": 0, "rental_uris": {"android": "https://dc.lft.to/lastmile_qr_scan", "ios": "https://dc.lft.to/lastmile_qr_scan"}, "lat": 38.92104533333333}, {"type": "electric_scooter", "name": "9db786f2017fe15d23b116bbb255035a", "fusion_lat": 0.0, "fusion_lon": 0.0, "lon": -77.02803383333334, "is_disabled": 0, "bike_id": "9db786f2017fe15d23b116bbb255035a", "is_reserved": 0, "rental_uris": {"android": "https://dc.lft.to/lastmile_qr_scan", "ios": "https://dc.lft.to/lastmile_qr_scan"}, "lat": 38.9307955}, {"type": "electric_bike", "name": "91ae23e737fe9c5c27d943eae00f93be", "fusion_lat": 0.0, "fusion_lon": 0.0, "lon": -77.02001433333334, "is_disabled": 0, "bike_id": "91ae23e737fe9c5c27d943eae00f93be", "is_reserved": 0, "rental_uris": {"android": "https://dc.lft.to/lastmile_qr_scan", "ios": "https://dc.lft.to/lastmile_qr_scan"}, "lat": 38.89789866666667}, {"type": "electric_scooter", "name": "19287e18377bcf16f421c2b622d76554", "fusion_lat": 0.0, "fusion_lon": 0.0, "lon": -77.02438316666667, "is_disabled": 0, "bike_id": "19287e18377bcf16f421c2b622d76554", "is_reserved": 0, "rental_uris": {"android": "https://dc.lft.to/lastmile_qr_scan", "ios": "https://dc.lft.to/lastmile_qr_scan"}, "lat": 38.92062216666667}, {"type": "electric_scooter", "name": "54205f7c0bc805093afecc6f0ce049f8", "fusion_lat": 0.0, "fusion_lon": 0.0, "lon": -77.0146145, "is_disabled": 0, "bike_id": "54205f7c0bc805093afecc6f0ce049f8", "is_reserved": 0, "rental_uris": {"android": "https://dc.lft.to/lastmile_qr_scan", "ios": "https://dc.lft.to/lastmile_qr_scan"}, "lat": 38.906468}, {"type": "electric_bike", "name": "db0b1ab5811b046bd40204734b444920", "fusion_lat": 0.0, "fusion_lon": 0.0, "lon": -77.0789505, "is_disabled": 0, "bike_id": "db0b1ab5811b046bd40204734b444920", "is_reserved": 0, "rental_uris": {"android": "https://dc.lft.to/lastmile_qr_scan", "ios": "https://dc.lft.to/lastmile_qr_scan"}, "lat": 38.92544683333333}, {"type": "electric_scooter", "name": "67eaf06b1f416e2a63c5fb0037acf530", "fusion_lat": 0.0, "fusion_lon": 0.0, "lon": -77.01811183333334, "is_disabled": 0, "bike_id": "67eaf06b1f416e2a63c5fb0037acf530", "is_reserved": 0, "rental_uris": {"android": "https://dc.lft.to/lastmile_qr_scan", "ios": "https://dc.lft.to/lastmile_qr_scan"}, "lat": 38.9222165}, {"type": "electric_scooter", "name": "b8f15fc77b64d8863ac5ae48e51b1b44", "fusion_lat": 0.0, "fusion_lon": 0.0, "lon": -77.03177766666667, "is_disabled": 0, "bike_id": "b8f15fc77b64d8863ac5ae48e51b1b44", "is_reserved": 0, "rental_uris": {"android": "https://dc.lft.to/lastmile_qr_scan", "ios": "https://dc.lft.to/lastmile_qr_scan"}, "lat": 38.91818633333333}, {"type": "electric_scooter", "name": "771d6fd03901e11b148d9681e0fca169", "fusion_lat": 0.0, "fusion_lon": 0.0, "lon": -77.0217735, "is_disabled": 0, "bike_id": "771d6fd03901e11b148d9681e0fca169", "is_reserved": 0, "rental_uris": {"android": "https://dc.lft.to/lastmile_qr_scan", "ios": "https://dc.lft.to/lastmile_qr_scan"}, "lat": 38.919956}, {"type": "electric_scooter", "name": "23b74e2b6ac7fe5e48af16cf0e00eaf4", "fusion_lat": 0.0, "fusion_lon": 0.0, "lon": -77.01729916666666, "is_disabled": 0, "bike_id": "23b74e2b6ac7fe5e48af16cf0e00eaf4", "is_reserved": 0, "rental_uris": {"android": "https://dc.lft.to/lastmile_qr_scan", "ios": "https://dc.lft.to/lastmile_qr_scan"}, "lat": 38.9023495}, {"type": "electric_scooter", "name": "4021140ea15531cdcfc744af66f6dbb0", "fusion_lat": 0.0, "fusion_lon": 0.0, "lon": -77.036037, "is_disabled": 0, "bike_id": "4021140ea15531cdcfc744af66f6dbb0", "is_reserved": 0, "rental_uris": {"android": "https://dc.lft.to/lastmile_qr_scan", "ios": "https://dc.lft.to/lastmile_qr_scan"}, "lat": 38.92777683333333}, {"type": "electric_scooter", "name": "23ebaa4833ce7487b165ccce863d6916", "fusion_lat": 0.0, "fusion_lon": 0.0, "lon": -77.0154285, "is_disabled": 0, "bike_id": "23ebaa4833ce7487b165ccce863d6916", "is_reserved": 0, "rental_uris": {"android": "https://dc.lft.to/lastmile_qr_scan", "ios": "https://dc.lft.to/lastmile_qr_scan"}, "lat": 38.90251833333333}, {"type": "electric_scooter", "name": "f2abbde4dc8c812b72431c3e08734c41", "fusion_lat": 0.0, "fusion_lon": 0.0, "lon": -77.018854, "is_disabled": 0, "bike_id": "f2abbde4dc8c812b72431c3e08734c41", "is_reserved": 0, "rental_uris": {"android": "https://dc.lft.to/lastmile_qr_scan", "ios": "https://dc.lft.to/lastmile_qr_scan"}, "lat": 38.899344166666666}, {"type": "electric_bike", "name": "7a2dcfc04322784b18c6e0bf3a91d618", "fusion_lat": 0.0, "fusion_lon": 0.0, "lon": -77.10692283333333, "is_disabled": 0, "bike_id": "7a2dcfc04322784b18c6e0bf3a91d618", "is_reserved": 0, "rental_uris": {"android": "https://dc.lft.to/lastmile_qr_scan", "ios": "https://dc.lft.to/lastmile_qr_scan"}, "lat": 38.85594}, {"type": "electric_scooter", "name": "5ce5c52f8689efcbf3b629556f75f9db", "fusion_lat": 0.0, "fusion_lon": 0.0, "lon": -77.029635, "is_disabled": 0, "bike_id": "5ce5c52f8689efcbf3b629556f75f9db", "is_reserved": 0, "rental_uris": {"android": "https://dc.lft.to/lastmile_qr_scan", "ios": "https://dc.lft.to/lastmile_qr_scan"}, "lat": 38.904097}, {"type": "electric_scooter", "name": "a8259684c927b7df436656fe8b540da7", "fusion_lat": 0.0, "fusion_lon": 0.0, "lon": -77.02177883333333, "is_disabled": 0, "bike_id": "a8259684c927b7df436656fe8b540da7", "is_reserved": 0, "rental_uris": {"android": "https://dc.lft.to/lastmile_qr_scan", "ios": "https://dc.lft.to/lastmile_qr_scan"}, "lat": 38.91109333333333}, {"type": "electric_scooter", "name": "0db062521de01297b2be0c3cc3784492", "fusion_lat": 0.0, "fusion_lon": 0.0, "lon": -77.00101816666667, "is_disabled": 0, "bike_id": "0db062521de01297b2be0c3cc3784492", "is_reserved": 0, "rental_uris": {"android": "https://dc.lft.to/lastmile_qr_scan", "ios": "https://dc.lft.to/lastmile_qr_scan"}, "lat": 38.87631016666667}, {"type": "electric_scooter", "name": "06febb0e32cb25d44bebab84f134315a", "fusion_lat": 0.0, "fusion_lon": 0.0, "lon": -77.02794916666667, "is_disabled": 0, "bike_id": "06febb0e32cb25d44bebab84f134315a", "is_reserved": 0, "rental_uris": {"android": "https://dc.lft.to/lastmile_qr_scan", "ios": "https://dc.lft.to/lastmile_qr_scan"}, "lat": 38.92317166666667}, {"type": "electric_scooter", "name": "d08d8f78bdd4da00822e00e764a466bb", "fusion_lat": 0.0, "fusion_lon": 0.0, "lon": -77.00602516666666, "is_disabled": 0, "bike_id": "d08d8f78bdd4da00822e00e764a466bb", "is_reserved": 0, "rental_uris": {"android": "https://dc.lft.to/lastmile_qr_scan", "ios": "https://dc.lft.to/lastmile_qr_scan"}, "lat": 38.8757565}, {"type": "electric_bike", "name": "7b2809725babda44f9c91d43894b2c28", "fusion_lat": 0.0, "fusion_lon": 0.0, "lon": -77.037098, "is_disabled": 0, "bike_id": "7b2809725babda44f9c91d43894b2c28", "is_reserved": 0, "rental_uris": {"android": "https://dc.lft.to/lastmile_qr_scan", "ios": "https://dc.lft.to/lastmile_qr_scan"}, "lat": 38.93559033333333}, {"type": "electric_scooter", "name": "1f7f955be553e7897b112c6bc5fd32b8", "fusion_lat": 0.0, "fusion_lon": 0.0, "lon": -77.0400745, "is_disabled": 0, "bike_id": "1f7f955be553e7897b112c6bc5fd32b8", "is_reserved": 0, "rental_uris": {"android": "https://dc.lft.to/lastmile_qr_scan", "ios": "https://dc.lft.to/lastmile_qr_scan"}, "lat": 38.910008833333336}, {"type": "electric_scooter", "name": "e6cdbd6beffec43ae96c83cca5fbb2c1", "fusion_lat": 0.0, "fusion_lon": 0.0, "lon": -77.033024, "is_disabled": 0, "bike_id": "e6cdbd6beffec43ae96c83cca5fbb2c1", "is_reserved": 0, "rental_uris": {"android": "https://dc.lft.to/lastmile_qr_scan", "ios": "https://dc.lft.to/lastmile_qr_scan"}, "lat": 38.926427833333335}, {"type": "electric_scooter", "name": "daa6ee4a43b0dd64757b8814beebbde2", "fusion_lat": 0.0, "fusion_lon": 0.0, "lon": -77.01391333333333, "is_disabled": 0, "bike_id": "daa6ee4a43b0dd64757b8814beebbde2", "is_reserved": 0, "rental_uris": {"android": "https://dc.lft.to/lastmile_qr_scan", "ios": "https://dc.lft.to/lastmile_qr_scan"}, "lat": 38.87896166666667}, {"type": "electric_bike", "name": "6e5ab48318745230a3ea574056cff0c0", "fusion_lat": 0.0, "fusion_lon": 0.0, "lon": -77.0327125, "is_disabled": 0, "bike_id": "6e5ab48318745230a3ea574056cff0c0", "is_reserved": 0, "rental_uris": {"android": "https://dc.lft.to/lastmile_qr_scan", "ios": "https://dc.lft.to/lastmile_qr_scan"}, "lat": 38.9612245}, {"type": "electric_scooter", "name": "ee447fa53b4c8041a2a24427d0236fe5", "fusion_lat": 0.0, "fusion_lon": 0.0, "lon": -77.03967683333333, "is_disabled": 0, "bike_id": "ee447fa53b4c8041a2a24427d0236fe5", "is_reserved": 0, "rental_uris": {"android": "https://dc.lft.to/lastmile_qr_scan", "ios": "https://dc.lft.to/lastmile_qr_scan"}, "lat": 38.9000245}, {"type": "electric_scooter", "name": "50c94d6ef6ab6c532809a37820ee8d64", "fusion_lat": 0.0, "fusion_lon": 0.0, "lon": -77.03264733333333, "is_disabled": 0, "bike_id": "50c94d6ef6ab6c532809a37820ee8d64", "is_reserved": 0, "rental_uris": {"android": "https://dc.lft.to/lastmile_qr_scan", "ios": "https://dc.lft.to/lastmile_qr_scan"}, "lat": 38.937317666666665}, {"type": "electric_bike", "name": "d65bd45bb9148ac63c798e2d4c1255cd", "fusion_lat": 0.0, "fusion_lon": 0.0, "lon": -77.002066, "is_disabled": 0, "bike_id": "d65bd45bb9148ac63c798e2d4c1255cd", "is_reserved": 0, "rental_uris": {"android": "https://dc.lft.to/lastmile_qr_scan", "ios": "https://dc.lft.to/lastmile_qr_scan"}, "lat": 38.988456166666666}, {"type": "electric_scooter", "name": "ea5afae33bb5c88e0a1eca50f3cd0b84", "fusion_lat": 0.0, "fusion_lon": 0.0, "lon": -77.02271166666667, "is_disabled": 0, "bike_id": "ea5afae33bb5c88e0a1eca50f3cd0b84", "is_reserved": 0, "rental_uris": {"android": "https://dc.lft.to/lastmile_qr_scan", "ios": "https://dc.lft.to/lastmile_qr_scan"}, "lat": 38.901412}, {"type": "electric_scooter", "name": "cfa98ee5d91426c9fe9b6cf0be832970", "fusion_lat": 0.0, "fusion_lon": 0.0, "lon": -77.041925, "is_disabled": 0, "bike_id": "cfa98ee5d91426c9fe9b6cf0be832970", "is_reserved": 0, "rental_uris": {"android": "https://dc.lft.to/lastmile_qr_scan", "ios": "https://dc.lft.to/lastmile_qr_scan"}, "lat": 38.923319166666666}, {"type": "electric_scooter", "name": "1512928a4c4bdd5ea48ebbe05f57c635", "fusion_lat": 0.0, "fusion_lon": 0.0, "lon": -76.98333316666667, "is_disabled": 0, "bike_id": "1512928a4c4bdd5ea48ebbe05f57c635", "is_reserved": 0, "rental_uris": {"android": "https://dc.lft.to/lastmile_qr_scan", "ios": "https://dc.lft.to/lastmile_qr_scan"}, "lat": 38.90089733333333}, {"type": "electric_scooter", "name": "34a66dd5f0f025d3286e166853a5f3d9", "fusion_lat": 0.0, "fusion_lon": 0.0, "lon": -77.01711566666667, "is_disabled": 0, "bike_id": "34a66dd5f0f025d3286e166853a5f3d9", "is_reserved": 0, "rental_uris": {"android": "https://dc.lft.to/lastmile_qr_scan", "ios": "https://dc.lft.to/lastmile_qr_scan"}, "lat": 38.911157}, {"type": "electric_scooter", "name": "24a02595d27bb3c4788ec1386f269ef9", "fusion_lat": 0.0, "fusion_lon": 0.0, "lon": -77.02387533333334, "is_disabled": 0, "bike_id": "24a02595d27bb3c4788ec1386f269ef9", "is_reserved": 0, "rental_uris": {"android": "https://dc.lft.to/lastmile_qr_scan", "ios": "https://dc.lft.to/lastmile_qr_scan"}, "lat": 38.90337233333333},