{"data": {"bikes": [{"rental_uris": {"ios": "https://dc.lft.to/lastmile_qr_scan", "android": "https://dc.lft.to/lastmile_qr_scan"}, "lon": -76.9988815, "type": "electric_scooter", "fusion_lat": 0.0, "lat": 38.90755133333333, "name": "d0a3307e716c04bc10c67fa487c92a64", "fusion_lon": 0.0, "bike_id": "d0a3307e716c04bc10c67fa487c92a64", "is_disabled": 0, "is_reserved": 0}, {"rental_uris": {"ios": "https://dc.lft.to/lastmile_qr_scan", "android": "https://dc.lft.to/lastmile_qr_scan"}, "lon": -77.01835883333334, "type": "electric_scooter", "fusion_lat": 0.0, "lat": 38.913482, "name": "9d80fa3da3b3102fc13a32221a0c3d4e", "fusion_lon": 0.0, "bike_id": "9d80fa3da3b3102fc13a32221a0c3d4e", "is_disabled": 0, "is_reserved": 0}, {"rental_uris": {"ios": "https://dc.lft.to/lastmile_qr_scan", "android": "https://dc.lft.to/lastmile_qr_scan"}, "lon": -76.98559416666667, "type": "electric_bike", "fusion_lat": 0.0, "lat": 38.868907666666665, "name": "c2f92716c92b99fc32ef58d7cd182891", "fusion_lon": 0.0, "bike_id": "c2f92716c92b99fc32ef58d7cd182891", "is_disabled": 0, "is_reserved": 0}, {"rental_uris": {"ios": "https://dc.lft.to/lastmile_qr_scan", "android": "https://dc.lft.to/lastmile_qr_scan"}, "lon": -77.07660133333333, "type": "electric_scooter", "fusion_lat": 0.0, "lat": 38.906298, "name": "cdf693850a376dd2fe56bd8c936abb39", "fusion_lon": 0.0, "bike_id": "cdf693850a376dd2fe56bd8c936abb39", "is_disabled": 0, "is_reserved": 0}, {"rental_uris": {"ios": "https://dc.lft.to/lastmile_qr_scan", "android": "https://dc.lft.to/lastmile_qr_scan"}, "lon": -77.02201383333333, "type": "electric_scooter", "fusion_lat": 0.0, "lat": 38.91693816666667, "name": "ce46616e70b76ed9fa78caeb6875d21e", "fusion_lon": 0.0, "bike_id": "ce46616e70b76ed9fa78caeb6875d21e", "is_disabled": 0, "is_reserved": 0}, {"rental_uris": {"ios": "https://dc.lft.to/lastmile_qr_scan", "android": "https://dc.lft.to/lastmile_qr_scan"}, "lon": -77.02697833333333, "type": "electric_scooter", "fusion_lat": 0.0, "lat": 38.909303666666666, "name": "af6d7ae43a31c7a8cc549bc70a1f646b", "fusion_lon": 0.0, "bike_id": "af6d7ae43a31c7a8cc549bc70a1f646b", "is_disabled": 0, "is_reserved": 0}, {"rental_uris": {"ios": "https://dc.lft.to/lastmile_qr_scan", "android": "https://dc.lft.to/lastmile_qr_scan"}, "lon": -76.99144083333333, "type": "electric_scooter", "fusion_lat": 0.0, "lat": 38.8858945, "name": "b6e0692a3eec5359025a521266b963f4", "fusion_lon": 0.0, "bike_id": "b6e0692a3eec5359025a521266b963f4", "is_disabled": 0, "is_reserved": 0}, {"rental_uris": {"ios": "https://dc.lft.to/lastmile_qr_scan", "android": "https://dc.lft.to/lastmile_qr_scan"}, "lon": -77.04229066666667, "type": "electric_scooter", "fusion_lat": 0.0, "lat": 38.9111015, "name": "3a7070ddd9bef74ef273ef3c0f26642c", "fusion_lon": 0.0, "bike_id": "3a7070ddd9bef74ef273ef3c0f26642c", "is_disabled": 0, "is_reserved": 0}, {"rental_uris": {"ios": "https://dc.lft.to/lastmile_qr_scan", "android": "https://dc.lft.to/lastmile_qr_scan"}, "lon": -77.05133866666667, "type": "electric_scooter", "fusion_lat": 0.0, "lat": 38.905988, "name": "cdbbd8843904471ee51c6e8721f5e0d3", "fusion_lon": 0.0, "bike_id": "cdbbd8843904471ee51c6e8721f5e0d3", "is_disabled": 0, "is_reserved": 0}, {"rental_uris": {"ios": "https://dc.lft.to/lastmile_qr_scan", "android": "https://dc.lft.to/lastmile_qr_scan"}, "lon": -77.04154066666666, "type": "electric_scooter", "fusion_lat": 0.0, "lat": 38.91749183333334, "name": "063f73f79ea39c3676438afdf62d09c4", "fusion_lon": 0.0, "bike_id": "063f73f79ea39c3676438afdf62d09c4", "is_disabled": 0, "is_reserved": 0}, {"rental_uris": {"ios": "https://dc.lft.to/lastmile_qr_scan", "android": "https://dc.lft.to/lastmile_qr_scan"}, "lon": -77.02497533333333, "type": "electric_scooter", "fusion_lat": 0.0, "lat": 38.90647583333333, "name": "ff8854a7d1871595327076812e8214d9", "fusion_lon": 0.0, "bike_id": "ff8854a7d1871595327076812e8214d9", "is_disabled": 0, "is_reserved": 0}, {"rental_uris": {"ios": "https://dc.lft.to/lastmile_qr_scan", "android": "https://dc.lft.to/lastmile_qr_scan"}, "lon": -76.955167, "type": "electric_scooter", "fusion_lat": 0.0, "lat": 38.890558166666665, "name": "80c04f730825c8e020113b9b2d25ca84", "fusion_lon": 0.0, "bike_id": "80c04f730825c8e020113b9b2d25ca84", "is_disabled": 0, "is_reserved": 0}, {"rental_uris": {"ios": "https://dc.lft.to/lastmile_qr_scan", "android": "https://dc.lft.to/lastmile_qr_scan"}, "lon": -77.04266816666667, "type": "electric_scooter", "fusion_lat": 0.0, "lat": 38.934156333333334, "name": "689d3e9874a2e7be809080ca5640adca", "fusion_lon": 0.0, "bike_id": "689d3e9874a2e7be809080ca5640adca", "is_disabled": 0, "is_reserved": 0}, {"rental_uris": {"ios": "https://dc.lft.to/lastmile_qr_scan", "android": "https://dc.lft.to/lastmile_qr_scan"}, "lon": -77.03196516666667, "type": "electric_scooter", "fusion_lat": 0.0, "lat": 38.89372866666667, "name": "81bab99c5b1524133e4f49d2737ff826", "fusion_lon": 0.0, "bike_id": "81bab99c5b1524133e4f49d2737ff826", "is_disabled": 0, "is_reserved": 0}, {"rental_uris": {"ios": "https://dc.lft.to/lastmile_qr_scan", "android": "https://dc.lft.to/lastmile_qr_scan"}, "lon": -77.0329005, "type": "electric_scooter", "fusion_lat": 0.0, "lat": 38.92880616666667, "name": "c140155509b4d9fb399976cc4c7b0793", "fusion_lon": 0.0, "bike_id": "c140155509b4d9fb399976cc4c7b0793", "is_disabled": 0, "is_reserved": 0}, {"rental_uris": {"ios": "https://dc.lft.to/lastmile_qr_scan", "android": "https://dc.lft.to/lastmile_qr_scan"}, "lon": -77.046365, "type": "electric_scooter", "fusion_lat": 0.0, "lat": 38.89228466666667, "name": "7c1290720bc9cecb90a35f7aba3e6ca7", "fusion_lon": 0.0, "bike_id": "7c1290720bc9cecb90a35f7aba3e6ca7", "is_disabled": 0, "is_reserved": 0}, {"rental_uris": {"ios": "https://dc.lft.to/lastmile_qr_scan", "android": "https://dc.lft.to/lastmile_qr_scan"}, "lon": -76.9462675, "type": "electric_bike", "fusion_lat": 0.0, "lat": 38.946232333333334, "name": "568c911bea6e678f3efb1c104f99498e", "fusion_lon": 0.0, "bike_id": "568c911bea6e678f3efb1c104f99498e", "is_disabled": 0, "is_reserved": 0}, {"rental_uris": {"ios": "https://dc.lft.to/lastmile_qr_scan", "android": "https://dc.lft.to/lastmile_qr_scan"}, "lon": -76.97205283333334, "type": "electric_scooter", "fusion_lat": 0.0, "lat": 38.85496283333333, "name": "b3268abfc7d49310e7d8b2df7ed419e2", "fusion_lon": 0.0, "bike_id": "b3268abfc7d49310e7d8b2df7ed419e2", "is_disabled": 0, "is_reserved": 0}, {"rental_uris": {"ios": "https://dc.lft.to/lastmile_qr_scan", "android": "https://dc.lft.to/lastmile_qr_scan"}, "lon": -77.03687566666666, "type": "electric_scooter", "fusion_lat": 0.0, "lat": 38.916805833333335, "name": "b1c3272cbfe75ed34e4e75cb6e5e67f7", "fusion_lon": 0.0, "bike_id": "b1c3272cbfe75ed34e4e75cb6e5e67f7", "is_disabled": 0, "is_reserved": 0}, {"rental_uris": {"ios": "https://dc.lft.to/lastmile_qr_scan", "android": "https://dc.lft.to/lastmile_qr_scan"}, "lon": -77.04403933333333, "type": "electric_scooter", "fusion_lat": 0.0, "lat": 38.910854, "name": "3e5c05c3d53535b70a7f70a1d2b8d35e", "fusion_lon": 0.0, "bike_id": "3e5c05c3d53535b70a7f70a1d2b8d35e", "is_disabled": 0, "is_reserved": 0}, {"rental_uris": {"ios": "https://dc.lft.to/lastmile_qr_scan", "android": "https://dc.lft.to/lastmile_qr_scan"}, "lon": -77.06910133333334, "type": "electric_scooter", "fusion_lat": 0.0, "lat": 38.907520166666664, "name": "c669433eced0cee9d25a6ab5a44fd8f6", "fusion_lon": 0.0, "bike_id": "c669433eced0cee9d25a6ab5a44fd8f6", "is_disabled": 0, "is_reserved": 0}, {"rental_uris": {"ios": "https://dc.lft.to/lastmile_qr_scan", "android": "https://dc.lft.to/lastmile_qr_scan"}, "lon": -77.02669833333333, "type": "electric_bike", "fusion_lat": 0.0, "lat": 38.99748366666667, "name": "ddfde8bcf2499f3f7292eac55e490792", "fusion_lon": 0.0, "bike_id": "ddfde8bcf2499f3f7292eac55e490792", "is_disabled": 0, "is_reserved": 0}, {"rental_uris": {"ios": "https://dc.lft.to/lastmile_qr_scan", "android": "https://dc.lft.to/lastmile_qr_scan"}, "lon": -77.02003766666667, "type": "electric_scooter", "fusion_lat": 0.0, "lat": 38.90252816666667, "name": "9d38980ecf8e925f142fd6b443232396", "fusion_lon": 0.0, "bike_id": "9d38980ecf8e925f142fd6b443232396", "is_disabled": 0, "is_reserved": 0}, {"rental_uris": {"ios": "https://dc.lft.to/lastmile_qr_scan", "android": "https://dc.lft.to/lastmile_qr_scan"}, "lon": -77.10721133333334, "type": "electric_bike", "fusion_lat": 0.0, "lat": 38.8553745, "name": "efc91ba055f985837dbb062249f58e41", "fusion_lon": 0.0, "bike_id": "efc91ba055f985837dbb062249f58e41", "is_disabled": 0, "is_reserved": 0}, {"rental_uris": {"ios": "https://dc.lft.to/lastmile_qr_scan", "android": "https://dc.lft.to/lastmile_qr_scan"}, "lon": -77.06607033333333, "type": "electric_scooter", "fusion_lat": 0.0, "lat": 38.905215, "name": "522c6268eeaee7c0d0b5f0263019d142", "fusion_lon": 0.0, "bike_id": "522c6268eeaee7c0d0b5f0263019d142", "is_disabled": 0, "is_reserved": 0}, {"rental_uris": {"ios": "https://dc.lft.to/lastmile_qr_scan", "android": "https://dc.lft.to/lastmile_qr_scan"}, "lon": -77.01371783333333, "type": "electric_scooter", "fusion_lat": 0.0, "lat": 38.875910166666664, "name": "3c5c4b309e2894822e4f548b42c16748", "fusion_lon": 0.0, "bike_id": "3c5c4b309e2894822e4f548b42c16748", "is_disabled": 0, "is_reserved": 0}, {"rental_uris": {"ios": "https://dc.lft.to/lastmile_qr_scan", "android": "https://dc.lft.to/lastmile_qr_scan"}, "lon": -76.990214, "type": "electric_scooter", "fusion_lat": 0.0, "lat": 38.864109, "name": "abe0c4681e2b4016ff344168be687aac", "fusion_lon": 0.0, "bike_id": "abe0c4681e2b4016ff344168be687aac", "is_disabled": 0, "is_reserved": 0}, {"rental_uris": {"ios": "https://dc.lft.to/lastmile_qr_scan", "android": "https://dc.lft.to/lastmile_qr_scan"}, "lon": -76.9299925, "type": "electric_bike", "fusion_lat": 0.0, "lat": 38.887998333333336, "name": "64272395da8b68761218e2f497b4d69e", "fusion_lon": 0.0, "bike_id": "64272395da8b68761218e2f497b4d69e", "is_disabled": 0, "is_reserved": 0}, {"rental_uris": {"ios": "https://dc.lft.to/lastmile_qr_scan", "android": "https://dc.lft.to/lastmile_qr_scan"}, "lon": -77.0159095, "type": "electric_scooter", "fusion_lat": 0.0, "lat": 38.89618016666667, "name": "bf950676b61cc51ca217fa35b8c8b620", "fusion_lon": 0.0, "bike_id": "bf950676b61cc51ca217fa35b8c8b620", "is_disabled": 0, "is_reserved": 0}, {"rental_uris": {"ios": "https://dc.lft.to/lastmile_qr_scan", "android": "https://dc.lft.to/lastmile_qr_scan"}, "lon": -77.03072633333333, "type": "electric_scooter", "fusion_lat": 0.0, "lat": 38.8998195, "name": "737f27e66f173e9201932b9e8a1a5acc", "fusion_lon": 0.0, "bike_id": "737f27e66f173e9201932b9e8a1a5acc", "is_disabled": 0, "is_reserved": 0}, {"rental_uris": {"ios": "https://dc.lft.to/lastmile_qr_scan", "android": "https://dc.lft.to/lastmile_qr_scan"}, "lon": -77.026172, "type": "electric_scooter", "fusion_lat": 0.0, "lat": 38.919187, "name": "40b5336c7f6b8cd270eec9eaa548fa0d", "fusion_lon": 0.0, "bike_id": "40b5336c7f6b8cd270eec9eaa548fa0d", "is_disabled": 0, "is_reserved": 0}, {"rental_uris": {"ios": "https://dc.lft.to/lastmile_qr_scan", "android": "https://dc.lft.to/lastmile_qr_scan"}, "lon": -77.07943216666666, "type": "electric_scooter", "fusion_lat": 0.0, "lat": 38.948667, "name": "b6875faf23b45c3853d1028c98c05263", "fusion_lon": 0.0, "bike_id": "b6875faf23b45c3853d1028c98c05263", "is_disabled": 0, "is_reserved": 0}, {"rental_uris": {"ios": "https://dc.lft.to/lastmile_qr_scan", "android": "https://dc.lft.to/lastmile_qr_scan"}, "lon": -77.02690833333334, "type": "electric_scooter", "fusion_lat": 0.0, "lat": 38.897304166666665, "name": "d7ff2b1c416d9265b9542ff28d994d00", "fusion_lon": 0.0, "bike_id": "d7ff2b1c416d9265b9542ff28d994d00", "is_disabled": 0, "is_reserved": 0}, {"rental_uris": {"ios": "https://dc.lft.to/lastmile_qr_scan", "android": "https://dc.lft.to/lastmile_qr_scan"}, "lon": -77.00714383333333, "type": "electric_scooter", "fusion_lat": 0.0, "lat": 38.913518, "name": "868816170933c82c643351933c8714fd", "fusion_lon": 0.0, "bike_id": "868816170933c82c643351933c8714fd", "is_disabled": 0, "is_reserved": 0}, {"rental_uris": {"ios": "https://dc.lft.to/lastmile_qr_scan", "android": "https://dc.lft.to/lastmile_qr_scan"}, "lon": -77.05265383333334, "type": "electric_scooter", "fusion_lat": 0.0, "lat": 38.9102665, "name": "e949a26c7695ba6aeff7db33ac70f758", "fusion_lon": 0.0, "bike_id": "e949a26c7695ba6aeff7db33ac70f758", "is_disabled": 0, "is_reserved": 0}, {"rental_uris": {"ios": "https://dc.lft.to/lastmile_qr_scan", "android": "https://dc.lft.to/lastmile_qr_scan"}, "lon": -77.03965683333334, "type": "electric_scooter", "fusion_lat": 0.0, "lat": 38.91992666666667, "name": "454d28192498715654b33178e4ae315b", "fusion_lon": 0.0, "bike_id": "454d28192498715654b33178e4ae315b", "is_disabled": 0, "is_reserved": 0}, {"rental_uris": {"ios": "https://dc.lft.to/lastmile_qr_scan", "android": "https://dc.lft.to/lastmile_qr_scan"}, "lon": -77.02790983333334, "type": "electric_scooter", "fusion_lat": 0.0, "lat": 38.956834666666666, "name": "fb2361f8d8538daf6750c4a4478ae184", "fusion_lon": 0.0, "bike_id": "fb2361f8d8538daf6750c4a4478ae184", "is_disabled": 0, "is_reserved": 0}, {"rental_uris": {"ios": "https://dc.lft.to/lastmile_qr_scan", "android": "https://dc.lft.to/lastmile_qr_scan"}, "lon": -76.9096755, "type": "electric_bike", "fusion_lat": 0.0, "lat": 38.8543735, "name": "f2fa2a9d1a5695534e57c715b4b20fcb", "fusion_lon": 0.0, "bike_id": "f2fa2a9d1a5695534e57c715b4b20fcb", "is_disabled": 0, "is_reserved": 0}, {"rental_uris": {"ios": "https://dc.lft.to/lastmile_qr_scan", "android": "https://dc.lft.to/lastmile_qr_scan"}, "lon": -77.04172966666667, "type": "electric_scooter", "fusion_lat": 0.0, "lat": 38.914684, "name": "deb06a10c3c9243975d727d0c82a10b1", "fusion_lon": 0.0, "bike_id": "deb06a10c3c9243975d727d0c82a10b1", "is_disabled": 0, "is_reserved": 0}, {"rental_uris": {"ios": "https://dc.lft.to/lastmile_qr_scan", "android": "https://dc.lft.to/lastmile_qr_scan"}, "lon": -76.985792, "type": "electric_scooter", "fusion_lat": 0.0, "lat": 38.9000775, "name": "a2ea18a385ceb1ddbf47a936a7a19e3a", "fusion_lon": 0.0, "bike_id": "a2ea18a385ceb1ddbf47a936a7a19e3a", "is_disabled": 0, "is_reserved": 0}, {"rental_uris": {"ios": "https://dc.lft.to/lastmile_qr_scan", "android": "https://dc.lft.to/lastmile_qr_scan"}, "lon": -77.024025, "type": "electric_bike", "fusion_lat": 0.0, "lat": 38.93694216666667, "name": "977b2875dd443337da2f399ed3e2bff8", "fusion_lon": 0.0, "bike_id": "977b2875dd443337da2f399ed3e2bff8", "is_disabled": 0, "is_reserved": 0}, {"rental_uris": {"ios": "https://dc.lft.to/lastmile_qr_scan", "android": "https://dc.lft.to/lastmile_qr_scan"}, "lon": -77.0419065, "type": "electric_scooter", "fusion_lat": 0.0, "lat": 38.92010716666667, "name": "8edcd05cc93d0ae300a0e4ff49c3b96f", "fusion_lon": 0.0, "bike_id": "8edcd05cc93d0ae300a0e4ff49c3b96f", "is_disabled": 0, "is_reserved": 0}, {"rental_uris": {"ios": "https://dc.lft.to/lastmile_qr_scan", "android": "https://dc.lft.to/lastmile_qr_scan"}, "lon": -77.02883966666667, "type": "electric_scooter", "fusion_lat": 0.0, "lat": 38.911254666666665, "name": "3c5c4ff93ddc5db35bb966d33d7b8017", "fusion_lon": 0.0, "bike_id": "3c5c4ff93ddc5db35bb966d33d7b8017", "is_disabled": 0, "is_reserved": 0}, {"rental_uris": {"ios": "https://dc.lft.to/lastmile_qr_scan", "android": "https://dc.lft.to/lastmile_qr_scan"}, "lon": -77.04376516666666, "type": "electric_scooter", "fusion_lat": 0.0, "lat": 38.892227, "name": "c4871ba10f66606a84906e234205e442", "fusion_lon": 0.0, "bike_id": "c4871ba10f66606a84906e234205e442", "is_disabled": 0, "is_reserved": 0}, {"rental_uris": {"ios": "https://dc.lft.to/lastmile_qr_scan", "android": "https://dc.lft.to/lastmile_qr_scan"}, "lon": -77.01870133333334, "type": "electric_scooter", "fusion_lat": 0.0, "lat": 38.88748533333333, "name": "5a453b78b495841e0e1bc80f60b04a41", "fusion_lon": 0.0, "bike_id": "5a453b78b495841e0e1bc80f60b04a41", "is_disabled": 0, "is_reserved": 0}, {"rental_uris": {"ios": "https://dc.lft.to/lastmile_qr_scan", "android": "https://dc.lft.to/lastmile_qr_scan"}, "lon": -77.02600833333334, "type": "electric_scooter", "fusion_lat": 0.0, "lat": 38.904949, "name": "f3a216be5c3e4fc0b84c1755a1309e48", "fusion_lon": 0.0, "bike_id": "f3a216be5c3e4fc0b84c1755a1309e48", "is_disabled": 0, "is_reserved": 0}, {"rental_uris": {"ios": "https://dc.lft.to/lastmile_qr_scan", "android": "https://dc.lft.to/lastmile_qr_scan"}, "lon": -77.019252, "type": "electric_scooter", "fusion_lat": 0.0, "lat": 38.902465166666666, "name": "1ad9fc838c4106d5015a62d1aab01687", "fusion_lon": 0.0, "bike_id": "1ad9fc838c4106d5015a62d1aab01687", "is_disabled": 0, "is_reserved": 0}, {"rental_uris": {"ios": "https://dc.lft.to/lastmile_qr_scan", "android": "https://dc.lft.to/lastmile_qr_scan"}, "lon": -77.049039, "type": "electric_scooter", "fusion_lat": 0.0, "lat": 38.88842066666667, "name": "2215453b6d7d706c7256c8bea1add476", "fusion_lon": 0.0, "bike_id": "2215453b6d7d706c7256c8bea1add476", "is_disabled": 0, "is_reserved": 0}, {"rental_uris": {"ios": "https://dc.lft.to/lastmile_qr_scan", "android": "https://dc.lft.to/lastmile_qr_scan"}, "lon": -77.04221666666666, "type": "electric_bike", "fusion_lat": 0.0, "lat": 38.909326666666665, "name": "96a4b77a8eb888b3bbd77816c635f620", "fusion_lon": 0.0, "bike_id": "96a4b77a8eb888b3bbd77816c635f620", "is_disabled": 0, "is_reserved": 0}, {"rental_uris": {"ios": "https://dc.lft.to/lastmile_qr_scan", "android": "https://dc.lft.to/lastmile_qr_scan"}, "lon": -77.001145, "type": "electric_scooter", "fusion_lat": 0.0, "lat": 38.91707016666667, "name": "1ab001912cc859a76030e0b0f10f40cb", "fusion_lon": 0.0, "bike_id": "1ab001912cc859a76030e0b0f10f40cb", "is_disabled": 0, "is_reserved": 0}, {"rental_uris": {"ios": "https://dc.lft.to/lastmile_qr_scan", "android": "https://dc.lft.to/lastmile_qr_scan"}, "lon": -77.0318635, "type": "electric_scooter", "fusion_lat": 0.0, "lat": 38.913349, "name": "a1868dab882d817115e654aa1d8844f5", "fusion_lon": 0.0, "bike_id": "a1868dab882d817115e654aa1d8844f5", "is_disabled": 0, "is_reserved": 0}, {"rental_uris": {"ios": "https://dc.lft.to/lastmile_qr_scan", "android": "https://dc.lft.to/lastmile_qr_scan"}, "lon": -77.05002633333334, "type": "electric_scooter", "fusion_lat": 0.0, "lat": 38.8923325, "name": "0db8ecb94bd8c1d59323afdd15201580", "fusion_lon": 0.0, "bike_id": "0db8ecb94bd8c1d59323afdd15201580", "is_disabled": 0, "is_reserved": 0}, {"rental_uris": {"ios": "https://dc.lft.to/lastmile_qr_scan", "android": "https://dc.lft.to/lastmile_qr_scan"}, "lon": -76.97819916666667, "type": "electric_scooter", "fusion_lat": 0.0, "lat": 38.89520683333333, "name": "a81d453797d41d39e3fa92e68dc66ab4", "fusion_lon": 0.0, "bike_id": "a81d453797d41d39e3fa92e68dc66ab4", "is_disabled": 0, "is_reserved": 0}, {"rental_uris": {"ios": "https://dc.lft.to/lastmile_qr_scan", "android": "https://dc.lft.to/lastmile_qr_scan"}, "lon": -76.990204, "type": "electric_scooter", "fusion_lat": 0.0, "lat": 38.858725166666666, "name": "3de1e8523a4b323d187d7f9ef052d5fb", "fusion_lon": 0.0, "bike_id": "3de1e8523a4b323d187d7f9ef052d5fb", "is_disabled": 0, "is_reserved": 0}, {"rental_uris": {"ios": "https://dc.lft.to/lastmile_qr_scan", "android": "https://dc.lft.to/lastmile_qr_scan"}, "lon": -77.03725833333333, "type": "electric_scooter", "fusion_lat": 0.0, "lat": 38.917103, "name": "7f97d5f13316df552f4b45d55e237a98", "fusion_lon": 0.0, "bike_id": "7f97d5f13316df552f4b45d55e237a98", "is_disabled": 0, "is_reserved": 0}, {"rental_uris": {"ios": "https://dc.lft.to/lastmile_qr_scan", "android": "https://dc.lft.to/lastmile_qr_scan"}, "lon": -77.031778, "type": "electric_scooter", "fusion_lat": 0.0, "lat": 38.901190666666665, "name": "5811fd3fadc16dae6ef88c45ed6ad070", "fusion_lon": 0.0, "bike_id": "5811fd3fadc16dae6ef88c45ed6ad070", "is_disabled": 0, "is_reserved": 0}, {"rental_uris": {"ios": "https://dc.lft.to/lastmile_qr_scan", "android": "https://dc.lft.to/lastmile_qr_scan"}, "lon": -77.03490516666666, "type": "electric_scooter", "fusion_lat": 0.0, "lat": 38.917049666666664, "name": "a7ccbb3f9dba041d410f76986cda96f3", "fusion_lon": 0.0, "bike_id": "a7ccbb3f9dba041d410f76986cda96f3", "is_disabled": 0, "is_reserved": 0}, {"rental_uris": {"ios": "https://dc.lft.to/lastmile_qr_scan", "android": "https://dc.lft.to/lastmile_qr_scan"}, "lon": -77.04851266666667, "type": "electric_scooter", "fusion_lat": 0.0, "lat": 38.9196365, "name": "fa77f75572bf248dd6f132bf4061d96c", "fusion_lon": 0.0, "bike_id": "fa77f75572bf248dd6f132bf4061d96c", "is_disabled": 0, "is_reserved": 0}, {"rental_uris": {"ios": "https://dc.lft.to/lastmile_qr_scan", "android": "https://dc.lft.to/lastmile_qr_scan"}, "lon": -77.02540216666667, "type": "electric_scooter", "fusion_lat": 0.0, "lat": 38.892406333333334, "name": "0b7cb27196f1e1f13aa1f0065223a658", "fusion_lon": 0.0, "bike_id": "0b7cb27196f1e1f13aa1f0065223a658", "is_disabled": 0, "is_reserved": 0}, {"rental_uris": {"ios": "https://dc.lft.to/lastmile_qr_scan", "android": "https://dc.lft.to/lastmile_qr_scan"}, "lon": -77.038668, "type": "electric_scooter", "fusion_lat": 0.0, "lat": 38.90820033333333, "name": "236a95cffc40a82d5479e1690a18f52e", "fusion_lon": 0.0, "bike_id": "236a95cffc40a82d5479e1690a18f52e", "is_disabled": 0, "is_reserved": 0}, {"rental_uris": {"ios": "https://dc.lft.to/lastmile_qr_scan", "android": "https://dc.lft.to/lastmile_qr_scan"}, "lon": -77.0185995, "type": "electric_scooter", "fusion_lat": 0.0, "lat": 38.89267866666667, "name": "d0c36a6a55a28fed899721e3e52d933e", "fusion_lon": 0.0, "bike_id": "d0c36a6a55a28fed899721e3e52d933e", "is_disabled": 0, "is_reserved": 0}, {"rental_uris": {"ios": "https://dc.lft.to/lastmile_qr_scan", "android": "https://dc.lft.to/lastmile_qr_scan"}, "lon": -76.9918165, "type": "electric_scooter", "fusion_lat": 0.0, "lat": 38.905088, "name": "36931f35962bd110dcd27ea20cd128c9", "fusion_lon": 0.0, "bike_id": "36931f35962bd110dcd27ea20cd128c9", "is_disabled": 0, "is_reserved": 0}, {"rental_uris": {"ios": "https://dc.lft.to/lastmile_qr_scan", "android": "https://dc.lft.to/lastmile_qr_scan"}, "lon": -77.01187733333333, "type": "electric_scooter", "fusion_lat": 0.0, "lat": 38.900327, "name": "c0bd4f6bbde974ac46bb42fddb526179", "fusion_lon": 0.0, "bike_id": "c0bd4f6bbde974ac46bb42fddb526179", "is_disabled": 0, "is_reserved": 0}, {"rental_uris": {"ios": "https://dc.lft.to/lastmile_qr_scan", "android": "https://dc.lft.to/lastmile_qr_scan"}, "lon": -77.001968, "type": "electric_scooter", "fusion_lat": 0.0, "lat": 38.8987795, "name": "ff84e035c5db9e8cceb2f8c5b702713b", "fusion_lon": 0.0, "bike_id": "ff84e035c5db9e8cceb2f8c5b702713b", "is_disabled": 0, "is_reserved": 0}, {"rental_uris": {"ios": "https://dc.lft.to/lastmile_qr_scan", "android": "https://dc.lft.to/lastmile_qr_scan"}, "lon": -76.99479533333333, "type": "electric_scooter", "fusion_lat": 0.0, "lat": 38.895598666666665, "name": "1558b56ac4e3345611afc37786a3ab8a", "fusion_lon": 0.0, "bike_id": "1558b56ac4e3345611afc37786a3ab8a", "is_disabled": 0, "is_reserved": 0}, {"rental_uris": {"ios": "https://dc.lft.to/lastmile_qr_scan", "android": "https://dc.lft.to/lastmile_qr_scan"}, "lon": -77.03220516666667, "type": "electric_scooter", "fusion_lat": 0.0, "lat": 38.912937666666664, "name": "05ee7bfa3136e67485dad1579ae61657", "fusion_lon": 0.0, "bike_id": "05ee7bfa3136e67485dad1579ae61657", "is_disabled": 0, "is_reserved": 0}, {"rental_uris": {"ios": "https://dc.lft.to/lastmile_qr_scan", "android": "https://dc.lft.to/lastmile_qr_scan"}, "lon": -77.01922833333333, "type": "electric_scooter", "fusion_lat": 0.0, "lat": 38.946394833333336, "name": "af7e6b5a6a393eb6c7e6c47ebacadb38", "fusion_lon": 0.0, "bike_id": "af7e6b5a6a393eb6c7e6c47ebacadb38", "is_disabled": 0, "is_reserved": 0}, {"rental_uris": {"ios": "https://dc.lft.to/lastmile_qr_scan", "android": "https://dc.lft.to/lastmile_qr_scan"}, "lon": -76.98858466666667, "type": "electric_scooter", "fusion_lat": 0.0, "lat": 38.900306, "name": "0967cb344f22116d35b7f495bde732de", "fusion_lon": 0.0, "bike_id": "0967cb344f22116d35b7f495bde732de", "is_disabled": 0, "is_reserved": 0}, {"rental_uris": {"ios": "https://dc.lft.to/lastmile_qr_scan", "android": "https://dc.lft.to/lastmile_qr_scan"}, "lon": -77.0252715, "type": "electric_scooter", "fusion_lat": 0.0, "lat": 38.93282516666667, "name": "238c72413da5e8470f66e9c7c5a0c09f", "fusion_lon": 0.0, "bike_id": "238c72413da5e8470f66e9c7c5a0c09f", "is_disabled": 0, "is_reserved": 0}, {"rental_uris": {"ios": "https://dc.lft.to/lastmile_qr_scan", "android": "https://dc.lft.to/lastmile_qr_scan"}, "lon": -76.97558483333333, "type": "electric_bike", "fusion_lat": 0.0, "lat": 38.872684, "name": "e8c68007d1a78a1750653f021c4b16a5", "fusion_lon": 0.0, "bike_id": "e8c68007d1a78a1750653f021c4b16a5", "is_disabled": 0, "is_reserved": 0}, {"rental_uris": {"ios": "https://dc.lft.to/lastmile_qr_scan", "android": "https://dc.lft.to/lastmile_qr_scan"}, "lon": -77.043583, "type": "electric_scooter", "fusion_lat": 0.0, "lat": 38.9207095, "name": "91923bad119e361da7c3ccbde37280c6", "fusion_lon": 0.0, "bike_id": "91923bad119e361da7c3ccbde37280c6", "is_disabled": 0, "is_reserved": 0}, {"rental_uris": {"ios": "https://dc.lft.to/lastmile_qr_scan", "android": "https://dc.lft.to/lastmile_qr_scan"}, "lon": -77.0297305, "type": "electric_scooter", "fusion_lat": 0.0, "lat": 38.90789733333333, "name": "6efbbf7704b85e3f40bada1e91415ef3", "fusion_lon": 0.0, "bike_id": "6efbbf7704b85e3f40bada1e91415ef3", "is_disabled": 0, "is_reserved": 0}, {"rental_uris": {"ios": "https://dc.lft.to/lastmile_qr_scan", "android": "https://dc.lft.to/lastmile_qr_scan"}, "lon": -77.03285116666666, "type": "electric_bike", "fusion_lat": 0.0, "lat": 38.9377065, "name": "4087eb9b45b291d81c7366bce5a3683a", "fusion_lon": 0.0, "bike_id": "4087eb9b45b291d81c7366bce5a3683a", "is_disabled": 0, "is_reserved": 0}, {"rental_uris": {"ios": "https://dc.lft.to/lastmile_qr_scan", "android": "https://dc.lft.to/lastmile_qr_scan"}, "lon": -77.03170066666667, "type": "electric_scooter", "fusion_lat": 0.0, "lat": 38.896088166666665, "name": "98f773888985da6bc26c6bfe6196239f", "fusion_lon": 0.0, "bike_id": "98f773888985da6bc26c6bfe6196239f", "is_disabled": 0, "is_reserved": 0}, {"rental_uris": {"ios": "https://dc.lft.to/lastmile_qr_scan", "android": "https://dc.lft.to/lastmile_qr_scan"}, "lon": -77.12741516666667, "type": "electric_bike", "fusion_lat": 0.0, "lat": 38.88825533333333, "name": "0768df4e505ccf4c104fb34ed3143b48", "fusion_lon": 0.0, "bike_id": "0768df4e505ccf4c104fb34ed3143b48", "is_disabled": 0, "is_reserved": 0}, {"rental_uris": {"ios": "https://dc.lft.to/lastmile_qr_scan", "android": "https://dc.lft.to/lastmile_qr_scan"}, "lon": -76.98770116666667, "type": "electric_scooter", "fusion_lat": 0.0, "lat": 38.91175166666667, "name": "a2427a197a71560a5239105d88248be1", "fusion_lon": 0.0, "bike_id": "a2427a197a71560a5239105d88248be1", "is_disabled": 0, "is_reserved": 0}, {"rental_uris": {"ios": "https://dc.lft.to/lastmile_qr_scan", "android": "https://dc.lft.to/lastmile_qr_scan"}, "lon": -76.93155883333333, "type": "electric_scooter", "fusion_lat": 0.0, "lat": 38.89878866666667, "name": "e1be928c1f5e914cacac72b2b4b9786e", "fusion_lon": 0.0, "bike_id": "e1be928c1f5e914cacac72b2b4b9786e", "is_disabled": 0, "is_reserved": 0}, {"rental_uris": {"ios": "https://dc.lft.to/lastmile_qr_scan", "android": "https://dc.lft.to/lastmile_qr_scan"}, "lon": -77.0336875, "type": "electric_scooter", "fusion_lat": 0.0, "lat": 38.910473833333334, "name": "dc315f07f2247bc146b547135047c189", "fusion_lon": 0.0, "bike_id": "dc315f07f2247bc146b547135047c189", "is_disabled": 0, "is_reserved": 0}, {"rental_uris": {"ios": "https://dc.lft.to/lastmile_qr_scan", "android": "https://dc.lft.to/lastmile_qr_scan"}, "lon": -77.03417166666667, "type": "electric_scooter", "fusion_lat": 0.0, "lat": 38.9097905, "name": "b29be34cb538750fc830784431118349", "fusion_lon": 0.0, "bike_id": "b29be34cb538750fc830784431118349", "is_disabled": 0, "is_reserved": 0}, {"rental_uris": {"ios": "https://dc.lft.to/lastmile_qr_scan", "android": "https://dc.lft.to/lastmile_qr_scan"}, "lon": -76.9352015, "type": "electric_scooter", "fusion_lat": 0.0, "lat": 38.908746, "name": "f340029acda5d5cca288514005540cf9", "fusion_lon": 0.0, "bike_id": "f340029acda5d5cca288514005540cf9", "is_disabled": 0, "is_reserved": 0}, {"rental_uris": {"ios": "https://dc.lft.to/lastmile_qr_scan", "android": "https://dc.lft.to/lastmile_qr_scan"}, "lon": -76.9380965, "type": "electric_scooter", "fusion_lat": 0.0, "lat": 38.913113, "name": "9b9859e44c9db7fbad93eb6dbd7ec77d", "fusion_lon": 0.0, "bike_id": "9b9859e44c9db7fbad93eb6dbd7ec77d", "is_disabled": 0, "is_reserved": 0}, {"rental_uris": {"ios": "https://dc.lft.to/lastmile_qr_scan", "android": "https://dc.lft.to/lastmile_qr_scan"}, "lon": -77.04669666666666, "type": "electric_scooter", "fusion_lat": 0.0, "lat": 38.90230066666667, "name": "94d49f5d8c3fb50fe1b780a05099ec6c", "fusion_lon": 0.0, "bike_id": "94d49f5d8c3fb50fe1b780a05099ec6c", "is_disabled": 0, "is_reserved": 0}, {"rental_uris": {"ios": "https://dc.lft.to/lastmile_qr_scan", "android": "https://dc.lft.to/lastmile_qr_scan"}, "lon": -77.04991016666666, "type": "electric_scooter", "fusion_lat": 0.0, "lat": 38.90189516666667, "name": "72a118d4d8ab43d3b4d0a37bdc409201", "fusion_lon": 0.0, "bike_id": "72a118d4d8ab43d3b4d0a37bdc409201", "is_disabled": 0, "is_reserved": 0}, {"rental_uris": {"ios": "https://dc.lft.to/lastmile_qr_scan", "android": "https://dc.lft.to/lastmile_qr_scan"}, "lon": -77.02390066666666, "type": "electric_scooter", "fusion_lat": 0.0, "lat": 38.887409166666664, "name": "95b2660163e571a3a770f5567b05443f", "fusion_lon": 0.0, "bike_id": "95b2660163e571a3a770f5567b05443f", "is_disabled": 0, "is_reserved": 0}, {"rental_uris": {"ios": "https://dc.lft.to/lastmile_qr_scan", "android": "https://dc.lft.to/lastmile_qr_scan"}, "lon": -76.99157983333333, "type": "electric_scooter", "fusion_lat": 0.0, "lat": 38.893485, "name": "06f924949277fac008ea704ed06a9823", "fusion_lon": 0.0, "bike_id": "06f924949277fac008ea704ed06a9823", "is_disabled": 0, "is_reserved": 0}, {"rental_uris": {"ios": "https://dc.lft.to/lastmile_qr_scan", "android": "https://dc.lft.to/lastmile_qr_scan"}, "lon": -77.06157933333333, "type": "electric_scooter", "fusion_lat": 0.0, "lat": 38.94227033333333, "name": "fb6ab24419235c4dadd090940ef90bdb", "fusion_lon": 0.0, "bike_id": "fb6ab24419235c4dadd090940ef90bdb", "is_disabled": 0, "is_reserved": 0}, {"rental_uris": {"ios": "https://dc.lft.to/lastmile_qr_scan", "android": "https://dc.lft.to/lastmile_qr_scan"}, "lon": -77.001029, "type": "electric_scooter", "fusion_lat": 0.0, "lat": 38.8943475, "name": "7b7f7fced181ee3f69af4935ab59639e", "fusion_lon": 0.0, "bike_id": "7b7f7fced181ee3f69af4935ab59639e", "is_disabled": 0, "is_reserved": 0}, {"rental_uris": {"ios": "https://dc.lft.to/lastmile_qr_scan", "android": "https://dc.lft.to/lastmile_qr_scan"}, "lon": -77.045859, "type": "electric_scooter", "fusion_lat": 0.0, "lat": 38.902434666666664, "name": "b7b0d697bc9bdf6b017ee82ad87094d5", "fusion_lon": 0.0, "bike_id": "b7b0d697bc9bdf6b017ee82ad87094d5", "is_disabled": 0, "is_reserved": 0}, {"rental_uris": {"ios": "https://dc.lft.to/lastmile_qr_scan", "android": "https://dc.lft.to/lastmile_qr_scan"}, "lon": -77.02100683333333, "type": "electric_scooter", "fusion_lat": 0.0, "lat": 38.91012083333333, "name": "fcda7b9cce8d550f0193653a58f6bd2d", "fusion_lon": 0.0, "bike_id": "fcda7b9cce8d550f0193653a58f6bd2d", "is_disabled": 0, "is_reserved": 0}, {"rental_uris": {"ios": "https://dc.lft.to/lastmile_qr_scan", "android": "https://dc.lft.to/lastmile_qr_scan"}, "lon": -77.02540616666667, "type": "electric_scooter", "fusion_lat": 0.0, "lat": 38.94098733333333, "name": "46b4abc29c80cf60d11ca6030edb1cbb", "fusion_lon": 0.0, "bike_id": "46b4abc29c80cf60d11ca6030edb1cbb", "is_disabled": 0, "is_reserved": 0}, {"rental_uris": {"ios": "https://dc.lft.to/lastmile_qr_scan", "android": "https://dc.lft.to/lastmile_qr_scan"}, "lon": -76.9798905, "type": "electric_bike", "fusion_lat": 0.0, "lat": 38.87752, "name": "c1407f7abf051399b1222d156810f367", "fusion_lon": 0.0, "bike_id": "c1407f7abf051399b1222d156810f367", "is_disabled": 0, "is_reserved": 0}, {"rental_uris": {"ios": "https://dc.lft.to/lastmile_qr_scan", "android": "https://dc.lft.to/lastmile_qr_scan"}, "lon": -77.03287683333333, "type": "electric_scooter", "fusion_lat": 0.0, "lat": 38.922186833333335, "name": "41f60b652cc44e860dbffb8e5e94043d", "fusion_lon": 0.0, "bike_id": "41f60b652cc44e860dbffb8e5e94043d", "is_disabled": 0, "is_reserved": 0}, {"rental_uris": {"ios": "https://dc.lft.to/lastmile_qr_scan", "android": "https://dc.lft.to/lastmile_qr_scan"}, "lon": -76.99947466666667, "type": "electric_scooter", "fusion_lat": 0.0, "lat": 38.919331, "name": "c4d8ea70ec36b693fba17be64e0258ff", "fusion_lon": 0.0, "bike_id": "c4d8ea70ec36b693fba17be64e0258ff", "is_disabled": 0, "is_reserved": 0}, {"rental_uris": {"ios": "https://dc.lft.to/lastmile_qr_scan", "android": "https://dc.lft.to/lastmile_qr_scan"}, "lon": -77.02734633333333, "type": "electric_scooter", "fusion_lat": 0.0, "lat": 38.92851, "name": "ccb760bdf3b1b0903bff68a853621bae", "fusion_lon": 0.0, "bike_id": "ccb760bdf3b1b0903bff68a853621bae", "is_disabled": 0, "is_reserved": 0}, {"rental_uris": {"ios": "https://dc.lft.to/lastmile_qr_scan", "android": "https://dc.lft.to/lastmile_qr_scan"}, "lon": -77.0320425, "type": "electric_scooter", "fusion_lat": 0.0, "lat": 38.9163215, "name": "69f67a80d767f62125e6022ec1b179be", "fusion_lon": 0.0, "bike_id": "69f67a80d767f62125e6022ec1b179be", "is_disabled": 0, "is_reserved": 0}, {"rental_uris": {"ios": "https://dc.lft.to/lastmile_qr_scan", "android": "https://dc.lft.to/lastmile_qr_scan"}, "lon": -77.01232416666667, "type": "electric_scooter", "fusion_lat": 0.0, "lat": 38.91556166666667, "name": "326d00d440267d3455a4e37971e79de2", "fusion_lon": 0.0, "bike_id": "326d00d440267d3455a4e37971e79de2", "is_disabled": 0, "is_reserved": 0}, {"rental_uris": {"ios": "https://dc.lft.to/lastmile_qr_scan", "android": "https://dc.lft.to/lastmile_qr_scan"}, "lon": -77.02820333333334, "type": "electric_scooter", "fusion_lat": 0.0, "lat": 38.93288883333334, "name": "61b1fa9c799f380a5c7ac3caad049a16", "fusion_lon": 0.0, "bike_id": "61b1fa9c799f380a5c7ac3caad049a16", "is_disabled": 0, "is_reserved": 0}, {"rental_uris": {"ios": "https://dc.lft.to/lastmile_qr_scan", "android": "https://dc.lft.to/lastmile_qr_scan"}, "lon": -77.03450466666666, "type": "electric_scooter", "fusion_lat": 0.0, "lat": 38.9080465, "name": "1704f1056f84c52470935976a5336185", "fusion_lon": 0.0, "bike_id": "1704f1056f84c52470935976a5336185", "is_disabled": 0, "is_reserved": 0}, {"rental_uris": {"ios": "https://dc.lft.to/lastmile_qr_scan", "android": "https://dc.lft.to/lastmile_qr_scan"}, "lon": -76.947808, "type": "electric_bike", "fusion_lat": 0.0, "lat": 38.894399166666666, "name": "377033b40f953dd05adb7be9dda51cf4", "fusion_lon": 0.0, "bike_id": "377033b40f953dd05adb7be9dda51cf4", "is_disabled": 0, "is_reserved": 0}, {"rental_uris": {"ios": "https://dc.lft.to/lastmile_qr_scan", "android": "https://dc.lft.to/lastmile_qr_scan"}, "lon": -77.023147, "type": "electric_scooter", "fusion_lat": 0.0, "lat": 38.917663, "name": "cbf5a9f401a69ba5b1f5f8f752468f22", "fusion_lon": 0.0, "bike_id": "cbf5a9f401a69ba5b1f5f8f752468f22", "is_disabled": 0, "is_reserved": 0}, {"rental_uris": {"ios": "https://dc.lft.to/lastmile_qr_scan", "android": "https://dc.lft.to/lastmile_qr_scan"}, "lon": -77.36092383333333, "type": "electric_bike", "fusion_lat": 0.0, "lat": 38.93964833333333, "name": "23cdcb18cc35edec954ee2034b3484f7", "fusion_lon": 0.0, "bike_id": "23cdcb18cc35edec954ee2034b3484f7", "is_disabled": 0, "is_reserved": 0}, {"rental_uris": {"ios": "https://dc.lft.to/lastmile_qr_scan", "android": "https://dc.lft.to/lastmile_qr_scan"}, "lon": -77.01126666666667, "type": "electric_scooter", "fusion_lat": 0.0, "lat": 38.9133365, "name": "059234eaee48074e8afe87445ad4151b", "fusion_lon": 0.0, "bike_id": "059234eaee48074e8afe87445ad4151b", "is_disabled": 0, "is_reserved": 0}, {"rental_uris": {"ios": "https://dc.lft.to/lastmile_qr_scan", "android": "https://dc.lft.to/lastmile_qr_scan"}, "lon": -77.050915, "type": "electric_bike", "fusion_lat": 0.0, "lat": 38.81334316666667, "name": "3d3e64bf0157403dd48c4cb320bc221e", "fusion_lon": 0.0, "bike_id": "3d3e64bf0157403dd48c4cb320bc221e", "is_disabled": 0, "is_reserved": 0}, {"rental_uris": {"ios": "https://dc.lft.to/lastmile_qr_scan", "android": "https://dc.lft.to/lastmile_qr_scan"}, "lon": -77.11422933333333, "type": "electric_bike", "fusion_lat": 0.0, "lat": 38.8429485, "name": "5670786f641ba449b8a62c1e0208d446", "fusion_lon": 0.0, "bike_id": "5670786f641ba449b8a62c1e0208d446", "is_disabled": 0, "is_reserved": 0}, {"rental_uris": {"ios": "https://dc.lft.to/lastmile_qr_scan", "android": "https://dc.lft.to/lastmile_qr_scan"}, "lon": -76.99953283333333, "type": "electric_scooter", "fusion_lat": 0.0, "lat": 38.90863783333333, "name": "cd11dcd720778efbd2986536c1d19637", "fusion_lon": 0.0, "bike_id": "cd11dcd720778efbd2986536c1d19637", "is_disabled": 0, "is_reserved": 0}, {"rental_uris": {"ios": "https://dc.lft.to/lastmile_qr_scan", "android": "https://dc.lft.to/lastmile_qr_scan"}, "lon": -77.03704783333333, "type": "electric_scooter", "fusion_lat": 0.0, "lat": 38.91662316666667, "name": "840925eab6f98a508430379b04f11cc5", "fusion_lon": 0.0, "bike_id": "840925eab6f98a508430379b04f11cc5", "is_disabled": 0, "is_reserved": 0}, {"rental_uris": {"ios": "https://dc.lft.to/lastmile_qr_scan", "android": "https://dc.lft.to/lastmile_qr_scan"}, "lon": -77.02904666666667, "type": "electric_scooter", "fusion_lat": 0.0, "lat": 38.88427083333333, "name": "9f7f52d90f8a4947a0ba7f3b90468fd0", "fusion_lon": 0.0, "bike_id": "9f7f52d90f8a4947a0ba7f3b90468fd0", "is_disabled": 0, "is_reserved": 0}, {"rental_uris": {"ios": "https://dc.lft.to/lastmile_qr_scan", "android": "https://dc.lft.to/lastmile_qr_scan"}, "lon": -77.01530066666666, "type": "electric_scooter", "fusion_lat": 0.0, "lat": 38.88739116666667, "name": "8d8b7af28e130a3f29d5b819e11ff7db", "fusion_lon": 0.0, "bike_id": "8d8b7af28e130a3f29d5b819e11ff7db", "is_disabled": 0, "is_reserved": 0}, {"rental_uris": {"ios": "https://dc.lft.to/lastmile_qr_scan", "android": "https://dc.lft.to/lastmile_qr_scan"}, "lon": -77.0251695, "type": "electric_scooter", "fusion_lat": 0.0, "lat": 38.921421333333335, "name": "0c0950faca71fcff80bcfc061479f557", "fusion_lon": 0.0, "bike_id": "0c0950faca71fcff80bcfc061479f557", "is_disabled": 0, "is_reserved": 0}, {"rental_uris": {"ios": "https://dc.lft.to/lastmile_qr_scan", "android": "https://dc.lft.to/lastmile_qr_scan"}, "lon": -77.02194183333333, "type": "electric_scooter", "fusion_lat": 0.0, "lat": 38.91131, "name": "c25c342912c06709088112f1a0a96945", "fusion_lon": 0.0, "bike_id": "c25c342912c06709088112f1a0a96945", "is_disabled": 0, "is_reserved": 0}, {"rental_uris": {"ios": "https://dc.lft.to/lastmile_qr_scan", "android": "https://dc.lft.to/lastmile_qr_scan"}, "lon": -77.07900333333333, "type": "electric_bike", "fusion_lat": 0.0, "lat": 38.839379666666666, "name": "024a64091a1396b174239e647cf2bd73", "fusion_lon": 0.0, "bike_id": "024a64091a1396b174239e647cf2bd73", "is_disabled": 0, "is_reserved": 0}, {"rental_uris": {"ios": "https://dc.lft.to/lastmile_qr_scan", "android": "https://dc.lft.to/lastmile_qr_scan"}, "lon": -77.00094666666666, "type": "electric_scooter", "fusion_lat": 0.0, "lat": 38.8736765, "name": "48eb48594d0426ed87e6fa99579f892c", "fusion_lon": 0.0, "bike_id": "48eb48594d0426ed87e6fa99579f892c", "is_disabled": 0, "is_reserved": 0}, {"rental_uris": {"ios": "https://dc.lft.to/lastmile_qr_scan", "android": "https://dc.lft.to/lastmile_qr_scan"}, "lon": -77.02974166666667, "type": "electric_scooter", "fusion_lat": 0.0, "lat": 38.89571333333333, "name": "a48fc7610a16dee3af958c26caae7a02", "fusion_lon": 0.0, "bike_id": "a48fc7610a16dee3af958c26caae7a02", "is_disabled": 0, "is_reserved": 0}, {"rental_uris": {"ios": "https://dc.lft.to/lastmile_qr_scan", "android": "https://dc.lft.to/lastmile_qr_scan"}, "lon": -77.05910633333333, "type": "electric_scooter", "fusion_lat": 0.0, "lat": 38.90141783333333, "name": "c68403e4145b344906d3b8633414017d", "fusion_lon": 0.0, "bike_id": "c68403e4145b344906d3b8633414017d", "is_disabled": 0, "is_reserved": 0}, {"rental_uris": {"ios": "https://dc.lft.to/lastmile_qr_scan", "android": "https://dc.lft.to/lastmile_qr_scan"}, "lon": -76.98163083333333, "type": "electric_bike", "fusion_lat": 0.0, "lat": 38.845849666666666, "name": "c175e3e7ed31fa269a61d274de0b1def", "fusion_lon": 0.0, "bike_id": "c175e3e7ed31fa269a61d274de0b1def", "is_disabled": 0, "is_reserved": 0}, {"rental_uris": {"ios": "https://dc.lft.to/lastmile_qr_scan", "android": "https://dc.lft.to/lastmile_qr_scan"}, "lon": -77.03363683333333, "type": "electric_scooter", "fusion_lat": 0.0, "lat": 38.88502233333333, "name": "ded2e836be18591bba374ed94e23d08f", "fusion_lon": 0.0, "bike_id": "ded2e836be18591bba374ed94e23d08f", "is_disabled": 0, "is_reserved": 0}, {"rental_uris": {"ios": "https://dc.lft.to/lastmile_qr_scan", "android": "https://dc.lft.to/lastmile_qr_scan"}, "lon": -77.0319615, "type": "electric_scooter", "fusion_lat": 0.0, "lat": 38.91470866666667, "name": "3aa393b93553712184b5a075308f997f", "fusion_lon": 0.0, "bike_id": "3aa393b93553712184b5a075308f997f", "is_disabled": 0, "is_reserved": 0}, {"rental_uris": {"ios": "https://dc.lft.to/lastmile_qr_scan", "android": "https://dc.lft.to/lastmile_qr_scan"}, "lon": -76.93175366666667, "type": "electric_scooter", "fusion_lat": 0.0, "lat": 38.89884716666667, "name": "4baa6d2c509f381d5b95fcc94f1ae2fd", "fusion_lon": 0.0, "bike_id": "4baa6d2c509f381d5b95fcc94f1ae2fd", "is_disabled": 0, "is_reserved": 0}, {"rental_uris": {"ios": "https://dc.lft.to/lastmile_qr_scan", "android": "https://dc.lft.to/lastmile_qr_scan"}, "lon": -76.9926925, "type": "electric_scooter", "fusion_lat": 0.0, "lat": 38.8969285, "name": "771dfa23c6b181244c52f762c48b07dd", "fusion_lon": 0.0, "bike_id": "771dfa23c6b181244c52f762c48b07dd", "is_disabled": 0, "is_reserved": 0}, {"rental_uris": {"ios": "https://dc.lft.to/lastmile_qr_scan", "android": "https://dc.lft.to/lastmile_qr_scan"}, "lon": -77.04151033333333, "type": "electric_scooter", "fusion_lat": 0.0, "lat": 38.90758616666667, "name": "6d35be030849020655c4d229b13aab8a", "fusion_lon": 0.0, "bike_id": "6d35be030849020655c4d229b13aab8a", "is_disabled": 0, "is_reserved": 0}, {"rental_uris": {"ios": "https://dc.lft.to/lastmile_qr_scan", "android": "https://dc.lft.to/lastmile_qr_scan"}, "lon": -76.9484095, "type": "electric_scooter", "fusion_lat": 0.0, "lat": 38.89487233333333, "name": "bbf69ad9421b29dbd0ffbd43b45dd5d0", "fusion_lon": 0.0, "bike_id": "bbf69ad9421b29dbd0ffbd43b45dd5d0", "is_disabled": 0, "is_reserved": 0}, {"rental_uris": {"ios": "https://dc.lft.to/lastmile_qr_scan", "android": "https://dc.lft.to/lastmile_qr_scan"}, "lon": -77.0211875, "type": "electric_bike", "fusion_lat": 0.0, "lat": 38.93594383333333, "name": "24fc34941ce5a25dc4474712aa0475ec", "fusion_lon": 0.0, "bike_id": "24fc34941ce5a25dc4474712aa0475ec", "is_disabled": 0, "is_reserved": 0}, {"rental_uris": {"ios": "https://dc.lft.to/lastmile_qr_scan", "android": "https://dc.lft.to/lastmile_qr_scan"}, "lon": -77.03214266666667, "type": "electric_scooter", "fusion_lat": 0.0, "lat": 38.911588333333334, "name": "2a766234a61c2ae62b447c8e463398fd", "fusion_lon": 0.0, "bike_id": "2a766234a61c2ae62b447c8e463398fd", "is_disabled": 0, "is_reserved": 0}, {"rental_uris": {"ios": "https://dc.lft.to/lastmile_qr_scan", "android": "https://dc.lft.to/lastmile_qr_scan"}, "lon": -77.0652885, "type": "electric_scooter", "fusion_lat": 0.0, "lat": 38.91131566666667, "name": "055bf5530d4484dbe017b4e0643f8207", "fusion_lon": 0.0, "bike_id": "055bf5530d4484dbe017b4e0643f8207", "is_disabled": 0, "is_reserved": 0}, {"rental_uris": {"ios": "https://dc.lft.to/lastmile_qr_scan", "android": "https://dc.lft.to/lastmile_qr_scan"}, "lon": -77.10687883333334, "type": "electric_bike", "fusion_lat": 0.0, "lat": 38.8553935, "name": "fa1f5debf0be24ba5d01ff715e1239b0", "fusion_lon": 0.0, "bike_id": "fa1f5debf0be24ba5d01ff715e1239b0", "is_disabled": 0, "is_reserved": 0}, {"rental_uris": {"ios": "https://dc.lft.to/lastmile_qr_scan", "android": "https://dc.lft.to/lastmile_qr_scan"}, "lon": -76.99514233333333, "type": "electric_scooter", "fusion_lat": 0.0, "lat": 38.89484016666667, "name": "ec71db09e90c1e6f8c9681b4296c0df4", "fusion_lon": 0.0, "bike_id": "ec71db09e90c1e6f8c9681b4296c0df4", "is_disabled": 0, "is_reserved": 0}, {"rental_uris": {"ios": "https://dc.lft.to/lastmile_qr_scan", "android": "https://dc.lft.to/lastmile_qr_scan"}, "lon": -77.03221916666666, "type": "electric_scooter", "fusion_lat": 0.0, "lat": 38.93877166666667, "name": "5a18c7986ffd8098b36c3977bb19857b", "fusion_lon": 0.0, "bike_id": "5a18c7986ffd8098b36c3977bb19857b", "is_disabled": 0, "is_reserved": 0}, {"rental_uris": {"ios": "https://dc.lft.to/lastmile_qr_scan", "android": "https://dc.lft.to/lastmile_qr_scan"}, "lon": -76.9484775, "type": "electric_scooter", "fusion_lat": 0.0, "lat": 38.883046666666665, "name": "139775c3f6aa2cf501eb42df53d2c06b", "fusion_lon": 0.0, "bike_id": "139775c3f6aa2cf501eb42df53d2c06b", "is_disabled": 0, "is_reserved": 0}, {"rental_uris": {"ios": "https://dc.lft.to/lastmile_qr_scan", "android": "https://dc.lft.to/lastmile_qr_scan"}, "lon": -77.04445183333333, "type": "electric_scooter", "fusion_lat": 0.0, "lat": 38.90552266666667, "name": "44d3e6ba313f171125cc39d1958f925c", "fusion_lon": 0.0, "bike_id": "44d3e6ba313f171125cc39d1958f925c", "is_disabled": 0, "is_reserved": 0}, {"rental_uris": {"ios": "https://dc.lft.to/lastmile_qr_scan", "android": "https://dc.lft.to/lastmile_qr_scan"}, "lon": -77.062805, "type": "electric_scooter", "fusion_lat": 0.0, "lat": 38.90485016666667, "name": "9f5636fb4c0472c6585db7b07d3845e7", "fusion_lon": 0.0, "bike_id": "9f5636fb4c0472c6585db7b07d3845e7", "is_disabled": 0, "is_reserved": 0}, {"rental_uris": {"ios": "https://dc.lft.to/lastmile_qr_scan", "android": "https://dc.lft.to/lastmile_qr_scan"}, "lon": -77.01970716666666, "type": "electric_scooter", "fusion_lat": 0.0, "lat": 38.90243866666667, "name": "22b91ea9a48c79ac45e01323768ae305", "fusion_lon": 0.0, "bike_id": "22b91ea9a48c79ac45e01323768ae305", "is_disabled": 0, "is_reserved": 0}, {"rental_uris": {"ios": "https://dc.lft.to/lastmile_qr_scan", "android": "https://dc.lft.to/lastmile_qr_scan"}, "lon": -77.0419625, "type": "electric_scooter", "fusion_lat": 0.0, "lat": 38.91869916666667, "name": "96c62de138504e94dfa3df3f61045a54", "fusion_lon": 0.0, "bike_id": "96c62de138504e94dfa3df3f61045a54", "is_disabled": 0, "is_reserved": 0}, {"rental_uris": {"ios": "https://dc.lft.to/lastmile_qr_scan", "android": "https://dc.lft.to/lastmile_qr_scan"}, "lon": -77.04486616666667, "type": "electric_scooter", "fusion_lat": 0.0, "lat": 38.90332333333333, "name": "38b06cd356f20c583bed96960d1b75f1", "fusion_lon": 0.0, "bike_id": "38b06cd356f20c583bed96960d1b75f1", "is_disabled": 0, "is_reserved": 0}, {"rental_uris": {"ios": "https://dc.lft.to/lastmile_qr_scan", "android": "https://dc.lft.to/lastmile_qr_scan"}, "lon": -77.00803033333334, "type": "electric_scooter", "fusion_lat": 0.0, "lat": 38.90574483333333, "name": "d9bad431e22c2220965d65126322cb7b", "fusion_lon": 0.0, "bike_id": "d9bad431e22c2220965d65126322cb7b", "is_disabled": 0, "is_reserved": 0}, {"rental_uris": {"ios": "https://dc.lft.to/lastmile_qr_scan", "android": "https://dc.lft.to/lastmile_qr_scan"}, "lon": -76.931727, "type": "electric_scooter", "fusion_lat": 0.0, "lat": 38.898836333333335, "name": "db5b4fee90aa4e7b21a9d3b6d8c8e717", "fusion_lon": 0.0, "bike_id": "db5b4fee90aa4e7b21a9d3b6d8c8e717", "is_disabled": 0, "is_reserved": 0}, {"rental_uris": {"ios": "https://dc.lft.to/lastmile_qr_scan", "android": "https://dc.lft.to/lastmile_qr_scan"}, "lon": -77.02760683333334, "type": "electric_scooter", "fusion_lat": 0.0, "lat": 38.913478833333336, "name": "f2dc2e132127d4d52facfab70c7682ab", "fusion_lon": 0.0, "bike_id": "f2dc2e132127d4d52facfab70c7682ab", "is_disabled": 0, "is_reserved": 0}, {"rental_uris": {"ios": "https://dc.lft.to/lastmile_qr_scan", "android": "https://dc.lft.to/lastmile_qr_scan"}, "lon": -77.0515115, "type": "electric_scooter", "fusion_lat": 0.0, "lat": 38.90210716666667, "name": "1b71f793d77f4f4d22ef96e3b5f3a5a0", "fusion_lon": 0.0, "bike_id": "1b71f793d77f4f4d22ef96e3b5f3a5a0", "is_disabled": 0, "is_reserved": 0}, {"rental_uris": {"ios": "https://dc.lft.to/lastmile_qr_scan", "android": "https://dc.lft.to/lastmile_qr_scan"}, "lon": -77.03820683333333, "type": "electric_scooter", "fusion_lat": 0.0, "lat": 38.920695333333335, "name": "954f8165741a6939fdf11a010f0e2f9f", "fusion_lon": 0.0, "bike_id": "954f8165741a6939fdf11a010f0e2f9f", "is_disabled": 0, "is_reserved": 0}, {"rental_uris": {"ios": "https://dc.lft.to/lastmile_qr_scan", "android": "https://dc.lft.to/lastmile_qr_scan"}, "lon": -76.99791016666667, "type": "electric_bike", "fusion_lat": 0.0, "lat": 38.905595166666664, "name": "7db5c0c64b70bccdce5ac866d0a351a2", "fusion_lon": 0.0, "bike_id": "7db5c0c64b70bccdce5ac866d0a351a2", "is_disabled": 0, "is_reserved": 0}, {"rental_uris": {"ios": "https://dc.lft.to/lastmile_qr_scan", "android": "https://dc.lft.to/lastmile_qr_scan"}, "lon": -76.99585066666667, "type": "electric_scooter", "fusion_lat": 0.0, "lat": 38.955036166666666, "name": "6a05361b4b433144136f6864ede699ba", "fusion_lon": 0.0, "bike_id": "6a05361b4b433144136f6864ede699ba", "is_disabled": 0, "is_reserved": 0}, {"rental_uris": {"ios": "https://dc.lft.to/lastmile_qr_scan", "android": "https://dc.lft.to/lastmile_qr_scan"}, "lon": -76.91925033333334, "type": "electric_scooter", "fusion_lat": 0.0, "lat": 38.89081066666667, "name": "c34f6a153bf89c114b185e1fa1c3c24b", "fusion_lon": 0.0, "bike_id": "c34f6a153bf89c114b185e1fa1c3c24b", "is_disabled": 0, "is_reserved": 0}, {"rental_uris": {"ios": "https://dc.lft.to/lastmile_qr_scan", "android": "https://dc.lft.to/lastmile_qr_scan"}, "lon": -77.0229, "type": "electric_scooter", "fusion_lat": 0.0, "lat": 38.9565, "name": "39c8280a5e2bef737503a7049df9e835", "fusion_lon": 0.0, "bike_id": "39c8280a5e2bef737503a7049df9e835", "is_disabled": 0, "is_reserved": 0}, {"rental_uris": {"ios": "https://dc.lft.to/lastmile_qr_scan", "android": "https://dc.lft.to/lastmile_qr_scan"}, "lon": -77.03253433333333, "type": "electric_scooter", "fusion_lat": 0.0, "lat": 38.9072795, "name": "30460fd64bca446e45468f98e6913c3b", "fusion_lon": 0.0, "bike_id": "30460fd64bca446e45468f98e6913c3b", "is_disabled": 0, "is_reserved": 0}, {"rental_uris": {"ios": "https://dc.lft.to/lastmile_qr_scan", "android": "https://dc.lft.to/lastmile_qr_scan"}, "lon": -77.04505783333333, "type": "electric_scooter", "fusion_lat": 0.0, "lat": 38.91108716666667, "name": "33bbf054b0db33f0bfefa5985eced97d", "fusion_lon": 0.0, "bike_id": "33bbf054b0db33f0bfefa5985eced97d", "is_disabled": 0, "is_reserved": 0}, {"rental_uris": {"ios": "https://dc.lft.to/lastmile_qr_scan", "android": "https://dc.lft.to/lastmile_qr_scan"}, "lon": -76.92370316666667, "type": "electric_bike", "fusion_lat": 0.0, "lat": 38.883790833333336, "name": "fc0e4477dd332085657f3d899728ad8a", "fusion_lon": 0.0, "bike_id": "fc0e4477dd332085657f3d899728ad8a", "is_disabled": 0, "is_reserved": 0}, {"rental_uris": {"ios": "https://dc.lft.to/lastmile_qr_scan", "android": "https://dc.lft.to/lastmile_qr_scan"}, "lon": -76.99568333333333, "type": "electric_scooter", "fusion_lat": 0.0, "lat": 38.90035616666667, "name": "f780147d87ddff3ade719a50e5fc5098", "fusion_lon": 0.0, "bike_id": "f780147d87ddff3ade719a50e5fc5098", "is_disabled": 0, "is_reserved": 0}, {"rental_uris": {"ios": "https://dc.lft.to/lastmile_qr_scan", "android": "https://dc.lft.to/lastmile_qr_scan"}, "lon": -77.02356416666667, "type": "electric_scooter", "fusion_lat": 0.0, "lat": 38.920592666666664, "name": "6d0861a58aeee9c05854876a9ed54634", "fusion_lon": 0.0, "bike_id": "6d0861a58aeee9c05854876a9ed54634", "is_disabled": 0, "is_reserved": 0}, {"rental_uris": {"ios": "https://dc.lft.to/lastmile_qr_scan", "android": "https://dc.lft.to/lastmile_qr_scan"}, "lon": -77.04787933333333, "type": "electric_scooter", "fusion_lat": 0.0, "lat": 38.893715, "name": "d9095deb5b1b514954fa5ada7df8423a", "fusion_lon": 0.0, "bike_id": "d9095deb5b1b514954fa5ada7df8423a", "is_disabled": 0, "is_reserved": 0}, {"rental_uris": {"ios": "https://dc.lft.to/lastmile_qr_scan", "android": "https://dc.lft.to/lastmile_qr_scan"}, "lon": -77.06297866666667, "type": "electric_scooter", "fusion_lat": 0.0, "lat": 38.906011666666664, "name": "6c3714d1bd97cd24558919181734cde2", "fusion_lon": 0.0, "bike_id": "6c3714d1bd97cd24558919181734cde2", "is_disabled": 0, "is_reserved": 0}, {"rental_uris": {"ios": "https://dc.lft.to/lastmile_qr_scan", "android": "https://dc.lft.to/lastmile_qr_scan"}, "lon": -77.024066, "type": "electric_scooter", "fusion_lat": 0.0, "lat": 38.92089933333333, "name": "2294799599504dda7a77c19f1694ffab", "fusion_lon": 0.0, "bike_id": "2294799599504dda7a77c19f1694ffab", "is_disabled": 0, "is_reserved": 0}, {"rental_uris": {"ios": "https://dc.lft.to/lastmile_qr_scan", "android": "https://dc.lft.to/lastmile_qr_scan"}, "lon": -77.03173266666667, "type": "electric_scooter", "fusion_lat": 0.0, "lat": 38.8941025, "name": "6aa77b1ac6866649ea19ffb097e3c3ab", "fusion_lon": 0.0, "bike_id": "6aa77b1ac6866649ea19ffb097e3c3ab", "is_disabled": 0, "is_reserved": 0}, {"rental_uris": {"ios": "https://dc.lft.to/lastmile_qr_scan", "android": "https://dc.lft.to/lastmile_qr_scan"}, "lon": -77.03850566666667, "type": "electric_scooter", "fusion_lat": 0.0, "lat": 38.911729, "name": "b19aa2e45311029f680707405a72e985", "fusion_lon": 0.0, "bike_id": "b19aa2e45311029f680707405a72e985", "is_disabled": 0, "is_reserved": 0}, {"rental_uris": {"ios": "https://dc.lft.to/lastmile_qr_scan", "android": "https://dc.lft.to/lastmile_qr_scan"}, "lon": -77.05624, "type": "electric_scooter", "fusion_lat": 0.0, "lat": 38.92423566666667, "name": "d2b81c719872aae427d02f8176f5902d", "fusion_lon": 0.0, "bike_id": "d2b81c719872aae427d02f8176f5902d", "is_disabled": 0, "is_reserved": 0}, {"rental_uris": {"ios": "https://dc.lft.to/lastmile_qr_scan", "android": "https://dc.lft.to/lastmile_qr_scan"}, "lon": -77.073606, "type": "electric_scooter", "fusion_lat": 0.0, "lat": 38.9335045, "name": "696328c4d214f87bb9e7b8a6bba5e8b7", "fusion_lon": 0.0, "bike_id": "696328c4d214f87bb9e7b8a6bba5e8b7", "is_disabled": 0, "is_reserved": 0}, {"rental_uris": {"ios": "https://dc.lft.to/lastmile_qr_scan", "android": "https://dc.lft.to/lastmile_qr_scan"}, "lon": -76.98555983333333, "type": "electric_scooter", "fusion_lat": 0.0, "lat": 38.889989, "name": "05ea68742ac76cd98e6749a6b3fc6226", "fusion_lon": 0.0, "bike_id": "05ea68742ac76cd98e6749a6b3fc6226", "is_disabled": 0, "is_reserved": 0}, {"rental_uris": {"ios": "https://dc.lft.to/lastmile_qr_scan", "android": "https://dc.lft.to/lastmile_qr_scan"}, "lon": -77.04741683333333, "type": "electric_scooter", "fusion_lat": 0.0, "lat": 38.9023805, "name": "d77b0df382e37abb05a94027d5d8e13c", "fusion_lon": 0.0, "bike_id": "d77b0df382e37abb05a94027d5d8e13c", "is_disabled": 0, "is_reserved": 0}, {"rental_uris": {"ios": "https://dc.lft.to/lastmile_qr_scan", "android": "https://dc.lft.to/lastmile_qr_scan"}, "lon": -77.02677983333334, "type": "electric_scooter", "fusion_lat": 0.0, "lat": 38.89952133333333, "name": "f78e1a77ca65e9f6998f808dbefab0d0", "fusion_lon": 0.0, "bike_id": "f78e1a77ca65e9f6998f808dbefab0d0", "is_disabled": 0, "is_reserved": 0}, {"rental_uris": {"ios": "https://dc.lft.to/lastmile_qr_scan", "android": "https://dc.lft.to/lastmile_qr_scan"}, "lon": -77.0356565, "type": "electric_scooter", "fusion_lat": 0.0, "lat": 38.957236, "name": "1ff8618605b668f49dafda45aec7f77b", "fusion_lon": 0.0, "bike_id": "1ff8618605b668f49dafda45aec7f77b", "is_disabled": 0, "is_reserved": 0}, {"rental_uris": {"ios": "https://dc.lft.to/lastmile_qr_scan", "android": "https://dc.lft.to/lastmile_qr_scan"}, "lon": -77.03212866666667, "type": "electric_scooter", "fusion_lat": 0.0, "lat": 38.91794383333333, "name": "4bcb25ec09df4fb7d08c7073fad2911f", "fusion_lon": 0.0, "bike_id": "4bcb25ec09df4fb7d08c7073fad2911f", "is_disabled": 0, "is_reserved": 0}, {"rental_uris": {"ios": "https://dc.lft.to/lastmile_qr_scan", "android": "https://dc.lft.to/lastmile_qr_scan"}, "lon": -77.12258166666666, "type": "electric_bike", "fusion_lat": 0.0, "lat": 38.8919325, "name": "687e7265e0556d33f5d32419048310c3", "fusion_lon": 0.0, "bike_id": "687e7265e0556d33f5d32419048310c3", "is_disabled": 0, "is_reserved": 0}, {"rental_uris": {"ios": "https://dc.lft.to/lastmile_qr_scan", "android": "https://dc.lft.to/lastmile_qr_scan"}, "lon": -77.11224533333333, "type": "electric_bike", "fusion_lat": 0.0, "lat": 38.8287565, "name": "14741d36bfe7a6fedd2e9e47341da096", "fusion_lon": 0.0, "bike_id": "14741d36bfe7a6fedd2e9e47341da096", "is_disabled": 0, "is_reserved": 0}, {"rental_uris": {"ios": "https://dc.lft.to/lastmile_qr_scan", "android": "https://dc.lft.to/lastmile_qr_scan"}, "lon": -76.98733916666667, "type": "electric_bike", "fusion_lat": 0.0, "lat": 38.94434116666667, "name": "7f9b89372ff7e61f46eb3835e7e4e670", "fusion_lon": 0.0, "bike_id": "7f9b89372ff7e61f46eb3835e7e4e670", "is_disabled": 0, "is_reserved": 0}, {"rental_uris": {"ios": "https://dc.lft.to/lastmile_qr_scan", "android": "https://dc.lft.to/lastmile_qr_scan"}, "lon": -77.076826, "type": "electric_bike", "fusion_lat": 0.0, "lat": 38.8319525, "name": "be5d98d1d9e163882d9d9c1377cb0de4", "fusion_lon": 0.0, "bike_id": "be5d98d1d9e163882d9d9c1377cb0de4", "is_disabled": 0, "is_reserved": 0}, {"rental_uris": {"ios": "https://dc.lft.to/lastmile_qr_scan", "android": "https://dc.lft.to/lastmile_qr_scan"}, "lon": -77.0050125, "type": "electric_scooter", "fusion_lat": 0.0, "lat": 38.91681033333333, "name": "1649a71112728f660b92d49b0762014a", "fusion_lon": 0.0, "bike_id": "1649a71112728f660b92d49b0762014a", "is_disabled": 0, "is_reserved": 0}, {"rental_uris": {"ios": "https://dc.lft.to/lastmile_qr_scan", "android": "https://dc.lft.to/lastmile_qr_scan"}, "lon": -77.04995666666667, "type": "electric_scooter", "fusion_lat": 0.0, "lat": 38.8990325, "name": "7370d95d2e0b08cf71d43181793e12ee", "fusion_lon": 0.0, "bike_id": "7370d95d2e0b08cf71d43181793e12ee", "is_disabled": 0, "is_reserved": 0}, {"rental_uris": {"ios": "https://dc.lft.to/lastmile_qr_scan", "android": "https://dc.lft.to/lastmile_qr_scan"}, "lon": -76.93538333333333, "type": "electric_bike", "fusion_lat": 0.0, "lat": 38.955623, "name": "af6057782f4b59b29e67ad9c1ee9e06c", "fusion_lon": 0.0, "bike_id": "af6057782f4b59b29e67ad9c1ee9e06c", "is_disabled": 0, "is_reserved": 0}, {"rental_uris": {"ios": "https://dc.lft.to/lastmile_qr_scan", "android": "https://dc.lft.to/lastmile_qr_scan"}, "lon": -77.03354116666667, "type": "electric_scooter", "fusion_lat": 0.0, "lat": 38.924451, "name": "27c5cd491e1ef235943dc07602e9b9a7", "fusion_lon": 0.0, "bike_id": "27c5cd491e1ef235943dc07602e9b9a7", "is_disabled": 0, "is_reserved": 0}, {"rental_uris": {"ios": "https://dc.lft.to/lastmile_qr_scan", "android": "https://dc.lft.to/lastmile_qr_scan"}, "lon": -77.061135, "type": "electric_bike", "fusion_lat": 0.0, "lat": 38.909304666666664, "name": "d7af1fb98513d3a9604c2d830f448888", "fusion_lon": 0.0, "bike_id": "d7af1fb98513d3a9604c2d830f448888", "is_disabled": 0, "is_reserved": 0}, {"rental_uris": {"ios": "https://dc.lft.to/lastmile_qr_scan", "android": "https://dc.lft.to/lastmile_qr_scan"}, "lon": -77.02383716666667, "type": "electric_scooter", "fusion_lat": 0.0, "lat": 38.95245416666667, "name": "e4637d2a9667f81d7bf59c8cdd4fa068", "fusion_lon": 0.0, "bike_id": "e4637d2a9667f81d7bf59c8cdd4fa068", "is_disabled": 0, "is_reserved": 0}, {"rental_uris": {"ios": "https://dc.lft.to/lastmile_qr_scan", "android": "https://dc.lft.to/lastmile_qr_scan"}, "lon": -76.99630116666667, "type": "electric_scooter", "fusion_lat": 0.0, "lat": 38.84625483333333, "name": "d7d369effe5e3eee74c7a9ddc3efc246", "fusion_lon": 0.0, "bike_id": "d7d369effe5e3eee74c7a9ddc3efc246", "is_disabled": 0, "is_reserved": 0}, {"rental_uris": {"ios": "https://dc.lft.to/lastmile_qr_scan", "android": "https://dc.lft.to/lastmile_qr_scan"}, "lon": -77.045075, "type": "electric_scooter", "fusion_lat": 0.0, "lat": 38.907748, "name": "b73f52c6fa3e96918aa25a87b0065326", "fusion_lon": 0.0, "bike_id": "b73f52c6fa3e96918aa25a87b0065326", "is_disabled": 0, "is_reserved": 0}, {"rental_uris": {"ios": "https://dc.lft.to/lastmile_qr_scan", "android": "https://dc.lft.to/lastmile_qr_scan"}, "lon": -77.00983416666666, "type": "electric_bike", "fusion_lat": 0.0, "lat": 38.98847033333333, "name": "1b6bbe89ca6886efab97475354c6e736", "fusion_lon": 0.0, "bike_id": "1b6bbe89ca6886efab97475354c6e736", "is_disabled": 0, "is_reserved": 0}, {"rental_uris": {"ios": "https://dc.lft.to/lastmile_qr_scan", "android": "https://dc.lft.to/lastmile_qr_scan"}, "lon": -77.02135033333333, "type": "electric_scooter", "fusion_lat": 0.0, "lat": 38.937642333333336, "name": "bf6da8dc378656d6cf61283dce50c0b0", "fusion_lon": 0.0, "bike_id": "bf6da8dc378656d6cf61283dce50c0b0", "is_disabled": 0, "is_reserved": 0}, {"rental_uris": {"ios": "https://dc.lft.to/lastmile_qr_scan", "android": "https://dc.lft.to/lastmile_qr_scan"}, "lon": -77.01969133333333, "type": "electric_scooter", "fusion_lat": 0.0, "lat": 38.90128133333333, "name": "d1a9c3574833bb2676984cec767c1e67", "fusion_lon": 0.0, "bike_id": "d1a9c3574833bb2676984cec767c1e67", "is_disabled": 0, "is_reserved": 0}, {"rental_uris": {"ios": "https://dc.lft.to/lastmile_qr_scan", "android": "https://dc.lft.to/lastmile_qr_scan"}, "lon": -76.99445183333333, "type": "electric_scooter", "fusion_lat": 0.0, "lat": 38.9003445, "name": "b666850bb0f3ae0eadc9db8fe94a3c59", "fusion_lon": 0.0, "bike_id": "b666850bb0f3ae0eadc9db8fe94a3c59", "is_disabled": 0, "is_reserved": 0}, {"rental_uris": {"ios": "https://dc.lft.to/lastmile_qr_scan", "android": "https://dc.lft.to/lastmile_qr_scan"}, "lon": -77.02188383333333, "type": "electric_scooter", "fusion_lat": 0.0, "lat": 38.91107383333333, "name": "2b0bf1ca36e84896951a307aa412b406", "fusion_lon": 0.0, "bike_id": "2b0bf1ca36e84896951a307aa412b406", "is_disabled": 0, "is_reserved": 0}, {"rental_uris": {"ios": "https://dc.lft.to/lastmile_qr_scan", "android": "https://dc.lft.to/lastmile_qr_scan"}, "lon": -76.94753366666667, "type": "electric_scooter", "fusion_lat": 0.0, "lat": 38.900530833333335, "name": "0b4b5168b80d02467d7724b0140f7fb6", "fusion_lon": 0.0, "bike_id": "0b4b5168b80d02467d7724b0140f7fb6", "is_disabled": 0, "is_reserved": 0}, {"rental_uris": {"ios": "https://dc.lft.to/lastmile_qr_scan", "android": "https://dc.lft.to/lastmile_qr_scan"}, "lon": -77.01751783333333, "type": "electric_scooter", "fusion_lat": 0.0, "lat": 38.902568, "name": "7a0cac737fde37510d01cd264dc122c5", "fusion_lon": 0.0, "bike_id": "7a0cac737fde37510d01cd264dc122c5", "is_disabled": 0, "is_reserved": 0}, {"rental_uris": {"ios": "https://dc.lft.to/lastmile_qr_scan", "android": "https://dc.lft.to/lastmile_qr_scan"}, "lon": -76.99014483333333, "type": "electric_scooter", "fusion_lat": 0.0, "lat": 38.861043333333335, "name": "0dae035ab3ef5c82ca45f104c86aad33", "fusion_lon": 0.0, "bike_id": "0dae035ab3ef5c82ca45f104c86aad33", "is_disabled": 0, "is_reserved": 0}, {"rental_uris": {"ios": "https://dc.lft.to/lastmile_qr_scan", "android": "https://dc.lft.to/lastmile_qr_scan"}, "lon": -77.00594183333334, "type": "electric_scooter", "fusion_lat": 0.0, "lat": 38.906135666666664, "name": "6ca8f710a9413f94af76f4fce540f253", "fusion_lon": 0.0, "bike_id": "6ca8f710a9413f94af76f4fce540f253", "is_disabled": 0, "is_reserved": 0}, {"rental_uris": {"ios": "https://dc.lft.to/lastmile_qr_scan", "android": "https://dc.lft.to/lastmile_qr_scan"}, "lon": -77.0448135, "type": "electric_scooter", "fusion_lat": 0.0, "lat": 38.903422166666665, "name": "0373e7d027b19b8312be1584a7edb427", "fusion_lon": 0.0, "bike_id": "0373e7d027b19b8312be1584a7edb427", "is_disabled": 0, "is_reserved": 0}, {"rental_uris": {"ios": "https://dc.lft.to/lastmile_qr_scan", "android": "https://dc.lft.to/lastmile_qr_scan"}, "lon": -77.0639025, "type": "electric_scooter", "fusion_lat": 0.0, "lat": 38.929111, "name": "e3748ac0736e9b54beb8197b3ddff0f6", "fusion_lon": 0.0, "bike_id": "e3748ac0736e9b54beb8197b3ddff0f6", "is_disabled": 0, "is_reserved": 0}, {"rental_uris": {"ios": "https://dc.lft.to/lastmile_qr_scan", "android": "https://dc.lft.to/lastmile_qr_scan"}, "lon": -77.04257183333333, "type": "electric_scooter", "fusion_lat": 0.0, "lat": 38.9205905, "name": "f792a09d9bb9d0e57cb410099cb396c8", "fusion_lon": 0.0, "bike_id": "f792a09d9bb9d0e57cb410099cb396c8", "is_disabled": 0, "is_reserved": 0}, {"rental_uris": {"ios": "https://dc.lft.to/lastmile_qr_scan", "android": "https://dc.lft.to/lastmile_qr_scan"}, "lon": -77.02586366666667, "type": "electric_scooter", "fusion_lat": 0.0, "lat": 38.916486666666664, "name": "dd4a8ccbcaa4cbaa623e20b17975b77a", "fusion_lon": 0.0, "bike_id": "dd4a8ccbcaa4cbaa623e20b17975b77a", "is_disabled": 0, "is_reserved": 0}, {"rental_uris": {"ios": "https://dc.lft.to/lastmile_qr_scan", "android": "https://dc.lft.to/lastmile_qr_scan"}, "lon": -77.00586633333333, "type": "electric_scooter", "fusion_lat": 0.0, "lat": 38.90579283333334, "name": "f0208d0c6d5620f574c5b580ebfe27f5", "fusion_lon": 0.0, "bike_id": "f0208d0c6d5620f574c5b580ebfe27f5", "is_disabled": 0, "is_reserved": 0}, {"rental_uris": {"ios": "https://dc.lft.to/lastmile_qr_scan", "android": "https://dc.lft.to/lastmile_qr_scan"}, "lon": -76.976298, "type": "electric_bike", "fusion_lat": 0.0, "lat": 38.892868666666665, "name": "88108f52f0eaa5eeabc73c9831ce12d0", "fusion_lon": 0.0, "bike_id": "88108f52f0eaa5eeabc73c9831ce12d0", "is_disabled": 0, "is_reserved": 0}, {"rental_uris": {"ios": "https://dc.lft.to/lastmile_qr_scan", "android": "https://dc.lft.to/lastmile_qr_scan"}, "lon": -77.02830233333333, "type": "electric_scooter", "fusion_lat": 0.0, "lat": 38.924814166666664, "name": "98bd0d1490a4b34df5f6d812b343d9de", "fusion_lon": 0.0, "bike_id": "98bd0d1490a4b34df5f6d812b343d9de", "is_disabled": 0, "is_reserved": 0}, {"rental_uris": {"ios": "https://dc.lft.to/lastmile_qr_scan", "android": "https://dc.lft.to/lastmile_qr_scan"}, "lon": -77.0386735, "type": "electric_scooter", "fusion_lat": 0.0, "lat": 38.92155783333333, "name": "b40b795b662e5d576a5f96e5a73c64ca", "fusion_lon": 0.0, "bike_id": "b40b795b662e5d576a5f96e5a73c64ca", "is_disabled": 0, "is_reserved": 0}, {"rental_uris": {"ios": "https://dc.lft.to/lastmile_qr_scan", "android": "https://dc.lft.to/lastmile_qr_scan"}, "lon": -77.0276435, "type": "electric_scooter", "fusion_lat": 0.0, "lat": 38.891992333333334, "name": "888a1d4a46034474e8b77f9b461aad00", "fusion_lon": 0.0, "bike_id": "888a1d4a46034474e8b77f9b461aad00", "is_disabled": 0, "is_reserved": 0}, {"rental_uris": {"ios": "https://dc.lft.to/lastmile_qr_scan", "android": "https://dc.lft.to/lastmile_qr_scan"}, "lon": -77.03442266666667, "type": "electric_scooter", "fusion_lat": 0.0, "lat": 38.91840066666666, "name": "0e0f1106479657160b3b0e3edacddc2f", "fusion_lon": 0.0, "bike_id": "0e0f1106479657160b3b0e3edacddc2f", "is_disabled": 0, "is_reserved": 0}, {"rental_uris": {"ios": "https://dc.lft.to/lastmile_qr_scan", "android": "https://dc.lft.to/lastmile_qr_scan"}, "lon": -76.99266283333333, "type": "electric_scooter", "fusion_lat": 0.0, "lat": 38.89768216666667, "name": "f77dca0c365efeffae64b0ec3ecb1b7a", "fusion_lon": 0.0, "bike_id": "f77dca0c365efeffae64b0ec3ecb1b7a", "is_disabled": 0, "is_reserved": 0}, {"rental_uris": {"ios": "https://dc.lft.to/lastmile_qr_scan", "android": "https://dc.lft.to/lastmile_qr_scan"}, "lon": -77.01080583333334, "type": "electric_bike", "fusion_lat": 0.0, "lat": 38.9565405, "name": "26f1c9eb03007cc42feabf5987f1ec57", "fusion_lon": 0.0, "bike_id": "26f1c9eb03007cc42feabf5987f1ec57", "is_disabled": 0, "is_reserved": 0}, {"rental_uris": {"ios": "https://dc.lft.to/lastmile_qr_scan", "android": "https://dc.lft.to/lastmile_qr_scan"}, "lon": -77.0000095, "type": "electric_scooter", "fusion_lat": 0.0, "lat": 38.900122, "name": "ee1d4f188236fae305c54f2c75512d8b", "fusion_lon": 0.0, "bike_id": "ee1d4f188236fae305c54f2c75512d8b", "is_disabled": 0, "is_reserved": 0}, {"rental_uris": {"ios": "https://dc.lft.to/lastmile_qr_scan", "android": "https://dc.lft.to/lastmile_qr_scan"}, "lon": -77.0369505, "type": "electric_scooter", "fusion_lat": 0.0, "lat": 38.916766, "name": "5a1f7c61e97981599a5ed1716b526ce7", "fusion_lon": 0.0, "bike_id": "5a1f7c61e97981599a5ed1716b526ce7", "is_disabled": 0, "is_reserved": 0}, {"rental_uris": {"ios": "https://dc.lft.to/lastmile_qr_scan", "android": "https://dc.lft.to/lastmile_qr_scan"}, "lon": -76.97504733333334, "type": "electric_bike", "fusion_lat": 0.0, "lat": 38.9193405, "name": "b0a037d3f36cd8bbae2327b628883207", "fusion_lon": 0.0, "bike_id": "b0a037d3f36cd8bbae2327b628883207", "is_disabled": 0, "is_reserved": 0}, {"rental_uris": {"ios": "https://dc.lft.to/lastmile_qr_scan", "android": "https://dc.lft.to/lastmile_qr_scan"}, "lon": -77.03198116666667, "type": "electric_scooter", "fusion_lat": 0.0, "lat": 38.9077545, "name": "f626d037fbc71be604ccd6d873c5b375", "fusion_lon": 0.0, "bike_id": "f626d037fbc71be604ccd6d873c5b375", "is_disabled": 0, "is_reserved": 0}, {"rental_uris": {"ios": "https://dc.lft.to/lastmile_qr_scan", "android": "https://dc.lft.to/lastmile_qr_scan"}, "lon": -76.98565716666667, "type": "electric_scooter", "fusion_lat": 0.0, "lat": 38.861484833333336, "name": "0b1b444473b3846763c58b01804abd6c", "fusion_lon": 0.0, "bike_id": "0b1b444473b3846763c58b01804abd6c", "is_disabled": 0, "is_reserved": 0}, {"rental_uris": {"ios": "https://dc.lft.to/lastmile_qr_scan", "android": "https://dc.lft.to/lastmile_qr_scan"}, "lon": -76.98374933333334, "type": "electric_scooter", "fusion_lat": 0.0, "lat": 38.860310166666665, "name": "150827acb19989e65fea6bbc100984e7", "fusion_lon": 0.0, "bike_id": "150827acb19989e65fea6bbc100984e7", "is_disabled": 0, "is_reserved": 0}, {"rental_uris": {"ios": "https://dc.lft.to/lastmile_qr_scan", "android": "https://dc.lft.to/lastmile_qr_scan"}, "lon": -77.01616233333333, "type": "electric_scooter", "fusion_lat": 0.0, "lat": 38.91021683333334, "name": "f9d689fc618ecb6f472b3d3cf28d01d5", "fusion_lon": 0.0, "bike_id": "f9d689fc618ecb6f472b3d3cf28d01d5", "is_disabled": 0, "is_reserved": 0}, {"rental_uris": {"ios": "https://dc.lft.to/lastmile_qr_scan", "android": "https://dc.lft.to/lastmile_qr_scan"}, "lon": -77.04635216666667, "type": "electric_scooter", "fusion_lat": 0.0, "lat": 38.8922415, "name": "254c91f62d5ed873d5c4b6d7ce64c77c", "fusion_lon": 0.0, "bike_id": "254c91f62d5ed873d5c4b6d7ce64c77c", "is_disabled": 0, "is_reserved": 0}, {"rental_uris": {"ios": "https://dc.lft.to/lastmile_qr_scan", "android": "https://dc.lft.to/lastmile_qr_scan"}, "lon": -76.97325833333333, "type": "electric_scooter", "fusion_lat": 0.0, "lat": 38.930336833333335, "name": "c7eade573d14d02adf4019a3e3f0d371", "fusion_lon": 0.0, "bike_id": "c7eade573d14d02adf4019a3e3f0d371", "is_disabled": 0, "is_reserved": 0}, {"rental_uris": {"ios": "https://dc.lft.to/lastmile_qr_scan", "android": "https://dc.lft.to/lastmile_qr_scan"}, "lon": -76.97564966666667, "type": "electric_scooter", "fusion_lat": 0.0, "lat": 38.904481833333335, "name": "824fdaa1bb5f1a14f95d85d576faea8d", "fusion_lon": 0.0, "bike_id": "824fdaa1bb5f1a14f95d85d576faea8d", "is_disabled": 0, "is_reserved": 0}, {"rental_uris": {"ios": "https://dc.lft.to/lastmile_qr_scan", "android": "https://dc.lft.to/lastmile_qr_scan"}, "lon": -77.025823, "type": "electric_scooter", "fusion_lat": 0.0, "lat": 38.89770883333333, "name": "c95f73abba73b29828b211ec2499d9c8", "fusion_lon": 0.0, "bike_id": "c95f73abba73b29828b211ec2499d9c8", "is_disabled": 0, "is_reserved": 0}, {"rental_uris": {"ios": "https://dc.lft.to/lastmile_qr_scan", "android": "https://dc.lft.to/lastmile_qr_scan"}, "lon": -76.9960975, "type": "electric_scooter", "fusion_lat": 0.0, "lat": 38.88626416666666, "name": "39b1818637715d5aa8899d1fa466faed", "fusion_lon": 0.0, "bike_id": "39b1818637715d5aa8899d1fa466faed", "is_disabled": 0, "is_reserved": 0}, {"rental_uris": {"ios": "https://dc.lft.to/lastmile_qr_scan", "android": "https://dc.lft.to/lastmile_qr_scan"}, "lon": -77.02970716666667, "type": "electric_scooter", "fusion_lat": 0.0, "lat": 38.9178085, "name": "789fa260f03fc3555f8aa6ebaca71cb1", "fusion_lon": 0.0, "bike_id": "789fa260f03fc3555f8aa6ebaca71cb1", "is_disabled": 0, "is_reserved": 0}, {"rental_uris": {"ios": "https://dc.lft.to/lastmile_qr_scan", "android": "https://dc.lft.to/lastmile_qr_scan"}, "lon": -77.0403335, "type": "electric_bike", "fusion_lat": 0.0, "lat": 38.804279666666666, "name": "0f69228428ae5cfc5ed32769ae139f62", "fusion_lon": 0.0, "bike_id": "0f69228428ae5cfc5ed32769ae139f62", "is_disabled": 0, "is_reserved": 0}, {"rental_uris": {"ios": "https://dc.lft.to/lastmile_qr_scan", "android": "https://dc.lft.to/lastmile_qr_scan"}, "lon": -77.02655883333334, "type": "electric_scooter", "fusion_lat": 0.0, "lat": 38.91057983333334, "name": "04a11b9bb1964de9276668f68c9aa431", "fusion_lon": 0.0, "bike_id": "04a11b9bb1964de9276668f68c9aa431", "is_disabled": 0, "is_reserved": 0}, {"rental_uris": {"ios": "https://dc.lft.to/lastmile_qr_scan", "android": "https://dc.lft.to/lastmile_qr_scan"}, "lon": -77.04480933333333, "type": "electric_scooter", "fusion_lat": 0.0, "lat": 38.903535166666664, "name": "7fbe6f09fed088be0589b7f661c352c8", "fusion_lon": 0.0, "bike_id": "7fbe6f09fed088be0589b7f661c352c8", "is_disabled": 0, "is_reserved": 0}, {"rental_uris": {"ios": "https://dc.lft.to/lastmile_qr_scan", "android": "https://dc.lft.to/lastmile_qr_scan"}, "lon": -76.985576, "type": "electric_scooter", "fusion_lat": 0.0, "lat": 38.8996065, "name": "7f64fd958742763e87ff69c635d894af", "fusion_lon": 0.0, "bike_id": "7f64fd958742763e87ff69c635d894af", "is_disabled": 0, "is_reserved": 0}, {"rental_uris": {"ios": "https://dc.lft.to/lastmile_qr_scan", "android": "https://dc.lft.to/lastmile_qr_scan"}, "lon": -77.02700883333333, "type": "electric_scooter", "fusion_lat": 0.0, "lat": 38.900123666666666, "name": "ef5b5c7ba1825f84ffd32d0e5576f847", "fusion_lon": 0.0, "bike_id": "ef5b5c7ba1825f84ffd32d0e5576f847", "is_disabled": 0, "is_reserved": 0}, {"rental_uris": {"ios": "https://dc.lft.to/lastmile_qr_scan", "android": "https://dc.lft.to/lastmile_qr_scan"}, "lon": -77.0244155, "type": "electric_scooter", "fusion_lat": 0.0, "lat": 38.90218433333333, "name": "c0bb556cf6b37df9633880f7ae41b9fa", "fusion_lon": 0.0, "bike_id": "c0bb556cf6b37df9633880f7ae41b9fa", "is_disabled": 0, "is_reserved": 0}, {"rental_uris": {"ios": "https://dc.lft.to/lastmile_qr_scan", "android": "https://dc.lft.to/lastmile_qr_scan"}, "lon": -76.97935483333333, "type": "electric_scooter", "fusion_lat": 0.0, "lat": 38.902462666666665, "name": "b7c28cab89312df67d5dca7eb15e21ac", "fusion_lon": 0.0, "bike_id": "b7c28cab89312df67d5dca7eb15e21ac", "is_disabled": 0, "is_reserved": 0}, {"rental_uris": {"ios": "https://dc.lft.to/lastmile_qr_scan", "android": "https://dc.lft.to/lastmile_qr_scan"}, "lon": -77.04571033333333, "type": "electric_scooter", "fusion_lat": 0.0, "lat": 38.921320333333334, "name": "b3dfab5a0ce4b015b9deaf2ca782b691", "fusion_lon": 0.0, "bike_id": "b3dfab5a0ce4b015b9deaf2ca782b691", "is_disabled": 0, "is_reserved": 0}, {"rental_uris": {"ios": "https://dc.lft.to/lastmile_qr_scan", "android": "https://dc.lft.to/lastmile_qr_scan"}, "lon": -77.00335983333333, "type": "electric_scooter", "fusion_lat": 0.0, "lat": 38.8935575, "name": "8234241135254053fbf1f2b13fefc5e7", "fusion_lon": 0.0, "bike_id": "8234241135254053fbf1f2b13fefc5e7", "is_disabled": 0, "is_reserved": 0}, {"rental_uris": {"ios": "https://dc.lft.to/lastmile_qr_scan", "android": "https://dc.lft.to/lastmile_qr_scan"}, "lon": -77.03956933333333, "type": "electric_scooter", "fusion_lat": 0.0, "lat": 38.899065, "name": "2e1b33dfbf0099491af9660ec5608ea5", "fusion_lon": 0.0, "bike_id": "2e1b33dfbf0099491af9660ec5608ea5", "is_disabled": 0, "is_reserved": 0}, {"rental_uris": {"ios": "https://dc.lft.to/lastmile_qr_scan", "android": "https://dc.lft.to/lastmile_qr_scan"}, "lon": -77.01595533333334, "type": "electric_scooter", "fusion_lat": 0.0, "lat": 38.918589833333336, "name": "140273ed7747bbd2469ae84aa8fae470", "fusion_lon": 0.0, "bike_id": "140273ed7747bbd2469ae84aa8fae470", "is_disabled": 0, "is_reserved": 0}, {"rental_uris": {"ios": "https://dc.lft.to/lastmile_qr_scan", "android": "https://dc.lft.to/lastmile_qr_scan"}, "lon": -76.97925466666666, "type": "electric_scooter", "fusion_lat": 0.0, "lat": 38.866153833333335, "name": "467849a2675aa0610bb4a1328ba5e46e", "fusion_lon": 0.0, "bike_id": "467849a2675aa0610bb4a1328ba5e46e", "is_disabled": 0, "is_reserved": 0}, {"rental_uris": {"ios": "https://dc.lft.to/lastmile_qr_scan", "android": "https://dc.lft.to/lastmile_qr_scan"}, "lon": -77.03291466666667, "type": "electric_scooter", "fusion_lat": 0.0, "lat": 38.90847766666667, "name": "45f5436355d824e576381e4d67e360e7", "fusion_lon": 0.0, "bike_id": "45f5436355d824e576381e4d67e360e7", "is_disabled": 0, "is_reserved": 0}, {"rental_uris": {"ios": "https://dc.lft.to/lastmile_qr_scan", "android": "https://dc.lft.to/lastmile_qr_scan"}, "lon": -77.01376983333333, "type": "electric_scooter", "fusion_lat": 0.0, "lat": 38.898284333333336, "name": "c9641c50e78ab9560b8c8d8e806b4269", "fusion_lon": 0.0, "bike_id": "c9641c50e78ab9560b8c8d8e806b4269", "is_disabled": 0, "is_reserved": 0}, {"rental_uris": {"ios": "https://dc.lft.to/lastmile_qr_scan", "android": "https://dc.lft.to/lastmile_qr_scan"}, "lon": -77.02689116666667, "type": "electric_scooter", "fusion_lat": 0.0, "lat": 38.90615716666667, "name": "11c101c63914acafd23de9ab75012171", "fusion_lon": 0.0, "bike_id": "11c101c63914acafd23de9ab75012171", "is_disabled": 0, "is_reserved": 0}, {"rental_uris": {"ios": "https://dc.lft.to/lastmile_qr_scan", "android": "https://dc.lft.to/lastmile_qr_scan"}, "lon": -77.03591033333333, "type": "electric_bike", "fusion_lat": 0.0, "lat": 38.906895, "name": "d16b9ac81576bdaf8301bf8470ccd9be", "fusion_lon": 0.0, "bike_id": "d16b9ac81576bdaf8301bf8470ccd9be", "is_disabled": 0, "is_reserved": 0}, {"rental_uris": {"ios": "https://dc.lft.to/lastmile_qr_scan", "android": "https://dc.lft.to/lastmile_qr_scan"}, "lon": -77.027123, "type": "electric_scooter", "fusion_lat": 0.0, "lat": 38.8813025, "name": "2436c43e0e0638b1fb44dd3023ed3508", "fusion_lon": 0.0, "bike_id": "2436c43e0e0638b1fb44dd3023ed3508", "is_disabled": 0, "is_reserved": 0}, {"rental_uris": {"ios": "https://dc.lft.to/lastmile_qr_scan", "android": "https://dc.lft.to/lastmile_qr_scan"}, "lon": -77.02768083333333, "type": "electric_scooter", "fusion_lat": 0.0, "lat": 38.89973533333333, "name": "6cd07ca59243b6959925b45fd1d16d5c", "fusion_lon": 0.0, "bike_id": "6cd07ca59243b6959925b45fd1d16d5c", "is_disabled": 0, "is_reserved": 0}, {"rental_uris": {"ios": "https://dc.lft.to/lastmile_qr_scan", "android": "https://dc.lft.to/lastmile_qr_scan"}, "lon": -77.07171966666667, "type": "electric_scooter", "fusion_lat": 0.0, "lat": 38.958377166666665, "name": "c49c083c78e04a2ebcdc640dbc492b98", "fusion_lon": 0.0, "bike_id": "c49c083c78e04a2ebcdc640dbc492b98", "is_disabled": 0, "is_reserved": 0}, {"rental_uris": {"ios": "https://dc.lft.to/lastmile_qr_scan", "android": "https://dc.lft.to/lastmile_qr_scan"}, "lon": -77.019854, "type": "electric_scooter", "fusion_lat": 0.0, "lat": 38.91195733333333, "name": "05fb1c97dc5cadd99f8e0310ebfacb5e", "fusion_lon": 0.0, "bike_id": "05fb1c97dc5cadd99f8e0310ebfacb5e", "is_disabled": 0, "is_reserved": 0}, {"rental_uris": {"ios": "https://dc.lft.to/lastmile_qr_scan", "android": "https://dc.lft.to/lastmile_qr_scan"}, "lon": -77.04900833333333, "type": "electric_scooter", "fusion_lat": 0.0, "lat": 38.88843983333334, "name": "09470334a2b5c62d454fde9a3994fd50", "fusion_lon": 0.0, "bike_id": "09470334a2b5c62d454fde9a3994fd50", "is_disabled": 0, "is_reserved": 0}, {"rental_uris": {"ios": "https://dc.lft.to/lastmile_qr_scan", "android": "https://dc.lft.to/lastmile_qr_scan"}, "lon": -76.99117866666667, "type": "electric_scooter", "fusion_lat": 0.0, "lat": 38.9001535, "name": "efe6511afc39df9c335df803f96e1464", "fusion_lon": 0.0, "bike_id": "efe6511afc39df9c335df803f96e1464", "is_disabled": 0, "is_reserved": 0}, {"rental_uris": {"ios": "https://dc.lft.to/lastmile_qr_scan", "android": "https://dc.lft.to/lastmile_qr_scan"}, "lon": -77.03185283333333, "type": "electric_scooter", "fusion_lat": 0.0, "lat": 38.90868183333333, "name": "6d8a07d3dea5e603531aa7b0c28740d8", "fusion_lon": 0.0, "bike_id": "6d8a07d3dea5e603531aa7b0c28740d8", "is_disabled": 0, "is_reserved": 0}, {"rental_uris": {"ios": "https://dc.lft.to/lastmile_qr_scan", "android": "https://dc.lft.to/lastmile_qr_scan"}, "lon": -77.02399166666666, "type": "electric_scooter", "fusion_lat": 0.0, "lat": 38.907055666666665, "name": "8a1809978951538368dd2f61794feb0d", "fusion_lon": 0.0, "bike_id": "8a1809978951538368dd2f61794feb0d", "is_disabled": 0, "is_reserved": 0}, {"rental_uris": {"ios": "https://dc.lft.to/lastmile_qr_scan", "android": "https://dc.lft.to/lastmile_qr_scan"}, "lon": -77.03889516666666, "type": "electric_scooter", "fusion_lat": 0.0, "lat": 38.9024935, "name": "07747d4d2ee050662efb251ebdf3c419", "fusion_lon": 0.0, "bike_id": "07747d4d2ee050662efb251ebdf3c419", "is_disabled": 0, "is_reserved": 0}, {"rental_uris": {"ios": "https://dc.lft.to/lastmile_qr_scan", "android": "https://dc.lft.to/lastmile_qr_scan"}, "lon": -77.04885183333333, "type": "electric_scooter", "fusion_lat": 0.0, "lat": 38.91244483333333, "name": "790f222647d013e9e0ad9bebab9aeb03", "fusion_lon": 0.0, "bike_id": "790f222647d013e9e0ad9bebab9aeb03", "is_disabled": 0, "is_reserved": 0}, {"rental_uris": {"ios": "https://dc.lft.to/lastmile_qr_scan", "android": "https://dc.lft.to/lastmile_qr_scan"}, "lon": -77.01511433333333, "type": "electric_scooter", "fusion_lat": 0.0, "lat": 38.887327, "name": "6c04a9213c4ec5dfe7cbbb910904da57", "fusion_lon": 0.0, "bike_id": "6c04a9213c4ec5dfe7cbbb910904da57", "is_disabled": 0, "is_reserved": 0}, {"rental_uris": {"ios": "https://dc.lft.to/lastmile_qr_scan", "android": "https://dc.lft.to/lastmile_qr_scan"}, "lon": -77.03076833333333, "type": "electric_scooter", "fusion_lat": 0.0, "lat": 38.909966833333336, "name": "3f64c60d727348d6e1939c1360ce06b4", "fusion_lon": 0.0, "bike_id": "3f64c60d727348d6e1939c1360ce06b4", "is_disabled": 0, "is_reserved": 0}, {"rental_uris": {"ios": "https://dc.lft.to/lastmile_qr_scan", "android": "https://dc.lft.to/lastmile_qr_scan"}, "lon": -77.03795833333334, "type": "electric_scooter", "fusion_lat": 0.0, "lat": 38.925765, "name": "c4680663e4fe566864eba4b3490a231e", "fusion_lon": 0.0, "bike_id": "c4680663e4fe566864eba4b3490a231e", "is_disabled": 0, "is_reserved": 0}, {"rental_uris": {"ios": "https://dc.lft.to/lastmile_qr_scan", "android": "https://dc.lft.to/lastmile_qr_scan"}, "lon": -76.90435733333334, "type": "electric_bike", "fusion_lat": 0.0, "lat": 38.897686666666665, "name": "f1e7183c4a4d4c7e41166ed5af3c57f8", "fusion_lon": 0.0, "bike_id": "f1e7183c4a4d4c7e41166ed5af3c57f8", "is_disabled": 0, "is_reserved": 0}, {"rental_uris": {"ios": "https://dc.lft.to/lastmile_qr_scan", "android": "https://dc.lft.to/lastmile_qr_scan"}, "lon": -77.01989583333334, "type": "electric_scooter", "fusion_lat": 0.0, "lat": 38.904851666666666, "name": "8e6854e9437ec0295fc1145248bbcf09", "fusion_lon": 0.0, "bike_id": "8e6854e9437ec0295fc1145248bbcf09", "is_disabled": 0, "is_reserved": 0}, {"rental_uris": {"ios": "https://dc.lft.to/lastmile_qr_scan", "android": "https://dc.lft.to/lastmile_qr_scan"}, "lon": -77.02326466666666, "type": "electric_scooter", "fusion_lat": 0.0, "lat": 38.92944116666666, "name": "a549f98990521a99e0457ed4717abccb", "fusion_lon": 0.0, "bike_id": "a549f98990521a99e0457ed4717abccb", "is_disabled": 0, "is_reserved": 0}, {"rental_uris": {"ios": "https://dc.lft.to/lastmile_qr_scan", "android": "https://dc.lft.to/lastmile_qr_scan"}, "lon": -77.00721483333334, "type": "electric_scooter", "fusion_lat": 0.0, "lat": 38.884908, "name": "437b99b8347b6c32a4ae50d425248d38", "fusion_lon": 0.0, "bike_id": "437b99b8347b6c32a4ae50d425248d38", "is_disabled": 0, "is_reserved": 0}, {"rental_uris": {"ios": "https://dc.lft.to/lastmile_qr_scan", "android": "https://dc.lft.to/lastmile_qr_scan"}, "lon": -77.0344815, "type": "electric_scooter", "fusion_lat": 0.0, "lat": 38.9035835, "name": "39539f719855cac8c63a217322519dc9", "fusion_lon": 0.0, "bike_id": "39539f719855cac8c63a217322519dc9", "is_disabled": 0, "is_reserved": 0}, {"rental_uris": {"ios": "https://dc.lft.to/lastmile_qr_scan", "android": "https://dc.lft.to/lastmile_qr_scan"}, "lon": -76.99759183333333, "type": "electric_scooter", "fusion_lat": 0.0, "lat": 38.92197, "name": "15d220ba019b32d664aa2616d76bd41e", "fusion_lon": 0.0, "bike_id": "15d220ba019b32d664aa2616d76bd41e", "is_disabled": 0, "is_reserved": 0}, {"rental_uris": {"ios": "https://dc.lft.to/lastmile_qr_scan", "android": "https://dc.lft.to/lastmile_qr_scan"}, "lon": -77.04043916666667, "type": "electric_scooter", "fusion_lat": 0.0, "lat": 38.92979533333333, "name": "e2e32d0a386c195bc9dd383940c48ae4", "fusion_lon": 0.0, "bike_id": "e2e32d0a386c195bc9dd383940c48ae4", "is_disabled": 0, "is_reserved": 0}, {"rental_uris": {"ios": "https://dc.lft.to/lastmile_qr_scan", "android": "https://dc.lft.to/lastmile_qr_scan"}, "lon": -76.99816983333334, "type": "electric_scooter", "fusion_lat": 0.0, "lat": 38.90868283333333, "name": "b75793188bf1664dbebf9b9cdf413bc3", "fusion_lon": 0.0, "bike_id": "b75793188bf1664dbebf9b9cdf413bc3", "is_disabled": 0, "is_reserved": 0}, {"rental_uris": {"ios": "https://dc.lft.to/lastmile_qr_scan", "android": "https://dc.lft.to/lastmile_qr_scan"}, "lon": -77.03331866666667, "type": "electric_scooter", "fusion_lat": 0.0, "lat": 38.9012495, "name": "7cd9099798345ac02e9256d33c9e5a65", "fusion_lon": 0.0, "bike_id": "7cd9099798345ac02e9256d33c9e5a65", "is_disabled": 0, "is_reserved": 0}, {"rental_uris": {"ios": "https://dc.lft.to/lastmile_qr_scan", "android": "https://dc.lft.to/lastmile_qr_scan"}, "lon": -76.931149, "type": "electric_scooter", "fusion_lat": 0.0, "lat": 38.89834116666667, "name": "eb04d232b3835192384849150418bc74", "fusion_lon": 0.0, "bike_id": "eb04d232b3835192384849150418bc74", "is_disabled": 0, "is_reserved": 0}, {"rental_uris": {"ios": "https://dc.lft.to/lastmile_qr_scan", "android": "https://dc.lft.to/lastmile_qr_scan"}, "lon": -77.05227166666667, "type": "electric_scooter", "fusion_lat": 0.0, "lat": 38.92518366666667, "name": "00724da784d8ddf83cb1a822628830a3", "fusion_lon": 0.0, "bike_id": "00724da784d8ddf83cb1a822628830a3", "is_disabled": 0, "is_reserved": 0}, {"rental_uris": {"ios": "https://dc.lft.to/lastmile_qr_scan", "android": "https://dc.lft.to/lastmile_qr_scan"}, "lon": -77.00607783333334, "type": "electric_scooter", "fusion_lat": 0.0, "lat": 38.90252366666667, "name": "b2ec2a88475bf24baed295a7df78d9d1", "fusion_lon": 0.0, "bike_id": "b2ec2a88475bf24baed295a7df78d9d1", "is_disabled": 0, "is_reserved": 0}, {"rental_uris": {"ios": "https://dc.lft.to/lastmile_qr_scan", "android": "https://dc.lft.to/lastmile_qr_scan"}, "lon": -77.02683966666666, "type": "electric_scooter", "fusion_lat": 0.0, "lat": 38.8922355, "name": "cfd485f43ee00ab179046c3eeeb4f0dd", "fusion_lon": 0.0, "bike_id": "cfd485f43ee00ab179046c3eeeb4f0dd", "is_disabled": 0, "is_reserved": 0}, {"rental_uris": {"ios": "https://dc.lft.to/lastmile_qr_scan", "android": "https://dc.lft.to/lastmile_qr_scan"}, "lon": -77.03204966666667, "type": "electric_scooter", "fusion_lat": 0.0, "lat": 38.917852333333336, "name": "eef120f1d87903aeb6c80acf2aa23f4c", "fusion_lon": 0.0, "bike_id": "eef120f1d87903aeb6c80acf2aa23f4c", "is_disabled": 0, "is_reserved": 0}, {"rental_uris": {"ios": "https://dc.lft.to/lastmile_qr_scan", "android": "https://dc.lft.to/lastmile_qr_scan"}, "lon": -76.99562816666666, "type": "electric_scooter", "fusion_lat": 0.0, "lat": 38.9287705, "name": "4710c8ce63402ba7c3e7f860a1a1a48d", "fusion_lon": 0.0, "bike_id": "4710c8ce63402ba7c3e7f860a1a1a48d", "is_disabled": 0, "is_reserved": 0}, {"rental_uris": {"ios": "https://dc.lft.to/lastmile_qr_scan", "android": "https://dc.lft.to/lastmile_qr_scan"}, "lon": -77.02608016666667, "type": "electric_scooter", "fusion_lat": 0.0, "lat": 38.89228083333333, "name": "17ca0f26aab06d050bc7f797b5ec9711", "fusion_lon": 0.0, "bike_id": "17ca0f26aab06d050bc7f797b5ec9711", "is_disabled": 0, "is_reserved": 0}, {"rental_uris": {"ios": "https://dc.lft.to/lastmile_qr_scan", "android": "https://dc.lft.to/lastmile_qr_scan"}, "lon": -76.9387395, "type": "electric_scooter", "fusion_lat": 0.0, "lat": 38.9008455, "name": "af4e5c44d85676ffbb1c2b7673d6c48d", "fusion_lon": 0.0, "bike_id": "af4e5c44d85676ffbb1c2b7673d6c48d", "is_disabled": 0, "is_reserved": 0}, {"rental_uris": {"ios": "https://dc.lft.to/lastmile_qr_scan", "android": "https://dc.lft.to/lastmile_qr_scan"}, "lon": -77.00371383333334, "type": "electric_bike", "fusion_lat": 0.0, "lat": 38.836107, "name": "0397ed22377598b69e4977ab7a066577", "fusion_lon": 0.0, "bike_id": "0397ed22377598b69e4977ab7a066577", "is_disabled": 0, "is_reserved": 0}, {"rental_uris": {"ios": "https://dc.lft.to/lastmile_qr_scan", "android": "https://dc.lft.to/lastmile_qr_scan"}, "lon": -76.97138383333333, "type": "electric_bike", "fusion_lat": 0.0, "lat": 38.9235915, "name": "c89e609587d43670e05544b5a38149b0", "fusion_lon": 0.0, "bike_id": "c89e609587d43670e05544b5a38149b0", "is_disabled": 0, "is_reserved": 0}, {"rental_uris": {"ios": "https://dc.lft.to/lastmile_qr_scan", "android": "https://dc.lft.to/lastmile_qr_scan"}, "lon": -76.997776, "type": "electric_scooter", "fusion_lat": 0.0, "lat": 38.8442665, "name": "e715527680a6b3f1e7b108f5befce95e", "fusion_lon": 0.0, "bike_id": "e715527680a6b3f1e7b108f5befce95e", "is_disabled": 0, "is_reserved": 0}, {"rental_uris": {"ios": "https://dc.lft.to/lastmile_qr_scan", "android": "https://dc.lft.to/lastmile_qr_scan"}, "lon": -77.04233233333333, "type": "electric_scooter", "fusion_lat": 0.0, "lat": 38.91342433333333, "name": "d898421eaf79b0d56da06f5b146fef2b", "fusion_lon": 0.0, "bike_id": "d898421eaf79b0d56da06f5b146fef2b", "is_disabled": 0, "is_reserved": 0}, {"rental_uris": {"ios": "https://dc.lft.to/lastmile_qr_scan", "android": "https://dc.lft.to/lastmile_qr_scan"}, "lon": -77.0329225, "type": "electric_scooter", "fusion_lat": 0.0, "lat": 38.95656833333334, "name": "0200437c6b5206769ff4f9c4cad50a93", "fusion_lon": 0.0, "bike_id": "0200437c6b5206769ff4f9c4cad50a93", "is_disabled": 0, "is_reserved": 0}, {"rental_uris": {"ios": "https://dc.lft.to/lastmile_qr_scan", "android": "https://dc.lft.to/lastmile_qr_scan"}, "lon": -77.09551, "type": "electric_bike", "fusion_lat": 0.0, "lat": 38.837359666666664, "name": "f4d1575cf699a89142f75850bac445b9", "fusion_lon": 0.0, "bike_id": "f4d1575cf699a89142f75850bac445b9", "is_disabled": 0, "is_reserved": 0}, {"rental_uris": {"ios": "https://dc.lft.to/lastmile_qr_scan", "android": "https://dc.lft.to/lastmile_qr_scan"}, "lon": -77.04153316666667, "type": "electric_scooter", "fusion_lat": 0.0, "lat": 38.917427, "name": "abd7a7ddb9753a4910a6efe671149971", "fusion_lon": 0.0, "bike_id": "abd7a7ddb9753a4910a6efe671149971", "is_disabled": 0, "is_reserved": 0}, {"rental_uris": {"ios": "https://dc.lft.to/lastmile_qr_scan", "android": "https://dc.lft.to/lastmile_qr_scan"}, "lon": -76.949442, "type": "electric_scooter", "fusion_lat": 0.0, "lat": 38.88321083333334, "name": "2f474642823c80ae82c53974882c6aa2", "fusion_lon": 0.0, "bike_id": "2f474642823c80ae82c53974882c6aa2", "is_disabled": 0, "is_reserved": 0}, {"rental_uris": {"ios": "https://dc.lft.to/lastmile_qr_scan", "android": "https://dc.lft.to/lastmile_qr_scan"}, "lon": -77.02435566666666, "type": "electric_bike", "fusion_lat": 0.0, "lat": 38.9169655, "name": "a9030938149d538a650b5dc6e05864eb", "fusion_lon": 0.0, "bike_id": "a9030938149d538a650b5dc6e05864eb", "is_disabled": 0, "is_reserved": 0}, {"rental_uris": {"ios": "https://dc.lft.to/lastmile_qr_scan", "android": "https://dc.lft.to/lastmile_qr_scan"}, "lon": -76.98339683333333, "type": "electric_scooter", "fusion_lat": 0.0, "lat": 38.915399, "name": "13f8c465b397f1deaa2a3152c498fa62", "fusion_lon": 0.0, "bike_id": "13f8c465b397f1deaa2a3152c498fa62", "is_disabled": 0, "is_reserved": 0}, {"rental_uris": {"ios": "https://dc.lft.to/lastmile_qr_scan", "android": "https://dc.lft.to/lastmile_qr_scan"}, "lon": -77.02570416666667, "type": "electric_scooter", "fusion_lat": 0.0, "lat": 38.895178, "name": "d4ff9b4b9fa1a8dd2c898ec780955b1e", "fusion_lon": 0.0, "bike_id": "d4ff9b4b9fa1a8dd2c898ec780955b1e", "is_disabled": 0, "is_reserved": 0}, {"rental_uris": {"ios": "https://dc.lft.to/lastmile_qr_scan", "android": "https://dc.lft.to/lastmile_qr_scan"}, "lon": -76.98033033333333, "type": "electric_scooter", "fusion_lat": 0.0, "lat": 38.88969733333333, "name": "5a1cc5c5485549709dee23f293fe38b2", "fusion_lon": 0.0, "bike_id": "5a1cc5c5485549709dee23f293fe38b2", "is_disabled": 0, "is_reserved": 0}, {"rental_uris": {"ios": "https://dc.lft.to/lastmile_qr_scan", "android": "https://dc.lft.to/lastmile_qr_scan"}, "lon": -76.93345833333333, "type": "electric_scooter", "fusion_lat": 0.0, "lat": 38.8990955, "name": "b09ee3871fd2546626b24d8e78f2f3cf", "fusion_lon": 0.0, "bike_id": "b09ee3871fd2546626b24d8e78f2f3cf", "is_disabled": 0, "is_reserved": 0}, {"rental_uris": {"ios": "https://dc.lft.to/lastmile_qr_scan", "android": "https://dc.lft.to/lastmile_qr_scan"}, "lon": -77.03468533333333, "type": "electric_scooter", "fusion_lat": 0.0, "lat": 38.90843433333333, "name": "a8b7735d986b52bca82f0c165c91d07a", "fusion_lon": 0.0, "bike_id": "a8b7735d986b52bca82f0c165c91d07a", "is_disabled": 0, "is_reserved": 0}, {"rental_uris": {"ios": "https://dc.lft.to/lastmile_qr_scan", "android": "https://dc.lft.to/lastmile_qr_scan"}, "lon": -77.00738683333333, "type": "electric_scooter", "fusion_lat": 0.0, "lat": 38.90375316666667, "name": "34b9508b6385fab75839e4c05346d089", "fusion_lon": 0.0, "bike_id": "34b9508b6385fab75839e4c05346d089", "is_disabled": 0, "is_reserved": 0}, {"rental_uris": {"ios": "https://dc.lft.to/lastmile_qr_scan", "android": "https://dc.lft.to/lastmile_qr_scan"}, "lon": -77.0513705, "type": "electric_scooter", "fusion_lat": 0.0, "lat": 38.90642616666667, "name": "c411f3a4812ef67febaa862a302ebb35", "fusion_lon": 0.0, "bike_id": "c411f3a4812ef67febaa862a302ebb35", "is_disabled": 0, "is_reserved": 0}, {"rental_uris": {"ios": "https://dc.lft.to/lastmile_qr_scan", "android": "https://dc.lft.to/lastmile_qr_scan"}, "lon": -77.03410966666667, "type": "electric_scooter", "fusion_lat": 0.0, "lat": 38.909870166666664, "name": "849314188b33672a11c7917e6d5f1a74", "fusion_lon": 0.0, "bike_id": "849314188b33672a11c7917e6d5f1a74", "is_disabled": 0, "is_reserved": 0}, {"rental_uris": {"ios": "https://dc.lft.to/lastmile_qr_scan", "android": "https://dc.lft.to/lastmile_qr_scan"}, "lon": -77.0586005, "type": "electric_scooter", "fusion_lat": 0.0, "lat": 38.936073666666665, "name": "6f39bb4819cd617213b862d0cd8e421d", "fusion_lon": 0.0, "bike_id": "6f39bb4819cd617213b862d0cd8e421d", "is_disabled": 0, "is_reserved": 0}, {"rental_uris": {"ios": "https://dc.lft.to/lastmile_qr_scan", "android": "https://dc.lft.to/lastmile_qr_scan"}, "lon": -77.0442195, "type": "electric_scooter", "fusion_lat": 0.0, "lat": 38.926119, "name": "b534dd78c0d91bf6188303a79220e926", "fusion_lon": 0.0, "bike_id": "b534dd78c0d91bf6188303a79220e926", "is_disabled": 0, "is_reserved": 0}, {"rental_uris": {"ios": "https://dc.lft.to/lastmile_qr_scan", "android": "https://dc.lft.to/lastmile_qr_scan"}, "lon": -77.0241905, "type": "electric_scooter", "fusion_lat": 0.0, "lat": 38.89221383333334, "name": "44c4f99682bb271db1ef8ac922225082", "fusion_lon": 0.0, "bike_id": "44c4f99682bb271db1ef8ac922225082", "is_disabled": 0, "is_reserved": 0}, {"rental_uris": {"ios": "https://dc.lft.to/lastmile_qr_scan", "android": "https://dc.lft.to/lastmile_qr_scan"}, "lon": -77.06036066666667, "type": "electric_bike", "fusion_lat": 0.0, "lat": 38.923913, "name": "65662e2770a915668e982aadd2730f52", "fusion_lon": 0.0, "bike_id": "65662e2770a915668e982aadd2730f52", "is_disabled": 0, "is_reserved": 0}, {"rental_uris": {"ios": "https://dc.lft.to/lastmile_qr_scan", "android": "https://dc.lft.to/lastmile_qr_scan"}, "lon": -77.04163333333334, "type": "electric_scooter", "fusion_lat": 0.0, "lat": 38.9134295, "name": "68066ef24d7359d122d6ef3ef13f9305", "fusion_lon": 0.0, "bike_id": "68066ef24d7359d122d6ef3ef13f9305", "is_disabled": 0, "is_reserved": 0}, {"rental_uris": {"ios": "https://dc.lft.to/lastmile_qr_scan", "android": "https://dc.lft.to/lastmile_qr_scan"}, "lon": -76.98229683333334, "type": "electric_scooter", "fusion_lat": 0.0, "lat": 38.86765033333333, "name": "067f3248fc1cc4cc54213ba3306615f8", "fusion_lon": 0.0, "bike_id": "067f3248fc1cc4cc54213ba3306615f8", "is_disabled": 0, "is_reserved": 0}, {"rental_uris": {"ios": "https://dc.lft.to/lastmile_qr_scan", "android": "https://dc.lft.to/lastmile_qr_scan"}, "lon": -77.00332066666667, "type": "electric_scooter", "fusion_lat": 0.0, "lat": 38.900552833333336, "name": "3b508c92b8aee7262218de5e2a8023f5", "fusion_lon": 0.0, "bike_id": "3b508c92b8aee7262218de5e2a8023f5", "is_disabled": 0, "is_reserved": 0}, {"rental_uris": {"ios": "https://dc.lft.to/lastmile_qr_scan", "android": "https://dc.lft.to/lastmile_qr_scan"}, "lon": -77.046136, "type": "electric_scooter", "fusion_lat": 0.0, "lat": 38.909775833333335, "name": "1dc20ea3a609ee6b8a5437b3518c622b", "fusion_lon": 0.0, "bike_id": "1dc20ea3a609ee6b8a5437b3518c622b", "is_disabled": 0, "is_reserved": 0}, {"rental_uris": {"ios": "https://dc.lft.to/lastmile_qr_scan", "android": "https://dc.lft.to/lastmile_qr_scan"}, "lon": -76.99605283333334, "type": "electric_scooter", "fusion_lat": 0.0, "lat": 38.8856865, "name": "5dc3aba9c402f815a706bcd32f83d3d5", "fusion_lon": 0.0, "bike_id": "5dc3aba9c402f815a706bcd32f83d3d5", "is_disabled": 0, "is_reserved": 0}, {"rental_uris": {"ios": "https://dc.lft.to/lastmile_qr_scan", "android": "https://dc.lft.to/lastmile_qr_scan"}, "lon": -77.04375533333334, "type": "electric_scooter", "fusion_lat": 0.0, "lat": 38.9072155, "name": "784df4144feb8e0d1293058ec5de09a4", "fusion_lon": 0.0, "bike_id": "784df4144feb8e0d1293058ec5de09a4", "is_disabled": 0, "is_reserved": 0}, {"rental_uris": {"ios": "https://dc.lft.to/lastmile_qr_scan", "android": "https://dc.lft.to/lastmile_qr_scan"}, "lon": -77.07183633333334, "type": "electric_scooter", "fusion_lat": 0.0, "lat": 38.91998316666667, "name": "eaf52c4bf15ea56ec4e996e30288f61f", "fusion_lon": 0.0, "bike_id": "eaf52c4bf15ea56ec4e996e30288f61f", "is_disabled": 0, "is_reserved": 0}, {"rental_uris": {"ios": "https://dc.lft.to/lastmile_qr_scan", "android": "https://dc.lft.to/lastmile_qr_scan"}, "lon": -76.98764583333333, "type": "electric_scooter", "fusion_lat": 0.0, "lat": 38.8450085, "name": "2f3d8ee30992eb651e63415d37efc9b1", "fusion_lon": 0.0, "bike_id": "2f3d8ee30992eb651e63415d37efc9b1", "is_disabled": 0, "is_reserved": 0}, {"rental_uris": {"ios": "https://dc.lft.to/lastmile_qr_scan", "android": "https://dc.lft.to/lastmile_qr_scan"}, "lon": -77.0345805, "type": "electric_scooter", "fusion_lat": 0.0, "lat": 38.9167055, "name": "463d44d4a7da2fd46cb80544a6b2af99", "fusion_lon": 0.0, "bike_id": "463d44d4a7da2fd46cb80544a6b2af99", "is_disabled": 0, "is_reserved": 0}, {"rental_uris": {"ios": "https://dc.lft.to/lastmile_qr_scan", "android": "https://dc.lft.to/lastmile_qr_scan"}, "lon": -77.05754166666667, "type": "electric_scooter", "fusion_lat": 0.0, "lat": 38.934165, "name": "8dda82c27a64c93a8adf14d0bc130077", "fusion_lon": 0.0, "bike_id": "8dda82c27a64c93a8adf14d0bc130077", "is_disabled": 0, "is_reserved": 0}, {"rental_uris": {"ios": "https://dc.lft.to/lastmile_qr_scan", "android": "https://dc.lft.to/lastmile_qr_scan"},