{"data": {"bikes": [{"fusion_lat": 0.0, "name": "71adcfe3e215ed53aeb0a6758ee770d5", "is_disabled": 0, "rental_uris": {"android": "https://dc.lft.to/lastmile_qr_scan", "ios": "https://dc.lft.to/lastmile_qr_scan"}, "fusion_lon": 0.0, "lat": 38.905320833333334, "bike_id": "71adcfe3e215ed53aeb0a6758ee770d5", "type": "electric_scooter", "is_reserved": 0, "lon": -77.05678266666666}, {"fusion_lat": 0.0, "name": "ef228ae42588b5dbe7527be50cf051ba", "is_disabled": 0, "rental_uris": {"android": "https://dc.lft.to/lastmile_qr_scan", "ios": "https://dc.lft.to/lastmile_qr_scan"}, "fusion_lon": 0.0, "lat": 38.93704416666667, "bike_id": "ef228ae42588b5dbe7527be50cf051ba", "type": "electric_scooter", "is_reserved": 0, "lon": -77.06103266666666}, {"fusion_lat": 0.0, "name": "c9e471b36cb38444c4898a8636ed8e96", "is_disabled": 0, "rental_uris": {"android": "https://dc.lft.to/lastmile_qr_scan", "ios": "https://dc.lft.to/lastmile_qr_scan"}, "fusion_lon": 0.0, "lat": 38.90771733333333, "bike_id": "c9e471b36cb38444c4898a8636ed8e96", "type": "electric_scooter", "is_reserved": 0, "lon": -77.03470583333333}, {"fusion_lat": 0.0, "name": "55fcfc7f04bcaf3aeb13148aa2e11d77", "is_disabled": 0, "rental_uris": {"android": "https://dc.lft.to/lastmile_qr_scan", "ios": "https://dc.lft.to/lastmile_qr_scan"}, "fusion_lon": 0.0, "lat": 38.905375, "bike_id": "55fcfc7f04bcaf3aeb13148aa2e11d77", "type": "electric_scooter", "is_reserved": 0, "lon": -77.0571225}, {"fusion_lat": 0.0, "name": "185d4743e69df7cb2f8caa09a9cab708", "is_disabled": 0, "rental_uris": {"android": "https://dc.lft.to/lastmile_qr_scan", "ios": "https://dc.lft.to/lastmile_qr_scan"}, "fusion_lon": 0.0, "lat": 38.91972166666667, "bike_id": "185d4743e69df7cb2f8caa09a9cab708", "type": "electric_scooter", "is_reserved": 0, "lon": -77.07097683333333}, {"fusion_lat": 0.0, "name": "dae2d68b2763d4094522ea7cd5fcf051", "is_disabled": 0, "rental_uris": {"android": "https://dc.lft.to/lastmile_qr_scan", "ios": "https://dc.lft.to/lastmile_qr_scan"}, "fusion_lon": 0.0, "lat": 38.9105185, "bike_id": "dae2d68b2763d4094522ea7cd5fcf051", "type": "electric_scooter", "is_reserved": 0, "lon": -77.02681183333333}, {"fusion_lat": 0.0, "name": "c35ec2dc1e8bec3a440a6a31b5e551fb", "is_disabled": 0, "rental_uris": {"android": "https://dc.lft.to/lastmile_qr_scan", "ios": "https://dc.lft.to/lastmile_qr_scan"}, "fusion_lon": 0.0, "lat": 38.90737333333333, "bike_id": "c35ec2dc1e8bec3a440a6a31b5e551fb", "type": "electric_scooter", "is_reserved": 0, "lon": -77.02945683333333}, {"fusion_lat": 0.0, "name": "a2a6ac2e9fe18a0d0921fa5b1d1e4141", "is_disabled": 0, "rental_uris": {"android": "https://dc.lft.to/lastmile_qr_scan", "ios": "https://dc.lft.to/lastmile_qr_scan"}, "fusion_lon": 0.0, "lat": 38.92159816666667, "bike_id": "a2a6ac2e9fe18a0d0921fa5b1d1e4141", "type": "electric_scooter", "is_reserved": 0, "lon": -77.033621}, {"fusion_lat": 0.0, "name": "fe9947a84d89c22041cd181aedaed164", "is_disabled": 0, "rental_uris": {"android": "https://dc.lft.to/lastmile_qr_scan", "ios": "https://dc.lft.to/lastmile_qr_scan"}, "fusion_lon": 0.0, "lat": 38.91482216666667, "bike_id": "fe9947a84d89c22041cd181aedaed164", "type": "electric_scooter", "is_reserved": 0, "lon": -77.04023566666666}, {"fusion_lat": 0.0, "name": "36786a217a4076d990e1982e85a6bc51", "is_disabled": 0, "rental_uris": {"android": "https://dc.lft.to/lastmile_qr_scan", "ios": "https://dc.lft.to/lastmile_qr_scan"}, "fusion_lon": 0.0, "lat": 38.93966616666667, "bike_id": "36786a217a4076d990e1982e85a6bc51", "type": "electric_scooter", "is_reserved": 0, "lon": -77.032849}, {"fusion_lat": 0.0, "name": "874187fcb195f778b07681ec4433d923", "is_disabled": 0, "rental_uris": {"android": "https://dc.lft.to/lastmile_qr_scan", "ios": "https://dc.lft.to/lastmile_qr_scan"}, "fusion_lon": 0.0, "lat": 38.9377355, "bike_id": "874187fcb195f778b07681ec4433d923", "type": "electric_scooter", "is_reserved": 0, "lon": -77.03264016666667}, {"fusion_lat": 0.0, "name": "b5cf40d5084c413182a41fe9b55afa59", "is_disabled": 0, "rental_uris": {"android": "https://dc.lft.to/lastmile_qr_scan", "ios": "https://dc.lft.to/lastmile_qr_scan"}, "fusion_lon": 0.0, "lat": 38.9222655, "bike_id": "b5cf40d5084c413182a41fe9b55afa59", "type": "electric_scooter", "is_reserved": 0, "lon": -77.02365483333334}, {"fusion_lat": 0.0, "name": "d2c50622dfc9ad680aa7f0ba0bd57b5e", "is_disabled": 0, "rental_uris": {"android": "https://dc.lft.to/lastmile_qr_scan", "ios": "https://dc.lft.to/lastmile_qr_scan"}, "fusion_lon": 0.0, "lat": 38.928219, "bike_id": "d2c50622dfc9ad680aa7f0ba0bd57b5e", "type": "electric_scooter", "is_reserved": 0, "lon": -77.02263383333333}, {"fusion_lat": 0.0, "name": "6c8b57df635d91aecb915e3b72f0a50d", "is_disabled": 0, "rental_uris": {"android": "https://dc.lft.to/lastmile_qr_scan", "ios": "https://dc.lft.to/lastmile_qr_scan"}, "fusion_lon": 0.0, "lat": 38.89713016666666, "bike_id": "6c8b57df635d91aecb915e3b72f0a50d", "type": "electric_scooter", "is_reserved": 0, "lon": -77.02291033333333}, {"fusion_lat": 0.0, "name": "f72437372f574c1097449f7de32537fa", "is_disabled": 0, "rental_uris": {"android": "https://dc.lft.to/lastmile_qr_scan", "ios": "https://dc.lft.to/lastmile_qr_scan"}, "fusion_lon": 0.0, "lat": 38.907262833333334, "bike_id": "f72437372f574c1097449f7de32537fa", "type": "electric_scooter", "is_reserved": 0, "lon": -77.02508516666667}, {"fusion_lat": 0.0, "name": "6a578845d714451d736ec220a66af00d", "is_disabled": 0, "rental_uris": {"android": "https://dc.lft.to/lastmile_qr_scan", "ios": "https://dc.lft.to/lastmile_qr_scan"}, "fusion_lon": 0.0, "lat": 38.79760433333333, "bike_id": "6a578845d714451d736ec220a66af00d", "type": "electric_bike", "is_reserved": 0, "lon": -77.04749716666667}, {"fusion_lat": 0.0, "name": "06f996ebb2f7a907df9ff331dff93ed1", "is_disabled": 0, "rental_uris": {"android": "https://dc.lft.to/lastmile_qr_scan", "ios": "https://dc.lft.to/lastmile_qr_scan"}, "fusion_lon": 0.0, "lat": 38.90771516666667, "bike_id": "06f996ebb2f7a907df9ff331dff93ed1", "type": "electric_scooter", "is_reserved": 0, "lon": -77.05654116666666}, {"fusion_lat": 0.0, "name": "bc2a4ff24bae5c66fef7918cfe046ed8", "is_disabled": 0, "rental_uris": {"android": "https://dc.lft.to/lastmile_qr_scan", "ios": "https://dc.lft.to/lastmile_qr_scan"}, "fusion_lon": 0.0, "lat": 38.883246666666665, "bike_id": "bc2a4ff24bae5c66fef7918cfe046ed8", "type": "electric_bike", "is_reserved": 0, "lon": -76.96056}, {"fusion_lat": 0.0, "name": "2311dda3237d8c96379d30d79813289d", "is_disabled": 0, "rental_uris": {"android": "https://dc.lft.to/lastmile_qr_scan", "ios": "https://dc.lft.to/lastmile_qr_scan"}, "fusion_lon": 0.0, "lat": 38.827987, "bike_id": "2311dda3237d8c96379d30d79813289d", "type": "electric_bike", "is_reserved": 0, "lon": -77.1248995}, {"fusion_lat": 0.0, "name": "ae24ea3a44e7e4a842efdaa163793e54", "is_disabled": 0, "rental_uris": {"android": "https://dc.lft.to/lastmile_qr_scan", "ios": "https://dc.lft.to/lastmile_qr_scan"}, "fusion_lon": 0.0, "lat": 38.88148983333333, "bike_id": "ae24ea3a44e7e4a842efdaa163793e54", "type": "electric_scooter", "is_reserved": 0, "lon": -76.99511166666667}, {"fusion_lat": 0.0, "name": "ae4de5da32b8e29a72add1866f520708", "is_disabled": 0, "rental_uris": {"android": "https://dc.lft.to/lastmile_qr_scan", "ios": "https://dc.lft.to/lastmile_qr_scan"}, "fusion_lon": 0.0, "lat": 38.911157, "bike_id": "ae4de5da32b8e29a72add1866f520708", "type": "electric_scooter", "is_reserved": 0, "lon": -77.0813135}, {"fusion_lat": 0.0, "name": "2f3f68d533688785436548cdf1a9fb13", "is_disabled": 0, "rental_uris": {"android": "https://dc.lft.to/lastmile_qr_scan", "ios": "https://dc.lft.to/lastmile_qr_scan"}, "fusion_lon": 0.0, "lat": 38.911098, "bike_id": "2f3f68d533688785436548cdf1a9fb13", "type": "electric_scooter", "is_reserved": 0, "lon": -77.01150066666666}, {"fusion_lat": 0.0, "name": "73838fd1513cbee6cc2ab7b7a58ecf40", "is_disabled": 0, "rental_uris": {"android": "https://dc.lft.to/lastmile_qr_scan", "ios": "https://dc.lft.to/lastmile_qr_scan"}, "fusion_lon": 0.0, "lat": 38.952154, "bike_id": "73838fd1513cbee6cc2ab7b7a58ecf40", "type": "electric_scooter", "is_reserved": 0, "lon": -77.002038}, {"fusion_lat": 0.0, "name": "3ee01d523a1aa752eb4c05988bf5ba1b", "is_disabled": 0, "rental_uris": {"android": "https://dc.lft.to/lastmile_qr_scan", "ios": "https://dc.lft.to/lastmile_qr_scan"}, "fusion_lon": 0.0, "lat": 38.92891266666667, "bike_id": "3ee01d523a1aa752eb4c05988bf5ba1b", "type": "electric_scooter", "is_reserved": 0, "lon": -77.03359}, {"fusion_lat": 0.0, "name": "32cc64bcec1b90ab2ebd1741d2ee6cb6", "is_disabled": 0, "rental_uris": {"android": "https://dc.lft.to/lastmile_qr_scan", "ios": "https://dc.lft.to/lastmile_qr_scan"}, "fusion_lon": 0.0, "lat": 38.947032, "bike_id": "32cc64bcec1b90ab2ebd1741d2ee6cb6", "type": "electric_scooter", "is_reserved": 0, "lon": -77.01939}, {"fusion_lat": 0.0, "name": "9bb8bc0ac1814c95ac7bb8780675f67a", "is_disabled": 0, "rental_uris": {"android": "https://dc.lft.to/lastmile_qr_scan", "ios": "https://dc.lft.to/lastmile_qr_scan"}, "fusion_lon": 0.0, "lat": 38.9298995, "bike_id": "9bb8bc0ac1814c95ac7bb8780675f67a", "type": "electric_scooter", "is_reserved": 0, "lon": -77.03252116666667}, {"fusion_lat": 0.0, "name": "3abe46db2008fd2ff728c75686e33850", "is_disabled": 0, "rental_uris": {"android": "https://dc.lft.to/lastmile_qr_scan", "ios": "https://dc.lft.to/lastmile_qr_scan"}, "fusion_lon": 0.0, "lat": 38.93188833333333, "bike_id": "3abe46db2008fd2ff728c75686e33850", "type": "electric_scooter", "is_reserved": 0, "lon": -77.04299166666667}, {"fusion_lat": 0.0, "name": "fbd4081ffca78211730707027a9187be", "is_disabled": 0, "rental_uris": {"android": "https://dc.lft.to/lastmile_qr_scan", "ios": "https://dc.lft.to/lastmile_qr_scan"}, "fusion_lon": 0.0, "lat": 38.900281, "bike_id": "fbd4081ffca78211730707027a9187be", "type": "electric_scooter", "is_reserved": 0, "lon": -76.991393}, {"fusion_lat": 0.0, "name": "64f6c792d8558c32ce5fb927e57b9a07", "is_disabled": 0, "rental_uris": {"android": "https://dc.lft.to/lastmile_qr_scan", "ios": "https://dc.lft.to/lastmile_qr_scan"}, "fusion_lon": 0.0, "lat": 38.89037483333333, "bike_id": "64f6c792d8558c32ce5fb927e57b9a07", "type": "electric_scooter", "is_reserved": 0, "lon": -76.93748416666666}, {"fusion_lat": 0.0, "name": "9d40b665d45f471d74d60409c5b43fb7", "is_disabled": 0, "rental_uris": {"android": "https://dc.lft.to/lastmile_qr_scan", "ios": "https://dc.lft.to/lastmile_qr_scan"}, "fusion_lon": 0.0, "lat": 38.946754166666665, "bike_id": "9d40b665d45f471d74d60409c5b43fb7", "type": "electric_scooter", "is_reserved": 0, "lon": -77.03093683333333}, {"fusion_lat": 0.0, "name": "3413bbe5a70eb5939b781650af5d9079", "is_disabled": 0, "rental_uris": {"android": "https://dc.lft.to/lastmile_qr_scan", "ios": "https://dc.lft.to/lastmile_qr_scan"}, "fusion_lon": 0.0, "lat": 38.9310225, "bike_id": "3413bbe5a70eb5939b781650af5d9079", "type": "electric_scooter", "is_reserved": 0, "lon": -77.02663333333334}, {"fusion_lat": 0.0, "name": "30f9936c970feea7a96419955fc194a7", "is_disabled": 0, "rental_uris": {"android": "https://dc.lft.to/lastmile_qr_scan", "ios": "https://dc.lft.to/lastmile_qr_scan"}, "fusion_lon": 0.0, "lat": 38.8824665, "bike_id": "30f9936c970feea7a96419955fc194a7", "type": "electric_scooter", "is_reserved": 0, "lon": -77.00359316666666}, {"fusion_lat": 0.0, "name": "1a0547d82a24ad25b2a69a5b6307eb68", "is_disabled": 0, "rental_uris": {"android": "https://dc.lft.to/lastmile_qr_scan", "ios": "https://dc.lft.to/lastmile_qr_scan"}, "fusion_lon": 0.0, "lat": 38.907198666666666, "bike_id": "1a0547d82a24ad25b2a69a5b6307eb68", "type": "electric_scooter", "is_reserved": 0, "lon": -77.02942533333334}, {"fusion_lat": 0.0, "name": "a8a6e824e2a2e531ecb038ab6a7d0e0b", "is_disabled": 0, "rental_uris": {"android": "https://dc.lft.to/lastmile_qr_scan", "ios": "https://dc.lft.to/lastmile_qr_scan"}, "fusion_lon": 0.0, "lat": 38.9080165, "bike_id": "a8a6e824e2a2e531ecb038ab6a7d0e0b", "type": "electric_scooter", "is_reserved": 0, "lon": -77.04353016666667}, {"fusion_lat": 0.0, "name": "e1c69022ac938618fb6443c511df77f0", "is_disabled": 0, "rental_uris": {"android": "https://dc.lft.to/lastmile_qr_scan", "ios": "https://dc.lft.to/lastmile_qr_scan"}, "fusion_lon": 0.0, "lat": 38.89228083333333, "bike_id": "e1c69022ac938618fb6443c511df77f0", "type": "electric_scooter", "is_reserved": 0, "lon": -77.04503833333334}, {"fusion_lat": 0.0, "name": "3575b61d76d505ce7fbe68777a745a0b", "is_disabled": 0, "rental_uris": {"android": "https://dc.lft.to/lastmile_qr_scan", "ios": "https://dc.lft.to/lastmile_qr_scan"}, "fusion_lon": 0.0, "lat": 38.96676866666667, "bike_id": "3575b61d76d505ce7fbe68777a745a0b", "type": "electric_bike", "is_reserved": 0, "lon": -77.0216525}, {"fusion_lat": 0.0, "name": "359956ce0df581b73a65dea599aa758b", "is_disabled": 0, "rental_uris": {"android": "https://dc.lft.to/lastmile_qr_scan", "ios": "https://dc.lft.to/lastmile_qr_scan"}, "fusion_lon": 0.0, "lat": 38.935839, "bike_id": "359956ce0df581b73a65dea599aa758b", "type": "electric_scooter", "is_reserved": 0, "lon": -77.0236165}, {"fusion_lat": 0.0, "name": "9087abf843a6b52bf1974d3502d07039", "is_disabled": 0, "rental_uris": {"android": "https://dc.lft.to/lastmile_qr_scan", "ios": "https://dc.lft.to/lastmile_qr_scan"}, "fusion_lon": 0.0, "lat": 38.91041533333333, "bike_id": "9087abf843a6b52bf1974d3502d07039", "type": "electric_scooter", "is_reserved": 0, "lon": -77.01288833333334}, {"fusion_lat": 0.0, "name": "76c50b7c39155556f911e0e36a397f71", "is_disabled": 0, "rental_uris": {"android": "https://dc.lft.to/lastmile_qr_scan", "ios": "https://dc.lft.to/lastmile_qr_scan"}, "fusion_lon": 0.0, "lat": 38.900051833333336, "bike_id": "76c50b7c39155556f911e0e36a397f71", "type": "electric_scooter", "is_reserved": 0, "lon": -77.02934366666666}, {"fusion_lat": 0.0, "name": "a89c159806aaf177780d7ac0eb762576", "is_disabled": 0, "rental_uris": {"android": "https://dc.lft.to/lastmile_qr_scan", "ios": "https://dc.lft.to/lastmile_qr_scan"}, "fusion_lon": 0.0, "lat": 38.911375666666665, "bike_id": "a89c159806aaf177780d7ac0eb762576", "type": "electric_scooter", "is_reserved": 0, "lon": -77.02185016666667}, {"fusion_lat": 0.0, "name": "9ea66cef26ffdb65cd3b3b69602829d4", "is_disabled": 0, "rental_uris": {"android": "https://dc.lft.to/lastmile_qr_scan", "ios": "https://dc.lft.to/lastmile_qr_scan"}, "fusion_lon": 0.0, "lat": 38.813354833333335, "bike_id": "9ea66cef26ffdb65cd3b3b69602829d4", "type": "electric_bike", "is_reserved": 0, "lon": -77.050939}, {"fusion_lat": 0.0, "name": "5eb5821ecc548d6c6a589e01970b00ad", "is_disabled": 0, "rental_uris": {"android": "https://dc.lft.to/lastmile_qr_scan", "ios": "https://dc.lft.to/lastmile_qr_scan"}, "fusion_lon": 0.0, "lat": 38.90665766666667, "bike_id": "5eb5821ecc548d6c6a589e01970b00ad", "type": "electric_scooter", "is_reserved": 0, "lon": -77.00959833333333}, {"fusion_lat": 0.0, "name": "caabb0a190efa032b7443a64581953b3", "is_disabled": 0, "rental_uris": {"android": "https://dc.lft.to/lastmile_qr_scan", "ios": "https://dc.lft.to/lastmile_qr_scan"}, "fusion_lon": 0.0, "lat": 38.917061, "bike_id": "caabb0a190efa032b7443a64581953b3", "type": "electric_scooter", "is_reserved": 0, "lon": -77.028843}, {"fusion_lat": 0.0, "name": "ba186fdb282d806c9d2667f6e5e13315", "is_disabled": 0, "rental_uris": {"android": "https://dc.lft.to/lastmile_qr_scan", "ios": "https://dc.lft.to/lastmile_qr_scan"}, "fusion_lon": 0.0, "lat": 38.91111633333333, "bike_id": "ba186fdb282d806c9d2667f6e5e13315", "type": "electric_scooter", "is_reserved": 0, "lon": -77.04252816666667}, {"fusion_lat": 0.0, "name": "06125d70a30ba9bb45dfe082e9c71d48", "is_disabled": 0, "rental_uris": {"android": "https://dc.lft.to/lastmile_qr_scan", "ios": "https://dc.lft.to/lastmile_qr_scan"}, "fusion_lon": 0.0, "lat": 38.915623833333335, "bike_id": "06125d70a30ba9bb45dfe082e9c71d48", "type": "electric_scooter", "is_reserved": 0, "lon": -77.03257383333333}, {"fusion_lat": 0.0, "name": "da31cc49fc88230c3f4e65a884dc2a75", "is_disabled": 0, "rental_uris": {"android": "https://dc.lft.to/lastmile_qr_scan", "ios": "https://dc.lft.to/lastmile_qr_scan"}, "fusion_lon": 0.0, "lat": 38.8948605, "bike_id": "da31cc49fc88230c3f4e65a884dc2a75", "type": "electric_scooter", "is_reserved": 0, "lon": -77.01950983333333}, {"fusion_lat": 0.0, "name": "bc405e08dd7ecc82ed2cd4de9eec76c7", "is_disabled": 0, "rental_uris": {"android": "https://dc.lft.to/lastmile_qr_scan", "ios": "https://dc.lft.to/lastmile_qr_scan"}, "fusion_lon": 0.0, "lat": 38.91591833333333, "bike_id": "bc405e08dd7ecc82ed2cd4de9eec76c7", "type": "electric_scooter", "is_reserved": 0, "lon": -77.04343916666667}, {"fusion_lat": 0.0, "name": "97929a37f2a3aaf38c8eca234befa472", "is_disabled": 0, "rental_uris": {"android": "https://dc.lft.to/lastmile_qr_scan", "ios": "https://dc.lft.to/lastmile_qr_scan"}, "fusion_lon": 0.0, "lat": 38.89115316666667, "bike_id": "97929a37f2a3aaf38c8eca234befa472", "type": "electric_scooter", "is_reserved": 0, "lon": -76.94382416666667}, {"fusion_lat": 0.0, "name": "3b23b633d5396eae1e34d0901d487198", "is_disabled": 0, "rental_uris": {"android": "https://dc.lft.to/lastmile_qr_scan", "ios": "https://dc.lft.to/lastmile_qr_scan"}, "fusion_lon": 0.0, "lat": 38.897308, "bike_id": "3b23b633d5396eae1e34d0901d487198", "type": "electric_scooter", "is_reserved": 0, "lon": -77.02500683333334}, {"fusion_lat": 0.0, "name": "712e279d97ceb8dc2c50faf03a0d95a9", "is_disabled": 0, "rental_uris": {"android": "https://dc.lft.to/lastmile_qr_scan", "ios": "https://dc.lft.to/lastmile_qr_scan"}, "fusion_lon": 0.0, "lat": 38.91114533333333, "bike_id": "712e279d97ceb8dc2c50faf03a0d95a9", "type": "electric_scooter", "is_reserved": 0, "lon": -77.02932433333334}, {"fusion_lat": 0.0, "name": "2f6c847a8e9091006a08c7b88b165555", "is_disabled": 0, "rental_uris": {"android": "https://dc.lft.to/lastmile_qr_scan", "ios": "https://dc.lft.to/lastmile_qr_scan"}, "fusion_lon": 0.0, "lat": 38.9042425, "bike_id": "2f6c847a8e9091006a08c7b88b165555", "type": "electric_scooter", "is_reserved": 0, "lon": -77.01882466666666}, {"fusion_lat": 0.0, "name": "bd89717179c3d4b3dc7881878265882e", "is_disabled": 0, "rental_uris": {"android": "https://dc.lft.to/lastmile_qr_scan", "ios": "https://dc.lft.to/lastmile_qr_scan"}, "fusion_lon": 0.0, "lat": 38.91104766666667, "bike_id": "bd89717179c3d4b3dc7881878265882e", "type": "electric_scooter", "is_reserved": 0, "lon": -77.03617966666667}, {"fusion_lat": 0.0, "name": "153e1eeb68a44211474456a00d676b56", "is_disabled": 0, "rental_uris": {"android": "https://dc.lft.to/lastmile_qr_scan", "ios": "https://dc.lft.to/lastmile_qr_scan"}, "fusion_lon": 0.0, "lat": 38.973783833333336, "bike_id": "153e1eeb68a44211474456a00d676b56", "type": "electric_scooter", "is_reserved": 0, "lon": -77.01282683333334}, {"fusion_lat": 0.0, "name": "9133dc3b65a57a357151142b11d0b45c", "is_disabled": 0, "rental_uris": {"android": "https://dc.lft.to/lastmile_qr_scan", "ios": "https://dc.lft.to/lastmile_qr_scan"}, "fusion_lon": 0.0, "lat": 38.92428866666667, "bike_id": "9133dc3b65a57a357151142b11d0b45c", "type": "electric_scooter", "is_reserved": 0, "lon": -77.04479766666667}, {"fusion_lat": 0.0, "name": "4d1c6a29a4a6c551e8dd7b115f91a433", "is_disabled": 0, "rental_uris": {"android": "https://dc.lft.to/lastmile_qr_scan", "ios": "https://dc.lft.to/lastmile_qr_scan"}, "fusion_lon": 0.0, "lat": 38.96186133333333, "bike_id": "4d1c6a29a4a6c551e8dd7b115f91a433", "type": "electric_bike", "is_reserved": 0, "lon": -77.0526785}, {"fusion_lat": 0.0, "name": "ef14f9cdcbd087534ab65b03559f1e91", "is_disabled": 0, "rental_uris": {"android": "https://dc.lft.to/lastmile_qr_scan", "ios": "https://dc.lft.to/lastmile_qr_scan"}, "fusion_lon": 0.0, "lat": 38.896773333333336, "bike_id": "ef14f9cdcbd087534ab65b03559f1e91", "type": "electric_scooter", "is_reserved": 0, "lon": -77.05154383333333}, {"fusion_lat": 0.0, "name": "b80c64bfbf38aa3237423953f8aa4fb5", "is_disabled": 0, "rental_uris": {"android": "https://dc.lft.to/lastmile_qr_scan", "ios": "https://dc.lft.to/lastmile_qr_scan"}, "fusion_lon": 0.0, "lat": 38.87663233333333, "bike_id": "b80c64bfbf38aa3237423953f8aa4fb5", "type": "electric_scooter", "is_reserved": 0, "lon": -76.99625716666667}, {"fusion_lat": 0.0, "name": "c4625439f8e7607863c3cc1d4114305b", "is_disabled": 0, "rental_uris": {"android": "https://dc.lft.to/lastmile_qr_scan", "ios": "https://dc.lft.to/lastmile_qr_scan"}, "fusion_lon": 0.0, "lat": 38.9247595, "bike_id": "c4625439f8e7607863c3cc1d4114305b", "type": "electric_scooter", "is_reserved": 0, "lon": -77.03913866666667}, {"fusion_lat": 0.0, "name": "f4e6ca0a6b0a93eba6fc3aaed7ad4004", "is_disabled": 0, "rental_uris": {"android": "https://dc.lft.to/lastmile_qr_scan", "ios": "https://dc.lft.to/lastmile_qr_scan"}, "fusion_lon": 0.0, "lat": 38.8954655, "bike_id": "f4e6ca0a6b0a93eba6fc3aaed7ad4004", "type": "electric_scooter", "is_reserved": 0, "lon": -76.9494955}, {"fusion_lat": 0.0, "name": "41c4b91901747991e22b3097e2fde7a7", "is_disabled": 0, "rental_uris": {"android": "https://dc.lft.to/lastmile_qr_scan", "ios": "https://dc.lft.to/lastmile_qr_scan"}, "fusion_lon": 0.0, "lat": 38.90627833333333, "bike_id": "41c4b91901747991e22b3097e2fde7a7", "type": "electric_scooter", "is_reserved": 0, "lon": -77.06265566666667}, {"fusion_lat": 0.0, "name": "e15cfa4533e707084d85f9457cf4b87e", "is_disabled": 0, "rental_uris": {"android": "https://dc.lft.to/lastmile_qr_scan", "ios": "https://dc.lft.to/lastmile_qr_scan"}, "fusion_lon": 0.0, "lat": 38.90065633333333, "bike_id": "e15cfa4533e707084d85f9457cf4b87e", "type": "electric_scooter", "is_reserved": 0, "lon": -76.92744916666666}, {"fusion_lat": 0.0, "name": "8fd56c39e751c8e83126e1651517802b", "is_disabled": 0, "rental_uris": {"android": "https://dc.lft.to/lastmile_qr_scan", "ios": "https://dc.lft.to/lastmile_qr_scan"}, "fusion_lon": 0.0, "lat": 38.877514833333336, "bike_id": "8fd56c39e751c8e83126e1651517802b", "type": "electric_scooter", "is_reserved": 0, "lon": -77.01430366666666}, {"fusion_lat": 0.0, "name": "063a6334e18c445e0d2f9f77e35b7080", "is_disabled": 0, "rental_uris": {"android": "https://dc.lft.to/lastmile_qr_scan", "ios": "https://dc.lft.to/lastmile_qr_scan"}, "fusion_lon": 0.0, "lat": 38.915941833333335, "bike_id": "063a6334e18c445e0d2f9f77e35b7080", "type": "electric_scooter", "is_reserved": 0, "lon": -77.0455135}, {"fusion_lat": 0.0, "name": "125b684237ae950b54188aa78f4bfc46", "is_disabled": 0, "rental_uris": {"android": "https://dc.lft.to/lastmile_qr_scan", "ios": "https://dc.lft.to/lastmile_qr_scan"}, "fusion_lon": 0.0, "lat": 38.88054566666667, "bike_id": "125b684237ae950b54188aa78f4bfc46", "type": "electric_scooter", "is_reserved": 0, "lon": -77.0251165}, {"fusion_lat": 0.0, "name": "b3b50b5317bc84d596c03dc84e37dbd6", "is_disabled": 0, "rental_uris": {"android": "https://dc.lft.to/lastmile_qr_scan", "ios": "https://dc.lft.to/lastmile_qr_scan"}, "fusion_lon": 0.0, "lat": 38.916074, "bike_id": "b3b50b5317bc84d596c03dc84e37dbd6", "type": "electric_scooter", "is_reserved": 0, "lon": -77.04603316666666}, {"fusion_lat": 0.0, "name": "bcffec2a22176b691ab41ea2892e2ec2", "is_disabled": 0, "rental_uris": {"android": "https://dc.lft.to/lastmile_qr_scan", "ios": "https://dc.lft.to/lastmile_qr_scan"}, "fusion_lon": 0.0, "lat": 38.920601, "bike_id": "bcffec2a22176b691ab41ea2892e2ec2", "type": "electric_scooter", "is_reserved": 0, "lon": -77.0441165}, {"fusion_lat": 0.0, "name": "f9d82b4452bca8e1be1fc16f5e28da80", "is_disabled": 0, "rental_uris": {"android": "https://dc.lft.to/lastmile_qr_scan", "ios": "https://dc.lft.to/lastmile_qr_scan"}, "fusion_lon": 0.0, "lat": 38.875343666666666, "bike_id": "f9d82b4452bca8e1be1fc16f5e28da80", "type": "electric_scooter", "is_reserved": 0, "lon": -77.00509916666667}, {"fusion_lat": 0.0, "name": "261c91869d1d28d4f61bac882c0bb425", "is_disabled": 0, "rental_uris": {"android": "https://dc.lft.to/lastmile_qr_scan", "ios": "https://dc.lft.to/lastmile_qr_scan"}, "fusion_lon": 0.0, "lat": 38.87750783333333, "bike_id": "261c91869d1d28d4f61bac882c0bb425", "type": "electric_scooter", "is_reserved": 0, "lon": -77.003468}, {"fusion_lat": 0.0, "name": "d198ae7ba2b7408e7019f743ce916a3d", "is_disabled": 0, "rental_uris": {"android": "https://dc.lft.to/lastmile_qr_scan", "ios": "https://dc.lft.to/lastmile_qr_scan"}, "fusion_lon": 0.0, "lat": 38.927492, "bike_id": "d198ae7ba2b7408e7019f743ce916a3d", "type": "electric_scooter", "is_reserved": 0, "lon": -77.03391333333333}, {"fusion_lat": 0.0, "name": "c00a2225c64deef93e6783386efa189a", "is_disabled": 0, "rental_uris": {"android": "https://dc.lft.to/lastmile_qr_scan", "ios": "https://dc.lft.to/lastmile_qr_scan"}, "fusion_lon": 0.0, "lat": 38.922934833333336, "bike_id": "c00a2225c64deef93e6783386efa189a", "type": "electric_scooter", "is_reserved": 0, "lon": -77.04250633333334}, {"fusion_lat": 0.0, "name": "a25a02f59467aba3413c9b34e5ad2561", "is_disabled": 0, "rental_uris": {"android": "https://dc.lft.to/lastmile_qr_scan", "ios": "https://dc.lft.to/lastmile_qr_scan"}, "fusion_lon": 0.0, "lat": 38.91460266666667, "bike_id": "a25a02f59467aba3413c9b34e5ad2561", "type": "electric_scooter", "is_reserved": 0, "lon": -77.07222866666666}, {"fusion_lat": 0.0, "name": "bd8c612c1c163e083105ed5a626d11be", "is_disabled": 0, "rental_uris": {"android": "https://dc.lft.to/lastmile_qr_scan", "ios": "https://dc.lft.to/lastmile_qr_scan"}, "fusion_lon": 0.0, "lat": 38.91039033333333, "bike_id": "bd8c612c1c163e083105ed5a626d11be", "type": "electric_scooter", "is_reserved": 0, "lon": -77.03834716666667}, {"fusion_lat": 0.0, "name": "fed0dfc6345becafc7e1702ee78a39a2", "is_disabled": 0, "rental_uris": {"android": "https://dc.lft.to/lastmile_qr_scan", "ios": "https://dc.lft.to/lastmile_qr_scan"}, "fusion_lon": 0.0, "lat": 38.92214883333333, "bike_id": "fed0dfc6345becafc7e1702ee78a39a2", "type": "electric_scooter", "is_reserved": 0, "lon": -77.04263716666667}, {"fusion_lat": 0.0, "name": "a997aa7b823fdaa526592e4bf5e1af50", "is_disabled": 0, "rental_uris": {"android": "https://dc.lft.to/lastmile_qr_scan", "ios": "https://dc.lft.to/lastmile_qr_scan"}, "fusion_lon": 0.0, "lat": 38.892222333333336, "bike_id": "a997aa7b823fdaa526592e4bf5e1af50", "type": "electric_scooter", "is_reserved": 0, "lon": -77.03217966666666}, {"fusion_lat": 0.0, "name": "028b124e8c800d5e7ea7b917694540b8", "is_disabled": 0, "rental_uris": {"android": "https://dc.lft.to/lastmile_qr_scan", "ios": "https://dc.lft.to/lastmile_qr_scan"}, "fusion_lon": 0.0, "lat": 38.934874, "bike_id": "028b124e8c800d5e7ea7b917694540b8", "type": "electric_scooter", "is_reserved": 0, "lon": -77.03289116666667}, {"fusion_lat": 0.0, "name": "9a498016ce896b85967ec4a8320632fd", "is_disabled": 0, "rental_uris": {"android": "https://dc.lft.to/lastmile_qr_scan", "ios": "https://dc.lft.to/lastmile_qr_scan"}, "fusion_lon": 0.0, "lat": 38.9111505, "bike_id": "9a498016ce896b85967ec4a8320632fd", "type": "electric_scooter", "is_reserved": 0, "lon": -77.04504583333333}, {"fusion_lat": 0.0, "name": "677ce1c25b2be197a1e7bd8a848f27d6", "is_disabled": 0, "rental_uris": {"android": "https://dc.lft.to/lastmile_qr_scan", "ios": "https://dc.lft.to/lastmile_qr_scan"}, "fusion_lon": 0.0, "lat": 38.9054795, "bike_id": "677ce1c25b2be197a1e7bd8a848f27d6", "type": "electric_scooter", "is_reserved": 0, "lon": -77.062869}, {"fusion_lat": 0.0, "name": "2079af2f0810908c8417ba2ce6a9c8e1", "is_disabled": 0, "rental_uris": {"android": "https://dc.lft.to/lastmile_qr_scan", "ios": "https://dc.lft.to/lastmile_qr_scan"}, "fusion_lon": 0.0, "lat": 38.8745085, "bike_id": "2079af2f0810908c8417ba2ce6a9c8e1", "type": "electric_scooter", "is_reserved": 0, "lon": -77.009193}, {"fusion_lat": 0.0, "name": "0fe190f68d9e146842dc816126feaa51", "is_disabled": 0, "rental_uris": {"android": "https://dc.lft.to/lastmile_qr_scan", "ios": "https://dc.lft.to/lastmile_qr_scan"}, "fusion_lon": 0.0, "lat": 38.91839, "bike_id": "0fe190f68d9e146842dc816126feaa51", "type": "electric_scooter", "is_reserved": 0, "lon": -77.02306783333333}, {"fusion_lat": 0.0, "name": "85ffdaed93636ad937862cda9d24ca16", "is_disabled": 0, "rental_uris": {"android": "https://dc.lft.to/lastmile_qr_scan", "ios": "https://dc.lft.to/lastmile_qr_scan"}, "fusion_lon": 0.0, "lat": 38.912657333333335, "bike_id": "85ffdaed93636ad937862cda9d24ca16", "type": "electric_scooter", "is_reserved": 0, "lon": -77.02870916666667}, {"fusion_lat": 0.0, "name": "be57526eb7e251673772d0d1d35a5363", "is_disabled": 0, "rental_uris": {"android": "https://dc.lft.to/lastmile_qr_scan", "ios": "https://dc.lft.to/lastmile_qr_scan"}, "fusion_lon": 0.0, "lat": 38.91216, "bike_id": "be57526eb7e251673772d0d1d35a5363", "type": "electric_scooter", "is_reserved": 0, "lon": -77.04506883333333}, {"fusion_lat": 0.0, "name": "00b15581768cdc58c4852a26d1a3370f", "is_disabled": 0, "rental_uris": {"android": "https://dc.lft.to/lastmile_qr_scan", "ios": "https://dc.lft.to/lastmile_qr_scan"}, "fusion_lon": 0.0, "lat": 38.8997805, "bike_id": "00b15581768cdc58c4852a26d1a3370f", "type": "electric_scooter", "is_reserved": 0, "lon": -77.01971183333333}, {"fusion_lat": 0.0, "name": "56a34a26ab6bc32a3a1a586f88f63ccd", "is_disabled": 0, "rental_uris": {"android": "https://dc.lft.to/lastmile_qr_scan", "ios": "https://dc.lft.to/lastmile_qr_scan"}, "fusion_lon": 0.0, "lat": 38.930468166666664, "bike_id": "56a34a26ab6bc32a3a1a586f88f63ccd", "type": "electric_scooter", "is_reserved": 0, "lon": -77.03360566666667}, {"fusion_lat": 0.0, "name": "92db441ee0206e05619109990c62f57a", "is_disabled": 0, "rental_uris": {"android": "https://dc.lft.to/lastmile_qr_scan", "ios": "https://dc.lft.to/lastmile_qr_scan"}, "fusion_lon": 0.0, "lat": 38.8996175, "bike_id": "92db441ee0206e05619109990c62f57a", "type": "electric_scooter", "is_reserved": 0, "lon": -77.01459933333334}, {"fusion_lat": 0.0, "name": "6d7890c693dcc3eac9bf97b6e3d65e6a", "is_disabled": 0, "rental_uris": {"android": "https://dc.lft.to/lastmile_qr_scan", "ios": "https://dc.lft.to/lastmile_qr_scan"}, "fusion_lon": 0.0, "lat": 38.93562166666667, "bike_id": "6d7890c693dcc3eac9bf97b6e3d65e6a", "type": "electric_scooter", "is_reserved": 0, "lon": -77.03488916666667}, {"fusion_lat": 0.0, "name": "f5722929fffa3bb309ded69d5d402d27", "is_disabled": 0, "rental_uris": {"android": "https://dc.lft.to/lastmile_qr_scan", "ios": "https://dc.lft.to/lastmile_qr_scan"}, "fusion_lon": 0.0, "lat": 38.91673183333333, "bike_id": "f5722929fffa3bb309ded69d5d402d27", "type": "electric_scooter", "is_reserved": 0, "lon": -77.02719966666666}, {"fusion_lat": 0.0, "name": "1432c21d906e0b46d124dad2e04b3960", "is_disabled": 0, "rental_uris": {"android": "https://dc.lft.to/lastmile_qr_scan", "ios": "https://dc.lft.to/lastmile_qr_scan"}, "fusion_lon": 0.0, "lat": 38.94918066666666, "bike_id": "1432c21d906e0b46d124dad2e04b3960", "type": "electric_scooter", "is_reserved": 0, "lon": -77.01854066666667}, {"fusion_lat": 0.0, "name": "179cbb6bc6a7732750faf22135702ed1", "is_disabled": 0, "rental_uris": {"android": "https://dc.lft.to/lastmile_qr_scan", "ios": "https://dc.lft.to/lastmile_qr_scan"}, "fusion_lon": 0.0, "lat": 38.90236316666667, "bike_id": "179cbb6bc6a7732750faf22135702ed1", "type": "electric_scooter", "is_reserved": 0, "lon": -77.01929783333334}, {"fusion_lat": 0.0, "name": "298acb3294f3b6d2d3eb6dab70a59ef6", "is_disabled": 0, "rental_uris": {"android": "https://dc.lft.to/lastmile_qr_scan", "ios": "https://dc.lft.to/lastmile_qr_scan"}, "fusion_lon": 0.0, "lat": 38.926036333333336, "bike_id": "298acb3294f3b6d2d3eb6dab70a59ef6", "type": "electric_scooter", "is_reserved": 0, "lon": -77.02153116666666}, {"fusion_lat": 0.0, "name": "3220f52c187318653d1f611171e2887b", "is_disabled": 0, "rental_uris": {"android": "https://dc.lft.to/lastmile_qr_scan", "ios": "https://dc.lft.to/lastmile_qr_scan"}, "fusion_lon": 0.0, "lat": 38.9076735, "bike_id": "3220f52c187318653d1f611171e2887b", "type": "electric_scooter", "is_reserved": 0, "lon": -77.0623095}, {"fusion_lat": 0.0, "name": "d8dac8bdde6cb5b4496e5878d7c27fb4", "is_disabled": 0, "rental_uris": {"android": "https://dc.lft.to/lastmile_qr_scan", "ios": "https://dc.lft.to/lastmile_qr_scan"}, "fusion_lon": 0.0, "lat": 38.949175, "bike_id": "d8dac8bdde6cb5b4496e5878d7c27fb4", "type": "electric_scooter", "is_reserved": 0, "lon": -77.018577}, {"fusion_lat": 0.0, "name": "57970c5365fc6e945f51b7f46b52b2bc", "is_disabled": 0, "rental_uris": {"android": "https://dc.lft.to/lastmile_qr_scan", "ios": "https://dc.lft.to/lastmile_qr_scan"}, "fusion_lon": 0.0, "lat": 38.93062316666666, "bike_id": "57970c5365fc6e945f51b7f46b52b2bc", "type": "electric_scooter", "is_reserved": 0, "lon": -77.03946466666666}, {"fusion_lat": 0.0, "name": "60dbe29041708afc850e968ee0af7ca8", "is_disabled": 0, "rental_uris": {"android": "https://dc.lft.to/lastmile_qr_scan", "ios": "https://dc.lft.to/lastmile_qr_scan"}, "fusion_lon": 0.0, "lat": 38.918139, "bike_id": "60dbe29041708afc850e968ee0af7ca8", "type": "electric_scooter", "is_reserved": 0, "lon": -77.03134966666667}, {"fusion_lat": 0.0, "name": "a2286f0f6a8c9e574ac8b9b749ac9023", "is_disabled": 0, "rental_uris": {"android": "https://dc.lft.to/lastmile_qr_scan", "ios": "https://dc.lft.to/lastmile_qr_scan"}, "fusion_lon": 0.0, "lat": 38.92334116666667, "bike_id": "a2286f0f6a8c9e574ac8b9b749ac9023", "type": "electric_scooter", "is_reserved": 0, "lon": -77.03488433333334}, {"fusion_lat": 0.0, "name": "62a0719cb78ae0fd631a05e727fd17e6", "is_disabled": 0, "rental_uris": {"android": "https://dc.lft.to/lastmile_qr_scan", "ios": "https://dc.lft.to/lastmile_qr_scan"}, "fusion_lon": 0.0, "lat": 38.98822933333334, "bike_id": "62a0719cb78ae0fd631a05e727fd17e6", "type": "electric_bike", "is_reserved": 0, "lon": -77.02665783333333}, {"fusion_lat": 0.0, "name": "f4fdbd7dd9daad60edfe51bac926fc28", "is_disabled": 0, "rental_uris": {"android": "https://dc.lft.to/lastmile_qr_scan", "ios": "https://dc.lft.to/lastmile_qr_scan"}, "fusion_lon": 0.0, "lat": 38.90093233333333, "bike_id": "f4fdbd7dd9daad60edfe51bac926fc28", "type": "electric_bike", "is_reserved": 0, "lon": -77.05903233333333}, {"fusion_lat": 0.0, "name": "e0d536fbf47e56c4e71fdf1e2d92ba14", "is_disabled": 0, "rental_uris": {"android": "https://dc.lft.to/lastmile_qr_scan", "ios": "https://dc.lft.to/lastmile_qr_scan"}, "fusion_lon": 0.0, "lat": 38.927969, "bike_id": "e0d536fbf47e56c4e71fdf1e2d92ba14", "type": "electric_scooter", "is_reserved": 0, "lon": -76.95556116666667}, {"fusion_lat": 0.0, "name": "d11052714bce2f7ae4448086c28c34e9", "is_disabled": 0, "rental_uris": {"android": "https://dc.lft.to/lastmile_qr_scan", "ios": "https://dc.lft.to/lastmile_qr_scan"}, "fusion_lon": 0.0, "lat": 38.904809666666665, "bike_id": "d11052714bce2f7ae4448086c28c34e9", "type": "electric_scooter", "is_reserved": 0, "lon": -76.94974816666667}, {"fusion_lat": 0.0, "name": "b547309352556425e4ec7ddf672591ac", "is_disabled": 0, "rental_uris": {"android": "https://dc.lft.to/lastmile_qr_scan", "ios": "https://dc.lft.to/lastmile_qr_scan"}, "fusion_lon": 0.0, "lat": 38.92400516666667, "bike_id": "b547309352556425e4ec7ddf672591ac", "type": "electric_scooter", "is_reserved": 0, "lon": -77.042795}, {"fusion_lat": 0.0, "name": "e5a2a2cd5ddcf0fa4fb03431bd3e60d8", "is_disabled": 0, "rental_uris": {"android": "https://dc.lft.to/lastmile_qr_scan", "ios": "https://dc.lft.to/lastmile_qr_scan"}, "fusion_lon": 0.0, "lat": 38.9176005, "bike_id": "e5a2a2cd5ddcf0fa4fb03431bd3e60d8", "type": "electric_scooter", "is_reserved": 0, "lon": -77.03640266666666}, {"fusion_lat": 0.0, "name": "899023705a1437127dfe8b998e141632", "is_disabled": 0, "rental_uris": {"android": "https://dc.lft.to/lastmile_qr_scan", "ios": "https://dc.lft.to/lastmile_qr_scan"}, "fusion_lon": 0.0, "lat": 38.9211605, "bike_id": "899023705a1437127dfe8b998e141632", "type": "electric_scooter", "is_reserved": 0, "lon": -77.01761533333334}, {"fusion_lat": 0.0, "name": "2e0a62af23627442fcd8d7a17cf0b0f7", "is_disabled": 0, "rental_uris": {"android": "https://dc.lft.to/lastmile_qr_scan", "ios": "https://dc.lft.to/lastmile_qr_scan"}, "fusion_lon": 0.0, "lat": 38.916197333333336, "bike_id": "2e0a62af23627442fcd8d7a17cf0b0f7", "type": "electric_scooter", "is_reserved": 0, "lon": -77.00329533333333}, {"fusion_lat": 0.0, "name": "06dcb51d111b8070654e24912592c4e0", "is_disabled": 0, "rental_uris": {"android": "https://dc.lft.to/lastmile_qr_scan", "ios": "https://dc.lft.to/lastmile_qr_scan"}, "fusion_lon": 0.0, "lat": 38.9284075, "bike_id": "06dcb51d111b8070654e24912592c4e0", "type": "electric_scooter", "is_reserved": 0, "lon": -77.0158275}, {"fusion_lat": 0.0, "name": "7b93dacd7ee5c65a5fcb75b570148524", "is_disabled": 0, "rental_uris": {"android": "https://dc.lft.to/lastmile_qr_scan", "ios": "https://dc.lft.to/lastmile_qr_scan"}, "fusion_lon": 0.0, "lat": 38.9353515, "bike_id": "7b93dacd7ee5c65a5fcb75b570148524", "type": "electric_scooter", "is_reserved": 0, "lon": -77.02354716666666}, {"fusion_lat": 0.0, "name": "ce3a25f2414f83ebac961db1aa1ac743", "is_disabled": 0, "rental_uris": {"android": "https://dc.lft.to/lastmile_qr_scan", "ios": "https://dc.lft.to/lastmile_qr_scan"}, "fusion_lon": 0.0, "lat": 38.91253016666667, "bike_id": "ce3a25f2414f83ebac961db1aa1ac743", "type": "electric_scooter", "is_reserved": 0, "lon": -77.00325533333333}, {"fusion_lat": 0.0, "name": "8cf261e12d590f2de85d2c244598052f", "is_disabled": 0, "rental_uris": {"android": "https://dc.lft.to/lastmile_qr_scan", "ios": "https://dc.lft.to/lastmile_qr_scan"}, "fusion_lon": 0.0, "lat": 38.89910616666667, "bike_id": "8cf261e12d590f2de85d2c244598052f", "type": "electric_scooter", "is_reserved": 0, "lon": -76.93350733333334}, {"fusion_lat": 0.0, "name": "12353e1a4cf6a8700659f00f1f2b047f", "is_disabled": 0, "rental_uris": {"android": "https://dc.lft.to/lastmile_qr_scan", "ios": "https://dc.lft.to/lastmile_qr_scan"}, "fusion_lon": 0.0, "lat": 38.963151833333335, "bike_id": "12353e1a4cf6a8700659f00f1f2b047f", "type": "electric_scooter", "is_reserved": 0, "lon": -77.07497566666666}, {"fusion_lat": 0.0, "name": "8c0b59806413c012111597cbbca0e61b", "is_disabled": 0, "rental_uris": {"android": "https://dc.lft.to/lastmile_qr_scan", "ios": "https://dc.lft.to/lastmile_qr_scan"}, "fusion_lon": 0.0, "lat": 38.899125, "bike_id": "8c0b59806413c012111597cbbca0e61b", "type": "electric_scooter", "is_reserved": 0, "lon": -76.94585833333333}, {"fusion_lat": 0.0, "name": "03919e7f42a1cab3d6fad3ee36d05cd9", "is_disabled": 0, "rental_uris": {"android": "https://dc.lft.to/lastmile_qr_scan", "ios": "https://dc.lft.to/lastmile_qr_scan"}, "fusion_lon": 0.0, "lat": 38.93291416666667, "bike_id": "03919e7f42a1cab3d6fad3ee36d05cd9", "type": "electric_scooter", "is_reserved": 0, "lon": -77.0283025}, {"fusion_lat": 0.0, "name": "cdcddeb72f85c54d31887b61e0ba23a2", "is_disabled": 0, "rental_uris": {"android": "https://dc.lft.to/lastmile_qr_scan", "ios": "https://dc.lft.to/lastmile_qr_scan"}, "fusion_lon": 0.0, "lat": 38.88527883333333, "bike_id": "cdcddeb72f85c54d31887b61e0ba23a2", "type": "electric_scooter", "is_reserved": 0, "lon": -76.9291885}, {"fusion_lat": 0.0, "name": "5aad124c235bcb799d7296570611c8f2", "is_disabled": 0, "rental_uris": {"android": "https://dc.lft.to/lastmile_qr_scan", "ios": "https://dc.lft.to/lastmile_qr_scan"}, "fusion_lon": 0.0, "lat": 38.9107235, "bike_id": "5aad124c235bcb799d7296570611c8f2", "type": "electric_scooter", "is_reserved": 0, "lon": -77.02717933333334}, {"fusion_lat": 0.0, "name": "372f74af6174f15a41e6098fa31a71c2", "is_disabled": 0, "rental_uris": {"android": "https://dc.lft.to/lastmile_qr_scan", "ios": "https://dc.lft.to/lastmile_qr_scan"}, "fusion_lon": 0.0, "lat": 38.944649, "bike_id": "372f74af6174f15a41e6098fa31a71c2", "type": "electric_scooter", "is_reserved": 0, "lon": -77.00661216666667}, {"fusion_lat": 0.0, "name": "e5774e228b8dcad4b66a9b0cd927aecc", "is_disabled": 0, "rental_uris": {"android": "https://dc.lft.to/lastmile_qr_scan", "ios": "https://dc.lft.to/lastmile_qr_scan"}, "fusion_lon": 0.0, "lat": 38.92360383333333, "bike_id": "e5774e228b8dcad4b66a9b0cd927aecc", "type": "electric_scooter", "is_reserved": 0, "lon": -77.04382083333333}, {"fusion_lat": 0.0, "name": "58e3c0232ecdece7b24a56f7a4dcb4ee", "is_disabled": 0, "rental_uris": {"android": "https://dc.lft.to/lastmile_qr_scan", "ios": "https://dc.lft.to/lastmile_qr_scan"}, "fusion_lon": 0.0, "lat": 38.900230666666666, "bike_id": "58e3c0232ecdece7b24a56f7a4dcb4ee", "type": "electric_scooter", "is_reserved": 0, "lon": -77.02389266666667}, {"fusion_lat": 0.0, "name": "cce1d08abb98b7f9d59d0c8ae9b73609", "is_disabled": 0, "rental_uris": {"android": "https://dc.lft.to/lastmile_qr_scan", "ios": "https://dc.lft.to/lastmile_qr_scan"}, "fusion_lon": 0.0, "lat": 38.916202166666665, "bike_id": "cce1d08abb98b7f9d59d0c8ae9b73609", "type": "electric_scooter", "is_reserved": 0, "lon": -77.0385235}, {"fusion_lat": 0.0, "name": "0275942a960bb1fa22f8b02e8a645b79", "is_disabled": 0, "rental_uris": {"android": "https://dc.lft.to/lastmile_qr_scan", "ios": "https://dc.lft.to/lastmile_qr_scan"}, "fusion_lon": 0.0, "lat": 38.87467816666667, "bike_id": "0275942a960bb1fa22f8b02e8a645b79", "type": "electric_scooter", "is_reserved": 0, "lon": -77.01896333333333}, {"fusion_lat": 0.0, "name": "58f98b9643bd31a07ba387e4c2066fd6", "is_disabled": 0, "rental_uris": {"android": "https://dc.lft.to/lastmile_qr_scan", "ios": "https://dc.lft.to/lastmile_qr_scan"}, "fusion_lon": 0.0, "lat": 38.887687166666666, "bike_id": "58f98b9643bd31a07ba387e4c2066fd6", "type": "electric_scooter", "is_reserved": 0, "lon": -76.9775385}, {"fusion_lat": 0.0, "name": "07896bc4b41600104b345c9ae615dab6", "is_disabled": 0, "rental_uris": {"android": "https://dc.lft.to/lastmile_qr_scan", "ios": "https://dc.lft.to/lastmile_qr_scan"}, "fusion_lon": 0.0, "lat": 38.8990485, "bike_id": "07896bc4b41600104b345c9ae615dab6", "type": "electric_scooter", "is_reserved": 0, "lon": -76.945506}, {"fusion_lat": 0.0, "name": "b1fb88077d0f68f6227c0beabb4d4385", "is_disabled": 0, "rental_uris": {"android": "https://dc.lft.to/lastmile_qr_scan", "ios": "https://dc.lft.to/lastmile_qr_scan"}, "fusion_lon": 0.0, "lat": 38.824599166666665, "bike_id": "b1fb88077d0f68f6227c0beabb4d4385", "type": "electric_bike", "is_reserved": 0, "lon": -77.00796133333333}, {"fusion_lat": 0.0, "name": "b4b1e7d3096bb232ad6017f8b600acaa", "is_disabled": 0, "rental_uris": {"android": "https://dc.lft.to/lastmile_qr_scan", "ios": "https://dc.lft.to/lastmile_qr_scan"}, "fusion_lon": 0.0, "lat": 38.9099485, "bike_id": "b4b1e7d3096bb232ad6017f8b600acaa", "type": "electric_scooter", "is_reserved": 0, "lon": -77.00733616666666}, {"fusion_lat": 0.0, "name": "25250cfe036889bc5e1e6675e4d4658b", "is_disabled": 0, "rental_uris": {"android": "https://dc.lft.to/lastmile_qr_scan", "ios": "https://dc.lft.to/lastmile_qr_scan"}, "fusion_lon": 0.0, "lat": 38.905649333333336, "bike_id": "25250cfe036889bc5e1e6675e4d4658b", "type": "electric_scooter", "is_reserved": 0, "lon": -77.005126}, {"fusion_lat": 0.0, "name": "7ad7dd8f0318f5a17fa528061f7ecf5b", "is_disabled": 0, "rental_uris": {"android": "https://dc.lft.to/lastmile_qr_scan", "ios": "https://dc.lft.to/lastmile_qr_scan"}, "fusion_lon": 0.0, "lat": 38.89220983333333, "bike_id": "7ad7dd8f0318f5a17fa528061f7ecf5b", "type": "electric_scooter", "is_reserved": 0, "lon": -77.024146}, {"fusion_lat": 0.0, "name": "bdf6afc9bff4019b342c5376c60251e7", "is_disabled": 0, "rental_uris": {"android": "https://dc.lft.to/lastmile_qr_scan", "ios": "https://dc.lft.to/lastmile_qr_scan"}, "fusion_lon": 0.0, "lat": 38.892229, "bike_id": "bdf6afc9bff4019b342c5376c60251e7", "type": "electric_scooter", "is_reserved": 0, "lon": -77.04195316666667}, {"fusion_lat": 0.0, "name": "9ccfbd7c26f87ababdac0ff6c126b046", "is_disabled": 0, "rental_uris": {"android": "https://dc.lft.to/lastmile_qr_scan", "ios": "https://dc.lft.to/lastmile_qr_scan"}, "fusion_lon": 0.0, "lat": 38.89670983333333, "bike_id": "9ccfbd7c26f87ababdac0ff6c126b046", "type": "electric_scooter", "is_reserved": 0, "lon": -77.049769}, {"fusion_lat": 0.0, "name": "fa5d50527e3f11c5984a0c903073e44a", "is_disabled": 0, "rental_uris": {"android": "https://dc.lft.to/lastmile_qr_scan", "ios": "https://dc.lft.to/lastmile_qr_scan"}, "fusion_lon": 0.0, "lat": 38.91930383333333, "bike_id": "fa5d50527e3f11c5984a0c903073e44a", "type": "electric_scooter", "is_reserved": 0, "lon": -77.03178}, {"fusion_lat": 0.0, "name": "3781baee1666ab59be55289817c335e9", "is_disabled": 0, "rental_uris": {"android": "https://dc.lft.to/lastmile_qr_scan", "ios": "https://dc.lft.to/lastmile_qr_scan"}, "fusion_lon": 0.0, "lat": 38.9079825, "bike_id": "3781baee1666ab59be55289817c335e9", "type": "electric_scooter", "is_reserved": 0, "lon": -77.0387695}, {"fusion_lat": 0.0, "name": "4216d4db12fe5c3bec50e6399e87b4a5", "is_disabled": 0, "rental_uris": {"android": "https://dc.lft.to/lastmile_qr_scan", "ios": "https://dc.lft.to/lastmile_qr_scan"}, "fusion_lon": 0.0, "lat": 38.9065895, "bike_id": "4216d4db12fe5c3bec50e6399e87b4a5", "type": "electric_scooter", "is_reserved": 0, "lon": -77.00667516666667}, {"fusion_lat": 0.0, "name": "7ee5e0e97a3cb8c142be19a1dcac4dea", "is_disabled": 0, "rental_uris": {"android": "https://dc.lft.to/lastmile_qr_scan", "ios": "https://dc.lft.to/lastmile_qr_scan"}, "fusion_lon": 0.0, "lat": 38.96668316666667, "bike_id": "7ee5e0e97a3cb8c142be19a1dcac4dea", "type": "electric_scooter", "is_reserved": 0, "lon": -77.02550383333333}, {"fusion_lat": 0.0, "name": "78514bf96df4795d0ac287b8bf503086", "is_disabled": 0, "rental_uris": {"android": "https://dc.lft.to/lastmile_qr_scan", "ios": "https://dc.lft.to/lastmile_qr_scan"}, "fusion_lon": 0.0, "lat": 38.89732866666667, "bike_id": "78514bf96df4795d0ac287b8bf503086", "type": "electric_scooter", "is_reserved": 0, "lon": -77.04552433333333}, {"fusion_lat": 0.0, "name": "5b8275a63b41f51eddb0f5a9c227ae91", "is_disabled": 0, "rental_uris": {"android": "https://dc.lft.to/lastmile_qr_scan", "ios": "https://dc.lft.to/lastmile_qr_scan"}, "fusion_lon": 0.0, "lat": 38.9131075, "bike_id": "5b8275a63b41f51eddb0f5a9c227ae91", "type": "electric_scooter", "is_reserved": 0, "lon": -77.03659483333334}, {"fusion_lat": 0.0, "name": "e519815d046071a04f35ad03957c5e94", "is_disabled": 0, "rental_uris": {"android": "https://dc.lft.to/lastmile_qr_scan", "ios": "https://dc.lft.to/lastmile_qr_scan"}, "fusion_lon": 0.0, "lat": 38.9127175, "bike_id": "e519815d046071a04f35ad03957c5e94", "type": "electric_scooter", "is_reserved": 0, "lon": -77.044716}, {"fusion_lat": 0.0, "name": "8d2ea2d3cfff08bc4fb43302e1acc051", "is_disabled": 0, "rental_uris": {"android": "https://dc.lft.to/lastmile_qr_scan", "ios": "https://dc.lft.to/lastmile_qr_scan"}, "fusion_lon": 0.0, "lat": 38.881453, "bike_id": "8d2ea2d3cfff08bc4fb43302e1acc051", "type": "electric_scooter", "is_reserved": 0, "lon": -76.9950575}, {"fusion_lat": 0.0, "name": "b077906ebfbf87f4adba4398f266b3c4", "is_disabled": 0, "rental_uris": {"android": "https://dc.lft.to/lastmile_qr_scan", "ios": "https://dc.lft.to/lastmile_qr_scan"}, "fusion_lon": 0.0, "lat": 38.896914333333335, "bike_id": "b077906ebfbf87f4adba4398f266b3c4", "type": "electric_scooter", "is_reserved": 0, "lon": -77.00550216666667}, {"fusion_lat": 0.0, "name": "aae0e04e0c5809dc320a395978478dd9", "is_disabled": 0, "rental_uris": {"android": "https://dc.lft.to/lastmile_qr_scan", "ios": "https://dc.lft.to/lastmile_qr_scan"}, "fusion_lon": 0.0, "lat": 38.880645, "bike_id": "aae0e04e0c5809dc320a395978478dd9", "type": "electric_scooter", "is_reserved": 0, "lon": -76.98503033333333}, {"fusion_lat": 0.0, "name": "cff76420c617a4d298329ac58e80685f", "is_disabled": 0, "rental_uris": {"android": "https://dc.lft.to/lastmile_qr_scan", "ios": "https://dc.lft.to/lastmile_qr_scan"}, "fusion_lon": 0.0, "lat": 38.8921955, "bike_id": "cff76420c617a4d298329ac58e80685f", "type": "electric_scooter", "is_reserved": 0, "lon": -77.02414016666667}, {"fusion_lat": 0.0, "name": "f30d782d586a9e2d2dfe0efa7aa3720e", "is_disabled": 0, "rental_uris": {"android": "https://dc.lft.to/lastmile_qr_scan", "ios": "https://dc.lft.to/lastmile_qr_scan"}, "fusion_lon": 0.0, "lat": 38.92637833333333, "bike_id": "f30d782d586a9e2d2dfe0efa7aa3720e", "type": "electric_scooter", "is_reserved": 0, "lon": -77.0385}, {"fusion_lat": 0.0, "name": "c176a1a2980fbdd7a25f922e1a6b7617", "is_disabled": 0, "rental_uris": {"android": "https://dc.lft.to/lastmile_qr_scan", "ios": "https://dc.lft.to/lastmile_qr_scan"}, "fusion_lon": 0.0, "lat": 38.91051566666667, "bike_id": "c176a1a2980fbdd7a25f922e1a6b7617", "type": "electric_scooter", "is_reserved": 0, "lon": -77.03333333333333}, {"fusion_lat": 0.0, "name": "43fbc441a1f02eaaff61f19968e237ec", "is_disabled": 0, "rental_uris": {"android": "https://dc.lft.to/lastmile_qr_scan", "ios": "https://dc.lft.to/lastmile_qr_scan"}, "fusion_lon": 0.0, "lat": 38.89998683333334, "bike_id": "43fbc441a1f02eaaff61f19968e237ec", "type": "electric_scooter", "is_reserved": 0, "lon": -77.05502633333333}, {"fusion_lat": 0.0, "name": "e72adc64aa6b57f7fbfafd5d1651c62f", "is_disabled": 0, "rental_uris": {"android": "https://dc.lft.to/lastmile_qr_scan", "ios": "https://dc.lft.to/lastmile_qr_scan"}, "fusion_lon": 0.0, "lat": 38.91641716666667, "bike_id": "e72adc64aa6b57f7fbfafd5d1651c62f", "type": "electric_scooter", "is_reserved": 0, "lon": -77.04793}, {"fusion_lat": 0.0, "name": "264ef3a7dd1e6a95b446ff4e6cf62a6c", "is_disabled": 0, "rental_uris": {"android": "https://dc.lft.to/lastmile_qr_scan", "ios": "https://dc.lft.to/lastmile_qr_scan"}, "fusion_lon": 0.0, "lat": 38.92872833333333, "bike_id": "264ef3a7dd1e6a95b446ff4e6cf62a6c", "type": "electric_scooter", "is_reserved": 0, "lon": -77.03239066666667}, {"fusion_lat": 0.0, "name": "491ffa1f48b8784d2904d8a5f6599d80", "is_disabled": 0, "rental_uris": {"android": "https://dc.lft.to/lastmile_qr_scan", "ios": "https://dc.lft.to/lastmile_qr_scan"}, "fusion_lon": 0.0, "lat": 39.03600483333334, "bike_id": "491ffa1f48b8784d2904d8a5f6599d80", "type": "electric_bike", "is_reserved": 0, "lon": -77.05543433333334}, {"fusion_lat": 0.0, "name": "a53882071128e652f8d7a2335982b85b", "is_disabled": 0, "rental_uris": {"android": "https://dc.lft.to/lastmile_qr_scan", "ios": "https://dc.lft.to/lastmile_qr_scan"}, "fusion_lon": 0.0, "lat": 38.92077283333333, "bike_id": "a53882071128e652f8d7a2335982b85b", "type": "electric_bike", "is_reserved": 0, "lon": -77.07192083333334}, {"fusion_lat": 0.0, "name": "99cded6c564c2d6a4da135514566d188", "is_disabled": 0, "rental_uris": {"android": "https://dc.lft.to/lastmile_qr_scan", "ios": "https://dc.lft.to/lastmile_qr_scan"}, "fusion_lon": 0.0, "lat": 38.9148555, "bike_id": "99cded6c564c2d6a4da135514566d188", "type": "electric_scooter", "is_reserved": 0, "lon": -77.04278866666667}, {"fusion_lat": 0.0, "name": "738d4c92c50cf38d13ab212cd74c8ba6", "is_disabled": 0, "rental_uris": {"android": "https://dc.lft.to/lastmile_qr_scan", "ios": "https://dc.lft.to/lastmile_qr_scan"}, "fusion_lon": 0.0, "lat": 38.91026883333333, "bike_id": "738d4c92c50cf38d13ab212cd74c8ba6", "type": "electric_scooter", "is_reserved": 0, "lon": -77.007558}, {"fusion_lat": 0.0, "name": "c8456dbf1faf92dba13a94ab09cc4a08", "is_disabled": 0, "rental_uris": {"android": "https://dc.lft.to/lastmile_qr_scan", "ios": "https://dc.lft.to/lastmile_qr_scan"}, "fusion_lon": 0.0, "lat": 38.858044, "bike_id": "c8456dbf1faf92dba13a94ab09cc4a08", "type": "electric_bike", "is_reserved": 0, "lon": -76.9874005}, {"fusion_lat": 0.0, "name": "86fd00354be09fdb3a84f05cefd1fbf5", "is_disabled": 0, "rental_uris": {"android": "https://dc.lft.to/lastmile_qr_scan", "ios": "https://dc.lft.to/lastmile_qr_scan"}, "fusion_lon": 0.0, "lat": 38.920626166666665, "bike_id": "86fd00354be09fdb3a84f05cefd1fbf5", "type": "electric_scooter", "is_reserved": 0, "lon": -76.99859783333333}, {"fusion_lat": 0.0, "name": "8ea085bbb05bfcb44278008e98d752d2", "is_disabled": 0, "rental_uris": {"android": "https://dc.lft.to/lastmile_qr_scan", "ios": "https://dc.lft.to/lastmile_qr_scan"}, "fusion_lon": 0.0, "lat": 38.923616, "bike_id": "8ea085bbb05bfcb44278008e98d752d2", "type": "electric_scooter", "is_reserved": 0, "lon": -77.04256883333333}, {"fusion_lat": 0.0, "name": "06f960ff212fc436337550fc5d26f33a", "is_disabled": 0, "rental_uris": {"android": "https://dc.lft.to/lastmile_qr_scan", "ios": "https://dc.lft.to/lastmile_qr_scan"}, "fusion_lon": 0.0, "lat": 38.90598983333334, "bike_id": "06f960ff212fc436337550fc5d26f33a", "type": "electric_bike", "is_reserved": 0, "lon": -77.063462}, {"fusion_lat": 0.0, "name": "f71f34eff670a2fe62a77f1d5755818c", "is_disabled": 0, "rental_uris": {"android": "https://dc.lft.to/lastmile_qr_scan", "ios": "https://dc.lft.to/lastmile_qr_scan"}, "fusion_lon": 0.0, "lat": 38.91720766666667, "bike_id": "f71f34eff670a2fe62a77f1d5755818c", "type": "electric_scooter", "is_reserved": 0, "lon": -77.00814133333333}, {"fusion_lat": 0.0, "name": "68ad0d02484cefa02c91b1011802e31f", "is_disabled": 0, "rental_uris": {"android": "https://dc.lft.to/lastmile_qr_scan", "ios": "https://dc.lft.to/lastmile_qr_scan"}, "fusion_lon": 0.0, "lat": 38.920514833333336, "bike_id": "68ad0d02484cefa02c91b1011802e31f", "type": "electric_scooter", "is_reserved": 0, "lon": -77.04189566666666}, {"fusion_lat": 0.0, "name": "a03b456ef13599b295700df3954ec621", "is_disabled": 0, "rental_uris": {"android": "https://dc.lft.to/lastmile_qr_scan", "ios": "https://dc.lft.to/lastmile_qr_scan"}, "fusion_lon": 0.0, "lat": 38.9245555, "bike_id": "a03b456ef13599b295700df3954ec621", "type": "electric_scooter", "is_reserved": 0, "lon": -76.99332083333333}, {"fusion_lat": 0.0, "name": "5d9aa9bcc54fd30d6ce2588b20640657", "is_disabled": 0, "rental_uris": {"android": "https://dc.lft.to/lastmile_qr_scan", "ios": "https://dc.lft.to/lastmile_qr_scan"}, "fusion_lon": 0.0, "lat": 38.920201666666664, "bike_id": "5d9aa9bcc54fd30d6ce2588b20640657", "type": "electric_scooter", "is_reserved": 0, "lon": -76.9956905}, {"fusion_lat": 0.0, "name": "0de1563deae8dd43da1346a9bd6f5852", "is_disabled": 0, "rental_uris": {"android": "https://dc.lft.to/lastmile_qr_scan", "ios": "https://dc.lft.to/lastmile_qr_scan"}, "fusion_lon": 0.0, "lat": 38.8625995, "bike_id": "0de1563deae8dd43da1346a9bd6f5852", "type": "electric_bike", "is_reserved": 0, "lon": -76.983513}, {"fusion_lat": 0.0, "name": "6b04fbcfc0201223bed3beee23efd0e9", "is_disabled": 0, "rental_uris": {"android": "https://dc.lft.to/lastmile_qr_scan", "ios": "https://dc.lft.to/lastmile_qr_scan"}, "fusion_lon": 0.0, "lat": 38.90095766666666, "bike_id": "6b04fbcfc0201223bed3beee23efd0e9", "type": "electric_scooter", "is_reserved": 0, "lon": -77.0194605}, {"fusion_lat": 0.0, "name": "a0d685f9ac70b248d35678660b60ce58", "is_disabled": 0, "rental_uris": {"android": "https://dc.lft.to/lastmile_qr_scan", "ios": "https://dc.lft.to/lastmile_qr_scan"}, "fusion_lon": 0.0, "lat": 38.89478966666667, "bike_id": "a0d685f9ac70b248d35678660b60ce58", "type": "electric_scooter", "is_reserved": 0, "lon": -77.02184}, {"fusion_lat": 0.0, "name": "0e3be0220cf16c8ac56b1f001f48a630", "is_disabled": 0, "rental_uris": {"android": "https://dc.lft.to/lastmile_qr_scan", "ios": "https://dc.lft.to/lastmile_qr_scan"}, "fusion_lon": 0.0, "lat": 38.89750766666667, "bike_id": "0e3be0220cf16c8ac56b1f001f48a630", "type": "electric_scooter", "is_reserved": 0, "lon": -77.02499633333333}, {"fusion_lat": 0.0, "name": "a8fbec944bbd540d452f716b72f46fd4", "is_disabled": 0, "rental_uris": {"android": "https://dc.lft.to/lastmile_qr_scan", "ios": "https://dc.lft.to/lastmile_qr_scan"}, "fusion_lon": 0.0, "lat": 38.88769716666667, "bike_id": "a8fbec944bbd540d452f716b72f46fd4", "type": "electric_scooter", "is_reserved": 0, "lon": -76.97748616666667}, {"fusion_lat": 0.0, "name": "94f3fad9954326fa25b607a891158837", "is_disabled": 0, "rental_uris": {"android": "https://dc.lft.to/lastmile_qr_scan", "ios": "https://dc.lft.to/lastmile_qr_scan"}, "fusion_lon": 0.0, "lat": 38.917168, "bike_id": "94f3fad9954326fa25b607a891158837", "type": "electric_scooter", "is_reserved": 0, "lon": -77.024767}, {"fusion_lat": 0.0, "name": "05e9822ccab37a2e110e338b098de4fc", "is_disabled": 0, "rental_uris": {"android": "https://dc.lft.to/lastmile_qr_scan", "ios": "https://dc.lft.to/lastmile_qr_scan"}, "fusion_lon": 0.0, "lat": 38.92873, "bike_id": "05e9822ccab37a2e110e338b098de4fc", "type": "electric_scooter", "is_reserved": 0, "lon": -77.0304185}, {"fusion_lat": 0.0, "name": "bb01ffb5744d04aea4418f7a54f5fe16", "is_disabled": 0, "rental_uris": {"android": "https://dc.lft.to/lastmile_qr_scan", "ios": "https://dc.lft.to/lastmile_qr_scan"}, "fusion_lon": 0.0, "lat": 38.869164166666664, "bike_id": "bb01ffb5744d04aea4418f7a54f5fe16", "type": "electric_bike", "is_reserved": 0, "lon": -76.97504983333333}, {"fusion_lat": 0.0, "name": "23b7523e8937d7525c160050d767e6ec", "is_disabled": 0, "rental_uris": {"android": "https://dc.lft.to/lastmile_qr_scan", "ios": "https://dc.lft.to/lastmile_qr_scan"}, "fusion_lon": 0.0, "lat": 38.906588, "bike_id": "23b7523e8937d7525c160050d767e6ec", "type": "electric_scooter", "is_reserved": 0, "lon": -77.0383625}, {"fusion_lat": 0.0, "name": "6fd7fc832dbf7b9f180615c465ef1217", "is_disabled": 0, "rental_uris": {"android": "https://dc.lft.to/lastmile_qr_scan", "ios": "https://dc.lft.to/lastmile_qr_scan"}, "fusion_lon": 0.0, "lat": 38.90150366666667, "bike_id": "6fd7fc832dbf7b9f180615c465ef1217", "type": "electric_scooter", "is_reserved": 0, "lon": -76.93070216666666}, {"fusion_lat": 0.0, "name": "77f2c50d7b4f684adffba768bee9b2fc", "is_disabled": 0, "rental_uris": {"android": "https://dc.lft.to/lastmile_qr_scan", "ios": "https://dc.lft.to/lastmile_qr_scan"}, "fusion_lon": 0.0, "lat": 38.915634, "bike_id": "77f2c50d7b4f684adffba768bee9b2fc", "type": "electric_scooter", "is_reserved": 0, "lon": -77.024581}, {"fusion_lat": 0.0, "name": "cea578fc8f4bba8d48ba5dbe26d58bc7", "is_disabled": 0, "rental_uris": {"android": "https://dc.lft.to/lastmile_qr_scan", "ios": "https://dc.lft.to/lastmile_qr_scan"}, "fusion_lon": 0.0, "lat": 38.887443166666664, "bike_id": "cea578fc8f4bba8d48ba5dbe26d58bc7", "type": "electric_scooter", "is_reserved": 0, "lon": -77.0315675}, {"fusion_lat": 0.0, "name": "31ece50d13f3e3f8872dc9557cad63e4", "is_disabled": 0, "rental_uris": {"android": "https://dc.lft.to/lastmile_qr_scan", "ios": "https://dc.lft.to/lastmile_qr_scan"}, "fusion_lon": 0.0, "lat": 38.912451833333336, "bike_id": "31ece50d13f3e3f8872dc9557cad63e4", "type": "electric_scooter", "is_reserved": 0, "lon": -77.00650616666667}, {"fusion_lat": 0.0, "name": "f328bc000aafbf0b057d1b1b931c462d", "is_disabled": 0, "rental_uris": {"android": "https://dc.lft.to/lastmile_qr_scan", "ios": "https://dc.lft.to/lastmile_qr_scan"}, "fusion_lon": 0.0, "lat": 38.9057395, "bike_id": "f328bc000aafbf0b057d1b1b931c462d", "type": "electric_scooter", "is_reserved": 0, "lon": -77.02107516666666}, {"fusion_lat": 0.0, "name": "bdec1bc0b2eeefbe52699b52d1d9d6f4", "is_disabled": 0, "rental_uris": {"android": "https://dc.lft.to/lastmile_qr_scan", "ios": "https://dc.lft.to/lastmile_qr_scan"}, "fusion_lon": 0.0, "lat": 38.88137583333334, "bike_id": "bdec1bc0b2eeefbe52699b52d1d9d6f4", "type": "electric_bike", "is_reserved": 0, "lon": -76.995521}, {"fusion_lat": 0.0, "name": "3e004e08b03462cd192c56c06faa5290", "is_disabled": 0, "rental_uris": {"android": "https://dc.lft.to/lastmile_qr_scan", "ios": "https://dc.lft.to/lastmile_qr_scan"}, "fusion_lon": 0.0, "lat": 38.9093565, "bike_id": "3e004e08b03462cd192c56c06faa5290", "type": "electric_scooter", "is_reserved": 0, "lon": -77.01841383333333}, {"fusion_lat": 0.0, "name": "7a73aac652c347dec6989076dc7a1076", "is_disabled": 0, "rental_uris": {"android": "https://dc.lft.to/lastmile_qr_scan", "ios": "https://dc.lft.to/lastmile_qr_scan"}, "fusion_lon": 0.0, "lat": 38.92810033333333, "bike_id": "7a73aac652c347dec6989076dc7a1076", "type": "electric_scooter", "is_reserved": 0, "lon": -77.04349433333333}, {"fusion_lat": 0.0, "name": "8eb74a60a1262aedc683ec9098466442", "is_disabled": 0, "rental_uris": {"android": "https://dc.lft.to/lastmile_qr_scan", "ios": "https://dc.lft.to/lastmile_qr_scan"}, "fusion_lon": 0.0, "lat": 38.90684433333333, "bike_id": "8eb74a60a1262aedc683ec9098466442", "type": "electric_bike", "is_reserved": 0, "lon": -76.9449315}, {"fusion_lat": 0.0, "name": "6aa517ba992608f62257c5e54bd9519a", "is_disabled": 0, "rental_uris": {"android": "https://dc.lft.to/lastmile_qr_scan", "ios": "https://dc.lft.to/lastmile_qr_scan"}, "fusion_lon": 0.0, "lat": 38.919828833333334, "bike_id": "6aa517ba992608f62257c5e54bd9519a", "type": "electric_scooter", "is_reserved": 0, "lon": -77.0332745}, {"fusion_lat": 0.0, "name": "5823fd065100579a7c77d47623c693b1", "is_disabled": 0, "rental_uris": {"android": "https://dc.lft.to/lastmile_qr_scan", "ios": "https://dc.lft.to/lastmile_qr_scan"}, "fusion_lon": 0.0, "lat": 38.955707833333335, "bike_id": "5823fd065100579a7c77d47623c693b1", "type": "electric_bike", "is_reserved": 0, "lon": -77.01006516666666}, {"fusion_lat": 0.0, "name": "d5b7b8e91adc33650b18bb1bf77bb18b", "is_disabled": 0, "rental_uris": {"android": "https://dc.lft.to/lastmile_qr_scan", "ios": "https://dc.lft.to/lastmile_qr_scan"}, "fusion_lon": 0.0, "lat": 38.95878866666666, "bike_id": "d5b7b8e91adc33650b18bb1bf77bb18b", "type": "electric_bike", "is_reserved": 0, "lon": -76.970513}, {"fusion_lat": 0.0, "name": "4a695be48420ff524107b3069eccc0b1", "is_disabled": 0, "rental_uris": {"android": "https://dc.lft.to/lastmile_qr_scan", "ios": "https://dc.lft.to/lastmile_qr_scan"}, "fusion_lon": 0.0, "lat": 38.9563605, "bike_id": "4a695be48420ff524107b3069eccc0b1", "type": "electric_scooter", "is_reserved": 0, "lon": -77.0330575}, {"fusion_lat": 0.0, "name": "2f045bfa568e6b6c4980e5e0b56bdf9b", "is_disabled": 0, "rental_uris": {"android": "https://dc.lft.to/lastmile_qr_scan", "ios": "https://dc.lft.to/lastmile_qr_scan"}, "fusion_lon": 0.0, "lat": 38.9062265, "bike_id": "2f045bfa568e6b6c4980e5e0b56bdf9b", "type": "electric_scooter", "is_reserved": 0, "lon": -77.02976866666667}, {"fusion_lat": 0.0, "name": "fd41ba3e72a95f98ad27186a04c1eec1", "is_disabled": 0, "rental_uris": {"android": "https://dc.lft.to/lastmile_qr_scan", "ios": "https://dc.lft.to/lastmile_qr_scan"}, "fusion_lon": 0.0, "lat": 38.92078016666667, "bike_id": "fd41ba3e72a95f98ad27186a04c1eec1", "type": "electric_scooter", "is_reserved": 0, "lon": -77.0241435}, {"fusion_lat": 0.0, "name": "479f41656302760b6a9213abcfe5e322", "is_disabled": 0, "rental_uris": {"android": "https://dc.lft.to/lastmile_qr_scan", "ios": "https://dc.lft.to/lastmile_qr_scan"}, "fusion_lon": 0.0, "lat": 38.921889166666666, "bike_id": "479f41656302760b6a9213abcfe5e322", "type": "electric_scooter", "is_reserved": 0, "lon": -77.04351633333333}, {"fusion_lat": 0.0, "name": "71cb63ec826b9661b835ae1c2b74d073", "is_disabled": 0, "rental_uris": {"android": "https://dc.lft.to/lastmile_qr_scan", "ios": "https://dc.lft.to/lastmile_qr_scan"}, "fusion_lon": 0.0, "lat": 38.90376166666667, "bike_id": "71cb63ec826b9661b835ae1c2b74d073", "type": "electric_scooter", "is_reserved": 0, "lon": -77.05023516666667}, {"fusion_lat": 0.0, "name": "3305ab692fcfd252e470e3298ebc1f2e", "is_disabled": 0, "rental_uris": {"android": "https://dc.lft.to/lastmile_qr_scan", "ios": "https://dc.lft.to/lastmile_qr_scan"}, "fusion_lon": 0.0, "lat": 38.926043, "bike_id": "3305ab692fcfd252e470e3298ebc1f2e", "type": "electric_scooter", "is_reserved": 0, "lon": -77.02156133333334}, {"fusion_lat": 0.0, "name": "e8c65e98ffb1d9836f958f8434a6c118", "is_disabled": 0, "rental_uris": {"android": "https://dc.lft.to/lastmile_qr_scan", "ios": "https://dc.lft.to/lastmile_qr_scan"}, "fusion_lon": 0.0, "lat": 38.930811166666665, "bike_id": "e8c65e98ffb1d9836f958f8434a6c118", "type": "electric_scooter", "is_reserved": 0, "lon": -77.03270966666666}, {"fusion_lat": 0.0, "name": "afd39ee8a25ddd7b34d8290827685f16", "is_disabled": 0, "rental_uris": {"android": "https://dc.lft.to/lastmile_qr_scan", "ios": "https://dc.lft.to/lastmile_qr_scan"}, "fusion_lon": 0.0, "lat": 38.915543666666665, "bike_id": "afd39ee8a25ddd7b34d8290827685f16", "type": "electric_scooter", "is_reserved": 0, "lon": -77.03659466666667}, {"fusion_lat": 0.0, "name": "463477b51a517c8ecc280b4dee46c576", "is_disabled": 0, "rental_uris": {"android": "https://dc.lft.to/lastmile_qr_scan", "ios": "https://dc.lft.to/lastmile_qr_scan"}, "fusion_lon": 0.0, "lat": 38.904112833333336, "bike_id": "463477b51a517c8ecc280b4dee46c576", "type": "electric_scooter", "is_reserved": 0, "lon": -76.97328933333333}, {"fusion_lat": 0.0, "name": "e8695dca7648027eb51978453bcc9d4d", "is_disabled": 0, "rental_uris": {"android": "https://dc.lft.to/lastmile_qr_scan", "ios": "https://dc.lft.to/lastmile_qr_scan"}, "fusion_lon": 0.0, "lat": 38.88439066666667, "bike_id": "e8695dca7648027eb51978453bcc9d4d", "type": "electric_scooter", "is_reserved": 0, "lon": -77.00348216666667}, {"fusion_lat": 0.0, "name": "29343889322c0c19f4b9f42876b372d0", "is_disabled": 0, "rental_uris": {"android": "https://dc.lft.to/lastmile_qr_scan", "ios": "https://dc.lft.to/lastmile_qr_scan"}, "fusion_lon": 0.0, "lat": 38.89713883333334, "bike_id": "29343889322c0c19f4b9f42876b372d0", "type": "electric_scooter", "is_reserved": 0, "lon": -77.00742133333334}, {"fusion_lat": 0.0, "name": "515be2ca11464ecd6c630ef4c7c0a3e1", "is_disabled": 0, "rental_uris": {"android": "https://dc.lft.to/lastmile_qr_scan", "ios": "https://dc.lft.to/lastmile_qr_scan"}, "fusion_lon": 0.0, "lat": 38.9357555, "bike_id": "515be2ca11464ecd6c630ef4c7c0a3e1", "type": "electric_scooter", "is_reserved": 0, "lon": -77.01928983333333}, {"fusion_lat": 0.0, "name": "e58d738caedec38cb1e6aa6ede12fca5", "is_disabled": 0, "rental_uris": {"android": "https://dc.lft.to/lastmile_qr_scan", "ios": "https://dc.lft.to/lastmile_qr_scan"}, "fusion_lon": 0.0, "lat": 38.922513333333335, "bike_id": "e58d738caedec38cb1e6aa6ede12fca5", "type": "electric_scooter", "is_reserved": 0, "lon": -77.0338405}, {"fusion_lat": 0.0, "name": "6001bf44fdbf4ed9781b4f851c070913", "is_disabled": 0, "rental_uris": {"android": "https://dc.lft.to/lastmile_qr_scan", "ios": "https://dc.lft.to/lastmile_qr_scan"}, "fusion_lon": 0.0, "lat": 38.8339735, "bike_id": "6001bf44fdbf4ed9781b4f851c070913", "type": "electric_bike", "is_reserved": 0, "lon": -77.00331083333333}, {"fusion_lat": 0.0, "name": "d06315efe58437dcd53a0f3a7a1d4096", "is_disabled": 0, "rental_uris": {"android": "https://dc.lft.to/lastmile_qr_scan", "ios": "https://dc.lft.to/lastmile_qr_scan"}, "fusion_lon": 0.0, "lat": 38.8974625, "bike_id": "d06315efe58437dcd53a0f3a7a1d4096", "type": "electric_scooter", "is_reserved": 0, "lon": -77.050892}, {"fusion_lat": 0.0, "name": "2404e48b64b404a020b84ef4b2b0637d", "is_disabled": 0, "rental_uris": {"android": "https://dc.lft.to/lastmile_qr_scan", "ios": "https://dc.lft.to/lastmile_qr_scan"}, "fusion_lon": 0.0, "lat": 38.93093016666667, "bike_id": "2404e48b64b404a020b84ef4b2b0637d", "type": "electric_scooter", "is_reserved": 0, "lon": -77.02358033333333}, {"fusion_lat": 0.0, "name": "111169966b4ad89bb15566d748cbfb34", "is_disabled": 0, "rental_uris": {"android": "https://dc.lft.to/lastmile_qr_scan", "ios": "https://dc.lft.to/lastmile_qr_scan"}, "fusion_lon": 0.0, "lat": 38.886604166666665, "bike_id": "111169966b4ad89bb15566d748cbfb34", "type": "electric_scooter", "is_reserved": 0, "lon": -77.03390816666666}, {"fusion_lat": 0.0, "name": "df4cc60c334c0de022ce512e7fa4910d", "is_disabled": 0, "rental_uris": {"android": "https://dc.lft.to/lastmile_qr_scan", "ios": "https://dc.lft.to/lastmile_qr_scan"}, "fusion_lon": 0.0, "lat": 38.925515833333336, "bike_id": "df4cc60c334c0de022ce512e7fa4910d", "type": "electric_scooter", "is_reserved": 0, "lon": -77.05301483333334}, {"fusion_lat": 0.0, "name": "55d57d12c4f6969de2e9f62a484ea235", "is_disabled": 0, "rental_uris": {"android": "https://dc.lft.to/lastmile_qr_scan", "ios": "https://dc.lft.to/lastmile_qr_scan"}, "fusion_lon": 0.0, "lat": 38.832335666666665, "bike_id": "55d57d12c4f6969de2e9f62a484ea235", "type": "electric_bike", "is_reserved": 0, "lon": -76.94623083333333}, {"fusion_lat": 0.0, "name": "778897001d3d6889b2ed5fe5dc91412f", "is_disabled": 0, "rental_uris": {"android": "https://dc.lft.to/lastmile_qr_scan", "ios": "https://dc.lft.to/lastmile_qr_scan"}, "fusion_lon": 0.0, "lat": 38.931928, "bike_id": "778897001d3d6889b2ed5fe5dc91412f", "type": "electric_scooter", "is_reserved": 0, "lon": -77.04298483333334}, {"fusion_lat": 0.0, "name": "639dda9083a755a5f65b270cc4dabfc7", "is_disabled": 0, "rental_uris": {"android": "https://dc.lft.to/lastmile_qr_scan", "ios": "https://dc.lft.to/lastmile_qr_scan"}, "fusion_lon": 0.0, "lat": 38.90553416666667, "bike_id": "639dda9083a755a5f65b270cc4dabfc7", "type": "electric_scooter", "is_reserved": 0, "lon": -77.06257333333333}, {"fusion_lat": 0.0, "name": "6eac7648444349247409a3b912846951", "is_disabled": 0, "rental_uris": {"android": "https://dc.lft.to/lastmile_qr_scan", "ios": "https://dc.lft.to/lastmile_qr_scan"}, "fusion_lon": 0.0, "lat": 38.84134983333333, "bike_id": "6eac7648444349247409a3b912846951", "type": "electric_bike", "is_reserved": 0, "lon": -76.94758533333334}, {"fusion_lat": 0.0, "name": "1c5bcbcb08c198015f15eb4ba23b09fa", "is_disabled": 0, "rental_uris": {"android": "https://dc.lft.to/lastmile_qr_scan", "ios": "https://dc.lft.to/lastmile_qr_scan"}, "fusion_lon": 0.0, "lat": 38.90989916666667, "bike_id": "1c5bcbcb08c198015f15eb4ba23b09fa", "type": "electric_scooter", "is_reserved": 0, "lon": -77.033848}, {"fusion_lat": 0.0, "name": "18ce355fbd1919389f98c7ea6bd8cfdd", "is_disabled": 0, "rental_uris": {"android": "https://dc.lft.to/lastmile_qr_scan", "ios": "https://dc.lft.to/lastmile_qr_scan"}, "fusion_lon": 0.0, "lat": 38.8733475, "bike_id": "18ce355fbd1919389f98c7ea6bd8cfdd", "type": "electric_scooter", "is_reserved": 0, "lon": -77.00066266666667}, {"fusion_lat": 0.0, "name": "fc8fcb227e1dff28c523a9eb2cc2c2c9", "is_disabled": 0, "rental_uris": {"android": "https://dc.lft.to/lastmile_qr_scan", "ios": "https://dc.lft.to/lastmile_qr_scan"}, "fusion_lon": 0.0, "lat": 38.88756633333333, "bike_id": "fc8fcb227e1dff28c523a9eb2cc2c2c9", "type": "electric_scooter", "is_reserved": 0, "lon": -77.00256083333333}, {"fusion_lat": 0.0, "name": "a59f766505d38a5218211dc1b411f0dc", "is_disabled": 0, "rental_uris": {"android": "https://dc.lft.to/lastmile_qr_scan", "ios": "https://dc.lft.to/lastmile_qr_scan"}, "fusion_lon": 0.0, "lat": 38.88450266666667, "bike_id": "a59f766505d38a5218211dc1b411f0dc", "type": "electric_scooter", "is_reserved": 0, "lon": -77.02491383333333}, {"fusion_lat": 0.0, "name": "5d6320893f64fd42b5bf2e2ab6fb33de", "is_disabled": 0, "rental_uris": {"android": "https://dc.lft.to/lastmile_qr_scan", "ios": "https://dc.lft.to/lastmile_qr_scan"}, "fusion_lon": 0.0, "lat": 38.91718483333333, "bike_id": "5d6320893f64fd42b5bf2e2ab6fb33de", "type": "electric_scooter", "is_reserved": 0, "lon": -77.028969}, {"fusion_lat": 0.0, "name": "fc82a9275fd6ebffffda5d616d7ddc8a", "is_disabled": 0, "rental_uris": {"android": "https://dc.lft.to/lastmile_qr_scan", "ios": "https://dc.lft.to/lastmile_qr_scan"}, "fusion_lon": 0.0, "lat": 38.9159675, "bike_id": "fc82a9275fd6ebffffda5d616d7ddc8a", "type": "electric_scooter", "is_reserved": 0, "lon": -77.04905666666667}, {"fusion_lat": 0.0, "name": "84513d531eae0fce8c967aa2403353d1", "is_disabled": 0, "rental_uris": {"android": "https://dc.lft.to/lastmile_qr_scan", "ios": "https://dc.lft.to/lastmile_qr_scan"}, "fusion_lon": 0.0, "lat": 38.9385035, "bike_id": "84513d531eae0fce8c967aa2403353d1", "type": "electric_scooter", "is_reserved": 0, "lon": -77.06248083333334}, {"fusion_lat": 0.0, "name": "67ec94f64bb91cba34e9f32dbd45fe5d", "is_disabled": 0, "rental_uris": {"android": "https://dc.lft.to/lastmile_qr_scan", "ios": "https://dc.lft.to/lastmile_qr_scan"}, "fusion_lon": 0.0, "lat": 38.9047735, "bike_id": "67ec94f64bb91cba34e9f32dbd45fe5d", "type": "electric_bike", "is_reserved": 0, "lon": -77.0611645}, {"fusion_lat": 0.0, "name": "4ffb85e578de4c38ec71473cfcd1a097", "is_disabled": 0, "rental_uris": {"android": "https://dc.lft.to/lastmile_qr_scan", "ios": "https://dc.lft.to/lastmile_qr_scan"}, "fusion_lon": 0.0, "lat": 38.931209333333335, "bike_id": "4ffb85e578de4c38ec71473cfcd1a097", "type": "electric_scooter", "is_reserved": 0, "lon": -77.02099833333334}, {"fusion_lat": 0.0, "name": "72bc3009d0dd45b87a98f2a32520005e", "is_disabled": 0, "rental_uris": {"android": "https://dc.lft.to/lastmile_qr_scan", "ios": "https://dc.lft.to/lastmile_qr_scan"}, "fusion_lon": 0.0, "lat": 38.92620516666667, "bike_id": "72bc3009d0dd45b87a98f2a32520005e", "type": "electric_scooter", "is_reserved": 0, "lon": -77.0431975}, {"fusion_lat": 0.0, "name": "21ce9c046f61ef8c40d748f47a0936ab", "is_disabled": 0, "rental_uris": {"android": "https://dc.lft.to/lastmile_qr_scan", "ios": "https://dc.lft.to/lastmile_qr_scan"}, "fusion_lon": 0.0, "lat": 38.91996866666667, "bike_id": "21ce9c046f61ef8c40d748f47a0936ab", "type": "electric_scooter", "is_reserved": 0, "lon": -77.03276533333333}, {"fusion_lat": 0.0, "name": "3c5547ae3d2b767d80bfb892afa3799e", "is_disabled": 0, "rental_uris": {"android": "https://dc.lft.to/lastmile_qr_scan", "ios": "https://dc.lft.to/lastmile_qr_scan"}, "fusion_lon": 0.0, "lat": 38.900247, "bike_id": "3c5547ae3d2b767d80bfb892afa3799e", "type": "electric_scooter", "is_reserved": 0, "lon": -77.0003285}, {"fusion_lat": 0.0, "name": "a5e4236bddb5211bacb828cc52442a7c", "is_disabled": 0, "rental_uris": {"android": "https://dc.lft.to/lastmile_qr_scan", "ios": "https://dc.lft.to/lastmile_qr_scan"}, "fusion_lon": 0.0, "lat": 38.92981566666667, "bike_id": "a5e4236bddb5211bacb828cc52442a7c", "type": "electric_scooter", "is_reserved": 0, "lon": -77.03251483333334}, {"fusion_lat": 0.0, "name": "908102d9c947575be50160f881ae280d", "is_disabled": 0, "rental_uris": {"android": "https://dc.lft.to/lastmile_qr_scan", "ios": "https://dc.lft.to/lastmile_qr_scan"}, "fusion_lon": 0.0, "lat": 38.920114833333336, "bike_id": "908102d9c947575be50160f881ae280d", "type": "electric_scooter", "is_reserved": 0, "lon": -77.07127133333333}, {"fusion_lat": 0.0, "name": "b025b69c9381c3fe6b20328d6d5329b9", "is_disabled": 0, "rental_uris": {"android": "https://dc.lft.to/lastmile_qr_scan", "ios": "https://dc.lft.to/lastmile_qr_scan"}, "fusion_lon": 0.0, "lat": 38.89703466666667, "bike_id": "b025b69c9381c3fe6b20328d6d5329b9", "type": "electric_scooter", "is_reserved": 0, "lon": -77.0238875}, {"fusion_lat": 0.0, "name": "5991ae3fcb78929d688026eb660f4b41", "is_disabled": 0, "rental_uris": {"android": "https://dc.lft.to/lastmile_qr_scan", "ios": "https://dc.lft.to/lastmile_qr_scan"}, "fusion_lon": 0.0, "lat": 38.928108333333334, "bike_id": "5991ae3fcb78929d688026eb660f4b41", "type": "electric_scooter", "is_reserved": 0, "lon": -77.04354583333334}, {"fusion_lat": 0.0, "name": "a23b76c04c332d9c8d9e46bade7da2e8", "is_disabled": 0, "rental_uris": {"android": "https://dc.lft.to/lastmile_qr_scan", "ios": "https://dc.lft.to/lastmile_qr_scan"}, "fusion_lon": 0.0, "lat": 38.96663816666667, "bike_id": "a23b76c04c332d9c8d9e46bade7da2e8", "type": "electric_bike", "is_reserved": 0, "lon": -76.9744905}, {"fusion_lat": 0.0, "name": "fa6993eed8d06520e05844269b8d060f", "is_disabled": 0, "rental_uris": {"android": "https://dc.lft.to/lastmile_qr_scan", "ios": "https://dc.lft.to/lastmile_qr_scan"}, "fusion_lon": 0.0, "lat": 38.9269425, "bike_id": "fa6993eed8d06520e05844269b8d060f", "type": "electric_scooter", "is_reserved": 0, "lon": -77.03637683333334}, {"fusion_lat": 0.0, "name": "debb6fc9b70277731beb5b18e5f029b3", "is_disabled": 0, "rental_uris": {"android": "https://dc.lft.to/lastmile_qr_scan", "ios": "https://dc.lft.to/lastmile_qr_scan"}, "fusion_lon": 0.0, "lat": 38.928603333333335, "bike_id": "debb6fc9b70277731beb5b18e5f029b3", "type": "electric_scooter", "is_reserved": 0, "lon": -77.03304416666667}, {"fusion_lat": 0.0, "name": "880b4c9309d9a2f0f6901b9432c2f5aa", "is_disabled": 0, "rental_uris": {"android": "https://dc.lft.to/lastmile_qr_scan", "ios": "https://dc.lft.to/lastmile_qr_scan"}, "fusion_lon": 0.0, "lat": 38.866840833333335, "bike_id": "880b4c9309d9a2f0f6901b9432c2f5aa", "type": "electric_bike", "is_reserved": 0, "lon": -76.9824125}, {"fusion_lat": 0.0, "name": "2caed9bcfb1bbf254392b350fddf0725", "is_disabled": 0, "rental_uris": {"android": "https://dc.lft.to/lastmile_qr_scan", "ios": "https://dc.lft.to/lastmile_qr_scan"}, "fusion_lon": 0.0, "lat": 38.909718833333336, "bike_id": "2caed9bcfb1bbf254392b350fddf0725", "type": "electric_scooter", "is_reserved": 0, "lon": -77.04519083333334}, {"fusion_lat": 0.0, "name": "a2d16d49b40ef9e14ff87b7e1e8db768", "is_disabled": 0, "rental_uris": {"android": "https://dc.lft.to/lastmile_qr_scan", "ios": "https://dc.lft.to/lastmile_qr_scan"}, "fusion_lon": 0.0, "lat": 38.956905666666664, "bike_id": "a2d16d49b40ef9e14ff87b7e1e8db768", "type": "electric_scooter", "is_reserved": 0, "lon": -77.0325585}, {"fusion_lat": 0.0, "name": "d547a58ce1a42dcf6c98542a7f6030f7", "is_disabled": 0, "rental_uris": {"android": "https://dc.lft.to/lastmile_qr_scan", "ios": "https://dc.lft.to/lastmile_qr_scan"}, "fusion_lon": 0.0, "lat": 38.911185833333334, "bike_id": "d547a58ce1a42dcf6c98542a7f6030f7", "type": "electric_scooter", "is_reserved": 0, "lon": -77.044639}, {"fusion_lat": 0.0, "name": "e738d90161e06ceb550cca7dedd541be", "is_disabled": 0, "rental_uris": {"android": "https://dc.lft.to/lastmile_qr_scan", "ios": "https://dc.lft.to/lastmile_qr_scan"}, "fusion_lon": 0.0, "lat": 38.917095, "bike_id": "e738d90161e06ceb550cca7dedd541be", "type": "electric_scooter", "is_reserved": 0, "lon": -77.03475983333334}, {"fusion_lat": 0.0, "name": "ef7b9dbfccf4b4f75bee4322a4d540ef", "is_disabled": 0, "rental_uris": {"android": "https://dc.lft.to/lastmile_qr_scan", "ios": "https://dc.lft.to/lastmile_qr_scan"}, "fusion_lon": 0.0, "lat": 38.907236833333336, "bike_id": "ef7b9dbfccf4b4f75bee4322a4d540ef", "type": "electric_scooter", "is_reserved": 0, "lon": -77.03776116666667}, {"fusion_lat": 0.0, "name": "9f88d1fff5ec37dfea92e094163a265e", "is_disabled": 0, "rental_uris": {"android": "https://dc.lft.to/lastmile_qr_scan", "ios": "https://dc.lft.to/lastmile_qr_scan"}, "fusion_lon": 0.0, "lat": 38.9623675, "bike_id": "9f88d1fff5ec37dfea92e094163a265e", "type": "electric_bike", "is_reserved": 0, "lon": -76.92782333333334}, {"fusion_lat": 0.0, "name": "9fb5faa5d8b09d50038e11f225d9d218", "is_disabled": 0, "rental_uris": {"android": "https://dc.lft.to/lastmile_qr_scan", "ios": "https://dc.lft.to/lastmile_qr_scan"}, "fusion_lon": 0.0, "lat": 38.95672233333333, "bike_id": "9fb5faa5d8b09d50038e11f225d9d218", "type": "electric_bike", "is_reserved": 0, "lon": -77.01130633333334}, {"fusion_lat": 0.0, "name": "6b21ba4e6e9ae579d810103adb97714a", "is_disabled": 0, "rental_uris": {"android": "https://dc.lft.to/lastmile_qr_scan", "ios": "https://dc.lft.to/lastmile_qr_scan"}, "fusion_lon": 0.0, "lat": 38.902836, "bike_id": "6b21ba4e6e9ae579d810103adb97714a", "type": "electric_scooter", "is_reserved": 0, "lon": -77.02274266666667}, {"fusion_lat": 0.0, "name": "9c71d4fbdf6e4fcdd98324d2147522b5", "is_disabled": 0, "rental_uris": {"android": "https://dc.lft.to/lastmile_qr_scan", "ios": "https://dc.lft.to/lastmile_qr_scan"}, "fusion_lon": 0.0, "lat": 38.907366833333334, "bike_id": "9c71d4fbdf6e4fcdd98324d2147522b5", "type": "electric_scooter", "is_reserved": 0, "lon": -77.00508533333333}, {"fusion_lat": 0.0, "name": "803382935ee064fbd58d2f2e5a3f3ee2", "is_disabled": 0, "rental_uris": {"android": "https://dc.lft.to/lastmile_qr_scan", "ios": "https://dc.lft.to/lastmile_qr_scan"}, "fusion_lon": 0.0, "lat": 38.9350265, "bike_id": "803382935ee064fbd58d2f2e5a3f3ee2", "type": "electric_scooter", "is_reserved": 0, "lon": -77.02410216666667}, {"fusion_lat": 0.0, "name": "c4fcefc43f47a51f338aa2c98b184ca6", "is_disabled": 0, "rental_uris": {"android": "https://dc.lft.to/lastmile_qr_scan", "ios": "https://dc.lft.to/lastmile_qr_scan"}, "fusion_lon": 0.0, "lat": 38.915401, "bike_id": "c4fcefc43f47a51f338aa2c98b184ca6", "type": "electric_scooter", "is_reserved": 0, "lon": -77.0320755}, {"fusion_lat": 0.0, "name": "6cc18c6380e29f3e37250060ad61a021", "is_disabled": 0, "rental_uris": {"android": "https://dc.lft.to/lastmile_qr_scan", "ios": "https://dc.lft.to/lastmile_qr_scan"}, "fusion_lon": 0.0, "lat": 38.897487, "bike_id": "6cc18c6380e29f3e37250060ad61a021", "type": "electric_scooter", "is_reserved": 0, "lon": -77.048641}, {"fusion_lat": 0.0, "name": "0a143dca8eaa0f87ff5e90bd60c48663", "is_disabled": 0, "rental_uris": {"android": "https://dc.lft.to/lastmile_qr_scan", "ios": "https://dc.lft.to/lastmile_qr_scan"}, "fusion_lon": 0.0, "lat": 38.959532, "bike_id": "0a143dca8eaa0f87ff5e90bd60c48663", "type": "electric_scooter", "is_reserved": 0, "lon": -77.0089345}, {"fusion_lat": 0.0, "name": "f109a65e52dce7e8a279724d2ceed746", "is_disabled": 0, "rental_uris": {"android": "https://dc.lft.to/lastmile_qr_scan", "ios": "https://dc.lft.to/lastmile_qr_scan"}, "fusion_lon": 0.0, "lat": 38.942026, "bike_id": "f109a65e52dce7e8a279724d2ceed746", "type": "electric_scooter", "is_reserved": 0, "lon": -77.02593383333334}, {"fusion_lat": 0.0, "name": "24a5a65d65ea2f861770a62265d9bc88", "is_disabled": 0, "rental_uris": {"android": "https://dc.lft.to/lastmile_qr_scan", "ios": "https://dc.lft.to/lastmile_qr_scan"}, "fusion_lon": 0.0, "lat": 38.9154995, "bike_id": "24a5a65d65ea2f861770a62265d9bc88", "type": "electric_scooter", "is_reserved": 0, "lon": -77.03227083333333}, {"fusion_lat": 0.0, "name": "61af40a5ce5e8703557bee8fcf7f28bd", "is_disabled": 0, "rental_uris": {"android": "https://dc.lft.to/lastmile_qr_scan", "ios": "https://dc.lft.to/lastmile_qr_scan"}, "fusion_lon": 0.0, "lat": 38.920387, "bike_id": "61af40a5ce5e8703557bee8fcf7f28bd", "type": "electric_scooter", "is_reserved": 0, "lon": -77.04188983333333}, {"fusion_lat": 0.0, "name": "c985d93822cd49fb59e08f0681f3722c", "is_disabled": 0, "rental_uris": {"android": "https://dc.lft.to/lastmile_qr_scan", "ios": "https://dc.lft.to/lastmile_qr_scan"}, "fusion_lon": 0.0, "lat": 38.879525, "bike_id": "c985d93822cd49fb59e08f0681f3722c", "type": "electric_scooter", "is_reserved": 0, "lon": -77.00839366666666}, {"fusion_lat": 0.0, "name": "1fb618d07feabf27badd42394b441d18", "is_disabled": 0, "rental_uris": {"android": "https://dc.lft.to/lastmile_qr_scan", "ios": "https://dc.lft.to/lastmile_qr_scan"}, "fusion_lon": 0.0, "lat": 38.909571666666665, "bike_id": "1fb618d07feabf27badd42394b441d18", "type": "electric_scooter", "is_reserved": 0, "lon": -77.0174135}, {"fusion_lat": 0.0, "name": "b69282aa93eaa39126e5fe2874ee74d1", "is_disabled": 0, "rental_uris": {"android": "https://dc.lft.to/lastmile_qr_scan", "ios": "https://dc.lft.to/lastmile_qr_scan"}, "fusion_lon": 0.0, "lat": 38.924192, "bike_id": "b69282aa93eaa39126e5fe2874ee74d1", "type": "electric_scooter", "is_reserved": 0, "lon": -77.02282116666666}, {"fusion_lat": 0.0, "name": "7f71592a28d3e9f3ecc1d7eecea4781c", "is_disabled": 0, "rental_uris": {"android": "https://dc.lft.to/lastmile_qr_scan", "ios": "https://dc.lft.to/lastmile_qr_scan"}, "fusion_lon": 0.0, "lat": 38.92903883333334, "bike_id": "7f71592a28d3e9f3ecc1d7eecea4781c", "type": "electric_scooter", "is_reserved": 0, "lon": -77.021438}, {"fusion_lat": 0.0, "name": "5b33dfeea04f63a4078c9813f5a6ae57", "is_disabled": 0, "rental_uris": {"android": "https://dc.lft.to/lastmile_qr_scan", "ios": "https://dc.lft.to/lastmile_qr_scan"}, "fusion_lon": 0.0, "lat": 38.9648655, "bike_id": "5b33dfeea04f63a4078c9813f5a6ae57", "type": "electric_bike", "is_reserved": 0, "lon": -77.1071485}, {"fusion_lat": 0.0, "name": "b5eec8e64a7fb073bccece9223cafb28", "is_disabled": 0, "rental_uris": {"android": "https://dc.lft.to/lastmile_qr_scan", "ios": "https://dc.lft.to/lastmile_qr_scan"}, "fusion_lon": 0.0, "lat": 38.93967133333334, "bike_id": "b5eec8e64a7fb073bccece9223cafb28", "type": "electric_scooter", "is_reserved": 0, "lon": -77.03283583333334}, {"fusion_lat": 0.0, "name": "1bcc1162f7c742ef5b115399cbe9e6b1", "is_disabled": 0, "rental_uris": {"android": "https://dc.lft.to/lastmile_qr_scan", "ios": "https://dc.lft.to/lastmile_qr_scan"}, "fusion_lon": 0.0, "lat": 38.91436216666666, "bike_id": "1bcc1162f7c742ef5b115399cbe9e6b1", "type": "electric_scooter", "is_reserved": 0, "lon": -76.99351266666666}, {"fusion_lat": 0.0, "name": "316092f741338ef6dba3dfacce897342", "is_disabled": 0, "rental_uris": {"android": "https://dc.lft.to/lastmile_qr_scan", "ios": "https://dc.lft.to/lastmile_qr_scan"}, "fusion_lon": 0.0, "lat": 38.900324166666664, "bike_id": "316092f741338ef6dba3dfacce897342", "type": "electric_scooter", "is_reserved": 0, "lon": -77.0350525}, {"fusion_lat": 0.0, "name": "36fe34b90b0002196aed52696669ddde", "is_disabled": 0, "rental_uris": {"android": "https://dc.lft.to/lastmile_qr_scan", "ios": "https://dc.lft.to/lastmile_qr_scan"}, "fusion_lon": 0.0, "lat": 38.88510433333333, "bike_id": "36fe34b90b0002196aed52696669ddde", "type": "electric_scooter", "is_reserved": 0, "lon": -77.01115866666666}, {"fusion_lat": 0.0, "name": "712632c8339e8169a9e0b95ea22702bf", "is_disabled": 0, "rental_uris": {"android": "https://dc.lft.to/lastmile_qr_scan", "ios": "https://dc.lft.to/lastmile_qr_scan"}, "fusion_lon": 0.0, "lat": 38.90271383333334, "bike_id": "712632c8339e8169a9e0b95ea22702bf", "type": "electric_scooter", "is_reserved": 0, "lon": -77.0176185}, {"fusion_lat": 0.0, "name": "84873aa57ee2b8c4fd2f49d66aa523ab", "is_disabled": 0, "rental_uris": {"android": "https://dc.lft.to/lastmile_qr_scan", "ios": "https://dc.lft.to/lastmile_qr_scan"}, "fusion_lon": 0.0, "lat": 38.907309, "bike_id": "84873aa57ee2b8c4fd2f49d66aa523ab", "type": "electric_scooter", "is_reserved": 0, "lon": -77.03471866666666}, {"fusion_lat": 0.0, "name": "e4475a92d8c5cbfc7cb4152d0d263665", "is_disabled": 0, "rental_uris": {"android": "https://dc.lft.to/lastmile_qr_scan", "ios": "https://dc.lft.to/lastmile_qr_scan"}, "fusion_lon": 0.0, "lat": 38.908626, "bike_id": "e4475a92d8c5cbfc7cb4152d0d263665", "type": "electric_scooter", "is_reserved": 0, "lon": -77.048851}, {"fusion_lat": 0.0, "name": "cafeecaaa89760d6a0a4c327609b1ca2", "is_disabled": 0, "rental_uris": {"android": "https://dc.lft.to/lastmile_qr_scan", "ios": "https://dc.lft.to/lastmile_qr_scan"}, "fusion_lon": 0.0, "lat": 38.93170933333333, "bike_id": "cafeecaaa89760d6a0a4c327609b1ca2", "type": "electric_scooter", "is_reserved": 0, "lon": -77.03788533333334}, {"fusion_lat": 0.0, "name": "2da7e87d3ccb45537ed4086ee9275586", "is_disabled": 0, "rental_uris": {"android": "https://dc.lft.to/lastmile_qr_scan", "ios": "https://dc.lft.to/lastmile_qr_scan"}, "fusion_lon": 0.0, "lat": 38.885260833333334, "bike_id": "2da7e87d3ccb45537ed4086ee9275586", "type": "electric_scooter", "is_reserved": 0, "lon": -76.99767916666667}, {"fusion_lat": 0.0, "name": "2e3cc2bca0ca286ddc95800f73f174b2", "is_disabled": 0, "rental_uris": {"android": "https://dc.lft.to/lastmile_qr_scan", "ios": "https://dc.lft.to/lastmile_qr_scan"}, "fusion_lon": 0.0, "lat": 38.78260983333333, "bike_id": "2e3cc2bca0ca286ddc95800f73f174b2", "type": "electric_bike", "is_reserved": 0, "lon": -77.01607883333334}, {"fusion_lat": 0.0, "name": "591fc36e8dac6020f4145b4a80fbf74a", "is_disabled": 0, "rental_uris": {"android": "https://dc.lft.to/lastmile_qr_scan", "ios": "https://dc.lft.to/lastmile_qr_scan"}, "fusion_lon": 0.0, "lat": 38.917214333333334, "bike_id": "591fc36e8dac6020f4145b4a80fbf74a", "type": "electric_scooter", "is_reserved": 0, "lon": -77.02975166666667}, {"fusion_lat": 0.0, "name": "7702d5245358f8364d059a6d0a9bc5c6", "is_disabled": 0, "rental_uris": {"android": "https://dc.lft.to/lastmile_qr_scan", "ios": "https://dc.lft.to/lastmile_qr_scan"}, "fusion_lon": 0.0, "lat": 38.90961266666667, "bike_id": "7702d5245358f8364d059a6d0a9bc5c6", "type": "electric_scooter", "is_reserved": 0, "lon": -77.03431783333333}, {"fusion_lat": 0.0, "name": "e47ceeff36d6c0c9909be0f9b91f372b", "is_disabled": 0, "rental_uris": {"android": "https://dc.lft.to/lastmile_qr_scan", "ios": "https://dc.lft.to/lastmile_qr_scan"}, "fusion_lon": 0.0, "lat": 38.91336366666667, "bike_id": "e47ceeff36d6c0c9909be0f9b91f372b", "type": "electric_scooter", "is_reserved": 0, "lon": -77.03191816666667}, {"fusion_lat": 0.0, "name": "56c63dc5ff45a415ac87c346429fdc37", "is_disabled": 0, "rental_uris": {"android": "https://dc.lft.to/lastmile_qr_scan", "ios": "https://dc.lft.to/lastmile_qr_scan"}, "fusion_lon": 0.0, "lat": 38.91340116666667, "bike_id": "56c63dc5ff45a415ac87c346429fdc37", "type": "electric_scooter", "is_reserved": 0, "lon": -77.04871883333334}, {"fusion_lat": 0.0, "name": "024f402b36d3f44c8f9a2e84ca6bbfc9", "is_disabled": 0, "rental_uris": {"android": "https://dc.lft.to/lastmile_qr_scan", "ios": "https://dc.lft.to/lastmile_qr_scan"}, "fusion_lon": 0.0, "lat": 38.912670166666665, "bike_id": "024f402b36d3f44c8f9a2e84ca6bbfc9", "type": "electric_scooter", "is_reserved": 0, "lon": -77.049315}, {"fusion_lat": 0.0, "name": "6b40031d6cc6b0e90786d7887bf29136", "is_disabled": 0, "rental_uris": {"android": "https://dc.lft.to/lastmile_qr_scan", "ios": "https://dc.lft.to/lastmile_qr_scan"}, "fusion_lon": 0.0, "lat": 38.914157333333335, "bike_id": "6b40031d6cc6b0e90786d7887bf29136", "type": "electric_scooter", "is_reserved": 0, "lon": -77.02216766666666}, {"fusion_lat": 0.0, "name": "517863c27769233ebe6864e233e01173", "is_disabled": 0, "rental_uris": {"android": "https://dc.lft.to/lastmile_qr_scan", "ios": "https://dc.lft.to/lastmile_qr_scan"}, "fusion_lon": 0.0, "lat": 38.9077175, "bike_id": "517863c27769233ebe6864e233e01173", "type": "electric_scooter", "is_reserved": 0, "lon": -77.03470133333333}, {"fusion_lat": 0.0, "name": "3d8cbe91fdd909abe32560eaed1fba42", "is_disabled": 0, "rental_uris": {"android": "https://dc.lft.to/lastmile_qr_scan", "ios": "https://dc.lft.to/lastmile_qr_scan"}, "fusion_lon": 0.0, "lat": 38.923105166666666, "bike_id": "3d8cbe91fdd909abe32560eaed1fba42", "type": "electric_scooter", "is_reserved": 0, "lon": -77.04260883333333}, {"fusion_lat": 0.0, "name": "e4a769f32ecbdfcf58b420c36ec86f6d", "is_disabled": 0, "rental_uris": {"android": "https://dc.lft.to/lastmile_qr_scan", "ios": "https://dc.lft.to/lastmile_qr_scan"}, "fusion_lon": 0.0, "lat": 38.9236685, "bike_id": "e4a769f32ecbdfcf58b420c36ec86f6d", "type": "electric_scooter", "is_reserved": 0, "lon": -77.02059783333333}, {"fusion_lat": 0.0, "name": "ab1036884f8f4c0fec25855bd3b19089", "is_disabled": 0, "rental_uris": {"android": "https://dc.lft.to/lastmile_qr_scan", "ios": "https://dc.lft.to/lastmile_qr_scan"}, "fusion_lon": 0.0, "lat": 38.884966, "bike_id": "ab1036884f8f4c0fec25855bd3b19089", "type": "electric_scooter", "is_reserved": 0, "lon": -77.00594933333333}, {"fusion_lat": 0.0, "name": "c15d24a4c1f951b0e7896d8094f34222", "is_disabled": 0, "rental_uris": {"android": "https://dc.lft.to/lastmile_qr_scan", "ios": "https://dc.lft.to/lastmile_qr_scan"}, "fusion_lon": 0.0, "lat": 38.90458816666667, "bike_id": "c15d24a4c1f951b0e7896d8094f34222", "type": "electric_scooter", "is_reserved": 0, "lon": -77.0336115}, {"fusion_lat": 0.0, "name": "1e6c0be4a74dd5a8d5c9c2813d45bf3a", "is_disabled": 0, "rental_uris": {"android": "https://dc.lft.to/lastmile_qr_scan", "ios": "https://dc.lft.to/lastmile_qr_scan"}, "fusion_lon": 0.0, "lat": 38.892302, "bike_id": "1e6c0be4a74dd5a8d5c9c2813d45bf3a", "type": "electric_scooter", "is_reserved": 0, "lon": -77.05002016666667}, {"fusion_lat": 0.0, "name": "f05c2e78599e9ad09ee4ee50308acbd7", "is_disabled": 0, "rental_uris": {"android": "https://dc.lft.to/lastmile_qr_scan", "ios": "https://dc.lft.to/lastmile_qr_scan"}, "fusion_lon": 0.0, "lat": 38.932705166666665, "bike_id": "f05c2e78599e9ad09ee4ee50308acbd7", "type": "electric_scooter", "is_reserved": 0, "lon": -77.038924}, {"fusion_lat": 0.0, "name": "a1cd9c06e093ef3cae9d68bdbf3e7474", "is_disabled": 0, "rental_uris": {"android": "https://dc.lft.to/lastmile_qr_scan", "ios": "https://dc.lft.to/lastmile_qr_scan"}, "fusion_lon": 0.0, "lat": 38.907681833333335, "bike_id": "a1cd9c06e093ef3cae9d68bdbf3e7474", "type": "electric_scooter", "is_reserved": 0, "lon": -77.0016945}, {"fusion_lat": 0.0, "name": "4e6e7d98c2f9aadc7da68099a48c440d", "is_disabled": 0, "rental_uris": {"android": "https://dc.lft.to/lastmile_qr_scan", "ios": "https://dc.lft.to/lastmile_qr_scan"}, "fusion_lon": 0.0, "lat": 38.91462966666667, "bike_id": "4e6e7d98c2f9aadc7da68099a48c440d", "type": "electric_scooter", "is_reserved": 0, "lon": -77.036379}, {"fusion_lat": 0.0, "name": "73d9f63d6aeff3b1fcd2f4cac416f1a3", "is_disabled": 0, "rental_uris": {"android": "https://dc.lft.to/lastmile_qr_scan", "ios": "https://dc.lft.to/lastmile_qr_scan"}, "fusion_lon": 0.0, "lat": 38.91621266666667, "bike_id": "73d9f63d6aeff3b1fcd2f4cac416f1a3", "type": "electric_scooter", "is_reserved": 0, "lon": -77.03147316666667}, {"fusion_lat": 0.0, "name": "665c626aee51c691702c5d43aa8db1d5", "is_disabled": 0, "rental_uris": {"android": "https://dc.lft.to/lastmile_qr_scan", "ios": "https://dc.lft.to/lastmile_qr_scan"}, "fusion_lon": 0.0, "lat": 38.89221466666667, "bike_id": "665c626aee51c691702c5d43aa8db1d5", "type": "electric_scooter", "is_reserved": 0, "lon": -77.0322365}, {"fusion_lat": 0.0, "name": "8c9445d741de0987db2d67f7ee3f235e", "is_disabled": 0, "rental_uris": {"android": "https://dc.lft.to/lastmile_qr_scan", "ios": "https://dc.lft.to/lastmile_qr_scan"}, "fusion_lon": 0.0, "lat": 38.9229525, "bike_id": "8c9445d741de0987db2d67f7ee3f235e", "type": "electric_scooter", "is_reserved": 0, "lon": -77.04127033333333}, {"fusion_lat": 0.0, "name": "d002f872a105d90ac343e5a0d1f19447", "is_disabled": 0, "rental_uris": {"android": "https://dc.lft.to/lastmile_qr_scan", "ios": "https://dc.lft.to/lastmile_qr_scan"}, "fusion_lon": 0.0, "lat": 38.90216383333333, "bike_id": "d002f872a105d90ac343e5a0d1f19447", "type": "electric_scooter", "is_reserved": 0, "lon": -77.0227955}, {"fusion_lat": 0.0, "name": "ba24253694e9fcad302873664137ed22", "is_disabled": 0, "rental_uris": {"android": "https://dc.lft.to/lastmile_qr_scan", "ios": "https://dc.lft.to/lastmile_qr_scan"}, "fusion_lon": 0.0, "lat": 38.886149, "bike_id": "ba24253694e9fcad302873664137ed22", "type": "electric_scooter", "is_reserved": 0, "lon": -77.01938433333333}, {"fusion_lat": 0.0, "name": "e12c09ad32ec07c7e41aee47dfc9bc0b", "is_disabled": 0, "rental_uris": {"android": "https://dc.lft.to/lastmile_qr_scan", "ios": "https://dc.lft.to/lastmile_qr_scan"}, "fusion_lon": 0.0, "lat": 38.93321483333333, "bike_id": "e12c09ad32ec07c7e41aee47dfc9bc0b", "type": "electric_scooter", "is_reserved": 0, "lon": -77.02750183333333}, {"fusion_lat": 0.0, "name": "91954478e67a9fff27ab8f6423e29dd4", "is_disabled": 0, "rental_uris": {"android": "https://dc.lft.to/lastmile_qr_scan", "ios": "https://dc.lft.to/lastmile_qr_scan"}, "fusion_lon": 0.0, "lat": 38.93774, "bike_id": "91954478e67a9fff27ab8f6423e29dd4", "type": "electric_bike", "is_reserved": 0, "lon": -77.01911416666667}, {"fusion_lat": 0.0, "name": "8e80e9d82d6cd65a2161274b8c1972c3", "is_disabled": 0, "rental_uris": {"android": "https://dc.lft.to/lastmile_qr_scan", "ios": "https://dc.lft.to/lastmile_qr_scan"}, "fusion_lon": 0.0, "lat": 38.91653566666667, "bike_id": "8e80e9d82d6cd65a2161274b8c1972c3", "type": "electric_scooter", "is_reserved": 0, "lon": -77.0280105}, {"fusion_lat": 0.0, "name": "5839842beb79c908ddfd49c34cc933ae", "is_disabled": 0, "rental_uris": {"android": "https://dc.lft.to/lastmile_qr_scan", "ios": "https://dc.lft.to/lastmile_qr_scan"}, "fusion_lon": 0.0, "lat": 38.92876866666667, "bike_id": "5839842beb79c908ddfd49c34cc933ae", "type": "electric_scooter", "is_reserved": 0, "lon": -77.01363783333333}, {"fusion_lat": 0.0, "name": "d16be47cd1577b01a6759a8576bf796a", "is_disabled": 0, "rental_uris": {"android": "https://dc.lft.to/lastmile_qr_scan", "ios": "https://dc.lft.to/lastmile_qr_scan"}, "fusion_lon": 0.0, "lat": 38.90082, "bike_id": "d16be47cd1577b01a6759a8576bf796a", "type": "electric_scooter", "is_reserved": 0, "lon": -77.050249}, {"fusion_lat": 0.0, "name": "0510e43847b6e821095fad08234fd074", "is_disabled": 0, "rental_uris": {"android": "https://dc.lft.to/lastmile_qr_scan", "ios": "https://dc.lft.to/lastmile_qr_scan"}, "fusion_lon": 0.0, "lat": 38.930856166666665, "bike_id": "0510e43847b6e821095fad08234fd074", "type": "electric_scooter", "is_reserved": 0, "lon": -77.03095583333334}, {"fusion_lat": 0.0, "name": "9c197cde699d84c29d0b37a948c05419", "is_disabled": 0, "rental_uris": {"android": "https://dc.lft.to/lastmile_qr_scan", "ios": "https://dc.lft.to/lastmile_qr_scan"}, "fusion_lon": 0.0, "lat": 38.901971333333336, "bike_id": "9c197cde699d84c29d0b37a948c05419", "type": "electric_scooter", "is_reserved": 0, "lon": -76.97861166666667}, {"fusion_lat": 0.0, "name": "b5c1664dc1d2a61da1a6e339fcc1676e", "is_disabled": 0, "rental_uris": {"android": "https://dc.lft.to/lastmile_qr_scan", "ios": "https://dc.lft.to/lastmile_qr_scan"}, "fusion_lon": 0.0, "lat": 38.910401, "bike_id": "b5c1664dc1d2a61da1a6e339fcc1676e", "type": "electric_scooter", "is_reserved": 0, "lon": -77.042643}, {"fusion_lat": 0.0, "name": "ec407ff8d5c047b8a6c1015698d2f01c", "is_disabled": 0, "rental_uris": {"android": "https://dc.lft.to/lastmile_qr_scan", "ios": "https://dc.lft.to/lastmile_qr_scan"}, "fusion_lon": 0.0, "lat": 38.91710283333333, "bike_id": "ec407ff8d5c047b8a6c1015698d2f01c", "type": "electric_scooter", "is_reserved": 0, "lon": -77.02752166666667}, {"fusion_lat": 0.0, "name": "20438cfbb929faeca8e13917095fa968", "is_disabled": 0, "rental_uris": {"android": "https://dc.lft.to/lastmile_qr_scan", "ios": "https://dc.lft.to/lastmile_qr_scan"}, "fusion_lon": 0.0, "lat": 38.84756633333333, "bike_id": "20438cfbb929faeca8e13917095fa968", "type": "electric_scooter", "is_reserved": 0, "lon": -76.99500683333333}, {"fusion_lat": 0.0, "name": "5fc868bb4cf93090d4e4710fd6289a5b", "is_disabled": 0, "rental_uris": {"android": "https://dc.lft.to/lastmile_qr_scan", "ios": "https://dc.lft.to/lastmile_qr_scan"}, "fusion_lon": 0.0, "lat": 38.92349933333333, "bike_id": "5fc868bb4cf93090d4e4710fd6289a5b", "type": "electric_scooter", "is_reserved": 0, "lon": -76.99249133333333}, {"fusion_lat": 0.0, "name": "23206c7b7c4684ecce9dfd08cd9d7150", "is_disabled": 0, "rental_uris": {"android": "https://dc.lft.to/lastmile_qr_scan", "ios": "https://dc.lft.to/lastmile_qr_scan"}, "fusion_lon": 0.0, "lat": 38.945186, "bike_id": "23206c7b7c4684ecce9dfd08cd9d7150", "type": "electric_scooter", "is_reserved": 0, "lon": -77.03888233333333}, {"fusion_lat": 0.0, "name": "92e18971728062a0199667351f510219", "is_disabled": 0, "rental_uris": {"android": "https://dc.lft.to/lastmile_qr_scan", "ios": "https://dc.lft.to/lastmile_qr_scan"}, "fusion_lon": 0.0, "lat": 38.899893666666664, "bike_id": "92e18971728062a0199667351f510219", "type": "electric_scooter", "is_reserved": 0, "lon": -77.03170733333333}, {"fusion_lat": 0.0, "name": "a7b4bbb28b505a5e8ac04773951e8f52", "is_disabled": 0, "rental_uris": {"android": "https://dc.lft.to/lastmile_qr_scan", "ios": "https://dc.lft.to/lastmile_qr_scan"}, "fusion_lon": 0.0, "lat": 38.937077333333335, "bike_id": "a7b4bbb28b505a5e8ac04773951e8f52", "type": "electric_scooter", "is_reserved": 0, "lon": -77.06105683333334}, {"fusion_lat": 0.0, "name": "764dd4de345673a810d2b47739834221", "is_disabled": 0, "rental_uris": {"android": "https://dc.lft.to/lastmile_qr_scan", "ios": "https://dc.lft.to/lastmile_qr_scan"}, "fusion_lon": 0.0, "lat": 38.8924825, "bike_id": "764dd4de345673a810d2b47739834221", "type": "electric_scooter", "is_reserved": 0, "lon": -77.03348866666667}, {"fusion_lat": 0.0, "name": "aeb04649387973c7b6334f8376e2b625", "is_disabled": 0, "rental_uris": {"android": "https://dc.lft.to/lastmile_qr_scan", "ios": "https://dc.lft.to/lastmile_qr_scan"}, "fusion_lon": 0.0, "lat": 38.88756716666666, "bike_id": "aeb04649387973c7b6334f8376e2b625", "type": "electric_scooter", "is_reserved": 0, "lon": -76.99789266666667}, {"fusion_lat": 0.0, "name": "eeb2cf1602ff36a4c7896d0b06ae307e", "is_disabled": 0, "rental_uris": {"android": "https://dc.lft.to/lastmile_qr_scan", "ios": "https://dc.lft.to/lastmile_qr_scan"},