{"data": {"bikes": [{"bike_id": "037e746d5500851d789df3870a8117f4", "is_reserved": 0, "fusion_lon": 0.0, "lat": 38.89746383333333, "is_disabled": 0, "name": "037e746d5500851d789df3870a8117f4", "fusion_lat": 0.0, "rental_uris": {"ios": "https://dc.lft.to/lastmile_qr_scan", "android": "https://dc.lft.to/lastmile_qr_scan"}, "lon": -77.04325483333334, "type": "electric_scooter"}, {"bike_id": "611773f0e1ef2f24249a6bfa6736d4eb", "is_reserved": 0, "fusion_lon": 0.0, "lat": 38.9335605, "is_disabled": 0, "name": "611773f0e1ef2f24249a6bfa6736d4eb", "fusion_lat": 0.0, "rental_uris": {"ios": "https://dc.lft.to/lastmile_qr_scan", "android": "https://dc.lft.to/lastmile_qr_scan"}, "lon": -77.069359, "type": "electric_scooter"}, {"bike_id": "72f909f93fd92fc74f3cfe43d7a6a3b5", "is_reserved": 0, "fusion_lon": 0.0, "lat": 38.915625, "is_disabled": 0, "name": "72f909f93fd92fc74f3cfe43d7a6a3b5", "fusion_lat": 0.0, "rental_uris": {"ios": "https://dc.lft.to/lastmile_qr_scan", "android": "https://dc.lft.to/lastmile_qr_scan"}, "lon": -77.041511, "type": "electric_scooter"}, {"bike_id": "041e40cbe6e648541ac6344947b328ef", "is_reserved": 0, "fusion_lon": 0.0, "lat": 38.8853335, "is_disabled": 0, "name": "041e40cbe6e648541ac6344947b328ef", "fusion_lat": 0.0, "rental_uris": {"ios": "https://dc.lft.to/lastmile_qr_scan", "android": "https://dc.lft.to/lastmile_qr_scan"}, "lon": -77.0057605, "type": "electric_scooter"}, {"bike_id": "f77fd0dccae49c07cb467931c2287194", "is_reserved": 0, "fusion_lon": 0.0, "lat": 38.919922, "is_disabled": 0, "name": "f77fd0dccae49c07cb467931c2287194", "fusion_lat": 0.0, "rental_uris": {"ios": "https://dc.lft.to/lastmile_qr_scan", "android": "https://dc.lft.to/lastmile_qr_scan"}, "lon": -77.03469966666667, "type": "electric_scooter"}, {"bike_id": "7df4ab7c1dd77e085baffa8ddedece6a", "is_reserved": 0, "fusion_lon": 0.0, "lat": 38.9027265, "is_disabled": 0, "name": "7df4ab7c1dd77e085baffa8ddedece6a", "fusion_lat": 0.0, "rental_uris": {"ios": "https://dc.lft.to/lastmile_qr_scan", "android": "https://dc.lft.to/lastmile_qr_scan"}, "lon": -77.0385155, "type": "electric_scooter"}, {"bike_id": "13d87ed92a07639aff5fcef5b1a7e6a0", "is_reserved": 0, "fusion_lon": 0.0, "lat": 38.901313, "is_disabled": 0, "name": "13d87ed92a07639aff5fcef5b1a7e6a0", "fusion_lat": 0.0, "rental_uris": {"ios": "https://dc.lft.to/lastmile_qr_scan", "android": "https://dc.lft.to/lastmile_qr_scan"}, "lon": -76.980813, "type": "electric_scooter"}, {"bike_id": "2cc435cf029c05a0b9107c7957848c4a", "is_reserved": 0, "fusion_lon": 0.0, "lat": 38.899044833333335, "is_disabled": 0, "name": "2cc435cf029c05a0b9107c7957848c4a", "fusion_lat": 0.0, "rental_uris": {"ios": "https://dc.lft.to/lastmile_qr_scan", "android": "https://dc.lft.to/lastmile_qr_scan"}, "lon": -77.03930783333334, "type": "electric_scooter"}, {"bike_id": "f49ef86480c18fe1f1bdbbef20cdad42", "is_reserved": 0, "fusion_lon": 0.0, "lat": 38.93147283333333, "is_disabled": 0, "name": "f49ef86480c18fe1f1bdbbef20cdad42", "fusion_lat": 0.0, "rental_uris": {"ios": "https://dc.lft.to/lastmile_qr_scan", "android": "https://dc.lft.to/lastmile_qr_scan"}, "lon": -77.057066, "type": "electric_scooter"}, {"bike_id": "3476dc0b9faabe5f2897a712677cf91b", "is_reserved": 0, "fusion_lon": 0.0, "lat": 38.964976166666666, "is_disabled": 0, "name": "3476dc0b9faabe5f2897a712677cf91b", "fusion_lat": 0.0, "rental_uris": {"ios": "https://dc.lft.to/lastmile_qr_scan", "android": "https://dc.lft.to/lastmile_qr_scan"}, "lon": -77.06491933333334, "type": "electric_bike"}, {"bike_id": "b6fe58f08849cbcced43c2003b2f9e15", "is_reserved": 0, "fusion_lon": 0.0, "lat": 38.918778333333336, "is_disabled": 0, "name": "b6fe58f08849cbcced43c2003b2f9e15", "fusion_lat": 0.0, "rental_uris": {"ios": "https://dc.lft.to/lastmile_qr_scan", "android": "https://dc.lft.to/lastmile_qr_scan"}, "lon": -77.0445875, "type": "electric_scooter"}, {"bike_id": "1f2114807ebf0a8e05397f1e22b98bb4", "is_reserved": 0, "fusion_lon": 0.0, "lat": 38.89058133333333, "is_disabled": 0, "name": "1f2114807ebf0a8e05397f1e22b98bb4", "fusion_lat": 0.0, "rental_uris": {"ios": "https://dc.lft.to/lastmile_qr_scan", "android": "https://dc.lft.to/lastmile_qr_scan"}, "lon": -77.02300533333333, "type": "electric_scooter"}, {"bike_id": "e9805f36fe8dab23f26bdba0630ecb8e", "is_reserved": 0, "fusion_lon": 0.0, "lat": 38.8843235, "is_disabled": 0, "name": "e9805f36fe8dab23f26bdba0630ecb8e", "fusion_lat": 0.0, "rental_uris": {"ios": "https://dc.lft.to/lastmile_qr_scan", "android": "https://dc.lft.to/lastmile_qr_scan"}, "lon": -76.957576, "type": "electric_scooter"}, {"bike_id": "6ef5d541151eea6fbba3b6b8287ca05f", "is_reserved": 0, "fusion_lon": 0.0, "lat": 38.918404, "is_disabled": 0, "name": "6ef5d541151eea6fbba3b6b8287ca05f", "fusion_lat": 0.0, "rental_uris": {"ios": "https://dc.lft.to/lastmile_qr_scan", "android": "https://dc.lft.to/lastmile_qr_scan"}, "lon": -77.03900483333334, "type": "electric_scooter"}, {"bike_id": "475238025e9efa59c52eb19ab7dc8bbf", "is_reserved": 0, "fusion_lon": 0.0, "lat": 38.90039, "is_disabled": 0, "name": "475238025e9efa59c52eb19ab7dc8bbf", "fusion_lat": 0.0, "rental_uris": {"ios": "https://dc.lft.to/lastmile_qr_scan", "android": "https://dc.lft.to/lastmile_qr_scan"}, "lon": -77.00534966666666, "type": "electric_scooter"}, {"bike_id": "fd30dd413ab694777ff0e47f0a35ac55", "is_reserved": 0, "fusion_lon": 0.0, "lat": 38.91215116666667, "is_disabled": 0, "name": "fd30dd413ab694777ff0e47f0a35ac55", "fusion_lat": 0.0, "rental_uris": {"ios": "https://dc.lft.to/lastmile_qr_scan", "android": "https://dc.lft.to/lastmile_qr_scan"}, "lon": -77.02799433333334, "type": "electric_scooter"}, {"bike_id": "56b0aec151286ff2352b34707a782e4d", "is_reserved": 0, "fusion_lon": 0.0, "lat": 38.89903866666667, "is_disabled": 0, "name": "56b0aec151286ff2352b34707a782e4d", "fusion_lat": 0.0, "rental_uris": {"ios": "https://dc.lft.to/lastmile_qr_scan", "android": "https://dc.lft.to/lastmile_qr_scan"}, "lon": -77.03947416666666, "type": "electric_scooter"}, {"bike_id": "304779cbb027d34dec8bb30a9ed04161", "is_reserved": 0, "fusion_lon": 0.0, "lat": 38.8980785, "is_disabled": 0, "name": "304779cbb027d34dec8bb30a9ed04161", "fusion_lat": 0.0, "rental_uris": {"ios": "https://dc.lft.to/lastmile_qr_scan", "android": "https://dc.lft.to/lastmile_qr_scan"}, "lon": -77.01156483333334, "type": "electric_scooter"}, {"bike_id": "fca6dda548d95032c57ccd5eb37abea1", "is_reserved": 0, "fusion_lon": 0.0, "lat": 38.917768, "is_disabled": 0, "name": "fca6dda548d95032c57ccd5eb37abea1", "fusion_lat": 0.0, "rental_uris": {"ios": "https://dc.lft.to/lastmile_qr_scan", "android": "https://dc.lft.to/lastmile_qr_scan"}, "lon": -77.0148965, "type": "electric_scooter"}, {"bike_id": "d46a5259d2ab1f5e85584b34e4ab1ce0", "is_reserved": 0, "fusion_lon": 0.0, "lat": 38.90021466666666, "is_disabled": 0, "name": "d46a5259d2ab1f5e85584b34e4ab1ce0", "fusion_lat": 0.0, "rental_uris": {"ios": "https://dc.lft.to/lastmile_qr_scan", "android": "https://dc.lft.to/lastmile_qr_scan"}, "lon": -77.01158983333333, "type": "electric_scooter"}, {"bike_id": "0ef2ec182504d404bdbd2e39d929dc6d", "is_reserved": 0, "fusion_lon": 0.0, "lat": 38.91603966666667, "is_disabled": 0, "name": "0ef2ec182504d404bdbd2e39d929dc6d", "fusion_lat": 0.0, "rental_uris": {"ios": "https://dc.lft.to/lastmile_qr_scan", "android": "https://dc.lft.to/lastmile_qr_scan"}, "lon": -77.03196583333333, "type": "electric_scooter"}, {"bike_id": "e09a946d02d84c3d54c68bf251f432c8", "is_reserved": 0, "fusion_lon": 0.0, "lat": 38.8849135, "is_disabled": 0, "name": "e09a946d02d84c3d54c68bf251f432c8", "fusion_lat": 0.0, "rental_uris": {"ios": "https://dc.lft.to/lastmile_qr_scan", "android": "https://dc.lft.to/lastmile_qr_scan"}, "lon": -77.00728316666667, "type": "electric_scooter"}, {"bike_id": "6ba328291b148e11a391cb76bf5e4f0e", "is_reserved": 0, "fusion_lon": 0.0, "lat": 38.903024333333335, "is_disabled": 0, "name": "6ba328291b148e11a391cb76bf5e4f0e", "fusion_lat": 0.0, "rental_uris": {"ios": "https://dc.lft.to/lastmile_qr_scan", "android": "https://dc.lft.to/lastmile_qr_scan"}, "lon": -77.0333605, "type": "electric_scooter"}, {"bike_id": "6ec74780b79001ab7f007bc7e630337c", "is_reserved": 0, "fusion_lon": 0.0, "lat": 38.91406633333333, "is_disabled": 0, "name": "6ec74780b79001ab7f007bc7e630337c", "fusion_lat": 0.0, "rental_uris": {"ios": "https://dc.lft.to/lastmile_qr_scan", "android": "https://dc.lft.to/lastmile_qr_scan"}, "lon": -77.0208365, "type": "electric_scooter"}, {"bike_id": "45374990eae5109bfba2e2a6a6db9c66", "is_reserved": 0, "fusion_lon": 0.0, "lat": 38.839361, "is_disabled": 0, "name": "45374990eae5109bfba2e2a6a6db9c66", "fusion_lat": 0.0, "rental_uris": {"ios": "https://dc.lft.to/lastmile_qr_scan", "android": "https://dc.lft.to/lastmile_qr_scan"}, "lon": -77.07907033333333, "type": "electric_bike"}, {"bike_id": "6dd61b81f2018b4dd8a47433a6876bf2", "is_reserved": 0, "fusion_lon": 0.0, "lat": 38.880461833333335, "is_disabled": 0, "name": "6dd61b81f2018b4dd8a47433a6876bf2", "fusion_lat": 0.0, "rental_uris": {"ios": "https://dc.lft.to/lastmile_qr_scan", "android": "https://dc.lft.to/lastmile_qr_scan"}, "lon": -77.01328033333333, "type": "electric_bike"}, {"bike_id": "faa7b3fdfbed2a22715f91abd3c5fc4d", "is_reserved": 0, "fusion_lon": 0.0, "lat": 38.89818533333333, "is_disabled": 0, "name": "faa7b3fdfbed2a22715f91abd3c5fc4d", "fusion_lat": 0.0, "rental_uris": {"ios": "https://dc.lft.to/lastmile_qr_scan", "android": "https://dc.lft.to/lastmile_qr_scan"}, "lon": -77.03294483333333, "type": "electric_scooter"}, {"bike_id": "8249e72bd28e6bfb1d707df1d97cb2f4", "is_reserved": 0, "fusion_lon": 0.0, "lat": 38.842763166666664, "is_disabled": 0, "name": "8249e72bd28e6bfb1d707df1d97cb2f4", "fusion_lat": 0.0, "rental_uris": {"ios": "https://dc.lft.to/lastmile_qr_scan", "android": "https://dc.lft.to/lastmile_qr_scan"}, "lon": -76.98840466666667, "type": "electric_bike"}, {"bike_id": "0c71acc8f0af47ca5f4c61929c1823ac", "is_reserved": 0, "fusion_lon": 0.0, "lat": 38.90590183333333, "is_disabled": 0, "name": "0c71acc8f0af47ca5f4c61929c1823ac", "fusion_lat": 0.0, "rental_uris": {"ios": "https://dc.lft.to/lastmile_qr_scan", "android": "https://dc.lft.to/lastmile_qr_scan"}, "lon": -77.016117, "type": "electric_scooter"}, {"bike_id": "1cfba62f3a853ab8981fecc1955c4f3f", "is_reserved": 0, "fusion_lon": 0.0, "lat": 38.90657566666667, "is_disabled": 0, "name": "1cfba62f3a853ab8981fecc1955c4f3f", "fusion_lat": 0.0, "rental_uris": {"ios": "https://dc.lft.to/lastmile_qr_scan", "android": "https://dc.lft.to/lastmile_qr_scan"}, "lon": -77.05144833333334, "type": "electric_scooter"}, {"bike_id": "6173b7826b9438a94429d1c2b1e9e7d9", "is_reserved": 0, "fusion_lon": 0.0, "lat": 38.90034816666667, "is_disabled": 0, "name": "6173b7826b9438a94429d1c2b1e9e7d9", "fusion_lat": 0.0, "rental_uris": {"ios": "https://dc.lft.to/lastmile_qr_scan", "android": "https://dc.lft.to/lastmile_qr_scan"}, "lon": -77.04026833333333, "type": "electric_scooter"}, {"bike_id": "8854d84dfb48fc249b3c79685dd87175", "is_reserved": 0, "fusion_lon": 0.0, "lat": 38.892589, "is_disabled": 0, "name": "8854d84dfb48fc249b3c79685dd87175", "fusion_lat": 0.0, "rental_uris": {"ios": "https://dc.lft.to/lastmile_qr_scan", "android": "https://dc.lft.to/lastmile_qr_scan"}, "lon": -77.02180033333333, "type": "electric_bike"}, {"bike_id": "6723847dd1f7734d036f0db8230b0f68", "is_reserved": 0, "fusion_lon": 0.0, "lat": 38.89728566666667, "is_disabled": 0, "name": "6723847dd1f7734d036f0db8230b0f68", "fusion_lat": 0.0, "rental_uris": {"ios": "https://dc.lft.to/lastmile_qr_scan", "android": "https://dc.lft.to/lastmile_qr_scan"}, "lon": -77.04339883333333, "type": "electric_scooter"}, {"bike_id": "64461f9f734036b53f0e2fd5ac740af5", "is_reserved": 0, "fusion_lon": 0.0, "lat": 38.9127945, "is_disabled": 0, "name": "64461f9f734036b53f0e2fd5ac740af5", "fusion_lat": 0.0, "rental_uris": {"ios": "https://dc.lft.to/lastmile_qr_scan", "android": "https://dc.lft.to/lastmile_qr_scan"}, "lon": -77.01352583333333, "type": "electric_scooter"}, {"bike_id": "51d66e2099894b9f1a2f28d80d259d25", "is_reserved": 0, "fusion_lon": 0.0, "lat": 38.9191255, "is_disabled": 0, "name": "51d66e2099894b9f1a2f28d80d259d25", "fusion_lat": 0.0, "rental_uris": {"ios": "https://dc.lft.to/lastmile_qr_scan", "android": "https://dc.lft.to/lastmile_qr_scan"}, "lon": -77.0314685, "type": "electric_scooter"}, {"bike_id": "613f4ddbdfb74d36b255a0165ab3aaa4", "is_reserved": 0, "fusion_lon": 0.0, "lat": 38.90610816666667, "is_disabled": 0, "name": "613f4ddbdfb74d36b255a0165ab3aaa4", "fusion_lat": 0.0, "rental_uris": {"ios": "https://dc.lft.to/lastmile_qr_scan", "android": "https://dc.lft.to/lastmile_qr_scan"}, "lon": -77.04159516666667, "type": "electric_scooter"}, {"bike_id": "93985e2bbe4d76b5c0c29fa3c8e9b55f", "is_reserved": 0, "fusion_lon": 0.0, "lat": 38.930989333333336, "is_disabled": 0, "name": "93985e2bbe4d76b5c0c29fa3c8e9b55f", "fusion_lat": 0.0, "rental_uris": {"ios": "https://dc.lft.to/lastmile_qr_scan", "android": "https://dc.lft.to/lastmile_qr_scan"}, "lon": -77.03806483333334, "type": "electric_scooter"}, {"bike_id": "b814c2b13d710825fefd695b0d10a4ff", "is_reserved": 0, "fusion_lon": 0.0, "lat": 38.90092966666667, "is_disabled": 0, "name": "b814c2b13d710825fefd695b0d10a4ff", "fusion_lat": 0.0, "rental_uris": {"ios": "https://dc.lft.to/lastmile_qr_scan", "android": "https://dc.lft.to/lastmile_qr_scan"}, "lon": -76.97469183333334, "type": "electric_scooter"}, {"bike_id": "a574a5840a7fd3b7d5d4abdc45ee811e", "is_reserved": 0, "fusion_lon": 0.0, "lat": 38.9095755, "is_disabled": 0, "name": "a574a5840a7fd3b7d5d4abdc45ee811e", "fusion_lat": 0.0, "rental_uris": {"ios": "https://dc.lft.to/lastmile_qr_scan", "android": "https://dc.lft.to/lastmile_qr_scan"}, "lon": -77.02549966666666, "type": "electric_scooter"}, {"bike_id": "8ba45da931ee9adaae9741bb978de8c5", "is_reserved": 0, "fusion_lon": 0.0, "lat": 38.903514666666666, "is_disabled": 0, "name": "8ba45da931ee9adaae9741bb978de8c5", "fusion_lat": 0.0, "rental_uris": {"ios": "https://dc.lft.to/lastmile_qr_scan", "android": "https://dc.lft.to/lastmile_qr_scan"}, "lon": -77.038466, "type": "electric_scooter"}, {"bike_id": "fa5c0f8ab8740376bd2bea3f90d683c4", "is_reserved": 0, "fusion_lon": 0.0, "lat": 38.90518933333333, "is_disabled": 0, "name": "fa5c0f8ab8740376bd2bea3f90d683c4", "fusion_lat": 0.0, "rental_uris": {"ios": "https://dc.lft.to/lastmile_qr_scan", "android": "https://dc.lft.to/lastmile_qr_scan"}, "lon": -77.0270255, "type": "electric_scooter"}, {"bike_id": "b220b3945b5c63b10b2240d0b6b74d15", "is_reserved": 0, "fusion_lon": 0.0, "lat": 38.915657, "is_disabled": 0, "name": "b220b3945b5c63b10b2240d0b6b74d15", "fusion_lat": 0.0, "rental_uris": {"ios": "https://dc.lft.to/lastmile_qr_scan", "android": "https://dc.lft.to/lastmile_qr_scan"}, "lon": -77.0213115, "type": "electric_scooter"}, {"bike_id": "c6473951a61a27c26e7da1d1789f3f55", "is_reserved": 0, "fusion_lon": 0.0, "lat": 38.959250833333336, "is_disabled": 0, "name": "c6473951a61a27c26e7da1d1789f3f55", "fusion_lat": 0.0, "rental_uris": {"ios": "https://dc.lft.to/lastmile_qr_scan", "android": "https://dc.lft.to/lastmile_qr_scan"}, "lon": -77.033253, "type": "electric_scooter"}, {"bike_id": "c36e5b89d15e2e0caf1cc5f3f250f9f2", "is_reserved": 0, "fusion_lon": 0.0, "lat": 38.882068333333336, "is_disabled": 0, "name": "c36e5b89d15e2e0caf1cc5f3f250f9f2", "fusion_lat": 0.0, "rental_uris": {"ios": "https://dc.lft.to/lastmile_qr_scan", "android": "https://dc.lft.to/lastmile_qr_scan"}, "lon": -76.927019, "type": "electric_scooter"}, {"bike_id": "cefdba8d66cc18d8c4b78940e540ab84", "is_reserved": 0, "fusion_lon": 0.0, "lat": 38.917491, "is_disabled": 0, "name": "cefdba8d66cc18d8c4b78940e540ab84", "fusion_lat": 0.0, "rental_uris": {"ios": "https://dc.lft.to/lastmile_qr_scan", "android": "https://dc.lft.to/lastmile_qr_scan"}, "lon": -77.03193866666666, "type": "electric_scooter"}, {"bike_id": "d4ecd214a00a85fc906f32004ce79e70", "is_reserved": 0, "fusion_lon": 0.0, "lat": 38.90612333333333, "is_disabled": 0, "name": "d4ecd214a00a85fc906f32004ce79e70", "fusion_lat": 0.0, "rental_uris": {"ios": "https://dc.lft.to/lastmile_qr_scan", "android": "https://dc.lft.to/lastmile_qr_scan"}, "lon": -77.07489833333334, "type": "electric_scooter"}, {"bike_id": "209facaf2fcfa881d8a24b9944534169", "is_reserved": 0, "fusion_lon": 0.0, "lat": 38.89611566666667, "is_disabled": 0, "name": "209facaf2fcfa881d8a24b9944534169", "fusion_lat": 0.0, "rental_uris": {"ios": "https://dc.lft.to/lastmile_qr_scan", "android": "https://dc.lft.to/lastmile_qr_scan"}, "lon": -77.00923866666666, "type": "electric_scooter"}, {"bike_id": "c705e0303d49fe2ecf5dcd0fd1b7d1ff", "is_reserved": 0, "fusion_lon": 0.0, "lat": 38.92365016666667, "is_disabled": 0, "name": "c705e0303d49fe2ecf5dcd0fd1b7d1ff", "fusion_lat": 0.0, "rental_uris": {"ios": "https://dc.lft.to/lastmile_qr_scan", "android": "https://dc.lft.to/lastmile_qr_scan"}, "lon": -77.05841283333334, "type": "electric_scooter"}, {"bike_id": "d1b51a5e930a610233dc28986b01d2a1", "is_reserved": 0, "fusion_lon": 0.0, "lat": 38.92511, "is_disabled": 0, "name": "d1b51a5e930a610233dc28986b01d2a1", "fusion_lat": 0.0, "rental_uris": {"ios": "https://dc.lft.to/lastmile_qr_scan", "android": "https://dc.lft.to/lastmile_qr_scan"}, "lon": -77.03327816666666, "type": "electric_scooter"}, {"bike_id": "928a82c20b8301840a09e6b666bd35e7", "is_reserved": 0, "fusion_lon": 0.0, "lat": 38.901379166666665, "is_disabled": 0, "name": "928a82c20b8301840a09e6b666bd35e7", "fusion_lat": 0.0, "rental_uris": {"ios": "https://dc.lft.to/lastmile_qr_scan", "android": "https://dc.lft.to/lastmile_qr_scan"}, "lon": -77.04224766666667, "type": "electric_scooter"}, {"bike_id": "d04866efadf272ead98365a2a363c316", "is_reserved": 0, "fusion_lon": 0.0, "lat": 38.920243666666664, "is_disabled": 0, "name": "d04866efadf272ead98365a2a363c316", "fusion_lat": 0.0, "rental_uris": {"ios": "https://dc.lft.to/lastmile_qr_scan", "android": "https://dc.lft.to/lastmile_qr_scan"}, "lon": -77.0386765, "type": "electric_scooter"}, {"bike_id": "3e31787c02a4b523be3fff1c6c21b439", "is_reserved": 0, "fusion_lon": 0.0, "lat": 39.05202283333333, "is_disabled": 0, "name": "3e31787c02a4b523be3fff1c6c21b439", "fusion_lat": 0.0, "rental_uris": {"ios": "https://dc.lft.to/lastmile_qr_scan", "android": "https://dc.lft.to/lastmile_qr_scan"}, "lon": -77.10912533333334, "type": "electric_bike"}, {"bike_id": "996cd35eec44b6ae9a43487256f363af", "is_reserved": 0, "fusion_lon": 0.0, "lat": 38.9141925, "is_disabled": 0, "name": "996cd35eec44b6ae9a43487256f363af", "fusion_lat": 0.0, "rental_uris": {"ios": "https://dc.lft.to/lastmile_qr_scan", "android": "https://dc.lft.to/lastmile_qr_scan"}, "lon": -77.0414395, "type": "electric_scooter"}, {"bike_id": "72c4c4ff44aada4277b390e505bd0d81", "is_reserved": 0, "fusion_lon": 0.0, "lat": 38.915517, "is_disabled": 0, "name": "72c4c4ff44aada4277b390e505bd0d81", "fusion_lat": 0.0, "rental_uris": {"ios": "https://dc.lft.to/lastmile_qr_scan", "android": "https://dc.lft.to/lastmile_qr_scan"}, "lon": -77.03937816666667, "type": "electric_scooter"}, {"bike_id": "11d7e0d4dd899c4f8f3f42b547e3aefc", "is_reserved": 0, "fusion_lon": 0.0, "lat": 38.914700833333335, "is_disabled": 0, "name": "11d7e0d4dd899c4f8f3f42b547e3aefc", "fusion_lat": 0.0, "rental_uris": {"ios": "https://dc.lft.to/lastmile_qr_scan", "android": "https://dc.lft.to/lastmile_qr_scan"}, "lon": -77.03217316666667, "type": "electric_scooter"}, {"bike_id": "46fff249c7c4995cc8e1ef4152921aec", "is_reserved": 0, "fusion_lon": 0.0, "lat": 38.8665525, "is_disabled": 0, "name": "46fff249c7c4995cc8e1ef4152921aec", "fusion_lat": 0.0, "rental_uris": {"ios": "https://dc.lft.to/lastmile_qr_scan", "android": "https://dc.lft.to/lastmile_qr_scan"}, "lon": -76.98883416666666, "type": "electric_scooter"}, {"bike_id": "429f8085f1505aa4d28720e6a35c4f95", "is_reserved": 0, "fusion_lon": 0.0, "lat": 38.925113, "is_disabled": 0, "name": "429f8085f1505aa4d28720e6a35c4f95", "fusion_lat": 0.0, "rental_uris": {"ios": "https://dc.lft.to/lastmile_qr_scan", "android": "https://dc.lft.to/lastmile_qr_scan"}, "lon": -77.00175266666666, "type": "electric_scooter"}, {"bike_id": "242fd7dc3d52e84199dfca7730909938", "is_reserved": 0, "fusion_lon": 0.0, "lat": 38.93332683333333, "is_disabled": 0, "name": "242fd7dc3d52e84199dfca7730909938", "fusion_lat": 0.0, "rental_uris": {"ios": "https://dc.lft.to/lastmile_qr_scan", "android": "https://dc.lft.to/lastmile_qr_scan"}, "lon": -77.03262966666667, "type": "electric_scooter"}, {"bike_id": "df717c222721132b460b50bab7f5f2b4", "is_reserved": 0, "fusion_lon": 0.0, "lat": 38.89223366666667, "is_disabled": 0, "name": "df717c222721132b460b50bab7f5f2b4", "fusion_lat": 0.0, "rental_uris": {"ios": "https://dc.lft.to/lastmile_qr_scan", "android": "https://dc.lft.to/lastmile_qr_scan"}, "lon": -77.04336666666667, "type": "electric_scooter"}, {"bike_id": "ffd0e81d35e1b813c1f873e39f90120f", "is_reserved": 0, "fusion_lon": 0.0, "lat": 38.863746, "is_disabled": 0, "name": "ffd0e81d35e1b813c1f873e39f90120f", "fusion_lat": 0.0, "rental_uris": {"ios": "https://dc.lft.to/lastmile_qr_scan", "android": "https://dc.lft.to/lastmile_qr_scan"}, "lon": -76.99062966666666, "type": "electric_scooter"}, {"bike_id": "b6e3b949c624fe84cf5aa4c9482e2a3c", "is_reserved": 0, "fusion_lon": 0.0, "lat": 38.920132, "is_disabled": 0, "name": "b6e3b949c624fe84cf5aa4c9482e2a3c", "fusion_lat": 0.0, "rental_uris": {"ios": "https://dc.lft.to/lastmile_qr_scan", "android": "https://dc.lft.to/lastmile_qr_scan"}, "lon": -77.03132266666667, "type": "electric_scooter"}, {"bike_id": "8bc390bdafb20d61de6c781fcfb01ca3", "is_reserved": 0, "fusion_lon": 0.0, "lat": 38.899543333333334, "is_disabled": 0, "name": "8bc390bdafb20d61de6c781fcfb01ca3", "fusion_lat": 0.0, "rental_uris": {"ios": "https://dc.lft.to/lastmile_qr_scan", "android": "https://dc.lft.to/lastmile_qr_scan"}, "lon": -77.0335555, "type": "electric_scooter"}, {"bike_id": "aa59f030b844a00a5558fda7db91a67f", "is_reserved": 0, "fusion_lon": 0.0, "lat": 38.89366366666667, "is_disabled": 0, "name": "aa59f030b844a00a5558fda7db91a67f", "fusion_lat": 0.0, "rental_uris": {"ios": "https://dc.lft.to/lastmile_qr_scan", "android": "https://dc.lft.to/lastmile_qr_scan"}, "lon": -76.9851865, "type": "electric_bike"}, {"bike_id": "ebcdbf75dcebfe2abb2c81006b49d246", "is_reserved": 0, "fusion_lon": 0.0, "lat": 38.933323, "is_disabled": 0, "name": "ebcdbf75dcebfe2abb2c81006b49d246", "fusion_lat": 0.0, "rental_uris": {"ios": "https://dc.lft.to/lastmile_qr_scan", "android": "https://dc.lft.to/lastmile_qr_scan"}, "lon": -77.0326785, "type": "electric_scooter"}, {"bike_id": "7a575eb7d5628454eeb5800ee81143f6", "is_reserved": 0, "fusion_lon": 0.0, "lat": 38.898767, "is_disabled": 0, "name": "7a575eb7d5628454eeb5800ee81143f6", "fusion_lat": 0.0, "rental_uris": {"ios": "https://dc.lft.to/lastmile_qr_scan", "android": "https://dc.lft.to/lastmile_qr_scan"}, "lon": -76.93161266666667, "type": "electric_scooter"}, {"bike_id": "e71fe556d9dd4d10ada779cae951f5fb", "is_reserved": 0, "fusion_lon": 0.0, "lat": 38.896600166666666, "is_disabled": 0, "name": "e71fe556d9dd4d10ada779cae951f5fb", "fusion_lat": 0.0, "rental_uris": {"ios": "https://dc.lft.to/lastmile_qr_scan", "android": "https://dc.lft.to/lastmile_qr_scan"}, "lon": -77.02956383333333, "type": "electric_scooter"}, {"bike_id": "102659d8c3d83ee3dd1caff5d93e0a3c", "is_reserved": 0, "fusion_lon": 0.0, "lat": 38.91969366666667, "is_disabled": 0, "name": "102659d8c3d83ee3dd1caff5d93e0a3c", "fusion_lat": 0.0, "rental_uris": {"ios": "https://dc.lft.to/lastmile_qr_scan", "android": "https://dc.lft.to/lastmile_qr_scan"}, "lon": -77.0010845, "type": "electric_scooter"}, {"bike_id": "84cbfb7cbeb044d24fe33724ff31230e", "is_reserved": 0, "fusion_lon": 0.0, "lat": 38.9577845, "is_disabled": 0, "name": "84cbfb7cbeb044d24fe33724ff31230e", "fusion_lat": 0.0, "rental_uris": {"ios": "https://dc.lft.to/lastmile_qr_scan", "android": "https://dc.lft.to/lastmile_qr_scan"}, "lon": -77.02764483333333, "type": "electric_bike"}, {"bike_id": "b6fffec09c9710eb4918a60d85dcdef3", "is_reserved": 0, "fusion_lon": 0.0, "lat": 38.92345066666667, "is_disabled": 0, "name": "b6fffec09c9710eb4918a60d85dcdef3", "fusion_lat": 0.0, "rental_uris": {"ios": "https://dc.lft.to/lastmile_qr_scan", "android": "https://dc.lft.to/lastmile_qr_scan"}, "lon": -77.01902033333333, "type": "electric_scooter"}, {"bike_id": "6b1989f0eae1bcccb59cd979740665ab", "is_reserved": 0, "fusion_lon": 0.0, "lat": 38.9206805, "is_disabled": 0, "name": "6b1989f0eae1bcccb59cd979740665ab", "fusion_lat": 0.0, "rental_uris": {"ios": "https://dc.lft.to/lastmile_qr_scan", "android": "https://dc.lft.to/lastmile_qr_scan"}, "lon": -76.97798416666667, "type": "electric_scooter"}, {"bike_id": "65a2d2d2499837b0ddeeb64f185599e6", "is_reserved": 0, "fusion_lon": 0.0, "lat": 38.90586, "is_disabled": 0, "name": "65a2d2d2499837b0ddeeb64f185599e6", "fusion_lat": 0.0, "rental_uris": {"ios": "https://dc.lft.to/lastmile_qr_scan", "android": "https://dc.lft.to/lastmile_qr_scan"}, "lon": -77.065209, "type": "electric_scooter"}, {"bike_id": "2e522ce363d34dc8137ec13eccbd38f6", "is_reserved": 0, "fusion_lon": 0.0, "lat": 38.9233265, "is_disabled": 0, "name": "2e522ce363d34dc8137ec13eccbd38f6", "fusion_lat": 0.0, "rental_uris": {"ios": "https://dc.lft.to/lastmile_qr_scan", "android": "https://dc.lft.to/lastmile_qr_scan"}, "lon": -77.04392866666667, "type": "electric_scooter"}, {"bike_id": "72d49e87329b2d7dee219bb1ec3033bd", "is_reserved": 0, "fusion_lon": 0.0, "lat": 38.920617666666665, "is_disabled": 0, "name": "72d49e87329b2d7dee219bb1ec3033bd", "fusion_lat": 0.0, "rental_uris": {"ios": "https://dc.lft.to/lastmile_qr_scan", "android": "https://dc.lft.to/lastmile_qr_scan"}, "lon": -77.03395783333333, "type": "electric_scooter"}, {"bike_id": "dedd41087209a26f2024aa0cafed4707", "is_reserved": 0, "fusion_lon": 0.0, "lat": 38.905138, "is_disabled": 0, "name": "dedd41087209a26f2024aa0cafed4707", "fusion_lat": 0.0, "rental_uris": {"ios": "https://dc.lft.to/lastmile_qr_scan", "android": "https://dc.lft.to/lastmile_qr_scan"}, "lon": -77.06384766666666, "type": "electric_scooter"}, {"bike_id": "636598d9075f112e49d3fd4b6142dd90", "is_reserved": 0, "fusion_lon": 0.0, "lat": 38.923184166666665, "is_disabled": 0, "name": "636598d9075f112e49d3fd4b6142dd90", "fusion_lat": 0.0, "rental_uris": {"ios": "https://dc.lft.to/lastmile_qr_scan", "android": "https://dc.lft.to/lastmile_qr_scan"}, "lon": -77.03867316666667, "type": "electric_scooter"}, {"bike_id": "5f3c1467bf533308db9b273820eba7f8", "is_reserved": 0, "fusion_lon": 0.0, "lat": 38.9126935, "is_disabled": 0, "name": "5f3c1467bf533308db9b273820eba7f8", "fusion_lat": 0.0, "rental_uris": {"ios": "https://dc.lft.to/lastmile_qr_scan", "android": "https://dc.lft.to/lastmile_qr_scan"}, "lon": -77.022116, "type": "electric_scooter"}, {"bike_id": "b29d30dec2b7d9c75ed7d286199f3235", "is_reserved": 0, "fusion_lon": 0.0, "lat": 38.9056745, "is_disabled": 0, "name": "b29d30dec2b7d9c75ed7d286199f3235", "fusion_lat": 0.0, "rental_uris": {"ios": "https://dc.lft.to/lastmile_qr_scan", "android": "https://dc.lft.to/lastmile_qr_scan"}, "lon": -77.03623716666667, "type": "electric_scooter"}, {"bike_id": "56ab72dba90c73a1130edb20ae7b789f", "is_reserved": 0, "fusion_lon": 0.0, "lat": 38.899726333333334, "is_disabled": 0, "name": "56ab72dba90c73a1130edb20ae7b789f", "fusion_lat": 0.0, "rental_uris": {"ios": "https://dc.lft.to/lastmile_qr_scan", "android": "https://dc.lft.to/lastmile_qr_scan"}, "lon": -76.99148383333333, "type": "electric_scooter"}, {"bike_id": "a9125dd553ed571a407d7fe2dfdfdad9", "is_reserved": 0, "fusion_lon": 0.0, "lat": 38.92651016666667, "is_disabled": 0, "name": "a9125dd553ed571a407d7fe2dfdfdad9", "fusion_lat": 0.0, "rental_uris": {"ios": "https://dc.lft.to/lastmile_qr_scan", "android": "https://dc.lft.to/lastmile_qr_scan"}, "lon": -77.037116, "type": "electric_scooter"}, {"bike_id": "708acf943785fc4497bbc4d51dbd8e3b", "is_reserved": 0, "fusion_lon": 0.0, "lat": 38.903554166666666, "is_disabled": 0, "name": "708acf943785fc4497bbc4d51dbd8e3b", "fusion_lat": 0.0, "rental_uris": {"ios": "https://dc.lft.to/lastmile_qr_scan", "android": "https://dc.lft.to/lastmile_qr_scan"}, "lon": -77.04344633333334, "type": "electric_scooter"}, {"bike_id": "987db72a232663d619b8df8fd4962620", "is_reserved": 0, "fusion_lon": 0.0, "lat": 38.911159, "is_disabled": 0, "name": "987db72a232663d619b8df8fd4962620", "fusion_lat": 0.0, "rental_uris": {"ios": "https://dc.lft.to/lastmile_qr_scan", "android": "https://dc.lft.to/lastmile_qr_scan"}, "lon": -77.00262533333333, "type": "electric_scooter"}, {"bike_id": "86655815a31aab10070a014115ae1ff6", "is_reserved": 0, "fusion_lon": 0.0, "lat": 38.90585566666667, "is_disabled": 0, "name": "86655815a31aab10070a014115ae1ff6", "fusion_lat": 0.0, "rental_uris": {"ios": "https://dc.lft.to/lastmile_qr_scan", "android": "https://dc.lft.to/lastmile_qr_scan"}, "lon": -77.04610216666667, "type": "electric_scooter"}, {"bike_id": "03e0e3f9143b8a5e86d084395a35048a", "is_reserved": 0, "fusion_lon": 0.0, "lat": 38.89327333333333, "is_disabled": 0, "name": "03e0e3f9143b8a5e86d084395a35048a", "fusion_lat": 0.0, "rental_uris": {"ios": "https://dc.lft.to/lastmile_qr_scan", "android": "https://dc.lft.to/lastmile_qr_scan"}, "lon": -76.92995433333333, "type": "electric_scooter"}, {"bike_id": "171c5fbe62387609039159ccce821d69", "is_reserved": 0, "fusion_lon": 0.0, "lat": 38.92284866666667, "is_disabled": 0, "name": "171c5fbe62387609039159ccce821d69", "fusion_lat": 0.0, "rental_uris": {"ios": "https://dc.lft.to/lastmile_qr_scan", "android": "https://dc.lft.to/lastmile_qr_scan"}, "lon": -77.03664033333334, "type": "electric_scooter"}, {"bike_id": "8ff188cbe320f3e015604e3bffbb0518", "is_reserved": 0, "fusion_lon": 0.0, "lat": 38.87627366666667, "is_disabled": 0, "name": "8ff188cbe320f3e015604e3bffbb0518", "fusion_lat": 0.0, "rental_uris": {"ios": "https://dc.lft.to/lastmile_qr_scan", "android": "https://dc.lft.to/lastmile_qr_scan"}, "lon": -76.96526633333333, "type": "electric_scooter"}, {"bike_id": "6a024ff11ab2eae0fb3dff5d1cce1ee2", "is_reserved": 0, "fusion_lon": 0.0, "lat": 38.9177535, "is_disabled": 0, "name": "6a024ff11ab2eae0fb3dff5d1cce1ee2", "fusion_lat": 0.0, "rental_uris": {"ios": "https://dc.lft.to/lastmile_qr_scan", "android": "https://dc.lft.to/lastmile_qr_scan"}, "lon": -77.047519, "type": "electric_scooter"}, {"bike_id": "18acb0c8eb1c1d3728234796a078cb86", "is_reserved": 0, "fusion_lon": 0.0, "lat": 38.907091666666666, "is_disabled": 0, "name": "18acb0c8eb1c1d3728234796a078cb86", "fusion_lat": 0.0, "rental_uris": {"ios": "https://dc.lft.to/lastmile_qr_scan", "android": "https://dc.lft.to/lastmile_qr_scan"}, "lon": -77.0319435, "type": "electric_scooter"}, {"bike_id": "a30089060ea7d59f2b626f4651a22529", "is_reserved": 0, "fusion_lon": 0.0, "lat": 38.90183283333333, "is_disabled": 0, "name": "a30089060ea7d59f2b626f4651a22529", "fusion_lat": 0.0, "rental_uris": {"ios": "https://dc.lft.to/lastmile_qr_scan", "android": "https://dc.lft.to/lastmile_qr_scan"}, "lon": -76.98072166666667, "type": "electric_scooter"}, {"bike_id": "b86f78d879725fc4f08df2b62bd9663f", "is_reserved": 0, "fusion_lon": 0.0, "lat": 38.82907766666667, "is_disabled": 0, "name": "b86f78d879725fc4f08df2b62bd9663f", "fusion_lat": 0.0, "rental_uris": {"ios": "https://dc.lft.to/lastmile_qr_scan", "android": "https://dc.lft.to/lastmile_qr_scan"}, "lon": -76.997428, "type": "electric_scooter"}, {"bike_id": "8e5376b3cb448a71468e82912211cd2c", "is_reserved": 0, "fusion_lon": 0.0, "lat": 38.906455666666666, "is_disabled": 0, "name": "8e5376b3cb448a71468e82912211cd2c", "fusion_lat": 0.0, "rental_uris": {"ios": "https://dc.lft.to/lastmile_qr_scan", "android": "https://dc.lft.to/lastmile_qr_scan"}, "lon": -77.03765616666666, "type": "electric_scooter"}, {"bike_id": "faa9274e127c24c35ad0779878384eeb", "is_reserved": 0, "fusion_lon": 0.0, "lat": 38.8279025, "is_disabled": 0, "name": "faa9274e127c24c35ad0779878384eeb", "fusion_lat": 0.0, "rental_uris": {"ios": "https://dc.lft.to/lastmile_qr_scan", "android": "https://dc.lft.to/lastmile_qr_scan"}, "lon": -77.00902766666667, "type": "electric_bike"}, {"bike_id": "2a97384d0ac3abcfc9ee2541cad80c61", "is_reserved": 0, "fusion_lon": 0.0, "lat": 38.90012, "is_disabled": 0, "name": "2a97384d0ac3abcfc9ee2541cad80c61", "fusion_lat": 0.0, "rental_uris": {"ios": "https://dc.lft.to/lastmile_qr_scan", "android": "https://dc.lft.to/lastmile_qr_scan"}, "lon": -76.9978285, "type": "electric_scooter"}, {"bike_id": "510f0e374bae33480ac42c0cc8f059e5", "is_reserved": 0, "fusion_lon": 0.0, "lat": 38.84056983333333, "is_disabled": 0, "name": "510f0e374bae33480ac42c0cc8f059e5", "fusion_lat": 0.0, "rental_uris": {"ios": "https://dc.lft.to/lastmile_qr_scan", "android": "https://dc.lft.to/lastmile_qr_scan"}, "lon": -77.0640745, "type": "electric_bike"}, {"bike_id": "63e07bb6be53f0d3292bbbcf6a7ed3be", "is_reserved": 0, "fusion_lon": 0.0, "lat": 38.87254133333333, "is_disabled": 0, "name": "63e07bb6be53f0d3292bbbcf6a7ed3be", "fusion_lat": 0.0, "rental_uris": {"ios": "https://dc.lft.to/lastmile_qr_scan", "android": "https://dc.lft.to/lastmile_qr_scan"}, "lon": -76.97910533333334, "type": "electric_bike"}, {"bike_id": "2b4d6343f0d543a7901fed1d6df3a47a", "is_reserved": 0, "fusion_lon": 0.0, "lat": 38.9215105, "is_disabled": 0, "name": "2b4d6343f0d543a7901fed1d6df3a47a", "fusion_lat": 0.0, "rental_uris": {"ios": "https://dc.lft.to/lastmile_qr_scan", "android": "https://dc.lft.to/lastmile_qr_scan"}, "lon": -77.03530666666667, "type": "electric_scooter"}, {"bike_id": "50d5e894d071fdef220c12d27674c2dd", "is_reserved": 0, "fusion_lon": 0.0, "lat": 38.92723083333333, "is_disabled": 0, "name": "50d5e894d071fdef220c12d27674c2dd", "fusion_lat": 0.0, "rental_uris": {"ios": "https://dc.lft.to/lastmile_qr_scan", "android": "https://dc.lft.to/lastmile_qr_scan"}, "lon": -77.005617, "type": "electric_scooter"}, {"bike_id": "a550fcbd657806bf23ca75ab96b69533", "is_reserved": 0, "fusion_lon": 0.0, "lat": 38.8984195, "is_disabled": 0, "name": "a550fcbd657806bf23ca75ab96b69533", "fusion_lat": 0.0, "rental_uris": {"ios": "https://dc.lft.to/lastmile_qr_scan", "android": "https://dc.lft.to/lastmile_qr_scan"}, "lon": -76.944792, "type": "electric_scooter"}, {"bike_id": "2354650488fa6d3a46abaef4ef347217", "is_reserved": 0, "fusion_lon": 0.0, "lat": 38.88529116666667, "is_disabled": 0, "name": "2354650488fa6d3a46abaef4ef347217", "fusion_lat": 0.0, "rental_uris": {"ios": "https://dc.lft.to/lastmile_qr_scan", "android": "https://dc.lft.to/lastmile_qr_scan"}, "lon": -76.98056716666666, "type": "electric_scooter"}, {"bike_id": "c5a609157ad6dc7cb5c2aa074f430ccc", "is_reserved": 0, "fusion_lon": 0.0, "lat": 39.094567833333336, "is_disabled": 0, "name": "c5a609157ad6dc7cb5c2aa074f430ccc", "fusion_lat": 0.0, "rental_uris": {"ios": "https://dc.lft.to/lastmile_qr_scan", "android": "https://dc.lft.to/lastmile_qr_scan"}, "lon": -77.1499635, "type": "electric_bike"}, {"bike_id": "05b3a975b33190ebe83b446305b51402", "is_reserved": 0, "fusion_lon": 0.0, "lat": 38.9054355, "is_disabled": 0, "name": "05b3a975b33190ebe83b446305b51402", "fusion_lat": 0.0, "rental_uris": {"ios": "https://dc.lft.to/lastmile_qr_scan", "android": "https://dc.lft.to/lastmile_qr_scan"}, "lon": -77.02705516666667, "type": "electric_scooter"}, {"bike_id": "c35f92d299b367c87d46b87d4edc6e80", "is_reserved": 0, "fusion_lon": 0.0, "lat": 38.90262883333333, "is_disabled": 0, "name": "c35f92d299b367c87d46b87d4edc6e80", "fusion_lat": 0.0, "rental_uris": {"ios": "https://dc.lft.to/lastmile_qr_scan", "android": "https://dc.lft.to/lastmile_qr_scan"}, "lon": -77.03362783333333, "type": "electric_scooter"}, {"bike_id": "e0f816ae7b06e22494cf03d88bd335cc", "is_reserved": 0, "fusion_lon": 0.0, "lat": 38.895533, "is_disabled": 0, "name": "e0f816ae7b06e22494cf03d88bd335cc", "fusion_lat": 0.0, "rental_uris": {"ios": "https://dc.lft.to/lastmile_qr_scan", "android": "https://dc.lft.to/lastmile_qr_scan"}, "lon": -76.9503, "type": "electric_scooter"}, {"bike_id": "791cfd10636c524bd25d6d25d59c5f53", "is_reserved": 0, "fusion_lon": 0.0, "lat": 38.929229166666666, "is_disabled": 0, "name": "791cfd10636c524bd25d6d25d59c5f53", "fusion_lat": 0.0, "rental_uris": {"ios": "https://dc.lft.to/lastmile_qr_scan", "android": "https://dc.lft.to/lastmile_qr_scan"}, "lon": -77.02007316666666, "type": "electric_scooter"}, {"bike_id": "d8715f12c08cfb176592759e088c672f", "is_reserved": 0, "fusion_lon": 0.0, "lat": 38.9399185, "is_disabled": 0, "name": "d8715f12c08cfb176592759e088c672f", "fusion_lat": 0.0, "rental_uris": {"ios": "https://dc.lft.to/lastmile_qr_scan", "android": "https://dc.lft.to/lastmile_qr_scan"}, "lon": -77.02890933333333, "type": "electric_scooter"}, {"bike_id": "0f768e7d76febd1b3aabed68f0e09b98", "is_reserved": 0, "fusion_lon": 0.0, "lat": 38.92050116666667, "is_disabled": 0, "name": "0f768e7d76febd1b3aabed68f0e09b98", "fusion_lat": 0.0, "rental_uris": {"ios": "https://dc.lft.to/lastmile_qr_scan", "android": "https://dc.lft.to/lastmile_qr_scan"}, "lon": -77.02442433333333, "type": "electric_scooter"}, {"bike_id": "84f5616b6349d1448635846e7e78ba1c", "is_reserved": 0, "fusion_lon": 0.0, "lat": 38.92178416666667, "is_disabled": 0, "name": "84f5616b6349d1448635846e7e78ba1c", "fusion_lat": 0.0, "rental_uris": {"ios": "https://dc.lft.to/lastmile_qr_scan", "android": "https://dc.lft.to/lastmile_qr_scan"}, "lon": -77.02534533333333, "type": "electric_scooter"}, {"bike_id": "085c278a08ab1e1682223ed4f146a610", "is_reserved": 0, "fusion_lon": 0.0, "lat": 38.879777, "is_disabled": 0, "name": "085c278a08ab1e1682223ed4f146a610", "fusion_lat": 0.0, "rental_uris": {"ios": "https://dc.lft.to/lastmile_qr_scan", "android": "https://dc.lft.to/lastmile_qr_scan"}, "lon": -77.024017, "type": "electric_scooter"}, {"bike_id": "6e227acf32367f647d9ebb0e9bbc8773", "is_reserved": 0, "fusion_lon": 0.0, "lat": 38.913296333333335, "is_disabled": 0, "name": "6e227acf32367f647d9ebb0e9bbc8773", "fusion_lat": 0.0, "rental_uris": {"ios": "https://dc.lft.to/lastmile_qr_scan", "android": "https://dc.lft.to/lastmile_qr_scan"}, "lon": -77.032703, "type": "electric_scooter"}, {"bike_id": "e7de436e104424cc0703dd042f9cce8b", "is_reserved": 0, "fusion_lon": 0.0, "lat": 38.81307983333333, "is_disabled": 0, "name": "e7de436e104424cc0703dd042f9cce8b", "fusion_lat": 0.0, "rental_uris": {"ios": "https://dc.lft.to/lastmile_qr_scan", "android": "https://dc.lft.to/lastmile_qr_scan"}, "lon": -77.05094733333334, "type": "electric_bike"}, {"bike_id": "257d9f7a3a015960735fdb0f4b5d48f4", "is_reserved": 0, "fusion_lon": 0.0, "lat": 38.86208516666667, "is_disabled": 0, "name": "257d9f7a3a015960735fdb0f4b5d48f4", "fusion_lat": 0.0, "rental_uris": {"ios": "https://dc.lft.to/lastmile_qr_scan", "android": "https://dc.lft.to/lastmile_qr_scan"}, "lon": -76.99470833333334, "type": "electric_scooter"}, {"bike_id": "48c95b528ada526e722b0c566ad2377f", "is_reserved": 0, "fusion_lon": 0.0, "lat": 38.9180785, "is_disabled": 0, "name": "48c95b528ada526e722b0c566ad2377f", "fusion_lat": 0.0, "rental_uris": {"ios": "https://dc.lft.to/lastmile_qr_scan", "android": "https://dc.lft.to/lastmile_qr_scan"}, "lon": -77.03300416666667, "type": "electric_scooter"}, {"bike_id": "ac5548f79237d6b461d8d24e7094545e", "is_reserved": 0, "fusion_lon": 0.0, "lat": 38.90798316666667, "is_disabled": 0, "name": "ac5548f79237d6b461d8d24e7094545e", "fusion_lat": 0.0, "rental_uris": {"ios": "https://dc.lft.to/lastmile_qr_scan", "android": "https://dc.lft.to/lastmile_qr_scan"}, "lon": -77.04228533333334, "type": "electric_scooter"}, {"bike_id": "74296edb11eb61a20c49b00627205d54", "is_reserved": 0, "fusion_lon": 0.0, "lat": 38.93663183333334, "is_disabled": 0, "name": "74296edb11eb61a20c49b00627205d54", "fusion_lat": 0.0, "rental_uris": {"ios": "https://dc.lft.to/lastmile_qr_scan", "android": "https://dc.lft.to/lastmile_qr_scan"}, "lon": -77.05931283333334, "type": "electric_scooter"}, {"bike_id": "d414f7618e2bdcf16e52491a5bd8f6f7", "is_reserved": 0, "fusion_lon": 0.0, "lat": 38.93773366666667, "is_disabled": 0, "name": "d414f7618e2bdcf16e52491a5bd8f6f7", "fusion_lat": 0.0, "rental_uris": {"ios": "https://dc.lft.to/lastmile_qr_scan", "android": "https://dc.lft.to/lastmile_qr_scan"}, "lon": -77.0191325, "type": "electric_bike"}, {"bike_id": "327fade081d385d16ec643042a85696a", "is_reserved": 0, "fusion_lon": 0.0, "lat": 38.893679666666664, "is_disabled": 0, "name": "327fade081d385d16ec643042a85696a", "fusion_lat": 0.0, "rental_uris": {"ios": "https://dc.lft.to/lastmile_qr_scan", "android": "https://dc.lft.to/lastmile_qr_scan"}, "lon": -77.02824566666666, "type": "electric_scooter"}, {"bike_id": "d09e5c116d5924ec23d3c69bb65bb5bb", "is_reserved": 0, "fusion_lon": 0.0, "lat": 38.909717666666666, "is_disabled": 0, "name": "d09e5c116d5924ec23d3c69bb65bb5bb", "fusion_lat": 0.0, "rental_uris": {"ios": "https://dc.lft.to/lastmile_qr_scan", "android": "https://dc.lft.to/lastmile_qr_scan"}, "lon": -77.03867166666667, "type": "electric_scooter"}, {"bike_id": "009ce30ebcc3196616f57390ba43261d", "is_reserved": 0, "fusion_lon": 0.0, "lat": 38.887453, "is_disabled": 0, "name": "009ce30ebcc3196616f57390ba43261d", "fusion_lat": 0.0, "rental_uris": {"ios": "https://dc.lft.to/lastmile_qr_scan", "android": "https://dc.lft.to/lastmile_qr_scan"}, "lon": -77.02025516666667, "type": "electric_scooter"}, {"bike_id": "8fe45ae76a01a35e79782bf93ac2fd3e", "is_reserved": 0, "fusion_lon": 0.0, "lat": 38.883358666666666, "is_disabled": 0, "name": "8fe45ae76a01a35e79782bf93ac2fd3e", "fusion_lat": 0.0, "rental_uris": {"ios": "https://dc.lft.to/lastmile_qr_scan", "android": "https://dc.lft.to/lastmile_qr_scan"}, "lon": -76.99346883333334, "type": "electric_scooter"}, {"bike_id": "5572d5523744f2e874e2885d3574c15d", "is_reserved": 0, "fusion_lon": 0.0, "lat": 38.930017, "is_disabled": 0, "name": "5572d5523744f2e874e2885d3574c15d", "fusion_lat": 0.0, "rental_uris": {"ios": "https://dc.lft.to/lastmile_qr_scan", "android": "https://dc.lft.to/lastmile_qr_scan"}, "lon": -77.05539366666666, "type": "electric_scooter"}, {"bike_id": "2c3e1e7695cae3b9c6f7ea19cf8b9c39", "is_reserved": 0, "fusion_lon": 0.0, "lat": 38.91709733333333, "is_disabled": 0, "name": "2c3e1e7695cae3b9c6f7ea19cf8b9c39", "fusion_lat": 0.0, "rental_uris": {"ios": "https://dc.lft.to/lastmile_qr_scan", "android": "https://dc.lft.to/lastmile_qr_scan"}, "lon": -77.02547066666666, "type": "electric_scooter"}, {"bike_id": "c0aa300882332e2de6b72dc39bbdc76f", "is_reserved": 0, "fusion_lon": 0.0, "lat": 38.9240505, "is_disabled": 0, "name": "c0aa300882332e2de6b72dc39bbdc76f", "fusion_lat": 0.0, "rental_uris": {"ios": "https://dc.lft.to/lastmile_qr_scan", "android": "https://dc.lft.to/lastmile_qr_scan"}, "lon": -77.01946016666666, "type": "electric_scooter"}, {"bike_id": "d8b0ede5ef96e7991a0ac28b6e085562", "is_reserved": 0, "fusion_lon": 0.0, "lat": 38.93079, "is_disabled": 0, "name": "d8b0ede5ef96e7991a0ac28b6e085562", "fusion_lat": 0.0, "rental_uris": {"ios": "https://dc.lft.to/lastmile_qr_scan", "android": "https://dc.lft.to/lastmile_qr_scan"}, "lon": -77.02797233333334, "type": "electric_scooter"}, {"bike_id": "954b6c4f631d89a5b01125b95c078c45", "is_reserved": 0, "fusion_lon": 0.0, "lat": 38.88727933333333, "is_disabled": 0, "name": "954b6c4f631d89a5b01125b95c078c45", "fusion_lat": 0.0, "rental_uris": {"ios": "https://dc.lft.to/lastmile_qr_scan", "android": "https://dc.lft.to/lastmile_qr_scan"}, "lon": -77.031237, "type": "electric_scooter"}, {"bike_id": "b46a3f25c4f6d904e811b5432330f94b", "is_reserved": 0, "fusion_lon": 0.0, "lat": 38.8849705, "is_disabled": 0, "name": "b46a3f25c4f6d904e811b5432330f94b", "fusion_lat": 0.0, "rental_uris": {"ios": "https://dc.lft.to/lastmile_qr_scan", "android": "https://dc.lft.to/lastmile_qr_scan"}, "lon": -77.007298, "type": "electric_scooter"}, {"bike_id": "84470bcb0abed1d57120cd22928258a4", "is_reserved": 0, "fusion_lon": 0.0, "lat": 38.956405333333336, "is_disabled": 0, "name": "84470bcb0abed1d57120cd22928258a4", "fusion_lat": 0.0, "rental_uris": {"ios": "https://dc.lft.to/lastmile_qr_scan", "android": "https://dc.lft.to/lastmile_qr_scan"}, "lon": -76.997958, "type": "electric_scooter"}, {"bike_id": "55405ae4c8d1fffa4dfda1a0ff1457b8", "is_reserved": 0, "fusion_lon": 0.0, "lat": 38.90119333333333, "is_disabled": 0, "name": "55405ae4c8d1fffa4dfda1a0ff1457b8", "fusion_lat": 0.0, "rental_uris": {"ios": "https://dc.lft.to/lastmile_qr_scan", "android": "https://dc.lft.to/lastmile_qr_scan"}, "lon": -77.04989233333333, "type": "electric_scooter"}, {"bike_id": "b02c72830a81f855129cf04d269d1758", "is_reserved": 0, "fusion_lon": 0.0, "lat": 38.92253983333333, "is_disabled": 0, "name": "b02c72830a81f855129cf04d269d1758", "fusion_lat": 0.0, "rental_uris": {"ios": "https://dc.lft.to/lastmile_qr_scan", "android": "https://dc.lft.to/lastmile_qr_scan"}, "lon": -77.04287933333333, "type": "electric_scooter"}, {"bike_id": "08fa12b4cd2204569a7fbea44af63223", "is_reserved": 0, "fusion_lon": 0.0, "lat": 38.915639666666664, "is_disabled": 0, "name": "08fa12b4cd2204569a7fbea44af63223", "fusion_lat": 0.0, "rental_uris": {"ios": "https://dc.lft.to/lastmile_qr_scan", "android": "https://dc.lft.to/lastmile_qr_scan"}, "lon": -77.04148383333333, "type": "electric_scooter"}, {"bike_id": "bc709c95526f04ec9e0ba260f5ddf4a0", "is_reserved": 0, "fusion_lon": 0.0, "lat": 39.01591766666667, "is_disabled": 0, "name": "bc709c95526f04ec9e0ba260f5ddf4a0", "fusion_lat": 0.0, "rental_uris": {"ios": "https://dc.lft.to/lastmile_qr_scan", "android": "https://dc.lft.to/lastmile_qr_scan"}, "lon": -77.04431883333334, "type": "electric_bike"}, {"bike_id": "6cf1ac7e8db30ce4fce83f007eba3670", "is_reserved": 0, "fusion_lon": 0.0, "lat": 38.9029435, "is_disabled": 0, "name": "6cf1ac7e8db30ce4fce83f007eba3670", "fusion_lat": 0.0, "rental_uris": {"ios": "https://dc.lft.to/lastmile_qr_scan", "android": "https://dc.lft.to/lastmile_qr_scan"}, "lon": -76.94442333333333, "type": "electric_bike"}, {"bike_id": "53fe9e22f98f6d85d2807ec844dfe3fc", "is_reserved": 0, "fusion_lon": 0.0, "lat": 38.83797033333333, "is_disabled": 0, "name": "53fe9e22f98f6d85d2807ec844dfe3fc", "fusion_lat": 0.0, "rental_uris": {"ios": "https://dc.lft.to/lastmile_qr_scan", "android": "https://dc.lft.to/lastmile_qr_scan"}, "lon": -76.9984165, "type": "electric_bike"}, {"bike_id": "0a48cf1464e269cc66a634cbbf1003cd", "is_reserved": 0, "fusion_lon": 0.0, "lat": 38.901594, "is_disabled": 0, "name": "0a48cf1464e269cc66a634cbbf1003cd", "fusion_lat": 0.0, "rental_uris": {"ios": "https://dc.lft.to/lastmile_qr_scan", "android": "https://dc.lft.to/lastmile_qr_scan"}, "lon": -76.97508866666666, "type": "electric_scooter"}, {"bike_id": "9b95990900de4df0c3efc9ccf1dd5aca", "is_reserved": 0, "fusion_lon": 0.0, "lat": 38.905821333333336, "is_disabled": 0, "name": "9b95990900de4df0c3efc9ccf1dd5aca", "fusion_lat": 0.0, "rental_uris": {"ios": "https://dc.lft.to/lastmile_qr_scan", "android": "https://dc.lft.to/lastmile_qr_scan"}, "lon": -77.0396905, "type": "electric_scooter"}, {"bike_id": "7ddd5850c8f43bc9bca005fb19c4256a", "is_reserved": 0, "fusion_lon": 0.0, "lat": 38.90095383333333, "is_disabled": 0, "name": "7ddd5850c8f43bc9bca005fb19c4256a", "fusion_lat": 0.0, "rental_uris": {"ios": "https://dc.lft.to/lastmile_qr_scan", "android": "https://dc.lft.to/lastmile_qr_scan"}, "lon": -77.04757866666667, "type": "electric_scooter"}, {"bike_id": "f95a57951f43139aaa8beba9bfe8fb80", "is_reserved": 0, "fusion_lon": 0.0, "lat": 38.93334083333333, "is_disabled": 0, "name": "f95a57951f43139aaa8beba9bfe8fb80", "fusion_lat": 0.0, "rental_uris": {"ios": "https://dc.lft.to/lastmile_qr_scan", "android": "https://dc.lft.to/lastmile_qr_scan"}, "lon": -77.03285416666667, "type": "electric_scooter"}, {"bike_id": "516b7ec0abea1a4953a4ff2cb5414fb3", "is_reserved": 0, "fusion_lon": 0.0, "lat": 38.93878333333333, "is_disabled": 0, "name": "516b7ec0abea1a4953a4ff2cb5414fb3", "fusion_lat": 0.0, "rental_uris": {"ios": "https://dc.lft.to/lastmile_qr_scan", "android": "https://dc.lft.to/lastmile_qr_scan"}, "lon": -77.024838, "type": "electric_scooter"}, {"bike_id": "8b1d83c80fb556645c6f34e9f1781ba6", "is_reserved": 0, "fusion_lon": 0.0, "lat": 38.9000105, "is_disabled": 0, "name": "8b1d83c80fb556645c6f34e9f1781ba6", "fusion_lat": 0.0, "rental_uris": {"ios": "https://dc.lft.to/lastmile_qr_scan", "android": "https://dc.lft.to/lastmile_qr_scan"}, "lon": -76.98701, "type": "electric_scooter"}, {"bike_id": "9416b70b66ff732041742e71f225148f", "is_reserved": 0, "fusion_lon": 0.0, "lat": 38.90021983333333, "is_disabled": 0, "name": "9416b70b66ff732041742e71f225148f", "fusion_lat": 0.0, "rental_uris": {"ios": "https://dc.lft.to/lastmile_qr_scan", "android": "https://dc.lft.to/lastmile_qr_scan"}, "lon": -76.9953615, "type": "electric_scooter"}, {"bike_id": "b45889354e7f4c6f9d130b27a96ffe42", "is_reserved": 0, "fusion_lon": 0.0, "lat": 38.885994, "is_disabled": 0, "name": "b45889354e7f4c6f9d130b27a96ffe42", "fusion_lat": 0.0, "rental_uris": {"ios": "https://dc.lft.to/lastmile_qr_scan", "android": "https://dc.lft.to/lastmile_qr_scan"}, "lon": -77.00562433333333, "type": "electric_scooter"}, {"bike_id": "dbd2524cce17210a5f5c21f2db81b726", "is_reserved": 0, "fusion_lon": 0.0, "lat": 38.84423866666667, "is_disabled": 0, "name": "dbd2524cce17210a5f5c21f2db81b726", "fusion_lat": 0.0, "rental_uris": {"ios": "https://dc.lft.to/lastmile_qr_scan", "android": "https://dc.lft.to/lastmile_qr_scan"}, "lon": -76.99778466666666, "type": "electric_scooter"}, {"bike_id": "f9e5ea90bb9fea8841afb6e8ab606db1", "is_reserved": 0, "fusion_lon": 0.0, "lat": 38.89220383333333, "is_disabled": 0, "name": "f9e5ea90bb9fea8841afb6e8ab606db1", "fusion_lat": 0.0, "rental_uris": {"ios": "https://dc.lft.to/lastmile_qr_scan", "android": "https://dc.lft.to/lastmile_qr_scan"}, "lon": -77.04860966666666, "type": "electric_scooter"}, {"bike_id": "2d85a58b400990683b8d6dbcb1a79cfe", "is_reserved": 0, "fusion_lon": 0.0, "lat": 38.810462666666666, "is_disabled": 0, "name": "2d85a58b400990683b8d6dbcb1a79cfe", "fusion_lat": 0.0, "rental_uris": {"ios": "https://dc.lft.to/lastmile_qr_scan", "android": "https://dc.lft.to/lastmile_qr_scan"}, "lon": -77.0850745, "type": "electric_bike"}, {"bike_id": "f9276fccf6f9da7bc1611e62a3031fea", "is_reserved": 0, "fusion_lon": 0.0, "lat": 38.91443066666667, "is_disabled": 0, "name": "f9276fccf6f9da7bc1611e62a3031fea", "fusion_lat": 0.0, "rental_uris": {"ios": "https://dc.lft.to/lastmile_qr_scan", "android": "https://dc.lft.to/lastmile_qr_scan"}, "lon": -77.03466916666666, "type": "electric_scooter"}, {"bike_id": "a49dd9fc83cf2652e2122cf83d6e341f", "is_reserved": 0, "fusion_lon": 0.0, "lat": 38.911801833333335, "is_disabled": 0, "name": "a49dd9fc83cf2652e2122cf83d6e341f", "fusion_lat": 0.0, "rental_uris": {"ios": "https://dc.lft.to/lastmile_qr_scan", "android": "https://dc.lft.to/lastmile_qr_scan"}, "lon": -77.00279583333334, "type": "electric_bike"}, {"bike_id": "24d8725dc6ba7297f5e2459015b1a4f6", "is_reserved": 0, "fusion_lon": 0.0, "lat": 38.92906033333333, "is_disabled": 0, "name": "24d8725dc6ba7297f5e2459015b1a4f6", "fusion_lat": 0.0, "rental_uris": {"ios": "https://dc.lft.to/lastmile_qr_scan", "android": "https://dc.lft.to/lastmile_qr_scan"}, "lon": -77.02160283333333, "type": "electric_scooter"}, {"bike_id": "2d07aad27a4b80d99d7a9873ebe7af57", "is_reserved": 0, "fusion_lon": 0.0, "lat": 38.9315505, "is_disabled": 0, "name": "2d07aad27a4b80d99d7a9873ebe7af57", "fusion_lat": 0.0, "rental_uris": {"ios": "https://dc.lft.to/lastmile_qr_scan", "android": "https://dc.lft.to/lastmile_qr_scan"}, "lon": -77.0436735, "type": "electric_scooter"}, {"bike_id": "af793ec19a24a4a9594c3dcbf769e013", "is_reserved": 0, "fusion_lon": 0.0, "lat": 38.911864, "is_disabled": 0, "name": "af793ec19a24a4a9594c3dcbf769e013", "fusion_lat": 0.0, "rental_uris": {"ios": "https://dc.lft.to/lastmile_qr_scan", "android": "https://dc.lft.to/lastmile_qr_scan"}, "lon": -77.04551316666667, "type": "electric_scooter"}, {"bike_id": "ca18eedba2f114e32fc0cd98af5236aa", "is_reserved": 0, "fusion_lon": 0.0, "lat": 38.93491783333333, "is_disabled": 0, "name": "ca18eedba2f114e32fc0cd98af5236aa", "fusion_lat": 0.0, "rental_uris": {"ios": "https://dc.lft.to/lastmile_qr_scan", "android": "https://dc.lft.to/lastmile_qr_scan"}, "lon": -77.028458, "type": "electric_scooter"}, {"bike_id": "5d26b36c0455a61fbecf546e23504688", "is_reserved": 0, "fusion_lon": 0.0, "lat": 38.9033125, "is_disabled": 0, "name": "5d26b36c0455a61fbecf546e23504688", "fusion_lat": 0.0, "rental_uris": {"ios": "https://dc.lft.to/lastmile_qr_scan", "android": "https://dc.lft.to/lastmile_qr_scan"}, "lon": -77.03337483333334, "type": "electric_scooter"}, {"bike_id": "131686386eedbfe6b97e79029ceb9cf3", "is_reserved": 0, "fusion_lon": 0.0, "lat": 38.89623733333333, "is_disabled": 0, "name": "131686386eedbfe6b97e79029ceb9cf3", "fusion_lat": 0.0, "rental_uris": {"ios": "https://dc.lft.to/lastmile_qr_scan", "android": "https://dc.lft.to/lastmile_qr_scan"}, "lon": -76.99854616666667, "type": "electric_scooter"}, {"bike_id": "87aa6997ea3af2ccc8239c4d0ebab7bd", "is_reserved": 0, "fusion_lon": 0.0, "lat": 38.896047833333334, "is_disabled": 0, "name": "87aa6997ea3af2ccc8239c4d0ebab7bd", "fusion_lat": 0.0, "rental_uris": {"ios": "https://dc.lft.to/lastmile_qr_scan", "android": "https://dc.lft.to/lastmile_qr_scan"}, "lon": -77.02825516666667, "type": "electric_scooter"}, {"bike_id": "c4409186834f377d3055fcd44d9288d9", "is_reserved": 0, "fusion_lon": 0.0, "lat": 38.922469, "is_disabled": 0, "name": "c4409186834f377d3055fcd44d9288d9", "fusion_lat": 0.0, "rental_uris": {"ios": "https://dc.lft.to/lastmile_qr_scan", "android": "https://dc.lft.to/lastmile_qr_scan"}, "lon": -77.03063833333333, "type": "electric_scooter"}, {"bike_id": "7f07dc6613a09f158f34d099b3e35f46", "is_reserved": 0, "fusion_lon": 0.0, "lat": 38.906020166666664, "is_disabled": 0, "name": "7f07dc6613a09f158f34d099b3e35f46", "fusion_lat": 0.0, "rental_uris": {"ios": "https://dc.lft.to/lastmile_qr_scan", "android": "https://dc.lft.to/lastmile_qr_scan"}, "lon": -77.01324866666667, "type": "electric_scooter"}, {"bike_id": "4cb06d60033390a3ac481430a9b75151", "is_reserved": 0, "fusion_lon": 0.0, "lat": 38.904765833333336, "is_disabled": 0, "name": "4cb06d60033390a3ac481430a9b75151", "fusion_lat": 0.0, "rental_uris": {"ios": "https://dc.lft.to/lastmile_qr_scan", "android": "https://dc.lft.to/lastmile_qr_scan"}, "lon": -77.043585, "type": "electric_scooter"}, {"bike_id": "25f2ec8d3dc59f35b03945b9915618c9", "is_reserved": 0, "fusion_lon": 0.0, "lat": 38.92645133333333, "is_disabled": 0, "name": "25f2ec8d3dc59f35b03945b9915618c9", "fusion_lat": 0.0, "rental_uris": {"ios": "https://dc.lft.to/lastmile_qr_scan", "android": "https://dc.lft.to/lastmile_qr_scan"}, "lon": -77.0384345, "type": "electric_scooter"}, {"bike_id": "ff642d2c1be8e4561b6b20fa56fe880f", "is_reserved": 0, "fusion_lon": 0.0, "lat": 38.89194616666666, "is_disabled": 0, "name": "ff642d2c1be8e4561b6b20fa56fe880f", "fusion_lat": 0.0, "rental_uris": {"ios": "https://dc.lft.to/lastmile_qr_scan", "android": "https://dc.lft.to/lastmile_qr_scan"}, "lon": -77.02981766666667, "type": "electric_scooter"}, {"bike_id": "227b524c644dfce68a8d502d206d222d", "is_reserved": 0, "fusion_lon": 0.0, "lat": 38.88997616666666, "is_disabled": 0, "name": "227b524c644dfce68a8d502d206d222d", "fusion_lat": 0.0, "rental_uris": {"ios": "https://dc.lft.to/lastmile_qr_scan", "android": "https://dc.lft.to/lastmile_qr_scan"}, "lon": -77.048975, "type": "electric_scooter"}, {"bike_id": "13aa802101b833d0dd68b30416285ba1", "is_reserved": 0, "fusion_lon": 0.0, "lat": 38.8981955, "is_disabled": 0, "name": "13aa802101b833d0dd68b30416285ba1", "fusion_lat": 0.0, "rental_uris": {"ios": "https://dc.lft.to/lastmile_qr_scan", "android": "https://dc.lft.to/lastmile_qr_scan"}, "lon": -77.03298466666666, "type": "electric_scooter"}, {"bike_id": "ecf8260e0e97e1877cf2201ad0242ad7", "is_reserved": 0, "fusion_lon": 0.0, "lat": 38.893922333333336, "is_disabled": 0, "name": "ecf8260e0e97e1877cf2201ad0242ad7", "fusion_lat": 0.0, "rental_uris": {"ios": "https://dc.lft.to/lastmile_qr_scan", "android": "https://dc.lft.to/lastmile_qr_scan"}, "lon": -77.0225745, "type": "electric_bike"}, {"bike_id": "6698d615a47205dedadc1bb44eac4cd4", "is_reserved": 0, "fusion_lon": 0.0, "lat": 38.932530666666665, "is_disabled": 0, "name": "6698d615a47205dedadc1bb44eac4cd4", "fusion_lat": 0.0, "rental_uris": {"ios": "https://dc.lft.to/lastmile_qr_scan", "android": "https://dc.lft.to/lastmile_qr_scan"}, "lon": -77.03268983333334, "type": "electric_scooter"}, {"bike_id": "6a3ed28469ef716797035d9b104763a2", "is_reserved": 0, "fusion_lon": 0.0, "lat": 38.92239883333333, "is_disabled": 0, "name": "6a3ed28469ef716797035d9b104763a2", "fusion_lat": 0.0, "rental_uris": {"ios": "https://dc.lft.to/lastmile_qr_scan", "android": "https://dc.lft.to/lastmile_qr_scan"}, "lon": -77.01005816666667, "type": "electric_scooter"}, {"bike_id": "117c52c9609a73f8fa6edce91e5af4b1", "is_reserved": 0, "fusion_lon": 0.0, "lat": 38.90268833333333, "is_disabled": 0, "name": "117c52c9609a73f8fa6edce91e5af4b1", "fusion_lat": 0.0, "rental_uris": {"ios": "https://dc.lft.to/lastmile_qr_scan", "android": "https://dc.lft.to/lastmile_qr_scan"}, "lon": -77.05920616666667, "type": "electric_scooter"}, {"bike_id": "cbba36b0c5a2c359a755a46017bdb3af", "is_reserved": 0, "fusion_lon": 0.0, "lat": 38.90685666666667, "is_disabled": 0, "name": "cbba36b0c5a2c359a755a46017bdb3af", "fusion_lat": 0.0, "rental_uris": {"ios": "https://dc.lft.to/lastmile_qr_scan", "android": "https://dc.lft.to/lastmile_qr_scan"}, "lon": -77.0134725, "type": "electric_scooter"}, {"bike_id": "8f0ec4603a730b4aef1eb4b0ca632e1f", "is_reserved": 0, "fusion_lon": 0.0, "lat": 38.907210666666664, "is_disabled": 0, "name": "8f0ec4603a730b4aef1eb4b0ca632e1f", "fusion_lat": 0.0, "rental_uris": {"ios": "https://dc.lft.to/lastmile_qr_scan", "android": "https://dc.lft.to/lastmile_qr_scan"}, "lon": -77.04344033333334, "type": "electric_scooter"}, {"bike_id": "7a1df6024f9c866f75d3cec2c7fe4998", "is_reserved": 0, "fusion_lon": 0.0, "lat": 38.9290575, "is_disabled": 0, "name": "7a1df6024f9c866f75d3cec2c7fe4998", "fusion_lat": 0.0, "rental_uris": {"ios": "https://dc.lft.to/lastmile_qr_scan", "android": "https://dc.lft.to/lastmile_qr_scan"}, "lon": -77.03193266666666, "type": "electric_scooter"}, {"bike_id": "ccdd3a5705f06449fb6c3705fbcc9814", "is_reserved": 0, "fusion_lon": 0.0, "lat": 38.869075333333335, "is_disabled": 0, "name": "ccdd3a5705f06449fb6c3705fbcc9814", "fusion_lat": 0.0, "rental_uris": {"ios": "https://dc.lft.to/lastmile_qr_scan", "android": "https://dc.lft.to/lastmile_qr_scan"}, "lon": -77.13181633333333, "type": "electric_bike"}, {"bike_id": "eb196bd4cc57c10220a96c5d4ccf4760", "is_reserved": 0, "fusion_lon": 0.0, "lat": 38.91807466666667, "is_disabled": 0, "name": "eb196bd4cc57c10220a96c5d4ccf4760", "fusion_lat": 0.0, "rental_uris": {"ios": "https://dc.lft.to/lastmile_qr_scan", "android": "https://dc.lft.to/lastmile_qr_scan"}, "lon": -77.03186916666667, "type": "electric_scooter"}, {"bike_id": "3e8703460d88aec53fc3e5b2fd05c087", "is_reserved": 0, "fusion_lon": 0.0, "lat": 38.89192533333333, "is_disabled": 0, "name": "3e8703460d88aec53fc3e5b2fd05c087", "fusion_lat": 0.0, "rental_uris": {"ios": "https://dc.lft.to/lastmile_qr_scan", "android": "https://dc.lft.to/lastmile_qr_scan"}, "lon": -77.00243, "type": "electric_bike"}, {"bike_id": "ec63e9eaacb17b6446b98511d347b05e", "is_reserved": 0, "fusion_lon": 0.0, "lat": 38.91679116666667, "is_disabled": 0, "name": "ec63e9eaacb17b6446b98511d347b05e", "fusion_lat": 0.0, "rental_uris": {"ios": "https://dc.lft.to/lastmile_qr_scan", "android": "https://dc.lft.to/lastmile_qr_scan"}, "lon": -77.02969716666666, "type": "electric_scooter"}, {"bike_id": "d4a53ec48b83804a61c55ddb372e173a", "is_reserved": 0, "fusion_lon": 0.0, "lat": 38.838525, "is_disabled": 0, "name": "d4a53ec48b83804a61c55ddb372e173a", "fusion_lat": 0.0, "rental_uris": {"ios": "https://dc.lft.to/lastmile_qr_scan", "android": "https://dc.lft.to/lastmile_qr_scan"}, "lon": -77.0885975, "type": "electric_bike"}, {"bike_id": "78d23f0d53759dc3b6115f8dbaca3f29", "is_reserved": 0, "fusion_lon": 0.0, "lat": 38.9040345, "is_disabled": 0, "name": "78d23f0d53759dc3b6115f8dbaca3f29", "fusion_lat": 0.0, "rental_uris": {"ios": "https://dc.lft.to/lastmile_qr_scan", "android": "https://dc.lft.to/lastmile_qr_scan"}, "lon": -77.02964683333333, "type": "electric_scooter"}, {"bike_id": "cabb88873ef4f3eef4a0d4a3a2b275bb", "is_reserved": 0, "fusion_lon": 0.0, "lat": 38.92297683333334, "is_disabled": 0, "name": "cabb88873ef4f3eef4a0d4a3a2b275bb", "fusion_lat": 0.0, "rental_uris": {"ios": "https://dc.lft.to/lastmile_qr_scan", "android": "https://dc.lft.to/lastmile_qr_scan"}, "lon": -77.04147433333333, "type": "electric_scooter"}, {"bike_id": "94a4e9b2f21d6c475ad709b9583ac1ed", "is_reserved": 0, "fusion_lon": 0.0, "lat": 38.9170755, "is_disabled": 0, "name": "94a4e9b2f21d6c475ad709b9583ac1ed", "fusion_lat": 0.0, "rental_uris": {"ios": "https://dc.lft.to/lastmile_qr_scan", "android": "https://dc.lft.to/lastmile_qr_scan"}, "lon": -77.03232166666666, "type": "electric_scooter"}, {"bike_id": "6548b465026d9273a54f2a265f70f515", "is_reserved": 0, "fusion_lon": 0.0, "lat": 38.903202666666665, "is_disabled": 0, "name": "6548b465026d9273a54f2a265f70f515", "fusion_lat": 0.0, "rental_uris": {"ios": "https://dc.lft.to/lastmile_qr_scan", "android": "https://dc.lft.to/lastmile_qr_scan"}, "lon": -77.03855183333333, "type": "electric_scooter"}, {"bike_id": "4ea045e32f6d9ddd07e8e3bd7402c434", "is_reserved": 0, "fusion_lon": 0.0, "lat": 38.900079166666664, "is_disabled": 0, "name": "4ea045e32f6d9ddd07e8e3bd7402c434", "fusion_lat": 0.0, "rental_uris": {"ios": "https://dc.lft.to/lastmile_qr_scan", "android": "https://dc.lft.to/lastmile_qr_scan"}, "lon": -76.99778733333333, "type": "electric_scooter"}, {"bike_id": "a0909774523ba1c17263a592cdb3ebde", "is_reserved": 0, "fusion_lon": 0.0, "lat": 38.91106933333333, "is_disabled": 0, "name": "a0909774523ba1c17263a592cdb3ebde", "fusion_lat": 0.0, "rental_uris": {"ios": "https://dc.lft.to/lastmile_qr_scan", "android": "https://dc.lft.to/lastmile_qr_scan"}, "lon": -77.0021625, "type": "electric_scooter"}, {"bike_id": "c1a1d9d15573529d27f18dc974415a48", "is_reserved": 0, "fusion_lon": 0.0, "lat": 38.973237833333336, "is_disabled": 0, "name": "c1a1d9d15573529d27f18dc974415a48", "fusion_lat": 0.0, "rental_uris": {"ios": "https://dc.lft.to/lastmile_qr_scan", "android": "https://dc.lft.to/lastmile_qr_scan"}, "lon": -77.02146066666667, "type": "electric_bike"}, {"bike_id": "fcafedfeb487e6841ecf0325774232d3", "is_reserved": 0, "fusion_lon": 0.0, "lat": 38.90481, "is_disabled": 0, "name": "fcafedfeb487e6841ecf0325774232d3", "fusion_lat": 0.0, "rental_uris": {"ios": "https://dc.lft.to/lastmile_qr_scan", "android": "https://dc.lft.to/lastmile_qr_scan"}, "lon": -77.00729733333333, "type": "electric_scooter"}, {"bike_id": "130abe8c9bececd9cdfe2a26fa11b6c2", "is_reserved": 0, "fusion_lon": 0.0, "lat": 38.9062355, "is_disabled": 0, "name": "130abe8c9bececd9cdfe2a26fa11b6c2", "fusion_lat": 0.0, "rental_uris": {"ios": "https://dc.lft.to/lastmile_qr_scan", "android": "https://dc.lft.to/lastmile_qr_scan"}, "lon": -76.986075, "type": "electric_bike"}, {"bike_id": "779ce5c92ca2bf80af91de7787325f32", "is_reserved": 0, "fusion_lon": 0.0, "lat": 38.9047335, "is_disabled": 0, "name": "779ce5c92ca2bf80af91de7787325f32", "fusion_lat": 0.0, "rental_uris": {"ios": "https://dc.lft.to/lastmile_qr_scan", "android": "https://dc.lft.to/lastmile_qr_scan"}, "lon": -77.06015883333333, "type": "electric_scooter"}, {"bike_id": "81c5a211a6d46d3e6ce566e8b2300965", "is_reserved": 0, "fusion_lon": 0.0, "lat": 38.900307166666664, "is_disabled": 0, "name": "81c5a211a6d46d3e6ce566e8b2300965", "fusion_lat": 0.0, "rental_uris": {"ios": "https://dc.lft.to/lastmile_qr_scan", "android": "https://dc.lft.to/lastmile_qr_scan"}, "lon": -76.987546, "type": "electric_scooter"}, {"bike_id": "5dbc4e206f5942bb735601927b0161b1", "is_reserved": 0, "fusion_lon": 0.0, "lat": 38.921083333333335, "is_disabled": 0, "name": "5dbc4e206f5942bb735601927b0161b1", "fusion_lat": 0.0, "rental_uris": {"ios": "https://dc.lft.to/lastmile_qr_scan", "android": "https://dc.lft.to/lastmile_qr_scan"}, "lon": -77.04222366666667, "type": "electric_scooter"}, {"bike_id": "a7f9b6a04602f2d3580dc300e2c12664", "is_reserved": 0, "fusion_lon": 0.0, "lat": 38.901398666666665, "is_disabled": 0, "name": "a7f9b6a04602f2d3580dc300e2c12664", "fusion_lat": 0.0, "rental_uris": {"ios": "https://dc.lft.to/lastmile_qr_scan", "android": "https://dc.lft.to/lastmile_qr_scan"}, "lon": -76.9979815, "type": "electric_scooter"}, {"bike_id": "0f30a9e314ab7916180d7a2c18ca07d0", "is_reserved": 0, "fusion_lon": 0.0, "lat": 38.998253166666665, "is_disabled": 0, "name": "0f30a9e314ab7916180d7a2c18ca07d0", "fusion_lat": 0.0, "rental_uris": {"ios": "https://dc.lft.to/lastmile_qr_scan", "android": "https://dc.lft.to/lastmile_qr_scan"}, "lon": -76.883754, "type": "electric_bike"}, {"bike_id": "59d63fa09061ff116a2c7190085e5771", "is_reserved": 0, "fusion_lon": 0.0, "lat": 38.931077333333334, "is_disabled": 0, "name": "59d63fa09061ff116a2c7190085e5771", "fusion_lat": 0.0, "rental_uris": {"ios": "https://dc.lft.to/lastmile_qr_scan", "android": "https://dc.lft.to/lastmile_qr_scan"}, "lon": -77.0384535, "type": "electric_scooter"}, {"bike_id": "5d2bc3b732587b70f829b3416d6da3f4", "is_reserved": 0, "fusion_lon": 0.0, "lat": 38.90766633333333, "is_disabled": 0, "name": "5d2bc3b732587b70f829b3416d6da3f4", "fusion_lat": 0.0, "rental_uris": {"ios": "https://dc.lft.to/lastmile_qr_scan", "android": "https://dc.lft.to/lastmile_qr_scan"}, "lon": -77.06916033333333, "type": "electric_scooter"}, {"bike_id": "85236947ebdc756d45b3dbec5998208a", "is_reserved": 0, "fusion_lon": 0.0, "lat": 38.916459, "is_disabled": 0, "name": "85236947ebdc756d45b3dbec5998208a", "fusion_lat": 0.0, "rental_uris": {"ios": "https://dc.lft.to/lastmile_qr_scan", "android": "https://dc.lft.to/lastmile_qr_scan"}, "lon": -77.03216833333333, "type": "electric_scooter"}, {"bike_id": "ade28f88ce6a88ca4583b0a8c492008e", "is_reserved": 0, "fusion_lon": 0.0, "lat": 39.030437166666665, "is_disabled": 0, "name": "ade28f88ce6a88ca4583b0a8c492008e", "fusion_lat": 0.0, "rental_uris": {"ios": "https://dc.lft.to/lastmile_qr_scan", "android": "https://dc.lft.to/lastmile_qr_scan"}, "lon": -77.0948015, "type": "electric_bike"}, {"bike_id": "788afb569da5d35c0417cc8138ed6a66", "is_reserved": 0, "fusion_lon": 0.0, "lat": 38.951799666666666, "is_disabled": 0, "name": "788afb569da5d35c0417cc8138ed6a66", "fusion_lat": 0.0, "rental_uris": {"ios": "https://dc.lft.to/lastmile_qr_scan", "android": "https://dc.lft.to/lastmile_qr_scan"}, "lon": -76.93547766666667, "type": "electric_bike"}, {"bike_id": "8afc3f11466d050b9c7c22cb58e76268", "is_reserved": 0, "fusion_lon": 0.0, "lat": 38.917056333333335, "is_disabled": 0, "name": "8afc3f11466d050b9c7c22cb58e76268", "fusion_lat": 0.0, "rental_uris": {"ios": "https://dc.lft.to/lastmile_qr_scan", "android": "https://dc.lft.to/lastmile_qr_scan"}, "lon": -77.0288835, "type": "electric_scooter"}, {"bike_id": "53fb6707b48c5852bab145d7ea02707d", "is_reserved": 0, "fusion_lon": 0.0, "lat": 38.917056333333335, "is_disabled": 0, "name": "53fb6707b48c5852bab145d7ea02707d", "fusion_lat": 0.0, "rental_uris": {"ios": "https://dc.lft.to/lastmile_qr_scan", "android": "https://dc.lft.to/lastmile_qr_scan"}, "lon": -77.00115183333334, "type": "electric_scooter"}, {"bike_id": "e732afb5b700cd22adad049af613bdd6", "is_reserved": 0, "fusion_lon": 0.0, "lat": 38.91193666666667, "is_disabled": 0, "name": "e732afb5b700cd22adad049af613bdd6", "fusion_lat": 0.0, "rental_uris": {"ios": "https://dc.lft.to/lastmile_qr_scan", "android": "https://dc.lft.to/lastmile_qr_scan"}, "lon": -77.060851, "type": "electric_scooter"}, {"bike_id": "e155dd7b20c81fa769cd0c810f6cae35", "is_reserved": 0, "fusion_lon": 0.0, "lat": 38.90761533333333, "is_disabled": 0, "name": "e155dd7b20c81fa769cd0c810f6cae35", "fusion_lat": 0.0, "rental_uris": {"ios": "https://dc.lft.to/lastmile_qr_scan", "android": "https://dc.lft.to/lastmile_qr_scan"}, "lon": -77.0318995, "type": "electric_scooter"}, {"bike_id": "9257998850da811df787ae8469ad79ea", "is_reserved": 0, "fusion_lon": 0.0, "lat": 38.927118666666665, "is_disabled": 0, "name": "9257998850da811df787ae8469ad79ea", "fusion_lat": 0.0, "rental_uris": {"ios": "https://dc.lft.to/lastmile_qr_scan", "android": "https://dc.lft.to/lastmile_qr_scan"}, "lon": -77.03850466666667, "type": "electric_scooter"}, {"bike_id": "7d358a110b29a8f04195bb4c88f575bd", "is_reserved": 0, "fusion_lon": 0.0, "lat": 38.917653666666666, "is_disabled": 0, "name": "7d358a110b29a8f04195bb4c88f575bd", "fusion_lat": 0.0, "rental_uris": {"ios": "https://dc.lft.to/lastmile_qr_scan", "android": "https://dc.lft.to/lastmile_qr_scan"}, "lon": -77.02323433333333, "type": "electric_scooter"}, {"bike_id": "1d02c94d0dd738971c4f6db5fdb10934", "is_reserved": 0, "fusion_lon": 0.0, "lat": 38.95644083333333, "is_disabled": 0, "name": "1d02c94d0dd738971c4f6db5fdb10934", "fusion_lat": 0.0, "rental_uris": {"ios": "https://dc.lft.to/lastmile_qr_scan", "android": "https://dc.lft.to/lastmile_qr_scan"}, "lon": -76.9974485, "type": "electric_bike"}, {"bike_id": "cc482287e5b2c9acd6dc39f0e16160d4", "is_reserved": 0, "fusion_lon": 0.0, "lat": 38.897279166666664, "is_disabled": 0, "name": "cc482287e5b2c9acd6dc39f0e16160d4", "fusion_lat": 0.0, "rental_uris": {"ios": "https://dc.lft.to/lastmile_qr_scan", "android": "https://dc.lft.to/lastmile_qr_scan"}, "lon": -77.02327866666667, "type": "electric_scooter"}, {"bike_id": "d5eb323603537474fc465ed4e856b977", "is_reserved": 0, "fusion_lon": 0.0, "lat": 38.904467833333335, "is_disabled": 0, "name": "d5eb323603537474fc465ed4e856b977", "fusion_lat": 0.0, "rental_uris": {"ios": "https://dc.lft.to/lastmile_qr_scan", "android": "https://dc.lft.to/lastmile_qr_scan"}, "lon": -77.02901983333334, "type": "electric_scooter"}, {"bike_id": "9a87a1386bbcc9722590449894234aee", "is_reserved": 0, "fusion_lon": 0.0, "lat": 38.903594, "is_disabled": 0, "name": "9a87a1386bbcc9722590449894234aee", "fusion_lat": 0.0, "rental_uris": {"ios": "https://dc.lft.to/lastmile_qr_scan", "android": "https://dc.lft.to/lastmile_qr_scan"}, "lon": -77.0176595, "type": "electric_scooter"}, {"bike_id": "7f250019520ba5e02de77c9a21773a11", "is_reserved": 0, "fusion_lon": 0.0, "lat": 38.896207833333335, "is_disabled": 0, "name": "7f250019520ba5e02de77c9a21773a11", "fusion_lat": 0.0, "rental_uris": {"ios": "https://dc.lft.to/lastmile_qr_scan", "android": "https://dc.lft.to/lastmile_qr_scan"}, "lon": -77.00048133333334, "type": "electric_bike"}, {"bike_id": "26abb27a1c17aaeb482cfd6216f7bf81", "is_reserved": 0, "fusion_lon": 0.0, "lat": 38.87733683333333, "is_disabled": 0, "name": "26abb27a1c17aaeb482cfd6216f7bf81", "fusion_lat": 0.0, "rental_uris": {"ios": "https://dc.lft.to/lastmile_qr_scan", "android": "https://dc.lft.to/lastmile_qr_scan"}, "lon": -76.97281916666667, "type": "electric_scooter"}, {"bike_id": "fdc03355e1601b4ef18660e0411a9745", "is_reserved": 0, "fusion_lon": 0.0, "lat": 38.93534783333333, "is_disabled": 0, "name": "fdc03355e1601b4ef18660e0411a9745", "fusion_lat": 0.0, "rental_uris": {"ios": "https://dc.lft.to/lastmile_qr_scan", "android": "https://dc.lft.to/lastmile_qr_scan"}, "lon": -77.02428066666667, "type": "electric_scooter"}, {"bike_id": "e8cecc443901952a853e9553d54891af", "is_reserved": 0, "fusion_lon": 0.0, "lat": 38.9397365, "is_disabled": 0, "name": "e8cecc443901952a853e9553d54891af", "fusion_lat": 0.0, "rental_uris": {"ios": "https://dc.lft.to/lastmile_qr_scan", "android": "https://dc.lft.to/lastmile_qr_scan"}, "lon": -77.03588733333333, "type": "electric_scooter"}, {"bike_id": "b273213e2925c30411caa60d18824357", "is_reserved": 0, "fusion_lon": 0.0, "lat": 38.8620055, "is_disabled": 0, "name": "b273213e2925c30411caa60d18824357", "fusion_lat": 0.0, "rental_uris": {"ios": "https://dc.lft.to/lastmile_qr_scan", "android": "https://dc.lft.to/lastmile_qr_scan"}, "lon": -76.99464083333334, "type": "electric_scooter"}, {"bike_id": "7cde085e307ccaa73237baa3c3910e59", "is_reserved": 0, "fusion_lon": 0.0, "lat": 38.915545333333334, "is_disabled": 0, "name": "7cde085e307ccaa73237baa3c3910e59", "fusion_lat": 0.0, "rental_uris": {"ios": "https://dc.lft.to/lastmile_qr_scan", "android": "https://dc.lft.to/lastmile_qr_scan"}, "lon": -77.03868833333334, "type": "electric_scooter"}, {"bike_id": "0f8f14fc55dca626a2f14dba9d80cae3", "is_reserved": 0, "fusion_lon": 0.0, "lat": 38.894778333333335, "is_disabled": 0, "name": "0f8f14fc55dca626a2f14dba9d80cae3", "fusion_lat": 0.0, "rental_uris": {"ios": "https://dc.lft.to/lastmile_qr_scan", "android": "https://dc.lft.to/lastmile_qr_scan"}, "lon": -77.0500345, "type": "electric_scooter"}, {"bike_id": "7d71d64003295f7a9db5ef58a7196933", "is_reserved": 0, "fusion_lon": 0.0, "lat": 38.900285333333336, "is_disabled": 0, "name": "7d71d64003295f7a9db5ef58a7196933", "fusion_lat": 0.0, "rental_uris": {"ios": "https://dc.lft.to/lastmile_qr_scan", "android": "https://dc.lft.to/lastmile_qr_scan"}, "lon": -77.011572, "type": "electric_scooter"}, {"bike_id": "c9877b81d9fe72ee789815155165c752", "is_reserved": 0, "fusion_lon": 0.0, "lat": 38.902664, "is_disabled": 0, "name": "c9877b81d9fe72ee789815155165c752", "fusion_lat": 0.0, "rental_uris": {"ios": "https://dc.lft.to/lastmile_qr_scan", "android": "https://dc.lft.to/lastmile_qr_scan"}, "lon": -77.01653533333334, "type": "electric_bike"}, {"bike_id": "38dde5c4d84901fe6de4079b4f33a198", "is_reserved": 0, "fusion_lon": 0.0, "lat": 38.90904616666667, "is_disabled": 0, "name": "38dde5c4d84901fe6de4079b4f33a198", "fusion_lat": 0.0, "rental_uris": {"ios": "https://dc.lft.to/lastmile_qr_scan", "android": "https://dc.lft.to/lastmile_qr_scan"}, "lon": -77.04404483333333, "type": "electric_scooter"}, {"bike_id": "63c055f6c2ac88b4d08de74849713ecd", "is_reserved": 0, "fusion_lon": 0.0, "lat": 38.93500266666667, "is_disabled": 0, "name": "63c055f6c2ac88b4d08de74849713ecd", "fusion_lat": 0.0, "rental_uris": {"ios": "https://dc.lft.to/lastmile_qr_scan", "android": "https://dc.lft.to/lastmile_qr_scan"}, "lon": -77.02720166666667, "type": "electric_scooter"}, {"bike_id": "bf6f8ecad50fa535b5e7fac820d898ca", "is_reserved": 0, "fusion_lon": 0.0, "lat": 38.918085, "is_disabled": 0, "name": "bf6f8ecad50fa535b5e7fac820d898ca", "fusion_lat": 0.0, "rental_uris": {"ios": "https://dc.lft.to/lastmile_qr_scan", "android": "https://dc.lft.to/lastmile_qr_scan"}, "lon": -77.03440416666666, "type": "electric_scooter"}, {"bike_id": "5866dcc82805151a83ffd7bb16723096", "is_reserved": 0, "fusion_lon": 0.0, "lat": 38.92648666666667, "is_disabled": 0, "name": "5866dcc82805151a83ffd7bb16723096", "fusion_lat": 0.0, "rental_uris": {"ios": "https://dc.lft.to/lastmile_qr_scan", "android": "https://dc.lft.to/lastmile_qr_scan"}, "lon": -77.03714716666667, "type": "electric_scooter"}, {"bike_id": "81fe15bcec45990c32b38a9dcae4b9f8", "is_reserved": 0, "fusion_lon": 0.0, "lat": 38.883131666666664, "is_disabled": 0, "name": "81fe15bcec45990c32b38a9dcae4b9f8", "fusion_lat": 0.0, "rental_uris": {"ios": "https://dc.lft.to/lastmile_qr_scan", "android": "https://dc.lft.to/lastmile_qr_scan"}, "lon": -77.00599216666667, "type": "electric_scooter"}, {"bike_id": "e9bfc55df67d74ac2052aa1d1998d578", "is_reserved": 0, "fusion_lon": 0.0, "lat": 38.88025366666667, "is_disabled": 0, "name": "e9bfc55df67d74ac2052aa1d1998d578", "fusion_lat": 0.0, "rental_uris": {"ios": "https://dc.lft.to/lastmile_qr_scan", "android": "https://dc.lft.to/lastmile_qr_scan"}, "lon": -76.98834316666667, "type": "electric_scooter"}, {"bike_id": "3a8190b7d21d2405452a010de07c5c7b", "is_reserved": 0, "fusion_lon": 0.0, "lat": 38.884912166666666, "is_disabled": 0, "name": "3a8190b7d21d2405452a010de07c5c7b", "fusion_lat": 0.0, "rental_uris": {"ios": "https://dc.lft.to/lastmile_qr_scan", "android": "https://dc.lft.to/lastmile_qr_scan"}, "lon": -77.00724216666667, "type": "electric_scooter"}, {"bike_id": "9663bba4bd1ec55faee03e1af6832c59", "is_reserved": 0, "fusion_lon": 0.0, "lat": 38.93400483333333, "is_disabled": 0, "name": "9663bba4bd1ec55faee03e1af6832c59", "fusion_lat": 0.0, "rental_uris": {"ios": "https://dc.lft.to/lastmile_qr_scan", "android": "https://dc.lft.to/lastmile_qr_scan"}, "lon": -77.038883, "type": "electric_scooter"}, {"bike_id": "e080e237f3fd87c91118268679b4c8ef", "is_reserved": 0, "fusion_lon": 0.0, "lat": 38.91090966666667, "is_disabled": 0, "name": "e080e237f3fd87c91118268679b4c8ef", "fusion_lat": 0.0, "rental_uris": {"ios": "https://dc.lft.to/lastmile_qr_scan", "android": "https://dc.lft.to/lastmile_qr_scan"}, "lon": -77.038565, "type": "electric_scooter"}, {"bike_id": "784fc0fa299ca5b1925cf4463f25d37c", "is_reserved": 0, "fusion_lon": 0.0, "lat": 38.959089, "is_disabled": 0, "name": "784fc0fa299ca5b1925cf4463f25d37c", "fusion_lat": 0.0, "rental_uris": {"ios": "https://dc.lft.to/lastmile_qr_scan", "android": "https://dc.lft.to/lastmile_qr_scan"}, "lon": -77.08080283333334, "type": "electric_scooter"}, {"bike_id": "906975aed7d673fc9a947cd9ca4e7e3b", "is_reserved": 0, "fusion_lon": 0.0, "lat": 38.896523, "is_disabled": 0, "name": "906975aed7d673fc9a947cd9ca4e7e3b", "fusion_lat": 0.0, "rental_uris": {"ios": "https://dc.lft.to/lastmile_qr_scan", "android": "https://dc.lft.to/lastmile_qr_scan"}, "lon": -77.03230466666666, "type": "electric_scooter"}, {"bike_id": "5227d0242a2887da90ed5fc739a3455a", "is_reserved": 0, "fusion_lon": 0.0, "lat": 38.8660795, "is_disabled": 0, "name": "5227d0242a2887da90ed5fc739a3455a", "fusion_lat": 0.0, "rental_uris": {"ios": "https://dc.lft.to/lastmile_qr_scan", "android": "https://dc.lft.to/lastmile_qr_scan"}, "lon": -76.989194, "type": "electric_scooter"}, {"bike_id": "476899aca1faa3ab560b35b5cce65f04", "is_reserved": 0, "fusion_lon": 0.0, "lat": 38.900341166666664, "is_disabled": 0, "name": "476899aca1faa3ab560b35b5cce65f04", "fusion_lat": 0.0, "rental_uris": {"ios": "https://dc.lft.to/lastmile_qr_scan", "android": "https://dc.lft.to/lastmile_qr_scan"}, "lon": -77.04686033333333, "type": "electric_scooter"}, {"bike_id": "c59089df434e3b974c0c66c095175046", "is_reserved": 0, "fusion_lon": 0.0, "lat": 38.92707766666667, "is_disabled": 0, "name": "c59089df434e3b974c0c66c095175046", "fusion_lat": 0.0, "rental_uris": {"ios": "https://dc.lft.to/lastmile_qr_scan", "android": "https://dc.lft.to/lastmile_qr_scan"}, "lon": -77.02093383333333, "type": "electric_scooter"}, {"bike_id": "e6e1436fc6f3cf2d535ff9fafe1c9831", "is_reserved": 0, "fusion_lon": 0.0, "lat": 38.90673366666667, "is_disabled": 0, "name": "e6e1436fc6f3cf2d535ff9fafe1c9831", "fusion_lat": 0.0, "rental_uris": {"ios": "https://dc.lft.to/lastmile_qr_scan", "android": "https://dc.lft.to/lastmile_qr_scan"}, "lon": -77.03477916666667, "type": "electric_scooter"}, {"bike_id": "3dbdeadaf4a54aba163653d16540917d", "is_reserved": 0, "fusion_lon": 0.0, "lat": 38.903989833333334, "is_disabled": 0, "name": "3dbdeadaf4a54aba163653d16540917d", "fusion_lat": 0.0, "rental_uris": {"ios": "https://dc.lft.to/lastmile_qr_scan", "android": "https://dc.lft.to/lastmile_qr_scan"}, "lon": -77.0433885, "type": "electric_scooter"}, {"bike_id": "bd07d1a1ac56416b5362f9bfa5a803be", "is_reserved": 0, "fusion_lon": 0.0, "lat": 38.905938, "is_disabled": 0, "name": "bd07d1a1ac56416b5362f9bfa5a803be", "fusion_lat": 0.0, "rental_uris": {"ios": "https://dc.lft.to/lastmile_qr_scan", "android": "https://dc.lft.to/lastmile_qr_scan"}, "lon": -77.00283216666666, "type": "electric_scooter"}, {"bike_id": "ff780e1e68ff234f5bdadc09409dba8f", "is_reserved": 0, "fusion_lon": 0.0, "lat": 38.92098283333333, "is_disabled": 0, "name": "ff780e1e68ff234f5bdadc09409dba8f", "fusion_lat": 0.0, "rental_uris": {"ios": "https://dc.lft.to/lastmile_qr_scan", "android": "https://dc.lft.to/lastmile_qr_scan"}, "lon": -77.03177683333334, "type": "electric_scooter"}, {"bike_id": "60a55fb6fa9775db10bda5416c8c3311", "is_reserved": 0, "fusion_lon": 0.0, "lat": 38.9057095, "is_disabled": 0, "name": "60a55fb6fa9775db10bda5416c8c3311", "fusion_lat": 0.0, "rental_uris": {"ios": "https://dc.lft.to/lastmile_qr_scan", "android": "https://dc.lft.to/lastmile_qr_scan"}, "lon": -77.038652, "type": "electric_scooter"}, {"bike_id": "63cc4e88c5bac6c55c212b6c069b01dc", "is_reserved": 0, "fusion_lon": 0.0, "lat": 38.93091033333333, "is_disabled": 0, "name": "63cc4e88c5bac6c55c212b6c069b01dc", "fusion_lat": 0.0, "rental_uris": {"ios": "https://dc.lft.to/lastmile_qr_scan", "android": "https://dc.lft.to/lastmile_qr_scan"}, "lon": -77.02513233333333, "type": "electric_scooter"}, {"bike_id": "86c409317e87bb7b7beb2657f691425b", "is_reserved": 0, "fusion_lon": 0.0, "lat": 38.89724833333333, "is_disabled": 0, "name": "86c409317e87bb7b7beb2657f691425b", "fusion_lat": 0.0, "rental_uris": {"ios": "https://dc.lft.to/lastmile_qr_scan", "android": "https://dc.lft.to/lastmile_qr_scan"}, "lon": -77.05575016666667, "type": "electric_scooter"}, {"bike_id": "754b0b94680b204521294db3670fd37e", "is_reserved": 0, "fusion_lon": 0.0, "lat": 38.9038125, "is_disabled": 0, "name": "754b0b94680b204521294db3670fd37e", "fusion_lat": 0.0, "rental_uris": {"ios": "https://dc.lft.to/lastmile_qr_scan", "android": "https://dc.lft.to/lastmile_qr_scan"}, "lon": -77.04478833333333, "type": "electric_scooter"}, {"bike_id": "94c17fad37ec05c1c03e2e4c504d9116", "is_reserved": 0, "fusion_lon": 0.0, "lat": 38.949675166666665, "is_disabled": 0, "name": "94c17fad37ec05c1c03e2e4c504d9116", "fusion_lat": 0.0, "rental_uris": {"ios": "https://dc.lft.to/lastmile_qr_scan", "android": "https://dc.lft.to/lastmile_qr_scan"}, "lon": -76.9728785, "type": "electric_bike"}, {"bike_id": "b14ac1a0c056da7458cdbdda02ec8ffa", "is_reserved": 0, "fusion_lon": 0.0, "lat": 38.919478, "is_disabled": 0, "name": "b14ac1a0c056da7458cdbdda02ec8ffa", "fusion_lat": 0.0, "rental_uris": {"ios": "https://dc.lft.to/lastmile_qr_scan", "android": "https://dc.lft.to/lastmile_qr_scan"}, "lon": -77.03232133333333, "type": "electric_scooter"}, {"bike_id": "8e3e028e2d3a7db93fcbe2e53de41a43", "is_reserved": 0, "fusion_lon": 0.0, "lat": 38.88847966666667, "is_disabled": 0, "name": "8e3e028e2d3a7db93fcbe2e53de41a43", "fusion_lat": 0.0, "rental_uris": {"ios": "https://dc.lft.to/lastmile_qr_scan", "android": "https://dc.lft.to/lastmile_qr_scan"}, "lon": -76.92677333333333, "type": "electric_scooter"}, {"bike_id": "6a618a72b2cce547cee019bc4a5f118d", "is_reserved": 0, "fusion_lon": 0.0, "lat": 38.90529, "is_disabled": 0, "name": "6a618a72b2cce547cee019bc4a5f118d", "fusion_lat": 0.0, "rental_uris": {"ios": "https://dc.lft.to/lastmile_qr_scan", "android": "https://dc.lft.to/lastmile_qr_scan"}, "lon": -77.0513615, "type": "electric_scooter"}, {"bike_id": "fa53cab42fb25ebfee73147a403fbfc2", "is_reserved": 0, "fusion_lon": 0.0, "lat": 38.93435433333333, "is_disabled": 0, "name": "fa53cab42fb25ebfee73147a403fbfc2", "fusion_lat": 0.0, "rental_uris": {"ios": "https://dc.lft.to/lastmile_qr_scan", "android": "https://dc.lft.to/lastmile_qr_scan"}, "lon": -77.07260066666667, "type": "electric_scooter"}, {"bike_id": "acac82c65cf44b1e8a2f034cffbc06d9", "is_reserved": 0, "fusion_lon": 0.0, "lat": 38.86006016666666, "is_disabled": 0, "name": "acac82c65cf44b1e8a2f034cffbc06d9", "fusion_lat": 0.0, "rental_uris": {"ios": "https://dc.lft.to/lastmile_qr_scan", "android": "https://dc.lft.to/lastmile_qr_scan"}, "lon": -77.05775416666667, "type": "electric_bike"}, {"bike_id": "0b14d164291c328f7a4c2f97d78e6ab8", "is_reserved": 0, "fusion_lon": 0.0, "lat": 38.89685133333333, "is_disabled": 0, "name": "0b14d164291c328f7a4c2f97d78e6ab8", "fusion_lat": 0.0, "rental_uris": {"ios": "https://dc.lft.to/lastmile_qr_scan", "android": "https://dc.lft.to/lastmile_qr_scan"}, "lon": -76.99623, "type": "electric_scooter"}, {"bike_id": "b017ed51d81d644831dac0ceb5b2e3dc", "is_reserved": 0, "fusion_lon": 0.0, "lat": 38.90078166666667, "is_disabled": 0, "name": "b017ed51d81d644831dac0ceb5b2e3dc", "fusion_lat": 0.0, "rental_uris": {"ios": "https://dc.lft.to/lastmile_qr_scan", "android": "https://dc.lft.to/lastmile_qr_scan"}, "lon": -76.93872933333333, "type": "electric_scooter"}, {"bike_id": "0aa24e53a74727f5f2e54fff05d412d2", "is_reserved": 0, "fusion_lon": 0.0, "lat": 38.88751583333333, "is_disabled": 0, "name": "0aa24e53a74727f5f2e54fff05d412d2", "fusion_lat": 0.0, "rental_uris": {"ios": "https://dc.lft.to/lastmile_qr_scan", "android": "https://dc.lft.to/lastmile_qr_scan"}, "lon": -77.02975366666666, "type": "electric_scooter"}, {"bike_id": "17fd855189426bc9504efc0e329cced8", "is_reserved": 0, "fusion_lon": 0.0, "lat": 38.95647116666667, "is_disabled": 0, "name": "17fd855189426bc9504efc0e329cced8", "fusion_lat": 0.0, "rental_uris": {"ios": "https://dc.lft.to/lastmile_qr_scan", "android": "https://dc.lft.to/lastmile_qr_scan"}, "lon": -77.032956, "type": "electric_scooter"}, {"bike_id": "47c2a1aa97244035aac746f6e0ddc1da", "is_reserved": 0, "fusion_lon": 0.0, "lat": 38.827913, "is_disabled": 0, "name": "47c2a1aa97244035aac746f6e0ddc1da", "fusion_lat": 0.0, "rental_uris": {"ios": "https://dc.lft.to/lastmile_qr_scan", "android": "https://dc.lft.to/lastmile_qr_scan"}, "lon": -77.0091585, "type": "electric_bike"}, {"bike_id": "c3850f214cfddfd1091b70157ae9e81e", "is_reserved": 0, "fusion_lon": 0.0, "lat": 38.9052025, "is_disabled": 0, "name": "c3850f214cfddfd1091b70157ae9e81e", "fusion_lat": 0.0, "rental_uris": {"ios": "https://dc.lft.to/lastmile_qr_scan", "android": "https://dc.lft.to/lastmile_qr_scan"}, "lon": -77.06790233333334, "type": "electric_bike"}, {"bike_id": "b45f5ee6f9a183e9541346dffef7e14b", "is_reserved": 0, "fusion_lon": 0.0, "lat": 39.00382366666667, "is_disabled": 0, "name": "b45f5ee6f9a183e9541346dffef7e14b", "fusion_lat": 0.0, "rental_uris": {"ios": "https://dc.lft.to/lastmile_qr_scan", "android": "https://dc.lft.to/lastmile_qr_scan"}, "lon": -77.01293983333333, "type": "electric_bike"}, {"bike_id": "66123220726e4ba10665d5638ee7991d", "is_reserved": 0, "fusion_lon": 0.0, "lat": 38.8849035, "is_disabled": 0, "name": "66123220726e4ba10665d5638ee7991d", "fusion_lat": 0.0, "rental_uris": {"ios": "https://dc.lft.to/lastmile_qr_scan", "android": "https://dc.lft.to/lastmile_qr_scan"}, "lon": -77.00720516666667, "type": "electric_scooter"}, {"bike_id": "3812ff97a44d538785fb10e9541bdb5c", "is_reserved": 0, "fusion_lon": 0.0, "lat": 38.901057, "is_disabled": 0, "name": "3812ff97a44d538785fb10e9541bdb5c", "fusion_lat": 0.0, "rental_uris": {"ios": "https://dc.lft.to/lastmile_qr_scan", "android": "https://dc.lft.to/lastmile_qr_scan"}, "lon": -77.04782566666667, "type": "electric_scooter"}, {"bike_id": "79d4553069f2088b5a1e1d36cc52545f", "is_reserved": 0, "fusion_lon": 0.0, "lat": 38.91701783333333, "is_disabled": 0, "name": "79d4553069f2088b5a1e1d36cc52545f", "fusion_lat": 0.0, "rental_uris": {"ios": "https://dc.lft.to/lastmile_qr_scan", "android": "https://dc.lft.to/lastmile_qr_scan"}, "lon": -77.0290375, "type": "electric_scooter"}, {"bike_id": "819e961bb205718279db23abe2d1dcda", "is_reserved": 0, "fusion_lon": 0.0, "lat": 38.90557066666667, "is_disabled": 0, "name": "819e961bb205718279db23abe2d1dcda", "fusion_lat": 0.0, "rental_uris": {"ios": "https://dc.lft.to/lastmile_qr_scan", "android": "https://dc.lft.to/lastmile_qr_scan"}, "lon": -76.99794733333333, "type": "electric_bike"}, {"bike_id": "b4ed541e8d4859dcd374f426f907d7df", "is_reserved": 0, "fusion_lon": 0.0, "lat": 38.866988166666665, "is_disabled": 0, "name": "b4ed541e8d4859dcd374f426f907d7df", "fusion_lat": 0.0, "rental_uris": {"ios": "https://dc.lft.to/lastmile_qr_scan", "android": "https://dc.lft.to/lastmile_qr_scan"}, "lon": -76.987139, "type": "electric_scooter"}, {"bike_id": "6e70b58d2ea05b03b51f29cde5dd5983", "is_reserved": 0, "fusion_lon": 0.0, "lat": 38.90061216666667, "is_disabled": 0, "name": "6e70b58d2ea05b03b51f29cde5dd5983", "fusion_lat": 0.0, "rental_uris": {"ios": "https://dc.lft.to/lastmile_qr_scan", "android": "https://dc.lft.to/lastmile_qr_scan"}, "lon": -76.93388516666667, "type": "electric_scooter"}, {"bike_id": "335e42dc8e488144896b6bd972399187", "is_reserved": 0, "fusion_lon": 0.0, "lat": 38.907411333333336, "is_disabled": 0, "name": "335e42dc8e488144896b6bd972399187", "fusion_lat": 0.0, "rental_uris": {"ios": "https://dc.lft.to/lastmile_qr_scan", "android": "https://dc.lft.to/lastmile_qr_scan"}, "lon": -77.03471116666667, "type": "electric_scooter"}, {"bike_id": "a8c3acff91fd6f8924d4568f9695232a", "is_reserved": 0, "fusion_lon": 0.0, "lat": 38.9229315, "is_disabled": 0, "name": "a8c3acff91fd6f8924d4568f9695232a", "fusion_lat": 0.0, "rental_uris": {"ios": "https://dc.lft.to/lastmile_qr_scan", "android": "https://dc.lft.to/lastmile_qr_scan"}, "lon": -77.02081366666667, "type": "electric_scooter"}, {"bike_id": "5e51b8e5f83c7127ac7c84628aec7567", "is_reserved": 0, "fusion_lon": 0.0, "lat": 38.941518, "is_disabled": 0, "name": "5e51b8e5f83c7127ac7c84628aec7567", "fusion_lat": 0.0, "rental_uris": {"ios": "https://dc.lft.to/lastmile_qr_scan", "android": "https://dc.lft.to/lastmile_qr_scan"}, "lon": -77.0365305, "type": "electric_scooter"}, {"bike_id": "32e08b40be482e7c15cedcad52518948", "is_reserved": 0, "fusion_lon": 0.0, "lat": 38.905329, "is_disabled": 0, "name": "32e08b40be482e7c15cedcad52518948", "fusion_lat": 0.0, "rental_uris": {"ios": "https://dc.lft.to/lastmile_qr_scan", "android": "https://dc.lft.to/lastmile_qr_scan"}, "lon": -76.99807466666667, "type": "electric_bike"}, {"bike_id": "1ef518e5937a39fcb25ac88e5c160752", "is_reserved": 0, "fusion_lon": 0.0, "lat": 38.89675233333333, "is_disabled": 0, "name": "1ef518e5937a39fcb25ac88e5c160752", "fusion_lat": 0.0, "rental_uris": {"ios": "https://dc.lft.to/lastmile_qr_scan", "android": "https://dc.lft.to/lastmile_qr_scan"}, "lon": -77.05401916666666, "type": "electric_scooter"}, {"bike_id": "3de224274e3c46e0bef758a9ac47d0c1", "is_reserved": 0, "fusion_lon": 0.0, "lat": 38.8843505, "is_disabled": 0, "name": "3de224274e3c46e0bef758a9ac47d0c1", "fusion_lat": 0.0, "rental_uris": {"ios": "https://dc.lft.to/lastmile_qr_scan", "android": "https://dc.lft.to/lastmile_qr_scan"}, "lon": -76.9575305, "type": "electric_scooter"}, {"bike_id": "9d63225ea77b06c7f35737d83589b93f", "is_reserved": 0, "fusion_lon": 0.0, "lat": 38.913327, "is_disabled": 0, "name": "9d63225ea77b06c7f35737d83589b93f", "fusion_lat": 0.0, "rental_uris": {"ios": "https://dc.lft.to/lastmile_qr_scan", "android": "https://dc.lft.to/lastmile_qr_scan"}, "lon": -77.03044566666667, "type": "electric_scooter"}, {"bike_id": "1446676eda09e99cac5c06e8b45685cd", "is_reserved": 0, "fusion_lon": 0.0, "lat": 38.990910666666664, "is_disabled": 0, "name": "1446676eda09e99cac5c06e8b45685cd", "fusion_lat": 0.0, "rental_uris": {"ios": "https://dc.lft.to/lastmile_qr_scan", "android": "https://dc.lft.to/lastmile_qr_scan"}, "lon": -76.8749645, "type": "electric_bike"}, {"bike_id": "d970eb77fa1784ce1f0da922d4afd2e5", "is_reserved": 0, "fusion_lon": 0.0, "lat": 38.924049, "is_disabled": 0, "name": "d970eb77fa1784ce1f0da922d4afd2e5", "fusion_lat": 0.0, "rental_uris": {"ios": "https://dc.lft.to/lastmile_qr_scan", "android": "https://dc.lft.to/lastmile_qr_scan"}, "lon": -77.02546733333334, "type": "electric_scooter"}, {"bike_id": "fe6a474467cf654499a4b2c6b4959368", "is_reserved": 0, "fusion_lon": 0.0, "lat": 38.9228715, "is_disabled": 0, "name": "fe6a474467cf654499a4b2c6b4959368", "fusion_lat": 0.0, "rental_uris": {"ios": "https://dc.lft.to/lastmile_qr_scan", "android": "https://dc.lft.to/lastmile_qr_scan"}, "lon": -77.03192566666667, "type": "electric_scooter"}, {"bike_id": "09c5b0e3985ecc98e6cc730003f16892", "is_reserved": 0, "fusion_lon": 0.0, "lat": 38.92389933333333, "is_disabled": 0, "name": "09c5b0e3985ecc98e6cc730003f16892", "fusion_lat": 0.0, "rental_uris": {"ios": "https://dc.lft.to/lastmile_qr_scan", "android": "https://dc.lft.to/lastmile_qr_scan"}, "lon": -77.0429065, "type": "electric_scooter"}, {"bike_id": "dc65359c0121324cd4cb5455b3343886", "is_reserved": 0, "fusion_lon": 0.0, "lat": 38.88772566666667, "is_disabled": 0, "name": "dc65359c0121324cd4cb5455b3343886", "fusion_lat": 0.0, "rental_uris": {"ios": "https://dc.lft.to/lastmile_qr_scan", "android": "https://dc.lft.to/lastmile_qr_scan"}, "lon": -76.93263783333333, "type": "electric_scooter"}, {"bike_id": "3359cdb1335a26d40cec65ab6e56e375", "is_reserved": 0, "fusion_lon": 0.0, "lat": 38.90740683333333, "is_disabled": 0, "name": "3359cdb1335a26d40cec65ab6e56e375", "fusion_lat": 0.0, "rental_uris": {"ios": "https://dc.lft.to/lastmile_qr_scan", "android": "https://dc.lft.to/lastmile_qr_scan"}, "lon": -77.0240055, "type": "electric_scooter"}, {"bike_id": "ee6d665626aee2e77fab96b72a338cfd", "is_reserved": 0, "fusion_lon": 0.0, "lat": 38.9296765, "is_disabled": 0, "name": "ee6d665626aee2e77fab96b72a338cfd", "fusion_lat": 0.0, "rental_uris": {"ios": "https://dc.lft.to/lastmile_qr_scan", "android": "https://dc.lft.to/lastmile_qr_scan"}, "lon": -77.00537433333334, "type": "electric_scooter"}, {"bike_id": "90a792286b9a3994f760a817ef6e30f9", "is_reserved": 0, "fusion_lon": 0.0, "lat": 38.90273033333333, "is_disabled": 0, "name": "90a792286b9a3994f760a817ef6e30f9", "fusion_lat": 0.0, "rental_uris": {"ios": "https://dc.lft.to/lastmile_qr_scan", "android": "https://dc.lft.to/lastmile_qr_scan"}, "lon": -77.03852716666667, "type": "electric_scooter"}, {"bike_id": "217e749d22774d4acf7767d6d191eecf", "is_reserved": 0, "fusion_lon": 0.0, "lat": 38.897792333333335, "is_disabled": 0, "name": "217e749d22774d4acf7767d6d191eecf", "fusion_lat": 0.0, "rental_uris": {"ios": "https://dc.lft.to/lastmile_qr_scan", "android": "https://dc.lft.to/lastmile_qr_scan"}, "lon": -77.0547515, "type": "electric_scooter"}, {"bike_id": "ea68bd24089b63e84ee3c3f72a7519be", "is_reserved": 0, "fusion_lon": 0.0, "lat": 38.890919333333336, "is_disabled": 0, "name": "ea68bd24089b63e84ee3c3f72a7519be", "fusion_lat": 0.0, "rental_uris": {"ios": "https://dc.lft.to/lastmile_qr_scan", "android": "https://dc.lft.to/lastmile_qr_scan"}, "lon": -76.943888, "type": "electric_scooter"}, {"bike_id": "cc54a9ccb54fb5b64f879fe2baff702e", "is_reserved": 0, "fusion_lon": 0.0, "lat": 38.89667216666667, "is_disabled": 0, "name": "cc54a9ccb54fb5b64f879fe2baff702e", "fusion_lat": 0.0, "rental_uris": {"ios": "https://dc.lft.to/lastmile_qr_scan", "android": "https://dc.lft.to/lastmile_qr_scan"}, "lon": -77.0261695, "type": "electric_scooter"}, {"bike_id": "ce553503eedac76136c0835d15df5ef5", "is_reserved": 0, "fusion_lon": 0.0, "lat": 38.8982865, "is_disabled": 0, "name": "ce553503eedac76136c0835d15df5ef5", "fusion_lat": 0.0, "rental_uris": {"ios": "https://dc.lft.to/lastmile_qr_scan", "android": "https://dc.lft.to/lastmile_qr_scan"}, "lon": -76.94649283333334, "type": "electric_scooter"}, {"bike_id": "2f737de8b387a7d5ca689578ae54b4a4", "is_reserved": 0, "fusion_lon": 0.0, "lat": 38.89821666666667, "is_disabled": 0, "name": "2f737de8b387a7d5ca689578ae54b4a4", "fusion_lat": 0.0, "rental_uris": {"ios": "https://dc.lft.to/lastmile_qr_scan", "android": "https://dc.lft.to/lastmile_qr_scan"}, "lon": -76.94655633333333, "type": "electric_scooter"}, {"bike_id": "1b388f5e51d6c7ed57152362a4c96034", "is_reserved": 0, "fusion_lon": 0.0, "lat": 38.923677, "is_disabled": 0, "name": "1b388f5e51d6c7ed57152362a4c96034", "fusion_lat": 0.0, "rental_uris": {"ios": "https://dc.lft.to/lastmile_qr_scan", "android": "https://dc.lft.to/lastmile_qr_scan"}, "lon": -77.01913416666666, "type": "electric_scooter"}, {"bike_id": "c9ab0f3263bf9431c764135c44aded96", "is_reserved": 0, "fusion_lon": 0.0, "lat": 38.90026683333333, "is_disabled": 0, "name": "c9ab0f3263bf9431c764135c44aded96", "fusion_lat": 0.0, "rental_uris": {"ios": "https://dc.lft.to/lastmile_qr_scan", "android": "https://dc.lft.to/lastmile_qr_scan"}, "lon": -77.0020245, "type": "electric_scooter"}, {"bike_id": "7e4e13eb6e7ba364eabd3c1542377255", "is_reserved": 0, "fusion_lon": 0.0, "lat": 38.918040833333336, "is_disabled": 0, "name": "7e4e13eb6e7ba364eabd3c1542377255", "fusion_lat": 0.0, "rental_uris": {"ios": "https://dc.lft.to/lastmile_qr_scan", "android": "https://dc.lft.to/lastmile_qr_scan"}, "lon": -77.03563383333334, "type": "electric_scooter"}, {"bike_id": "589b8c706726e4a183d31e6b1db8059a", "is_reserved": 0, "fusion_lon": 0.0, "lat": 38.93165916666667, "is_disabled": 0, "name": "589b8c706726e4a183d31e6b1db8059a", "fusion_lat": 0.0, "rental_uris": {"ios": "https://dc.lft.to/lastmile_qr_scan", "android": "https://dc.lft.to/lastmile_qr_scan"}, "lon": -77.05641266666666, "type": "electric_scooter"}, {"bike_id": "16033818ad57c353edf4ca31b26429f5", "is_reserved": 0, "fusion_lon": 0.0, "lat": 38.90227266666667, "is_disabled": 0, "name": "16033818ad57c353edf4ca31b26429f5", "fusion_lat": 0.0, "rental_uris": {"ios": "https://dc.lft.to/lastmile_qr_scan", "android": "https://dc.lft.to/lastmile_qr_scan"}, "lon": -77.06061183333334, "type": "electric_scooter"}, {"bike_id": "19878cbf6a1aff13f620cf1c94c40cdd", "is_reserved": 0, "fusion_lon": 0.0, "lat": 38.91105833333334, "is_disabled": 0, "name": "19878cbf6a1aff13f620cf1c94c40cdd", "fusion_lat": 0.0, "rental_uris": {"ios": "https://dc.lft.to/lastmile_qr_scan", "android": "https://dc.lft.to/lastmile_qr_scan"}, "lon": -77.03605966666667, "type": "electric_scooter"}, {"bike_id": "75924c8f2b89c4a8049f676597bca60f", "is_reserved": 0, "fusion_lon": 0.0, "lat": 38.91673883333333, "is_disabled": 0, "name": "75924c8f2b89c4a8049f676597bca60f", "fusion_lat": 0.0, "rental_uris": {"ios": "https://dc.lft.to/lastmile_qr_scan", "android": "https://dc.lft.to/lastmile_qr_scan"}, "lon": -77.02716933333333, "type": "electric_scooter"}, {"bike_id": "09faf26677192fa8574c4f5fc1c36032", "is_reserved": 0, "fusion_lon": 0.0, "lat": 38.95480516666667, "is_disabled": 0, "name": "09faf26677192fa8574c4f5fc1c36032", "fusion_lat": 0.0, "rental_uris": {"ios": "https://dc.lft.to/lastmile_qr_scan", "android": "https://dc.lft.to/lastmile_qr_scan"}, "lon": -77.08239883333333, "type": "electric_bike"}, {"bike_id": "11fadb9a8eb2bd45c916d5a2a0f9eeeb", "is_reserved": 0, "fusion_lon": 0.0, "lat": 38.925971, "is_disabled": 0, "name": "11fadb9a8eb2bd45c916d5a2a0f9eeeb", "fusion_lat": 0.0, "rental_uris": {"ios": "https://dc.lft.to/lastmile_qr_scan", "android": "https://dc.lft.to/lastmile_qr_scan"}, "lon": -77.00486, "type": "electric_scooter"}, {"bike_id": "9b5281d7b86323de50b5ff79ea27de37", "is_reserved": 0, "fusion_lon": 0.0, "lat": 38.91329266666666, "is_disabled": 0, "name": "9b5281d7b86323de50b5ff79ea27de37", "fusion_lat": 0.0, "rental_uris": {"ios": "https://dc.lft.to/lastmile_qr_scan", "android": "https://dc.lft.to/lastmile_qr_scan"}, "lon": -77.00229533333334, "type": "electric_scooter"}, {"bike_id": "bdb8a4fb11f460b7c048b8f009909464", "is_reserved": 0, "fusion_lon": 0.0, "lat": 38.92066416666667, "is_disabled": 0, "name": "bdb8a4fb11f460b7c048b8f009909464", "fusion_lat": 0.0, "rental_uris": {"ios": "https://dc.lft.to/lastmile_qr_scan", "android": "https://dc.lft.to/lastmile_qr_scan"}, "lon": -77.042543, "type": "electric_scooter"}, {"bike_id": "08bcc762c3376ce01a6f89ef93573ad1", "is_reserved": 0, "fusion_lon": 0.0, "lat": 38.92061233333333, "is_disabled": 0, "name": "08bcc762c3376ce01a6f89ef93573ad1", "fusion_lat": 0.0, "rental_uris": {"ios": "https://dc.lft.to/lastmile_qr_scan", "android": "https://dc.lft.to/lastmile_qr_scan"}, "lon": -77.04257366666667, "type": "electric_scooter"}, {"bike_id": "eeb7b926d1fb39e6917df60ba18d6581", "is_reserved": 0, "fusion_lon": 0.0, "lat": 38.920893666666665, "is_disabled": 0, "name": "eeb7b926d1fb39e6917df60ba18d6581", "fusion_lat": 0.0, "rental_uris": {"ios": "https://dc.lft.to/lastmile_qr_scan", "android": "https://dc.lft.to/lastmile_qr_scan"}, "lon": -77.02594266666667, "type": "electric_scooter"},