{"data": {"bikes": [{"is_reserved": 0, "fusion_lon": 0.0, "fusion_lat": 0.0, "name": "257ab056ba5355eaad7097b29d089904", "type": "electric_scooter", "is_disabled": 0, "lat": 38.92190333333333, "rental_uris": {"android": "https://dc.lft.to/lastmile_qr_scan", "ios": "https://dc.lft.to/lastmile_qr_scan"}, "bike_id": "257ab056ba5355eaad7097b29d089904", "lon": -77.04123583333333}, {"is_reserved": 0, "fusion_lon": 0.0, "fusion_lat": 0.0, "name": "e3e156d05cbbc66414900c432bd94141", "type": "electric_scooter", "is_disabled": 0, "lat": 38.9109805, "rental_uris": {"android": "https://dc.lft.to/lastmile_qr_scan", "ios": "https://dc.lft.to/lastmile_qr_scan"}, "bike_id": "e3e156d05cbbc66414900c432bd94141", "lon": -77.01986816666667}, {"is_reserved": 0, "fusion_lon": 0.0, "fusion_lat": 0.0, "name": "f66b18538c96de84f874f5364952eaf5", "type": "electric_bike", "is_disabled": 0, "lat": 38.911894, "rental_uris": {"android": "https://dc.lft.to/lastmile_qr_scan", "ios": "https://dc.lft.to/lastmile_qr_scan"}, "bike_id": "f66b18538c96de84f874f5364952eaf5", "lon": -77.222886}, {"is_reserved": 0, "fusion_lon": 0.0, "fusion_lat": 0.0, "name": "f21cfcfe32235c5191098cd570901e51", "type": "electric_scooter", "is_disabled": 0, "lat": 38.91418483333333, "rental_uris": {"android": "https://dc.lft.to/lastmile_qr_scan", "ios": "https://dc.lft.to/lastmile_qr_scan"}, "bike_id": "f21cfcfe32235c5191098cd570901e51", "lon": -77.02958333333333}, {"is_reserved": 0, "fusion_lon": 0.0, "fusion_lat": 0.0, "name": "9f6cc9fdf2f77fe61e39838c039f3af3", "type": "electric_scooter", "is_disabled": 0, "lat": 38.87165066666667, "rental_uris": {"android": "https://dc.lft.to/lastmile_qr_scan", "ios": "https://dc.lft.to/lastmile_qr_scan"}, "bike_id": "9f6cc9fdf2f77fe61e39838c039f3af3", "lon": -76.977444}, {"is_reserved": 0, "fusion_lon": 0.0, "fusion_lat": 0.0, "name": "249ab14e664fd8c78f2950fc03fa1bc1", "type": "electric_scooter", "is_disabled": 0, "lat": 38.9139505, "rental_uris": {"android": "https://dc.lft.to/lastmile_qr_scan", "ios": "https://dc.lft.to/lastmile_qr_scan"}, "bike_id": "249ab14e664fd8c78f2950fc03fa1bc1", "lon": -77.03329183333334}, {"is_reserved": 0, "fusion_lon": 0.0, "fusion_lat": 0.0, "name": "706ccd68795c4f9ef8422d2dc109c45c", "type": "electric_scooter", "is_disabled": 0, "lat": 38.8986875, "rental_uris": {"android": "https://dc.lft.to/lastmile_qr_scan", "ios": "https://dc.lft.to/lastmile_qr_scan"}, "bike_id": "706ccd68795c4f9ef8422d2dc109c45c", "lon": -77.02600316666667}, {"is_reserved": 0, "fusion_lon": 0.0, "fusion_lat": 0.0, "name": "7041738536197c48036df99239ea0be3", "type": "electric_scooter", "is_disabled": 0, "lat": 38.942179333333335, "rental_uris": {"android": "https://dc.lft.to/lastmile_qr_scan", "ios": "https://dc.lft.to/lastmile_qr_scan"}, "bike_id": "7041738536197c48036df99239ea0be3", "lon": -77.02504316666666}, {"is_reserved": 0, "fusion_lon": 0.0, "fusion_lat": 0.0, "name": "8c278507fe4453047de840e19728c3b2", "type": "electric_scooter", "is_disabled": 0, "lat": 38.93670083333333, "rental_uris": {"android": "https://dc.lft.to/lastmile_qr_scan", "ios": "https://dc.lft.to/lastmile_qr_scan"}, "bike_id": "8c278507fe4453047de840e19728c3b2", "lon": -77.03418466666666}, {"is_reserved": 0, "fusion_lon": 0.0, "fusion_lat": 0.0, "name": "04aa204c8303aba87ed5953e528b6996", "type": "electric_scooter", "is_disabled": 0, "lat": 38.94902716666667, "rental_uris": {"android": "https://dc.lft.to/lastmile_qr_scan", "ios": "https://dc.lft.to/lastmile_qr_scan"}, "bike_id": "04aa204c8303aba87ed5953e528b6996", "lon": -77.020729}, {"is_reserved": 0, "fusion_lon": 0.0, "fusion_lat": 0.0, "name": "1583e30ad88827ae60333a841235a0a9", "type": "electric_scooter", "is_disabled": 0, "lat": 38.91113416666666, "rental_uris": {"android": "https://dc.lft.to/lastmile_qr_scan", "ios": "https://dc.lft.to/lastmile_qr_scan"}, "bike_id": "1583e30ad88827ae60333a841235a0a9", "lon": -77.00331683333333}, {"is_reserved": 0, "fusion_lon": 0.0, "fusion_lat": 0.0, "name": "871300517fb71de9edfec50a47d7cd84", "type": "electric_scooter", "is_disabled": 0, "lat": 38.918425666666664, "rental_uris": {"android": "https://dc.lft.to/lastmile_qr_scan", "ios": "https://dc.lft.to/lastmile_qr_scan"}, "bike_id": "871300517fb71de9edfec50a47d7cd84", "lon": -76.96558466666667}, {"is_reserved": 0, "fusion_lon": 0.0, "fusion_lat": 0.0, "name": "d9584a5f9f9de3db548539ba2b65ba33", "type": "electric_scooter", "is_disabled": 0, "lat": 38.902631166666666, "rental_uris": {"android": "https://dc.lft.to/lastmile_qr_scan", "ios": "https://dc.lft.to/lastmile_qr_scan"}, "bike_id": "d9584a5f9f9de3db548539ba2b65ba33", "lon": -77.03851983333334}, {"is_reserved": 0, "fusion_lon": 0.0, "fusion_lat": 0.0, "name": "463fbf74ec3ac8ab6cea406edfc4c0f6", "type": "electric_scooter", "is_disabled": 0, "lat": 38.9017125, "rental_uris": {"android": "https://dc.lft.to/lastmile_qr_scan", "ios": "https://dc.lft.to/lastmile_qr_scan"}, "bike_id": "463fbf74ec3ac8ab6cea406edfc4c0f6", "lon": -76.980402}, {"is_reserved": 0, "fusion_lon": 0.0, "fusion_lat": 0.0, "name": "23366fbd05c37907e16f21380582f162", "type": "electric_scooter", "is_disabled": 0, "lat": 38.873999, "rental_uris": {"android": "https://dc.lft.to/lastmile_qr_scan", "ios": "https://dc.lft.to/lastmile_qr_scan"}, "bike_id": "23366fbd05c37907e16f21380582f162", "lon": -77.00048866666667}, {"is_reserved": 0, "fusion_lon": 0.0, "fusion_lat": 0.0, "name": "6726f425d5e4ef31d536bb91fd3586ac", "type": "electric_scooter", "is_disabled": 0, "lat": 38.912604, "rental_uris": {"android": "https://dc.lft.to/lastmile_qr_scan", "ios": "https://dc.lft.to/lastmile_qr_scan"}, "bike_id": "6726f425d5e4ef31d536bb91fd3586ac", "lon": -77.04442383333334}, {"is_reserved": 0, "fusion_lon": 0.0, "fusion_lat": 0.0, "name": "5af7d55c5db115b33d5f1d3d1bb9c6ac", "type": "electric_scooter", "is_disabled": 0, "lat": 38.88745133333333, "rental_uris": {"android": "https://dc.lft.to/lastmile_qr_scan", "ios": "https://dc.lft.to/lastmile_qr_scan"}, "bike_id": "5af7d55c5db115b33d5f1d3d1bb9c6ac", "lon": -77.015421}, {"is_reserved": 0, "fusion_lon": 0.0, "fusion_lat": 0.0, "name": "3d3ecea2e564f88a3cfc21fde59551dc", "type": "electric_scooter", "is_disabled": 0, "lat": 38.8996905, "rental_uris": {"android": "https://dc.lft.to/lastmile_qr_scan", "ios": "https://dc.lft.to/lastmile_qr_scan"}, "bike_id": "3d3ecea2e564f88a3cfc21fde59551dc", "lon": -77.03350883333333}, {"is_reserved": 0, "fusion_lon": 0.0, "fusion_lat": 0.0, "name": "904a145cdae0083f96f6523e4364c180", "type": "electric_scooter", "is_disabled": 0, "lat": 38.92222316666667, "rental_uris": {"android": "https://dc.lft.to/lastmile_qr_scan", "ios": "https://dc.lft.to/lastmile_qr_scan"}, "bike_id": "904a145cdae0083f96f6523e4364c180", "lon": -77.0424285}, {"is_reserved": 0, "fusion_lon": 0.0, "fusion_lat": 0.0, "name": "b1ad6b6f22b86277259209ad6cbfc777", "type": "electric_scooter", "is_disabled": 0, "lat": 38.90983083333333, "rental_uris": {"android": "https://dc.lft.to/lastmile_qr_scan", "ios": "https://dc.lft.to/lastmile_qr_scan"}, "bike_id": "b1ad6b6f22b86277259209ad6cbfc777", "lon": -77.03301866666666}, {"is_reserved": 0, "fusion_lon": 0.0, "fusion_lat": 0.0, "name": "c80869272e50760fdfa84c08aa476483", "type": "electric_scooter", "is_disabled": 0, "lat": 38.892262, "rental_uris": {"android": "https://dc.lft.to/lastmile_qr_scan", "ios": "https://dc.lft.to/lastmile_qr_scan"}, "bike_id": "c80869272e50760fdfa84c08aa476483", "lon": -77.04309683333334}, {"is_reserved": 0, "fusion_lon": 0.0, "fusion_lat": 0.0, "name": "a6e4b376a5c2c4561cb13199e0150d07", "type": "electric_scooter", "is_disabled": 0, "lat": 38.885517166666666, "rental_uris": {"android": "https://dc.lft.to/lastmile_qr_scan", "ios": "https://dc.lft.to/lastmile_qr_scan"}, "bike_id": "a6e4b376a5c2c4561cb13199e0150d07", "lon": -77.01999416666666}, {"is_reserved": 0, "fusion_lon": 0.0, "fusion_lat": 0.0, "name": "60fc20a752de07918da18f144c753a3c", "type": "electric_scooter", "is_disabled": 0, "lat": 38.912652333333334, "rental_uris": {"android": "https://dc.lft.to/lastmile_qr_scan", "ios": "https://dc.lft.to/lastmile_qr_scan"}, "bike_id": "60fc20a752de07918da18f144c753a3c", "lon": -77.03069266666667}, {"is_reserved": 0, "fusion_lon": 0.0, "fusion_lat": 0.0, "name": "5c447ac5f4c5ff04b8e07143a2925e05", "type": "electric_scooter", "is_disabled": 0, "lat": 38.89232466666667, "rental_uris": {"android": "https://dc.lft.to/lastmile_qr_scan", "ios": "https://dc.lft.to/lastmile_qr_scan"}, "bike_id": "5c447ac5f4c5ff04b8e07143a2925e05", "lon": -77.03105}, {"is_reserved": 0, "fusion_lon": 0.0, "fusion_lat": 0.0, "name": "486531e8a62098a6964685b895dfe6b8", "type": "electric_scooter", "is_disabled": 0, "lat": 38.89366016666666, "rental_uris": {"android": "https://dc.lft.to/lastmile_qr_scan", "ios": "https://dc.lft.to/lastmile_qr_scan"}, "bike_id": "486531e8a62098a6964685b895dfe6b8", "lon": -77.04782633333333}, {"is_reserved": 0, "fusion_lon": 0.0, "fusion_lat": 0.0, "name": "a8e9d2647a72b25cd41879d9e76f5a36", "type": "electric_scooter", "is_disabled": 0, "lat": 38.89225033333334, "rental_uris": {"android": "https://dc.lft.to/lastmile_qr_scan", "ios": "https://dc.lft.to/lastmile_qr_scan"}, "bike_id": "a8e9d2647a72b25cd41879d9e76f5a36", "lon": -77.02347483333334}, {"is_reserved": 0, "fusion_lon": 0.0, "fusion_lat": 0.0, "name": "f4558814e4b307cd2e59f53f804803af", "type": "electric_scooter", "is_disabled": 0, "lat": 38.89818416666667, "rental_uris": {"android": "https://dc.lft.to/lastmile_qr_scan", "ios": "https://dc.lft.to/lastmile_qr_scan"}, "bike_id": "f4558814e4b307cd2e59f53f804803af", "lon": -77.03300716666666}, {"is_reserved": 0, "fusion_lon": 0.0, "fusion_lat": 0.0, "name": "67cb18800772fb0977118ef9905af3a7", "type": "electric_scooter", "is_disabled": 0, "lat": 38.92053333333333, "rental_uris": {"android": "https://dc.lft.to/lastmile_qr_scan", "ios": "https://dc.lft.to/lastmile_qr_scan"}, "bike_id": "67cb18800772fb0977118ef9905af3a7", "lon": -77.04189933333333}, {"is_reserved": 0, "fusion_lon": 0.0, "fusion_lat": 0.0, "name": "e3b5a74fbaa1f2e1c99ae028d622d4d5", "type": "electric_scooter", "is_disabled": 0, "lat": 38.92239083333333, "rental_uris": {"android": "https://dc.lft.to/lastmile_qr_scan", "ios": "https://dc.lft.to/lastmile_qr_scan"}, "bike_id": "e3b5a74fbaa1f2e1c99ae028d622d4d5", "lon": -77.044887}, {"is_reserved": 0, "fusion_lon": 0.0, "fusion_lat": 0.0, "name": "54be3eecadd63383f4c0a41b77826c44", "type": "electric_scooter", "is_disabled": 0, "lat": 38.9247785, "rental_uris": {"android": "https://dc.lft.to/lastmile_qr_scan", "ios": "https://dc.lft.to/lastmile_qr_scan"}, "bike_id": "54be3eecadd63383f4c0a41b77826c44", "lon": -77.022693}, {"is_reserved": 0, "fusion_lon": 0.0, "fusion_lat": 0.0, "name": "65cd3a1ac4922d1cfc20e31186067910", "type": "electric_scooter", "is_disabled": 0, "lat": 38.920329333333335, "rental_uris": {"android": "https://dc.lft.to/lastmile_qr_scan", "ios": "https://dc.lft.to/lastmile_qr_scan"}, "bike_id": "65cd3a1ac4922d1cfc20e31186067910", "lon": -76.98491233333333}, {"is_reserved": 0, "fusion_lon": 0.0, "fusion_lat": 0.0, "name": "355d24f68d59e3351778d292490ee17d", "type": "electric_scooter", "is_disabled": 0, "lat": 38.89706566666667, "rental_uris": {"android": "https://dc.lft.to/lastmile_qr_scan", "ios": "https://dc.lft.to/lastmile_qr_scan"}, "bike_id": "355d24f68d59e3351778d292490ee17d", "lon": -77.022995}, {"is_reserved": 0, "fusion_lon": 0.0, "fusion_lat": 0.0, "name": "01c0d5335db26f17a6d1c5b5d4d7fb10", "type": "electric_scooter", "is_disabled": 0, "lat": 38.897407666666666, "rental_uris": {"android": "https://dc.lft.to/lastmile_qr_scan", "ios": "https://dc.lft.to/lastmile_qr_scan"}, "bike_id": "01c0d5335db26f17a6d1c5b5d4d7fb10", "lon": -77.00107533333333}, {"is_reserved": 0, "fusion_lon": 0.0, "fusion_lat": 0.0, "name": "e576d6d58a3bd67af6a76f87d6a7505a", "type": "electric_scooter", "is_disabled": 0, "lat": 38.903697333333334, "rental_uris": {"android": "https://dc.lft.to/lastmile_qr_scan", "ios": "https://dc.lft.to/lastmile_qr_scan"}, "bike_id": "e576d6d58a3bd67af6a76f87d6a7505a", "lon": -77.04335633333334}, {"is_reserved": 0, "fusion_lon": 0.0, "fusion_lat": 0.0, "name": "e892664d4fae6ba19550b43a9f63963c", "type": "electric_scooter", "is_disabled": 0, "lat": 38.909586, "rental_uris": {"android": "https://dc.lft.to/lastmile_qr_scan", "ios": "https://dc.lft.to/lastmile_qr_scan"}, "bike_id": "e892664d4fae6ba19550b43a9f63963c", "lon": -77.044802}, {"is_reserved": 0, "fusion_lon": 0.0, "fusion_lat": 0.0, "name": "d05bacbccfed53fe01a6fb21bcb7b14f", "type": "electric_scooter", "is_disabled": 0, "lat": 38.91186483333333, "rental_uris": {"android": "https://dc.lft.to/lastmile_qr_scan", "ios": "https://dc.lft.to/lastmile_qr_scan"}, "bike_id": "d05bacbccfed53fe01a6fb21bcb7b14f", "lon": -77.03033966666666}, {"is_reserved": 0, "fusion_lon": 0.0, "fusion_lat": 0.0, "name": "24011c00f17e7d17f601afcd4189af63", "type": "electric_scooter", "is_disabled": 0, "lat": 38.92802733333333, "rental_uris": {"android": "https://dc.lft.to/lastmile_qr_scan", "ios": "https://dc.lft.to/lastmile_qr_scan"}, "bike_id": "24011c00f17e7d17f601afcd4189af63", "lon": -77.01410183333333}, {"is_reserved": 0, "fusion_lon": 0.0, "fusion_lat": 0.0, "name": "93e1141a2fec95d3063a61ff43e963cc", "type": "electric_scooter", "is_disabled": 0, "lat": 38.892237, "rental_uris": {"android": "https://dc.lft.to/lastmile_qr_scan", "ios": "https://dc.lft.to/lastmile_qr_scan"}, "bike_id": "93e1141a2fec95d3063a61ff43e963cc", "lon": -77.0437495}, {"is_reserved": 0, "fusion_lon": 0.0, "fusion_lat": 0.0, "name": "beb342d0754c77592c665d74f646f4c0", "type": "electric_scooter", "is_disabled": 0, "lat": 38.930817833333336, "rental_uris": {"android": "https://dc.lft.to/lastmile_qr_scan", "ios": "https://dc.lft.to/lastmile_qr_scan"}, "bike_id": "beb342d0754c77592c665d74f646f4c0", "lon": -77.00414633333334}, {"is_reserved": 0, "fusion_lon": 0.0, "fusion_lat": 0.0, "name": "4c43e3db23f5624691ef7f5ab000ac8b", "type": "electric_scooter", "is_disabled": 0, "lat": 38.9162495, "rental_uris": {"android": "https://dc.lft.to/lastmile_qr_scan", "ios": "https://dc.lft.to/lastmile_qr_scan"}, "bike_id": "4c43e3db23f5624691ef7f5ab000ac8b", "lon": -77.04806816666667}, {"is_reserved": 0, "fusion_lon": 0.0, "fusion_lat": 0.0, "name": "f972384685facba1b0bacf09961b1045", "type": "electric_scooter", "is_disabled": 0, "lat": 38.8935365, "rental_uris": {"android": "https://dc.lft.to/lastmile_qr_scan", "ios": "https://dc.lft.to/lastmile_qr_scan"}, "bike_id": "f972384685facba1b0bacf09961b1045", "lon": -77.04193433333333}, {"is_reserved": 0, "fusion_lon": 0.0, "fusion_lat": 0.0, "name": "ea79342c33e454ac4f46c279f5c6bbc8", "type": "electric_scooter", "is_disabled": 0, "lat": 38.907327, "rental_uris": {"android": "https://dc.lft.to/lastmile_qr_scan", "ios": "https://dc.lft.to/lastmile_qr_scan"}, "bike_id": "ea79342c33e454ac4f46c279f5c6bbc8", "lon": -76.986935}, {"is_reserved": 0, "fusion_lon": 0.0, "fusion_lat": 0.0, "name": "f470a4aa3e7153e7b8a688167e026376", "type": "electric_scooter", "is_disabled": 0, "lat": 38.91002183333333, "rental_uris": {"android": "https://dc.lft.to/lastmile_qr_scan", "ios": "https://dc.lft.to/lastmile_qr_scan"}, "bike_id": "f470a4aa3e7153e7b8a688167e026376", "lon": -77.03852816666667}, {"is_reserved": 0, "fusion_lon": 0.0, "fusion_lat": 0.0, "name": "7af90bc40f945f11b87b8df46f1cdbe4", "type": "electric_scooter", "is_disabled": 0, "lat": 38.87632933333333, "rental_uris": {"android": "https://dc.lft.to/lastmile_qr_scan", "ios": "https://dc.lft.to/lastmile_qr_scan"}, "bike_id": "7af90bc40f945f11b87b8df46f1cdbe4", "lon": -77.00937483333334}, {"is_reserved": 0, "fusion_lon": 0.0, "fusion_lat": 0.0, "name": "26e7c5068863afed9778784e90ea30ab", "type": "electric_scooter", "is_disabled": 0, "lat": 38.91465733333333, "rental_uris": {"android": "https://dc.lft.to/lastmile_qr_scan", "ios": "https://dc.lft.to/lastmile_qr_scan"}, "bike_id": "26e7c5068863afed9778784e90ea30ab", "lon": -77.00919466666667}, {"is_reserved": 0, "fusion_lon": 0.0, "fusion_lat": 0.0, "name": "69a4035c8e5909f80c3c0a1eb5df3ccb", "type": "electric_scooter", "is_disabled": 0, "lat": 38.869013333333335, "rental_uris": {"android": "https://dc.lft.to/lastmile_qr_scan", "ios": "https://dc.lft.to/lastmile_qr_scan"}, "bike_id": "69a4035c8e5909f80c3c0a1eb5df3ccb", "lon": -76.9822885}, {"is_reserved": 0, "fusion_lon": 0.0, "fusion_lat": 0.0, "name": "2870c0f2e3bc0c634356fb554e4d108b", "type": "electric_scooter", "is_disabled": 0, "lat": 38.892191833333335, "rental_uris": {"android": "https://dc.lft.to/lastmile_qr_scan", "ios": "https://dc.lft.to/lastmile_qr_scan"}, "bike_id": "2870c0f2e3bc0c634356fb554e4d108b", "lon": -77.04371516666667}, {"is_reserved": 0, "fusion_lon": 0.0, "fusion_lat": 0.0, "name": "5838941e073ac8a17d456e3d316e5665", "type": "electric_scooter", "is_disabled": 0, "lat": 38.89374333333333, "rental_uris": {"android": "https://dc.lft.to/lastmile_qr_scan", "ios": "https://dc.lft.to/lastmile_qr_scan"}, "bike_id": "5838941e073ac8a17d456e3d316e5665", "lon": -76.94994683333333}, {"is_reserved": 0, "fusion_lon": 0.0, "fusion_lat": 0.0, "name": "e0e43cee3c7d54ca6f1d5a15038e5b94", "type": "electric_scooter", "is_disabled": 0, "lat": 38.899544666666664, "rental_uris": {"android": "https://dc.lft.to/lastmile_qr_scan", "ios": "https://dc.lft.to/lastmile_qr_scan"}, "bike_id": "e0e43cee3c7d54ca6f1d5a15038e5b94", "lon": -77.04219133333334}, {"is_reserved": 0, "fusion_lon": 0.0, "fusion_lat": 0.0, "name": "6591711b96e64c2be1dc9aee993ab100", "type": "electric_scooter", "is_disabled": 0, "lat": 38.8790225, "rental_uris": {"android": "https://dc.lft.to/lastmile_qr_scan", "ios": "https://dc.lft.to/lastmile_qr_scan"}, "bike_id": "6591711b96e64c2be1dc9aee993ab100", "lon": -77.0137405}, {"is_reserved": 0, "fusion_lon": 0.0, "fusion_lat": 0.0, "name": "94f4d4856085a16a5bd8974cd83f5747", "type": "electric_bike", "is_disabled": 0, "lat": 38.95931733333333, "rental_uris": {"android": "https://dc.lft.to/lastmile_qr_scan", "ios": "https://dc.lft.to/lastmile_qr_scan"}, "bike_id": "94f4d4856085a16a5bd8974cd83f5747", "lon": -76.92535766666667}, {"is_reserved": 0, "fusion_lon": 0.0, "fusion_lat": 0.0, "name": "ffae5072a0bca94e2e8ff3fc707765cc", "type": "electric_scooter", "is_disabled": 0, "lat": 38.900588, "rental_uris": {"android": "https://dc.lft.to/lastmile_qr_scan", "ios": "https://dc.lft.to/lastmile_qr_scan"}, "bike_id": "ffae5072a0bca94e2e8ff3fc707765cc", "lon": -77.03974316666667}, {"is_reserved": 0, "fusion_lon": 0.0, "fusion_lat": 0.0, "name": "d6d32ea04f2fbfcf3a46ffa73012470e", "type": "electric_scooter", "is_disabled": 0, "lat": 38.867026, "rental_uris": {"android": "https://dc.lft.to/lastmile_qr_scan", "ios": "https://dc.lft.to/lastmile_qr_scan"}, "bike_id": "d6d32ea04f2fbfcf3a46ffa73012470e", "lon": -76.98712266666666}, {"is_reserved": 0, "fusion_lon": 0.0, "fusion_lat": 0.0, "name": "b20483547d12583b135dc35c85465e97", "type": "electric_scooter", "is_disabled": 0, "lat": 38.86650216666666, "rental_uris": {"android": "https://dc.lft.to/lastmile_qr_scan", "ios": "https://dc.lft.to/lastmile_qr_scan"}, "bike_id": "b20483547d12583b135dc35c85465e97", "lon": -76.9888985}, {"is_reserved": 0, "fusion_lon": 0.0, "fusion_lat": 0.0, "name": "9aa23365c62abe4dd65fbddf0ac38694", "type": "electric_scooter", "is_disabled": 0, "lat": 38.92090566666667, "rental_uris": {"android": "https://dc.lft.to/lastmile_qr_scan", "ios": "https://dc.lft.to/lastmile_qr_scan"}, "bike_id": "9aa23365c62abe4dd65fbddf0ac38694", "lon": -77.02234283333334}, {"is_reserved": 0, "fusion_lon": 0.0, "fusion_lat": 0.0, "name": "2d41ae6d83ee62f3c3e36cb9d158c9df", "type": "electric_scooter", "is_disabled": 0, "lat": 38.86993966666667, "rental_uris": {"android": "https://dc.lft.to/lastmile_qr_scan", "ios": "https://dc.lft.to/lastmile_qr_scan"}, "bike_id": "2d41ae6d83ee62f3c3e36cb9d158c9df", "lon": -76.975871}, {"is_reserved": 0, "fusion_lon": 0.0, "fusion_lat": 0.0, "name": "1ed1dd6e0c89eb96e26a2817e0fa93c0", "type": "electric_scooter", "is_disabled": 0, "lat": 38.8782865, "rental_uris": {"android": "https://dc.lft.to/lastmile_qr_scan", "ios": "https://dc.lft.to/lastmile_qr_scan"}, "bike_id": "1ed1dd6e0c89eb96e26a2817e0fa93c0", "lon": -76.9630965}, {"is_reserved": 0, "fusion_lon": 0.0, "fusion_lat": 0.0, "name": "3bc752965da69f306ffefaa2191479cb", "type": "electric_bike", "is_disabled": 0, "lat": 38.9610105, "rental_uris": {"android": "https://dc.lft.to/lastmile_qr_scan", "ios": "https://dc.lft.to/lastmile_qr_scan"}, "bike_id": "3bc752965da69f306ffefaa2191479cb", "lon": -76.9281435}, {"is_reserved": 0, "fusion_lon": 0.0, "fusion_lat": 0.0, "name": "e325c205a05205b0145d5223946e1000", "type": "electric_scooter", "is_disabled": 0, "lat": 38.8719775, "rental_uris": {"android": "https://dc.lft.to/lastmile_qr_scan", "ios": "https://dc.lft.to/lastmile_qr_scan"}, "bike_id": "e325c205a05205b0145d5223946e1000", "lon": -77.01074716666666}, {"is_reserved": 0, "fusion_lon": 0.0, "fusion_lat": 0.0, "name": "b76fe40362e91bf5a40eda8855657c65", "type": "electric_scooter", "is_disabled": 0, "lat": 38.9305125, "rental_uris": {"android": "https://dc.lft.to/lastmile_qr_scan", "ios": "https://dc.lft.to/lastmile_qr_scan"}, "bike_id": "b76fe40362e91bf5a40eda8855657c65", "lon": -77.032353}, {"is_reserved": 0, "fusion_lon": 0.0, "fusion_lat": 0.0, "name": "e594773e72fe3301c3ce1b62db14090f", "type": "electric_scooter", "is_disabled": 0, "lat": 38.92059733333333, "rental_uris": {"android": "https://dc.lft.to/lastmile_qr_scan", "ios": "https://dc.lft.to/lastmile_qr_scan"}, "bike_id": "e594773e72fe3301c3ce1b62db14090f", "lon": -77.02509866666666}, {"is_reserved": 0, "fusion_lon": 0.0, "fusion_lat": 0.0, "name": "dda639d223f2d8028e0725147f3d7418", "type": "electric_scooter", "is_disabled": 0, "lat": 38.98455666666667, "rental_uris": {"android": "https://dc.lft.to/lastmile_qr_scan", "ios": "https://dc.lft.to/lastmile_qr_scan"}, "bike_id": "dda639d223f2d8028e0725147f3d7418", "lon": -77.0264355}, {"is_reserved": 0, "fusion_lon": 0.0, "fusion_lat": 0.0, "name": "91f4ca4926751b9d7a688a717f024748", "type": "electric_scooter", "is_disabled": 0, "lat": 38.90259733333333, "rental_uris": {"android": "https://dc.lft.to/lastmile_qr_scan", "ios": "https://dc.lft.to/lastmile_qr_scan"}, "bike_id": "91f4ca4926751b9d7a688a717f024748", "lon": -76.99558616666667}, {"is_reserved": 0, "fusion_lon": 0.0, "fusion_lat": 0.0, "name": "43bd7432e141357b26d2ef791e242c12", "type": "electric_scooter", "is_disabled": 0, "lat": 38.932334, "rental_uris": {"android": "https://dc.lft.to/lastmile_qr_scan", "ios": "https://dc.lft.to/lastmile_qr_scan"}, "bike_id": "43bd7432e141357b26d2ef791e242c12", "lon": -77.03887533333334}, {"is_reserved": 0, "fusion_lon": 0.0, "fusion_lat": 0.0, "name": "cd71de257af484a1100124105faa7b7f", "type": "electric_scooter", "is_disabled": 0, "lat": 38.9111045, "rental_uris": {"android": "https://dc.lft.to/lastmile_qr_scan", "ios": "https://dc.lft.to/lastmile_qr_scan"}, "bike_id": "cd71de257af484a1100124105faa7b7f", "lon": -77.04477683333333}, {"is_reserved": 0, "fusion_lon": 0.0, "fusion_lat": 0.0, "name": "c180d02f8dbd81a6223bf0925a03cf9d", "type": "electric_bike", "is_disabled": 0, "lat": 39.0527885, "rental_uris": {"android": "https://dc.lft.to/lastmile_qr_scan", "ios": "https://dc.lft.to/lastmile_qr_scan"}, "bike_id": "c180d02f8dbd81a6223bf0925a03cf9d", "lon": -77.08068933333334}, {"is_reserved": 0, "fusion_lon": 0.0, "fusion_lat": 0.0, "name": "63e9f78c0b4eee01363b13b0cae22306", "type": "electric_scooter", "is_disabled": 0, "lat": 38.887263833333336, "rental_uris": {"android": "https://dc.lft.to/lastmile_qr_scan", "ios": "https://dc.lft.to/lastmile_qr_scan"}, "bike_id": "63e9f78c0b4eee01363b13b0cae22306", "lon": -77.02847966666667}, {"is_reserved": 0, "fusion_lon": 0.0, "fusion_lat": 0.0, "name": "3c4cd9b976ec860db1aa755ec3441b46", "type": "electric_scooter", "is_disabled": 0, "lat": 38.916413666666664, "rental_uris": {"android": "https://dc.lft.to/lastmile_qr_scan", "ios": "https://dc.lft.to/lastmile_qr_scan"}, "bike_id": "3c4cd9b976ec860db1aa755ec3441b46", "lon": -77.04795016666667}, {"is_reserved": 0, "fusion_lon": 0.0, "fusion_lat": 0.0, "name": "85f200a1af080089f616dc6aed864286", "type": "electric_scooter", "is_disabled": 0, "lat": 38.91255433333333, "rental_uris": {"android": "https://dc.lft.to/lastmile_qr_scan", "ios": "https://dc.lft.to/lastmile_qr_scan"}, "bike_id": "85f200a1af080089f616dc6aed864286", "lon": -77.07317583333334}, {"is_reserved": 0, "fusion_lon": 0.0, "fusion_lat": 0.0, "name": "95f3ae51c95f5d55cf31cbfa595ac161", "type": "electric_scooter", "is_disabled": 0, "lat": 38.926166, "rental_uris": {"android": "https://dc.lft.to/lastmile_qr_scan", "ios": "https://dc.lft.to/lastmile_qr_scan"}, "bike_id": "95f3ae51c95f5d55cf31cbfa595ac161", "lon": -77.043326}, {"is_reserved": 0, "fusion_lon": 0.0, "fusion_lat": 0.0, "name": "6e318e063f9dafde1f04352c0bd1bcfa", "type": "electric_scooter", "is_disabled": 0, "lat": 38.921545, "rental_uris": {"android": "https://dc.lft.to/lastmile_qr_scan", "ios": "https://dc.lft.to/lastmile_qr_scan"}, "bike_id": "6e318e063f9dafde1f04352c0bd1bcfa", "lon": -77.03380633333333}, {"is_reserved": 0, "fusion_lon": 0.0, "fusion_lat": 0.0, "name": "be3aad53c3e6d66db3c8438c0e97852b", "type": "electric_bike", "is_disabled": 0, "lat": 38.93228366666666, "rental_uris": {"android": "https://dc.lft.to/lastmile_qr_scan", "ios": "https://dc.lft.to/lastmile_qr_scan"}, "bike_id": "be3aad53c3e6d66db3c8438c0e97852b", "lon": -77.18124516666667}, {"is_reserved": 0, "fusion_lon": 0.0, "fusion_lat": 0.0, "name": "8a7f900090d44ba3228bdc2e36405ac1", "type": "electric_scooter", "is_disabled": 0, "lat": 38.89898083333333, "rental_uris": {"android": "https://dc.lft.to/lastmile_qr_scan", "ios": "https://dc.lft.to/lastmile_qr_scan"}, "bike_id": "8a7f900090d44ba3228bdc2e36405ac1", "lon": -76.99384816666667}, {"is_reserved": 0, "fusion_lon": 0.0, "fusion_lat": 0.0, "name": "89ed840a7bf1b42b186d35aea35513d1", "type": "electric_scooter", "is_disabled": 0, "lat": 38.9519105, "rental_uris": {"android": "https://dc.lft.to/lastmile_qr_scan", "ios": "https://dc.lft.to/lastmile_qr_scan"}, "bike_id": "89ed840a7bf1b42b186d35aea35513d1", "lon": -77.02608683333334}, {"is_reserved": 0, "fusion_lon": 0.0, "fusion_lat": 0.0, "name": "50f9f249eb832ce73fdfd1f69a4f19cf", "type": "electric_scooter", "is_disabled": 0, "lat": 38.88142, "rental_uris": {"android": "https://dc.lft.to/lastmile_qr_scan", "ios": "https://dc.lft.to/lastmile_qr_scan"}, "bike_id": "50f9f249eb832ce73fdfd1f69a4f19cf", "lon": -77.0122645}, {"is_reserved": 0, "fusion_lon": 0.0, "fusion_lat": 0.0, "name": "4e74c85f6880a705916def46a1e93090", "type": "electric_scooter", "is_disabled": 0, "lat": 38.912588666666664, "rental_uris": {"android": "https://dc.lft.to/lastmile_qr_scan", "ios": "https://dc.lft.to/lastmile_qr_scan"}, "bike_id": "4e74c85f6880a705916def46a1e93090", "lon": -77.04106816666666}, {"is_reserved": 0, "fusion_lon": 0.0, "fusion_lat": 0.0, "name": "7fec4dfd161563c133fd6891320ad850", "type": "electric_bike", "is_disabled": 0, "lat": 38.953245333333335, "rental_uris": {"android": "https://dc.lft.to/lastmile_qr_scan", "ios": "https://dc.lft.to/lastmile_qr_scan"}, "bike_id": "7fec4dfd161563c133fd6891320ad850", "lon": -76.954351}, {"is_reserved": 0, "fusion_lon": 0.0, "fusion_lat": 0.0, "name": "0a14cebf73ae872c8a2c47e892d655f8", "type": "electric_scooter", "is_disabled": 0, "lat": 38.8960855, "rental_uris": {"android": "https://dc.lft.to/lastmile_qr_scan", "ios": "https://dc.lft.to/lastmile_qr_scan"}, "bike_id": "0a14cebf73ae872c8a2c47e892d655f8", "lon": -77.0498795}, {"is_reserved": 0, "fusion_lon": 0.0, "fusion_lat": 0.0, "name": "27989266e42caa9239250bf111085138", "type": "electric_scooter", "is_disabled": 0, "lat": 38.9137335, "rental_uris": {"android": "https://dc.lft.to/lastmile_qr_scan", "ios": "https://dc.lft.to/lastmile_qr_scan"}, "bike_id": "27989266e42caa9239250bf111085138", "lon": -77.03138316666667}, {"is_reserved": 0, "fusion_lon": 0.0, "fusion_lat": 0.0, "name": "22e23a631801b1f1bf530ed769b0b8c6", "type": "electric_scooter", "is_disabled": 0, "lat": 38.8943145, "rental_uris": {"android": "https://dc.lft.to/lastmile_qr_scan", "ios": "https://dc.lft.to/lastmile_qr_scan"}, "bike_id": "22e23a631801b1f1bf530ed769b0b8c6", "lon": -77.04005083333334}, {"is_reserved": 0, "fusion_lon": 0.0, "fusion_lat": 0.0, "name": "f5f8399b372ff7371b508048bcafaec3", "type": "electric_scooter", "is_disabled": 0, "lat": 38.930312666666666, "rental_uris": {"android": "https://dc.lft.to/lastmile_qr_scan", "ios": "https://dc.lft.to/lastmile_qr_scan"}, "bike_id": "f5f8399b372ff7371b508048bcafaec3", "lon": -77.0129965}, {"is_reserved": 0, "fusion_lon": 0.0, "fusion_lat": 0.0, "name": "23333434c867067d6d10c1dbcd613cd2", "type": "electric_scooter", "is_disabled": 0, "lat": 38.90554366666667, "rental_uris": {"android": "https://dc.lft.to/lastmile_qr_scan", "ios": "https://dc.lft.to/lastmile_qr_scan"}, "bike_id": "23333434c867067d6d10c1dbcd613cd2", "lon": -77.06288133333334}, {"is_reserved": 0, "fusion_lon": 0.0, "fusion_lat": 0.0, "name": "91e4b58fddb2ca34e0bce7198444dc10", "type": "electric_bike", "is_disabled": 0, "lat": 38.89801683333334, "rental_uris": {"android": "https://dc.lft.to/lastmile_qr_scan", "ios": "https://dc.lft.to/lastmile_qr_scan"}, "bike_id": "91e4b58fddb2ca34e0bce7198444dc10", "lon": -77.0060005}, {"is_reserved": 0, "fusion_lon": 0.0, "fusion_lat": 0.0, "name": "4ef38cad62952fdbadee17b6e56d841f", "type": "electric_scooter", "is_disabled": 0, "lat": 38.887228, "rental_uris": {"android": "https://dc.lft.to/lastmile_qr_scan", "ios": "https://dc.lft.to/lastmile_qr_scan"}, "bike_id": "4ef38cad62952fdbadee17b6e56d841f", "lon": -77.02177483333334}, {"is_reserved": 0, "fusion_lon": 0.0, "fusion_lat": 0.0, "name": "02212fb874ca1e7c7fff24bb5ab8ca2b", "type": "electric_scooter", "is_disabled": 0, "lat": 38.92815183333333, "rental_uris": {"android": "https://dc.lft.to/lastmile_qr_scan", "ios": "https://dc.lft.to/lastmile_qr_scan"}, "bike_id": "02212fb874ca1e7c7fff24bb5ab8ca2b", "lon": -77.05526916666666}, {"is_reserved": 0, "fusion_lon": 0.0, "fusion_lat": 0.0, "name": "b8b1d7b818d7d8ef2c9c8f5feca9e61e", "type": "electric_scooter", "is_disabled": 0, "lat": 38.920308, "rental_uris": {"android": "https://dc.lft.to/lastmile_qr_scan", "ios": "https://dc.lft.to/lastmile_qr_scan"}, "bike_id": "b8b1d7b818d7d8ef2c9c8f5feca9e61e", "lon": -77.01806883333333}, {"is_reserved": 0, "fusion_lon": 0.0, "fusion_lat": 0.0, "name": "3342db3db4d8ea6f4b481e29261afb7f", "type": "electric_scooter", "is_disabled": 0, "lat": 38.918177666666665, "rental_uris": {"android": "https://dc.lft.to/lastmile_qr_scan", "ios": "https://dc.lft.to/lastmile_qr_scan"}, "bike_id": "3342db3db4d8ea6f4b481e29261afb7f", "lon": -77.035684}, {"is_reserved": 0, "fusion_lon": 0.0, "fusion_lat": 0.0, "name": "439ff4160285ef7d78861a68616c3936", "type": "electric_scooter", "is_disabled": 0, "lat": 38.90951366666667, "rental_uris": {"android": "https://dc.lft.to/lastmile_qr_scan", "ios": "https://dc.lft.to/lastmile_qr_scan"}, "bike_id": "439ff4160285ef7d78861a68616c3936", "lon": -77.03205083333333}, {"is_reserved": 0, "fusion_lon": 0.0, "fusion_lat": 0.0, "name": "b7ac0f6b4c764565bee4480c57f0278b", "type": "electric_scooter", "is_disabled": 0, "lat": 38.91606783333334, "rental_uris": {"android": "https://dc.lft.to/lastmile_qr_scan", "ios": "https://dc.lft.to/lastmile_qr_scan"}, "bike_id": "b7ac0f6b4c764565bee4480c57f0278b", "lon": -77.0322075}, {"is_reserved": 0, "fusion_lon": 0.0, "fusion_lat": 0.0, "name": "38a7a328d18a1d289495ea692490a7ba", "type": "electric_scooter", "is_disabled": 0, "lat": 38.88988666666667, "rental_uris": {"android": "https://dc.lft.to/lastmile_qr_scan", "ios": "https://dc.lft.to/lastmile_qr_scan"}, "bike_id": "38a7a328d18a1d289495ea692490a7ba", "lon": -76.98329683333333}, {"is_reserved": 0, "fusion_lon": 0.0, "fusion_lat": 0.0, "name": "bcaa6f20a7813897735120c290a90618", "type": "electric_scooter", "is_disabled": 0, "lat": 38.89221633333333, "rental_uris": {"android": "https://dc.lft.to/lastmile_qr_scan", "ios": "https://dc.lft.to/lastmile_qr_scan"}, "bike_id": "bcaa6f20a7813897735120c290a90618", "lon": -77.04503716666666}, {"is_reserved": 0, "fusion_lon": 0.0, "fusion_lat": 0.0, "name": "50dcc97bf0a0e031a99993ed2365a140", "type": "electric_scooter", "is_disabled": 0, "lat": 38.91806783333333, "rental_uris": {"android": "https://dc.lft.to/lastmile_qr_scan", "ios": "https://dc.lft.to/lastmile_qr_scan"}, "bike_id": "50dcc97bf0a0e031a99993ed2365a140", "lon": -77.02490883333333}, {"is_reserved": 0, "fusion_lon": 0.0, "fusion_lat": 0.0, "name": "5fe0225350eeb32f59adbb9b0e7fea77", "type": "electric_scooter", "is_disabled": 0, "lat": 38.92988616666667, "rental_uris": {"android": "https://dc.lft.to/lastmile_qr_scan", "ios": "https://dc.lft.to/lastmile_qr_scan"}, "bike_id": "5fe0225350eeb32f59adbb9b0e7fea77", "lon": -77.03472766666667}, {"is_reserved": 0, "fusion_lon": 0.0, "fusion_lat": 0.0, "name": "0e2baf4fc08fe2a920c00dffc89698e1", "type": "electric_scooter", "is_disabled": 0, "lat": 38.9523455, "rental_uris": {"android": "https://dc.lft.to/lastmile_qr_scan", "ios": "https://dc.lft.to/lastmile_qr_scan"}, "bike_id": "0e2baf4fc08fe2a920c00dffc89698e1", "lon": -77.01426316666667}, {"is_reserved": 0, "fusion_lon": 0.0, "fusion_lat": 0.0, "name": "84c41c18919355b3c150fd6e1fc717fd", "type": "electric_scooter", "is_disabled": 0, "lat": 38.88729566666667, "rental_uris": {"android": "https://dc.lft.to/lastmile_qr_scan", "ios": "https://dc.lft.to/lastmile_qr_scan"}, "bike_id": "84c41c18919355b3c150fd6e1fc717fd", "lon": -77.0219545}, {"is_reserved": 0, "fusion_lon": 0.0, "fusion_lat": 0.0, "name": "136535fe06bee1bbe1f5d8e7b0a24362", "type": "electric_scooter", "is_disabled": 0, "lat": 38.917172666666666, "rental_uris": {"android": "https://dc.lft.to/lastmile_qr_scan", "ios": "https://dc.lft.to/lastmile_qr_scan"}, "bike_id": "136535fe06bee1bbe1f5d8e7b0a24362", "lon": -77.0260405}, {"is_reserved": 0, "fusion_lon": 0.0, "fusion_lat": 0.0, "name": "f0c020f01505a4252fd6f19c1d7f6043", "type": "electric_scooter", "is_disabled": 0, "lat": 38.90552516666666, "rental_uris": {"android": "https://dc.lft.to/lastmile_qr_scan", "ios": "https://dc.lft.to/lastmile_qr_scan"}, "bike_id": "f0c020f01505a4252fd6f19c1d7f6043", "lon": -77.05292666666666}, {"is_reserved": 0, "fusion_lon": 0.0, "fusion_lat": 0.0, "name": "4b623e7fec05ae01d2e92f46ab78e7fc", "type": "electric_scooter", "is_disabled": 0, "lat": 38.865079333333334, "rental_uris": {"android": "https://dc.lft.to/lastmile_qr_scan", "ios": "https://dc.lft.to/lastmile_qr_scan"}, "bike_id": "4b623e7fec05ae01d2e92f46ab78e7fc", "lon": -76.99003266666666}, {"is_reserved": 0, "fusion_lon": 0.0, "fusion_lat": 0.0, "name": "bbf6a081112f7b9a10550b5aeb0e3862", "type": "electric_scooter", "is_disabled": 0, "lat": 38.926549666666666, "rental_uris": {"android": "https://dc.lft.to/lastmile_qr_scan", "ios": "https://dc.lft.to/lastmile_qr_scan"}, "bike_id": "bbf6a081112f7b9a10550b5aeb0e3862", "lon": -77.02280033333334}, {"is_reserved": 0, "fusion_lon": 0.0, "fusion_lat": 0.0, "name": "99a142a395080f3fd77832a9919285f6", "type": "electric_scooter", "is_disabled": 0, "lat": 38.902852333333335, "rental_uris": {"android": "https://dc.lft.to/lastmile_qr_scan", "ios": "https://dc.lft.to/lastmile_qr_scan"}, "bike_id": "99a142a395080f3fd77832a9919285f6", "lon": -77.05901766666666}, {"is_reserved": 0, "fusion_lon": 0.0, "fusion_lat": 0.0, "name": "eb4dbeb18dbc856c07531702b4829679", "type": "electric_scooter", "is_disabled": 0, "lat": 38.886790833333336, "rental_uris": {"android": "https://dc.lft.to/lastmile_qr_scan", "ios": "https://dc.lft.to/lastmile_qr_scan"}, "bike_id": "eb4dbeb18dbc856c07531702b4829679", "lon": -76.95471833333333}, {"is_reserved": 0, "fusion_lon": 0.0, "fusion_lat": 0.0, "name": "a021f55fac5881dd59eeb3a09fe53969", "type": "electric_scooter", "is_disabled": 0, "lat": 38.911179833333335, "rental_uris": {"android": "https://dc.lft.to/lastmile_qr_scan", "ios": "https://dc.lft.to/lastmile_qr_scan"}, "bike_id": "a021f55fac5881dd59eeb3a09fe53969", "lon": -77.03834983333333}, {"is_reserved": 0, "fusion_lon": 0.0, "fusion_lat": 0.0, "name": "aaf81fa8d73afa8d0894bb4d6f827847", "type": "electric_scooter", "is_disabled": 0, "lat": 38.929848666666665, "rental_uris": {"android": "https://dc.lft.to/lastmile_qr_scan", "ios": "https://dc.lft.to/lastmile_qr_scan"}, "bike_id": "aaf81fa8d73afa8d0894bb4d6f827847", "lon": -77.03647116666667}, {"is_reserved": 0, "fusion_lon": 0.0, "fusion_lat": 0.0, "name": "e0755689923b6e108400ec14242a831f", "type": "electric_scooter", "is_disabled": 0, "lat": 38.908868166666664, "rental_uris": {"android": "https://dc.lft.to/lastmile_qr_scan", "ios": "https://dc.lft.to/lastmile_qr_scan"}, "bike_id": "e0755689923b6e108400ec14242a831f", "lon": -76.98542983333333}, {"is_reserved": 0, "fusion_lon": 0.0, "fusion_lat": 0.0, "name": "1baf2b378420d6025f23a5cdcc74f545", "type": "electric_scooter", "is_disabled": 0, "lat": 38.88742666666667, "rental_uris": {"android": "https://dc.lft.to/lastmile_qr_scan", "ios": "https://dc.lft.to/lastmile_qr_scan"}, "bike_id": "1baf2b378420d6025f23a5cdcc74f545", "lon": -77.02736116666667}, {"is_reserved": 0, "fusion_lon": 0.0, "fusion_lat": 0.0, "name": "9c1d5566f2d71e66442ee636a8e47792", "type": "electric_scooter", "is_disabled": 0, "lat": 38.862170166666665, "rental_uris": {"android": "https://dc.lft.to/lastmile_qr_scan", "ios": "https://dc.lft.to/lastmile_qr_scan"}, "bike_id": "9c1d5566f2d71e66442ee636a8e47792", "lon": -76.994801}, {"is_reserved": 0, "fusion_lon": 0.0, "fusion_lat": 0.0, "name": "57ac97fee3c1627b9e62c0aaf922a003", "type": "electric_scooter", "is_disabled": 0, "lat": 38.901817666666666, "rental_uris": {"android": "https://dc.lft.to/lastmile_qr_scan", "ios": "https://dc.lft.to/lastmile_qr_scan"}, "bike_id": "57ac97fee3c1627b9e62c0aaf922a003", "lon": -76.92863616666666}, {"is_reserved": 0, "fusion_lon": 0.0, "fusion_lat": 0.0, "name": "20009467011977f8ada976564620bd4f", "type": "electric_scooter", "is_disabled": 0, "lat": 38.902451166666665, "rental_uris": {"android": "https://dc.lft.to/lastmile_qr_scan", "ios": "https://dc.lft.to/lastmile_qr_scan"}, "bike_id": "20009467011977f8ada976564620bd4f", "lon": -77.0390955}, {"is_reserved": 0, "fusion_lon": 0.0, "fusion_lat": 0.0, "name": "3a57848bbf6e80f2ea9e10f7147752f8", "type": "electric_scooter", "is_disabled": 0, "lat": 38.90703216666667, "rental_uris": {"android": "https://dc.lft.to/lastmile_qr_scan", "ios": "https://dc.lft.to/lastmile_qr_scan"}, "bike_id": "3a57848bbf6e80f2ea9e10f7147752f8", "lon": -77.07157683333334}, {"is_reserved": 0, "fusion_lon": 0.0, "fusion_lat": 0.0, "name": "e5a6b713e3a0438c2f2ed65ba701f89a", "type": "electric_scooter", "is_disabled": 0, "lat": 38.84996366666667, "rental_uris": {"android": "https://dc.lft.to/lastmile_qr_scan", "ios": "https://dc.lft.to/lastmile_qr_scan"}, "bike_id": "e5a6b713e3a0438c2f2ed65ba701f89a", "lon": -76.98349283333333}, {"is_reserved": 0, "fusion_lon": 0.0, "fusion_lat": 0.0, "name": "40175c51cfbd81df62f94093b071389e", "type": "electric_scooter", "is_disabled": 0, "lat": 38.908926666666666, "rental_uris": {"android": "https://dc.lft.to/lastmile_qr_scan", "ios": "https://dc.lft.to/lastmile_qr_scan"}, "bike_id": "40175c51cfbd81df62f94093b071389e", "lon": -76.99854233333333}, {"is_reserved": 0, "fusion_lon": 0.0, "fusion_lat": 0.0, "name": "ca989b05e48ebc81f32659299a1ad34d", "type": "electric_scooter", "is_disabled": 0, "lat": 38.940765999999996, "rental_uris": {"android": "https://dc.lft.to/lastmile_qr_scan", "ios": "https://dc.lft.to/lastmile_qr_scan"}, "bike_id": "ca989b05e48ebc81f32659299a1ad34d", "lon": -77.02547683333333}, {"is_reserved": 0, "fusion_lon": 0.0, "fusion_lat": 0.0, "name": "3960e1a6b8f70d7c0115c7404acfd5bb", "type": "electric_scooter", "is_disabled": 0, "lat": 38.91848683333333, "rental_uris": {"android": "https://dc.lft.to/lastmile_qr_scan", "ios": "https://dc.lft.to/lastmile_qr_scan"}, "bike_id": "3960e1a6b8f70d7c0115c7404acfd5bb", "lon": -76.96558383333333}, {"is_reserved": 0, "fusion_lon": 0.0, "fusion_lat": 0.0, "name": "7d3df112dea0c9157a90aa9db159de58", "type": "electric_scooter", "is_disabled": 0, "lat": 38.9299165, "rental_uris": {"android": "https://dc.lft.to/lastmile_qr_scan", "ios": "https://dc.lft.to/lastmile_qr_scan"}, "bike_id": "7d3df112dea0c9157a90aa9db159de58", "lon": -77.0444225}, {"is_reserved": 0, "fusion_lon": 0.0, "fusion_lat": 0.0, "name": "071baf14a7f9b78f4315a6e1d61c37c5", "type": "electric_scooter", "is_disabled": 0, "lat": 38.94457583333333, "rental_uris": {"android": "https://dc.lft.to/lastmile_qr_scan", "ios": "https://dc.lft.to/lastmile_qr_scan"}, "bike_id": "071baf14a7f9b78f4315a6e1d61c37c5", "lon": -77.06380433333334}, {"is_reserved": 0, "fusion_lon": 0.0, "fusion_lat": 0.0, "name": "ea8de19a75c8251d105ab312d83d7a0a", "type": "electric_scooter", "is_disabled": 0, "lat": 38.878449333333336, "rental_uris": {"android": "https://dc.lft.to/lastmile_qr_scan", "ios": "https://dc.lft.to/lastmile_qr_scan"}, "bike_id": "ea8de19a75c8251d105ab312d83d7a0a", "lon": -77.02280783333333}, {"is_reserved": 0, "fusion_lon": 0.0, "fusion_lat": 0.0, "name": "f1559f2cf6e89f476203d101d017735c", "type": "electric_scooter", "is_disabled": 0, "lat": 38.916988, "rental_uris": {"android": "https://dc.lft.to/lastmile_qr_scan", "ios": "https://dc.lft.to/lastmile_qr_scan"}, "bike_id": "f1559f2cf6e89f476203d101d017735c", "lon": -77.02382616666667}, {"is_reserved": 0, "fusion_lon": 0.0, "fusion_lat": 0.0, "name": "115e9e9bb09c922ffaab5e9776a8df09", "type": "electric_bike", "is_disabled": 0, "lat": 39.02433966666667, "rental_uris": {"android": "https://dc.lft.to/lastmile_qr_scan", "ios": "https://dc.lft.to/lastmile_qr_scan"}, "bike_id": "115e9e9bb09c922ffaab5e9776a8df09", "lon": -77.13101916666666}, {"is_reserved": 0, "fusion_lon": 0.0, "fusion_lat": 0.0, "name": "d662c148a375acb8fa45205485713b3e", "type": "electric_bike", "is_disabled": 0, "lat": 38.947883833333336, "rental_uris": {"android": "https://dc.lft.to/lastmile_qr_scan", "ios": "https://dc.lft.to/lastmile_qr_scan"}, "bike_id": "d662c148a375acb8fa45205485713b3e", "lon": -76.97210083333333}, {"is_reserved": 0, "fusion_lon": 0.0, "fusion_lat": 0.0, "name": "b3de773a3f29addabaddf6544a388763", "type": "electric_scooter", "is_disabled": 0, "lat": 38.92235733333333, "rental_uris": {"android": "https://dc.lft.to/lastmile_qr_scan", "ios": "https://dc.lft.to/lastmile_qr_scan"}, "bike_id": "b3de773a3f29addabaddf6544a388763", "lon": -77.02333766666666}, {"is_reserved": 0, "fusion_lon": 0.0, "fusion_lat": 0.0, "name": "803955c38c04a6e84bbe2c95b2b9b2fe", "type": "electric_scooter", "is_disabled": 0, "lat": 38.90538216666667, "rental_uris": {"android": "https://dc.lft.to/lastmile_qr_scan", "ios": "https://dc.lft.to/lastmile_qr_scan"}, "bike_id": "803955c38c04a6e84bbe2c95b2b9b2fe", "lon": -77.04471216666667}, {"is_reserved": 0, "fusion_lon": 0.0, "fusion_lat": 0.0, "name": "778f68dbb8a67d6164a7c1a95d6c718c", "type": "electric_scooter", "is_disabled": 0, "lat": 38.864499, "rental_uris": {"android": "https://dc.lft.to/lastmile_qr_scan", "ios": "https://dc.lft.to/lastmile_qr_scan"}, "bike_id": "778f68dbb8a67d6164a7c1a95d6c718c", "lon": -76.97752133333333}, {"is_reserved": 0, "fusion_lon": 0.0, "fusion_lat": 0.0, "name": "d25b854baf030b9091e82666e07c0ef5", "type": "electric_scooter", "is_disabled": 0, "lat": 38.863999666666665, "rental_uris": {"android": "https://dc.lft.to/lastmile_qr_scan", "ios": "https://dc.lft.to/lastmile_qr_scan"}, "bike_id": "d25b854baf030b9091e82666e07c0ef5", "lon": -76.97447166666667}, {"is_reserved": 0, "fusion_lon": 0.0, "fusion_lat": 0.0, "name": "9254da7b4014c3dfa17b677dc169f4ad", "type": "electric_scooter", "is_disabled": 0, "lat": 38.887082, "rental_uris": {"android": "https://dc.lft.to/lastmile_qr_scan", "ios": "https://dc.lft.to/lastmile_qr_scan"}, "bike_id": "9254da7b4014c3dfa17b677dc169f4ad", "lon": -77.013642}, {"is_reserved": 0, "fusion_lon": 0.0, "fusion_lat": 0.0, "name": "f9540df312e8a83f31f2fea968c3bb28", "type": "electric_scooter", "is_disabled": 0, "lat": 38.90764183333334, "rental_uris": {"android": "https://dc.lft.to/lastmile_qr_scan", "ios": "https://dc.lft.to/lastmile_qr_scan"}, "bike_id": "f9540df312e8a83f31f2fea968c3bb28", "lon": -77.04208366666667}, {"is_reserved": 0, "fusion_lon": 0.0, "fusion_lat": 0.0, "name": "a28af6c752c65b79c68fa581a876e2f9", "type": "electric_scooter", "is_disabled": 0, "lat": 38.916745, "rental_uris": {"android": "https://dc.lft.to/lastmile_qr_scan", "ios": "https://dc.lft.to/lastmile_qr_scan"}, "bike_id": "a28af6c752c65b79c68fa581a876e2f9", "lon": -77.0296145}, {"is_reserved": 0, "fusion_lon": 0.0, "fusion_lat": 0.0, "name": "5ae9dac1a47b7bc436fe670cc128d79a", "type": "electric_scooter", "is_disabled": 0, "lat": 38.927535, "rental_uris": {"android": "https://dc.lft.to/lastmile_qr_scan", "ios": "https://dc.lft.to/lastmile_qr_scan"}, "bike_id": "5ae9dac1a47b7bc436fe670cc128d79a", "lon": -77.02420383333333}, {"is_reserved": 0, "fusion_lon": 0.0, "fusion_lat": 0.0, "name": "8136fd3a16600213fd10e7261ad328bd", "type": "electric_scooter", "is_disabled": 0, "lat": 38.8621315, "rental_uris": {"android": "https://dc.lft.to/lastmile_qr_scan", "ios": "https://dc.lft.to/lastmile_qr_scan"}, "bike_id": "8136fd3a16600213fd10e7261ad328bd", "lon": -76.99475766666667}, {"is_reserved": 0, "fusion_lon": 0.0, "fusion_lat": 0.0, "name": "dfbabd07665aa24c4014b209aef20f59", "type": "electric_scooter", "is_disabled": 0, "lat": 38.925220833333334, "rental_uris": {"android": "https://dc.lft.to/lastmile_qr_scan", "ios": "https://dc.lft.to/lastmile_qr_scan"}, "bike_id": "dfbabd07665aa24c4014b209aef20f59", "lon": -77.05041683333333}, {"is_reserved": 0, "fusion_lon": 0.0, "fusion_lat": 0.0, "name": "2d94f092fdc55dd00e4a793424761448", "type": "electric_scooter", "is_disabled": 0, "lat": 38.924858, "rental_uris": {"android": "https://dc.lft.to/lastmile_qr_scan", "ios": "https://dc.lft.to/lastmile_qr_scan"}, "bike_id": "2d94f092fdc55dd00e4a793424761448", "lon": -77.0219395}, {"is_reserved": 0, "fusion_lon": 0.0, "fusion_lat": 0.0, "name": "060ea32323f4ffcf8afafee09ad7d13f", "type": "electric_scooter", "is_disabled": 0, "lat": 38.8851025, "rental_uris": {"android": "https://dc.lft.to/lastmile_qr_scan", "ios": "https://dc.lft.to/lastmile_qr_scan"}, "bike_id": "060ea32323f4ffcf8afafee09ad7d13f", "lon": -76.99840516666667}, {"is_reserved": 0, "fusion_lon": 0.0, "fusion_lat": 0.0, "name": "0f8e2a515d922f8871fd85c7de257cd5", "type": "electric_scooter", "is_disabled": 0, "lat": 38.888827166666665, "rental_uris": {"android": "https://dc.lft.to/lastmile_qr_scan", "ios": "https://dc.lft.to/lastmile_qr_scan"}, "bike_id": "0f8e2a515d922f8871fd85c7de257cd5", "lon": -77.01970883333334}, {"is_reserved": 0, "fusion_lon": 0.0, "fusion_lat": 0.0, "name": "6bbab3c14c0429e174ebd272068f0dde", "type": "electric_scooter", "is_disabled": 0, "lat": 38.892395, "rental_uris": {"android": "https://dc.lft.to/lastmile_qr_scan", "ios": "https://dc.lft.to/lastmile_qr_scan"}, "bike_id": "6bbab3c14c0429e174ebd272068f0dde", "lon": -77.04162966666667}, {"is_reserved": 0, "fusion_lon": 0.0, "fusion_lat": 0.0, "name": "8868ae60190eebaeeb62bc69c4fdf278", "type": "electric_scooter", "is_disabled": 0, "lat": 38.90658766666667, "rental_uris": {"android": "https://dc.lft.to/lastmile_qr_scan", "ios": "https://dc.lft.to/lastmile_qr_scan"}, "bike_id": "8868ae60190eebaeeb62bc69c4fdf278", "lon": -77.048682}, {"is_reserved": 0, "fusion_lon": 0.0, "fusion_lat": 0.0, "name": "fa12526ab054a3d8c3e1682d81bb3305", "type": "electric_scooter", "is_disabled": 0, "lat": 38.92197733333333, "rental_uris": {"android": "https://dc.lft.to/lastmile_qr_scan", "ios": "https://dc.lft.to/lastmile_qr_scan"}, "bike_id": "fa12526ab054a3d8c3e1682d81bb3305", "lon": -77.0423655}, {"is_reserved": 0, "fusion_lon": 0.0, "fusion_lat": 0.0, "name": "e1c2199f4665fd47f5638d4ce5e49d01", "type": "electric_scooter", "is_disabled": 0, "lat": 38.88965916666667, "rental_uris": {"android": "https://dc.lft.to/lastmile_qr_scan", "ios": "https://dc.lft.to/lastmile_qr_scan"}, "bike_id": "e1c2199f4665fd47f5638d4ce5e49d01", "lon": -76.937047}, {"is_reserved": 0, "fusion_lon": 0.0, "fusion_lat": 0.0, "name": "59dd520b75a182663ff39ebc3c0df3c9", "type": "electric_scooter", "is_disabled": 0, "lat": 38.91998483333333, "rental_uris": {"android": "https://dc.lft.to/lastmile_qr_scan", "ios": "https://dc.lft.to/lastmile_qr_scan"}, "bike_id": "59dd520b75a182663ff39ebc3c0df3c9", "lon": -77.02199933333333}, {"is_reserved": 0, "fusion_lon": 0.0, "fusion_lat": 0.0, "name": "a0f6604fc0834477b92051b4b92e76ec", "type": "electric_scooter", "is_disabled": 0, "lat": 38.91726233333333, "rental_uris": {"android": "https://dc.lft.to/lastmile_qr_scan", "ios": "https://dc.lft.to/lastmile_qr_scan"}, "bike_id": "a0f6604fc0834477b92051b4b92e76ec", "lon": -77.04174133333333}, {"is_reserved": 0, "fusion_lon": 0.0, "fusion_lat": 0.0, "name": "4bd784298271fd9501fd4b5888b5d01a", "type": "electric_scooter", "is_disabled": 0, "lat": 38.918239, "rental_uris": {"android": "https://dc.lft.to/lastmile_qr_scan", "ios": "https://dc.lft.to/lastmile_qr_scan"}, "bike_id": "4bd784298271fd9501fd4b5888b5d01a", "lon": -77.03458716666667}, {"is_reserved": 0, "fusion_lon": 0.0, "fusion_lat": 0.0, "name": "e5e1e013e7204059b5fce6ccaf886e24", "type": "electric_scooter", "is_disabled": 0, "lat": 38.894292, "rental_uris": {"android": "https://dc.lft.to/lastmile_qr_scan", "ios": "https://dc.lft.to/lastmile_qr_scan"}, "bike_id": "e5e1e013e7204059b5fce6ccaf886e24", "lon": -76.948774}, {"is_reserved": 0, "fusion_lon": 0.0, "fusion_lat": 0.0, "name": "0d2d514975e4759d8372f8e12d46bcf7", "type": "electric_scooter", "is_disabled": 0, "lat": 38.934044, "rental_uris": {"android": "https://dc.lft.to/lastmile_qr_scan", "ios": "https://dc.lft.to/lastmile_qr_scan"}, "bike_id": "0d2d514975e4759d8372f8e12d46bcf7", "lon": -77.04133616666667}, {"is_reserved": 0, "fusion_lon": 0.0, "fusion_lat": 0.0, "name": "a4ff9f2446d51834a9537b070755c165", "type": "electric_scooter", "is_disabled": 0, "lat": 38.91546983333333, "rental_uris": {"android": "https://dc.lft.to/lastmile_qr_scan", "ios": "https://dc.lft.to/lastmile_qr_scan"}, "bike_id": "a4ff9f2446d51834a9537b070755c165", "lon": -77.01270466666666}, {"is_reserved": 0, "fusion_lon": 0.0, "fusion_lat": 0.0, "name": "82a1cbf5c199bfd42f5c0789a1dc4d0d", "type": "electric_scooter", "is_disabled": 0, "lat": 38.892222333333336, "rental_uris": {"android": "https://dc.lft.to/lastmile_qr_scan", "ios": "https://dc.lft.to/lastmile_qr_scan"}, "bike_id": "82a1cbf5c199bfd42f5c0789a1dc4d0d", "lon": -77.042635}, {"is_reserved": 0, "fusion_lon": 0.0, "fusion_lat": 0.0, "name": "16cbd83d424ce405ab2946e711a0c102", "type": "electric_scooter", "is_disabled": 0, "lat": 38.89455433333333, "rental_uris": {"android": "https://dc.lft.to/lastmile_qr_scan", "ios": "https://dc.lft.to/lastmile_qr_scan"}, "bike_id": "16cbd83d424ce405ab2946e711a0c102", "lon": -76.99831983333333}, {"is_reserved": 0, "fusion_lon": 0.0, "fusion_lat": 0.0, "name": "b2136c595300394d019c699a4ff21cc8", "type": "electric_scooter", "is_disabled": 0, "lat": 38.89101466666666, "rental_uris": {"android": "https://dc.lft.to/lastmile_qr_scan", "ios": "https://dc.lft.to/lastmile_qr_scan"}, "bike_id": "b2136c595300394d019c699a4ff21cc8", "lon": -77.00283316666666}, {"is_reserved": 0, "fusion_lon": 0.0, "fusion_lat": 0.0, "name": "d71b23a2d66f48daed6c8f5c59a8b2cd", "type": "electric_scooter", "is_disabled": 0, "lat": 38.86382566666666, "rental_uris": {"android": "https://dc.lft.to/lastmile_qr_scan", "ios": "https://dc.lft.to/lastmile_qr_scan"}, "bike_id": "d71b23a2d66f48daed6c8f5c59a8b2cd", "lon": -76.9905365}, {"is_reserved": 0, "fusion_lon": 0.0, "fusion_lat": 0.0, "name": "428a033b300b1a8e1c75d32e1a694e40", "type": "electric_scooter", "is_disabled": 0, "lat": 38.91754016666667, "rental_uris": {"android": "https://dc.lft.to/lastmile_qr_scan", "ios": "https://dc.lft.to/lastmile_qr_scan"}, "bike_id": "428a033b300b1a8e1c75d32e1a694e40", "lon": -77.03909466666667}, {"is_reserved": 0, "fusion_lon": 0.0, "fusion_lat": 0.0, "name": "e14080aa095a09612ff4dcef5b344a54", "type": "electric_scooter", "is_disabled": 0, "lat": 38.91301583333333, "rental_uris": {"android": "https://dc.lft.to/lastmile_qr_scan", "ios": "https://dc.lft.to/lastmile_qr_scan"}, "bike_id": "e14080aa095a09612ff4dcef5b344a54", "lon": -76.98473533333333}, {"is_reserved": 0, "fusion_lon": 0.0, "fusion_lat": 0.0, "name": "2f6c66630ff3c104b20309c7fac76421", "type": "electric_scooter", "is_disabled": 0, "lat": 38.91415816666667, "rental_uris": {"android": "https://dc.lft.to/lastmile_qr_scan", "ios": "https://dc.lft.to/lastmile_qr_scan"}, "bike_id": "2f6c66630ff3c104b20309c7fac76421", "lon": -77.04185683333333}, {"is_reserved": 0, "fusion_lon": 0.0, "fusion_lat": 0.0, "name": "c04be3eccf8352ba25fc4404df978357", "type": "electric_scooter", "is_disabled": 0, "lat": 38.94176566666667, "rental_uris": {"android": "https://dc.lft.to/lastmile_qr_scan", "ios": "https://dc.lft.to/lastmile_qr_scan"}, "bike_id": "c04be3eccf8352ba25fc4404df978357", "lon": -77.02559333333333}, {"is_reserved": 0, "fusion_lon": 0.0, "fusion_lat": 0.0, "name": "d739aa6b301cabfcb5e08062bf3576ba", "type": "electric_bike", "is_disabled": 0, "lat": 38.83809933333333, "rental_uris": {"android": "https://dc.lft.to/lastmile_qr_scan", "ios": "https://dc.lft.to/lastmile_qr_scan"}, "bike_id": "d739aa6b301cabfcb5e08062bf3576ba", "lon": -77.09523083333333}, {"is_reserved": 0, "fusion_lon": 0.0, "fusion_lat": 0.0, "name": "d0709b0183c5010b1c993992e115aec8", "type": "electric_scooter", "is_disabled": 0, "lat": 38.89413666666667, "rental_uris": {"android": "https://dc.lft.to/lastmile_qr_scan", "ios": "https://dc.lft.to/lastmile_qr_scan"}, "bike_id": "d0709b0183c5010b1c993992e115aec8", "lon": -77.02418333333334}, {"is_reserved": 0, "fusion_lon": 0.0, "fusion_lat": 0.0, "name": "047d88fe389eddb3a92a82a21441b026", "type": "electric_bike", "is_disabled": 0, "lat": 38.86523433333333, "rental_uris": {"android": "https://dc.lft.to/lastmile_qr_scan", "ios": "https://dc.lft.to/lastmile_qr_scan"}, "bike_id": "047d88fe389eddb3a92a82a21441b026", "lon": -76.97337416666667}, {"is_reserved": 0, "fusion_lon": 0.0, "fusion_lat": 0.0, "name": "840473b1166e48c48459856e100f637b", "type": "electric_scooter", "is_disabled": 0, "lat": 38.949862833333334, "rental_uris": {"android": "https://dc.lft.to/lastmile_qr_scan", "ios": "https://dc.lft.to/lastmile_qr_scan"}, "bike_id": "840473b1166e48c48459856e100f637b", "lon": -77.02706916666666}, {"is_reserved": 0, "fusion_lon": 0.0, "fusion_lat": 0.0, "name": "fd27ce128af2a1549ea436f54afc1c18", "type": "electric_scooter", "is_disabled": 0, "lat": 38.975164166666666, "rental_uris": {"android": "https://dc.lft.to/lastmile_qr_scan", "ios": "https://dc.lft.to/lastmile_qr_scan"}, "bike_id": "fd27ce128af2a1549ea436f54afc1c18", "lon": -77.01730183333333}, {"is_reserved": 0, "fusion_lon": 0.0, "fusion_lat": 0.0, "name": "0828d7f0fd4076db2f4cf3b110dc2a89", "type": "electric_scooter", "is_disabled": 0, "lat": 38.866708833333334, "rental_uris": {"android": "https://dc.lft.to/lastmile_qr_scan", "ios": "https://dc.lft.to/lastmile_qr_scan"}, "bike_id": "0828d7f0fd4076db2f4cf3b110dc2a89", "lon": -76.98511766666667}, {"is_reserved": 0, "fusion_lon": 0.0, "fusion_lat": 0.0, "name": "741e4dcdb36357495170964cafa4f75e", "type": "electric_scooter", "is_disabled": 0, "lat": 38.900392833333335, "rental_uris": {"android": "https://dc.lft.to/lastmile_qr_scan", "ios": "https://dc.lft.to/lastmile_qr_scan"}, "bike_id": "741e4dcdb36357495170964cafa4f75e", "lon": -76.98058583333334}, {"is_reserved": 0, "fusion_lon": 0.0, "fusion_lat": 0.0, "name": "87c1108380055e05a05d32a5f8e5fabc", "type": "electric_scooter", "is_disabled": 0, "lat": 38.906473166666665, "rental_uris": {"android": "https://dc.lft.to/lastmile_qr_scan", "ios": "https://dc.lft.to/lastmile_qr_scan"}, "bike_id": "87c1108380055e05a05d32a5f8e5fabc", "lon": -77.01026183333333}, {"is_reserved": 0, "fusion_lon": 0.0, "fusion_lat": 0.0, "name": "ac57c6b6c63d5d7eb9ae8d4cdea50d7d", "type": "electric_scooter", "is_disabled": 0, "lat": 38.881283833333335, "rental_uris": {"android": "https://dc.lft.to/lastmile_qr_scan", "ios": "https://dc.lft.to/lastmile_qr_scan"}, "bike_id": "ac57c6b6c63d5d7eb9ae8d4cdea50d7d", "lon": -77.00078466666666}, {"is_reserved": 0, "fusion_lon": 0.0, "fusion_lat": 0.0, "name": "8bfc52c798358a5c069d000251d409b3", "type": "electric_bike", "is_disabled": 0, "lat": 39.034376, "rental_uris": {"android": "https://dc.lft.to/lastmile_qr_scan", "ios": "https://dc.lft.to/lastmile_qr_scan"}, "bike_id": "8bfc52c798358a5c069d000251d409b3", "lon": -77.0409175}, {"is_reserved": 0, "fusion_lon": 0.0, "fusion_lat": 0.0, "name": "b52c4e68b6eafeadbf85e69a77a232b9", "type": "electric_scooter", "is_disabled": 0, "lat": 38.92661283333333, "rental_uris": {"android": "https://dc.lft.to/lastmile_qr_scan", "ios": "https://dc.lft.to/lastmile_qr_scan"}, "bike_id": "b52c4e68b6eafeadbf85e69a77a232b9", "lon": -77.00870083333334}, {"is_reserved": 0, "fusion_lon": 0.0, "fusion_lat": 0.0, "name": "84f9e7bed813bf38b733f8d6202782b0", "type": "electric_bike", "is_disabled": 0, "lat": 39.0549795, "rental_uris": {"android": "https://dc.lft.to/lastmile_qr_scan", "ios": "https://dc.lft.to/lastmile_qr_scan"}, "bike_id": "84f9e7bed813bf38b733f8d6202782b0", "lon": -77.117875}, {"is_reserved": 0, "fusion_lon": 0.0, "fusion_lat": 0.0, "name": "2896565a5a40243a24653978268dc74b", "type": "electric_scooter", "is_disabled": 0, "lat": 38.91764383333334, "rental_uris": {"android": "https://dc.lft.to/lastmile_qr_scan", "ios": "https://dc.lft.to/lastmile_qr_scan"}, "bike_id": "2896565a5a40243a24653978268dc74b", "lon": -77.0192585}, {"is_reserved": 0, "fusion_lon": 0.0, "fusion_lat": 0.0, "name": "c63af0120943e91670ca40c7133a896a", "type": "electric_scooter", "is_disabled": 0, "lat": 38.918109333333334, "rental_uris": {"android": "https://dc.lft.to/lastmile_qr_scan", "ios": "https://dc.lft.to/lastmile_qr_scan"}, "bike_id": "c63af0120943e91670ca40c7133a896a", "lon": -77.03436783333333}, {"is_reserved": 0, "fusion_lon": 0.0, "fusion_lat": 0.0, "name": "36b279a83c28bb3bec9edc91eb01b08d", "type": "electric_scooter", "is_disabled": 0, "lat": 38.92283416666667, "rental_uris": {"android": "https://dc.lft.to/lastmile_qr_scan", "ios": "https://dc.lft.to/lastmile_qr_scan"}, "bike_id": "36b279a83c28bb3bec9edc91eb01b08d", "lon": -77.04238366666667}, {"is_reserved": 0, "fusion_lon": 0.0, "fusion_lat": 0.0, "name": "258718e71120f63b079a8d5f8373ce75", "type": "electric_scooter", "is_disabled": 0, "lat": 38.888371, "rental_uris": {"android": "https://dc.lft.to/lastmile_qr_scan", "ios": "https://dc.lft.to/lastmile_qr_scan"}, "bike_id": "258718e71120f63b079a8d5f8373ce75", "lon": -77.04840416666667}, {"is_reserved": 0, "fusion_lon": 0.0, "fusion_lat": 0.0, "name": "6534f0d8a770bb874d12671f0dd6dbac", "type": "electric_scooter", "is_disabled": 0, "lat": 38.92344333333333, "rental_uris": {"android": "https://dc.lft.to/lastmile_qr_scan", "ios": "https://dc.lft.to/lastmile_qr_scan"}, "bike_id": "6534f0d8a770bb874d12671f0dd6dbac", "lon": -77.035026}, {"is_reserved": 0, "fusion_lon": 0.0, "fusion_lat": 0.0, "name": "6b0bb711bdf233e01847074a60c0dd6b", "type": "electric_scooter", "is_disabled": 0, "lat": 38.903222, "rental_uris": {"android": "https://dc.lft.to/lastmile_qr_scan", "ios": "https://dc.lft.to/lastmile_qr_scan"}, "bike_id": "6b0bb711bdf233e01847074a60c0dd6b", "lon": -77.0501295}, {"is_reserved": 0, "fusion_lon": 0.0, "fusion_lat": 0.0, "name": "8649d650ffb4cf333d12338a6351d89b", "type": "electric_scooter", "is_disabled": 0, "lat": 38.91926633333333, "rental_uris": {"android": "https://dc.lft.to/lastmile_qr_scan", "ios": "https://dc.lft.to/lastmile_qr_scan"}, "bike_id": "8649d650ffb4cf333d12338a6351d89b", "lon": -77.03424616666666}, {"is_reserved": 0, "fusion_lon": 0.0, "fusion_lat": 0.0, "name": "d6738f68a6cd470bc43075fee081f69d", "type": "electric_scooter", "is_disabled": 0, "lat": 38.90519283333333, "rental_uris": {"android": "https://dc.lft.to/lastmile_qr_scan", "ios": "https://dc.lft.to/lastmile_qr_scan"}, "bike_id": "d6738f68a6cd470bc43075fee081f69d", "lon": -77.03845433333333}, {"is_reserved": 0, "fusion_lon": 0.0, "fusion_lat": 0.0, "name": "e45e0616d0778fbb7064aae39b8479d4", "type": "electric_scooter", "is_disabled": 0, "lat": 38.907198666666666, "rental_uris": {"android": "https://dc.lft.to/lastmile_qr_scan", "ios": "https://dc.lft.to/lastmile_qr_scan"}, "bike_id": "e45e0616d0778fbb7064aae39b8479d4", "lon": -76.99818933333333}, {"is_reserved": 0, "fusion_lon": 0.0, "fusion_lat": 0.0, "name": "5832a8e04172792fbb3492cc979fd381", "type": "electric_scooter", "is_disabled": 0, "lat": 38.91205166666667, "rental_uris": {"android": "https://dc.lft.to/lastmile_qr_scan", "ios": "https://dc.lft.to/lastmile_qr_scan"}, "bike_id": "5832a8e04172792fbb3492cc979fd381", "lon": -77.00436616666667}, {"is_reserved": 0, "fusion_lon": 0.0, "fusion_lat": 0.0, "name": "9b160f85b6eb59908f60f48e9983ffca", "type": "electric_bike", "is_disabled": 0, "lat": 38.938987833333336, "rental_uris": {"android": "https://dc.lft.to/lastmile_qr_scan", "ios": "https://dc.lft.to/lastmile_qr_scan"}, "bike_id": "9b160f85b6eb59908f60f48e9983ffca", "lon": -77.01689383333333}, {"is_reserved": 0, "fusion_lon": 0.0, "fusion_lat": 0.0, "name": "2f646a0cdb7ba6014d7f21423e61d345", "type": "electric_scooter", "is_disabled": 0, "lat": 38.9082085, "rental_uris": {"android": "https://dc.lft.to/lastmile_qr_scan", "ios": "https://dc.lft.to/lastmile_qr_scan"}, "bike_id": "2f646a0cdb7ba6014d7f21423e61d345", "lon": -77.03900133333333}, {"is_reserved": 0, "fusion_lon": 0.0, "fusion_lat": 0.0, "name": "6d1367e91b82d7c64513d6441e1ef1b6", "type": "electric_scooter", "is_disabled": 0, "lat": 38.927692666666665, "rental_uris": {"android": "https://dc.lft.to/lastmile_qr_scan", "ios": "https://dc.lft.to/lastmile_qr_scan"}, "bike_id": "6d1367e91b82d7c64513d6441e1ef1b6", "lon": -77.02067566666666}, {"is_reserved": 0, "fusion_lon": 0.0, "fusion_lat": 0.0, "name": "5f5b585802557f50ed714d13e948750b", "type": "electric_scooter", "is_disabled": 0, "lat": 38.916979166666664, "rental_uris": {"android": "https://dc.lft.to/lastmile_qr_scan", "ios": "https://dc.lft.to/lastmile_qr_scan"}, "bike_id": "5f5b585802557f50ed714d13e948750b", "lon": -77.03758466666666}, {"is_reserved": 0, "fusion_lon": 0.0, "fusion_lat": 0.0, "name": "9a634d62e6f1edd7c86380a446469c5d", "type": "electric_scooter", "is_disabled": 0, "lat": 38.9174635, "rental_uris": {"android": "https://dc.lft.to/lastmile_qr_scan", "ios": "https://dc.lft.to/lastmile_qr_scan"}, "bike_id": "9a634d62e6f1edd7c86380a446469c5d", "lon": -77.031802}, {"is_reserved": 0, "fusion_lon": 0.0, "fusion_lat": 0.0, "name": "9a7d38104c0ba8e93f3f0abf151218c7", "type": "electric_scooter", "is_disabled": 0, "lat": 38.89507066666667, "rental_uris": {"android": "https://dc.lft.to/lastmile_qr_scan", "ios": "https://dc.lft.to/lastmile_qr_scan"}, "bike_id": "9a7d38104c0ba8e93f3f0abf151218c7", "lon": -76.93472766666666}, {"is_reserved": 0, "fusion_lon": 0.0, "fusion_lat": 0.0, "name": "57028ef427a947489b45fa175eb8c228", "type": "electric_scooter", "is_disabled": 0, "lat": 38.8877175, "rental_uris": {"android": "https://dc.lft.to/lastmile_qr_scan", "ios": "https://dc.lft.to/lastmile_qr_scan"}, "bike_id": "57028ef427a947489b45fa175eb8c228", "lon": -76.986869}, {"is_reserved": 0, "fusion_lon": 0.0, "fusion_lat": 0.0, "name": "f1063c4d5a67e466733e3bddba5258d4", "type": "electric_scooter", "is_disabled": 0, "lat": 38.84316283333333, "rental_uris": {"android": "https://dc.lft.to/lastmile_qr_scan", "ios": "https://dc.lft.to/lastmile_qr_scan"}, "bike_id": "f1063c4d5a67e466733e3bddba5258d4", "lon": -76.9993115}, {"is_reserved": 0, "fusion_lon": 0.0, "fusion_lat": 0.0, "name": "9b6d6759b4e297f383d9131244eee4df", "type": "electric_scooter", "is_disabled": 0, "lat": 38.91894, "rental_uris": {"android": "https://dc.lft.to/lastmile_qr_scan", "ios": "https://dc.lft.to/lastmile_qr_scan"}, "bike_id": "9b6d6759b4e297f383d9131244eee4df", "lon": -77.02976216666667}, {"is_reserved": 0, "fusion_lon": 0.0, "fusion_lat": 0.0, "name": "df748a68afcc716f3922fa2b3b3f5026", "type": "electric_scooter", "is_disabled": 0, "lat": 38.92224816666667, "rental_uris": {"android": "https://dc.lft.to/lastmile_qr_scan", "ios": "https://dc.lft.to/lastmile_qr_scan"}, "bike_id": "df748a68afcc716f3922fa2b3b3f5026", "lon": -77.02209766666667}, {"is_reserved": 0, "fusion_lon": 0.0, "fusion_lat": 0.0, "name": "1c7c1b26f640d8feda04792188814575", "type": "electric_scooter", "is_disabled": 0, "lat": 38.94513766666667, "rental_uris": {"android": "https://dc.lft.to/lastmile_qr_scan", "ios": "https://dc.lft.to/lastmile_qr_scan"}, "bike_id": "1c7c1b26f640d8feda04792188814575", "lon": -77.07453633333333}, {"is_reserved": 0, "fusion_lon": 0.0, "fusion_lat": 0.0, "name": "0ac89600c9210a78563c64c9f773fa02", "type": "electric_scooter", "is_disabled": 0, "lat": 38.9034825, "rental_uris": {"android": "https://dc.lft.to/lastmile_qr_scan", "ios": "https://dc.lft.to/lastmile_qr_scan"}, "bike_id": "0ac89600c9210a78563c64c9f773fa02", "lon": -77.00569216666666}, {"is_reserved": 0, "fusion_lon": 0.0, "fusion_lat": 0.0, "name": "95c4d3262869848a2132ae8103489566", "type": "electric_scooter", "is_disabled": 0, "lat": 38.908486333333336, "rental_uris": {"android": "https://dc.lft.to/lastmile_qr_scan", "ios": "https://dc.lft.to/lastmile_qr_scan"}, "bike_id": "95c4d3262869848a2132ae8103489566", "lon": -77.06347033333333}, {"is_reserved": 0, "fusion_lon": 0.0, "fusion_lat": 0.0, "name": "560cbde5f5329ea6536ebc1f6a2ddb53", "type": "electric_bike", "is_disabled": 0, "lat": 39.05633483333333, "rental_uris": {"android": "https://dc.lft.to/lastmile_qr_scan", "ios": "https://dc.lft.to/lastmile_qr_scan"}, "bike_id": "560cbde5f5329ea6536ebc1f6a2ddb53", "lon": -77.1252895}, {"is_reserved": 0, "fusion_lon": 0.0, "fusion_lat": 0.0, "name": "5839e4458ccf51f0ae2214b28cfcd8f2", "type": "electric_scooter", "is_disabled": 0, "lat": 38.91570566666667, "rental_uris": {"android": "https://dc.lft.to/lastmile_qr_scan", "ios": "https://dc.lft.to/lastmile_qr_scan"}, "bike_id": "5839e4458ccf51f0ae2214b28cfcd8f2", "lon": -77.02412766666667}, {"is_reserved": 0, "fusion_lon": 0.0, "fusion_lat": 0.0, "name": "9c3cf51f07d7e046944cdd5e7381efc3", "type": "electric_bike", "is_disabled": 0, "lat": 38.872933333333336, "rental_uris": {"android": "https://dc.lft.to/lastmile_qr_scan", "ios": "https://dc.lft.to/lastmile_qr_scan"}, "bike_id": "9c3cf51f07d7e046944cdd5e7381efc3", "lon": -77.13934533333334}, {"is_reserved": 0, "fusion_lon": 0.0, "fusion_lat": 0.0, "name": "ac9d7b10042035b2f93a28ceb3c54a60", "type": "electric_bike", "is_disabled": 0, "lat": 38.8537725, "rental_uris": {"android": "https://dc.lft.to/lastmile_qr_scan", "ios": "https://dc.lft.to/lastmile_qr_scan"}, "bike_id": "ac9d7b10042035b2f93a28ceb3c54a60", "lon": -77.12463266666667}, {"is_reserved": 0, "fusion_lon": 0.0, "fusion_lat": 0.0, "name": "8fb823bb7f4cd39eddfb9f99061db149", "type": "electric_scooter", "is_disabled": 0, "lat": 38.921457333333336, "rental_uris": {"android": "https://dc.lft.to/lastmile_qr_scan", "ios": "https://dc.lft.to/lastmile_qr_scan"}, "bike_id": "8fb823bb7f4cd39eddfb9f99061db149", "lon": -77.03884433333333}, {"is_reserved": 0, "fusion_lon": 0.0, "fusion_lat": 0.0, "name": "00ef8f685cabffd15f1b23a0450a4ae2", "type": "electric_scooter", "is_disabled": 0, "lat": 38.91965783333333, "rental_uris": {"android": "https://dc.lft.to/lastmile_qr_scan", "ios": "https://dc.lft.to/lastmile_qr_scan"}, "bike_id": "00ef8f685cabffd15f1b23a0450a4ae2", "lon": -77.03181416666666}, {"is_reserved": 0, "fusion_lon": 0.0, "fusion_lat": 0.0, "name": "fbcad4dd89d61a0e426e5cd83d3ba78e", "type": "electric_scooter", "is_disabled": 0, "lat": 38.950113, "rental_uris": {"android": "https://dc.lft.to/lastmile_qr_scan", "ios": "https://dc.lft.to/lastmile_qr_scan"}, "bike_id": "fbcad4dd89d61a0e426e5cd83d3ba78e", "lon": -77.06732733333334}, {"is_reserved": 0, "fusion_lon": 0.0, "fusion_lat": 0.0, "name": "f6d94fd4137215e1be4ad10032fc6926", "type": "electric_scooter", "is_disabled": 0, "lat": 38.904763, "rental_uris": {"android": "https://dc.lft.to/lastmile_qr_scan", "ios": "https://dc.lft.to/lastmile_qr_scan"}, "bike_id": "f6d94fd4137215e1be4ad10032fc6926", "lon": -77.03559066666666}, {"is_reserved": 0, "fusion_lon": 0.0, "fusion_lat": 0.0, "name": "67e2f2a99137ca911e8c8619cf2263bc", "type": "electric_scooter", "is_disabled": 0, "lat": 38.9270535, "rental_uris": {"android": "https://dc.lft.to/lastmile_qr_scan", "ios": "https://dc.lft.to/lastmile_qr_scan"}, "bike_id": "67e2f2a99137ca911e8c8619cf2263bc", "lon": -77.02061333333333}, {"is_reserved": 0, "fusion_lon": 0.0, "fusion_lat": 0.0, "name": "f3519e6c68a724d4c92b5f7084fa2e41", "type": "electric_scooter", "is_disabled": 0, "lat": 38.91484783333333, "rental_uris": {"android": "https://dc.lft.to/lastmile_qr_scan", "ios": "https://dc.lft.to/lastmile_qr_scan"}, "bike_id": "f3519e6c68a724d4c92b5f7084fa2e41", "lon": -77.0415625}, {"is_reserved": 0, "fusion_lon": 0.0, "fusion_lat": 0.0, "name": "dcb716b6ac67aa6041536a453fcb65b0", "type": "electric_scooter", "is_disabled": 0, "lat": 38.89240683333333, "rental_uris": {"android": "https://dc.lft.to/lastmile_qr_scan", "ios": "https://dc.lft.to/lastmile_qr_scan"}, "bike_id": "dcb716b6ac67aa6041536a453fcb65b0", "lon": -77.041635}, {"is_reserved": 0, "fusion_lon": 0.0, "fusion_lat": 0.0, "name": "ab9076b9daa9360a72e5c123630106f8", "type": "electric_scooter", "is_disabled": 0, "lat": 38.900129, "rental_uris": {"android": "https://dc.lft.to/lastmile_qr_scan", "ios": "https://dc.lft.to/lastmile_qr_scan"}, "bike_id": "ab9076b9daa9360a72e5c123630106f8", "lon": -76.98697533333333}, {"is_reserved": 0, "fusion_lon": 0.0, "fusion_lat": 0.0, "name": "f1ae50f85d35110f7c5c6f91eff0eb87", "type": "electric_scooter", "is_disabled": 0, "lat": 38.917192, "rental_uris": {"android": "https://dc.lft.to/lastmile_qr_scan", "ios": "https://dc.lft.to/lastmile_qr_scan"}, "bike_id": "f1ae50f85d35110f7c5c6f91eff0eb87", "lon": -77.03858966666667}, {"is_reserved": 0, "fusion_lon": 0.0, "fusion_lat": 0.0, "name": "5d76485a40109b7ef0068b13fcb9bca6", "type": "electric_scooter", "is_disabled": 0, "lat": 38.9006535, "rental_uris": {"android": "https://dc.lft.to/lastmile_qr_scan", "ios": "https://dc.lft.to/lastmile_qr_scan"}, "bike_id": "5d76485a40109b7ef0068b13fcb9bca6", "lon": -77.04858833333333}, {"is_reserved": 0, "fusion_lon": 0.0, "fusion_lat": 0.0, "name": "2b624d410db8342fa567e665df0d7a73", "type": "electric_scooter", "is_disabled": 0, "lat": 38.9573655, "rental_uris": {"android": "https://dc.lft.to/lastmile_qr_scan", "ios": "https://dc.lft.to/lastmile_qr_scan"}, "bike_id": "2b624d410db8342fa567e665df0d7a73", "lon": -77.02404833333334}, {"is_reserved": 0, "fusion_lon": 0.0, "fusion_lat": 0.0, "name": "711e13c8647c20e05ebb34234b4c06bd", "type": "electric_scooter", "is_disabled": 0, "lat": 38.911784, "rental_uris": {"android": "https://dc.lft.to/lastmile_qr_scan", "ios": "https://dc.lft.to/lastmile_qr_scan"}, "bike_id": "711e13c8647c20e05ebb34234b4c06bd", "lon": -77.03857866666667}, {"is_reserved": 0, "fusion_lon": 0.0, "fusion_lat": 0.0, "name": "33b257f87a27cc738a246400354646ac", "type": "electric_scooter", "is_disabled": 0, "lat": 38.91559633333333, "rental_uris": {"android": "https://dc.lft.to/lastmile_qr_scan", "ios": "https://dc.lft.to/lastmile_qr_scan"}, "bike_id": "33b257f87a27cc738a246400354646ac", "lon": -77.02422466666667}, {"is_reserved": 0, "fusion_lon": 0.0, "fusion_lat": 0.0, "name": "9bde6c4fa14023e4d9b34a815ba888ae", "type": "electric_scooter", "is_disabled": 0, "lat": 38.905245666666666, "rental_uris": {"android": "https://dc.lft.to/lastmile_qr_scan", "ios": "https://dc.lft.to/lastmile_qr_scan"}, "bike_id": "9bde6c4fa14023e4d9b34a815ba888ae", "lon": -77.047634}, {"is_reserved": 0, "fusion_lon": 0.0, "fusion_lat": 0.0, "name": "4fb2331eab66bc690bac9a52edeae45c", "type": "electric_scooter", "is_disabled": 0, "lat": 38.907339666666665, "rental_uris": {"android": "https://dc.lft.to/lastmile_qr_scan", "ios": "https://dc.lft.to/lastmile_qr_scan"}, "bike_id": "4fb2331eab66bc690bac9a52edeae45c", "lon": -76.98631066666667}, {"is_reserved": 0, "fusion_lon": 0.0, "fusion_lat": 0.0, "name": "71cdfde66dff42f9503daca09a8470e7", "type": "electric_scooter", "is_disabled": 0, "lat": 38.89989633333333, "rental_uris": {"android": "https://dc.lft.to/lastmile_qr_scan", "ios": "https://dc.lft.to/lastmile_qr_scan"}, "bike_id": "71cdfde66dff42f9503daca09a8470e7", "lon": -77.00346583333334}, {"is_reserved": 0, "fusion_lon": 0.0, "fusion_lat": 0.0, "name": "441783a56858d509c329ae20ae23481b", "type": "electric_scooter", "is_disabled": 0, "lat": 38.917729333333334, "rental_uris": {"android": "https://dc.lft.to/lastmile_qr_scan", "ios": "https://dc.lft.to/lastmile_qr_scan"}, "bike_id": "441783a56858d509c329ae20ae23481b", "lon": -77.04768333333334}, {"is_reserved": 0, "fusion_lon": 0.0, "fusion_lat": 0.0, "name": "f2c194514059cec73171d85a6f12bef8", "type": "electric_scooter", "is_disabled": 0, "lat": 38.93638933333333, "rental_uris": {"android": "https://dc.lft.to/lastmile_qr_scan", "ios": "https://dc.lft.to/lastmile_qr_scan"}, "bike_id": "f2c194514059cec73171d85a6f12bef8", "lon": -77.03649966666667}, {"is_reserved": 0, "fusion_lon": 0.0, "fusion_lat": 0.0, "name": "f50767a7d15dcf111d3e07c3293f65fe", "type": "electric_scooter", "is_disabled": 0, "lat": 38.92912966666667, "rental_uris": {"android": "https://dc.lft.to/lastmile_qr_scan", "ios": "https://dc.lft.to/lastmile_qr_scan"}, "bike_id": "f50767a7d15dcf111d3e07c3293f65fe", "lon": -77.03768733333334}, {"is_reserved": 0, "fusion_lon": 0.0, "fusion_lat": 0.0, "name": "eca77d37e27ad4bd56f3e28faf778564", "type": "electric_scooter", "is_disabled": 0, "lat": 38.9113775, "rental_uris": {"android": "https://dc.lft.to/lastmile_qr_scan", "ios": "https://dc.lft.to/lastmile_qr_scan"}, "bike_id": "eca77d37e27ad4bd56f3e28faf778564", "lon": -77.03210466666667}, {"is_reserved": 0, "fusion_lon": 0.0, "fusion_lat": 0.0, "name": "806de8d83d6803f60f247d7c8f8c8667", "type": "electric_scooter", "is_disabled": 0, "lat": 38.94206166666667, "rental_uris": {"android": "https://dc.lft.to/lastmile_qr_scan", "ios": "https://dc.lft.to/lastmile_qr_scan"}, "bike_id": "806de8d83d6803f60f247d7c8f8c8667", "lon": -77.02500066666667}, {"is_reserved": 0, "fusion_lon": 0.0, "fusion_lat": 0.0, "name": "74e798873fd04bdf6c251d1f3a531425", "type": "electric_scooter", "is_disabled": 0, "lat": 38.91992366666667, "rental_uris": {"android": "https://dc.lft.to/lastmile_qr_scan", "ios": "https://dc.lft.to/lastmile_qr_scan"}, "bike_id": "74e798873fd04bdf6c251d1f3a531425", "lon": -77.03243716666667}, {"is_reserved": 0, "fusion_lon": 0.0, "fusion_lat": 0.0, "name": "8892862ec8adbe057e23fd06c6e700bc", "type": "electric_bike", "is_disabled": 0, "lat": 38.865212666666665, "rental_uris": {"android": "https://dc.lft.to/lastmile_qr_scan", "ios": "https://dc.lft.to/lastmile_qr_scan"}, "bike_id": "8892862ec8adbe057e23fd06c6e700bc", "lon": -76.97345033333333}, {"is_reserved": 0, "fusion_lon": 0.0, "fusion_lat": 0.0, "name": "9550bd4bd3bd83597720babd29ac9eca", "type": "electric_scooter", "is_disabled": 0, "lat": 38.90411983333333, "rental_uris": {"android": "https://dc.lft.to/lastmile_qr_scan", "ios": "https://dc.lft.to/lastmile_qr_scan"}, "bike_id": "9550bd4bd3bd83597720babd29ac9eca", "lon": -77.01847116666667}, {"is_reserved": 0, "fusion_lon": 0.0, "fusion_lat": 0.0, "name": "cba7532614c6a7db7f9300008c036938", "type": "electric_bike", "is_disabled": 0, "lat": 38.865840666666664, "rental_uris": {"android": "https://dc.lft.to/lastmile_qr_scan", "ios": "https://dc.lft.to/lastmile_qr_scan"}, "bike_id": "cba7532614c6a7db7f9300008c036938", "lon": -77.04760466666667}, {"is_reserved": 0, "fusion_lon": 0.0, "fusion_lat": 0.0, "name": "e89a86c04fbee5a4515677c1866d04ee", "type": "electric_scooter", "is_disabled": 0, "lat": 38.88747033333333, "rental_uris": {"android": "https://dc.lft.to/lastmile_qr_scan", "ios": "https://dc.lft.to/lastmile_qr_scan"}, "bike_id": "e89a86c04fbee5a4515677c1866d04ee", "lon": -77.0273535}, {"is_reserved": 0, "fusion_lon": 0.0, "fusion_lat": 0.0, "name": "4881452cf5387390318ff457cb8181c4", "type": "electric_scooter", "is_disabled": 0, "lat": 38.91874816666667, "rental_uris": {"android": "https://dc.lft.to/lastmile_qr_scan", "ios": "https://dc.lft.to/lastmile_qr_scan"}, "bike_id": "4881452cf5387390318ff457cb8181c4", "lon": -77.04194683333333}, {"is_reserved": 0, "fusion_lon": 0.0, "fusion_lat": 0.0, "name": "74a1369f56f2b2116fa36b8b767f118f", "type": "electric_scooter", "is_disabled": 0, "lat": 38.939570833333335, "rental_uris": {"android": "https://dc.lft.to/lastmile_qr_scan", "ios": "https://dc.lft.to/lastmile_qr_scan"}, "bike_id": "74a1369f56f2b2116fa36b8b767f118f", "lon": -77.072468}, {"is_reserved": 0, "fusion_lon": 0.0, "fusion_lat": 0.0, "name": "5130255463a0b63381fc904b08bf12bf", "type": "electric_scooter", "is_disabled": 0, "lat": 38.93916316666667, "rental_uris": {"android": "https://dc.lft.to/lastmile_qr_scan", "ios": "https://dc.lft.to/lastmile_qr_scan"}, "bike_id": "5130255463a0b63381fc904b08bf12bf", "lon": -77.02472466666667}, {"is_reserved": 0, "fusion_lon": 0.0, "fusion_lat": 0.0, "name": "872bad508adb12e7a88147c2fa545d6a", "type": "electric_scooter", "is_disabled": 0, "lat": 38.86504983333333, "rental_uris": {"android": "https://dc.lft.to/lastmile_qr_scan", "ios": "https://dc.lft.to/lastmile_qr_scan"}, "bike_id": "872bad508adb12e7a88147c2fa545d6a", "lon": -76.9900585}, {"is_reserved": 0, "fusion_lon": 0.0, "fusion_lat": 0.0, "name": "ef1abd6e71b0c4c5f19dffa58f24e164", "type": "electric_scooter", "is_disabled": 0, "lat": 38.9386855, "rental_uris": {"android": "https://dc.lft.to/lastmile_qr_scan", "ios": "https://dc.lft.to/lastmile_qr_scan"}, "bike_id": "ef1abd6e71b0c4c5f19dffa58f24e164", "lon": -77.02650683333333}, {"is_reserved": 0, "fusion_lon": 0.0, "fusion_lat": 0.0, "name": "1fee26b189b49f7cb4dbb91c9b04704c", "type": "electric_scooter", "is_disabled": 0, "lat": 38.9126785, "rental_uris": {"android": "https://dc.lft.to/lastmile_qr_scan", "ios": "https://dc.lft.to/lastmile_qr_scan"}, "bike_id": "1fee26b189b49f7cb4dbb91c9b04704c", "lon": -77.03121666666667}, {"is_reserved": 0, "fusion_lon": 0.0, "fusion_lat": 0.0, "name": "4972c45522f8d1b3e8c2d81d688bbe6f", "type": "electric_scooter", "is_disabled": 0, "lat": 38.906306, "rental_uris": {"android": "https://dc.lft.to/lastmile_qr_scan", "ios": "https://dc.lft.to/lastmile_qr_scan"}, "bike_id": "4972c45522f8d1b3e8c2d81d688bbe6f", "lon": -77.00582683333333}, {"is_reserved": 0, "fusion_lon": 0.0, "fusion_lat": 0.0, "name": "450a1527c4ccff62238a46e8890ae581", "type": "electric_scooter", "is_disabled": 0, "lat": 38.892248, "rental_uris": {"android": "https://dc.lft.to/lastmile_qr_scan", "ios": "https://dc.lft.to/lastmile_qr_scan"}, "bike_id": "450a1527c4ccff62238a46e8890ae581", "lon": -77.04379083333333}, {"is_reserved": 0, "fusion_lon": 0.0, "fusion_lat": 0.0, "name": "a008e70857fbfaef686fbd9e2cf51a51", "type": "electric_scooter", "is_disabled": 0, "lat": 38.935282666666666, "rental_uris": {"android": "https://dc.lft.to/lastmile_qr_scan", "ios": "https://dc.lft.to/lastmile_qr_scan"}, "bike_id": "a008e70857fbfaef686fbd9e2cf51a51", "lon": -77.02356133333333}, {"is_reserved": 0, "fusion_lon": 0.0, "fusion_lat": 0.0, "name": "c6c4b652609cca5e641ce44138ac2f19", "type": "electric_bike", "is_disabled": 0, "lat": 38.874134166666664, "rental_uris": {"android": "https://dc.lft.to/lastmile_qr_scan", "ios": "https://dc.lft.to/lastmile_qr_scan"}, "bike_id": "c6c4b652609cca5e641ce44138ac2f19", "lon": -76.971696}, {"is_reserved": 0, "fusion_lon": 0.0, "fusion_lat": 0.0, "name": "487a1fda8e88b9c48fbaa58bc76cfe82", "type": "electric_scooter", "is_disabled": 0, "lat": 38.919273833333335, "rental_uris": {"android": "https://dc.lft.to/lastmile_qr_scan", "ios": "https://dc.lft.to/lastmile_qr_scan"}, "bike_id": "487a1fda8e88b9c48fbaa58bc76cfe82", "lon": -77.03425566666667}, {"is_reserved": 0, "fusion_lon": 0.0, "fusion_lat": 0.0, "name": "8f1108f703655a00fcc2a9f3b42d597f", "type": "electric_scooter", "is_disabled": 0, "lat": 38.8871875, "rental_uris": {"android": "https://dc.lft.to/lastmile_qr_scan", "ios": "https://dc.lft.to/lastmile_qr_scan"}, "bike_id": "8f1108f703655a00fcc2a9f3b42d597f", "lon": -77.02204616666667}, {"is_reserved": 0, "fusion_lon": 0.0, "fusion_lat": 0.0, "name": "c83c3b39a99d47f2a3cc2b1862a26072", "type": "electric_scooter", "is_disabled": 0, "lat": 38.886102666666666, "rental_uris": {"android": "https://dc.lft.to/lastmile_qr_scan", "ios": "https://dc.lft.to/lastmile_qr_scan"}, "bike_id": "c83c3b39a99d47f2a3cc2b1862a26072", "lon": -77.00135533333334}, {"is_reserved": 0, "fusion_lon": 0.0, "fusion_lat": 0.0, "name": "741c4167f6a7593bb476546e5d2c09b5", "type": "electric_scooter", "is_disabled": 0, "lat": 38.956164666666666, "rental_uris": {"android": "https://dc.lft.to/lastmile_qr_scan", "ios": "https://dc.lft.to/lastmile_qr_scan"}, "bike_id": "741c4167f6a7593bb476546e5d2c09b5", "lon": -77.02779066666666}, {"is_reserved": 0, "fusion_lon": 0.0, "fusion_lat": 0.0, "name": "827e79f8b5579c68f7590c5824fa613f", "type": "electric_bike", "is_disabled": 0, "lat": 38.859384, "rental_uris": {"android": "https://dc.lft.to/lastmile_qr_scan", "ios": "https://dc.lft.to/lastmile_qr_scan"}, "bike_id": "827e79f8b5579c68f7590c5824fa613f", "lon": -77.11829533333334}, {"is_reserved": 0, "fusion_lon": 0.0, "fusion_lat": 0.0, "name": "ad417cc382e3dfdd2fff0aaed3357319", "type": "electric_scooter", "is_disabled": 0, "lat": 38.913678166666664, "rental_uris": {"android": "https://dc.lft.to/lastmile_qr_scan", "ios": "https://dc.lft.to/lastmile_qr_scan"}, "bike_id": "ad417cc382e3dfdd2fff0aaed3357319", "lon": -77.04563816666666}, {"is_reserved": 0, "fusion_lon": 0.0, "fusion_lat": 0.0, "name": "d6bcc22fcbf429f73da5fccb202eae7a", "type": "electric_scooter", "is_disabled": 0, "lat": 38.8647385, "rental_uris": {"android": "https://dc.lft.to/lastmile_qr_scan", "ios": "https://dc.lft.to/lastmile_qr_scan"}, "bike_id": "d6bcc22fcbf429f73da5fccb202eae7a", "lon": -76.98232766666666}, {"is_reserved": 0, "fusion_lon": 0.0, "fusion_lat": 0.0, "name": "c85e562ed5fdbcd5e7d2b8347c07e2dc", "type": "electric_scooter", "is_disabled": 0, "lat": 38.899314, "rental_uris": {"android": "https://dc.lft.to/lastmile_qr_scan", "ios": "https://dc.lft.to/lastmile_qr_scan"}, "bike_id": "c85e562ed5fdbcd5e7d2b8347c07e2dc", "lon": -77.039505}, {"is_reserved": 0, "fusion_lon": 0.0, "fusion_lat": 0.0, "name": "2247584903f3b375db15668e5f81c0ef", "type": "electric_scooter", "is_disabled": 0, "lat": 38.926194833333334, "rental_uris": {"android": "https://dc.lft.to/lastmile_qr_scan", "ios": "https://dc.lft.to/lastmile_qr_scan"}, "bike_id": "2247584903f3b375db15668e5f81c0ef", "lon": -77.04323133333334}, {"is_reserved": 0, "fusion_lon": 0.0, "fusion_lat": 0.0, "name": "535dc7e5b5e07610b6b6bc75ad3f772e", "type": "electric_scooter", "is_disabled": 0, "lat": 38.895007666666665, "rental_uris": {"android": "https://dc.lft.to/lastmile_qr_scan", "ios": "https://dc.lft.to/lastmile_qr_scan"}, "bike_id": "535dc7e5b5e07610b6b6bc75ad3f772e", "lon": -77.01095033333333}, {"is_reserved": 0, "fusion_lon": 0.0, "fusion_lat": 0.0, "name": "4c5ac397cb9ed99e33be167f4517b6ec", "type": "electric_scooter", "is_disabled": 0, "lat": 38.834973833333336, "rental_uris": {"android": "https://dc.lft.to/lastmile_qr_scan", "ios": "https://dc.lft.to/lastmile_qr_scan"}, "bike_id": "4c5ac397cb9ed99e33be167f4517b6ec", "lon": -77.00678866666667}, {"is_reserved": 0, "fusion_lon": 0.0, "fusion_lat": 0.0, "name": "9cefdaee19086b96acf8248f00a41432", "type": "electric_bike", "is_disabled": 0, "lat": 38.8379, "rental_uris": {"android": "https://dc.lft.to/lastmile_qr_scan", "ios": "https://dc.lft.to/lastmile_qr_scan"}, "bike_id": "9cefdaee19086b96acf8248f00a41432", "lon": -76.997564}, {"is_reserved": 0, "fusion_lon": 0.0, "fusion_lat": 0.0, "name": "79cfd7e176acbd87e5cad1e4268d7748", "type": "electric_scooter", "is_disabled": 0, "lat": 38.8814175, "rental_uris": {"android": "https://dc.lft.to/lastmile_qr_scan", "ios": "https://dc.lft.to/lastmile_qr_scan"}, "bike_id": "79cfd7e176acbd87e5cad1e4268d7748", "lon": -76.99490833333333}, {"is_reserved": 0, "fusion_lon": 0.0, "fusion_lat": 0.0, "name": "c2d1ba2802a59a9da4d88db591bc7aa5", "type": "electric_bike", "is_disabled": 0, "lat": 38.96140183333333, "rental_uris": {"android": "https://dc.lft.to/lastmile_qr_scan", "ios": "https://dc.lft.to/lastmile_qr_scan"}, "bike_id": "c2d1ba2802a59a9da4d88db591bc7aa5", "lon": -77.0878785}, {"is_reserved": 0, "fusion_lon": 0.0, "fusion_lat": 0.0, "name": "4fc791cd580d38ca14520cf807b3e1c9", "type": "electric_scooter", "is_disabled": 0, "lat": 38.8950465, "rental_uris": {"android": "https://dc.lft.to/lastmile_qr_scan", "ios": "https://dc.lft.to/lastmile_qr_scan"}, "bike_id": "4fc791cd580d38ca14520cf807b3e1c9", "lon": -76.93472933333334}, {"is_reserved": 0, "fusion_lon": 0.0, "fusion_lat": 0.0, "name": "52af5d2ee4ccd42fad197226b14b8cc4", "type": "electric_scooter", "is_disabled": 0, "lat": 38.929018, "rental_uris": {"android": "https://dc.lft.to/lastmile_qr_scan", "ios": "https://dc.lft.to/lastmile_qr_scan"}, "bike_id": "52af5d2ee4ccd42fad197226b14b8cc4", "lon": -77.03250766666666}, {"is_reserved": 0, "fusion_lon": 0.0, "fusion_lat": 0.0, "name": "3e46e8c103685f7c671c54003850da5f", "type": "electric_scooter", "is_disabled": 0, "lat": 38.9009265, "rental_uris": {"android": "https://dc.lft.to/lastmile_qr_scan", "ios": "https://dc.lft.to/lastmile_qr_scan"}, "bike_id": "3e46e8c103685f7c671c54003850da5f", "lon": -77.0573665}, {"is_reserved": 0, "fusion_lon": 0.0, "fusion_lat": 0.0, "name": "c62055ca424c8d427b4bd430deb832ee", "type": "electric_scooter", "is_disabled": 0, "lat": 38.89223416666667, "rental_uris": {"android": "https://dc.lft.to/lastmile_qr_scan", "ios": "https://dc.lft.to/lastmile_qr_scan"}, "bike_id": "c62055ca424c8d427b4bd430deb832ee", "lon": -77.02784683333333}, {"is_reserved": 0, "fusion_lon": 0.0, "fusion_lat": 0.0, "name": "eea791a15962bbc11fe3d343b9300232", "type": "electric_scooter", "is_disabled": 0, "lat": 38.922570666666665, "rental_uris": {"android": "https://dc.lft.to/lastmile_qr_scan", "ios": "https://dc.lft.to/lastmile_qr_scan"}, "bike_id": "eea791a15962bbc11fe3d343b9300232", "lon": -77.02105466666667}, {"is_reserved": 0, "fusion_lon": 0.0, "fusion_lat": 0.0, "name": "0d123e511fca333a41aa0fb333319e5f", "type": "electric_scooter", "is_disabled": 0, "lat": 38.929794666666666, "rental_uris": {"android": "https://dc.lft.to/lastmile_qr_scan", "ios": "https://dc.lft.to/lastmile_qr_scan"}, "bike_id": "0d123e511fca333a41aa0fb333319e5f", "lon": -77.026146}, {"is_reserved": 0, "fusion_lon": 0.0, "fusion_lat": 0.0, "name": "6ee5b4c3e150285595042e25cf6a8197", "type": "electric_scooter", "is_disabled": 0, "lat": 38.8942865, "rental_uris": {"android": "https://dc.lft.to/lastmile_qr_scan", "ios": "https://dc.lft.to/lastmile_qr_scan"}, "bike_id": "6ee5b4c3e150285595042e25cf6a8197", "lon": -77.040151}, {"is_reserved": 0, "fusion_lon": 0.0, "fusion_lat": 0.0, "name": "9a9cb559314208dee4869c16491eaabc", "type": "electric_scooter", "is_disabled": 0, "lat": 38.89731416666667, "rental_uris": {"android": "https://dc.lft.to/lastmile_qr_scan", "ios": "https://dc.lft.to/lastmile_qr_scan"}, "bike_id": "9a9cb559314208dee4869c16491eaabc", "lon": -77.05476333333333}, {"is_reserved": 0, "fusion_lon": 0.0, "fusion_lat": 0.0, "name": "40597452718858960e44396eb041d8ec", "type": "electric_scooter", "is_disabled": 0, "lat": 38.902761, "rental_uris": {"android": "https://dc.lft.to/lastmile_qr_scan", "ios": "https://dc.lft.to/lastmile_qr_scan"}, "bike_id": "40597452718858960e44396eb041d8ec", "lon": -77.045938}, {"is_reserved": 0, "fusion_lon": 0.0, "fusion_lat": 0.0, "name": "aef1b4d6550a223406e4ea4f235a4395", "type": "electric_scooter", "is_disabled": 0, "lat": 38.915649, "rental_uris": {"android": "https://dc.lft.to/lastmile_qr_scan", "ios": "https://dc.lft.to/lastmile_qr_scan"}, "bike_id": "aef1b4d6550a223406e4ea4f235a4395", "lon": -77.0318645}, {"is_reserved": 0, "fusion_lon": 0.0, "fusion_lat": 0.0, "name": "e9f3851e3e812f21f89f62bf5abe962f", "type": "electric_bike", "is_disabled": 0, "lat": 39.05788233333333, "rental_uris": {"android": "https://dc.lft.to/lastmile_qr_scan", "ios": "https://dc.lft.to/lastmile_qr_scan"}, "bike_id": "e9f3851e3e812f21f89f62bf5abe962f", "lon": -77.1502205}, {"is_reserved": 0, "fusion_lon": 0.0, "fusion_lat": 0.0, "name": "8d5b12f4853c8b81d76ff24004c934e3", "type": "electric_scooter", "is_disabled": 0, "lat": 38.92434033333333, "rental_uris": {"android": "https://dc.lft.to/lastmile_qr_scan", "ios": "https://dc.lft.to/lastmile_qr_scan"}, "bike_id": "8d5b12f4853c8b81d76ff24004c934e3", "lon": -77.05750616666667}, {"is_reserved": 0, "fusion_lon": 0.0, "fusion_lat": 0.0, "name": "d374e7a24a87e00e4a42da6e8a96c103", "type": "electric_scooter", "is_disabled": 0, "lat": 38.912811833333336, "rental_uris": {"android": "https://dc.lft.to/lastmile_qr_scan", "ios": "https://dc.lft.to/lastmile_qr_scan"}, "bike_id": "d374e7a24a87e00e4a42da6e8a96c103", "lon": -77.04759133333333}, {"is_reserved": 0, "fusion_lon": 0.0, "fusion_lat": 0.0, "name": "01a932ba4360890e71e9740f97c21fb0", "type": "electric_scooter", "is_disabled": 0, "lat": 38.906874333333334, "rental_uris": {"android": "https://dc.lft.to/lastmile_qr_scan", "ios": "https://dc.lft.to/lastmile_qr_scan"}, "bike_id": "01a932ba4360890e71e9740f97c21fb0", "lon": -77.026916}, {"is_reserved": 0, "fusion_lon": 0.0, "fusion_lat": 0.0, "name": "dd30e9c1dec494cfe4dbd569a0c11b08", "type": "electric_scooter", "is_disabled": 0, "lat": 38.93865733333333, "rental_uris": {"android": "https://dc.lft.to/lastmile_qr_scan", "ios": "https://dc.lft.to/lastmile_qr_scan"}, "bike_id": "dd30e9c1dec494cfe4dbd569a0c11b08", "lon": -77.02649033333333}, {"is_reserved": 0, "fusion_lon": 0.0, "fusion_lat": 0.0, "name": "6b87ca92054a948538da4659566ff8d8", "type": "electric_scooter", "is_disabled": 0, "lat": 38.91447183333333, "rental_uris": {"android": "https://dc.lft.to/lastmile_qr_scan", "ios": "https://dc.lft.to/lastmile_qr_scan"}, "bike_id": "6b87ca92054a948538da4659566ff8d8", "lon": -77.06705183333334}, {"is_reserved": 0, "fusion_lon": 0.0, "fusion_lat": 0.0, "name": "b105d339cfd02eea1d33fd080db1fdcd", "type": "electric_scooter", "is_disabled": 0, "lat": 38.9140655, "rental_uris": {"android": "https://dc.lft.to/lastmile_qr_scan", "ios": "https://dc.lft.to/lastmile_qr_scan"}, "bike_id": "b105d339cfd02eea1d33fd080db1fdcd", "lon": -77.03164866666667}, {"is_reserved": 0, "fusion_lon": 0.0, "fusion_lat": 0.0, "name": "7cc1ea5117cb416c37a25620cdbf5276", "type": "electric_scooter", "is_disabled": 0, "lat": 38.91109616666667, "rental_uris": {"android": "https://dc.lft.to/lastmile_qr_scan", "ios": "https://dc.lft.to/lastmile_qr_scan"}, "bike_id": "7cc1ea5117cb416c37a25620cdbf5276", "lon": -77.03574416666666}, {"is_reserved": 0, "fusion_lon": 0.0, "fusion_lat": 0.0, "name": "d99af2d0b00308531e96ed545cc9de46", "type": "electric_scooter", "is_disabled": 0, "lat": 38.88746366666667, "rental_uris": {"android": "https://dc.lft.to/lastmile_qr_scan", "ios": "https://dc.lft.to/lastmile_qr_scan"}, "bike_id": "d99af2d0b00308531e96ed545cc9de46", "lon": -77.02204666666667}, {"is_reserved": 0, "fusion_lon": 0.0, "fusion_lat": 0.0, "name": "3c5754fd1c8d4baffed706e835c39ed9", "type": "electric_scooter", "is_disabled": 0, "lat": 38.892208, "rental_uris": {"android": "https://dc.lft.to/lastmile_qr_scan", "ios": "https://dc.lft.to/lastmile_qr_scan"}, "bike_id": "3c5754fd1c8d4baffed706e835c39ed9", "lon": -77.027879}, {"is_reserved": 0, "fusion_lon": 0.0, "fusion_lat": 0.0, "name": "930b26b0bd812f06b7513ee8e7364f42", "type": "electric_scooter", "is_disabled": 0, "lat": 38.8979755, "rental_uris": {"android": "https://dc.lft.to/lastmile_qr_scan", "ios": "https://dc.lft.to/lastmile_qr_scan"}, "bike_id": "930b26b0bd812f06b7513ee8e7364f42", "lon": -77.0396725}, {"is_reserved": 0, "fusion_lon": 0.0, "fusion_lat": 0.0, "name": "a3b6f7f58453465390318e16e7722d2a", "type": "electric_scooter", "is_disabled": 0, "lat": 38.90106866666667, "rental_uris": {"android": "https://dc.lft.to/lastmile_qr_scan", "ios": "https://dc.lft.to/lastmile_qr_scan"}, "bike_id": "a3b6f7f58453465390318e16e7722d2a", "lon": -77.04476183333334}, {"is_reserved": 0, "fusion_lon": 0.0, "fusion_lat": 0.0, "name": "405e809a05a14980602c3c3e93ca14f8", "type": "electric_scooter", "is_disabled": 0, "lat": 38.9077715, "rental_uris": {"android": "https://dc.lft.to/lastmile_qr_scan", "ios": "https://dc.lft.to/lastmile_qr_scan"}, "bike_id": "405e809a05a14980602c3c3e93ca14f8", "lon": -77.03499733333334}, {"is_reserved": 0, "fusion_lon": 0.0, "fusion_lat": 0.0, "name": "bbcc6f4153c205a4df2951c1caac465b", "type": "electric_scooter", "is_disabled": 0, "lat": 38.891777166666664, "rental_uris": {"android": "https://dc.lft.to/lastmile_qr_scan", "ios": "https://dc.lft.to/lastmile_qr_scan"}, "bike_id": "bbcc6f4153c205a4df2951c1caac465b", "lon": -76.95178566666667}, {"is_reserved": 0, "fusion_lon": 0.0, "fusion_lat": 0.0, "name": "4742b0f9d03e960efabce90e151697a4", "type": "electric_scooter", "is_disabled": 0, "lat": 38.97725416666667, "rental_uris": {"android": "https://dc.lft.to/lastmile_qr_scan", "ios": "https://dc.lft.to/lastmile_qr_scan"}, "bike_id": "4742b0f9d03e960efabce90e151697a4", "lon": -77.0173105}, {"is_reserved": 0, "fusion_lon": 0.0, "fusion_lat": 0.0, "name": "8b5231085e9855fdb8eb81f02353f2cc", "type": "electric_bike", "is_disabled": 0, "lat": 38.79513016666667, "rental_uris": {"android": "https://dc.lft.to/lastmile_qr_scan", "ios": "https://dc.lft.to/lastmile_qr_scan"}, "bike_id": "8b5231085e9855fdb8eb81f02353f2cc", "lon": -77.0069815}, {"is_reserved": 0, "fusion_lon": 0.0, "fusion_lat": 0.0, "name": "afce8a45c72d90c969764e5137366d70", "type": "electric_scooter", "is_disabled": 0, "lat": 38.893226166666665, "rental_uris": {"android": "https://dc.lft.to/lastmile_qr_scan", "ios": "https://dc.lft.to/lastmile_qr_scan"}, "bike_id": "afce8a45c72d90c969764e5137366d70", "lon": -77.017882}, {"is_reserved": 0, "fusion_lon": 0.0, "fusion_lat": 0.0, "name": "e57b69238eae300eb26f067c30650ee2", "type": "electric_scooter", "is_disabled": 0, "lat": 38.95735483333333, "rental_uris": {"android": "https://dc.lft.to/lastmile_qr_scan", "ios": "https://dc.lft.to/lastmile_qr_scan"}, "bike_id": "e57b69238eae300eb26f067c30650ee2", "lon": -77.02401116666667}, {"is_reserved": 0, "fusion_lon": 0.0, "fusion_lat": 0.0, "name": "dacdc0f5c0a64f20537d9c1847b52890", "type": "electric_scooter", "is_disabled": 0, "lat": 38.90734, "rental_uris": {"android": "https://dc.lft.to/lastmile_qr_scan", "ios": "https://dc.lft.to/lastmile_qr_scan"}, "bike_id": "dacdc0f5c0a64f20537d9c1847b52890", "lon": -77.04505633333333}, {"is_reserved": 0, "fusion_lon": 0.0, "fusion_lat": 0.0, "name": "4177e2bbe44eb5a38a05d10e5922d608", "type": "electric_bike", "is_disabled": 0, "lat": 38.800140999999996, "rental_uris": {"android": "https://dc.lft.to/lastmile_qr_scan", "ios": "https://dc.lft.to/lastmile_qr_scan"}, "bike_id": "4177e2bbe44eb5a38a05d10e5922d608", "lon": -77.05482933333333}, {"is_reserved": 0, "fusion_lon": 0.0, "fusion_lat": 0.0, "name": "b9837e07aa4fb42f246797f9e6424b3d", "type": "electric_scooter", "is_disabled": 0, "lat": 38.88732733333333, "rental_uris": {"android": "https://dc.lft.to/lastmile_qr_scan", "ios": "https://dc.lft.to/lastmile_qr_scan"}, "bike_id": "b9837e07aa4fb42f246797f9e6424b3d", "lon": -77.02176033333333}, {"is_reserved": 0, "fusion_lon": 0.0, "fusion_lat": 0.0, "name": "b6a9fe1ccae39b92ff34da797ab4443f", "type": "electric_scooter", "is_disabled": 0, "lat": 38.929438166666664, "rental_uris": {"android": "https://dc.lft.to/lastmile_qr_scan", "ios": "https://dc.lft.to/lastmile_qr_scan"}, "bike_id": "b6a9fe1ccae39b92ff34da797ab4443f", "lon": -77.01639383333334}, {"is_reserved": 0, "fusion_lon": 0.0, "fusion_lat": 0.0, "name": "409346002f47ef1d7e99957e4932e516", "type": "electric_bike", "is_disabled": 0, "lat": 38.879871666666666, "rental_uris": {"android": "https://dc.lft.to/lastmile_qr_scan", "ios": "https://dc.lft.to/lastmile_qr_scan"}, "bike_id": "409346002f47ef1d7e99957e4932e516", "lon": -76.9159715}, {"is_reserved": 0, "fusion_lon": 0.0, "fusion_lat": 0.0, "name": "83cf900858939998d85881f1fb92ad17", "type": "electric_scooter", "is_disabled": 0, "lat": 38.892633000000004, "rental_uris": {"android": "https://dc.lft.to/lastmile_qr_scan", "ios": "https://dc.lft.to/lastmile_qr_scan"}, "bike_id": "83cf900858939998d85881f1fb92ad17", "lon": -76.98824433333333}, {"is_reserved": 0, "fusion_lon": 0.0, "fusion_lat": 0.0, "name": "268dc8ea267bdc23cdacd00ff7429ffa", "type": "electric_scooter", "is_disabled": 0, "lat": 38.9205315, "rental_uris": {"android": "https://dc.lft.to/lastmile_qr_scan", "ios": "https://dc.lft.to/lastmile_qr_scan"}, "bike_id": "268dc8ea267bdc23cdacd00ff7429ffa", "lon": -77.02199283333333}, {"is_reserved": 0, "fusion_lon": 0.0, "fusion_lat": 0.0, "name": "7e91144e58b7e6b02a72d6b16084d4ac", "type": "electric_scooter", "is_disabled": 0, "lat": 38.89476883333333, "rental_uris": {"android": "https://dc.lft.to/lastmile_qr_scan", "ios": "https://dc.lft.to/lastmile_qr_scan"}, "bike_id": "7e91144e58b7e6b02a72d6b16084d4ac", "lon": -77.0274075}, {"is_reserved": 0, "fusion_lon": 0.0, "fusion_lat": 0.0, "name": "cb45be1cdc91cb6b03fefd44b4d92f55", "type": "electric_scooter", "is_disabled": 0, "lat": 38.89238783333333, "rental_uris": {"android": "https://dc.lft.to/lastmile_qr_scan", "ios": "https://dc.lft.to/lastmile_qr_scan"}, "bike_id": "cb45be1cdc91cb6b03fefd44b4d92f55", "lon": -77.03204783333334}, {"is_reserved": 0, "fusion_lon": 0.0, "fusion_lat": 0.0, "name": "87e1651e195e2262c25c6a505e321da1", "type": "electric_scooter", "is_disabled": 0, "lat": 38.91338916666667, "rental_uris": {"android": "https://dc.lft.to/lastmile_qr_scan", "ios": "https://dc.lft.to/lastmile_qr_scan"}, "bike_id": "87e1651e195e2262c25c6a505e321da1", "lon": -77.0457635}, {"is_reserved": 0, "fusion_lon": 0.0, "fusion_lat": 0.0, "name": "a3d9fe384504583a907bca76f3229f45", "type": "electric_scooter", "is_disabled": 0, "lat": 38.91961416666667, "rental_uris": {"android": "https://dc.lft.to/lastmile_qr_scan", "ios": "https://dc.lft.to/lastmile_qr_scan"}, "bike_id": "a3d9fe384504583a907bca76f3229f45", "lon": -77.02423466666667}, {"is_reserved": 0, "fusion_lon": 0.0, "fusion_lat": 0.0, "name": "71a0bb5744918e63fbbb36d09723eb06", "type": "electric_scooter", "is_disabled": 0, "lat": 38.922241666666665, "rental_uris": {"android": "https://dc.lft.to/lastmile_qr_scan", "ios": "https://dc.lft.to/lastmile_qr_scan"}, "bike_id": "71a0bb5744918e63fbbb36d09723eb06", "lon": -77.04239433333333}, {"is_reserved": 0, "fusion_lon": 0.0, "fusion_lat": 0.0, "name": "341b21a3e92c505bdb417cf4ff0f7220", "type": "electric_scooter", "is_disabled": 0, "lat": 38.967795333333335, "rental_uris": {"android": "https://dc.lft.to/lastmile_qr_scan", "ios": "https://dc.lft.to/lastmile_qr_scan"}, "bike_id": "341b21a3e92c505bdb417cf4ff0f7220", "lon": -77.01517883333334}, {"is_reserved": 0, "fusion_lon": 0.0, "fusion_lat": 0.0, "name": "da7584c97f4695614acb1be07ac90ed7", "type": "electric_scooter", "is_disabled": 0, "lat": 38.89503216666667, "rental_uris": {"android": "https://dc.lft.to/lastmile_qr_scan", "ios": "https://dc.lft.to/lastmile_qr_scan"}, "bike_id": "da7584c97f4695614acb1be07ac90ed7", "lon": -77.04655483333333}, {"is_reserved": 0, "fusion_lon": 0.0, "fusion_lat": 0.0, "name": "1206be68f03168c8b4bf93eaa250b901", "type": "electric_scooter", "is_disabled": 0, "lat": 38.9022935, "rental_uris": {"android": "https://dc.lft.to/lastmile_qr_scan", "ios": "https://dc.lft.to/lastmile_qr_scan"}, "bike_id": "1206be68f03168c8b4bf93eaa250b901", "lon": -77.02296216666667},