{"data": {"bikes": [{"name": "89a8d22bbccc2c9056717108ddcaf7fe", "type": "electric_scooter", "lat": 38.9189885, "is_reserved": 0, "lon": -77.01968033333333, "fusion_lon": 0.0, "is_disabled": 0, "fusion_lat": 0.0, "bike_id": "89a8d22bbccc2c9056717108ddcaf7fe", "rental_uris": {"ios": "https://dc.lft.to/lastmile_qr_scan", "android": "https://dc.lft.to/lastmile_qr_scan"}}, {"name": "d1b7a339886e14f5b00d7f70cd23a99f", "type": "electric_scooter", "lat": 38.9027085, "is_reserved": 0, "lon": -77.038422, "fusion_lon": 0.0, "is_disabled": 0, "fusion_lat": 0.0, "bike_id": "d1b7a339886e14f5b00d7f70cd23a99f", "rental_uris": {"ios": "https://dc.lft.to/lastmile_qr_scan", "android": "https://dc.lft.to/lastmile_qr_scan"}}, {"name": "57104f886d79896133fbad412e47d329", "type": "electric_scooter", "lat": 38.87498933333333, "is_reserved": 0, "lon": -76.99794783333333, "fusion_lon": 0.0, "is_disabled": 0, "fusion_lat": 0.0, "bike_id": "57104f886d79896133fbad412e47d329", "rental_uris": {"ios": "https://dc.lft.to/lastmile_qr_scan", "android": "https://dc.lft.to/lastmile_qr_scan"}}, {"name": "f7ed28462b69eba8eb9814a58bd968cb", "type": "electric_scooter", "lat": 38.93072516666667, "is_reserved": 0, "lon": -77.03800766666667, "fusion_lon": 0.0, "is_disabled": 0, "fusion_lat": 0.0, "bike_id": "f7ed28462b69eba8eb9814a58bd968cb", "rental_uris": {"ios": "https://dc.lft.to/lastmile_qr_scan", "android": "https://dc.lft.to/lastmile_qr_scan"}}, {"name": "6adb5a71ba63ae40d07fb73515223880", "type": "electric_scooter", "lat": 38.920375, "is_reserved": 0, "lon": -77.03183966666667, "fusion_lon": 0.0, "is_disabled": 0, "fusion_lat": 0.0, "bike_id": "6adb5a71ba63ae40d07fb73515223880", "rental_uris": {"ios": "https://dc.lft.to/lastmile_qr_scan", "android": "https://dc.lft.to/lastmile_qr_scan"}}, {"name": "e20066f32e41c4851b0fd228b3676538", "type": "electric_scooter", "lat": 38.877074, "is_reserved": 0, "lon": -76.99387033333333, "fusion_lon": 0.0, "is_disabled": 0, "fusion_lat": 0.0, "bike_id": "e20066f32e41c4851b0fd228b3676538", "rental_uris": {"ios": "https://dc.lft.to/lastmile_qr_scan", "android": "https://dc.lft.to/lastmile_qr_scan"}}, {"name": "ca5571b84138cc81484fc7cd2ac14b45", "type": "electric_scooter", "lat": 38.90026533333333, "is_reserved": 0, "lon": -77.0009535, "fusion_lon": 0.0, "is_disabled": 0, "fusion_lat": 0.0, "bike_id": "ca5571b84138cc81484fc7cd2ac14b45", "rental_uris": {"ios": "https://dc.lft.to/lastmile_qr_scan", "android": "https://dc.lft.to/lastmile_qr_scan"}}, {"name": "1e85c5aeff49dcf3582e14fd438747b8", "type": "electric_scooter", "lat": 38.902446166666664, "is_reserved": 0, "lon": -77.00201733333333, "fusion_lon": 0.0, "is_disabled": 0, "fusion_lat": 0.0, "bike_id": "1e85c5aeff49dcf3582e14fd438747b8", "rental_uris": {"ios": "https://dc.lft.to/lastmile_qr_scan", "android": "https://dc.lft.to/lastmile_qr_scan"}}, {"name": "9371139b032946c1cf64deff5de119b1", "type": "electric_scooter", "lat": 38.90441083333333, "is_reserved": 0, "lon": -77.05154433333334, "fusion_lon": 0.0, "is_disabled": 0, "fusion_lat": 0.0, "bike_id": "9371139b032946c1cf64deff5de119b1", "rental_uris": {"ios": "https://dc.lft.to/lastmile_qr_scan", "android": "https://dc.lft.to/lastmile_qr_scan"}}, {"name": "bcbafbc49718b898b30894fcdb7881cf", "type": "electric_scooter", "lat": 38.9062615, "is_reserved": 0, "lon": -76.983146, "fusion_lon": 0.0, "is_disabled": 0, "fusion_lat": 0.0, "bike_id": "bcbafbc49718b898b30894fcdb7881cf", "rental_uris": {"ios": "https://dc.lft.to/lastmile_qr_scan", "android": "https://dc.lft.to/lastmile_qr_scan"}}, {"name": "3aef2a041dbb008c8fd8228e07a57cfb", "type": "electric_scooter", "lat": 38.862218166666665, "is_reserved": 0, "lon": -76.99494383333334, "fusion_lon": 0.0, "is_disabled": 0, "fusion_lat": 0.0, "bike_id": "3aef2a041dbb008c8fd8228e07a57cfb", "rental_uris": {"ios": "https://dc.lft.to/lastmile_qr_scan", "android": "https://dc.lft.to/lastmile_qr_scan"}}, {"name": "d2e307347593b4b5caac440ebd7d75bb", "type": "electric_bike", "lat": 38.936925, "is_reserved": 0, "lon": -77.0564995, "fusion_lon": 0.0, "is_disabled": 0, "fusion_lat": 0.0, "bike_id": "d2e307347593b4b5caac440ebd7d75bb", "rental_uris": {"ios": "https://dc.lft.to/lastmile_qr_scan", "android": "https://dc.lft.to/lastmile_qr_scan"}}, {"name": "9589e8d17821e2c045de8be036c6158e", "type": "electric_scooter", "lat": 38.891048833333336, "is_reserved": 0, "lon": -76.9870385, "fusion_lon": 0.0, "is_disabled": 0, "fusion_lat": 0.0, "bike_id": "9589e8d17821e2c045de8be036c6158e", "rental_uris": {"ios": "https://dc.lft.to/lastmile_qr_scan", "android": "https://dc.lft.to/lastmile_qr_scan"}}, {"name": "7d9cbc1b33bbd48548827f4f2bafd549", "type": "electric_scooter", "lat": 38.93256066666667, "is_reserved": 0, "lon": -77.0399825, "fusion_lon": 0.0, "is_disabled": 0, "fusion_lat": 0.0, "bike_id": "7d9cbc1b33bbd48548827f4f2bafd549", "rental_uris": {"ios": "https://dc.lft.to/lastmile_qr_scan", "android": "https://dc.lft.to/lastmile_qr_scan"}}, {"name": "4fbbe8f5df5d79e4e3ee1461adfc65a8", "type": "electric_scooter", "lat": 38.892076333333335, "is_reserved": 0, "lon": -76.988514, "fusion_lon": 0.0, "is_disabled": 0, "fusion_lat": 0.0, "bike_id": "4fbbe8f5df5d79e4e3ee1461adfc65a8", "rental_uris": {"ios": "https://dc.lft.to/lastmile_qr_scan", "android": "https://dc.lft.to/lastmile_qr_scan"}}, {"name": "2461bc39416c1928bcc50cbccd4fd57c", "type": "electric_scooter", "lat": 38.91286683333333, "is_reserved": 0, "lon": -77.02786383333333, "fusion_lon": 0.0, "is_disabled": 0, "fusion_lat": 0.0, "bike_id": "2461bc39416c1928bcc50cbccd4fd57c", "rental_uris": {"ios": "https://dc.lft.to/lastmile_qr_scan", "android": "https://dc.lft.to/lastmile_qr_scan"}}, {"name": "c89e2edd4e5e98b7ccf2bba030d06d15", "type": "electric_bike", "lat": 38.85787116666667, "is_reserved": 0, "lon": -77.099617, "fusion_lon": 0.0, "is_disabled": 0, "fusion_lat": 0.0, "bike_id": "c89e2edd4e5e98b7ccf2bba030d06d15", "rental_uris": {"ios": "https://dc.lft.to/lastmile_qr_scan", "android": "https://dc.lft.to/lastmile_qr_scan"}}, {"name": "887810c1b1c2abb41d51bda061e4adeb", "type": "electric_bike", "lat": 38.8753085, "is_reserved": 0, "lon": -77.19905966666667, "fusion_lon": 0.0, "is_disabled": 0, "fusion_lat": 0.0, "bike_id": "887810c1b1c2abb41d51bda061e4adeb", "rental_uris": {"ios": "https://dc.lft.to/lastmile_qr_scan", "android": "https://dc.lft.to/lastmile_qr_scan"}}, {"name": "045085a28cee21cf5d06266daf1806d1", "type": "electric_scooter", "lat": 38.8974175, "is_reserved": 0, "lon": -77.010465, "fusion_lon": 0.0, "is_disabled": 0, "fusion_lat": 0.0, "bike_id": "045085a28cee21cf5d06266daf1806d1", "rental_uris": {"ios": "https://dc.lft.to/lastmile_qr_scan", "android": "https://dc.lft.to/lastmile_qr_scan"}}, {"name": "7214b99f8976c94ef4b468e6d88ced02", "type": "electric_scooter", "lat": 38.904445, "is_reserved": 0, "lon": -77.03641966666666, "fusion_lon": 0.0, "is_disabled": 0, "fusion_lat": 0.0, "bike_id": "7214b99f8976c94ef4b468e6d88ced02", "rental_uris": {"ios": "https://dc.lft.to/lastmile_qr_scan", "android": "https://dc.lft.to/lastmile_qr_scan"}}, {"name": "ed159c8ec91cbb9c35ccebe233bc1923", "type": "electric_bike", "lat": 39.09455116666667, "is_reserved": 0, "lon": -77.149914, "fusion_lon": 0.0, "is_disabled": 0, "fusion_lat": 0.0, "bike_id": "ed159c8ec91cbb9c35ccebe233bc1923", "rental_uris": {"ios": "https://dc.lft.to/lastmile_qr_scan", "android": "https://dc.lft.to/lastmile_qr_scan"}}, {"name": "94b181378040b622b6aec9b0985b2148", "type": "electric_scooter", "lat": 38.89016183333333, "is_reserved": 0, "lon": -76.93732116666666, "fusion_lon": 0.0, "is_disabled": 0, "fusion_lat": 0.0, "bike_id": "94b181378040b622b6aec9b0985b2148", "rental_uris": {"ios": "https://dc.lft.to/lastmile_qr_scan", "android": "https://dc.lft.to/lastmile_qr_scan"}}, {"name": "c6b26f158c51fd4c37d0d06ee7b06db4", "type": "electric_scooter", "lat": 38.894973, "is_reserved": 0, "lon": -77.00212533333334, "fusion_lon": 0.0, "is_disabled": 0, "fusion_lat": 0.0, "bike_id": "c6b26f158c51fd4c37d0d06ee7b06db4", "rental_uris": {"ios": "https://dc.lft.to/lastmile_qr_scan", "android": "https://dc.lft.to/lastmile_qr_scan"}}, {"name": "b7f56e52b7202dbede8b8f07f1424a8d", "type": "electric_bike", "lat": 38.840625833333334, "is_reserved": 0, "lon": -77.0640625, "fusion_lon": 0.0, "is_disabled": 0, "fusion_lat": 0.0, "bike_id": "b7f56e52b7202dbede8b8f07f1424a8d", "rental_uris": {"ios": "https://dc.lft.to/lastmile_qr_scan", "android": "https://dc.lft.to/lastmile_qr_scan"}}, {"name": "bf05edc0d09bb69d86021a7b50142325", "type": "electric_scooter", "lat": 38.86245483333333, "is_reserved": 0, "lon": -76.99499583333333, "fusion_lon": 0.0, "is_disabled": 0, "fusion_lat": 0.0, "bike_id": "bf05edc0d09bb69d86021a7b50142325", "rental_uris": {"ios": "https://dc.lft.to/lastmile_qr_scan", "android": "https://dc.lft.to/lastmile_qr_scan"}}, {"name": "ae4f7ff10d6792ff223552f31220eac4", "type": "electric_scooter", "lat": 38.89910116666667, "is_reserved": 0, "lon": -76.93350266666667, "fusion_lon": 0.0, "is_disabled": 0, "fusion_lat": 0.0, "bike_id": "ae4f7ff10d6792ff223552f31220eac4", "rental_uris": {"ios": "https://dc.lft.to/lastmile_qr_scan", "android": "https://dc.lft.to/lastmile_qr_scan"}}, {"name": "f33aa698bf4fea8feb0c4f76635361f0", "type": "electric_scooter", "lat": 38.9295355, "is_reserved": 0, "lon": -77.0550295, "fusion_lon": 0.0, "is_disabled": 0, "fusion_lat": 0.0, "bike_id": "f33aa698bf4fea8feb0c4f76635361f0", "rental_uris": {"ios": "https://dc.lft.to/lastmile_qr_scan", "android": "https://dc.lft.to/lastmile_qr_scan"}}, {"name": "0ae9b10fe6c016c3e9ccf3857ec8d0cc", "type": "electric_scooter", "lat": 38.92728283333334, "is_reserved": 0, "lon": -77.00566816666667, "fusion_lon": 0.0, "is_disabled": 0, "fusion_lat": 0.0, "bike_id": "0ae9b10fe6c016c3e9ccf3857ec8d0cc", "rental_uris": {"ios": "https://dc.lft.to/lastmile_qr_scan", "android": "https://dc.lft.to/lastmile_qr_scan"}}, {"name": "ae290f97c6f969b30ffbf53b8c3bbe9e", "type": "electric_scooter", "lat": 38.892206333333334, "is_reserved": 0, "lon": -77.042619, "fusion_lon": 0.0, "is_disabled": 0, "fusion_lat": 0.0, "bike_id": "ae290f97c6f969b30ffbf53b8c3bbe9e", "rental_uris": {"ios": "https://dc.lft.to/lastmile_qr_scan", "android": "https://dc.lft.to/lastmile_qr_scan"}}, {"name": "08ce5bd95dff8a5f59c6b472aa39b9e0", "type": "electric_scooter", "lat": 38.92560783333333, "is_reserved": 0, "lon": -77.06285066666666, "fusion_lon": 0.0, "is_disabled": 0, "fusion_lat": 0.0, "bike_id": "08ce5bd95dff8a5f59c6b472aa39b9e0", "rental_uris": {"ios": "https://dc.lft.to/lastmile_qr_scan", "android": "https://dc.lft.to/lastmile_qr_scan"}}, {"name": "ea1fe7f61868f3616fe2e82c0009ac68", "type": "electric_scooter", "lat": 38.90258383333333, "is_reserved": 0, "lon": -77.045148, "fusion_lon": 0.0, "is_disabled": 0, "fusion_lat": 0.0, "bike_id": "ea1fe7f61868f3616fe2e82c0009ac68", "rental_uris": {"ios": "https://dc.lft.to/lastmile_qr_scan", "android": "https://dc.lft.to/lastmile_qr_scan"}}, {"name": "86748857ec34611953adfb50b9d77ae2", "type": "electric_scooter", "lat": 38.93062366666667, "is_reserved": 0, "lon": -77.02316883333333, "fusion_lon": 0.0, "is_disabled": 0, "fusion_lat": 0.0, "bike_id": "86748857ec34611953adfb50b9d77ae2", "rental_uris": {"ios": "https://dc.lft.to/lastmile_qr_scan", "android": "https://dc.lft.to/lastmile_qr_scan"}}, {"name": "4dc9ba62e947c36590486b115bff4c7f", "type": "electric_scooter", "lat": 38.91259066666667, "is_reserved": 0, "lon": -77.007677, "fusion_lon": 0.0, "is_disabled": 0, "fusion_lat": 0.0, "bike_id": "4dc9ba62e947c36590486b115bff4c7f", "rental_uris": {"ios": "https://dc.lft.to/lastmile_qr_scan", "android": "https://dc.lft.to/lastmile_qr_scan"}}, {"name": "018508ac88e30889c88044c89da30ff2", "type": "electric_scooter", "lat": 38.90164216666667, "is_reserved": 0, "lon": -77.02935016666666, "fusion_lon": 0.0, "is_disabled": 0, "fusion_lat": 0.0, "bike_id": "018508ac88e30889c88044c89da30ff2", "rental_uris": {"ios": "https://dc.lft.to/lastmile_qr_scan", "android": "https://dc.lft.to/lastmile_qr_scan"}}, {"name": "baf870561a06609f483b874e6f3e58eb", "type": "electric_scooter", "lat": 38.9222705, "is_reserved": 0, "lon": -77.04237783333333, "fusion_lon": 0.0, "is_disabled": 0, "fusion_lat": 0.0, "bike_id": "baf870561a06609f483b874e6f3e58eb", "rental_uris": {"ios": "https://dc.lft.to/lastmile_qr_scan", "android": "https://dc.lft.to/lastmile_qr_scan"}}, {"name": "2290b6ccee413a36f7d67fc8557ef806", "type": "electric_bike", "lat": 38.9285255, "is_reserved": 0, "lon": -77.10678116666666, "fusion_lon": 0.0, "is_disabled": 0, "fusion_lat": 0.0, "bike_id": "2290b6ccee413a36f7d67fc8557ef806", "rental_uris": {"ios": "https://dc.lft.to/lastmile_qr_scan", "android": "https://dc.lft.to/lastmile_qr_scan"}}, {"name": "d44734ca66c0aa2ac4d839a08c589fff", "type": "electric_scooter", "lat": 38.89500833333334, "is_reserved": 0, "lon": -77.0110105, "fusion_lon": 0.0, "is_disabled": 0, "fusion_lat": 0.0, "bike_id": "d44734ca66c0aa2ac4d839a08c589fff", "rental_uris": {"ios": "https://dc.lft.to/lastmile_qr_scan", "android": "https://dc.lft.to/lastmile_qr_scan"}}, {"name": "0aef5ddb60b2caa13e0d116ad1badc77", "type": "electric_scooter", "lat": 38.9126725, "is_reserved": 0, "lon": -77.03541216666666, "fusion_lon": 0.0, "is_disabled": 0, "fusion_lat": 0.0, "bike_id": "0aef5ddb60b2caa13e0d116ad1badc77", "rental_uris": {"ios": "https://dc.lft.to/lastmile_qr_scan", "android": "https://dc.lft.to/lastmile_qr_scan"}}, {"name": "b763a15fb5170ab3ec314cf6cf603cb6", "type": "electric_scooter", "lat": 38.8834645, "is_reserved": 0, "lon": -76.94939083333334, "fusion_lon": 0.0, "is_disabled": 0, "fusion_lat": 0.0, "bike_id": "b763a15fb5170ab3ec314cf6cf603cb6", "rental_uris": {"ios": "https://dc.lft.to/lastmile_qr_scan", "android": "https://dc.lft.to/lastmile_qr_scan"}}, {"name": "fb71f0c9719168c6454c4132d27a4c83", "type": "electric_scooter", "lat": 38.863816, "is_reserved": 0, "lon": -77.01354966666666, "fusion_lon": 0.0, "is_disabled": 0, "fusion_lat": 0.0, "bike_id": "fb71f0c9719168c6454c4132d27a4c83", "rental_uris": {"ios": "https://dc.lft.to/lastmile_qr_scan", "android": "https://dc.lft.to/lastmile_qr_scan"}}, {"name": "086d109544b504407f450c7e36278a6e", "type": "electric_scooter", "lat": 38.921619, "is_reserved": 0, "lon": -77.04034516666667, "fusion_lon": 0.0, "is_disabled": 0, "fusion_lat": 0.0, "bike_id": "086d109544b504407f450c7e36278a6e", "rental_uris": {"ios": "https://dc.lft.to/lastmile_qr_scan", "android": "https://dc.lft.to/lastmile_qr_scan"}}, {"name": "9d92ba97cd722ff71d1ee9bca9ae501d", "type": "electric_scooter", "lat": 38.892246666666665, "is_reserved": 0, "lon": -77.04642433333333, "fusion_lon": 0.0, "is_disabled": 0, "fusion_lat": 0.0, "bike_id": "9d92ba97cd722ff71d1ee9bca9ae501d", "rental_uris": {"ios": "https://dc.lft.to/lastmile_qr_scan", "android": "https://dc.lft.to/lastmile_qr_scan"}}, {"name": "f1781439af16bc2bc974b3afefa8ce88", "type": "electric_scooter", "lat": 38.919203, "is_reserved": 0, "lon": -77.0300855, "fusion_lon": 0.0, "is_disabled": 0, "fusion_lat": 0.0, "bike_id": "f1781439af16bc2bc974b3afefa8ce88", "rental_uris": {"ios": "https://dc.lft.to/lastmile_qr_scan", "android": "https://dc.lft.to/lastmile_qr_scan"}}, {"name": "324870f27d525060266b7e766c6a9c2a", "type": "electric_scooter", "lat": 38.96715983333333, "is_reserved": 0, "lon": -77.02736566666667, "fusion_lon": 0.0, "is_disabled": 0, "fusion_lat": 0.0, "bike_id": "324870f27d525060266b7e766c6a9c2a", "rental_uris": {"ios": "https://dc.lft.to/lastmile_qr_scan", "android": "https://dc.lft.to/lastmile_qr_scan"}}, {"name": "08764c72fb7fecf8e6922569a693cace", "type": "electric_scooter", "lat": 38.8993845, "is_reserved": 0, "lon": -77.02990816666667, "fusion_lon": 0.0, "is_disabled": 0, "fusion_lat": 0.0, "bike_id": "08764c72fb7fecf8e6922569a693cace", "rental_uris": {"ios": "https://dc.lft.to/lastmile_qr_scan", "android": "https://dc.lft.to/lastmile_qr_scan"}}, {"name": "9b8f8e0f70d50ca63e7ea1653285a642", "type": "electric_scooter", "lat": 38.902741666666664, "is_reserved": 0, "lon": -77.0383645, "fusion_lon": 0.0, "is_disabled": 0, "fusion_lat": 0.0, "bike_id": "9b8f8e0f70d50ca63e7ea1653285a642", "rental_uris": {"ios": "https://dc.lft.to/lastmile_qr_scan", "android": "https://dc.lft.to/lastmile_qr_scan"}}, {"name": "a4a76c3d39eb4e81ef17fb0d7ae0325a", "type": "electric_scooter", "lat": 38.90465533333333, "is_reserved": 0, "lon": -77.04187633333333, "fusion_lon": 0.0, "is_disabled": 0, "fusion_lat": 0.0, "bike_id": "a4a76c3d39eb4e81ef17fb0d7ae0325a", "rental_uris": {"ios": "https://dc.lft.to/lastmile_qr_scan", "android": "https://dc.lft.to/lastmile_qr_scan"}}, {"name": "2b0db583f530516665d565a3cfb14e2e", "type": "electric_scooter", "lat": 38.9056435, "is_reserved": 0, "lon": -77.03603433333333, "fusion_lon": 0.0, "is_disabled": 0, "fusion_lat": 0.0, "bike_id": "2b0db583f530516665d565a3cfb14e2e", "rental_uris": {"ios": "https://dc.lft.to/lastmile_qr_scan", "android": "https://dc.lft.to/lastmile_qr_scan"}}, {"name": "6fc5e5014ebd4f91f3098c7c19114ce9", "type": "electric_scooter", "lat": 38.9013995, "is_reserved": 0, "lon": -77.02288116666666, "fusion_lon": 0.0, "is_disabled": 0, "fusion_lat": 0.0, "bike_id": "6fc5e5014ebd4f91f3098c7c19114ce9", "rental_uris": {"ios": "https://dc.lft.to/lastmile_qr_scan", "android": "https://dc.lft.to/lastmile_qr_scan"}}, {"name": "8e7bb02f942167329085265e320064fb", "type": "electric_scooter", "lat": 38.885919, "is_reserved": 0, "lon": -77.01765633333333, "fusion_lon": 0.0, "is_disabled": 0, "fusion_lat": 0.0, "bike_id": "8e7bb02f942167329085265e320064fb", "rental_uris": {"ios": "https://dc.lft.to/lastmile_qr_scan", "android": "https://dc.lft.to/lastmile_qr_scan"}}, {"name": "673318aa128437ddae112b75e347d9ec", "type": "electric_scooter", "lat": 38.84294883333333, "is_reserved": 0, "lon": -76.99945266666667, "fusion_lon": 0.0, "is_disabled": 0, "fusion_lat": 0.0, "bike_id": "673318aa128437ddae112b75e347d9ec", "rental_uris": {"ios": "https://dc.lft.to/lastmile_qr_scan", "android": "https://dc.lft.to/lastmile_qr_scan"}}, {"name": "fdf0f1b60f726191cfc0e02415ba4ce0", "type": "electric_bike", "lat": 38.852448833333334, "is_reserved": 0, "lon": -77.1142735, "fusion_lon": 0.0, "is_disabled": 0, "fusion_lat": 0.0, "bike_id": "fdf0f1b60f726191cfc0e02415ba4ce0", "rental_uris": {"ios": "https://dc.lft.to/lastmile_qr_scan", "android": "https://dc.lft.to/lastmile_qr_scan"}}, {"name": "db5b75dfc5581165c92e3ba9e2a054d4", "type": "electric_scooter", "lat": 38.922341333333335, "is_reserved": 0, "lon": -77.04245683333333, "fusion_lon": 0.0, "is_disabled": 0, "fusion_lat": 0.0, "bike_id": "db5b75dfc5581165c92e3ba9e2a054d4", "rental_uris": {"ios": "https://dc.lft.to/lastmile_qr_scan", "android": "https://dc.lft.to/lastmile_qr_scan"}}, {"name": "bdd7dafde4142b85cc38c5dcca35ba75", "type": "electric_scooter", "lat": 38.93527866666667, "is_reserved": 0, "lon": -77.03314883333333, "fusion_lon": 0.0, "is_disabled": 0, "fusion_lat": 0.0, "bike_id": "bdd7dafde4142b85cc38c5dcca35ba75", "rental_uris": {"ios": "https://dc.lft.to/lastmile_qr_scan", "android": "https://dc.lft.to/lastmile_qr_scan"}}, {"name": "e9486673a32a6aaa3be4023aace3fb56", "type": "electric_scooter", "lat": 38.90516183333333, "is_reserved": 0, "lon": -77.02609566666666, "fusion_lon": 0.0, "is_disabled": 0, "fusion_lat": 0.0, "bike_id": "e9486673a32a6aaa3be4023aace3fb56", "rental_uris": {"ios": "https://dc.lft.to/lastmile_qr_scan", "android": "https://dc.lft.to/lastmile_qr_scan"}}, {"name": "ab30b46225850833a3dbee84afe7c21c", "type": "electric_scooter", "lat": 38.90145366666667, "is_reserved": 0, "lon": -77.0438405, "fusion_lon": 0.0, "is_disabled": 0, "fusion_lat": 0.0, "bike_id": "ab30b46225850833a3dbee84afe7c21c", "rental_uris": {"ios": "https://dc.lft.to/lastmile_qr_scan", "android": "https://dc.lft.to/lastmile_qr_scan"}}, {"name": "14b7f4b158b1a050536e0fd8acddd00e", "type": "electric_bike", "lat": 38.82872366666667, "is_reserved": 0, "lon": -77.11223133333333, "fusion_lon": 0.0, "is_disabled": 0, "fusion_lat": 0.0, "bike_id": "14b7f4b158b1a050536e0fd8acddd00e", "rental_uris": {"ios": "https://dc.lft.to/lastmile_qr_scan", "android": "https://dc.lft.to/lastmile_qr_scan"}}, {"name": "a8790ae73e6d223b3731db43a188a750", "type": "electric_scooter", "lat": 38.89230166666667, "is_reserved": 0, "lon": -77.02206816666667, "fusion_lon": 0.0, "is_disabled": 0, "fusion_lat": 0.0, "bike_id": "a8790ae73e6d223b3731db43a188a750", "rental_uris": {"ios": "https://dc.lft.to/lastmile_qr_scan", "android": "https://dc.lft.to/lastmile_qr_scan"}}, {"name": "a6e7a3eb9aba599883e7f8e18cb9cdd1", "type": "electric_scooter", "lat": 38.905366, "is_reserved": 0, "lon": -77.0592375, "fusion_lon": 0.0, "is_disabled": 0, "fusion_lat": 0.0, "bike_id": "a6e7a3eb9aba599883e7f8e18cb9cdd1", "rental_uris": {"ios": "https://dc.lft.to/lastmile_qr_scan", "android": "https://dc.lft.to/lastmile_qr_scan"}}, {"name": "d0187e80dbe87cc443e60a0c585e8c10", "type": "electric_scooter", "lat": 38.88408066666667, "is_reserved": 0, "lon": -77.01535, "fusion_lon": 0.0, "is_disabled": 0, "fusion_lat": 0.0, "bike_id": "d0187e80dbe87cc443e60a0c585e8c10", "rental_uris": {"ios": "https://dc.lft.to/lastmile_qr_scan", "android": "https://dc.lft.to/lastmile_qr_scan"}}, {"name": "d4e8be4316b582d4e0652fbd90e265b9", "type": "electric_scooter", "lat": 38.866772, "is_reserved": 0, "lon": -76.9844965, "fusion_lon": 0.0, "is_disabled": 0, "fusion_lat": 0.0, "bike_id": "d4e8be4316b582d4e0652fbd90e265b9", "rental_uris": {"ios": "https://dc.lft.to/lastmile_qr_scan", "android": "https://dc.lft.to/lastmile_qr_scan"}}, {"name": "c0a2c0b6e91437c5a8bb0d1ff966db39", "type": "electric_scooter", "lat": 38.906663333333334, "is_reserved": 0, "lon": -77.02378266666666, "fusion_lon": 0.0, "is_disabled": 0, "fusion_lat": 0.0, "bike_id": "c0a2c0b6e91437c5a8bb0d1ff966db39", "rental_uris": {"ios": "https://dc.lft.to/lastmile_qr_scan", "android": "https://dc.lft.to/lastmile_qr_scan"}}, {"name": "9be2b7d3d10875ec34c270c7e846b5c5", "type": "electric_scooter", "lat": 38.924442666666664, "is_reserved": 0, "lon": -77.03355583333334, "fusion_lon": 0.0, "is_disabled": 0, "fusion_lat": 0.0, "bike_id": "9be2b7d3d10875ec34c270c7e846b5c5", "rental_uris": {"ios": "https://dc.lft.to/lastmile_qr_scan", "android": "https://dc.lft.to/lastmile_qr_scan"}}, {"name": "6a2f0d5c72a11eda96b970044720ee71", "type": "electric_scooter", "lat": 38.94843783333334, "is_reserved": 0, "lon": -77.0271205, "fusion_lon": 0.0, "is_disabled": 0, "fusion_lat": 0.0, "bike_id": "6a2f0d5c72a11eda96b970044720ee71", "rental_uris": {"ios": "https://dc.lft.to/lastmile_qr_scan", "android": "https://dc.lft.to/lastmile_qr_scan"}}, {"name": "679aaca8ce5c006610da21134609bdef", "type": "electric_scooter", "lat": 38.876762166666666, "is_reserved": 0, "lon": -77.017824, "fusion_lon": 0.0, "is_disabled": 0, "fusion_lat": 0.0, "bike_id": "679aaca8ce5c006610da21134609bdef", "rental_uris": {"ios": "https://dc.lft.to/lastmile_qr_scan", "android": "https://dc.lft.to/lastmile_qr_scan"}}, {"name": "883b731ed923ff02c2727ed7db6a52f9", "type": "electric_scooter", "lat": 38.936086, "is_reserved": 0, "lon": -77.058605, "fusion_lon": 0.0, "is_disabled": 0, "fusion_lat": 0.0, "bike_id": "883b731ed923ff02c2727ed7db6a52f9", "rental_uris": {"ios": "https://dc.lft.to/lastmile_qr_scan", "android": "https://dc.lft.to/lastmile_qr_scan"}}, {"name": "3efc9bc61e705b290c1d0399fb5480a1", "type": "electric_scooter", "lat": 38.899705833333336, "is_reserved": 0, "lon": -77.057016, "fusion_lon": 0.0, "is_disabled": 0, "fusion_lat": 0.0, "bike_id": "3efc9bc61e705b290c1d0399fb5480a1", "rental_uris": {"ios": "https://dc.lft.to/lastmile_qr_scan", "android": "https://dc.lft.to/lastmile_qr_scan"}}, {"name": "75febbe6501807b2149439d8c07990fd", "type": "electric_bike", "lat": 38.990906833333334, "is_reserved": 0, "lon": -76.874955, "fusion_lon": 0.0, "is_disabled": 0, "fusion_lat": 0.0, "bike_id": "75febbe6501807b2149439d8c07990fd", "rental_uris": {"ios": "https://dc.lft.to/lastmile_qr_scan", "android": "https://dc.lft.to/lastmile_qr_scan"}}, {"name": "80b88e4ac5b8a9effd518150ba6c1000", "type": "electric_scooter", "lat": 38.901211833333335, "is_reserved": 0, "lon": -77.04381016666666, "fusion_lon": 0.0, "is_disabled": 0, "fusion_lat": 0.0, "bike_id": "80b88e4ac5b8a9effd518150ba6c1000", "rental_uris": {"ios": "https://dc.lft.to/lastmile_qr_scan", "android": "https://dc.lft.to/lastmile_qr_scan"}}, {"name": "5cac6603553f372c39d8002650b274ca", "type": "electric_scooter", "lat": 38.896045, "is_reserved": 0, "lon": -77.00929133333334, "fusion_lon": 0.0, "is_disabled": 0, "fusion_lat": 0.0, "bike_id": "5cac6603553f372c39d8002650b274ca", "rental_uris": {"ios": "https://dc.lft.to/lastmile_qr_scan", "android": "https://dc.lft.to/lastmile_qr_scan"}}, {"name": "0262ae67f127995ac8fba2799f66aa22", "type": "electric_scooter", "lat": 38.912621666666666, "is_reserved": 0, "lon": -77.03729516666667, "fusion_lon": 0.0, "is_disabled": 0, "fusion_lat": 0.0, "bike_id": "0262ae67f127995ac8fba2799f66aa22", "rental_uris": {"ios": "https://dc.lft.to/lastmile_qr_scan", "android": "https://dc.lft.to/lastmile_qr_scan"}}, {"name": "ddcdfa1164315b61df9212d4e87b1ba3", "type": "electric_scooter", "lat": 38.90868433333333, "is_reserved": 0, "lon": -77.02420116666667, "fusion_lon": 0.0, "is_disabled": 0, "fusion_lat": 0.0, "bike_id": "ddcdfa1164315b61df9212d4e87b1ba3", "rental_uris": {"ios": "https://dc.lft.to/lastmile_qr_scan", "android": "https://dc.lft.to/lastmile_qr_scan"}}, {"name": "b81f8eaddf7867ae34d4da6487a37668", "type": "electric_scooter", "lat": 38.86660116666667, "is_reserved": 0, "lon": -76.98881466666667, "fusion_lon": 0.0, "is_disabled": 0, "fusion_lat": 0.0, "bike_id": "b81f8eaddf7867ae34d4da6487a37668", "rental_uris": {"ios": "https://dc.lft.to/lastmile_qr_scan", "android": "https://dc.lft.to/lastmile_qr_scan"}}, {"name": "1906bb37ddf957002f3191a75f404620", "type": "electric_scooter", "lat": 38.9251135, "is_reserved": 0, "lon": -77.001749, "fusion_lon": 0.0, "is_disabled": 0, "fusion_lat": 0.0, "bike_id": "1906bb37ddf957002f3191a75f404620", "rental_uris": {"ios": "https://dc.lft.to/lastmile_qr_scan", "android": "https://dc.lft.to/lastmile_qr_scan"}}, {"name": "0e07b454abe59f483744abae51ea6cac", "type": "electric_scooter", "lat": 38.92511616666667, "is_reserved": 0, "lon": -77.03325483333333, "fusion_lon": 0.0, "is_disabled": 0, "fusion_lat": 0.0, "bike_id": "0e07b454abe59f483744abae51ea6cac", "rental_uris": {"ios": "https://dc.lft.to/lastmile_qr_scan", "android": "https://dc.lft.to/lastmile_qr_scan"}}, {"name": "a9db404a60a388d7ef2585eebe4a3a36", "type": "electric_scooter", "lat": 38.92364516666667, "is_reserved": 0, "lon": -77.05839066666667, "fusion_lon": 0.0, "is_disabled": 0, "fusion_lat": 0.0, "bike_id": "a9db404a60a388d7ef2585eebe4a3a36", "rental_uris": {"ios": "https://dc.lft.to/lastmile_qr_scan", "android": "https://dc.lft.to/lastmile_qr_scan"}}, {"name": "8fc867884b0c5c2a7090306716bfc75d", "type": "electric_scooter", "lat": 38.9200855, "is_reserved": 0, "lon": -77.03152233333333, "fusion_lon": 0.0, "is_disabled": 0, "fusion_lat": 0.0, "bike_id": "8fc867884b0c5c2a7090306716bfc75d", "rental_uris": {"ios": "https://dc.lft.to/lastmile_qr_scan", "android": "https://dc.lft.to/lastmile_qr_scan"}}, {"name": "c0c287bcff9a2413a107e038ed189f35", "type": "electric_scooter", "lat": 38.88373466666667, "is_reserved": 0, "lon": -76.923749, "fusion_lon": 0.0, "is_disabled": 0, "fusion_lat": 0.0, "bike_id": "c0c287bcff9a2413a107e038ed189f35", "rental_uris": {"ios": "https://dc.lft.to/lastmile_qr_scan", "android": "https://dc.lft.to/lastmile_qr_scan"}}, {"name": "3fefa3c1712786333fe12435c58de900", "type": "electric_bike", "lat": 38.90857416666667, "is_reserved": 0, "lon": -77.0807685, "fusion_lon": 0.0, "is_disabled": 0, "fusion_lat": 0.0, "bike_id": "3fefa3c1712786333fe12435c58de900", "rental_uris": {"ios": "https://dc.lft.to/lastmile_qr_scan", "android": "https://dc.lft.to/lastmile_qr_scan"}}, {"name": "bfa025b31c65d86025a2ac5011ff9e37", "type": "electric_scooter", "lat": 38.906127, "is_reserved": 0, "lon": -77.07484966666667, "fusion_lon": 0.0, "is_disabled": 0, "fusion_lat": 0.0, "bike_id": "bfa025b31c65d86025a2ac5011ff9e37", "rental_uris": {"ios": "https://dc.lft.to/lastmile_qr_scan", "android": "https://dc.lft.to/lastmile_qr_scan"}}, {"name": "10e4e89a9ede597e368432cb6057ef81", "type": "electric_scooter", "lat": 38.93428383333333, "is_reserved": 0, "lon": -77.04420283333333, "fusion_lon": 0.0, "is_disabled": 0, "fusion_lat": 0.0, "bike_id": "10e4e89a9ede597e368432cb6057ef81", "rental_uris": {"ios": "https://dc.lft.to/lastmile_qr_scan", "android": "https://dc.lft.to/lastmile_qr_scan"}}, {"name": "d4a9690b8efcea01a0a444508daf2e61", "type": "electric_scooter", "lat": 38.91965416666667, "is_reserved": 0, "lon": -77.03381433333334, "fusion_lon": 0.0, "is_disabled": 0, "fusion_lat": 0.0, "bike_id": "d4a9690b8efcea01a0a444508daf2e61", "rental_uris": {"ios": "https://dc.lft.to/lastmile_qr_scan", "android": "https://dc.lft.to/lastmile_qr_scan"}}, {"name": "c74354ff39ed8349fe10513e6a109d0d", "type": "electric_scooter", "lat": 38.914360333333335, "is_reserved": 0, "lon": -77.02210366666667, "fusion_lon": 0.0, "is_disabled": 0, "fusion_lat": 0.0, "bike_id": "c74354ff39ed8349fe10513e6a109d0d", "rental_uris": {"ios": "https://dc.lft.to/lastmile_qr_scan", "android": "https://dc.lft.to/lastmile_qr_scan"}}, {"name": "cba09505dfbd9369305771a5aa4fa0c9", "type": "electric_scooter", "lat": 38.9027, "is_reserved": 0, "lon": -77.0383605, "fusion_lon": 0.0, "is_disabled": 0, "fusion_lat": 0.0, "bike_id": "cba09505dfbd9369305771a5aa4fa0c9", "rental_uris": {"ios": "https://dc.lft.to/lastmile_qr_scan", "android": "https://dc.lft.to/lastmile_qr_scan"}}, {"name": "94402b95dda2c3d1797677f58c9becf7", "type": "electric_scooter", "lat": 38.919898833333335, "is_reserved": 0, "lon": -77.03473316666667, "fusion_lon": 0.0, "is_disabled": 0, "fusion_lat": 0.0, "bike_id": "94402b95dda2c3d1797677f58c9becf7", "rental_uris": {"ios": "https://dc.lft.to/lastmile_qr_scan", "android": "https://dc.lft.to/lastmile_qr_scan"}}, {"name": "5d28e50fe3d93e2dde3b0ccbfe919bb4", "type": "electric_scooter", "lat": 38.912003, "is_reserved": 0, "lon": -77.04530966666667, "fusion_lon": 0.0, "is_disabled": 0, "fusion_lat": 0.0, "bike_id": "5d28e50fe3d93e2dde3b0ccbfe919bb4", "rental_uris": {"ios": "https://dc.lft.to/lastmile_qr_scan", "android": "https://dc.lft.to/lastmile_qr_scan"}}, {"name": "0b2a21397d99336618dd7d7d5c5e6df0", "type": "electric_scooter", "lat": 38.891947333333334, "is_reserved": 0, "lon": -77.00237366666667, "fusion_lon": 0.0, "is_disabled": 0, "fusion_lat": 0.0, "bike_id": "0b2a21397d99336618dd7d7d5c5e6df0", "rental_uris": {"ios": "https://dc.lft.to/lastmile_qr_scan", "android": "https://dc.lft.to/lastmile_qr_scan"}}, {"name": "0d67a324e3a4251318c0a7608b05541e", "type": "electric_scooter", "lat": 38.89773316666667, "is_reserved": 0, "lon": -76.925879, "fusion_lon": 0.0, "is_disabled": 0, "fusion_lat": 0.0, "bike_id": "0d67a324e3a4251318c0a7608b05541e", "rental_uris": {"ios": "https://dc.lft.to/lastmile_qr_scan", "android": "https://dc.lft.to/lastmile_qr_scan"}}, {"name": "b2449dcdd2660aab11272f66dc42695b", "type": "electric_scooter", "lat": 38.93354716666666, "is_reserved": 0, "lon": -77.06938233333334, "fusion_lon": 0.0, "is_disabled": 0, "fusion_lat": 0.0, "bike_id": "b2449dcdd2660aab11272f66dc42695b", "rental_uris": {"ios": "https://dc.lft.to/lastmile_qr_scan", "android": "https://dc.lft.to/lastmile_qr_scan"}}, {"name": "dada439563a063f4d1fbfe48d9a32d65", "type": "electric_scooter", "lat": 38.937675, "is_reserved": 0, "lon": -77.03280983333333, "fusion_lon": 0.0, "is_disabled": 0, "fusion_lat": 0.0, "bike_id": "dada439563a063f4d1fbfe48d9a32d65", "rental_uris": {"ios": "https://dc.lft.to/lastmile_qr_scan", "android": "https://dc.lft.to/lastmile_qr_scan"}}, {"name": "d0bf2bd74542a488ed640e73a2f22c73", "type": "electric_scooter", "lat": 38.9225885, "is_reserved": 0, "lon": -77.0369195, "fusion_lon": 0.0, "is_disabled": 0, "fusion_lat": 0.0, "bike_id": "d0bf2bd74542a488ed640e73a2f22c73", "rental_uris": {"ios": "https://dc.lft.to/lastmile_qr_scan", "android": "https://dc.lft.to/lastmile_qr_scan"}}, {"name": "8b60f253ffe3456fe86d3fcdbbebc996", "type": "electric_scooter", "lat": 38.8620565, "is_reserved": 0, "lon": -76.99465716666667, "fusion_lon": 0.0, "is_disabled": 0, "fusion_lat": 0.0, "bike_id": "8b60f253ffe3456fe86d3fcdbbebc996", "rental_uris": {"ios": "https://dc.lft.to/lastmile_qr_scan", "android": "https://dc.lft.to/lastmile_qr_scan"}}, {"name": "9c4359cfdc0753902b77b527b46c1d83", "type": "electric_scooter", "lat": 38.9191575, "is_reserved": 0, "lon": -77.033411, "fusion_lon": 0.0, "is_disabled": 0, "fusion_lat": 0.0, "bike_id": "9c4359cfdc0753902b77b527b46c1d83", "rental_uris": {"ios": "https://dc.lft.to/lastmile_qr_scan", "android": "https://dc.lft.to/lastmile_qr_scan"}}, {"name": "9e8b423e6ada6b8bdba60e700806fb3d", "type": "electric_scooter", "lat": 38.934985166666664, "is_reserved": 0, "lon": -77.0272345, "fusion_lon": 0.0, "is_disabled": 0, "fusion_lat": 0.0, "bike_id": "9e8b423e6ada6b8bdba60e700806fb3d", "rental_uris": {"ios": "https://dc.lft.to/lastmile_qr_scan", "android": "https://dc.lft.to/lastmile_qr_scan"}}, {"name": "3dccb9f4c94490eab464195482893383", "type": "electric_scooter", "lat": 38.928987166666666, "is_reserved": 0, "lon": -77.02500366666666, "fusion_lon": 0.0, "is_disabled": 0, "fusion_lat": 0.0, "bike_id": "3dccb9f4c94490eab464195482893383", "rental_uris": {"ios": "https://dc.lft.to/lastmile_qr_scan", "android": "https://dc.lft.to/lastmile_qr_scan"}}, {"name": "7d294750da7b087d8308232999b6f4b2", "type": "electric_scooter", "lat": 38.90362833333333, "is_reserved": 0, "lon": -77.02517716666667, "fusion_lon": 0.0, "is_disabled": 0, "fusion_lat": 0.0, "bike_id": "7d294750da7b087d8308232999b6f4b2", "rental_uris": {"ios": "https://dc.lft.to/lastmile_qr_scan", "android": "https://dc.lft.to/lastmile_qr_scan"}}, {"name": "f30b137be60b054bacc43e8be21ef0b8", "type": "electric_scooter", "lat": 38.877355666666666, "is_reserved": 0, "lon": -76.9728155, "fusion_lon": 0.0, "is_disabled": 0, "fusion_lat": 0.0, "bike_id": "f30b137be60b054bacc43e8be21ef0b8", "rental_uris": {"ios": "https://dc.lft.to/lastmile_qr_scan", "android": "https://dc.lft.to/lastmile_qr_scan"}}, {"name": "c37d79cd874d7729073ea0e3e2c5d779", "type": "electric_scooter", "lat": 38.94839316666667, "is_reserved": 0, "lon": -77.02552766666666, "fusion_lon": 0.0, "is_disabled": 0, "fusion_lat": 0.0, "bike_id": "c37d79cd874d7729073ea0e3e2c5d779", "rental_uris": {"ios": "https://dc.lft.to/lastmile_qr_scan", "android": "https://dc.lft.to/lastmile_qr_scan"}}, {"name": "fea755f8a5facc98621156d001a74e6f", "type": "electric_scooter", "lat": 38.86522733333334, "is_reserved": 0, "lon": -76.99032616666666, "fusion_lon": 0.0, "is_disabled": 0, "fusion_lat": 0.0, "bike_id": "fea755f8a5facc98621156d001a74e6f", "rental_uris": {"ios": "https://dc.lft.to/lastmile_qr_scan", "android": "https://dc.lft.to/lastmile_qr_scan"}}, {"name": "6463560ce01f60767d5780f06d88796d", "type": "electric_scooter", "lat": 38.921272, "is_reserved": 0, "lon": -77.03887283333333, "fusion_lon": 0.0, "is_disabled": 0, "fusion_lat": 0.0, "bike_id": "6463560ce01f60767d5780f06d88796d", "rental_uris": {"ios": "https://dc.lft.to/lastmile_qr_scan", "android": "https://dc.lft.to/lastmile_qr_scan"}}, {"name": "f783886b2f7fd3e11312ecbda447d173", "type": "electric_scooter", "lat": 38.899577, "is_reserved": 0, "lon": -77.02989333333333, "fusion_lon": 0.0, "is_disabled": 0, "fusion_lat": 0.0, "bike_id": "f783886b2f7fd3e11312ecbda447d173", "rental_uris": {"ios": "https://dc.lft.to/lastmile_qr_scan", "android": "https://dc.lft.to/lastmile_qr_scan"}}, {"name": "c7c8624b093a53961e65c6a28db767ab", "type": "electric_scooter", "lat": 38.91936966666667, "is_reserved": 0, "lon": -77.04538066666667, "fusion_lon": 0.0, "is_disabled": 0, "fusion_lat": 0.0, "bike_id": "c7c8624b093a53961e65c6a28db767ab", "rental_uris": {"ios": "https://dc.lft.to/lastmile_qr_scan", "android": "https://dc.lft.to/lastmile_qr_scan"}}, {"name": "61883788df2c67b8f3ffb436fc776ece", "type": "electric_scooter", "lat": 38.95527583333333, "is_reserved": 0, "lon": -77.0697965, "fusion_lon": 0.0, "is_disabled": 0, "fusion_lat": 0.0, "bike_id": "61883788df2c67b8f3ffb436fc776ece", "rental_uris": {"ios": "https://dc.lft.to/lastmile_qr_scan", "android": "https://dc.lft.to/lastmile_qr_scan"}}, {"name": "c0a11a2eeccc8bc10768ad8a50811623", "type": "electric_scooter", "lat": 38.93353666666667, "is_reserved": 0, "lon": -77.03371316666667, "fusion_lon": 0.0, "is_disabled": 0, "fusion_lat": 0.0, "bike_id": "c0a11a2eeccc8bc10768ad8a50811623", "rental_uris": {"ios": "https://dc.lft.to/lastmile_qr_scan", "android": "https://dc.lft.to/lastmile_qr_scan"}}, {"name": "6a8a0437d6890640b0e3a953685a1561", "type": "electric_scooter", "lat": 38.9000815, "is_reserved": 0, "lon": -77.02945683333333, "fusion_lon": 0.0, "is_disabled": 0, "fusion_lat": 0.0, "bike_id": "6a8a0437d6890640b0e3a953685a1561", "rental_uris": {"ios": "https://dc.lft.to/lastmile_qr_scan", "android": "https://dc.lft.to/lastmile_qr_scan"}}, {"name": "ecd8568819ddb94ed925eb4be82ce6a5", "type": "electric_scooter", "lat": 38.9138385, "is_reserved": 0, "lon": -77.04659433333333, "fusion_lon": 0.0, "is_disabled": 0, "fusion_lat": 0.0, "bike_id": "ecd8568819ddb94ed925eb4be82ce6a5", "rental_uris": {"ios": "https://dc.lft.to/lastmile_qr_scan", "android": "https://dc.lft.to/lastmile_qr_scan"}}, {"name": "a3dc3682720d6043dda8bf750416683d", "type": "electric_scooter", "lat": 38.931929, "is_reserved": 0, "lon": -77.02963466666667, "fusion_lon": 0.0, "is_disabled": 0, "fusion_lat": 0.0, "bike_id": "a3dc3682720d6043dda8bf750416683d", "rental_uris": {"ios": "https://dc.lft.to/lastmile_qr_scan", "android": "https://dc.lft.to/lastmile_qr_scan"}}, {"name": "f6d022c02d3d00a5e2bb094d461c46c3", "type": "electric_scooter", "lat": 38.8993245, "is_reserved": 0, "lon": -77.0317375, "fusion_lon": 0.0, "is_disabled": 0, "fusion_lat": 0.0, "bike_id": "f6d022c02d3d00a5e2bb094d461c46c3", "rental_uris": {"ios": "https://dc.lft.to/lastmile_qr_scan", "android": "https://dc.lft.to/lastmile_qr_scan"}}, {"name": "d3f346e5813c2a1a2b8d43ead41ae21f", "type": "electric_scooter", "lat": 38.89887516666667, "is_reserved": 0, "lon": -76.991435, "fusion_lon": 0.0, "is_disabled": 0, "fusion_lat": 0.0, "bike_id": "d3f346e5813c2a1a2b8d43ead41ae21f", "rental_uris": {"ios": "https://dc.lft.to/lastmile_qr_scan", "android": "https://dc.lft.to/lastmile_qr_scan"}}, {"name": "734cfc3c5f929b19bd244971c34fd3a0", "type": "electric_bike", "lat": 38.897873833333335, "is_reserved": 0, "lon": -76.9044335, "fusion_lon": 0.0, "is_disabled": 0, "fusion_lat": 0.0, "bike_id": "734cfc3c5f929b19bd244971c34fd3a0", "rental_uris": {"ios": "https://dc.lft.to/lastmile_qr_scan", "android": "https://dc.lft.to/lastmile_qr_scan"}}, {"name": "6bac4ddfe39e1623a5e4c20136378b27", "type": "electric_scooter", "lat": 38.93446133333333, "is_reserved": 0, "lon": -77.02845416666666, "fusion_lon": 0.0, "is_disabled": 0, "fusion_lat": 0.0, "bike_id": "6bac4ddfe39e1623a5e4c20136378b27", "rental_uris": {"ios": "https://dc.lft.to/lastmile_qr_scan", "android": "https://dc.lft.to/lastmile_qr_scan"}}, {"name": "3bb9c15f5f0f5aa355e1728836529ca3", "type": "electric_scooter", "lat": 38.922681, "is_reserved": 0, "lon": -77.03411033333333, "fusion_lon": 0.0, "is_disabled": 0, "fusion_lat": 0.0, "bike_id": "3bb9c15f5f0f5aa355e1728836529ca3", "rental_uris": {"ios": "https://dc.lft.to/lastmile_qr_scan", "android": "https://dc.lft.to/lastmile_qr_scan"}}, {"name": "4b1b92d601bb872319c89336d7ae0542", "type": "electric_scooter", "lat": 38.9311855, "is_reserved": 0, "lon": -77.02089416666666, "fusion_lon": 0.0, "is_disabled": 0, "fusion_lat": 0.0, "bike_id": "4b1b92d601bb872319c89336d7ae0542", "rental_uris": {"ios": "https://dc.lft.to/lastmile_qr_scan", "android": "https://dc.lft.to/lastmile_qr_scan"}}, {"name": "e0eb2185c04a8cc8b565fc1f17c3bfff", "type": "electric_scooter", "lat": 38.867, "is_reserved": 0, "lon": -76.98713233333334, "fusion_lon": 0.0, "is_disabled": 0, "fusion_lat": 0.0, "bike_id": "e0eb2185c04a8cc8b565fc1f17c3bfff", "rental_uris": {"ios": "https://dc.lft.to/lastmile_qr_scan", "android": "https://dc.lft.to/lastmile_qr_scan"}}, {"name": "22858942652687953cefc378d85bc31b", "type": "electric_bike", "lat": 38.9462055, "is_reserved": 0, "lon": -76.94626466666666, "fusion_lon": 0.0, "is_disabled": 0, "fusion_lat": 0.0, "bike_id": "22858942652687953cefc378d85bc31b", "rental_uris": {"ios": "https://dc.lft.to/lastmile_qr_scan", "android": "https://dc.lft.to/lastmile_qr_scan"}}, {"name": "cb74a6f74af25ea565da98c5f883a63b", "type": "electric_scooter", "lat": 38.89806816666667, "is_reserved": 0, "lon": -77.01225233333334, "fusion_lon": 0.0, "is_disabled": 0, "fusion_lat": 0.0, "bike_id": "cb74a6f74af25ea565da98c5f883a63b", "rental_uris": {"ios": "https://dc.lft.to/lastmile_qr_scan", "android": "https://dc.lft.to/lastmile_qr_scan"}}, {"name": "059229cf0c43ebc82c84dd472b11ced2", "type": "electric_scooter", "lat": 38.897606833333334, "is_reserved": 0, "lon": -77.00746166666667, "fusion_lon": 0.0, "is_disabled": 0, "fusion_lat": 0.0, "bike_id": "059229cf0c43ebc82c84dd472b11ced2", "rental_uris": {"ios": "https://dc.lft.to/lastmile_qr_scan", "android": "https://dc.lft.to/lastmile_qr_scan"}}, {"name": "12d23fed2a8233ba2659b72546357ac6", "type": "electric_scooter", "lat": 38.905644833333334, "is_reserved": 0, "lon": -77.0242675, "fusion_lon": 0.0, "is_disabled": 0, "fusion_lat": 0.0, "bike_id": "12d23fed2a8233ba2659b72546357ac6", "rental_uris": {"ios": "https://dc.lft.to/lastmile_qr_scan", "android": "https://dc.lft.to/lastmile_qr_scan"}}, {"name": "bd082bde47123f7bea39d45c0c92fda0", "type": "electric_scooter", "lat": 38.8960865, "is_reserved": 0, "lon": -77.05075433333333, "fusion_lon": 0.0, "is_disabled": 0, "fusion_lat": 0.0, "bike_id": "bd082bde47123f7bea39d45c0c92fda0", "rental_uris": {"ios": "https://dc.lft.to/lastmile_qr_scan", "android": "https://dc.lft.to/lastmile_qr_scan"}}, {"name": "5d392358d573f7c6953f10a5882369ce", "type": "electric_scooter", "lat": 38.92225083333334, "is_reserved": 0, "lon": -77.042478, "fusion_lon": 0.0, "is_disabled": 0, "fusion_lat": 0.0, "bike_id": "5d392358d573f7c6953f10a5882369ce", "rental_uris": {"ios": "https://dc.lft.to/lastmile_qr_scan", "android": "https://dc.lft.to/lastmile_qr_scan"}}, {"name": "7f0587d5d217a11f239067ecef2bc3e7", "type": "electric_scooter", "lat": 38.9311635, "is_reserved": 0, "lon": -77.03602916666667, "fusion_lon": 0.0, "is_disabled": 0, "fusion_lat": 0.0, "bike_id": "7f0587d5d217a11f239067ecef2bc3e7", "rental_uris": {"ios": "https://dc.lft.to/lastmile_qr_scan", "android": "https://dc.lft.to/lastmile_qr_scan"}}, {"name": "9b6fbf5f6446d5d54d2d1703fbbabb2b", "type": "electric_scooter", "lat": 38.897489666666665, "is_reserved": 0, "lon": -77.02692133333333, "fusion_lon": 0.0, "is_disabled": 0, "fusion_lat": 0.0, "bike_id": "9b6fbf5f6446d5d54d2d1703fbbabb2b", "rental_uris": {"ios": "https://dc.lft.to/lastmile_qr_scan", "android": "https://dc.lft.to/lastmile_qr_scan"}}, {"name": "30eff235460dcb339fd1330916dba639", "type": "electric_scooter", "lat": 38.899639, "is_reserved": 0, "lon": -77.04360966666667, "fusion_lon": 0.0, "is_disabled": 0, "fusion_lat": 0.0, "bike_id": "30eff235460dcb339fd1330916dba639", "rental_uris": {"ios": "https://dc.lft.to/lastmile_qr_scan", "android": "https://dc.lft.to/lastmile_qr_scan"}}, {"name": "aaa6b6d52aa117fc07d1e603337aaa26", "type": "electric_scooter", "lat": 38.90669483333333, "is_reserved": 0, "lon": -77.034429, "fusion_lon": 0.0, "is_disabled": 0, "fusion_lat": 0.0, "bike_id": "aaa6b6d52aa117fc07d1e603337aaa26", "rental_uris": {"ios": "https://dc.lft.to/lastmile_qr_scan", "android": "https://dc.lft.to/lastmile_qr_scan"}}, {"name": "5eb3275321e31e6b96a5e6b7e1173f38", "type": "electric_scooter", "lat": 38.91816016666667, "is_reserved": 0, "lon": -77.02303683333334, "fusion_lon": 0.0, "is_disabled": 0, "fusion_lat": 0.0, "bike_id": "5eb3275321e31e6b96a5e6b7e1173f38", "rental_uris": {"ios": "https://dc.lft.to/lastmile_qr_scan", "android": "https://dc.lft.to/lastmile_qr_scan"}}, {"name": "bfabc42c41361e9b965d616014ba3234", "type": "electric_scooter", "lat": 38.93005566666667, "is_reserved": 0, "lon": -77.03269166666666, "fusion_lon": 0.0, "is_disabled": 0, "fusion_lat": 0.0, "bike_id": "bfabc42c41361e9b965d616014ba3234", "rental_uris": {"ios": "https://dc.lft.to/lastmile_qr_scan", "android": "https://dc.lft.to/lastmile_qr_scan"}}, {"name": "dbee5ea2664da379952aaf67cd2daad9", "type": "electric_scooter", "lat": 38.94274566666667, "is_reserved": 0, "lon": -77.02500566666667, "fusion_lon": 0.0, "is_disabled": 0, "fusion_lat": 0.0, "bike_id": "dbee5ea2664da379952aaf67cd2daad9", "rental_uris": {"ios": "https://dc.lft.to/lastmile_qr_scan", "android": "https://dc.lft.to/lastmile_qr_scan"}}, {"name": "74513112383a8d1cf84af9e4c7909bf4", "type": "electric_scooter", "lat": 38.921136, "is_reserved": 0, "lon": -77.03178183333333, "fusion_lon": 0.0, "is_disabled": 0, "fusion_lat": 0.0, "bike_id": "74513112383a8d1cf84af9e4c7909bf4", "rental_uris": {"ios": "https://dc.lft.to/lastmile_qr_scan", "android": "https://dc.lft.to/lastmile_qr_scan"}}, {"name": "c5c7ba36dc813d2e9a2464a62c929b30", "type": "electric_scooter", "lat": 38.921877, "is_reserved": 0, "lon": -77.04274983333333, "fusion_lon": 0.0, "is_disabled": 0, "fusion_lat": 0.0, "bike_id": "c5c7ba36dc813d2e9a2464a62c929b30", "rental_uris": {"ios": "https://dc.lft.to/lastmile_qr_scan", "android": "https://dc.lft.to/lastmile_qr_scan"}}, {"name": "dd80a64e3ec30305d64188369fbb289c", "type": "electric_scooter", "lat": 38.892254333333334, "is_reserved": 0, "lon": -77.046448, "fusion_lon": 0.0, "is_disabled": 0, "fusion_lat": 0.0, "bike_id": "dd80a64e3ec30305d64188369fbb289c", "rental_uris": {"ios": "https://dc.lft.to/lastmile_qr_scan", "android": "https://dc.lft.to/lastmile_qr_scan"}}, {"name": "28d484daf646aafddb0890c3eebd187f", "type": "electric_scooter", "lat": 38.92737366666667, "is_reserved": 0, "lon": -77.02495133333333, "fusion_lon": 0.0, "is_disabled": 0, "fusion_lat": 0.0, "bike_id": "28d484daf646aafddb0890c3eebd187f", "rental_uris": {"ios": "https://dc.lft.to/lastmile_qr_scan", "android": "https://dc.lft.to/lastmile_qr_scan"}}, {"name": "5b8364105cc7affcde4233be709271a8", "type": "electric_bike", "lat": 38.83935566666667, "is_reserved": 0, "lon": -77.079033, "fusion_lon": 0.0, "is_disabled": 0, "fusion_lat": 0.0, "bike_id": "5b8364105cc7affcde4233be709271a8", "rental_uris": {"ios": "https://dc.lft.to/lastmile_qr_scan", "android": "https://dc.lft.to/lastmile_qr_scan"}}, {"name": "12658b4886033aed971aa1ac97f15b6c", "type": "electric_scooter", "lat": 38.94961166666667, "is_reserved": 0, "lon": -77.02721466666667, "fusion_lon": 0.0, "is_disabled": 0, "fusion_lat": 0.0, "bike_id": "12658b4886033aed971aa1ac97f15b6c", "rental_uris": {"ios": "https://dc.lft.to/lastmile_qr_scan", "android": "https://dc.lft.to/lastmile_qr_scan"}}, {"name": "d4efbab3f66d82ef87fdff552e0b797e", "type": "electric_scooter", "lat": 38.89866633333333, "is_reserved": 0, "lon": -77.04070166666666, "fusion_lon": 0.0, "is_disabled": 0, "fusion_lat": 0.0, "bike_id": "d4efbab3f66d82ef87fdff552e0b797e", "rental_uris": {"ios": "https://dc.lft.to/lastmile_qr_scan", "android": "https://dc.lft.to/lastmile_qr_scan"}}, {"name": "e363145a872e58a63bc401cec1a19bae", "type": "electric_scooter", "lat": 38.905610333333335, "is_reserved": 0, "lon": -77.04549133333333, "fusion_lon": 0.0, "is_disabled": 0, "fusion_lat": 0.0, "bike_id": "e363145a872e58a63bc401cec1a19bae", "rental_uris": {"ios": "https://dc.lft.to/lastmile_qr_scan", "android": "https://dc.lft.to/lastmile_qr_scan"}}, {"name": "1ab9f3659f3c73869ea295393cf0aacf", "type": "electric_scooter", "lat": 38.922418, "is_reserved": 0, "lon": -77.04269583333334, "fusion_lon": 0.0, "is_disabled": 0, "fusion_lat": 0.0, "bike_id": "1ab9f3659f3c73869ea295393cf0aacf", "rental_uris": {"ios": "https://dc.lft.to/lastmile_qr_scan", "android": "https://dc.lft.to/lastmile_qr_scan"}}, {"name": "534c5671d0287d00736a5e84b26fa0a4", "type": "electric_scooter", "lat": 38.944779833333335, "is_reserved": 0, "lon": -77.0638665, "fusion_lon": 0.0, "is_disabled": 0, "fusion_lat": 0.0, "bike_id": "534c5671d0287d00736a5e84b26fa0a4", "rental_uris": {"ios": "https://dc.lft.to/lastmile_qr_scan", "android": "https://dc.lft.to/lastmile_qr_scan"}}, {"name": "5443efadefe6778d50fd1b7c8eee7d62", "type": "electric_scooter", "lat": 38.955299, "is_reserved": 0, "lon": -77.02467783333333, "fusion_lon": 0.0, "is_disabled": 0, "fusion_lat": 0.0, "bike_id": "5443efadefe6778d50fd1b7c8eee7d62", "rental_uris": {"ios": "https://dc.lft.to/lastmile_qr_scan", "android": "https://dc.lft.to/lastmile_qr_scan"}}, {"name": "e12868e642de4147d72ec03e9d96c4a9", "type": "electric_scooter", "lat": 38.91494516666667, "is_reserved": 0, "lon": -77.03247416666666, "fusion_lon": 0.0, "is_disabled": 0, "fusion_lat": 0.0, "bike_id": "e12868e642de4147d72ec03e9d96c4a9", "rental_uris": {"ios": "https://dc.lft.to/lastmile_qr_scan", "android": "https://dc.lft.to/lastmile_qr_scan"}}, {"name": "105999bd61280fc899c994925808be27", "type": "electric_scooter", "lat": 38.91719366666667, "is_reserved": 0, "lon": -77.01864933333333, "fusion_lon": 0.0, "is_disabled": 0, "fusion_lat": 0.0, "bike_id": "105999bd61280fc899c994925808be27", "rental_uris": {"ios": "https://dc.lft.to/lastmile_qr_scan", "android": "https://dc.lft.to/lastmile_qr_scan"}}, {"name": "6229fcb92f297a55ea5149a008349abf", "type": "electric_scooter", "lat": 38.90974766666667, "is_reserved": 0, "lon": -77.047715, "fusion_lon": 0.0, "is_disabled": 0, "fusion_lat": 0.0, "bike_id": "6229fcb92f297a55ea5149a008349abf", "rental_uris": {"ios": "https://dc.lft.to/lastmile_qr_scan", "android": "https://dc.lft.to/lastmile_qr_scan"}}, {"name": "3c36924aae4457edaf5871c4b705e0f7", "type": "electric_bike", "lat": 38.973447166666666, "is_reserved": 0, "lon": -77.10040183333334, "fusion_lon": 0.0, "is_disabled": 0, "fusion_lat": 0.0, "bike_id": "3c36924aae4457edaf5871c4b705e0f7", "rental_uris": {"ios": "https://dc.lft.to/lastmile_qr_scan", "android": "https://dc.lft.to/lastmile_qr_scan"}}, {"name": "c28bac86f62d653bfb7901c44d298e7a", "type": "electric_scooter", "lat": 38.897221, "is_reserved": 0, "lon": -77.0097655, "fusion_lon": 0.0, "is_disabled": 0, "fusion_lat": 0.0, "bike_id": "c28bac86f62d653bfb7901c44d298e7a", "rental_uris": {"ios": "https://dc.lft.to/lastmile_qr_scan", "android": "https://dc.lft.to/lastmile_qr_scan"}}, {"name": "cec9a8ef3eb6680f3c9a64892e2bb3d4", "type": "electric_bike", "lat": 38.90297666666667, "is_reserved": 0, "lon": -76.94438416666667, "fusion_lon": 0.0, "is_disabled": 0, "fusion_lat": 0.0, "bike_id": "cec9a8ef3eb6680f3c9a64892e2bb3d4", "rental_uris": {"ios": "https://dc.lft.to/lastmile_qr_scan", "android": "https://dc.lft.to/lastmile_qr_scan"}}, {"name": "cd07d8c873c1abb680bd8caa1442d6ed", "type": "electric_scooter", "lat": 38.9421095, "is_reserved": 0, "lon": -77.0149735, "fusion_lon": 0.0, "is_disabled": 0, "fusion_lat": 0.0, "bike_id": "cd07d8c873c1abb680bd8caa1442d6ed", "rental_uris": {"ios": "https://dc.lft.to/lastmile_qr_scan", "android": "https://dc.lft.to/lastmile_qr_scan"}}, {"name": "69adb1b16f3f407be72cd2117c51b940", "type": "electric_scooter", "lat": 38.920854166666665, "is_reserved": 0, "lon": -77.02389383333333, "fusion_lon": 0.0, "is_disabled": 0, "fusion_lat": 0.0, "bike_id": "69adb1b16f3f407be72cd2117c51b940", "rental_uris": {"ios": "https://dc.lft.to/lastmile_qr_scan", "android": "https://dc.lft.to/lastmile_qr_scan"}}, {"name": "95148f2986fa7b77b9551b01ce20bcd3", "type": "electric_scooter", "lat": 38.892127333333335, "is_reserved": 0, "lon": -77.03218133333333, "fusion_lon": 0.0, "is_disabled": 0, "fusion_lat": 0.0, "bike_id": "95148f2986fa7b77b9551b01ce20bcd3", "rental_uris": {"ios": "https://dc.lft.to/lastmile_qr_scan", "android": "https://dc.lft.to/lastmile_qr_scan"}}, {"name": "90c875e93596b1db6f8e2ed04ac9ae7b", "type": "electric_scooter", "lat": 38.922424166666666, "is_reserved": 0, "lon": -77.03089866666667, "fusion_lon": 0.0, "is_disabled": 0, "fusion_lat": 0.0, "bike_id": "90c875e93596b1db6f8e2ed04ac9ae7b", "rental_uris": {"ios": "https://dc.lft.to/lastmile_qr_scan", "android": "https://dc.lft.to/lastmile_qr_scan"}}, {"name": "bdb3d86f9da1e997abe23a0a2b5cec7e", "type": "electric_bike", "lat": 38.86144316666667, "is_reserved": 0, "lon": -76.95005716666667, "fusion_lon": 0.0, "is_disabled": 0, "fusion_lat": 0.0, "bike_id": "bdb3d86f9da1e997abe23a0a2b5cec7e", "rental_uris": {"ios": "https://dc.lft.to/lastmile_qr_scan", "android": "https://dc.lft.to/lastmile_qr_scan"}}, {"name": "f1cb204d261bb55731edba610ad02048", "type": "electric_scooter", "lat": 38.883056833333335, "is_reserved": 0, "lon": -77.03158, "fusion_lon": 0.0, "is_disabled": 0, "fusion_lat": 0.0, "bike_id": "f1cb204d261bb55731edba610ad02048", "rental_uris": {"ios": "https://dc.lft.to/lastmile_qr_scan", "android": "https://dc.lft.to/lastmile_qr_scan"}}, {"name": "321c5ee8aa7cf1f3eba824069c5db251", "type": "electric_bike", "lat": 38.88857333333333, "is_reserved": 0, "lon": -77.03243983333333, "fusion_lon": 0.0, "is_disabled": 0, "fusion_lat": 0.0, "bike_id": "321c5ee8aa7cf1f3eba824069c5db251", "rental_uris": {"ios": "https://dc.lft.to/lastmile_qr_scan", "android": "https://dc.lft.to/lastmile_qr_scan"}}, {"name": "69b768d308164bd64ca1380611126b39", "type": "electric_scooter", "lat": 38.9232325, "is_reserved": 0, "lon": -77.0395645, "fusion_lon": 0.0, "is_disabled": 0, "fusion_lat": 0.0, "bike_id": "69b768d308164bd64ca1380611126b39", "rental_uris": {"ios": "https://dc.lft.to/lastmile_qr_scan", "android": "https://dc.lft.to/lastmile_qr_scan"}}, {"name": "d874e3e3ff2e6d0935dff53151907f09", "type": "electric_scooter", "lat": 38.905123, "is_reserved": 0, "lon": -77.06940366666667, "fusion_lon": 0.0, "is_disabled": 0, "fusion_lat": 0.0, "bike_id": "d874e3e3ff2e6d0935dff53151907f09", "rental_uris": {"ios": "https://dc.lft.to/lastmile_qr_scan", "android": "https://dc.lft.to/lastmile_qr_scan"}}, {"name": "a272be60752e268f498bfd34de2cce6a", "type": "electric_scooter", "lat": 38.92045, "is_reserved": 0, "lon": -77.03429733333333, "fusion_lon": 0.0, "is_disabled": 0, "fusion_lat": 0.0, "bike_id": "a272be60752e268f498bfd34de2cce6a", "rental_uris": {"ios": "https://dc.lft.to/lastmile_qr_scan", "android": "https://dc.lft.to/lastmile_qr_scan"}}, {"name": "7488af9554123174e944d6073e6d0e23", "type": "electric_scooter", "lat": 38.91018533333333, "is_reserved": 0, "lon": -77.052742, "fusion_lon": 0.0, "is_disabled": 0, "fusion_lat": 0.0, "bike_id": "7488af9554123174e944d6073e6d0e23", "rental_uris": {"ios": "https://dc.lft.to/lastmile_qr_scan", "android": "https://dc.lft.to/lastmile_qr_scan"}}, {"name": "8159c6b58ce95b7f1558dfb95a217c3f", "type": "electric_scooter", "lat": 38.911084333333335, "is_reserved": 0, "lon": -77.01058666666667, "fusion_lon": 0.0, "is_disabled": 0, "fusion_lat": 0.0, "bike_id": "8159c6b58ce95b7f1558dfb95a217c3f", "rental_uris": {"ios": "https://dc.lft.to/lastmile_qr_scan", "android": "https://dc.lft.to/lastmile_qr_scan"}}, {"name": "feaf7e1ad90fa147d99536034596d95c", "type": "electric_scooter", "lat": 38.900838666666665, "is_reserved": 0, "lon": -77.0490155, "fusion_lon": 0.0, "is_disabled": 0, "fusion_lat": 0.0, "bike_id": "feaf7e1ad90fa147d99536034596d95c", "rental_uris": {"ios": "https://dc.lft.to/lastmile_qr_scan", "android": "https://dc.lft.to/lastmile_qr_scan"}}, {"name": "c6526b5bdd10c4f947a50912de6d9b3e", "type": "electric_scooter", "lat": 38.90947233333333, "is_reserved": 0, "lon": -77.02303983333333, "fusion_lon": 0.0, "is_disabled": 0, "fusion_lat": 0.0, "bike_id": "c6526b5bdd10c4f947a50912de6d9b3e", "rental_uris": {"ios": "https://dc.lft.to/lastmile_qr_scan", "android": "https://dc.lft.to/lastmile_qr_scan"}}, {"name": "b55a952d9a173a73543fdc6d76a331d9", "type": "electric_scooter", "lat": 38.9411875, "is_reserved": 0, "lon": -77.02658733333334, "fusion_lon": 0.0, "is_disabled": 0, "fusion_lat": 0.0, "bike_id": "b55a952d9a173a73543fdc6d76a331d9", "rental_uris": {"ios": "https://dc.lft.to/lastmile_qr_scan", "android": "https://dc.lft.to/lastmile_qr_scan"}}, {"name": "493c8bd97bc2eed43f2aed460bf55df8", "type": "electric_scooter", "lat": 38.900183166666665, "is_reserved": 0, "lon": -77.0115195, "fusion_lon": 0.0, "is_disabled": 0, "fusion_lat": 0.0, "bike_id": "493c8bd97bc2eed43f2aed460bf55df8", "rental_uris": {"ios": "https://dc.lft.to/lastmile_qr_scan", "android": "https://dc.lft.to/lastmile_qr_scan"}}, {"name": "ab5cddfdc5d08d71832b9443426d283f", "type": "electric_scooter", "lat": 38.90861616666667, "is_reserved": 0, "lon": -76.98619283333333, "fusion_lon": 0.0, "is_disabled": 0, "fusion_lat": 0.0, "bike_id": "ab5cddfdc5d08d71832b9443426d283f", "rental_uris": {"ios": "https://dc.lft.to/lastmile_qr_scan", "android": "https://dc.lft.to/lastmile_qr_scan"}}, {"name": "2f98d3dcda2eca5a0a88392b3b94aa35", "type": "electric_scooter", "lat": 38.8848885, "is_reserved": 0, "lon": -77.02859066666667, "fusion_lon": 0.0, "is_disabled": 0, "fusion_lat": 0.0, "bike_id": "2f98d3dcda2eca5a0a88392b3b94aa35", "rental_uris": {"ios": "https://dc.lft.to/lastmile_qr_scan", "android": "https://dc.lft.to/lastmile_qr_scan"}}, {"name": "df66198a3a7f3ff944463cbcd6a520c1", "type": "electric_scooter", "lat": 38.90521433333333, "is_reserved": 0, "lon": -77.0658745, "fusion_lon": 0.0, "is_disabled": 0, "fusion_lat": 0.0, "bike_id": "df66198a3a7f3ff944463cbcd6a520c1", "rental_uris": {"ios": "https://dc.lft.to/lastmile_qr_scan", "android": "https://dc.lft.to/lastmile_qr_scan"}}, {"name": "bab4052ede7e55246f0d1985fe6f4cba", "type": "electric_bike", "lat": 38.928660666666666, "is_reserved": 0, "lon": -76.96109983333334, "fusion_lon": 0.0, "is_disabled": 0, "fusion_lat": 0.0, "bike_id": "bab4052ede7e55246f0d1985fe6f4cba", "rental_uris": {"ios": "https://dc.lft.to/lastmile_qr_scan", "android": "https://dc.lft.to/lastmile_qr_scan"}}, {"name": "2af2deb2784377d7810d7134d69e91d3", "type": "electric_scooter", "lat": 38.86359483333333, "is_reserved": 0, "lon": -76.990673, "fusion_lon": 0.0, "is_disabled": 0, "fusion_lat": 0.0, "bike_id": "2af2deb2784377d7810d7134d69e91d3", "rental_uris": {"ios": "https://dc.lft.to/lastmile_qr_scan", "android": "https://dc.lft.to/lastmile_qr_scan"}}, {"name": "675d93baeef384829a507f2682a560cf", "type": "electric_bike", "lat": 38.93001816666667, "is_reserved": 0, "lon": -77.01086433333333, "fusion_lon": 0.0, "is_disabled": 0, "fusion_lat": 0.0, "bike_id": "675d93baeef384829a507f2682a560cf", "rental_uris": {"ios": "https://dc.lft.to/lastmile_qr_scan", "android": "https://dc.lft.to/lastmile_qr_scan"}}, {"name": "44070329443c58bf232d30073e7e5256", "type": "electric_scooter", "lat": 38.89726366666667, "is_reserved": 0, "lon": -77.03255616666667, "fusion_lon": 0.0, "is_disabled": 0, "fusion_lat": 0.0, "bike_id": "44070329443c58bf232d30073e7e5256", "rental_uris": {"ios": "https://dc.lft.to/lastmile_qr_scan", "android": "https://dc.lft.to/lastmile_qr_scan"}}, {"name": "2f9cf98489d46f8c258f7f54236df62c", "type": "electric_scooter", "lat": 38.89886083333333, "is_reserved": 0, "lon": -76.93176083333333, "fusion_lon": 0.0, "is_disabled": 0, "fusion_lat": 0.0, "bike_id": "2f9cf98489d46f8c258f7f54236df62c", "rental_uris": {"ios": "https://dc.lft.to/lastmile_qr_scan", "android": "https://dc.lft.to/lastmile_qr_scan"}}, {"name": "587ac497a4b237b24ca2a874f0c2742c", "type": "electric_scooter", "lat": 38.880499, "is_reserved": 0, "lon": -77.01325483333333, "fusion_lon": 0.0, "is_disabled": 0, "fusion_lat": 0.0, "bike_id": "587ac497a4b237b24ca2a874f0c2742c", "rental_uris": {"ios": "https://dc.lft.to/lastmile_qr_scan", "android": "https://dc.lft.to/lastmile_qr_scan"}}, {"name": "6933570fba0752487e5f306c97e329d9", "type": "electric_scooter", "lat": 38.90483533333333, "is_reserved": 0, "lon": -77.043632, "fusion_lon": 0.0, "is_disabled": 0, "fusion_lat": 0.0, "bike_id": "6933570fba0752487e5f306c97e329d9", "rental_uris": {"ios": "https://dc.lft.to/lastmile_qr_scan", "android": "https://dc.lft.to/lastmile_qr_scan"}}, {"name": "049e0179b85daad2c2b2d6b973fa6a79", "type": "electric_scooter", "lat": 38.91333933333333, "is_reserved": 0, "lon": -77.0483275, "fusion_lon": 0.0, "is_disabled": 0, "fusion_lat": 0.0, "bike_id": "049e0179b85daad2c2b2d6b973fa6a79", "rental_uris": {"ios": "https://dc.lft.to/lastmile_qr_scan", "android": "https://dc.lft.to/lastmile_qr_scan"}}, {"name": "4ef0fad99eb10e6032bb24d948413162", "type": "electric_scooter", "lat": 38.8951835, "is_reserved": 0, "lon": -76.99149566666667, "fusion_lon": 0.0, "is_disabled": 0, "fusion_lat": 0.0, "bike_id": "4ef0fad99eb10e6032bb24d948413162", "rental_uris": {"ios": "https://dc.lft.to/lastmile_qr_scan", "android": "https://dc.lft.to/lastmile_qr_scan"}}, {"name": "2b85ca126e111cfe4f96e43d2233313a", "type": "electric_scooter", "lat": 38.89223833333333, "is_reserved": 0, "lon": -77.0453645, "fusion_lon": 0.0, "is_disabled": 0, "fusion_lat": 0.0, "bike_id": "2b85ca126e111cfe4f96e43d2233313a", "rental_uris": {"ios": "https://dc.lft.to/lastmile_qr_scan", "android": "https://dc.lft.to/lastmile_qr_scan"}}, {"name": "0bd61a5c070939700fe5ba806e3092de", "type": "electric_scooter", "lat": 38.90359316666667, "is_reserved": 0, "lon": -77.040005, "fusion_lon": 0.0, "is_disabled": 0, "fusion_lat": 0.0, "bike_id": "0bd61a5c070939700fe5ba806e3092de", "rental_uris": {"ios": "https://dc.lft.to/lastmile_qr_scan", "android": "https://dc.lft.to/lastmile_qr_scan"}}, {"name": "4d7745b82a65253ba68862dd56252dcf", "type": "electric_scooter", "lat": 38.94207316666667, "is_reserved": 0, "lon": -77.03580466666666, "fusion_lon": 0.0, "is_disabled": 0, "fusion_lat": 0.0, "bike_id": "4d7745b82a65253ba68862dd56252dcf", "rental_uris": {"ios": "https://dc.lft.to/lastmile_qr_scan", "android": "https://dc.lft.to/lastmile_qr_scan"}}, {"name": "38a3360cc03e5e755265b2087abf3762", "type": "electric_scooter", "lat": 38.90374283333333, "is_reserved": 0, "lon": -77.03553016666666, "fusion_lon": 0.0, "is_disabled": 0, "fusion_lat": 0.0, "bike_id": "38a3360cc03e5e755265b2087abf3762", "rental_uris": {"ios": "https://dc.lft.to/lastmile_qr_scan", "android": "https://dc.lft.to/lastmile_qr_scan"}}, {"name": "74dcf0e68e4889f902ffaed579ff8b0e", "type": "electric_bike", "lat": 38.914989166666665, "is_reserved": 0, "lon": -77.0320925, "fusion_lon": 0.0, "is_disabled": 0, "fusion_lat": 0.0, "bike_id": "74dcf0e68e4889f902ffaed579ff8b0e", "rental_uris": {"ios": "https://dc.lft.to/lastmile_qr_scan", "android": "https://dc.lft.to/lastmile_qr_scan"}}, {"name": "a421040844ae3f18543cfc54d1f2cde1", "type": "electric_scooter", "lat": 38.907418, "is_reserved": 0, "lon": -77.007473, "fusion_lon": 0.0, "is_disabled": 0, "fusion_lat": 0.0, "bike_id": "a421040844ae3f18543cfc54d1f2cde1", "rental_uris": {"ios": "https://dc.lft.to/lastmile_qr_scan", "android": "https://dc.lft.to/lastmile_qr_scan"}}, {"name": "f988aea5de6acd291d512ab4a0bf2ca2", "type": "electric_scooter", "lat": 38.8635905, "is_reserved": 0, "lon": -76.99078983333334, "fusion_lon": 0.0, "is_disabled": 0, "fusion_lat": 0.0, "bike_id": "f988aea5de6acd291d512ab4a0bf2ca2", "rental_uris": {"ios": "https://dc.lft.to/lastmile_qr_scan", "android": "https://dc.lft.to/lastmile_qr_scan"}}, {"name": "9d1440d63cbaa5e5dc320638ea9a3df6", "type": "electric_scooter", "lat": 38.90024716666667, "is_reserved": 0, "lon": -76.9981105, "fusion_lon": 0.0, "is_disabled": 0, "fusion_lat": 0.0, "bike_id": "9d1440d63cbaa5e5dc320638ea9a3df6", "rental_uris": {"ios": "https://dc.lft.to/lastmile_qr_scan", "android": "https://dc.lft.to/lastmile_qr_scan"}}, {"name": "fcf78c182c0c10dad18b142c66447932", "type": "electric_scooter", "lat": 38.921223499999996, "is_reserved": 0, "lon": -77.03661283333334, "fusion_lon": 0.0, "is_disabled": 0, "fusion_lat": 0.0, "bike_id": "fcf78c182c0c10dad18b142c66447932", "rental_uris": {"ios": "https://dc.lft.to/lastmile_qr_scan", "android": "https://dc.lft.to/lastmile_qr_scan"}}, {"name": "76fbfa8dc70b1db5b68f9317f3ddc140", "type": "electric_scooter", "lat": 38.92048283333333, "is_reserved": 0, "lon": -77.02379933333333, "fusion_lon": 0.0, "is_disabled": 0, "fusion_lat": 0.0, "bike_id": "76fbfa8dc70b1db5b68f9317f3ddc140", "rental_uris": {"ios": "https://dc.lft.to/lastmile_qr_scan", "android": "https://dc.lft.to/lastmile_qr_scan"}}, {"name": "87ee5ae66626d95fbd780a1a8e249353", "type": "electric_scooter", "lat": 38.899172, "is_reserved": 0, "lon": -77.0392315, "fusion_lon": 0.0, "is_disabled": 0, "fusion_lat": 0.0, "bike_id": "87ee5ae66626d95fbd780a1a8e249353", "rental_uris": {"ios": "https://dc.lft.to/lastmile_qr_scan", "android": "https://dc.lft.to/lastmile_qr_scan"}}, {"name": "8ce69123c116bf98453dbd09cb2ffb7c", "type": "electric_scooter", "lat": 38.9075565, "is_reserved": 0, "lon": -77.03080883333334, "fusion_lon": 0.0, "is_disabled": 0, "fusion_lat": 0.0, "bike_id": "8ce69123c116bf98453dbd09cb2ffb7c", "rental_uris": {"ios": "https://dc.lft.to/lastmile_qr_scan", "android": "https://dc.lft.to/lastmile_qr_scan"}}, {"name": "2b0d74a973ce26b40e96c43dd5a5d941", "type": "electric_scooter", "lat": 38.9010415, "is_reserved": 0, "lon": -77.04987833333334, "fusion_lon": 0.0, "is_disabled": 0, "fusion_lat": 0.0, "bike_id": "2b0d74a973ce26b40e96c43dd5a5d941", "rental_uris": {"ios": "https://dc.lft.to/lastmile_qr_scan", "android": "https://dc.lft.to/lastmile_qr_scan"}}, {"name": "fee29a863a0b47276e6d5a74919ff010", "type": "electric_scooter", "lat": 38.869614, "is_reserved": 0, "lon": -77.01376133333333, "fusion_lon": 0.0, "is_disabled": 0, "fusion_lat": 0.0, "bike_id": "fee29a863a0b47276e6d5a74919ff010", "rental_uris": {"ios": "https://dc.lft.to/lastmile_qr_scan", "android": "https://dc.lft.to/lastmile_qr_scan"}}, {"name": "95eba859ab2f2650b3d50ddd4abf2f7e", "type": "electric_scooter", "lat": 38.902728333333336, "is_reserved": 0, "lon": -77.03840683333334, "fusion_lon": 0.0, "is_disabled": 0, "fusion_lat": 0.0, "bike_id": "95eba859ab2f2650b3d50ddd4abf2f7e", "rental_uris": {"ios": "https://dc.lft.to/lastmile_qr_scan", "android": "https://dc.lft.to/lastmile_qr_scan"}}, {"name": "6eb7c7880e024ed87d25bdcce49da4ff", "type": "electric_scooter", "lat": 38.97501366666667, "is_reserved": 0, "lon": -77.01686666666667, "fusion_lon": 0.0, "is_disabled": 0, "fusion_lat": 0.0, "bike_id": "6eb7c7880e024ed87d25bdcce49da4ff", "rental_uris": {"ios": "https://dc.lft.to/lastmile_qr_scan", "android": "https://dc.lft.to/lastmile_qr_scan"}}, {"name": "079bc20d449686a44d081cb17198ee17", "type": "electric_bike", "lat": 38.95334033333334, "is_reserved": 0, "lon": -76.9825415, "fusion_lon": 0.0, "is_disabled": 0, "fusion_lat": 0.0, "bike_id": "079bc20d449686a44d081cb17198ee17", "rental_uris": {"ios": "https://dc.lft.to/lastmile_qr_scan", "android": "https://dc.lft.to/lastmile_qr_scan"}}, {"name": "cf76d09922fa52cbe3e3b15f69eaf245", "type": "electric_scooter", "lat": 38.90281, "is_reserved": 0, "lon": -77.0650865, "fusion_lon": 0.0, "is_disabled": 0, "fusion_lat": 0.0, "bike_id": "cf76d09922fa52cbe3e3b15f69eaf245", "rental_uris": {"ios": "https://dc.lft.to/lastmile_qr_scan", "android": "https://dc.lft.to/lastmile_qr_scan"}}, {"name": "31d428d68e9346a9841f83f4a79f8c86", "type": "electric_scooter", "lat": 38.905845, "is_reserved": 0, "lon": -77.00295583333333, "fusion_lon": 0.0, "is_disabled": 0, "fusion_lat": 0.0, "bike_id": "31d428d68e9346a9841f83f4a79f8c86", "rental_uris": {"ios": "https://dc.lft.to/lastmile_qr_scan", "android": "https://dc.lft.to/lastmile_qr_scan"}}, {"name": "942be2f6402554f5cb7812ddd34e0863", "type": "electric_scooter", "lat": 38.902551833333334, "is_reserved": 0, "lon": -77.03668516666667, "fusion_lon": 0.0, "is_disabled": 0, "fusion_lat": 0.0, "bike_id": "942be2f6402554f5cb7812ddd34e0863", "rental_uris": {"ios": "https://dc.lft.to/lastmile_qr_scan", "android": "https://dc.lft.to/lastmile_qr_scan"}}, {"name": "d84ec082b24c70e94d2b98d1cd12447d", "type": "electric_scooter", "lat": 38.924865833333335, "is_reserved": 0, "lon": -77.0271505, "fusion_lon": 0.0, "is_disabled": 0, "fusion_lat": 0.0, "bike_id": "d84ec082b24c70e94d2b98d1cd12447d", "rental_uris": {"ios": "https://dc.lft.to/lastmile_qr_scan", "android": "https://dc.lft.to/lastmile_qr_scan"}}, {"name": "327eeceb44ff219f5b347b39a654c3f2", "type": "electric_bike", "lat": 38.87746166666667, "is_reserved": 0, "lon": -76.97992466666666, "fusion_lon": 0.0, "is_disabled": 0, "fusion_lat": 0.0, "bike_id": "327eeceb44ff219f5b347b39a654c3f2", "rental_uris": {"ios": "https://dc.lft.to/lastmile_qr_scan", "android": "https://dc.lft.to/lastmile_qr_scan"}}, {"name": "754e67ae8f20d50a3607017ad2e6ccd8", "type": "electric_scooter", "lat": 38.91232816666667, "is_reserved": 0, "lon": -77.04891783333333, "fusion_lon": 0.0, "is_disabled": 0, "fusion_lat": 0.0, "bike_id": "754e67ae8f20d50a3607017ad2e6ccd8", "rental_uris": {"ios": "https://dc.lft.to/lastmile_qr_scan", "android": "https://dc.lft.to/lastmile_qr_scan"}}, {"name": "4c729e07b4c86ca3f63c203a193171df", "type": "electric_bike", "lat": 38.9593215, "is_reserved": 0, "lon": -76.92535216666667, "fusion_lon": 0.0, "is_disabled": 0, "fusion_lat": 0.0, "bike_id": "4c729e07b4c86ca3f63c203a193171df", "rental_uris": {"ios": "https://dc.lft.to/lastmile_qr_scan", "android": "https://dc.lft.to/lastmile_qr_scan"}}, {"name": "5011cd3e2f863ef49f674afcb4a43b55", "type": "electric_scooter", "lat": 38.89867566666667, "is_reserved": 0, "lon": -76.9463625, "fusion_lon": 0.0, "is_disabled": 0, "fusion_lat": 0.0, "bike_id": "5011cd3e2f863ef49f674afcb4a43b55", "rental_uris": {"ios": "https://dc.lft.to/lastmile_qr_scan", "android": "https://dc.lft.to/lastmile_qr_scan"}}, {"name": "4fed117809b1764327e57186d52d797f", "type": "electric_scooter", "lat": 38.91207166666667, "is_reserved": 0, "lon": -77.0385665, "fusion_lon": 0.0, "is_disabled": 0, "fusion_lat": 0.0, "bike_id": "4fed117809b1764327e57186d52d797f", "rental_uris": {"ios": "https://dc.lft.to/lastmile_qr_scan", "android": "https://dc.lft.to/lastmile_qr_scan"}}, {"name": "cad74798c28fc7ed4483cbe409557f76", "type": "electric_bike", "lat": 38.939562, "is_reserved": 0, "lon": -77.360976, "fusion_lon": 0.0, "is_disabled": 0, "fusion_lat": 0.0, "bike_id": "cad74798c28fc7ed4483cbe409557f76", "rental_uris": {"ios": "https://dc.lft.to/lastmile_qr_scan", "android": "https://dc.lft.to/lastmile_qr_scan"}}, {"name": "457727cfad49cd1ee3d06bbf4319361f", "type": "electric_scooter", "lat": 38.926534333333336, "is_reserved": 0, "lon": -77.03723333333333, "fusion_lon": 0.0, "is_disabled": 0, "fusion_lat": 0.0, "bike_id": "457727cfad49cd1ee3d06bbf4319361f", "rental_uris": {"ios": "https://dc.lft.to/lastmile_qr_scan", "android": "https://dc.lft.to/lastmile_qr_scan"}}, {"name": "568c79eb6e1fbe5b5a67161d2984c0ef", "type": "electric_scooter", "lat": 38.909750333333335, "is_reserved": 0, "lon": -77.01117866666667, "fusion_lon": 0.0, "is_disabled": 0, "fusion_lat": 0.0, "bike_id": "568c79eb6e1fbe5b5a67161d2984c0ef", "rental_uris": {"ios": "https://dc.lft.to/lastmile_qr_scan", "android": "https://dc.lft.to/lastmile_qr_scan"}}, {"name": "14fe30afb5c1b42bb45d77918ef9ac07", "type": "electric_scooter", "lat": 38.90567083333333, "is_reserved": 0, "lon": -77.0059875, "fusion_lon": 0.0, "is_disabled": 0, "fusion_lat": 0.0, "bike_id": "14fe30afb5c1b42bb45d77918ef9ac07", "rental_uris": {"ios": "https://dc.lft.to/lastmile_qr_scan", "android": "https://dc.lft.to/lastmile_qr_scan"}}, {"name": "aceb84300a9f2e5da1f7884628a4fe88", "type": "electric_scooter", "lat": 38.87837416666667, "is_reserved": 0, "lon": -76.99033983333334, "fusion_lon": 0.0, "is_disabled": 0, "fusion_lat": 0.0, "bike_id": "aceb84300a9f2e5da1f7884628a4fe88", "rental_uris": {"ios": "https://dc.lft.to/lastmile_qr_scan", "android": "https://dc.lft.to/lastmile_qr_scan"}}, {"name": "d55fb8223eaba2a0a7a231baebb2795d", "type": "electric_scooter", "lat": 38.9348905, "is_reserved": 0, "lon": -77.03278733333333, "fusion_lon": 0.0, "is_disabled": 0, "fusion_lat": 0.0, "bike_id": "d55fb8223eaba2a0a7a231baebb2795d", "rental_uris": {"ios": "https://dc.lft.to/lastmile_qr_scan", "android": "https://dc.lft.to/lastmile_qr_scan"}}, {"name": "b744fe1374ed6ab73419c92e2954238c", "type": "electric_scooter", "lat": 38.91006316666667, "is_reserved": 0, "lon": -76.99409983333334, "fusion_lon": 0.0, "is_disabled": 0, "fusion_lat": 0.0, "bike_id": "b744fe1374ed6ab73419c92e2954238c", "rental_uris": {"ios": "https://dc.lft.to/lastmile_qr_scan", "android": "https://dc.lft.to/lastmile_qr_scan"}}, {"name": "5d4dc38df47edeea1d363d274e5938ee", "type": "electric_scooter", "lat": 38.919157, "is_reserved": 0, "lon": -77.01341966666666, "fusion_lon": 0.0, "is_disabled": 0, "fusion_lat": 0.0, "bike_id": "5d4dc38df47edeea1d363d274e5938ee", "rental_uris": {"ios": "https://dc.lft.to/lastmile_qr_scan", "android": "https://dc.lft.to/lastmile_qr_scan"}}, {"name": "6517a72d651c6adb4b9628be188a8b02", "type": "electric_scooter", "lat": 38.8561375, "is_reserved": 0, "lon": -76.98018983333333, "fusion_lon": 0.0, "is_disabled": 0, "fusion_lat": 0.0, "bike_id": "6517a72d651c6adb4b9628be188a8b02", "rental_uris": {"ios": "https://dc.lft.to/lastmile_qr_scan", "android": "https://dc.lft.to/lastmile_qr_scan"}}, {"name": "918d53ddc1460de89a17df9030a771eb", "type": "electric_scooter", "lat": 38.914676, "is_reserved": 0, "lon": -77.01787716666666, "fusion_lon": 0.0, "is_disabled": 0, "fusion_lat": 0.0, "bike_id": "918d53ddc1460de89a17df9030a771eb", "rental_uris": {"ios": "https://dc.lft.to/lastmile_qr_scan", "android": "https://dc.lft.to/lastmile_qr_scan"}}, {"name": "44fc253e8d1832a2e60f00d6d7ac5dd5", "type": "electric_scooter", "lat": 38.912681166666665, "is_reserved": 0, "lon": -77.06093916666667, "fusion_lon": 0.0, "is_disabled": 0, "fusion_lat": 0.0, "bike_id": "44fc253e8d1832a2e60f00d6d7ac5dd5", "rental_uris": {"ios": "https://dc.lft.to/lastmile_qr_scan", "android": "https://dc.lft.to/lastmile_qr_scan"}}, {"name": "a80d7e5b5bacbdd5def1fd2561edf674", "type": "electric_scooter", "lat": 38.89585833333334, "is_reserved": 0, "lon": -76.93719466666667, "fusion_lon": 0.0, "is_disabled": 0, "fusion_lat": 0.0, "bike_id": "a80d7e5b5bacbdd5def1fd2561edf674", "rental_uris": {"ios": "https://dc.lft.to/lastmile_qr_scan", "android": "https://dc.lft.to/lastmile_qr_scan"}}, {"name": "fb1d498994eb153a88a901ce110c55be", "type": "electric_scooter", "lat": 38.90972333333333, "is_reserved": 0, "lon": -77.04549383333334, "fusion_lon": 0.0, "is_disabled": 0, "fusion_lat": 0.0, "bike_id": "fb1d498994eb153a88a901ce110c55be", "rental_uris": {"ios": "https://dc.lft.to/lastmile_qr_scan", "android": "https://dc.lft.to/lastmile_qr_scan"}}, {"name": "be09d65873a45408506b7abc1f5c09c6", "type": "electric_scooter", "lat": 38.9044435, "is_reserved": 0, "lon": -76.9962165, "fusion_lon": 0.0, "is_disabled": 0, "fusion_lat": 0.0, "bike_id": "be09d65873a45408506b7abc1f5c09c6", "rental_uris": {"ios": "https://dc.lft.to/lastmile_qr_scan", "android": "https://dc.lft.to/lastmile_qr_scan"}}, {"name": "fc8347859956161363d7e54a6eb8b566", "type": "electric_scooter", "lat": 38.903075666666666, "is_reserved": 0, "lon": -77.03468666666667, "fusion_lon": 0.0, "is_disabled": 0, "fusion_lat": 0.0, "bike_id": "fc8347859956161363d7e54a6eb8b566", "rental_uris": {"ios": "https://dc.lft.to/lastmile_qr_scan", "android": "https://dc.lft.to/lastmile_qr_scan"}}, {"name": "27ed9ead872486057b18cee9811a8982", "type": "electric_scooter", "lat": 38.84295616666667, "is_reserved": 0, "lon": -76.99945866666667, "fusion_lon": 0.0, "is_disabled": 0, "fusion_lat": 0.0, "bike_id": "27ed9ead872486057b18cee9811a8982", "rental_uris": {"ios": "https://dc.lft.to/lastmile_qr_scan", "android": "https://dc.lft.to/lastmile_qr_scan"}}, {"name": "53c494e86a912f5aa86bc02252d8a448", "type": "electric_scooter", "lat": 38.9032315, "is_reserved": 0, "lon": -77.03838833333333, "fusion_lon": 0.0, "is_disabled": 0, "fusion_lat": 0.0, "bike_id": "53c494e86a912f5aa86bc02252d8a448", "rental_uris": {"ios": "https://dc.lft.to/lastmile_qr_scan", "android": "https://dc.lft.to/lastmile_qr_scan"}}, {"name": "a8e97e0821002450e5c842eb0875079f", "type": "electric_scooter", "lat": 38.9279985, "is_reserved": 0, "lon": -77.04350066666667, "fusion_lon": 0.0, "is_disabled": 0, "fusion_lat": 0.0, "bike_id": "a8e97e0821002450e5c842eb0875079f", "rental_uris": {"ios": "https://dc.lft.to/lastmile_qr_scan", "android": "https://dc.lft.to/lastmile_qr_scan"}}, {"name": "d9efade694390b05b473ef4d69d1339a", "type": "electric_scooter", "lat": 38.911793833333334, "is_reserved": 0, "lon": -77.032082, "fusion_lon": 0.0, "is_disabled": 0, "fusion_lat": 0.0, "bike_id": "d9efade694390b05b473ef4d69d1339a", "rental_uris": {"ios": "https://dc.lft.to/lastmile_qr_scan", "android": "https://dc.lft.to/lastmile_qr_scan"}}, {"name": "4f2340ec0268444997713f923746707d", "type": "electric_scooter", "lat": 38.94944016666667, "is_reserved": 0, "lon": -77.01620216666667, "fusion_lon": 0.0, "is_disabled": 0, "fusion_lat": 0.0, "bike_id": "4f2340ec0268444997713f923746707d", "rental_uris": {"ios": "https://dc.lft.to/lastmile_qr_scan", "android": "https://dc.lft.to/lastmile_qr_scan"}}, {"name": "d73aaf128e84a40ba4a4d8f81f845ec7", "type": "electric_scooter", "lat": 38.9110215, "is_reserved": 0, "lon": -77.0467215, "fusion_lon": 0.0, "is_disabled": 0, "fusion_lat": 0.0, "bike_id": "d73aaf128e84a40ba4a4d8f81f845ec7", "rental_uris": {"ios": "https://dc.lft.to/lastmile_qr_scan", "android": "https://dc.lft.to/lastmile_qr_scan"}}, {"name": "756b1f7dc653e07e3f3b55b3b2be0edc", "type": "electric_scooter", "lat": 38.9120785, "is_reserved": 0, "lon": -77.03206783333333, "fusion_lon": 0.0, "is_disabled": 0, "fusion_lat": 0.0, "bike_id": "756b1f7dc653e07e3f3b55b3b2be0edc", "rental_uris": {"ios": "https://dc.lft.to/lastmile_qr_scan", "android": "https://dc.lft.to/lastmile_qr_scan"}}, {"name": "e8ce13481c2bb1939bc1d7e00db9e842", "type": "electric_scooter", "lat": 38.89553516666667, "is_reserved": 0, "lon": -76.92659216666667, "fusion_lon": 0.0, "is_disabled": 0, "fusion_lat": 0.0, "bike_id": "e8ce13481c2bb1939bc1d7e00db9e842", "rental_uris": {"ios": "https://dc.lft.to/lastmile_qr_scan", "android": "https://dc.lft.to/lastmile_qr_scan"}}, {"name": "ebed77a23268b86ab9382a3ba172f385", "type": "electric_scooter", "lat": 38.92002333333333, "is_reserved": 0, "lon": -76.95810816666666, "fusion_lon": 0.0, "is_disabled": 0, "fusion_lat": 0.0, "bike_id": "ebed77a23268b86ab9382a3ba172f385", "rental_uris": {"ios": "https://dc.lft.to/lastmile_qr_scan", "android": "https://dc.lft.to/lastmile_qr_scan"}}, {"name": "f48cd2cc7a4eb1f3e86ab5ac2d55f8c3", "type": "electric_scooter", "lat": 38.909614166666664, "is_reserved": 0, "lon": -77.039407, "fusion_lon": 0.0, "is_disabled": 0, "fusion_lat": 0.0, "bike_id": "f48cd2cc7a4eb1f3e86ab5ac2d55f8c3", "rental_uris": {"ios": "https://dc.lft.to/lastmile_qr_scan", "android": "https://dc.lft.to/lastmile_qr_scan"}}, {"name": "6b5f0497102e239c2a26afa6180148e5", "type": "electric_scooter", "lat": 38.92339916666667, "is_reserved": 0, "lon": -77.04175083333334, "fusion_lon": 0.0, "is_disabled": 0, "fusion_lat": 0.0, "bike_id": "6b5f0497102e239c2a26afa6180148e5", "rental_uris": {"ios": "https://dc.lft.to/lastmile_qr_scan", "android": "https://dc.lft.to/lastmile_qr_scan"}}, {"name": "b175278e52f5cab21ef3a7e91a2eb3f0", "type": "electric_scooter", "lat": 38.919045833333335, "is_reserved": 0, "lon": -77.0417815, "fusion_lon": 0.0, "is_disabled": 0, "fusion_lat": 0.0, "bike_id": "b175278e52f5cab21ef3a7e91a2eb3f0", "rental_uris": {"ios": "https://dc.lft.to/lastmile_qr_scan", "android": "https://dc.lft.to/lastmile_qr_scan"}}, {"name": "a827dcd49fa8d47c5ca5144b47d4e9e8", "type": "electric_scooter", "lat": 38.911290666666666, "is_reserved": 0, "lon": -77.0373205, "fusion_lon": 0.0, "is_disabled": 0, "fusion_lat": 0.0, "bike_id": "a827dcd49fa8d47c5ca5144b47d4e9e8", "rental_uris": {"ios": "https://dc.lft.to/lastmile_qr_scan", "android": "https://dc.lft.to/lastmile_qr_scan"}}, {"name": "32e4439a7f8dcb0631009c7659cf9270", "type": "electric_scooter", "lat": 38.936076, "is_reserved": 0, "lon": -77.05862766666667, "fusion_lon": 0.0, "is_disabled": 0, "fusion_lat": 0.0, "bike_id": "32e4439a7f8dcb0631009c7659cf9270", "rental_uris": {"ios": "https://dc.lft.to/lastmile_qr_scan", "android": "https://dc.lft.to/lastmile_qr_scan"}}, {"name": "5c2eb7b9df9c5f6562a5abae69175570", "type": "electric_scooter", "lat": 38.923114, "is_reserved": 0, "lon": -77.0446045, "fusion_lon": 0.0, "is_disabled": 0, "fusion_lat": 0.0, "bike_id": "5c2eb7b9df9c5f6562a5abae69175570", "rental_uris": {"ios": "https://dc.lft.to/lastmile_qr_scan", "android": "https://dc.lft.to/lastmile_qr_scan"}}, {"name": "90fc20a353c4b314b8d18153e4dba5f3", "type": "electric_scooter", "lat": 38.913385, "is_reserved": 0, "lon": -77.03188416666667, "fusion_lon": 0.0, "is_disabled": 0, "fusion_lat": 0.0, "bike_id": "90fc20a353c4b314b8d18153e4dba5f3", "rental_uris": {"ios": "https://dc.lft.to/lastmile_qr_scan", "android": "https://dc.lft.to/lastmile_qr_scan"}}, {"name": "e5a1c06d58801cc8f3625805b45303b1", "type": "electric_scooter", "lat": 38.90063383333333, "is_reserved": 0, "lon": -77.045334, "fusion_lon": 0.0, "is_disabled": 0, "fusion_lat": 0.0, "bike_id": "e5a1c06d58801cc8f3625805b45303b1", "rental_uris": {"ios": "https://dc.lft.to/lastmile_qr_scan", "android": "https://dc.lft.to/lastmile_qr_scan"}}, {"name": "15ba3c223c290e581bf40d92fa521fe9", "type": "electric_scooter", "lat": 38.901204166666666, "is_reserved": 0, "lon": -77.042069, "fusion_lon": 0.0, "is_disabled": 0, "fusion_lat": 0.0, "bike_id": "15ba3c223c290e581bf40d92fa521fe9", "rental_uris": {"ios": "https://dc.lft.to/lastmile_qr_scan", "android": "https://dc.lft.to/lastmile_qr_scan"}}, {"name": "51b77b44dd8a0e3c31e635dbf61d7594", "type": "electric_scooter", "lat": 38.87768066666667, "is_reserved": 0, "lon": -77.00812666666667, "fusion_lon": 0.0, "is_disabled": 0, "fusion_lat": 0.0, "bike_id": "51b77b44dd8a0e3c31e635dbf61d7594", "rental_uris": {"ios": "https://dc.lft.to/lastmile_qr_scan", "android": "https://dc.lft.to/lastmile_qr_scan"}}, {"name": "b26bd16e88ce1870c6bda98d929ec3bc", "type": "electric_bike", "lat": 38.9355865, "is_reserved": 0, "lon": -77.03696933333333, "fusion_lon": 0.0, "is_disabled": 0, "fusion_lat": 0.0, "bike_id": "b26bd16e88ce1870c6bda98d929ec3bc", "rental_uris": {"ios": "https://dc.lft.to/lastmile_qr_scan", "android": "https://dc.lft.to/lastmile_qr_scan"}}, {"name": "5728f5d68168c2d55eea9b640362b598", "type": "electric_scooter", "lat": 38.9202845, "is_reserved": 0, "lon": -77.02606583333333, "fusion_lon": 0.0, "is_disabled": 0, "fusion_lat": 0.0, "bike_id": "5728f5d68168c2d55eea9b640362b598", "rental_uris": {"ios": "https://dc.lft.to/lastmile_qr_scan", "android": "https://dc.lft.to/lastmile_qr_scan"}}, {"name": "150b5e2d8042774c38c0558a5ee01c36", "type": "electric_scooter", "lat": 38.9290915, "is_reserved": 0, "lon": -77.01229933333333, "fusion_lon": 0.0, "is_disabled": 0, "fusion_lat": 0.0, "bike_id": "150b5e2d8042774c38c0558a5ee01c36", "rental_uris": {"ios": "https://dc.lft.to/lastmile_qr_scan", "android": "https://dc.lft.to/lastmile_qr_scan"}}, {"name": "b4241520ae02f8a5bc75537c90054ec1", "type": "electric_scooter", "lat": 38.87681666666667, "is_reserved": 0, "lon": -77.000678, "fusion_lon": 0.0, "is_disabled": 0, "fusion_lat": 0.0, "bike_id": "b4241520ae02f8a5bc75537c90054ec1", "rental_uris": {"ios": "https://dc.lft.to/lastmile_qr_scan", "android": "https://dc.lft.to/lastmile_qr_scan"}}, {"name": "d79f2d10f34a67f664e22f4632b73ab0", "type": "electric_scooter", "lat": 38.9061505, "is_reserved": 0, "lon": -77.01284133333333, "fusion_lon": 0.0, "is_disabled": 0, "fusion_lat": 0.0, "bike_id": "d79f2d10f34a67f664e22f4632b73ab0", "rental_uris": {"ios": "https://dc.lft.to/lastmile_qr_scan", "android": "https://dc.lft.to/lastmile_qr_scan"}}, {"name": "0948e42708610fc79f4c69dcee45d799", "type": "electric_bike", "lat": 38.9654035, "is_reserved": 0, "lon": -77.03516416666666, "fusion_lon": 0.0, "is_disabled": 0, "fusion_lat": 0.0, "bike_id": "0948e42708610fc79f4c69dcee45d799", "rental_uris": {"ios": "https://dc.lft.to/lastmile_qr_scan", "android": "https://dc.lft.to/lastmile_qr_scan"}}, {"name": "d8829e3e7f93da66e7d6654baa9afef5", "type": "electric_scooter", "lat": 38.842937666666664, "is_reserved": 0, "lon": -76.99948783333333, "fusion_lon": 0.0, "is_disabled": 0, "fusion_lat": 0.0, "bike_id": "d8829e3e7f93da66e7d6654baa9afef5", "rental_uris": {"ios": "https://dc.lft.to/lastmile_qr_scan", "android": "https://dc.lft.to/lastmile_qr_scan"}}, {"name": "1da4153b02a0c235e5d0661d18e8fb7f", "type": "electric_scooter", "lat": 38.866999166666666, "is_reserved": 0, "lon": -76.98713483333333, "fusion_lon": 0.0, "is_disabled": 0, "fusion_lat": 0.0, "bike_id": "1da4153b02a0c235e5d0661d18e8fb7f", "rental_uris": {"ios": "https://dc.lft.to/lastmile_qr_scan", "android": "https://dc.lft.to/lastmile_qr_scan"}}, {"name": "e69b3759c5627eb908f3c0e29cce7fcb", "type": "electric_scooter", "lat": 38.9118805, "is_reserved": 0, "lon": -77.00761383333334, "fusion_lon": 0.0, "is_disabled": 0, "fusion_lat": 0.0, "bike_id": "e69b3759c5627eb908f3c0e29cce7fcb", "rental_uris": {"ios": "https://dc.lft.to/lastmile_qr_scan", "android": "https://dc.lft.to/lastmile_qr_scan"}}, {"name": "fc978edaf0a804b15fa5d7fdaae773e4", "type": "electric_scooter", "lat": 38.93353533333333, "is_reserved": 0, "lon": -77.07268266666667, "fusion_lon": 0.0, "is_disabled": 0, "fusion_lat": 0.0, "bike_id": "fc978edaf0a804b15fa5d7fdaae773e4", "rental_uris": {"ios": "https://dc.lft.to/lastmile_qr_scan", "android": "https://dc.lft.to/lastmile_qr_scan"}}, {"name": "5d20e387330f9d02d930e17946615858", "type": "electric_scooter", "lat": 38.91690166666667, "is_reserved": 0, "lon": -77.02934583333334, "fusion_lon": 0.0, "is_disabled": 0, "fusion_lat": 0.0, "bike_id": "5d20e387330f9d02d930e17946615858", "rental_uris": {"ios": "https://dc.lft.to/lastmile_qr_scan", "android": "https://dc.lft.to/lastmile_qr_scan"}}, {"name": "d9eba6ffbad1c95c341383ccc40c0582", "type": "electric_scooter", "lat": 38.9698605, "is_reserved": 0, "lon": -77.0271405, "fusion_lon": 0.0, "is_disabled": 0, "fusion_lat": 0.0, "bike_id": "d9eba6ffbad1c95c341383ccc40c0582", "rental_uris": {"ios": "https://dc.lft.to/lastmile_qr_scan", "android": "https://dc.lft.to/lastmile_qr_scan"}}, {"name": "9fb34bda75efecbdf8aa0a59cfc68585", "type": "electric_scooter", "lat": 38.900718499999996, "is_reserved": 0, "lon": -77.05075, "fusion_lon": 0.0, "is_disabled": 0, "fusion_lat": 0.0, "bike_id": "9fb34bda75efecbdf8aa0a59cfc68585", "rental_uris": {"ios": "https://dc.lft.to/lastmile_qr_scan", "android": "https://dc.lft.to/lastmile_qr_scan"}}, {"name": "04a770cc0569d7f24a4e1cc3c1b8d07c", "type": "electric_scooter", "lat": 38.92014416666667, "is_reserved": 0, "lon": -77.0387905, "fusion_lon": 0.0, "is_disabled": 0, "fusion_lat": 0.0, "bike_id": "04a770cc0569d7f24a4e1cc3c1b8d07c", "rental_uris": {"ios": "https://dc.lft.to/lastmile_qr_scan", "android": "https://dc.lft.to/lastmile_qr_scan"}}, {"name": "3ee0b21127156a37b254e61558be286b", "type": "electric_scooter", "lat": 38.88417416666667, "is_reserved": 0, "lon": -76.97601666666667, "fusion_lon": 0.0, "is_disabled": 0, "fusion_lat": 0.0, "bike_id": "3ee0b21127156a37b254e61558be286b", "rental_uris": {"ios": "https://dc.lft.to/lastmile_qr_scan", "android": "https://dc.lft.to/lastmile_qr_scan"}}, {"name": "83dcfbdbf62599ae54a2a755bd042e91", "type": "electric_scooter", "lat": 38.897384, "is_reserved": 0, "lon": -77.01313483333334, "fusion_lon": 0.0, "is_disabled": 0, "fusion_lat": 0.0, "bike_id": "83dcfbdbf62599ae54a2a755bd042e91", "rental_uris": {"ios": "https://dc.lft.to/lastmile_qr_scan", "android": "https://dc.lft.to/lastmile_qr_scan"}}, {"name": "a11af02f0baa9b1352001133fce19361", "type": "electric_scooter", "lat": 38.903119833333335, "is_reserved": 0, "lon": -77.03842516666667, "fusion_lon": 0.0, "is_disabled": 0, "fusion_lat": 0.0, "bike_id": "a11af02f0baa9b1352001133fce19361", "rental_uris": {"ios": "https://dc.lft.to/lastmile_qr_scan", "android": "https://dc.lft.to/lastmile_qr_scan"}}, {"name": "43089c8e29bfbf668178d25b01c5afd0", "type": "electric_scooter", "lat": 38.909586166666664, "is_reserved": 0, "lon": -76.985358, "fusion_lon": 0.0, "is_disabled": 0, "fusion_lat": 0.0, "bike_id": "43089c8e29bfbf668178d25b01c5afd0", "rental_uris": {"ios": "https://dc.lft.to/lastmile_qr_scan", "android": "https://dc.lft.to/lastmile_qr_scan"}}, {"name": "45ca2d9d1b386ebbddad746051f22798", "type": "electric_bike", "lat": 38.9850405, "is_reserved": 0, "lon": -76.98209766666666, "fusion_lon": 0.0, "is_disabled": 0, "fusion_lat": 0.0, "bike_id": "45ca2d9d1b386ebbddad746051f22798", "rental_uris": {"ios": "https://dc.lft.to/lastmile_qr_scan", "android": "https://dc.lft.to/lastmile_qr_scan"}}, {"name": "0569491e62d6e741bb25adfd76e95f19", "type": "electric_scooter", "lat": 38.888717166666666, "is_reserved": 0, "lon": -77.03998183333333, "fusion_lon": 0.0, "is_disabled": 0, "fusion_lat": 0.0, "bike_id": "0569491e62d6e741bb25adfd76e95f19", "rental_uris": {"ios": "https://dc.lft.to/lastmile_qr_scan", "android": "https://dc.lft.to/lastmile_qr_scan"}}, {"name": "a445bdad93df3cb97a676ec4a7cdd362", "type": "electric_scooter", "lat": 38.8973035, "is_reserved": 0, "lon": -77.05475216666666, "fusion_lon": 0.0, "is_disabled": 0, "fusion_lat": 0.0, "bike_id": "a445bdad93df3cb97a676ec4a7cdd362", "rental_uris": {"ios": "https://dc.lft.to/lastmile_qr_scan", "android": "https://dc.lft.to/lastmile_qr_scan"}}, {"name": "9e20983b9f679fa53c7e43756dbf11ee", "type": "electric_scooter", "lat": 38.930727166666664, "is_reserved": 0, "lon": -77.03392, "fusion_lon": 0.0, "is_disabled": 0, "fusion_lat": 0.0, "bike_id": "9e20983b9f679fa53c7e43756dbf11ee", "rental_uris": {"ios": "https://dc.lft.to/lastmile_qr_scan", "android": "https://dc.lft.to/lastmile_qr_scan"}}, {"name": "9c9aa2fba50e3db36a060252fba69741", "type": "electric_scooter", "lat": 38.8656935, "is_reserved": 0, "lon": -76.98548383333333, "fusion_lon": 0.0, "is_disabled": 0, "fusion_lat": 0.0, "bike_id": "9c9aa2fba50e3db36a060252fba69741", "rental_uris": {"ios": "https://dc.lft.to/lastmile_qr_scan", "android": "https://dc.lft.to/lastmile_qr_scan"}}, {"name": "24ac0f5aab50aaa875c92b970a0f0239", "type": "electric_scooter", "lat": 38.9324095, "is_reserved": 0, "lon": -77.0385085, "fusion_lon": 0.0, "is_disabled": 0, "fusion_lat": 0.0, "bike_id": "24ac0f5aab50aaa875c92b970a0f0239", "rental_uris": {"ios": "https://dc.lft.to/lastmile_qr_scan", "android": "https://dc.lft.to/lastmile_qr_scan"}}, {"name": "6e6e7096896b2f6f537249dff950aeb6", "type": "electric_bike", "lat": 38.965466166666666, "is_reserved": 0, "lon": -77.03517133333334, "fusion_lon": 0.0, "is_disabled": 0, "fusion_lat": 0.0, "bike_id": "6e6e7096896b2f6f537249dff950aeb6", "rental_uris": {"ios": "https://dc.lft.to/lastmile_qr_scan", "android": "https://dc.lft.to/lastmile_qr_scan"}}, {"name": "359ff31f6dfd7a07f0d3eda3810e6d7a", "type": "electric_scooter", "lat": 38.88435233333333, "is_reserved": 0, "lon": -77.02960783333333, "fusion_lon": 0.0, "is_disabled": 0, "fusion_lat": 0.0, "bike_id": "359ff31f6dfd7a07f0d3eda3810e6d7a", "rental_uris": {"ios": "https://dc.lft.to/lastmile_qr_scan", "android": "https://dc.lft.to/lastmile_qr_scan"}}, {"name": "8484311113015dde88193a7f7d5f5ae4", "type": "electric_bike", "lat": 38.865731833333335, "is_reserved": 0, "lon": -76.97318016666667, "fusion_lon": 0.0, "is_disabled": 0, "fusion_lat": 0.0, "bike_id": "8484311113015dde88193a7f7d5f5ae4", "rental_uris": {"ios": "https://dc.lft.to/lastmile_qr_scan", "android": "https://dc.lft.to/lastmile_qr_scan"}}, {"name": "bd8f7dd25d474266c28e890988884d27", "type": "electric_scooter", "lat": 38.87013916666667, "is_reserved": 0, "lon": -77.0123165, "fusion_lon": 0.0, "is_disabled": 0, "fusion_lat": 0.0, "bike_id": "bd8f7dd25d474266c28e890988884d27", "rental_uris": {"ios": "https://dc.lft.to/lastmile_qr_scan", "android": "https://dc.lft.to/lastmile_qr_scan"}}, {"name": "78b16b2c5bf447baa66b39ca4a5eb859", "type": "electric_scooter", "lat": 38.90036283333333, "is_reserved": 0, "lon": -77.0062575, "fusion_lon": 0.0, "is_disabled": 0, "fusion_lat": 0.0, "bike_id": "78b16b2c5bf447baa66b39ca4a5eb859", "rental_uris": {"ios": "https://dc.lft.to/lastmile_qr_scan", "android": "https://dc.lft.to/lastmile_qr_scan"}}, {"name": "b16cea5898bb762a56384a1283c2cb98", "type": "electric_scooter", "lat": 38.94439783333333, "is_reserved": 0, "lon": -77.06353433333334, "fusion_lon": 0.0, "is_disabled": 0, "fusion_lat": 0.0, "bike_id": "b16cea5898bb762a56384a1283c2cb98", "rental_uris": {"ios": "https://dc.lft.to/lastmile_qr_scan", "android": "https://dc.lft.to/lastmile_qr_scan"}}, {"name": "7ff60de0e471914c6f4b3ad362b210d0", "type": "electric_scooter", "lat": 38.862424, "is_reserved": 0, "lon": -76.99494716666666, "fusion_lon": 0.0, "is_disabled": 0, "fusion_lat": 0.0, "bike_id": "7ff60de0e471914c6f4b3ad362b210d0", "rental_uris": {"ios": "https://dc.lft.to/lastmile_qr_scan", "android": "https://dc.lft.to/lastmile_qr_scan"}}, {"name": "8cd29ed757ca303e0e0f6909cc361bce", "type": "electric_scooter", "lat": 38.9029975, "is_reserved": 0, "lon": -77.03200016666666, "fusion_lon": 0.0, "is_disabled": 0, "fusion_lat": 0.0, "bike_id": "8cd29ed757ca303e0e0f6909cc361bce", "rental_uris": {"ios": "https://dc.lft.to/lastmile_qr_scan", "android": "https://dc.lft.to/lastmile_qr_scan"}}, {"name": "bf2f1e57616cb0863fcfdbd6776a9a34", "type": "electric_bike", "lat": 38.813362, "is_reserved": 0, "lon": -77.05110516666667, "fusion_lon": 0.0, "is_disabled": 0, "fusion_lat": 0.0, "bike_id": "bf2f1e57616cb0863fcfdbd6776a9a34", "rental_uris": {"ios": "https://dc.lft.to/lastmile_qr_scan", "android": "https://dc.lft.to/lastmile_qr_scan"}}, {"name": "7baad2e15b7d52e587fec1a26813a518", "type": "electric_scooter", "lat": 38.932643166666665, "is_reserved": 0, "lon": -77.03496883333334, "fusion_lon": 0.0, "is_disabled": 0, "fusion_lat": 0.0, "bike_id": "7baad2e15b7d52e587fec1a26813a518", "rental_uris": {"ios": "https://dc.lft.to/lastmile_qr_scan", "android": "https://dc.lft.to/lastmile_qr_scan"}}, {"name": "436dc5bf553a98a3e0280deabbb6a349", "type": "electric_scooter", "lat": 38.903378833333335, "is_reserved": 0, "lon": -77.03830466666666, "fusion_lon": 0.0, "is_disabled": 0, "fusion_lat": 0.0, "bike_id": "436dc5bf553a98a3e0280deabbb6a349", "rental_uris": {"ios": "https://dc.lft.to/lastmile_qr_scan", "android": "https://dc.lft.to/lastmile_qr_scan"}}, {"name": "682698383a693c5f49766ca4a412214e", "type": "electric_scooter", "lat": 38.9592175, "is_reserved": 0, "lon": -77.03323266666666, "fusion_lon": 0.0, "is_disabled": 0, "fusion_lat": 0.0, "bike_id": "682698383a693c5f49766ca4a412214e", "rental_uris": {"ios": "https://dc.lft.to/lastmile_qr_scan", "android": "https://dc.lft.to/lastmile_qr_scan"}}, {"name": "f8ab04cab1926afff2b4e1e6e2012323", "type": "electric_scooter", "lat": 38.92339033333333, "is_reserved": 0, "lon": -77.05044583333333, "fusion_lon": 0.0, "is_disabled": 0, "fusion_lat": 0.0, "bike_id": "f8ab04cab1926afff2b4e1e6e2012323", "rental_uris": {"ios": "https://dc.lft.to/lastmile_qr_scan", "android": "https://dc.lft.to/lastmile_qr_scan"}}, {"name": "fdff687cca5f3ed3607cc91c8b00626b", "type": "electric_scooter", "lat": 38.90113, "is_reserved": 0, "lon": -77.0516805, "fusion_lon": 0.0, "is_disabled": 0, "fusion_lat": 0.0, "bike_id": "fdff687cca5f3ed3607cc91c8b00626b", "rental_uris": {"ios": "https://dc.lft.to/lastmile_qr_scan", "android": "https://dc.lft.to/lastmile_qr_scan"}}, {"name": "a32dd2a07546c9b55aaada33a3f7e951", "type": "electric_scooter", "lat": 38.8980785, "is_reserved": 0, "lon": -76.99487783333333, "fusion_lon": 0.0, "is_disabled": 0, "fusion_lat": 0.0, "bike_id": "a32dd2a07546c9b55aaada33a3f7e951", "rental_uris": {"ios": "https://dc.lft.to/lastmile_qr_scan", "android": "https://dc.lft.to/lastmile_qr_scan"}}, {"name": "f254bc3e55f9cd8b45e549f9b75c1a1e", "type": "electric_scooter", "lat": 38.86226766666667, "is_reserved": 0, "lon": -76.99492833333333, "fusion_lon": 0.0, "is_disabled": 0, "fusion_lat": 0.0, "bike_id": "f254bc3e55f9cd8b45e549f9b75c1a1e", "rental_uris": {"ios": "https://dc.lft.to/lastmile_qr_scan", "android": "https://dc.lft.to/lastmile_qr_scan"}}, {"name": "83a2c6101183c430e16019785f62dec8", "type": "electric_scooter", "lat": 38.904151666666664, "is_reserved": 0, "lon": -77.020955, "fusion_lon": 0.0, "is_disabled": 0, "fusion_lat": 0.0, "bike_id": "83a2c6101183c430e16019785f62dec8", "rental_uris": {"ios": "https://dc.lft.to/lastmile_qr_scan", "android": "https://dc.lft.to/lastmile_qr_scan"}}, {"name": "e4c5d30c95b1bebdc6b225c14f30faa4", "type": "electric_scooter", "lat": 38.937085833333335, "is_reserved": 0, "lon": -77.06098733333333, "fusion_lon": 0.0, "is_disabled": 0, "fusion_lat": 0.0, "bike_id": "e4c5d30c95b1bebdc6b225c14f30faa4", "rental_uris": {"ios": "https://dc.lft.to/lastmile_qr_scan", "android": "https://dc.lft.to/lastmile_qr_scan"}}, {"name": "6b2ddc6ed913ebf7688b38c1f714d3a1", "type": "electric_scooter", "lat": 38.91101, "is_reserved": 0, "lon": -77.03185216666667, "fusion_lon": 0.0, "is_disabled": 0, "fusion_lat": 0.0, "bike_id": "6b2ddc6ed913ebf7688b38c1f714d3a1", "rental_uris": {"ios": "https://dc.lft.to/lastmile_qr_scan", "android": "https://dc.lft.to/lastmile_qr_scan"}}, {"name": "d51c43a8dae386586e5792ac47377300", "type": "electric_scooter", "lat": 38.91941383333333, "is_reserved": 0, "lon": -77.04560633333334, "fusion_lon": 0.0, "is_disabled": 0, "fusion_lat": 0.0, "bike_id": "d51c43a8dae386586e5792ac47377300", "rental_uris": {"ios": "https://dc.lft.to/lastmile_qr_scan", "android": "https://dc.lft.to/lastmile_qr_scan"}}, {"name": "14a43c029ed5e91a0e00bba6450bb10e", "type": "electric_scooter", "lat": 38.87397516666667, "is_reserved": 0, "lon": -77.000293, "fusion_lon": 0.0, "is_disabled": 0, "fusion_lat": 0.0, "bike_id": "14a43c029ed5e91a0e00bba6450bb10e", "rental_uris": {"ios": "https://dc.lft.to/lastmile_qr_scan", "android": "https://dc.lft.to/lastmile_qr_scan"}}, {"name": "63403a4d1f8009faa8602e6172b238e8", "type": "electric_scooter", "lat": 38.930166666666665, "is_reserved": 0, "lon": -77.02335783333334, "fusion_lon": 0.0, "is_disabled": 0, "fusion_lat": 0.0, "bike_id": "63403a4d1f8009faa8602e6172b238e8", "rental_uris": {"ios": "https://dc.lft.to/lastmile_qr_scan", "android": "https://dc.lft.to/lastmile_qr_scan"}}, {"name": "c74d4599568d73a16fc4fe21b0da139a", "type": "electric_scooter", "lat": 38.905379833333335, "is_reserved": 0, "lon": -77.04749333333334, "fusion_lon": 0.0, "is_disabled": 0, "fusion_lat": 0.0, "bike_id": "c74d4599568d73a16fc4fe21b0da139a", "rental_uris": {"ios": "https://dc.lft.to/lastmile_qr_scan", "android": "https://dc.lft.to/lastmile_qr_scan"}}, {"name": "a0ec5a15c65028c10b00fa44c5cb8021", "type": "electric_scooter", "lat": 38.961145, "is_reserved": 0, "lon": -77.02812933333334, "fusion_lon": 0.0, "is_disabled": 0, "fusion_lat": 0.0, "bike_id": "a0ec5a15c65028c10b00fa44c5cb8021", "rental_uris": {"ios": "https://dc.lft.to/lastmile_qr_scan", "android": "https://dc.lft.to/lastmile_qr_scan"}}, {"name": "7d9f5dbcd34a016c599a6e027cdc2167", "type": "electric_bike", "lat": 38.99909066666667, "is_reserved": 0, "lon": -77.046244, "fusion_lon": 0.0, "is_disabled": 0, "fusion_lat": 0.0, "bike_id": "7d9f5dbcd34a016c599a6e027cdc2167", "rental_uris": {"ios": "https://dc.lft.to/lastmile_qr_scan", "android": "https://dc.lft.to/lastmile_qr_scan"}}, {"name": "d7f38227e494455842867c9ed3808238", "type": "electric_scooter", "lat": 38.906781, "is_reserved": 0, "lon": -77.02480433333334, "fusion_lon": 0.0, "is_disabled": 0, "fusion_lat": 0.0, "bike_id": "d7f38227e494455842867c9ed3808238", "rental_uris": {"ios": "https://dc.lft.to/lastmile_qr_scan", "android": "https://dc.lft.to/lastmile_qr_scan"}},