{"data": {"bikes": [{"rental_uris": {"android": "https://dc.lft.to/lastmile_qr_scan", "ios": "https://dc.lft.to/lastmile_qr_scan"}, "is_reserved": 0, "is_disabled": 0, "name": "8470b5e29420a5b14329d2b0a17f5028", "bike_id": "8470b5e29420a5b14329d2b0a17f5028", "fusion_lat": 0.0, "lon": -77.03825716666667, "type": "electric_scooter", "fusion_lon": 0.0, "lat": 38.930617833333336}, {"rental_uris": {"android": "https://dc.lft.to/lastmile_qr_scan", "ios": "https://dc.lft.to/lastmile_qr_scan"}, "is_reserved": 0, "is_disabled": 0, "name": "21cf9fd30b35ea28eb575ba2825f3c67", "bike_id": "21cf9fd30b35ea28eb575ba2825f3c67", "fusion_lat": 0.0, "lon": -77.03885066666666, "type": "electric_scooter", "fusion_lon": 0.0, "lat": 38.918525833333334}, {"rental_uris": {"android": "https://dc.lft.to/lastmile_qr_scan", "ios": "https://dc.lft.to/lastmile_qr_scan"}, "is_reserved": 0, "is_disabled": 0, "name": "3c62560b968a71bfb5f0962da607af63", "bike_id": "3c62560b968a71bfb5f0962da607af63", "fusion_lat": 0.0, "lon": -77.032671, "type": "electric_scooter", "fusion_lon": 0.0, "lat": 38.898672166666664}, {"rental_uris": {"android": "https://dc.lft.to/lastmile_qr_scan", "ios": "https://dc.lft.to/lastmile_qr_scan"}, "is_reserved": 0, "is_disabled": 0, "name": "15b589380efc88106cff729758eaa8df", "bike_id": "15b589380efc88106cff729758eaa8df", "fusion_lat": 0.0, "lon": -77.04225266666667, "type": "electric_scooter", "fusion_lon": 0.0, "lat": 38.90383633333333}, {"rental_uris": {"android": "https://dc.lft.to/lastmile_qr_scan", "ios": "https://dc.lft.to/lastmile_qr_scan"}, "is_reserved": 0, "is_disabled": 0, "name": "d297cbd99afc95fd1d5353547b9b0d71", "bike_id": "d297cbd99afc95fd1d5353547b9b0d71", "fusion_lat": 0.0, "lon": -77.01517783333334, "type": "electric_scooter", "fusion_lon": 0.0, "lat": 38.887355666666664}, {"rental_uris": {"android": "https://dc.lft.to/lastmile_qr_scan", "ios": "https://dc.lft.to/lastmile_qr_scan"}, "is_reserved": 0, "is_disabled": 0, "name": "f8370bf16690b238e5c1a92314aeba48", "bike_id": "f8370bf16690b238e5c1a92314aeba48", "fusion_lat": 0.0, "lon": -77.01473016666667, "type": "electric_scooter", "fusion_lon": 0.0, "lat": 38.926711833333336}, {"rental_uris": {"android": "https://dc.lft.to/lastmile_qr_scan", "ios": "https://dc.lft.to/lastmile_qr_scan"}, "is_reserved": 0, "is_disabled": 0, "name": "a8ce6312ae82130d59f3aa350faf543b", "bike_id": "a8ce6312ae82130d59f3aa350faf543b", "fusion_lat": 0.0, "lon": -77.04659516666666, "type": "electric_scooter", "fusion_lon": 0.0, "lat": 38.89336566666667}, {"rental_uris": {"android": "https://dc.lft.to/lastmile_qr_scan", "ios": "https://dc.lft.to/lastmile_qr_scan"}, "is_reserved": 0, "is_disabled": 0, "name": "adee0b31f7de06004dfe3b950c080c61", "bike_id": "adee0b31f7de06004dfe3b950c080c61", "fusion_lat": 0.0, "lon": -77.04465033333334, "type": "electric_scooter", "fusion_lon": 0.0, "lat": 38.90386133333333}, {"rental_uris": {"android": "https://dc.lft.to/lastmile_qr_scan", "ios": "https://dc.lft.to/lastmile_qr_scan"}, "is_reserved": 0, "is_disabled": 0, "name": "652d91f60ffb856e1c470168527d6b4d", "bike_id": "652d91f60ffb856e1c470168527d6b4d", "fusion_lat": 0.0, "lon": -77.04243983333333, "type": "electric_scooter", "fusion_lon": 0.0, "lat": 38.9064425}, {"rental_uris": {"android": "https://dc.lft.to/lastmile_qr_scan", "ios": "https://dc.lft.to/lastmile_qr_scan"}, "is_reserved": 0, "is_disabled": 0, "name": "3c81ca0a0f52224fa312311b59f2ce5f", "bike_id": "3c81ca0a0f52224fa312311b59f2ce5f", "fusion_lat": 0.0, "lon": -76.96173233333333, "type": "electric_bike", "fusion_lon": 0.0, "lat": 38.9501595}, {"rental_uris": {"android": "https://dc.lft.to/lastmile_qr_scan", "ios": "https://dc.lft.to/lastmile_qr_scan"}, "is_reserved": 0, "is_disabled": 0, "name": "affca3d817debc2045116456d3baa9f4", "bike_id": "affca3d817debc2045116456d3baa9f4", "fusion_lat": 0.0, "lon": -77.01774, "type": "electric_scooter", "fusion_lon": 0.0, "lat": 38.9210975}, {"rental_uris": {"android": "https://dc.lft.to/lastmile_qr_scan", "ios": "https://dc.lft.to/lastmile_qr_scan"}, "is_reserved": 0, "is_disabled": 0, "name": "9b15abc306e800a59602c3b4cb7a1860", "bike_id": "9b15abc306e800a59602c3b4cb7a1860", "fusion_lat": 0.0, "lon": -77.03381016666667, "type": "electric_scooter", "fusion_lon": 0.0, "lat": 38.901149833333335}, {"rental_uris": {"android": "https://dc.lft.to/lastmile_qr_scan", "ios": "https://dc.lft.to/lastmile_qr_scan"}, "is_reserved": 0, "is_disabled": 0, "name": "c1658020d541f422ef6cfa2a4dc18b59", "bike_id": "c1658020d541f422ef6cfa2a4dc18b59", "fusion_lat": 0.0, "lon": -77.06792283333333, "type": "electric_scooter", "fusion_lon": 0.0, "lat": 38.91554133333333}, {"rental_uris": {"android": "https://dc.lft.to/lastmile_qr_scan", "ios": "https://dc.lft.to/lastmile_qr_scan"}, "is_reserved": 0, "is_disabled": 0, "name": "39ddab42f5a1363b0f9a2f124f6dbcc3", "bike_id": "39ddab42f5a1363b0f9a2f124f6dbcc3", "fusion_lat": 0.0, "lon": -77.03172516666666, "type": "electric_scooter", "fusion_lon": 0.0, "lat": 38.914137}, {"rental_uris": {"android": "https://dc.lft.to/lastmile_qr_scan", "ios": "https://dc.lft.to/lastmile_qr_scan"}, "is_reserved": 0, "is_disabled": 0, "name": "e6cb643509e0e4c307a464b521aff650", "bike_id": "e6cb643509e0e4c307a464b521aff650", "fusion_lat": 0.0, "lon": -77.038469, "type": "electric_scooter", "fusion_lon": 0.0, "lat": 38.916822333333336}, {"rental_uris": {"android": "https://dc.lft.to/lastmile_qr_scan", "ios": "https://dc.lft.to/lastmile_qr_scan"}, "is_reserved": 0, "is_disabled": 0, "name": "4663b5a5f1ce71a3f40399c86cbdeb08", "bike_id": "4663b5a5f1ce71a3f40399c86cbdeb08", "fusion_lat": 0.0, "lon": -77.08530983333333, "type": "electric_bike", "fusion_lon": 0.0, "lat": 38.856443666666664}, {"rental_uris": {"android": "https://dc.lft.to/lastmile_qr_scan", "ios": "https://dc.lft.to/lastmile_qr_scan"}, "is_reserved": 0, "is_disabled": 0, "name": "3b205adef499904779496193806b84d6", "bike_id": "3b205adef499904779496193806b84d6", "fusion_lat": 0.0, "lon": -77.0201165, "type": "electric_scooter", "fusion_lon": 0.0, "lat": 38.89473983333333}, {"rental_uris": {"android": "https://dc.lft.to/lastmile_qr_scan", "ios": "https://dc.lft.to/lastmile_qr_scan"}, "is_reserved": 0, "is_disabled": 0, "name": "b0370151da87ecf3d1f5c64d47fd028f", "bike_id": "b0370151da87ecf3d1f5c64d47fd028f", "fusion_lat": 0.0, "lon": -77.00616066666667, "type": "electric_scooter", "fusion_lon": 0.0, "lat": 38.9057345}, {"rental_uris": {"android": "https://dc.lft.to/lastmile_qr_scan", "ios": "https://dc.lft.to/lastmile_qr_scan"}, "is_reserved": 0, "is_disabled": 0, "name": "3f17ca321e6b6300f9c01c49b0da2fb1", "bike_id": "3f17ca321e6b6300f9c01c49b0da2fb1", "fusion_lat": 0.0, "lon": -77.03354766666666, "type": "electric_scooter", "fusion_lon": 0.0, "lat": 38.9356755}, {"rental_uris": {"android": "https://dc.lft.to/lastmile_qr_scan", "ios": "https://dc.lft.to/lastmile_qr_scan"}, "is_reserved": 0, "is_disabled": 0, "name": "98e3c21f1999ef037ddf87946ee25a67", "bike_id": "98e3c21f1999ef037ddf87946ee25a67", "fusion_lat": 0.0, "lon": -77.02570133333333, "type": "electric_scooter", "fusion_lon": 0.0, "lat": 38.90004233333333}, {"rental_uris": {"android": "https://dc.lft.to/lastmile_qr_scan", "ios": "https://dc.lft.to/lastmile_qr_scan"}, "is_reserved": 0, "is_disabled": 0, "name": "fb9f77fde151de250c710846c2c1ad39", "bike_id": "fb9f77fde151de250c710846c2c1ad39", "fusion_lat": 0.0, "lon": -77.04516016666666, "type": "electric_scooter", "fusion_lon": 0.0, "lat": 38.912915166666664}, {"rental_uris": {"android": "https://dc.lft.to/lastmile_qr_scan", "ios": "https://dc.lft.to/lastmile_qr_scan"}, "is_reserved": 0, "is_disabled": 0, "name": "62bc176c0d7d1b29dab227e0630a1eac", "bike_id": "62bc176c0d7d1b29dab227e0630a1eac", "fusion_lat": 0.0, "lon": -77.04013566666667, "type": "electric_scooter", "fusion_lon": 0.0, "lat": 38.91839916666667}, {"rental_uris": {"android": "https://dc.lft.to/lastmile_qr_scan", "ios": "https://dc.lft.to/lastmile_qr_scan"}, "is_reserved": 0, "is_disabled": 0, "name": "2a347dbadc79fa5c93282140f1e38379", "bike_id": "2a347dbadc79fa5c93282140f1e38379", "fusion_lat": 0.0, "lon": -77.0724325, "type": "electric_scooter", "fusion_lon": 0.0, "lat": 38.9078065}, {"rental_uris": {"android": "https://dc.lft.to/lastmile_qr_scan", "ios": "https://dc.lft.to/lastmile_qr_scan"}, "is_reserved": 0, "is_disabled": 0, "name": "633eaba6b26a3818c52d18c70e3792b8", "bike_id": "633eaba6b26a3818c52d18c70e3792b8", "fusion_lat": 0.0, "lon": -76.96843616666666, "type": "electric_bike", "fusion_lon": 0.0, "lat": 38.95538883333333}, {"rental_uris": {"android": "https://dc.lft.to/lastmile_qr_scan", "ios": "https://dc.lft.to/lastmile_qr_scan"}, "is_reserved": 0, "is_disabled": 0, "name": "bc8d9072a58bf8c0fd80b77f937e17c9", "bike_id": "bc8d9072a58bf8c0fd80b77f937e17c9", "fusion_lat": 0.0, "lon": -77.056855, "type": "electric_scooter", "fusion_lon": 0.0, "lat": 38.92330183333333}, {"rental_uris": {"android": "https://dc.lft.to/lastmile_qr_scan", "ios": "https://dc.lft.to/lastmile_qr_scan"}, "is_reserved": 0, "is_disabled": 0, "name": "1fcf583e0347f50853da40bd5f44b32e", "bike_id": "1fcf583e0347f50853da40bd5f44b32e", "fusion_lat": 0.0, "lon": -76.985608, "type": "electric_scooter", "fusion_lon": 0.0, "lat": 38.89617833333333}, {"rental_uris": {"android": "https://dc.lft.to/lastmile_qr_scan", "ios": "https://dc.lft.to/lastmile_qr_scan"}, "is_reserved": 0, "is_disabled": 0, "name": "2d413d05aaf9a98f9b978feb14529faf", "bike_id": "2d413d05aaf9a98f9b978feb14529faf", "fusion_lat": 0.0, "lon": -77.02765133333334, "type": "electric_scooter", "fusion_lon": 0.0, "lat": 38.95418733333333}, {"rental_uris": {"android": "https://dc.lft.to/lastmile_qr_scan", "ios": "https://dc.lft.to/lastmile_qr_scan"}, "is_reserved": 0, "is_disabled": 0, "name": "b3967bcc22cb3fafd82c535ed2525ec6", "bike_id": "b3967bcc22cb3fafd82c535ed2525ec6", "fusion_lat": 0.0, "lon": -77.03338983333333, "type": "electric_scooter", "fusion_lon": 0.0, "lat": 38.89642933333333}, {"rental_uris": {"android": "https://dc.lft.to/lastmile_qr_scan", "ios": "https://dc.lft.to/lastmile_qr_scan"}, "is_reserved": 0, "is_disabled": 0, "name": "faecfa7a301c5901e64a48c84ac650f3", "bike_id": "faecfa7a301c5901e64a48c84ac650f3", "fusion_lat": 0.0, "lon": -77.03006233333333, "type": "electric_scooter", "fusion_lon": 0.0, "lat": 38.901155}, {"rental_uris": {"android": "https://dc.lft.to/lastmile_qr_scan", "ios": "https://dc.lft.to/lastmile_qr_scan"}, "is_reserved": 0, "is_disabled": 0, "name": "4b3496db5d78025e03f04ab165cd2a21", "bike_id": "4b3496db5d78025e03f04ab165cd2a21", "fusion_lat": 0.0, "lon": -77.01020866666667, "type": "electric_scooter", "fusion_lon": 0.0, "lat": 38.91411333333333}, {"rental_uris": {"android": "https://dc.lft.to/lastmile_qr_scan", "ios": "https://dc.lft.to/lastmile_qr_scan"}, "is_reserved": 0, "is_disabled": 0, "name": "434f3052d8e8d5f74f8c4ee904331162", "bike_id": "434f3052d8e8d5f74f8c4ee904331162", "fusion_lat": 0.0, "lon": -77.0304665, "type": "electric_scooter", "fusion_lon": 0.0, "lat": 38.88424766666667}, {"rental_uris": {"android": "https://dc.lft.to/lastmile_qr_scan", "ios": "https://dc.lft.to/lastmile_qr_scan"}, "is_reserved": 0, "is_disabled": 0, "name": "e69155003652a557be0e3b6189e2fe47", "bike_id": "e69155003652a557be0e3b6189e2fe47", "fusion_lat": 0.0, "lon": -77.05341883333334, "type": "electric_scooter", "fusion_lon": 0.0, "lat": 38.906445833333336}, {"rental_uris": {"android": "https://dc.lft.to/lastmile_qr_scan", "ios": "https://dc.lft.to/lastmile_qr_scan"}, "is_reserved": 0, "is_disabled": 0, "name": "a478c2f523c218433834a536a2690ef2", "bike_id": "a478c2f523c218433834a536a2690ef2", "fusion_lat": 0.0, "lon": -77.04087, "type": "electric_scooter", "fusion_lon": 0.0, "lat": 38.907076833333335}, {"rental_uris": {"android": "https://dc.lft.to/lastmile_qr_scan", "ios": "https://dc.lft.to/lastmile_qr_scan"}, "is_reserved": 0, "is_disabled": 0, "name": "92dc37eae78d2756c867f8a01c98e0f6", "bike_id": "92dc37eae78d2756c867f8a01c98e0f6", "fusion_lat": 0.0, "lon": -77.02131166666666, "type": "electric_scooter", "fusion_lon": 0.0, "lat": 38.922710333333335}, {"rental_uris": {"android": "https://dc.lft.to/lastmile_qr_scan", "ios": "https://dc.lft.to/lastmile_qr_scan"}, "is_reserved": 0, "is_disabled": 0, "name": "f3eb2b69fdc29bbf37e82494ab4dc1b3", "bike_id": "f3eb2b69fdc29bbf37e82494ab4dc1b3", "fusion_lat": 0.0, "lon": -77.04035933333333, "type": "electric_scooter", "fusion_lon": 0.0, "lat": 38.89856283333334}, {"rental_uris": {"android": "https://dc.lft.to/lastmile_qr_scan", "ios": "https://dc.lft.to/lastmile_qr_scan"}, "is_reserved": 0, "is_disabled": 0, "name": "e7d37851bc16b1f70b8f22d81387756f", "bike_id": "e7d37851bc16b1f70b8f22d81387756f", "fusion_lat": 0.0, "lon": -77.006863, "type": "electric_scooter", "fusion_lon": 0.0, "lat": 38.900198333333336}, {"rental_uris": {"android": "https://dc.lft.to/lastmile_qr_scan", "ios": "https://dc.lft.to/lastmile_qr_scan"}, "is_reserved": 0, "is_disabled": 0, "name": "90d0aeffdd4d75845304420a656fd245", "bike_id": "90d0aeffdd4d75845304420a656fd245", "fusion_lat": 0.0, "lon": -77.02791183333333, "type": "electric_scooter", "fusion_lon": 0.0, "lat": 38.93405166666667}, {"rental_uris": {"android": "https://dc.lft.to/lastmile_qr_scan", "ios": "https://dc.lft.to/lastmile_qr_scan"}, "is_reserved": 0, "is_disabled": 0, "name": "5dcef068aebf982c0967b9eb520b4c2f", "bike_id": "5dcef068aebf982c0967b9eb520b4c2f", "fusion_lat": 0.0, "lon": -77.00603466666666, "type": "electric_scooter", "fusion_lon": 0.0, "lat": 38.871817666666665}, {"rental_uris": {"android": "https://dc.lft.to/lastmile_qr_scan", "ios": "https://dc.lft.to/lastmile_qr_scan"}, "is_reserved": 0, "is_disabled": 0, "name": "51062566691c8c5ec5cac3696668f2f9", "bike_id": "51062566691c8c5ec5cac3696668f2f9", "fusion_lat": 0.0, "lon": -77.02644533333333, "type": "electric_scooter", "fusion_lon": 0.0, "lat": 38.9110005}, {"rental_uris": {"android": "https://dc.lft.to/lastmile_qr_scan", "ios": "https://dc.lft.to/lastmile_qr_scan"}, "is_reserved": 0, "is_disabled": 0, "name": "b11e4865ba3041ae29a0959c90aa0d1f", "bike_id": "b11e4865ba3041ae29a0959c90aa0d1f", "fusion_lat": 0.0, "lon": -77.030435, "type": "electric_scooter", "fusion_lon": 0.0, "lat": 38.95078483333333}, {"rental_uris": {"android": "https://dc.lft.to/lastmile_qr_scan", "ios": "https://dc.lft.to/lastmile_qr_scan"}, "is_reserved": 0, "is_disabled": 0, "name": "2343866bd467e3ced69a841652aa51b9", "bike_id": "2343866bd467e3ced69a841652aa51b9", "fusion_lat": 0.0, "lon": -76.96715333333333, "type": "electric_scooter", "fusion_lon": 0.0, "lat": 38.8596855}, {"rental_uris": {"android": "https://dc.lft.to/lastmile_qr_scan", "ios": "https://dc.lft.to/lastmile_qr_scan"}, "is_reserved": 0, "is_disabled": 0, "name": "088d196b7ff37c225926459c7f7f124d", "bike_id": "088d196b7ff37c225926459c7f7f124d", "fusion_lat": 0.0, "lon": -76.96546583333334, "type": "electric_scooter", "fusion_lon": 0.0, "lat": 38.918491333333336}, {"rental_uris": {"android": "https://dc.lft.to/lastmile_qr_scan", "ios": "https://dc.lft.to/lastmile_qr_scan"}, "is_reserved": 0, "is_disabled": 0, "name": "948b7efc5e81398bae6715eef3e7309c", "bike_id": "948b7efc5e81398bae6715eef3e7309c", "fusion_lat": 0.0, "lon": -77.003424, "type": "electric_scooter", "fusion_lon": 0.0, "lat": 38.876628833333335}, {"rental_uris": {"android": "https://dc.lft.to/lastmile_qr_scan", "ios": "https://dc.lft.to/lastmile_qr_scan"}, "is_reserved": 0, "is_disabled": 0, "name": "e15ec7aa1256ebab0d011f522ee5257e", "bike_id": "e15ec7aa1256ebab0d011f522ee5257e", "fusion_lat": 0.0, "lon": -77.03228266666666, "type": "electric_scooter", "fusion_lon": 0.0, "lat": 38.89727233333333}, {"rental_uris": {"android": "https://dc.lft.to/lastmile_qr_scan", "ios": "https://dc.lft.to/lastmile_qr_scan"}, "is_reserved": 0, "is_disabled": 0, "name": "190b196ecfae9439cda29d59cc801e0e", "bike_id": "190b196ecfae9439cda29d59cc801e0e", "fusion_lat": 0.0, "lon": -77.02192983333333, "type": "electric_scooter", "fusion_lon": 0.0, "lat": 38.88704366666666}, {"rental_uris": {"android": "https://dc.lft.to/lastmile_qr_scan", "ios": "https://dc.lft.to/lastmile_qr_scan"}, "is_reserved": 0, "is_disabled": 0, "name": "0e2b6e29c82cd4eda64a4358450f022b", "bike_id": "0e2b6e29c82cd4eda64a4358450f022b", "fusion_lat": 0.0, "lon": -77.01732133333333, "type": "electric_scooter", "fusion_lon": 0.0, "lat": 38.9751375}, {"rental_uris": {"android": "https://dc.lft.to/lastmile_qr_scan", "ios": "https://dc.lft.to/lastmile_qr_scan"}, "is_reserved": 0, "is_disabled": 0, "name": "c4164cfa23117b77e7be77bd671938aa", "bike_id": "c4164cfa23117b77e7be77bd671938aa", "fusion_lat": 0.0, "lon": -76.9907235, "type": "electric_bike", "fusion_lon": 0.0, "lat": 38.898133}, {"rental_uris": {"android": "https://dc.lft.to/lastmile_qr_scan", "ios": "https://dc.lft.to/lastmile_qr_scan"}, "is_reserved": 0, "is_disabled": 0, "name": "3179f4fe3fc748e6e133e2d2598b7d12", "bike_id": "3179f4fe3fc748e6e133e2d2598b7d12", "fusion_lat": 0.0, "lon": -77.05144016666667, "type": "electric_scooter", "fusion_lon": 0.0, "lat": 38.9051865}, {"rental_uris": {"android": "https://dc.lft.to/lastmile_qr_scan", "ios": "https://dc.lft.to/lastmile_qr_scan"}, "is_reserved": 0, "is_disabled": 0, "name": "ff62764bfb0c889d5358116e806302cb", "bike_id": "ff62764bfb0c889d5358116e806302cb", "fusion_lat": 0.0, "lon": -77.015356, "type": "electric_scooter", "fusion_lon": 0.0, "lat": 38.892255166666665}, {"rental_uris": {"android": "https://dc.lft.to/lastmile_qr_scan", "ios": "https://dc.lft.to/lastmile_qr_scan"}, "is_reserved": 0, "is_disabled": 0, "name": "83694ee371f73d54f19c8c38b368125d", "bike_id": "83694ee371f73d54f19c8c38b368125d", "fusion_lat": 0.0, "lon": -76.99660733333333, "type": "electric_bike", "fusion_lon": 0.0, "lat": 38.96771616666667}, {"rental_uris": {"android": "https://dc.lft.to/lastmile_qr_scan", "ios": "https://dc.lft.to/lastmile_qr_scan"}, "is_reserved": 0, "is_disabled": 0, "name": "17a10619298b66808fd585852a89a106", "bike_id": "17a10619298b66808fd585852a89a106", "fusion_lat": 0.0, "lon": -77.03913916666667, "type": "electric_scooter", "fusion_lon": 0.0, "lat": 38.92470866666667}, {"rental_uris": {"android": "https://dc.lft.to/lastmile_qr_scan", "ios": "https://dc.lft.to/lastmile_qr_scan"}, "is_reserved": 0, "is_disabled": 0, "name": "485d5a8c7436d7b017dee1b4ed5ed6e9", "bike_id": "485d5a8c7436d7b017dee1b4ed5ed6e9", "fusion_lat": 0.0, "lon": -77.02876, "type": "electric_bike", "fusion_lon": 0.0, "lat": 38.921389}, {"rental_uris": {"android": "https://dc.lft.to/lastmile_qr_scan", "ios": "https://dc.lft.to/lastmile_qr_scan"}, "is_reserved": 0, "is_disabled": 0, "name": "0b3bd238701c4dd939e311bfe270ba08", "bike_id": "0b3bd238701c4dd939e311bfe270ba08", "fusion_lat": 0.0, "lon": -76.93184733333334, "type": "electric_scooter", "fusion_lon": 0.0, "lat": 38.89875466666667}, {"rental_uris": {"android": "https://dc.lft.to/lastmile_qr_scan", "ios": "https://dc.lft.to/lastmile_qr_scan"}, "is_reserved": 0, "is_disabled": 0, "name": "16313d423325bd66ee7bda451a809f96", "bike_id": "16313d423325bd66ee7bda451a809f96", "fusion_lat": 0.0, "lon": -77.035677, "type": "electric_scooter", "fusion_lon": 0.0, "lat": 38.90465183333333}, {"rental_uris": {"android": "https://dc.lft.to/lastmile_qr_scan", "ios": "https://dc.lft.to/lastmile_qr_scan"}, "is_reserved": 0, "is_disabled": 0, "name": "d0a70c9ca3637ac08dfaf9f7bafe5ff1", "bike_id": "d0a70c9ca3637ac08dfaf9f7bafe5ff1", "fusion_lat": 0.0, "lon": -76.97333483333334, "type": "electric_scooter", "fusion_lon": 0.0, "lat": 38.865300833333336}, {"rental_uris": {"android": "https://dc.lft.to/lastmile_qr_scan", "ios": "https://dc.lft.to/lastmile_qr_scan"}, "is_reserved": 0, "is_disabled": 0, "name": "f6294f6edb638deb25cd16e5b43739b0", "bike_id": "f6294f6edb638deb25cd16e5b43739b0", "fusion_lat": 0.0, "lon": -77.033754, "type": "electric_scooter", "fusion_lon": 0.0, "lat": 38.90159}, {"rental_uris": {"android": "https://dc.lft.to/lastmile_qr_scan", "ios": "https://dc.lft.to/lastmile_qr_scan"}, "is_reserved": 0, "is_disabled": 0, "name": "4b93e2bbbcb0b69c491b5d48b060e10f", "bike_id": "4b93e2bbbcb0b69c491b5d48b060e10f", "fusion_lat": 0.0, "lon": -76.946705, "type": "electric_scooter", "fusion_lon": 0.0, "lat": 38.898674166666666}, {"rental_uris": {"android": "https://dc.lft.to/lastmile_qr_scan", "ios": "https://dc.lft.to/lastmile_qr_scan"}, "is_reserved": 0, "is_disabled": 0, "name": "939934fbaeb2d09b9898369b2e3d2fee", "bike_id": "939934fbaeb2d09b9898369b2e3d2fee", "fusion_lat": 0.0, "lon": -77.02801016666666, "type": "electric_scooter", "fusion_lon": 0.0, "lat": 38.89231266666667}, {"rental_uris": {"android": "https://dc.lft.to/lastmile_qr_scan", "ios": "https://dc.lft.to/lastmile_qr_scan"}, "is_reserved": 0, "is_disabled": 0, "name": "5b09343a40e2e777c04dd2de08ad8cce", "bike_id": "5b09343a40e2e777c04dd2de08ad8cce", "fusion_lat": 0.0, "lon": -77.021529, "type": "electric_scooter", "fusion_lon": 0.0, "lat": 38.941325666666664}, {"rental_uris": {"android": "https://dc.lft.to/lastmile_qr_scan", "ios": "https://dc.lft.to/lastmile_qr_scan"}, "is_reserved": 0, "is_disabled": 0, "name": "27331215efe8547ac947c74cf60f85db", "bike_id": "27331215efe8547ac947c74cf60f85db", "fusion_lat": 0.0, "lon": -77.05344516666666, "type": "electric_scooter", "fusion_lon": 0.0, "lat": 38.906386833333336}, {"rental_uris": {"android": "https://dc.lft.to/lastmile_qr_scan", "ios": "https://dc.lft.to/lastmile_qr_scan"}, "is_reserved": 0, "is_disabled": 0, "name": "f5c1cd44be1d624feaef7bf0980bdcc7", "bike_id": "f5c1cd44be1d624feaef7bf0980bdcc7", "fusion_lat": 0.0, "lon": -77.0322165, "type": "electric_scooter", "fusion_lon": 0.0, "lat": 38.89226083333333}, {"rental_uris": {"android": "https://dc.lft.to/lastmile_qr_scan", "ios": "https://dc.lft.to/lastmile_qr_scan"}, "is_reserved": 0, "is_disabled": 0, "name": "fa27619dab49c58d4682da5ec6cee6be", "bike_id": "fa27619dab49c58d4682da5ec6cee6be", "fusion_lat": 0.0, "lon": -77.0279765, "type": "electric_scooter", "fusion_lon": 0.0, "lat": 38.96125683333333}, {"rental_uris": {"android": "https://dc.lft.to/lastmile_qr_scan", "ios": "https://dc.lft.to/lastmile_qr_scan"}, "is_reserved": 0, "is_disabled": 0, "name": "e6db43666785c78d46fcf9f2bc04f8fa", "bike_id": "e6db43666785c78d46fcf9f2bc04f8fa", "fusion_lat": 0.0, "lon": -77.0247505, "type": "electric_scooter", "fusion_lon": 0.0, "lat": 38.93098783333333}, {"rental_uris": {"android": "https://dc.lft.to/lastmile_qr_scan", "ios": "https://dc.lft.to/lastmile_qr_scan"}, "is_reserved": 0, "is_disabled": 0, "name": "8c6a51a1a79d86cb830480ea2a1abfb6", "bike_id": "8c6a51a1a79d86cb830480ea2a1abfb6", "fusion_lat": 0.0, "lon": -77.04694333333333, "type": "electric_scooter", "fusion_lon": 0.0, "lat": 38.89618466666667}, {"rental_uris": {"android": "https://dc.lft.to/lastmile_qr_scan", "ios": "https://dc.lft.to/lastmile_qr_scan"}, "is_reserved": 0, "is_disabled": 0, "name": "484dece3ff3640958cece54ec369e177", "bike_id": "484dece3ff3640958cece54ec369e177", "fusion_lat": 0.0, "lon": -77.0909845, "type": "electric_scooter", "fusion_lon": 0.0, "lat": 38.9309705}, {"rental_uris": {"android": "https://dc.lft.to/lastmile_qr_scan", "ios": "https://dc.lft.to/lastmile_qr_scan"}, "is_reserved": 0, "is_disabled": 0, "name": "8559227b5f64d40b921ec9caf816a54e", "bike_id": "8559227b5f64d40b921ec9caf816a54e", "fusion_lat": 0.0, "lon": -77.00094666666666, "type": "electric_scooter", "fusion_lon": 0.0, "lat": 38.92551383333333}, {"rental_uris": {"android": "https://dc.lft.to/lastmile_qr_scan", "ios": "https://dc.lft.to/lastmile_qr_scan"}, "is_reserved": 0, "is_disabled": 0, "name": "d727efb0cff69780ab34f2ca5d33b378", "bike_id": "d727efb0cff69780ab34f2ca5d33b378", "fusion_lat": 0.0, "lon": -77.02552333333334, "type": "electric_scooter", "fusion_lon": 0.0, "lat": 38.89193516666667}, {"rental_uris": {"android": "https://dc.lft.to/lastmile_qr_scan", "ios": "https://dc.lft.to/lastmile_qr_scan"}, "is_reserved": 0, "is_disabled": 0, "name": "c9f998d8f7ef71eee66464006d1bf069", "bike_id": "c9f998d8f7ef71eee66464006d1bf069", "fusion_lat": 0.0, "lon": -76.98723816666667, "type": "electric_scooter", "fusion_lon": 0.0, "lat": 38.903726166666665}, {"rental_uris": {"android": "https://dc.lft.to/lastmile_qr_scan", "ios": "https://dc.lft.to/lastmile_qr_scan"}, "is_reserved": 0, "is_disabled": 0, "name": "1c34b216f990c18f0541d1caa556c0ca", "bike_id": "1c34b216f990c18f0541d1caa556c0ca", "fusion_lat": 0.0, "lon": -77.0488175, "type": "electric_scooter", "fusion_lon": 0.0, "lat": 38.8973075}, {"rental_uris": {"android": "https://dc.lft.to/lastmile_qr_scan", "ios": "https://dc.lft.to/lastmile_qr_scan"}, "is_reserved": 0, "is_disabled": 0, "name": "3b9f151475f1818c490e8c4834205d8a", "bike_id": "3b9f151475f1818c490e8c4834205d8a", "fusion_lat": 0.0, "lon": -77.03727133333334, "type": "electric_scooter", "fusion_lon": 0.0, "lat": 38.925802}, {"rental_uris": {"android": "https://dc.lft.to/lastmile_qr_scan", "ios": "https://dc.lft.to/lastmile_qr_scan"}, "is_reserved": 0, "is_disabled": 0, "name": "1f5e9aa7f78bfce19c3e193559130b7b", "bike_id": "1f5e9aa7f78bfce19c3e193559130b7b", "fusion_lat": 0.0, "lon": -77.04339033333333, "type": "electric_scooter", "fusion_lon": 0.0, "lat": 38.898271333333334}, {"rental_uris": {"android": "https://dc.lft.to/lastmile_qr_scan", "ios": "https://dc.lft.to/lastmile_qr_scan"}, "is_reserved": 0, "is_disabled": 0, "name": "52bb3465811817504e8d3aa92668f0c0", "bike_id": "52bb3465811817504e8d3aa92668f0c0", "fusion_lat": 0.0, "lon": -77.02944283333333, "type": "electric_scooter", "fusion_lon": 0.0, "lat": 38.896127166666666}, {"rental_uris": {"android": "https://dc.lft.to/lastmile_qr_scan", "ios": "https://dc.lft.to/lastmile_qr_scan"}, "is_reserved": 0, "is_disabled": 0, "name": "2bf96dbc739bb49c9b6ff42f4001a17b", "bike_id": "2bf96dbc739bb49c9b6ff42f4001a17b", "fusion_lat": 0.0, "lon": -77.025824, "type": "electric_scooter", "fusion_lon": 0.0, "lat": 38.8872685}, {"rental_uris": {"android": "https://dc.lft.to/lastmile_qr_scan", "ios": "https://dc.lft.to/lastmile_qr_scan"}, "is_reserved": 0, "is_disabled": 0, "name": "d7b75e38cd8e21418eb2ba40f95c0f4d", "bike_id": "d7b75e38cd8e21418eb2ba40f95c0f4d", "fusion_lat": 0.0, "lon": -77.02202316666667, "type": "electric_scooter", "fusion_lon": 0.0, "lat": 38.901789666666666}, {"rental_uris": {"android": "https://dc.lft.to/lastmile_qr_scan", "ios": "https://dc.lft.to/lastmile_qr_scan"}, "is_reserved": 0, "is_disabled": 0, "name": "f1510dc132df7f90ac36b3326e3697ca", "bike_id": "f1510dc132df7f90ac36b3326e3697ca", "fusion_lat": 0.0, "lon": -77.03130366666667, "type": "electric_scooter", "fusion_lon": 0.0, "lat": 38.918996166666666}, {"rental_uris": {"android": "https://dc.lft.to/lastmile_qr_scan", "ios": "https://dc.lft.to/lastmile_qr_scan"}, "is_reserved": 0, "is_disabled": 0, "name": "ccb51a6bf2ee2c020a04c12a71724620", "bike_id": "ccb51a6bf2ee2c020a04c12a71724620", "fusion_lat": 0.0, "lon": -77.01913916666666, "type": "electric_scooter", "fusion_lon": 0.0, "lat": 38.923599}, {"rental_uris": {"android": "https://dc.lft.to/lastmile_qr_scan", "ios": "https://dc.lft.to/lastmile_qr_scan"}, "is_reserved": 0, "is_disabled": 0, "name": "80f7fdd7238787778fa6f96c2c67812d", "bike_id": "80f7fdd7238787778fa6f96c2c67812d", "fusion_lat": 0.0, "lon": -77.050457, "type": "electric_scooter", "fusion_lon": 0.0, "lat": 38.92359883333334}, {"rental_uris": {"android": "https://dc.lft.to/lastmile_qr_scan", "ios": "https://dc.lft.to/lastmile_qr_scan"}, "is_reserved": 0, "is_disabled": 0, "name": "b6f174a4d04cdab875b82ca82ab06465", "bike_id": "b6f174a4d04cdab875b82ca82ab06465", "fusion_lat": 0.0, "lon": -77.01770933333333, "type": "electric_scooter", "fusion_lon": 0.0, "lat": 38.90034333333333}, {"rental_uris": {"android": "https://dc.lft.to/lastmile_qr_scan", "ios": "https://dc.lft.to/lastmile_qr_scan"}, "is_reserved": 0, "is_disabled": 0, "name": "05d5668f1f209db8a67fd24cd5d2a473", "bike_id": "05d5668f1f209db8a67fd24cd5d2a473", "fusion_lat": 0.0, "lon": -77.0241925, "type": "electric_scooter", "fusion_lon": 0.0, "lat": 38.90189066666667}, {"rental_uris": {"android": "https://dc.lft.to/lastmile_qr_scan", "ios": "https://dc.lft.to/lastmile_qr_scan"}, "is_reserved": 0, "is_disabled": 0, "name": "d523d0d6731467eac06d7ff5da61d51c", "bike_id": "d523d0d6731467eac06d7ff5da61d51c", "fusion_lat": 0.0, "lon": -77.04086066666666, "type": "electric_bike", "fusion_lon": 0.0, "lat": 38.830661}, {"rental_uris": {"android": "https://dc.lft.to/lastmile_qr_scan", "ios": "https://dc.lft.to/lastmile_qr_scan"}, "is_reserved": 0, "is_disabled": 0, "name": "6476c1c6805a196825ec1b51c96e7a0b", "bike_id": "6476c1c6805a196825ec1b51c96e7a0b", "fusion_lat": 0.0, "lon": -77.02170216666667, "type": "electric_scooter", "fusion_lon": 0.0, "lat": 38.89744266666666}, {"rental_uris": {"android": "https://dc.lft.to/lastmile_qr_scan", "ios": "https://dc.lft.to/lastmile_qr_scan"}, "is_reserved": 0, "is_disabled": 0, "name": "a395c8ba379b4802eb5f5b035c6e9e94", "bike_id": "a395c8ba379b4802eb5f5b035c6e9e94", "fusion_lat": 0.0, "lon": -77.034722, "type": "electric_scooter", "fusion_lon": 0.0, "lat": 38.9025515}, {"rental_uris": {"android": "https://dc.lft.to/lastmile_qr_scan", "ios": "https://dc.lft.to/lastmile_qr_scan"}, "is_reserved": 0, "is_disabled": 0, "name": "29986145c6f0078fb99fbb517fdb037c", "bike_id": "29986145c6f0078fb99fbb517fdb037c", "fusion_lat": 0.0, "lon": -77.02485016666667, "type": "electric_scooter", "fusion_lon": 0.0, "lat": 38.9016705}, {"rental_uris": {"android": "https://dc.lft.to/lastmile_qr_scan", "ios": "https://dc.lft.to/lastmile_qr_scan"}, "is_reserved": 0, "is_disabled": 0, "name": "74d39483ea5d7b6327e9552e9b3abeee", "bike_id": "74d39483ea5d7b6327e9552e9b3abeee", "fusion_lat": 0.0, "lon": -77.03568566666667, "type": "electric_scooter", "fusion_lon": 0.0, "lat": 38.916929}, {"rental_uris": {"android": "https://dc.lft.to/lastmile_qr_scan", "ios": "https://dc.lft.to/lastmile_qr_scan"}, "is_reserved": 0, "is_disabled": 0, "name": "ab3ac5e1dadcf2411d3e2fb809b51305", "bike_id": "ab3ac5e1dadcf2411d3e2fb809b51305", "fusion_lat": 0.0, "lon": -77.017202, "type": "electric_scooter", "fusion_lon": 0.0, "lat": 38.97488516666667}, {"rental_uris": {"android": "https://dc.lft.to/lastmile_qr_scan", "ios": "https://dc.lft.to/lastmile_qr_scan"}, "is_reserved": 0, "is_disabled": 0, "name": "982b5b4055c9d68c5563357a284076d6", "bike_id": "982b5b4055c9d68c5563357a284076d6", "fusion_lat": 0.0, "lon": -77.04026583333334, "type": "electric_scooter", "fusion_lon": 0.0, "lat": 38.918834833333335}, {"rental_uris": {"android": "https://dc.lft.to/lastmile_qr_scan", "ios": "https://dc.lft.to/lastmile_qr_scan"}, "is_reserved": 0, "is_disabled": 0, "name": "77747faaa0ebbc6455d4982f2d286b84", "bike_id": "77747faaa0ebbc6455d4982f2d286b84", "fusion_lat": 0.0, "lon": -76.990717, "type": "electric_scooter", "fusion_lon": 0.0, "lat": 38.927439166666666}, {"rental_uris": {"android": "https://dc.lft.to/lastmile_qr_scan", "ios": "https://dc.lft.to/lastmile_qr_scan"}, "is_reserved": 0, "is_disabled": 0, "name": "b4419dc6a4375eba6bdea23de2cd22e5", "bike_id": "b4419dc6a4375eba6bdea23de2cd22e5", "fusion_lat": 0.0, "lon": -77.019807, "type": "electric_scooter", "fusion_lon": 0.0, "lat": 38.905552666666665}, {"rental_uris": {"android": "https://dc.lft.to/lastmile_qr_scan", "ios": "https://dc.lft.to/lastmile_qr_scan"}, "is_reserved": 0, "is_disabled": 0, "name": "f301374d96c1d1c0d5b633512c8dfe13", "bike_id": "f301374d96c1d1c0d5b633512c8dfe13", "fusion_lat": 0.0, "lon": -77.032666, "type": "electric_scooter", "fusion_lon": 0.0, "lat": 38.89869933333333}, {"rental_uris": {"android": "https://dc.lft.to/lastmile_qr_scan", "ios": "https://dc.lft.to/lastmile_qr_scan"}, "is_reserved": 0, "is_disabled": 0, "name": "ee232370bc1a82f67e24152da5777a93", "bike_id": "ee232370bc1a82f67e24152da5777a93", "fusion_lat": 0.0, "lon": -77.02896583333333, "type": "electric_scooter", "fusion_lon": 0.0, "lat": 38.9164315}, {"rental_uris": {"android": "https://dc.lft.to/lastmile_qr_scan", "ios": "https://dc.lft.to/lastmile_qr_scan"}, "is_reserved": 0, "is_disabled": 0, "name": "98d4a34a2b4c33f07673e125fcb26bc4", "bike_id": "98d4a34a2b4c33f07673e125fcb26bc4", "fusion_lat": 0.0, "lon": -77.01281066666667, "type": "electric_scooter", "fusion_lon": 0.0, "lat": 38.909509666666665}, {"rental_uris": {"android": "https://dc.lft.to/lastmile_qr_scan", "ios": "https://dc.lft.to/lastmile_qr_scan"}, "is_reserved": 0, "is_disabled": 0, "name": "7e55cbd2cfd5acc97fee5d3f2df5fc87", "bike_id": "7e55cbd2cfd5acc97fee5d3f2df5fc87", "fusion_lat": 0.0, "lon": -77.03946583333334, "type": "electric_scooter", "fusion_lon": 0.0, "lat": 38.90836733333333}, {"rental_uris": {"android": "https://dc.lft.to/lastmile_qr_scan", "ios": "https://dc.lft.to/lastmile_qr_scan"}, "is_reserved": 0, "is_disabled": 0, "name": "38c439eb1afd05df78ca5562e0b646db", "bike_id": "38c439eb1afd05df78ca5562e0b646db", "fusion_lat": 0.0, "lon": -76.96547116666666, "type": "electric_scooter", "fusion_lon": 0.0, "lat": 38.91852033333333}, {"rental_uris": {"android": "https://dc.lft.to/lastmile_qr_scan", "ios": "https://dc.lft.to/lastmile_qr_scan"}, "is_reserved": 0, "is_disabled": 0, "name": "258ae0d78f19304a1170339ba8051d1d", "bike_id": "258ae0d78f19304a1170339ba8051d1d", "fusion_lat": 0.0, "lon": -77.0414255, "type": "electric_scooter", "fusion_lon": 0.0, "lat": 38.92249433333333}, {"rental_uris": {"android": "https://dc.lft.to/lastmile_qr_scan", "ios": "https://dc.lft.to/lastmile_qr_scan"}, "is_reserved": 0, "is_disabled": 0, "name": "d1715965340ec296b875669b804629b7", "bike_id": "d1715965340ec296b875669b804629b7", "fusion_lat": 0.0, "lon": -77.01738, "type": "electric_scooter", "fusion_lon": 0.0, "lat": 38.8859775}, {"rental_uris": {"android": "https://dc.lft.to/lastmile_qr_scan", "ios": "https://dc.lft.to/lastmile_qr_scan"}, "is_reserved": 0, "is_disabled": 0, "name": "4fb42dca8dc46cd65a8cf9a191d3fe8d", "bike_id": "4fb42dca8dc46cd65a8cf9a191d3fe8d", "fusion_lat": 0.0, "lon": -77.02671616666667, "type": "electric_scooter", "fusion_lon": 0.0, "lat": 38.92471283333333}, {"rental_uris": {"android": "https://dc.lft.to/lastmile_qr_scan", "ios": "https://dc.lft.to/lastmile_qr_scan"}, "is_reserved": 0, "is_disabled": 0, "name": "85a691dd2ed199af8ebe14a6edec3bf0", "bike_id": "85a691dd2ed199af8ebe14a6edec3bf0", "fusion_lat": 0.0, "lon": -77.11414183333333, "type": "electric_bike", "fusion_lon": 0.0, "lat": 38.873257}, {"rental_uris": {"android": "https://dc.lft.to/lastmile_qr_scan", "ios": "https://dc.lft.to/lastmile_qr_scan"}, "is_reserved": 0, "is_disabled": 0, "name": "dabd2d27d977967b02c9aa9d1b233210", "bike_id": "dabd2d27d977967b02c9aa9d1b233210", "fusion_lat": 0.0, "lon": -77.00889933333333, "type": "electric_bike", "fusion_lon": 0.0, "lat": 38.921464666666665}, {"rental_uris": {"android": "https://dc.lft.to/lastmile_qr_scan", "ios": "https://dc.lft.to/lastmile_qr_scan"}, "is_reserved": 0, "is_disabled": 0, "name": "99acfd02a2f0b766fc92bc21af73a198", "bike_id": "99acfd02a2f0b766fc92bc21af73a198", "fusion_lat": 0.0, "lon": -77.02426216666667, "type": "electric_scooter", "fusion_lon": 0.0, "lat": 38.9265255}, {"rental_uris": {"android": "https://dc.lft.to/lastmile_qr_scan", "ios": "https://dc.lft.to/lastmile_qr_scan"}, "is_reserved": 0, "is_disabled": 0, "name": "571389cf4d0583a9bce863b6f40b8caf", "bike_id": "571389cf4d0583a9bce863b6f40b8caf", "fusion_lat": 0.0, "lon": -77.0413695, "type": "electric_scooter", "fusion_lon": 0.0, "lat": 38.92364333333333}, {"rental_uris": {"android": "https://dc.lft.to/lastmile_qr_scan", "ios": "https://dc.lft.to/lastmile_qr_scan"}, "is_reserved": 0, "is_disabled": 0, "name": "ce4ccb15d2bd8801f4b2909946182157", "bike_id": "ce4ccb15d2bd8801f4b2909946182157", "fusion_lat": 0.0, "lon": -77.03359966666666, "type": "electric_scooter", "fusion_lon": 0.0, "lat": 38.9004185}, {"rental_uris": {"android": "https://dc.lft.to/lastmile_qr_scan", "ios": "https://dc.lft.to/lastmile_qr_scan"}, "is_reserved": 0, "is_disabled": 0, "name": "ca8691744dc495537154ad97108748ee", "bike_id": "ca8691744dc495537154ad97108748ee", "fusion_lat": 0.0, "lon": -77.04663633333334, "type": "electric_scooter", "fusion_lon": 0.0, "lat": 38.90274683333333}, {"rental_uris": {"android": "https://dc.lft.to/lastmile_qr_scan", "ios": "https://dc.lft.to/lastmile_qr_scan"}, "is_reserved": 0, "is_disabled": 0, "name": "6c271f7b19a55ec7780e0f5de2ade3d3", "bike_id": "6c271f7b19a55ec7780e0f5de2ade3d3", "fusion_lat": 0.0, "lon": -77.04340733333333, "type": "electric_scooter", "fusion_lon": 0.0, "lat": 38.923154333333336}, {"rental_uris": {"android": "https://dc.lft.to/lastmile_qr_scan", "ios": "https://dc.lft.to/lastmile_qr_scan"}, "is_reserved": 0, "is_disabled": 0, "name": "3901186a63cbef27a02acacc55000fd5", "bike_id": "3901186a63cbef27a02acacc55000fd5", "fusion_lat": 0.0, "lon": -77.05032333333334, "type": "electric_scooter", "fusion_lon": 0.0, "lat": 38.89693716666667}, {"rental_uris": {"android": "https://dc.lft.to/lastmile_qr_scan", "ios": "https://dc.lft.to/lastmile_qr_scan"}, "is_reserved": 0, "is_disabled": 0, "name": "3b53656c7bd35aa64861148f322ca8e4", "bike_id": "3b53656c7bd35aa64861148f322ca8e4", "fusion_lat": 0.0, "lon": -77.041817, "type": "electric_scooter", "fusion_lon": 0.0, "lat": 38.897394}, {"rental_uris": {"android": "https://dc.lft.to/lastmile_qr_scan", "ios": "https://dc.lft.to/lastmile_qr_scan"}, "is_reserved": 0, "is_disabled": 0, "name": "5b81be9027f6c8ce0a4a9ed492a76d06", "bike_id": "5b81be9027f6c8ce0a4a9ed492a76d06", "fusion_lat": 0.0, "lon": -77.0321005, "type": "electric_scooter", "fusion_lon": 0.0, "lat": 38.91588933333333}, {"rental_uris": {"android": "https://dc.lft.to/lastmile_qr_scan", "ios": "https://dc.lft.to/lastmile_qr_scan"}, "is_reserved": 0, "is_disabled": 0, "name": "5ff73bcfc3bf8e245eb55343b9cae7ba", "bike_id": "5ff73bcfc3bf8e245eb55343b9cae7ba", "fusion_lat": 0.0, "lon": -77.02376916666667, "type": "electric_scooter", "fusion_lon": 0.0, "lat": 38.879225}, {"rental_uris": {"android": "https://dc.lft.to/lastmile_qr_scan", "ios": "https://dc.lft.to/lastmile_qr_scan"}, "is_reserved": 0, "is_disabled": 0, "name": "1f1a0110fe1f8121ab1be55b916dafbe", "bike_id": "1f1a0110fe1f8121ab1be55b916dafbe", "fusion_lat": 0.0, "lon": -77.0132365, "type": "electric_scooter", "fusion_lon": 0.0, "lat": 38.90598266666667}, {"rental_uris": {"android": "https://dc.lft.to/lastmile_qr_scan", "ios": "https://dc.lft.to/lastmile_qr_scan"}, "is_reserved": 0, "is_disabled": 0, "name": "34caa50238bd3586d45d536505b29f68", "bike_id": "34caa50238bd3586d45d536505b29f68", "fusion_lat": 0.0, "lon": -77.0450645, "type": "electric_scooter", "fusion_lon": 0.0, "lat": 38.8922015}, {"rental_uris": {"android": "https://dc.lft.to/lastmile_qr_scan", "ios": "https://dc.lft.to/lastmile_qr_scan"}, "is_reserved": 0, "is_disabled": 0, "name": "bde1831aafa317977896eaa7fff93b3b", "bike_id": "bde1831aafa317977896eaa7fff93b3b", "fusion_lat": 0.0, "lon": -76.97076133333333, "type": "electric_bike", "fusion_lon": 0.0, "lat": 38.920606}, {"rental_uris": {"android": "https://dc.lft.to/lastmile_qr_scan", "ios": "https://dc.lft.to/lastmile_qr_scan"}, "is_reserved": 0, "is_disabled": 0, "name": "ec888544774de85a4b83ca2ff5d30411", "bike_id": "ec888544774de85a4b83ca2ff5d30411", "fusion_lat": 0.0, "lon": -77.037938, "type": "electric_scooter", "fusion_lon": 0.0, "lat": 38.9332055}, {"rental_uris": {"android": "https://dc.lft.to/lastmile_qr_scan", "ios": "https://dc.lft.to/lastmile_qr_scan"}, "is_reserved": 0, "is_disabled": 0, "name": "f91a5ccb2248f9e51463b1b7de6fac1a", "bike_id": "f91a5ccb2248f9e51463b1b7de6fac1a", "fusion_lat": 0.0, "lon": -77.0671905, "type": "electric_scooter", "fusion_lon": 0.0, "lat": 38.94993683333333}, {"rental_uris": {"android": "https://dc.lft.to/lastmile_qr_scan", "ios": "https://dc.lft.to/lastmile_qr_scan"}, "is_reserved": 0, "is_disabled": 0, "name": "fb28c27e86df0e19535bb1a0a9d0776d", "bike_id": "fb28c27e86df0e19535bb1a0a9d0776d", "fusion_lat": 0.0, "lon": -76.98337216666667, "type": "electric_scooter", "fusion_lon": 0.0, "lat": 38.8953915}, {"rental_uris": {"android": "https://dc.lft.to/lastmile_qr_scan", "ios": "https://dc.lft.to/lastmile_qr_scan"}, "is_reserved": 0, "is_disabled": 0, "name": "3bb5956fe93a44a0b78f91772548f418", "bike_id": "3bb5956fe93a44a0b78f91772548f418", "fusion_lat": 0.0, "lon": -77.01382133333334, "type": "electric_scooter", "fusion_lon": 0.0, "lat": 38.89907933333333}, {"rental_uris": {"android": "https://dc.lft.to/lastmile_qr_scan", "ios": "https://dc.lft.to/lastmile_qr_scan"}, "is_reserved": 0, "is_disabled": 0, "name": "870b1041ec6cecb15d2db0c495680da7", "bike_id": "870b1041ec6cecb15d2db0c495680da7", "fusion_lat": 0.0, "lon": -77.05121833333334, "type": "electric_scooter", "fusion_lon": 0.0, "lat": 38.90515416666667}, {"rental_uris": {"android": "https://dc.lft.to/lastmile_qr_scan", "ios": "https://dc.lft.to/lastmile_qr_scan"}, "is_reserved": 0, "is_disabled": 0, "name": "cc857fb1799559ac67d15f2507af588e", "bike_id": "cc857fb1799559ac67d15f2507af588e", "fusion_lat": 0.0, "lon": -77.024121, "type": "electric_scooter", "fusion_lon": 0.0, "lat": 38.894923666666664}, {"rental_uris": {"android": "https://dc.lft.to/lastmile_qr_scan", "ios": "https://dc.lft.to/lastmile_qr_scan"}, "is_reserved": 0, "is_disabled": 0, "name": "f499a6b0e7b7b1d5185e4ee293a76c4e", "bike_id": "f499a6b0e7b7b1d5185e4ee293a76c4e", "fusion_lat": 0.0, "lon": -77.00011283333333, "type": "electric_scooter", "fusion_lon": 0.0, "lat": 38.87398316666667}, {"rental_uris": {"android": "https://dc.lft.to/lastmile_qr_scan", "ios": "https://dc.lft.to/lastmile_qr_scan"}, "is_reserved": 0, "is_disabled": 0, "name": "026a841880797d0f9b2a44020da9b59d", "bike_id": "026a841880797d0f9b2a44020da9b59d", "fusion_lat": 0.0, "lon": -77.036542, "type": "electric_scooter", "fusion_lon": 0.0, "lat": 38.9068065}, {"rental_uris": {"android": "https://dc.lft.to/lastmile_qr_scan", "ios": "https://dc.lft.to/lastmile_qr_scan"}, "is_reserved": 0, "is_disabled": 0, "name": "ce78f25285beb99be05b7f5eb54452af", "bike_id": "ce78f25285beb99be05b7f5eb54452af", "fusion_lat": 0.0, "lon": -77.05271683333333, "type": "electric_scooter", "fusion_lon": 0.0, "lat": 38.90144333333333}, {"rental_uris": {"android": "https://dc.lft.to/lastmile_qr_scan", "ios": "https://dc.lft.to/lastmile_qr_scan"}, "is_reserved": 0, "is_disabled": 0, "name": "e72a36ae9c64daf95f7980c9b02169be", "bike_id": "e72a36ae9c64daf95f7980c9b02169be", "fusion_lat": 0.0, "lon": -77.046447, "type": "electric_scooter", "fusion_lon": 0.0, "lat": 38.9047135}, {"rental_uris": {"android": "https://dc.lft.to/lastmile_qr_scan", "ios": "https://dc.lft.to/lastmile_qr_scan"}, "is_reserved": 0, "is_disabled": 0, "name": "724f9e72e0ad0478a2a36f6d6e7a9e8e", "bike_id": "724f9e72e0ad0478a2a36f6d6e7a9e8e", "fusion_lat": 0.0, "lon": -77.03108133333333, "type": "electric_scooter", "fusion_lon": 0.0, "lat": 38.899868833333336}, {"rental_uris": {"android": "https://dc.lft.to/lastmile_qr_scan", "ios": "https://dc.lft.to/lastmile_qr_scan"}, "is_reserved": 0, "is_disabled": 0, "name": "8c4474ee6eaa5bfec8f1eef73ab313d7", "bike_id": "8c4474ee6eaa5bfec8f1eef73ab313d7", "fusion_lat": 0.0, "lon": -77.04355966666667, "type": "electric_scooter", "fusion_lon": 0.0, "lat": 38.904383333333335}, {"rental_uris": {"android": "https://dc.lft.to/lastmile_qr_scan", "ios": "https://dc.lft.to/lastmile_qr_scan"}, "is_reserved": 0, "is_disabled": 0, "name": "ea51dd688db1e6104c31a96a23d1350b", "bike_id": "ea51dd688db1e6104c31a96a23d1350b", "fusion_lat": 0.0, "lon": -77.00054616666667, "type": "electric_scooter", "fusion_lon": 0.0, "lat": 38.876424}, {"rental_uris": {"android": "https://dc.lft.to/lastmile_qr_scan", "ios": "https://dc.lft.to/lastmile_qr_scan"}, "is_reserved": 0, "is_disabled": 0, "name": "9e9c9981352540420ea0fb23fdbba36c", "bike_id": "9e9c9981352540420ea0fb23fdbba36c", "fusion_lat": 0.0, "lon": -77.01726433333333, "type": "electric_scooter", "fusion_lon": 0.0, "lat": 38.90074283333333}, {"rental_uris": {"android": "https://dc.lft.to/lastmile_qr_scan", "ios": "https://dc.lft.to/lastmile_qr_scan"}, "is_reserved": 0, "is_disabled": 0, "name": "73648b204b3ff2096b017165e8f27dcf", "bike_id": "73648b204b3ff2096b017165e8f27dcf", "fusion_lat": 0.0, "lon": -76.94965733333333, "type": "electric_scooter", "fusion_lon": 0.0, "lat": 38.90490233333333}, {"rental_uris": {"android": "https://dc.lft.to/lastmile_qr_scan", "ios": "https://dc.lft.to/lastmile_qr_scan"}, "is_reserved": 0, "is_disabled": 0, "name": "b7d019235a44daf6a3bc1ccd7263aeb4", "bike_id": "b7d019235a44daf6a3bc1ccd7263aeb4", "fusion_lat": 0.0, "lon": -77.0500615, "type": "electric_scooter", "fusion_lon": 0.0, "lat": 38.892289833333336}, {"rental_uris": {"android": "https://dc.lft.to/lastmile_qr_scan", "ios": "https://dc.lft.to/lastmile_qr_scan"}, "is_reserved": 0, "is_disabled": 0, "name": "5f558d8a498d8a153e69c5fb6af736ab", "bike_id": "5f558d8a498d8a153e69c5fb6af736ab", "fusion_lat": 0.0, "lon": -77.01895616666667, "type": "electric_scooter", "fusion_lon": 0.0, "lat": 38.914850333333334}, {"rental_uris": {"android": "https://dc.lft.to/lastmile_qr_scan", "ios": "https://dc.lft.to/lastmile_qr_scan"}, "is_reserved": 0, "is_disabled": 0, "name": "dbcc07166187cb0a255ea6d145f1761b", "bike_id": "dbcc07166187cb0a255ea6d145f1761b", "fusion_lat": 0.0, "lon": -77.04488583333334, "type": "electric_scooter", "fusion_lon": 0.0, "lat": 38.9001305}, {"rental_uris": {"android": "https://dc.lft.to/lastmile_qr_scan", "ios": "https://dc.lft.to/lastmile_qr_scan"}, "is_reserved": 0, "is_disabled": 0, "name": "da5b086184f9195950c405c85eb33821", "bike_id": "da5b086184f9195950c405c85eb33821", "fusion_lat": 0.0, "lon": -77.046871, "type": "electric_scooter", "fusion_lon": 0.0, "lat": 38.899665166666665}, {"rental_uris": {"android": "https://dc.lft.to/lastmile_qr_scan", "ios": "https://dc.lft.to/lastmile_qr_scan"}, "is_reserved": 0, "is_disabled": 0, "name": "f02412e3fd87db8990d53561af3415b7", "bike_id": "f02412e3fd87db8990d53561af3415b7", "fusion_lat": 0.0, "lon": -76.9991655, "type": "electric_bike", "fusion_lon": 0.0, "lat": 38.86446133333333}, {"rental_uris": {"android": "https://dc.lft.to/lastmile_qr_scan", "ios": "https://dc.lft.to/lastmile_qr_scan"}, "is_reserved": 0, "is_disabled": 0, "name": "58faef7f2cf286b4d1730d4aa6ff8866", "bike_id": "58faef7f2cf286b4d1730d4aa6ff8866", "fusion_lat": 0.0, "lon": -77.03259866666667, "type": "electric_scooter", "fusion_lon": 0.0, "lat": 38.93240433333333}, {"rental_uris": {"android": "https://dc.lft.to/lastmile_qr_scan", "ios": "https://dc.lft.to/lastmile_qr_scan"}, "is_reserved": 0, "is_disabled": 0, "name": "4e9b2010220407fb93759f64c185c82e", "bike_id": "4e9b2010220407fb93759f64c185c82e", "fusion_lat": 0.0, "lon": -77.019648, "type": "electric_scooter", "fusion_lon": 0.0, "lat": 38.934166833333336}, {"rental_uris": {"android": "https://dc.lft.to/lastmile_qr_scan", "ios": "https://dc.lft.to/lastmile_qr_scan"}, "is_reserved": 0, "is_disabled": 0, "name": "27e460afc03da67c4c50e73fb8a662b1", "bike_id": "27e460afc03da67c4c50e73fb8a662b1", "fusion_lat": 0.0, "lon": -77.00422783333333, "type": "electric_bike", "fusion_lon": 0.0, "lat": 38.98520716666667}, {"rental_uris": {"android": "https://dc.lft.to/lastmile_qr_scan", "ios": "https://dc.lft.to/lastmile_qr_scan"}, "is_reserved": 0, "is_disabled": 0, "name": "f77be3dc27c55673b4217d3e6186eb0a", "bike_id": "f77be3dc27c55673b4217d3e6186eb0a", "fusion_lat": 0.0, "lon": -77.019557, "type": "electric_scooter", "fusion_lon": 0.0, "lat": 38.9241275}, {"rental_uris": {"android": "https://dc.lft.to/lastmile_qr_scan", "ios": "https://dc.lft.to/lastmile_qr_scan"}, "is_reserved": 0, "is_disabled": 0, "name": "fb66e09dfa08be2a4da630b20f6b5926", "bike_id": "fb66e09dfa08be2a4da630b20f6b5926", "fusion_lat": 0.0, "lon": -77.0177035, "type": "electric_scooter", "fusion_lon": 0.0, "lat": 38.90260033333333}, {"rental_uris": {"android": "https://dc.lft.to/lastmile_qr_scan", "ios": "https://dc.lft.to/lastmile_qr_scan"}, "is_reserved": 0, "is_disabled": 0, "name": "c25dacea7b2dac039248e1322d946f94", "bike_id": "c25dacea7b2dac039248e1322d946f94", "fusion_lat": 0.0, "lon": -77.02854166666667, "type": "electric_scooter", "fusion_lon": 0.0, "lat": 38.93246766666667}, {"rental_uris": {"android": "https://dc.lft.to/lastmile_qr_scan", "ios": "https://dc.lft.to/lastmile_qr_scan"}, "is_reserved": 0, "is_disabled": 0, "name": "b911105aff009a0022c02d32cb6f6009", "bike_id": "b911105aff009a0022c02d32cb6f6009", "fusion_lat": 0.0, "lon": -77.0159145, "type": "electric_scooter", "fusion_lon": 0.0, "lat": 38.9204915}, {"rental_uris": {"android": "https://dc.lft.to/lastmile_qr_scan", "ios": "https://dc.lft.to/lastmile_qr_scan"}, "is_reserved": 0, "is_disabled": 0, "name": "813ce7ab0a5f1f5a558cda7c9d14d773", "bike_id": "813ce7ab0a5f1f5a558cda7c9d14d773", "fusion_lat": 0.0, "lon": -76.9302035, "type": "electric_scooter", "fusion_lon": 0.0, "lat": 38.90129116666667}, {"rental_uris": {"android": "https://dc.lft.to/lastmile_qr_scan", "ios": "https://dc.lft.to/lastmile_qr_scan"}, "is_reserved": 0, "is_disabled": 0, "name": "8a74dacd625cd1c5005d004a902d7a7e", "bike_id": "8a74dacd625cd1c5005d004a902d7a7e", "fusion_lat": 0.0, "lon": -77.01626983333334, "type": "electric_scooter", "fusion_lon": 0.0, "lat": 38.9029605}, {"rental_uris": {"android": "https://dc.lft.to/lastmile_qr_scan", "ios": "https://dc.lft.to/lastmile_qr_scan"}, "is_reserved": 0, "is_disabled": 0, "name": "f695a4ee97110b70bda5d82de9da4c0d", "bike_id": "f695a4ee97110b70bda5d82de9da4c0d", "fusion_lat": 0.0, "lon": -77.06236666666666, "type": "electric_scooter", "fusion_lon": 0.0, "lat": 38.9115415}, {"rental_uris": {"android": "https://dc.lft.to/lastmile_qr_scan", "ios": "https://dc.lft.to/lastmile_qr_scan"}, "is_reserved": 0, "is_disabled": 0, "name": "27bea0b9cf9347c6d82d7ffca2ad51d8", "bike_id": "27bea0b9cf9347c6d82d7ffca2ad51d8", "fusion_lat": 0.0, "lon": -76.9916955, "type": "electric_scooter", "fusion_lon": 0.0, "lat": 38.90852433333333}, {"rental_uris": {"android": "https://dc.lft.to/lastmile_qr_scan", "ios": "https://dc.lft.to/lastmile_qr_scan"}, "is_reserved": 0, "is_disabled": 0, "name": "2132fba94fa3da6d7582c81b2128ee41", "bike_id": "2132fba94fa3da6d7582c81b2128ee41", "fusion_lat": 0.0, "lon": -77.03308366666667, "type": "electric_scooter", "fusion_lon": 0.0, "lat": 38.927480833333334}, {"rental_uris": {"android": "https://dc.lft.to/lastmile_qr_scan", "ios": "https://dc.lft.to/lastmile_qr_scan"}, "is_reserved": 0, "is_disabled": 0, "name": "0200338bf75f2e57e91934bd33305c15", "bike_id": "0200338bf75f2e57e91934bd33305c15", "fusion_lat": 0.0, "lon": -77.02384883333333, "type": "electric_scooter", "fusion_lon": 0.0, "lat": 38.952703166666666}, {"rental_uris": {"android": "https://dc.lft.to/lastmile_qr_scan", "ios": "https://dc.lft.to/lastmile_qr_scan"}, "is_reserved": 0, "is_disabled": 0, "name": "431dcf981789a050895824983390a549", "bike_id": "431dcf981789a050895824983390a549", "fusion_lat": 0.0, "lon": -77.04069233333334, "type": "electric_scooter", "fusion_lon": 0.0, "lat": 38.903603833333335}, {"rental_uris": {"android": "https://dc.lft.to/lastmile_qr_scan", "ios": "https://dc.lft.to/lastmile_qr_scan"}, "is_reserved": 0, "is_disabled": 0, "name": "eff12a7c6363b8367c4088dd6d165f3a", "bike_id": "eff12a7c6363b8367c4088dd6d165f3a", "fusion_lat": 0.0, "lon": -77.00914916666666, "type": "electric_scooter", "fusion_lon": 0.0, "lat": 38.898915}, {"rental_uris": {"android": "https://dc.lft.to/lastmile_qr_scan", "ios": "https://dc.lft.to/lastmile_qr_scan"}, "is_reserved": 0, "is_disabled": 0, "name": "0d97caa6aed3585daa9d8263d4449d75", "bike_id": "0d97caa6aed3585daa9d8263d4449d75", "fusion_lat": 0.0, "lon": -77.04529916666667, "type": "electric_scooter", "fusion_lon": 0.0, "lat": 38.902718}, {"rental_uris": {"android": "https://dc.lft.to/lastmile_qr_scan", "ios": "https://dc.lft.to/lastmile_qr_scan"}, "is_reserved": 0, "is_disabled": 0, "name": "fa39b1b188ee7f530e38e01c340b0531", "bike_id": "fa39b1b188ee7f530e38e01c340b0531", "fusion_lat": 0.0, "lon": -77.01515216666667, "type": "electric_scooter", "fusion_lon": 0.0, "lat": 38.89555033333333}, {"rental_uris": {"android": "https://dc.lft.to/lastmile_qr_scan", "ios": "https://dc.lft.to/lastmile_qr_scan"}, "is_reserved": 0, "is_disabled": 0, "name": "e75af2030faf2fdf04cd056945fee541", "bike_id": "e75af2030faf2fdf04cd056945fee541", "fusion_lat": 0.0, "lon": -77.026117, "type": "electric_scooter", "fusion_lon": 0.0, "lat": 38.900588666666664}, {"rental_uris": {"android": "https://dc.lft.to/lastmile_qr_scan", "ios": "https://dc.lft.to/lastmile_qr_scan"}, "is_reserved": 0, "is_disabled": 0, "name": "3ca0332fd363066d2e375e3c50886e74", "bike_id": "3ca0332fd363066d2e375e3c50886e74", "fusion_lat": 0.0, "lon": -77.03439183333333, "type": "electric_scooter", "fusion_lon": 0.0, "lat": 38.902620166666665}, {"rental_uris": {"android": "https://dc.lft.to/lastmile_qr_scan", "ios": "https://dc.lft.to/lastmile_qr_scan"}, "is_reserved": 0, "is_disabled": 0, "name": "b8968876e202d41320dfc055e3311a05", "bike_id": "b8968876e202d41320dfc055e3311a05", "fusion_lat": 0.0, "lon": -77.02693916666666, "type": "electric_scooter", "fusion_lon": 0.0, "lat": 38.902427833333334}, {"rental_uris": {"android": "https://dc.lft.to/lastmile_qr_scan", "ios": "https://dc.lft.to/lastmile_qr_scan"}, "is_reserved": 0, "is_disabled": 0, "name": "2962e291b3363c1dd1aece1050521b97", "bike_id": "2962e291b3363c1dd1aece1050521b97", "fusion_lat": 0.0, "lon": -77.063242, "type": "electric_scooter", "fusion_lon": 0.0, "lat": 38.943612}, {"rental_uris": {"android": "https://dc.lft.to/lastmile_qr_scan", "ios": "https://dc.lft.to/lastmile_qr_scan"}, "is_reserved": 0, "is_disabled": 0, "name": "19c11a8c49f269d77c8f964fef82646d", "bike_id": "19c11a8c49f269d77c8f964fef82646d", "fusion_lat": 0.0, "lon": -77.01824683333334, "type": "electric_scooter", "fusion_lon": 0.0, "lat": 38.90290533333334}, {"rental_uris": {"android": "https://dc.lft.to/lastmile_qr_scan", "ios": "https://dc.lft.to/lastmile_qr_scan"}, "is_reserved": 0, "is_disabled": 0, "name": "27664da4974d792f768a27c07ceae32d", "bike_id": "27664da4974d792f768a27c07ceae32d", "fusion_lat": 0.0, "lon": -76.9408705, "type": "electric_scooter", "fusion_lon": 0.0, "lat": 38.89124433333333}, {"rental_uris": {"android": "https://dc.lft.to/lastmile_qr_scan", "ios": "https://dc.lft.to/lastmile_qr_scan"}, "is_reserved": 0, "is_disabled": 0, "name": "cbea82d9f3659998e07005f6e728393b", "bike_id": "cbea82d9f3659998e07005f6e728393b", "fusion_lat": 0.0, "lon": -77.0532855, "type": "electric_scooter", "fusion_lon": 0.0, "lat": 38.9052165}, {"rental_uris": {"android": "https://dc.lft.to/lastmile_qr_scan", "ios": "https://dc.lft.to/lastmile_qr_scan"}, "is_reserved": 0, "is_disabled": 0, "name": "3a244aafb4181de7f3a9c6491ce46b14", "bike_id": "3a244aafb4181de7f3a9c6491ce46b14", "fusion_lat": 0.0, "lon": -77.0405805, "type": "electric_scooter", "fusion_lon": 0.0, "lat": 38.9085595}, {"rental_uris": {"android": "https://dc.lft.to/lastmile_qr_scan", "ios": "https://dc.lft.to/lastmile_qr_scan"}, "is_reserved": 0, "is_disabled": 0, "name": "e2306ce4c11c1d42bbe3056a69575b8c", "bike_id": "e2306ce4c11c1d42bbe3056a69575b8c", "fusion_lat": 0.0, "lon": -76.997267, "type": "electric_bike", "fusion_lon": 0.0, "lat": 38.998531666666665}, {"rental_uris": {"android": "https://dc.lft.to/lastmile_qr_scan", "ios": "https://dc.lft.to/lastmile_qr_scan"}, "is_reserved": 0, "is_disabled": 0, "name": "148148c1d80e1b8fd3e37bc5ea7c7873", "bike_id": "148148c1d80e1b8fd3e37bc5ea7c7873", "fusion_lat": 0.0, "lon": -77.1265745, "type": "electric_bike", "fusion_lon": 0.0, "lat": 38.81908266666667}, {"rental_uris": {"android": "https://dc.lft.to/lastmile_qr_scan", "ios": "https://dc.lft.to/lastmile_qr_scan"}, "is_reserved": 0, "is_disabled": 0, "name": "09042800e185adbd2c8aadd665e598da", "bike_id": "09042800e185adbd2c8aadd665e598da", "fusion_lat": 0.0, "lon": -77.0248275, "type": "electric_scooter", "fusion_lon": 0.0, "lat": 38.930802166666666}, {"rental_uris": {"android": "https://dc.lft.to/lastmile_qr_scan", "ios": "https://dc.lft.to/lastmile_qr_scan"}, "is_reserved": 0, "is_disabled": 0, "name": "1b33656c19da3d12aedb20b3cce8f74d", "bike_id": "1b33656c19da3d12aedb20b3cce8f74d", "fusion_lat": 0.0, "lon": -77.02098833333334, "type": "electric_scooter", "fusion_lon": 0.0, "lat": 38.92155666666667}, {"rental_uris": {"android": "https://dc.lft.to/lastmile_qr_scan", "ios": "https://dc.lft.to/lastmile_qr_scan"}, "is_reserved": 0, "is_disabled": 0, "name": "421ed831980f569b7be56b3f34a3323c", "bike_id": "421ed831980f569b7be56b3f34a3323c", "fusion_lat": 0.0, "lon": -77.03261566666667, "type": "electric_scooter", "fusion_lon": 0.0, "lat": 38.898677}, {"rental_uris": {"android": "https://dc.lft.to/lastmile_qr_scan", "ios": "https://dc.lft.to/lastmile_qr_scan"}, "is_reserved": 0, "is_disabled": 0, "name": "c555a7179cf3f0363a437d738943c479", "bike_id": "c555a7179cf3f0363a437d738943c479", "fusion_lat": 0.0, "lon": -76.98609166666667, "type": "electric_scooter", "fusion_lon": 0.0, "lat": 38.9064755}, {"rental_uris": {"android": "https://dc.lft.to/lastmile_qr_scan", "ios": "https://dc.lft.to/lastmile_qr_scan"}, "is_reserved": 0, "is_disabled": 0, "name": "e1903090e2a9224610e7d12472040cff", "bike_id": "e1903090e2a9224610e7d12472040cff", "fusion_lat": 0.0, "lon": -77.03531933333333, "type": "electric_scooter", "fusion_lon": 0.0, "lat": 38.9232905}, {"rental_uris": {"android": "https://dc.lft.to/lastmile_qr_scan", "ios": "https://dc.lft.to/lastmile_qr_scan"}, "is_reserved": 0, "is_disabled": 0, "name": "b750d38d0e24ebe68b1a171d79638d99", "bike_id": "b750d38d0e24ebe68b1a171d79638d99", "fusion_lat": 0.0, "lon": -77.02181716666666, "type": "electric_scooter", "fusion_lon": 0.0, "lat": 38.924895166666666}, {"rental_uris": {"android": "https://dc.lft.to/lastmile_qr_scan", "ios": "https://dc.lft.to/lastmile_qr_scan"}, "is_reserved": 0, "is_disabled": 0, "name": "c434471efb95ed22e4ad45fd092bbdff", "bike_id": "c434471efb95ed22e4ad45fd092bbdff", "fusion_lat": 0.0, "lon": -77.00200833333334, "type": "electric_scooter", "fusion_lon": 0.0, "lat": 38.8921365}, {"rental_uris": {"android": "https://dc.lft.to/lastmile_qr_scan", "ios": "https://dc.lft.to/lastmile_qr_scan"}, "is_reserved": 0, "is_disabled": 0, "name": "47e003ecc97803b2e58322ab3ae83fe0", "bike_id": "47e003ecc97803b2e58322ab3ae83fe0", "fusion_lat": 0.0, "lon": -77.01962816666666, "type": "electric_scooter", "fusion_lon": 0.0, "lat": 38.92321866666666}, {"rental_uris": {"android": "https://dc.lft.to/lastmile_qr_scan", "ios": "https://dc.lft.to/lastmile_qr_scan"}, "is_reserved": 0, "is_disabled": 0, "name": "dee8e5c826cc8fd928d52acd049864ae", "bike_id": "dee8e5c826cc8fd928d52acd049864ae", "fusion_lat": 0.0, "lon": -77.00203883333333, "type": "electric_scooter", "fusion_lon": 0.0, "lat": 38.889658833333336}, {"rental_uris": {"android": "https://dc.lft.to/lastmile_qr_scan", "ios": "https://dc.lft.to/lastmile_qr_scan"}, "is_reserved": 0, "is_disabled": 0, "name": "14aaaf7fca6bdd1a12fbccd98c79f3ac", "bike_id": "14aaaf7fca6bdd1a12fbccd98c79f3ac", "fusion_lat": 0.0, "lon": -77.05434566666666, "type": "electric_scooter", "fusion_lon": 0.0, "lat": 38.92849183333333}, {"rental_uris": {"android": "https://dc.lft.to/lastmile_qr_scan", "ios": "https://dc.lft.to/lastmile_qr_scan"}, "is_reserved": 0, "is_disabled": 0, "name": "fecc04fde5fe4ccbd55eb226d2a98ddd", "bike_id": "fecc04fde5fe4ccbd55eb226d2a98ddd", "fusion_lat": 0.0, "lon": -77.00341966666667, "type": "electric_scooter", "fusion_lon": 0.0, "lat": 38.893589}, {"rental_uris": {"android": "https://dc.lft.to/lastmile_qr_scan", "ios": "https://dc.lft.to/lastmile_qr_scan"}, "is_reserved": 0, "is_disabled": 0, "name": "0508faa8a2a317a48e0580c9928da886", "bike_id": "0508faa8a2a317a48e0580c9928da886", "fusion_lat": 0.0, "lon": -77.02372266666667, "type": "electric_scooter", "fusion_lon": 0.0, "lat": 38.90204283333333}, {"rental_uris": {"android": "https://dc.lft.to/lastmile_qr_scan", "ios": "https://dc.lft.to/lastmile_qr_scan"}, "is_reserved": 0, "is_disabled": 0, "name": "c26c6f735037b5d96ed39c4f7a2deef0", "bike_id": "c26c6f735037b5d96ed39c4f7a2deef0", "fusion_lat": 0.0, "lon": -77.00207833333333, "type": "electric_scooter", "fusion_lon": 0.0, "lat": 38.905116166666666}, {"rental_uris": {"android": "https://dc.lft.to/lastmile_qr_scan", "ios": "https://dc.lft.to/lastmile_qr_scan"}, "is_reserved": 0, "is_disabled": 0, "name": "21310904e07381ffe4afa3884e6d0be2", "bike_id": "21310904e07381ffe4afa3884e6d0be2", "fusion_lat": 0.0, "lon": -77.06370366666667, "type": "electric_scooter", "fusion_lon": 0.0, "lat": 38.92016666666667}, {"rental_uris": {"android": "https://dc.lft.to/lastmile_qr_scan", "ios": "https://dc.lft.to/lastmile_qr_scan"}, "is_reserved": 0, "is_disabled": 0, "name": "4cda19cc134cf4bdd2131af4942d5947", "bike_id": "4cda19cc134cf4bdd2131af4942d5947", "fusion_lat": 0.0, "lon": -77.02350816666667, "type": "electric_scooter", "fusion_lon": 0.0, "lat": 38.9419515}, {"rental_uris": {"android": "https://dc.lft.to/lastmile_qr_scan", "ios": "https://dc.lft.to/lastmile_qr_scan"}, "is_reserved": 0, "is_disabled": 0, "name": "e0da34e0cde67256711a513d172a6a14", "bike_id": "e0da34e0cde67256711a513d172a6a14", "fusion_lat": 0.0, "lon": -77.061069, "type": "electric_scooter", "fusion_lon": 0.0, "lat": 38.9436325}, {"rental_uris": {"android": "https://dc.lft.to/lastmile_qr_scan", "ios": "https://dc.lft.to/lastmile_qr_scan"}, "is_reserved": 0, "is_disabled": 0, "name": "f1af6e27547618a5f78d28a94d591b9d", "bike_id": "f1af6e27547618a5f78d28a94d591b9d", "fusion_lat": 0.0, "lon": -76.96153883333334, "type": "electric_bike", "fusion_lon": 0.0, "lat": 38.856147}, {"rental_uris": {"android": "https://dc.lft.to/lastmile_qr_scan", "ios": "https://dc.lft.to/lastmile_qr_scan"}, "is_reserved": 0, "is_disabled": 0, "name": "0deb14d86d090f1f422fc995aa866b46", "bike_id": "0deb14d86d090f1f422fc995aa866b46", "fusion_lat": 0.0, "lon": -77.025525, "type": "electric_scooter", "fusion_lon": 0.0, "lat": 38.970029}, {"rental_uris": {"android": "https://dc.lft.to/lastmile_qr_scan", "ios": "https://dc.lft.to/lastmile_qr_scan"}, "is_reserved": 0, "is_disabled": 0, "name": "3795c34bef18846b2f21a9b55484af44", "bike_id": "3795c34bef18846b2f21a9b55484af44", "fusion_lat": 0.0, "lon": -77.040433, "type": "electric_scooter", "fusion_lon": 0.0, "lat": 38.9185505}, {"rental_uris": {"android": "https://dc.lft.to/lastmile_qr_scan", "ios": "https://dc.lft.to/lastmile_qr_scan"}, "is_reserved": 0, "is_disabled": 0, "name": "4c6b6290140093525967df869f60c750", "bike_id": "4c6b6290140093525967df869f60c750", "fusion_lat": 0.0, "lon": -77.05394333333334, "type": "electric_scooter", "fusion_lon": 0.0, "lat": 38.9233245}, {"rental_uris": {"android": "https://dc.lft.to/lastmile_qr_scan", "ios": "https://dc.lft.to/lastmile_qr_scan"}, "is_reserved": 0, "is_disabled": 0, "name": "e5fefe25fd8e62bda62491206b50e248", "bike_id": "e5fefe25fd8e62bda62491206b50e248", "fusion_lat": 0.0, "lon": -77.00292683333333, "type": "electric_scooter", "fusion_lon": 0.0, "lat": 38.89361266666667}, {"rental_uris": {"android": "https://dc.lft.to/lastmile_qr_scan", "ios": "https://dc.lft.to/lastmile_qr_scan"}, "is_reserved": 0, "is_disabled": 0, "name": "2bf9e22ee31e7a54359fa39538791b08", "bike_id": "2bf9e22ee31e7a54359fa39538791b08", "fusion_lat": 0.0, "lon": -77.0409005, "type": "electric_scooter", "fusion_lon": 0.0, "lat": 38.91685733333333}, {"rental_uris": {"android": "https://dc.lft.to/lastmile_qr_scan", "ios": "https://dc.lft.to/lastmile_qr_scan"}, "is_reserved": 0, "is_disabled": 0, "name": "530842dd4f035a48e48f9b12ebe08679", "bike_id": "530842dd4f035a48e48f9b12ebe08679", "fusion_lat": 0.0, "lon": -77.04003416666667, "type": "electric_scooter", "fusion_lon": 0.0, "lat": 38.901390666666664}, {"rental_uris": {"android": "https://dc.lft.to/lastmile_qr_scan", "ios": "https://dc.lft.to/lastmile_qr_scan"}, "is_reserved": 0, "is_disabled": 0, "name": "9aec6406c72dada246576cc661f06bc9", "bike_id": "9aec6406c72dada246576cc661f06bc9", "fusion_lat": 0.0, "lon": -77.04154066666666, "type": "electric_scooter", "fusion_lon": 0.0, "lat": 38.90303566666667}, {"rental_uris": {"android": "https://dc.lft.to/lastmile_qr_scan", "ios": "https://dc.lft.to/lastmile_qr_scan"}, "is_reserved": 0, "is_disabled": 0, "name": "e19563d9f105b67922729264a2aefa32", "bike_id": "e19563d9f105b67922729264a2aefa32", "fusion_lat": 0.0, "lon": -77.04488266666667, "type": "electric_scooter", "fusion_lon": 0.0, "lat": 38.903823333333335}, {"rental_uris": {"android": "https://dc.lft.to/lastmile_qr_scan", "ios": "https://dc.lft.to/lastmile_qr_scan"}, "is_reserved": 0, "is_disabled": 0, "name": "21d11173020259c04f2bca94216574b4", "bike_id": "21d11173020259c04f2bca94216574b4", "fusion_lat": 0.0, "lon": -77.04566983333333, "type": "electric_scooter", "fusion_lon": 0.0, "lat": 38.903604333333334}, {"rental_uris": {"android": "https://dc.lft.to/lastmile_qr_scan", "ios": "https://dc.lft.to/lastmile_qr_scan"}, "is_reserved": 0, "is_disabled": 0, "name": "72ca3040643b3e7b4fa86d033122a95d", "bike_id": "72ca3040643b3e7b4fa86d033122a95d", "fusion_lat": 0.0, "lon": -77.02188916666667, "type": "electric_scooter", "fusion_lon": 0.0, "lat": 38.90849433333333}, {"rental_uris": {"android": "https://dc.lft.to/lastmile_qr_scan", "ios": "https://dc.lft.to/lastmile_qr_scan"}, "is_reserved": 0, "is_disabled": 0, "name": "1e0865075dffe197d14915d1c1d9550a", "bike_id": "1e0865075dffe197d14915d1c1d9550a", "fusion_lat": 0.0, "lon": -77.04349783333333, "type": "electric_scooter", "fusion_lon": 0.0, "lat": 38.90101966666667}, {"rental_uris": {"android": "https://dc.lft.to/lastmile_qr_scan", "ios": "https://dc.lft.to/lastmile_qr_scan"}, "is_reserved": 0, "is_disabled": 0, "name": "c14c47f16589809c10e99b1fcea3d17c", "bike_id": "c14c47f16589809c10e99b1fcea3d17c", "fusion_lat": 0.0, "lon": -77.04499466666667, "type": "electric_scooter", "fusion_lon": 0.0, "lat": 38.915113166666664}, {"rental_uris": {"android": "https://dc.lft.to/lastmile_qr_scan", "ios": "https://dc.lft.to/lastmile_qr_scan"}, "is_reserved": 0, "is_disabled": 0, "name": "7a949efa1b38aad6e2efc7d9ea1076e5", "bike_id": "7a949efa1b38aad6e2efc7d9ea1076e5", "fusion_lat": 0.0, "lon": -76.94388266666667, "type": "electric_scooter", "fusion_lon": 0.0, "lat": 38.89116583333333}, {"rental_uris": {"android": "https://dc.lft.to/lastmile_qr_scan", "ios": "https://dc.lft.to/lastmile_qr_scan"}, "is_reserved": 0, "is_disabled": 0, "name": "6359437389d0cebc49ae33d9fa1c3fb6", "bike_id": "6359437389d0cebc49ae33d9fa1c3fb6", "fusion_lat": 0.0, "lon": -77.061045, "type": "electric_scooter", "fusion_lon": 0.0, "lat": 38.905299166666666}, {"rental_uris": {"android": "https://dc.lft.to/lastmile_qr_scan", "ios": "https://dc.lft.to/lastmile_qr_scan"}, "is_reserved": 0, "is_disabled": 0, "name": "8513fab4a388e1d9f321bcb3444ed20b", "bike_id": "8513fab4a388e1d9f321bcb3444ed20b", "fusion_lat": 0.0, "lon": -77.09525366666666, "type": "electric_bike", "fusion_lon": 0.0, "lat": 38.8380845}, {"rental_uris": {"android": "https://dc.lft.to/lastmile_qr_scan", "ios": "https://dc.lft.to/lastmile_qr_scan"}, "is_reserved": 0, "is_disabled": 0, "name": "292f67c644717a515c1954a52503a855", "bike_id": "292f67c644717a515c1954a52503a855", "fusion_lat": 0.0, "lon": -77.0114245, "type": "electric_scooter", "fusion_lon": 0.0, "lat": 38.900287}, {"rental_uris": {"android": "https://dc.lft.to/lastmile_qr_scan", "ios": "https://dc.lft.to/lastmile_qr_scan"}, "is_reserved": 0, "is_disabled": 0, "name": "d85858906b2bfcc253ae7588dcd1694c", "bike_id": "d85858906b2bfcc253ae7588dcd1694c", "fusion_lat": 0.0, "lon": -77.046109, "type": "electric_scooter", "fusion_lon": 0.0, "lat": 38.916865}, {"rental_uris": {"android": "https://dc.lft.to/lastmile_qr_scan", "ios": "https://dc.lft.to/lastmile_qr_scan"}, "is_reserved": 0, "is_disabled": 0, "name": "e98dccf4e08b2049f403b2d913de360d", "bike_id": "e98dccf4e08b2049f403b2d913de360d", "fusion_lat": 0.0, "lon": -77.02342383333334, "type": "electric_scooter", "fusion_lon": 0.0, "lat": 38.95733883333333}, {"rental_uris": {"android": "https://dc.lft.to/lastmile_qr_scan", "ios": "https://dc.lft.to/lastmile_qr_scan"}, "is_reserved": 0, "is_disabled": 0, "name": "4b257f6abb4706f91644b285b023cecc", "bike_id": "4b257f6abb4706f91644b285b023cecc", "fusion_lat": 0.0, "lon": -77.0383955, "type": "electric_scooter", "fusion_lon": 0.0, "lat": 38.91676916666667}, {"rental_uris": {"android": "https://dc.lft.to/lastmile_qr_scan", "ios": "https://dc.lft.to/lastmile_qr_scan"}, "is_reserved": 0, "is_disabled": 0, "name": "9ecfe04b1dbd951168d0e1f57eac0821", "bike_id": "9ecfe04b1dbd951168d0e1f57eac0821", "fusion_lat": 0.0, "lon": -77.0417445, "type": "electric_scooter", "fusion_lon": 0.0, "lat": 38.917298}, {"rental_uris": {"android": "https://dc.lft.to/lastmile_qr_scan", "ios": "https://dc.lft.to/lastmile_qr_scan"}, "is_reserved": 0, "is_disabled": 0, "name": "7b6914b6a2e95f79abf98340e1109ad3", "bike_id": "7b6914b6a2e95f79abf98340e1109ad3", "fusion_lat": 0.0, "lon": -77.02946266666666, "type": "electric_scooter", "fusion_lon": 0.0, "lat": 38.897520166666666}, {"rental_uris": {"android": "https://dc.lft.to/lastmile_qr_scan", "ios": "https://dc.lft.to/lastmile_qr_scan"}, "is_reserved": 0, "is_disabled": 0, "name": "4408aa9c775cff9beb56c24524114776", "bike_id": "4408aa9c775cff9beb56c24524114776", "fusion_lat": 0.0, "lon": -77.039928, "type": "electric_scooter", "fusion_lon": 0.0, "lat": 38.934024}, {"rental_uris": {"android": "https://dc.lft.to/lastmile_qr_scan", "ios": "https://dc.lft.to/lastmile_qr_scan"}, "is_reserved": 0, "is_disabled": 0, "name": "a6e9122b0ac2ce1c441de34ec8628cd3", "bike_id": "a6e9122b0ac2ce1c441de34ec8628cd3", "fusion_lat": 0.0, "lon": -77.04312633333333, "type": "electric_scooter", "fusion_lon": 0.0, "lat": 38.918715166666665}, {"rental_uris": {"android": "https://dc.lft.to/lastmile_qr_scan", "ios": "https://dc.lft.to/lastmile_qr_scan"}, "is_reserved": 0, "is_disabled": 0, "name": "7addf136d5a6277bca02cfb09ea809e4", "bike_id": "7addf136d5a6277bca02cfb09ea809e4", "fusion_lat": 0.0, "lon": -77.023103, "type": "electric_scooter", "fusion_lon": 0.0, "lat": 38.878789833333336}, {"rental_uris": {"android": "https://dc.lft.to/lastmile_qr_scan", "ios": "https://dc.lft.to/lastmile_qr_scan"}, "is_reserved": 0, "is_disabled": 0, "name": "f01b515f1778176abdbb543129e3391c", "bike_id": "f01b515f1778176abdbb543129e3391c", "fusion_lat": 0.0, "lon": -77.0484155, "type": "electric_scooter", "fusion_lon": 0.0, "lat": 38.9003755}, {"rental_uris": {"android": "https://dc.lft.to/lastmile_qr_scan", "ios": "https://dc.lft.to/lastmile_qr_scan"}, "is_reserved": 0, "is_disabled": 0, "name": "09b779c98613daa33a606400699f61aa", "bike_id": "09b779c98613daa33a606400699f61aa", "fusion_lat": 0.0, "lon": -77.003381, "type": "electric_scooter", "fusion_lon": 0.0, "lat": 38.89359783333333}, {"rental_uris": {"android": "https://dc.lft.to/lastmile_qr_scan", "ios": "https://dc.lft.to/lastmile_qr_scan"}, "is_reserved": 0, "is_disabled": 0, "name": "a8361c890e6ff7972efc5a82b29de9d4", "bike_id": "a8361c890e6ff7972efc5a82b29de9d4", "fusion_lat": 0.0, "lon": -77.04351966666667, "type": "electric_scooter", "fusion_lon": 0.0, "lat": 38.901408}, {"rental_uris": {"android": "https://dc.lft.to/lastmile_qr_scan", "ios": "https://dc.lft.to/lastmile_qr_scan"}, "is_reserved": 0, "is_disabled": 0, "name": "1b4216fedfe9ca368ce5c0eda58f17ff", "bike_id": "1b4216fedfe9ca368ce5c0eda58f17ff", "fusion_lat": 0.0, "lon": -77.03168066666667, "type": "electric_scooter", "fusion_lon": 0.0, "lat": 38.90210066666667}, {"rental_uris": {"android": "https://dc.lft.to/lastmile_qr_scan", "ios": "https://dc.lft.to/lastmile_qr_scan"}, "is_reserved": 0, "is_disabled": 0, "name": "192edbea227442a9dd8f7915cac67adc", "bike_id": "192edbea227442a9dd8f7915cac67adc", "fusion_lat": 0.0, "lon": -77.02994666666666, "type": "electric_scooter", "fusion_lon": 0.0, "lat": 38.924641333333334}, {"rental_uris": {"android": "https://dc.lft.to/lastmile_qr_scan", "ios": "https://dc.lft.to/lastmile_qr_scan"}, "is_reserved": 0, "is_disabled": 0, "name": "8d6f05e806711aca8599d6241a6ae095", "bike_id": "8d6f05e806711aca8599d6241a6ae095", "fusion_lat": 0.0, "lon": -77.07667366666666, "type": "electric_bike", "fusion_lon": 0.0, "lat": 38.809757166666664}, {"rental_uris": {"android": "https://dc.lft.to/lastmile_qr_scan", "ios": "https://dc.lft.to/lastmile_qr_scan"}, "is_reserved": 0, "is_disabled": 0, "name": "e20bce21c0e8440d066c1e41b4ce2f84", "bike_id": "e20bce21c0e8440d066c1e41b4ce2f84", "fusion_lat": 0.0, "lon": -77.02293866666666, "type": "electric_scooter", "fusion_lon": 0.0, "lat": 38.9241975}, {"rental_uris": {"android": "https://dc.lft.to/lastmile_qr_scan", "ios": "https://dc.lft.to/lastmile_qr_scan"}, "is_reserved": 0, "is_disabled": 0, "name": "5dedeb3166170b147583dd005211c37c", "bike_id": "5dedeb3166170b147583dd005211c37c", "fusion_lat": 0.0, "lon": -77.1010615, "type": "electric_bike", "fusion_lon": 0.0, "lat": 38.989375}, {"rental_uris": {"android": "https://dc.lft.to/lastmile_qr_scan", "ios": "https://dc.lft.to/lastmile_qr_scan"}, "is_reserved": 0, "is_disabled": 0, "name": "33b12ee681bb0dcb72d9dfd2a43b1465", "bike_id": "33b12ee681bb0dcb72d9dfd2a43b1465", "fusion_lat": 0.0, "lon": -77.02999566666666, "type": "electric_scooter", "fusion_lon": 0.0, "lat": 38.8976435}, {"rental_uris": {"android": "https://dc.lft.to/lastmile_qr_scan", "ios": "https://dc.lft.to/lastmile_qr_scan"}, "is_reserved": 0, "is_disabled": 0, "name": "8207af0fe399a2899e67049c9c17430a", "bike_id": "8207af0fe399a2899e67049c9c17430a", "fusion_lat": 0.0, "lon": -77.02693466666666, "type": "electric_scooter", "fusion_lon": 0.0, "lat": 38.91276766666667}, {"rental_uris": {"android": "https://dc.lft.to/lastmile_qr_scan", "ios": "https://dc.lft.to/lastmile_qr_scan"}, "is_reserved": 0, "is_disabled": 0, "name": "4f7bd9fa882aacde5001a5a4b1f3665d", "bike_id": "4f7bd9fa882aacde5001a5a4b1f3665d", "fusion_lat": 0.0, "lon": -77.000596, "type": "electric_scooter", "fusion_lon": 0.0, "lat": 38.87880366666667}, {"rental_uris": {"android": "https://dc.lft.to/lastmile_qr_scan", "ios": "https://dc.lft.to/lastmile_qr_scan"}, "is_reserved": 0, "is_disabled": 0, "name": "39234b4ee05994994d4eb1bfffe573b4", "bike_id": "39234b4ee05994994d4eb1bfffe573b4", "fusion_lat": 0.0, "lon": -77.01967116666667, "type": "electric_scooter", "fusion_lon": 0.0, "lat": 38.919245833333335}, {"rental_uris": {"android": "https://dc.lft.to/lastmile_qr_scan", "ios": "https://dc.lft.to/lastmile_qr_scan"}, "is_reserved": 0, "is_disabled": 0, "name": "34d648e4c142e55369d7b134a8facbcb", "bike_id": "34d648e4c142e55369d7b134a8facbcb", "fusion_lat": 0.0, "lon": -77.0338645, "type": "electric_scooter", "fusion_lon": 0.0, "lat": 38.90137516666667}, {"rental_uris": {"android": "https://dc.lft.to/lastmile_qr_scan", "ios": "https://dc.lft.to/lastmile_qr_scan"}, "is_reserved": 0, "is_disabled": 0, "name": "5f9f321d57391df508e9ceb25ce6f17d", "bike_id": "5f9f321d57391df508e9ceb25ce6f17d", "fusion_lat": 0.0, "lon": -77.02182066666667, "type": "electric_scooter", "fusion_lon": 0.0, "lat": 38.924883}, {"rental_uris": {"android": "https://dc.lft.to/lastmile_qr_scan", "ios": "https://dc.lft.to/lastmile_qr_scan"}, "is_reserved": 0, "is_disabled": 0, "name": "8be63db201e77d830bd3797e25c55884", "bike_id": "8be63db201e77d830bd3797e25c55884", "fusion_lat": 0.0, "lon": -76.9418515, "type": "electric_scooter", "fusion_lon": 0.0, "lat": 38.8975675}, {"rental_uris": {"android": "https://dc.lft.to/lastmile_qr_scan", "ios": "https://dc.lft.to/lastmile_qr_scan"}, "is_reserved": 0, "is_disabled": 0, "name": "3166bbe65c208e401a199805b0fee043", "bike_id": "3166bbe65c208e401a199805b0fee043", "fusion_lat": 0.0, "lon": -77.03800383333333, "type": "electric_scooter", "fusion_lon": 0.0, "lat": 38.925861833333336}, {"rental_uris": {"android": "https://dc.lft.to/lastmile_qr_scan", "ios": "https://dc.lft.to/lastmile_qr_scan"}, "is_reserved": 0, "is_disabled": 0, "name": "99ece8956017dcbf1884103767b2262e", "bike_id": "99ece8956017dcbf1884103767b2262e", "fusion_lat": 0.0, "lon": -76.97826383333333, "type": "electric_scooter", "fusion_lon": 0.0, "lat": 38.893908833333334}, {"rental_uris": {"android": "https://dc.lft.to/lastmile_qr_scan", "ios": "https://dc.lft.to/lastmile_qr_scan"}, "is_reserved": 0, "is_disabled": 0, "name": "a38f233ca381b8a9d556ef710503c612", "bike_id": "a38f233ca381b8a9d556ef710503c612", "fusion_lat": 0.0, "lon": -77.0164905, "type": "electric_scooter", "fusion_lon": 0.0, "lat": 38.8813465}, {"rental_uris": {"android": "https://dc.lft.to/lastmile_qr_scan", "ios": "https://dc.lft.to/lastmile_qr_scan"}, "is_reserved": 0, "is_disabled": 0, "name": "6fd6939334217a819cac4c5915af467c", "bike_id": "6fd6939334217a819cac4c5915af467c", "fusion_lat": 0.0, "lon": -77.03429166666666, "type": "electric_scooter", "fusion_lon": 0.0, "lat": 38.91920283333333}, {"rental_uris": {"android": "https://dc.lft.to/lastmile_qr_scan", "ios": "https://dc.lft.to/lastmile_qr_scan"}, "is_reserved": 0, "is_disabled": 0, "name": "cee9c007b05d0ae2da282e32a3d2e655", "bike_id": "cee9c007b05d0ae2da282e32a3d2e655", "fusion_lat": 0.0, "lon": -77.0409105, "type": "electric_scooter", "fusion_lon": 0.0, "lat": 38.896414}, {"rental_uris": {"android": "https://dc.lft.to/lastmile_qr_scan", "ios": "https://dc.lft.to/lastmile_qr_scan"}, "is_reserved": 0, "is_disabled": 0, "name": "5683b91f7d2b404168be2ab9cd2a325c", "bike_id": "5683b91f7d2b404168be2ab9cd2a325c", "fusion_lat": 0.0, "lon": -77.04887416666666, "type": "electric_scooter", "fusion_lon": 0.0, "lat": 38.89782133333333}, {"rental_uris": {"android": "https://dc.lft.to/lastmile_qr_scan", "ios": "https://dc.lft.to/lastmile_qr_scan"}, "is_reserved": 0, "is_disabled": 0, "name": "2b2c90dbb99d2e2d863ac85519257f6a", "bike_id": "2b2c90dbb99d2e2d863ac85519257f6a", "fusion_lat": 0.0, "lon": -77.03702533333333, "type": "electric_scooter", "fusion_lon": 0.0, "lat": 38.92624466666667}, {"rental_uris": {"android": "https://dc.lft.to/lastmile_qr_scan", "ios": "https://dc.lft.to/lastmile_qr_scan"}, "is_reserved": 0, "is_disabled": 0, "name": "8c49312010fb9f7f5b6c42e18dcf2a35", "bike_id": "8c49312010fb9f7f5b6c42e18dcf2a35", "fusion_lat": 0.0, "lon": -77.00129866666667, "type": "electric_scooter", "fusion_lon": 0.0, "lat": 38.876191}, {"rental_uris": {"android": "https://dc.lft.to/lastmile_qr_scan", "ios": "https://dc.lft.to/lastmile_qr_scan"}, "is_reserved": 0, "is_disabled": 0, "name": "90632d609925478dd455744d462c3f8d", "bike_id": "90632d609925478dd455744d462c3f8d", "fusion_lat": 0.0, "lon": -77.02954183333334, "type": "electric_scooter", "fusion_lon": 0.0, "lat": 38.917042}, {"rental_uris": {"android": "https://dc.lft.to/lastmile_qr_scan", "ios": "https://dc.lft.to/lastmile_qr_scan"}, "is_reserved": 0, "is_disabled": 0, "name": "bcf2ee02c05b8cbc32472cdd13021d1a", "bike_id": "bcf2ee02c05b8cbc32472cdd13021d1a", "fusion_lat": 0.0, "lon": -77.03561783333333, "type": "electric_scooter", "fusion_lon": 0.0, "lat": 38.92472016666667}, {"rental_uris": {"android": "https://dc.lft.to/lastmile_qr_scan", "ios": "https://dc.lft.to/lastmile_qr_scan"}, "is_reserved": 0, "is_disabled": 0, "name": "1c9f1f75d121454220231cdd9183d8d3", "bike_id": "1c9f1f75d121454220231cdd9183d8d3", "fusion_lat": 0.0, "lon": -77.02821716666666, "type": "electric_scooter", "fusion_lon": 0.0, "lat": 38.931271}, {"rental_uris": {"android": "https://dc.lft.to/lastmile_qr_scan", "ios": "https://dc.lft.to/lastmile_qr_scan"}, "is_reserved": 0, "is_disabled": 0, "name": "8c5ea9c4d21a21e5a196092c3f3be3e2", "bike_id": "8c5ea9c4d21a21e5a196092c3f3be3e2", "fusion_lat": 0.0, "lon": -77.03342966666666, "type": "electric_scooter", "fusion_lon": 0.0, "lat": 38.935093}, {"rental_uris": {"android": "https://dc.lft.to/lastmile_qr_scan", "ios": "https://dc.lft.to/lastmile_qr_scan"}, "is_reserved": 0, "is_disabled": 0, "name": "0fa8615e3a0f9f6cf9049b19af48789f", "bike_id": "0fa8615e3a0f9f6cf9049b19af48789f", "fusion_lat": 0.0, "lon": -77.00365016666667, "type": "electric_scooter", "fusion_lon": 0.0, "lat": 38.88261766666667}, {"rental_uris": {"android": "https://dc.lft.to/lastmile_qr_scan", "ios": "https://dc.lft.to/lastmile_qr_scan"}, "is_reserved": 0, "is_disabled": 0, "name": "9a6ead2695bab7b626258e612784a595", "bike_id": "9a6ead2695bab7b626258e612784a595", "fusion_lat": 0.0, "lon": -77.02374133333333, "type": "electric_scooter", "fusion_lon": 0.0, "lat": 38.892225333333336}, {"rental_uris": {"android": "https://dc.lft.to/lastmile_qr_scan", "ios": "https://dc.lft.to/lastmile_qr_scan"}, "is_reserved": 0, "is_disabled": 0, "name": "696c01e8793e418bb4a41485518d6fc6", "bike_id": "696c01e8793e418bb4a41485518d6fc6", "fusion_lat": 0.0, "lon": -77.12891983333333, "type": "electric_bike", "fusion_lon": 0.0, "lat": 38.9059995}, {"rental_uris": {"android": "https://dc.lft.to/lastmile_qr_scan", "ios": "https://dc.lft.to/lastmile_qr_scan"}, "is_reserved": 0, "is_disabled": 0, "name": "75a43f7054396fe181fb39c9d8e88966", "bike_id": "75a43f7054396fe181fb39c9d8e88966", "fusion_lat": 0.0, "lon": -77.0151125, "type": "electric_scooter", "fusion_lon": 0.0, "lat": 38.8933005}, {"rental_uris": {"android": "https://dc.lft.to/lastmile_qr_scan", "ios": "https://dc.lft.to/lastmile_qr_scan"}, "is_reserved": 0, "is_disabled": 0, "name": "c2e5312dc89f2b17e08757ba4e7d18d4", "bike_id": "c2e5312dc89f2b17e08757ba4e7d18d4", "fusion_lat": 0.0, "lon": -77.007432, "type": "electric_scooter", "fusion_lon": 0.0, "lat": 38.8983875}, {"rental_uris": {"android": "https://dc.lft.to/lastmile_qr_scan", "ios": "https://dc.lft.to/lastmile_qr_scan"}, "is_reserved": 0, "is_disabled": 0, "name": "8a0e9efca4c8075c500ac81e972593ff", "bike_id": "8a0e9efca4c8075c500ac81e972593ff", "fusion_lat": 0.0, "lon": -76.96892066666666, "type": "electric_bike", "fusion_lon": 0.0, "lat": 38.8697995}, {"rental_uris": {"android": "https://dc.lft.to/lastmile_qr_scan", "ios": "https://dc.lft.to/lastmile_qr_scan"}, "is_reserved": 0, "is_disabled": 0, "name": "d7a29db33a30fafd16f416d6e45df402", "bike_id": "d7a29db33a30fafd16f416d6e45df402", "fusion_lat": 0.0, "lon": -77.01959766666667, "type": "electric_scooter", "fusion_lon": 0.0, "lat": 38.92325}, {"rental_uris": {"android": "https://dc.lft.to/lastmile_qr_scan", "ios": "https://dc.lft.to/lastmile_qr_scan"}, "is_reserved": 0, "is_disabled": 0, "name": "82f362d4b9a8db2a9578cde64c129dd6", "bike_id": "82f362d4b9a8db2a9578cde64c129dd6", "fusion_lat": 0.0, "lon": -77.04006516666666, "type": "electric_scooter", "fusion_lon": 0.0, "lat": 38.93424366666667}, {"rental_uris": {"android": "https://dc.lft.to/lastmile_qr_scan", "ios": "https://dc.lft.to/lastmile_qr_scan"}, "is_reserved": 0, "is_disabled": 0, "name": "f9e7eb99cdb89ee20dd1b6aca93eb767", "bike_id": "f9e7eb99cdb89ee20dd1b6aca93eb767", "fusion_lat": 0.0, "lon": -77.04014666666667, "type": "electric_scooter", "fusion_lon": 0.0, "lat": 38.917983666666665}, {"rental_uris": {"android": "https://dc.lft.to/lastmile_qr_scan", "ios": "https://dc.lft.to/lastmile_qr_scan"}, "is_reserved": 0, "is_disabled": 0, "name": "716a72de7db9470f21fd167f51dd1751", "bike_id": "716a72de7db9470f21fd167f51dd1751", "fusion_lat": 0.0, "lon": -76.982409, "type": "electric_scooter", "fusion_lon": 0.0, "lat": 38.90887883333333}, {"rental_uris": {"android": "https://dc.lft.to/lastmile_qr_scan", "ios": "https://dc.lft.to/lastmile_qr_scan"}, "is_reserved": 0, "is_disabled": 0, "name": "8871096daf125700f98fee64089c525f", "bike_id": "8871096daf125700f98fee64089c525f", "fusion_lat": 0.0, "lon": -76.99014233333334, "type": "electric_scooter", "fusion_lon": 0.0, "lat": 38.89208216666667}, {"rental_uris": {"android": "https://dc.lft.to/lastmile_qr_scan", "ios": "https://dc.lft.to/lastmile_qr_scan"}, "is_reserved": 0, "is_disabled": 0, "name": "33f0ff4ac68a1cb4101e838bb9d7d12d", "bike_id": "33f0ff4ac68a1cb4101e838bb9d7d12d", "fusion_lat": 0.0, "lon": -77.02321866666666, "type": "electric_scooter", "fusion_lon": 0.0, "lat": 38.918287166666666}, {"rental_uris": {"android": "https://dc.lft.to/lastmile_qr_scan", "ios": "https://dc.lft.to/lastmile_qr_scan"}, "is_reserved": 0, "is_disabled": 0, "name": "6699cc9ace687ab4d89be7ffc3f6da8e", "bike_id": "6699cc9ace687ab4d89be7ffc3f6da8e", "fusion_lat": 0.0, "lon": -76.932259, "type": "electric_scooter", "fusion_lon": 0.0, "lat": 38.88058233333334}, {"rental_uris": {"android": "https://dc.lft.to/lastmile_qr_scan", "ios": "https://dc.lft.to/lastmile_qr_scan"}, "is_reserved": 0, "is_disabled": 0, "name": "c91ad1ee75d07418ddf60ad89236c6f5", "bike_id": "c91ad1ee75d07418ddf60ad89236c6f5", "fusion_lat": 0.0, "lon": -77.01649133333333, "type": "electric_bike", "fusion_lon": 0.0, "lat": 38.881099166666665}, {"rental_uris": {"android": "https://dc.lft.to/lastmile_qr_scan", "ios": "https://dc.lft.to/lastmile_qr_scan"}, "is_reserved": 0, "is_disabled": 0, "name": "7bf90cedfe54b6fda017a5c9f7023ff5", "bike_id": "7bf90cedfe54b6fda017a5c9f7023ff5", "fusion_lat": 0.0, "lon": -77.04507833333334, "type": "electric_scooter", "fusion_lon": 0.0, "lat": 38.914100166666664}, {"rental_uris": {"android": "https://dc.lft.to/lastmile_qr_scan", "ios": "https://dc.lft.to/lastmile_qr_scan"}, "is_reserved": 0, "is_disabled": 0, "name": "7d96d07608ce5d83d93cd9d081b3f1d1", "bike_id": "7d96d07608ce5d83d93cd9d081b3f1d1", "fusion_lat": 0.0, "lon": -77.04127533333333, "type": "electric_scooter", "fusion_lon": 0.0, "lat": 38.901646166666666}, {"rental_uris": {"android": "https://dc.lft.to/lastmile_qr_scan", "ios": "https://dc.lft.to/lastmile_qr_scan"}, "is_reserved": 0, "is_disabled": 0, "name": "37d5d7467e6743b1d1d078b8b189bf73", "bike_id": "37d5d7467e6743b1d1d078b8b189bf73", "fusion_lat": 0.0, "lon": -76.94669583333334, "type": "electric_scooter", "fusion_lon": 0.0, "lat": 38.898657666666665}, {"rental_uris": {"android": "https://dc.lft.to/lastmile_qr_scan", "ios": "https://dc.lft.to/lastmile_qr_scan"}, "is_reserved": 0, "is_disabled": 0, "name": "5a555bd244215ab7da46b798117f902c", "bike_id": "5a555bd244215ab7da46b798117f902c", "fusion_lat": 0.0, "lon": -77.03838716666667, "type": "electric_scooter", "fusion_lon": 0.0, "lat": 38.902638833333334}, {"rental_uris": {"android": "https://dc.lft.to/lastmile_qr_scan", "ios": "https://dc.lft.to/lastmile_qr_scan"}, "is_reserved": 0, "is_disabled": 0, "name": "3ad03b01d8ba8d0c834759c9fd441265", "bike_id": "3ad03b01d8ba8d0c834759c9fd441265", "fusion_lat": 0.0, "lon": -77.03521633333334, "type": "electric_scooter", "fusion_lon": 0.0, "lat": 38.92260116666667}, {"rental_uris": {"android": "https://dc.lft.to/lastmile_qr_scan", "ios": "https://dc.lft.to/lastmile_qr_scan"}, "is_reserved": 0, "is_disabled": 0, "name": "3d72a5201f9eec713ef5f2ff220589e6", "bike_id": "3d72a5201f9eec713ef5f2ff220589e6", "fusion_lat": 0.0, "lon": -77.02217083333333, "type": "electric_scooter", "fusion_lon": 0.0, "lat": 38.91414483333333}, {"rental_uris": {"android": "https://dc.lft.to/lastmile_qr_scan", "ios": "https://dc.lft.to/lastmile_qr_scan"}, "is_reserved": 0, "is_disabled": 0, "name": "8ef710d4186d99dc75f5a47ca1fcabe0", "bike_id": "8ef710d4186d99dc75f5a47ca1fcabe0", "fusion_lat": 0.0, "lon": -76.99059466666667, "type": "electric_bike", "fusion_lon": 0.0, "lat": 38.93755783333334}, {"rental_uris": {"android": "https://dc.lft.to/lastmile_qr_scan", "ios": "https://dc.lft.to/lastmile_qr_scan"}, "is_reserved": 0, "is_disabled": 0, "name": "79585348f8b4ad08fd63a5e1e46f3091", "bike_id": "79585348f8b4ad08fd63a5e1e46f3091", "fusion_lat": 0.0, "lon": -76.99003783333333, "type": "electric_scooter", "fusion_lon": 0.0, "lat": 38.86432083333333}, {"rental_uris": {"android": "https://dc.lft.to/lastmile_qr_scan", "ios": "https://dc.lft.to/lastmile_qr_scan"}, "is_reserved": 0, "is_disabled": 0, "name": "7987e9eec8455f00928c74beb76f5845", "bike_id": "7987e9eec8455f00928c74beb76f5845", "fusion_lat": 0.0, "lon": -77.0488105, "type": "electric_scooter", "fusion_lon": 0.0, "lat": 38.89957416666667}, {"rental_uris": {"android": "https://dc.lft.to/lastmile_qr_scan", "ios": "https://dc.lft.to/lastmile_qr_scan"}, "is_reserved": 0, "is_disabled": 0, "name": "7f18ea1a66482a8768dc9147a2ce6f36", "bike_id": "7f18ea1a66482a8768dc9147a2ce6f36", "fusion_lat": 0.0, "lon": -77.03208333333333, "type": "electric_scooter", "fusion_lon": 0.0, "lat": 38.91780466666667}, {"rental_uris": {"android": "https://dc.lft.to/lastmile_qr_scan", "ios": "https://dc.lft.to/lastmile_qr_scan"}, "is_reserved": 0, "is_disabled": 0, "name": "b116522e7d09e4e2ea23ca1a20dbffe4", "bike_id": "b116522e7d09e4e2ea23ca1a20dbffe4", "fusion_lat": 0.0, "lon": -76.98239066666666, "type": "electric_scooter", "fusion_lon": 0.0, "lat": 38.86886833333333}, {"rental_uris": {"android": "https://dc.lft.to/lastmile_qr_scan", "ios": "https://dc.lft.to/lastmile_qr_scan"}, "is_reserved": 0, "is_disabled": 0, "name": "f51557a7678d46f9d2f3bd43556bb43e", "bike_id": "f51557a7678d46f9d2f3bd43556bb43e", "fusion_lat": 0.0, "lon": -77.02486683333333, "type": "electric_scooter", "fusion_lon": 0.0, "lat": 38.91923283333333}, {"rental_uris": {"android": "https://dc.lft.to/lastmile_qr_scan", "ios": "https://dc.lft.to/lastmile_qr_scan"}, "is_reserved": 0, "is_disabled": 0, "name": "6d52c5479913245943e21c9dd68d367c", "bike_id": "6d52c5479913245943e21c9dd68d367c", "fusion_lat": 0.0, "lon": -77.05412733333333, "type": "electric_scooter", "fusion_lon": 0.0, "lat": 38.9006615}, {"rental_uris": {"android": "https://dc.lft.to/lastmile_qr_scan", "ios": "https://dc.lft.to/lastmile_qr_scan"}, "is_reserved": 0, "is_disabled": 0, "name": "6a344ff0cd1e6fbfa65d846a6338330f", "bike_id": "6a344ff0cd1e6fbfa65d846a6338330f", "fusion_lat": 0.0, "lon": -77.03925466666666, "type": "electric_scooter", "fusion_lon": 0.0, "lat": 38.9248335}, {"rental_uris": {"android": "https://dc.lft.to/lastmile_qr_scan", "ios": "https://dc.lft.to/lastmile_qr_scan"}, "is_reserved": 0, "is_disabled": 0, "name": "cf16f5c671df06773d51c1de361a2422", "bike_id": "cf16f5c671df06773d51c1de361a2422", "fusion_lat": 0.0, "lon": -77.02574833333334, "type": "electric_scooter", "fusion_lon": 0.0, "lat": 38.926951}, {"rental_uris": {"android": "https://dc.lft.to/lastmile_qr_scan", "ios": "https://dc.lft.to/lastmile_qr_scan"}, "is_reserved": 0, "is_disabled": 0, "name": "aecb0f1e3b498b95b6e064a85769897b", "bike_id": "aecb0f1e3b498b95b6e064a85769897b", "fusion_lat": 0.0, "lon": -77.04866366666667, "type": "electric_scooter", "fusion_lon": 0.0, "lat": 38.892209333333334}, {"rental_uris": {"android": "https://dc.lft.to/lastmile_qr_scan", "ios": "https://dc.lft.to/lastmile_qr_scan"}, "is_reserved": 0, "is_disabled": 0, "name": "3045133f998c82911ed67a34671cdfc6", "bike_id": "3045133f998c82911ed67a34671cdfc6", "fusion_lat": 0.0, "lon": -77.00063416666667, "type": "electric_scooter", "fusion_lon": 0.0, "lat": 38.878792}, {"rental_uris": {"android": "https://dc.lft.to/lastmile_qr_scan", "ios": "https://dc.lft.to/lastmile_qr_scan"}, "is_reserved": 0, "is_disabled": 0, "name": "c3cf9e734f7383922deb36502dc81b60", "bike_id": "c3cf9e734f7383922deb36502dc81b60", "fusion_lat": 0.0, "lon": -76.9305665, "type": "electric_scooter", "fusion_lon": 0.0, "lat": 38.89549783333333}, {"rental_uris": {"android": "https://dc.lft.to/lastmile_qr_scan", "ios": "https://dc.lft.to/lastmile_qr_scan"}, "is_reserved": 0, "is_disabled": 0, "name": "76dfb7681f9b06d4983b9723e5bbc628", "bike_id": "76dfb7681f9b06d4983b9723e5bbc628", "fusion_lat": 0.0, "lon": -77.01155683333333, "type": "electric_scooter", "fusion_lon": 0.0, "lat": 38.900086}, {"rental_uris": {"android": "https://dc.lft.to/lastmile_qr_scan", "ios": "https://dc.lft.to/lastmile_qr_scan"}, "is_reserved": 0, "is_disabled": 0, "name": "ad577a57964ae0233fd2412d5c49d7e3", "bike_id": "ad577a57964ae0233fd2412d5c49d7e3", "fusion_lat": 0.0, "lon": -77.02197766666667, "type": "electric_scooter", "fusion_lon": 0.0, "lat": 38.921636166666666}, {"rental_uris": {"android": "https://dc.lft.to/lastmile_qr_scan", "ios": "https://dc.lft.to/lastmile_qr_scan"}, "is_reserved": 0, "is_disabled": 0, "name": "c9d8ec6c647256f449fb153ccf27704f", "bike_id": "c9d8ec6c647256f449fb153ccf27704f", "fusion_lat": 0.0, "lon": -77.03072633333333, "type": "electric_scooter", "fusion_lon": 0.0, "lat": 38.92238583333334}, {"rental_uris": {"android": "https://dc.lft.to/lastmile_qr_scan", "ios": "https://dc.lft.to/lastmile_qr_scan"}, "is_reserved": 0, "is_disabled": 0, "name": "5afba35de1ce9e5e351ec8e4e3c5f637", "bike_id": "5afba35de1ce9e5e351ec8e4e3c5f637", "fusion_lat": 0.0, "lon": -77.023763, "type": "electric_scooter", "fusion_lon": 0.0, "lat": 38.919062}, {"rental_uris": {"android": "https://dc.lft.to/lastmile_qr_scan", "ios": "https://dc.lft.to/lastmile_qr_scan"}, "is_reserved": 0, "is_disabled": 0, "name": "0868321b1a8e815978e48be5314a5073", "bike_id": "0868321b1a8e815978e48be5314a5073", "fusion_lat": 0.0, "lon": -77.031974, "type": "electric_scooter", "fusion_lon": 0.0, "lat": 38.92007383333333}, {"rental_uris": {"android": "https://dc.lft.to/lastmile_qr_scan", "ios": "https://dc.lft.to/lastmile_qr_scan"}, "is_reserved": 0, "is_disabled": 0, "name": "04a7d9f3fa71f890a3a19a6e448ab6ea", "bike_id": "04a7d9f3fa71f890a3a19a6e448ab6ea", "fusion_lat": 0.0, "lon": -77.03473, "type": "electric_scooter", "fusion_lon": 0.0, "lat": 38.90136866666667}, {"rental_uris": {"android": "https://dc.lft.to/lastmile_qr_scan", "ios": "https://dc.lft.to/lastmile_qr_scan"}, "is_reserved": 0, "is_disabled": 0, "name": "88a69a23ad0694c7399014674a12cfab", "bike_id": "88a69a23ad0694c7399014674a12cfab", "fusion_lat": 0.0, "lon": -77.04040066666667, "type": "electric_scooter", "fusion_lon": 0.0, "lat": 38.898735333333335}, {"rental_uris": {"android": "https://dc.lft.to/lastmile_qr_scan", "ios": "https://dc.lft.to/lastmile_qr_scan"}, "is_reserved": 0, "is_disabled": 0, "name": "a77983f9d34ea28b4b8b3410f3c03797", "bike_id": "a77983f9d34ea28b4b8b3410f3c03797", "fusion_lat": 0.0, "lon": -77.0242045, "type": "electric_scooter", "fusion_lon": 0.0, "lat": 38.90310083333333}, {"rental_uris": {"android": "https://dc.lft.to/lastmile_qr_scan", "ios": "https://dc.lft.to/lastmile_qr_scan"}, "is_reserved": 0, "is_disabled": 0, "name": "67f67f1520dd41d2e3eac0d383081da9", "bike_id": "67f67f1520dd41d2e3eac0d383081da9", "fusion_lat": 0.0, "lon": -76.98385883333333, "type": "electric_scooter", "fusion_lon": 0.0, "lat": 38.87941216666667}, {"rental_uris": {"android": "https://dc.lft.to/lastmile_qr_scan", "ios": "https://dc.lft.to/lastmile_qr_scan"}, "is_reserved": 0, "is_disabled": 0, "name": "2230405900c18e87df1156f0895a2de8", "bike_id": "2230405900c18e87df1156f0895a2de8", "fusion_lat": 0.0, "lon": -77.061655, "type": "electric_scooter", "fusion_lon": 0.0, "lat": 38.943465333333336}, {"rental_uris": {"android": "https://dc.lft.to/lastmile_qr_scan", "ios": "https://dc.lft.to/lastmile_qr_scan"}, "is_reserved": 0, "is_disabled": 0, "name": "a2d2627cd817a8cc4f167d251b20d9ce", "bike_id": "a2d2627cd817a8cc4f167d251b20d9ce", "fusion_lat": 0.0, "lon": -77.063802, "type": "electric_scooter", "fusion_lon": 0.0, "lat": 38.9059585}, {"rental_uris": {"android": "https://dc.lft.to/lastmile_qr_scan", "ios": "https://dc.lft.to/lastmile_qr_scan"}, "is_reserved": 0, "is_disabled": 0, "name": "7baf01a11adb57152aa24bb2465ea0e4", "bike_id": "7baf01a11adb57152aa24bb2465ea0e4", "fusion_lat": 0.0, "lon": -77.07853133333333, "type": "electric_scooter", "fusion_lon": 0.0, "lat": 38.9459365}, {"rental_uris": {"android": "https://dc.lft.to/lastmile_qr_scan", "ios": "https://dc.lft.to/lastmile_qr_scan"}, "is_reserved": 0, "is_disabled": 0, "name": "78dac48972cd42704a59c4b4cf358b35", "bike_id": "78dac48972cd42704a59c4b4cf358b35", "fusion_lat": 0.0, "lon": -77.05028216666666, "type": "electric_scooter", "fusion_lon": 0.0, "lat": 38.89655916666667}, {"rental_uris": {"android": "https://dc.lft.to/lastmile_qr_scan", "ios": "https://dc.lft.to/lastmile_qr_scan"}, "is_reserved": 0, "is_disabled": 0, "name": "c6af9761e3cf5f978c36d8c6635ffbaf", "bike_id": "c6af9761e3cf5f978c36d8c6635ffbaf", "fusion_lat": 0.0, "lon": -77.0388615, "type": "electric_scooter", "fusion_lon": 0.0, "lat": 38.92040633333333}, {"rental_uris": {"android": "https://dc.lft.to/lastmile_qr_scan", "ios": "https://dc.lft.to/lastmile_qr_scan"}, "is_reserved": 0, "is_disabled": 0, "name": "ded7e39ea7eaf0442aebdd7d964b084a", "bike_id": "ded7e39ea7eaf0442aebdd7d964b084a", "fusion_lat": 0.0, "lon": -77.02827083333334, "type": "electric_scooter", "fusion_lon": 0.0, "lat": 38.90456183333333}, {"rental_uris": {"android": "https://dc.lft.to/lastmile_qr_scan", "ios": "https://dc.lft.to/lastmile_qr_scan"}, "is_reserved": 0, "is_disabled": 0, "name": "7eadcc54193612e993068e10f0951212", "bike_id": "7eadcc54193612e993068e10f0951212", "fusion_lat": 0.0, "lon": -77.0220795, "type": "electric_scooter", "fusion_lon": 0.0, "lat": 38.92467116666667}, {"rental_uris": {"android": "https://dc.lft.to/lastmile_qr_scan", "ios": "https://dc.lft.to/lastmile_qr_scan"}, "is_reserved": 0, "is_disabled": 0, "name": "12f231bee147ad5f03caa9340bb62e23", "bike_id": "12f231bee147ad5f03caa9340bb62e23", "fusion_lat": 0.0, "lon": -77.02732233333333, "type": "electric_scooter", "fusion_lon": 0.0, "lat": 38.901107}, {"rental_uris": {"android": "https://dc.lft.to/lastmile_qr_scan", "ios": "https://dc.lft.to/lastmile_qr_scan"}, "is_reserved": 0, "is_disabled": 0, "name": "824e29d92cf00a7f93c6286c9561a1b3", "bike_id": "824e29d92cf00a7f93c6286c9561a1b3", "fusion_lat": 0.0, "lon": -77.07151166666667, "type": "electric_scooter", "fusion_lon": 0.0, "lat": 38.91258966666667}, {"rental_uris": {"android": "https://dc.lft.to/lastmile_qr_scan", "ios": "https://dc.lft.to/lastmile_qr_scan"}, "is_reserved": 0, "is_disabled": 0, "name": "d8c5f5ae50e293bedadfb7714bcb32cf", "bike_id": "d8c5f5ae50e293bedadfb7714bcb32cf", "fusion_lat": 0.0, "lon": -77.05769833333333, "type": "electric_bike", "fusion_lon": 0.0, "lat": 38.9085445}, {"rental_uris": {"android": "https://dc.lft.to/lastmile_qr_scan", "ios": "https://dc.lft.to/lastmile_qr_scan"}, "is_reserved": 0, "is_disabled": 0, "name": "68f337eca3a8190e9263aecc3bdc9540", "bike_id": "68f337eca3a8190e9263aecc3bdc9540", "fusion_lat": 0.0, "lon": -77.01956916666667, "type": "electric_scooter", "fusion_lon": 0.0, "lat": 38.92328}, {"rental_uris": {"android": "https://dc.lft.to/lastmile_qr_scan", "ios": "https://dc.lft.to/lastmile_qr_scan"}, "is_reserved": 0, "is_disabled": 0, "name": "e60a7dbe6dd35e5b2e91a514b2507ea9", "bike_id": "e60a7dbe6dd35e5b2e91a514b2507ea9", "fusion_lat": 0.0, "lon": -77.06844166666667, "type": "electric_scooter", "fusion_lon": 0.0, "lat": 38.9172495}, {"rental_uris": {"android": "https://dc.lft.to/lastmile_qr_scan", "ios": "https://dc.lft.to/lastmile_qr_scan"}, "is_reserved": 0, "is_disabled": 0, "name": "e9d986bd7985cf1d02854a9b354a355d", "bike_id": "e9d986bd7985cf1d02854a9b354a355d", "fusion_lat": 0.0, "lon": -76.98119016666666, "type": "electric_bike", "fusion_lon": 0.0, "lat": 38.94570433333333}, {"rental_uris": {"android": "https://dc.lft.to/lastmile_qr_scan", "ios": "https://dc.lft.to/lastmile_qr_scan"}, "is_reserved": 0, "is_disabled": 0, "name": "1ddd9e7251ea231730afccd405f5fe15", "bike_id": "1ddd9e7251ea231730afccd405f5fe15", "fusion_lat": 0.0, "lon": -77.0230405, "type": "electric_scooter", "fusion_lon": 0.0, "lat": 38.916536666666666}, {"rental_uris": {"android": "https://dc.lft.to/lastmile_qr_scan", "ios": "https://dc.lft.to/lastmile_qr_scan"}, "is_reserved": 0, "is_disabled": 0, "name": "1f343c2e292ea65f6909e6b58e499379", "bike_id": "1f343c2e292ea65f6909e6b58e499379", "fusion_lat": 0.0, "lon": -77.07757866666667, "type": "electric_bike", "fusion_lon": 0.0, "lat": 38.84187766666667}, {"rental_uris": {"android": "https://dc.lft.to/lastmile_qr_scan", "ios": "https://dc.lft.to/lastmile_qr_scan"}, "is_reserved": 0, "is_disabled": 0, "name": "ff9c761dd1871b4465b8960d6015dc03", "bike_id": "ff9c761dd1871b4465b8960d6015dc03", "fusion_lat": 0.0, "lon": -77.03379733333334, "type": "electric_scooter", "fusion_lon": 0.0, "lat": 38.924639666666664}, {"rental_uris": {"android": "https://dc.lft.to/lastmile_qr_scan", "ios": "https://dc.lft.to/lastmile_qr_scan"},