{"data": {"bikes": [{"rental_uris": {"ios": "https://dc.lft.to/lastmile_qr_scan", "android": "https://dc.lft.to/lastmile_qr_scan"}, "lon": -77.01515516666667, "type": "electric_scooter", "fusion_lat": 0.0, "lat": 38.88736866666667, "name": "84885ce3d853e57b5f70569a8b0bed2a", "fusion_lon": 0.0, "bike_id": "84885ce3d853e57b5f70569a8b0bed2a", "is_disabled": 0, "is_reserved": 0}, {"rental_uris": {"ios": "https://dc.lft.to/lastmile_qr_scan", "android": "https://dc.lft.to/lastmile_qr_scan"}, "lon": -77.012073, "type": "electric_scooter", "fusion_lat": 0.0, "lat": 38.91520633333333, "name": "3125cc9ed391e79aee6a62b131bcb360", "fusion_lon": 0.0, "bike_id": "3125cc9ed391e79aee6a62b131bcb360", "is_disabled": 0, "is_reserved": 0}, {"rental_uris": {"ios": "https://dc.lft.to/lastmile_qr_scan", "android": "https://dc.lft.to/lastmile_qr_scan"}, "lon": -76.904443, "type": "electric_bike", "fusion_lat": 0.0, "lat": 38.89776583333333, "name": "b6137f242bdbd07b9a43cb94aa315fab", "fusion_lon": 0.0, "bike_id": "b6137f242bdbd07b9a43cb94aa315fab", "is_disabled": 0, "is_reserved": 0}, {"rental_uris": {"ios": "https://dc.lft.to/lastmile_qr_scan", "android": "https://dc.lft.to/lastmile_qr_scan"}, "lon": -77.03608766666666, "type": "electric_scooter", "fusion_lat": 0.0, "lat": 38.9023975, "name": "ccfa6b74deef1395c7d3182ef2a24f17", "fusion_lon": 0.0, "bike_id": "ccfa6b74deef1395c7d3182ef2a24f17", "is_disabled": 0, "is_reserved": 0}, {"rental_uris": {"ios": "https://dc.lft.to/lastmile_qr_scan", "android": "https://dc.lft.to/lastmile_qr_scan"}, "lon": -77.0488455, "type": "electric_scooter", "fusion_lat": 0.0, "lat": 38.912294333333335, "name": "43d35d197facc5d5bbc959b9ca715622", "fusion_lon": 0.0, "bike_id": "43d35d197facc5d5bbc959b9ca715622", "is_disabled": 0, "is_reserved": 0}, {"rental_uris": {"ios": "https://dc.lft.to/lastmile_qr_scan", "android": "https://dc.lft.to/lastmile_qr_scan"}, "lon": -77.034493, "type": "electric_scooter", "fusion_lat": 0.0, "lat": 38.9034545, "name": "43686659cd3ed220fc06e436854d0864", "fusion_lon": 0.0, "bike_id": "43686659cd3ed220fc06e436854d0864", "is_disabled": 0, "is_reserved": 0}, {"rental_uris": {"ios": "https://dc.lft.to/lastmile_qr_scan", "android": "https://dc.lft.to/lastmile_qr_scan"}, "lon": -77.007194, "type": "electric_scooter", "fusion_lat": 0.0, "lat": 38.884888333333336, "name": "eda4e23eb2b960f2ce18cec06abe5651", "fusion_lon": 0.0, "bike_id": "eda4e23eb2b960f2ce18cec06abe5651", "is_disabled": 0, "is_reserved": 0}, {"rental_uris": {"ios": "https://dc.lft.to/lastmile_qr_scan", "android": "https://dc.lft.to/lastmile_qr_scan"}, "lon": -77.03518233333334, "type": "electric_scooter", "fusion_lat": 0.0, "lat": 38.918338, "name": "023d956982cdd155d78d6020cdb5ea13", "fusion_lon": 0.0, "bike_id": "023d956982cdd155d78d6020cdb5ea13", "is_disabled": 0, "is_reserved": 0}, {"rental_uris": {"ios": "https://dc.lft.to/lastmile_qr_scan", "android": "https://dc.lft.to/lastmile_qr_scan"}, "lon": -77.0271175, "type": "electric_scooter", "fusion_lat": 0.0, "lat": 38.9182005, "name": "99132e58340e7d975476e1a8f3711156", "fusion_lon": 0.0, "bike_id": "99132e58340e7d975476e1a8f3711156", "is_disabled": 0, "is_reserved": 0}, {"rental_uris": {"ios": "https://dc.lft.to/lastmile_qr_scan", "android": "https://dc.lft.to/lastmile_qr_scan"}, "lon": -77.01960916666667, "type": "electric_scooter", "fusion_lat": 0.0, "lat": 38.929741666666665, "name": "e44c04bff8c55e76fafb0819292b09b6", "fusion_lon": 0.0, "bike_id": "e44c04bff8c55e76fafb0819292b09b6", "is_disabled": 0, "is_reserved": 0}, {"rental_uris": {"ios": "https://dc.lft.to/lastmile_qr_scan", "android": "https://dc.lft.to/lastmile_qr_scan"}, "lon": -77.01998916666666, "type": "electric_scooter", "fusion_lat": 0.0, "lat": 38.90462216666667, "name": "f658638b37b6d69a94d302e96ca16ce9", "fusion_lon": 0.0, "bike_id": "f658638b37b6d69a94d302e96ca16ce9", "is_disabled": 0, "is_reserved": 0}, {"rental_uris": {"ios": "https://dc.lft.to/lastmile_qr_scan", "android": "https://dc.lft.to/lastmile_qr_scan"}, "lon": -77.0175915, "type": "electric_scooter", "fusion_lat": 0.0, "lat": 38.91708916666666, "name": "97362c679da402d6558267e7ee846258", "fusion_lon": 0.0, "bike_id": "97362c679da402d6558267e7ee846258", "is_disabled": 0, "is_reserved": 0}, {"rental_uris": {"ios": "https://dc.lft.to/lastmile_qr_scan", "android": "https://dc.lft.to/lastmile_qr_scan"}, "lon": -77.02318083333333, "type": "electric_scooter", "fusion_lat": 0.0, "lat": 38.929475, "name": "1f1f1d8969f594634c61363fb5494d1b", "fusion_lon": 0.0, "bike_id": "1f1f1d8969f594634c61363fb5494d1b", "is_disabled": 0, "is_reserved": 0}, {"rental_uris": {"ios": "https://dc.lft.to/lastmile_qr_scan", "android": "https://dc.lft.to/lastmile_qr_scan"}, "lon": -77.03085533333334, "type": "electric_scooter", "fusion_lat": 0.0, "lat": 38.909868833333334, "name": "b2fc33b7d0f63159e9bff6e867b3e00a", "fusion_lon": 0.0, "bike_id": "b2fc33b7d0f63159e9bff6e867b3e00a", "is_disabled": 0, "is_reserved": 0}, {"rental_uris": {"ios": "https://dc.lft.to/lastmile_qr_scan", "android": "https://dc.lft.to/lastmile_qr_scan"}, "lon": -77.02102383333333, "type": "electric_scooter", "fusion_lat": 0.0, "lat": 38.88510083333333, "name": "e5c34b92042c6046b477f8cd2bfca39a", "fusion_lon": 0.0, "bike_id": "e5c34b92042c6046b477f8cd2bfca39a", "is_disabled": 0, "is_reserved": 0}, {"rental_uris": {"ios": "https://dc.lft.to/lastmile_qr_scan", "android": "https://dc.lft.to/lastmile_qr_scan"}, "lon": -76.975974, "type": "electric_scooter", "fusion_lat": 0.0, "lat": 38.90332633333333, "name": "7517a8adfb7715730f4bb81dfb2ff5c1", "fusion_lon": 0.0, "bike_id": "7517a8adfb7715730f4bb81dfb2ff5c1", "is_disabled": 0, "is_reserved": 0}, {"rental_uris": {"ios": "https://dc.lft.to/lastmile_qr_scan", "android": "https://dc.lft.to/lastmile_qr_scan"}, "lon": -77.05140383333334, "type": "electric_scooter", "fusion_lat": 0.0, "lat": 38.8991645, "name": "0c3e4e1caae1d47195ce2beeb912e186", "fusion_lon": 0.0, "bike_id": "0c3e4e1caae1d47195ce2beeb912e186", "is_disabled": 0, "is_reserved": 0}, {"rental_uris": {"ios": "https://dc.lft.to/lastmile_qr_scan", "android": "https://dc.lft.to/lastmile_qr_scan"}, "lon": -77.00335816666667, "type": "electric_scooter", "fusion_lat": 0.0, "lat": 38.89357233333333, "name": "9b08b08b430263312684ce46720e3d9c", "fusion_lon": 0.0, "bike_id": "9b08b08b430263312684ce46720e3d9c", "is_disabled": 0, "is_reserved": 0}, {"rental_uris": {"ios": "https://dc.lft.to/lastmile_qr_scan", "android": "https://dc.lft.to/lastmile_qr_scan"}, "lon": -77.04374916666667, "type": "electric_scooter", "fusion_lat": 0.0, "lat": 38.933411166666666, "name": "7499415cc3bc8e4080030de2f5098fe7", "fusion_lon": 0.0, "bike_id": "7499415cc3bc8e4080030de2f5098fe7", "is_disabled": 0, "is_reserved": 0}, {"rental_uris": {"ios": "https://dc.lft.to/lastmile_qr_scan", "android": "https://dc.lft.to/lastmile_qr_scan"}, "lon": -77.04179533333334, "type": "electric_scooter", "fusion_lat": 0.0, "lat": 38.911874833333336, "name": "c345b352a82b36cc76e3758fc8dce480", "fusion_lon": 0.0, "bike_id": "c345b352a82b36cc76e3758fc8dce480", "is_disabled": 0, "is_reserved": 0}, {"rental_uris": {"ios": "https://dc.lft.to/lastmile_qr_scan", "android": "https://dc.lft.to/lastmile_qr_scan"}, "lon": -77.0416425, "type": "electric_scooter", "fusion_lat": 0.0, "lat": 38.902572666666664, "name": "dd04d14fa703850ec6c16d1a33fedb2d", "fusion_lon": 0.0, "bike_id": "dd04d14fa703850ec6c16d1a33fedb2d", "is_disabled": 0, "is_reserved": 0}, {"rental_uris": {"ios": "https://dc.lft.to/lastmile_qr_scan", "android": "https://dc.lft.to/lastmile_qr_scan"}, "lon": -76.94625233333333, "type": "electric_bike", "fusion_lat": 0.0, "lat": 38.832321666666665, "name": "b16e8b5e731d9eae236cbfb639da91bc", "fusion_lon": 0.0, "bike_id": "b16e8b5e731d9eae236cbfb639da91bc", "is_disabled": 0, "is_reserved": 0}, {"rental_uris": {"ios": "https://dc.lft.to/lastmile_qr_scan", "android": "https://dc.lft.to/lastmile_qr_scan"}, "lon": -77.0260265, "type": "electric_scooter", "fusion_lat": 0.0, "lat": 38.88741983333333, "name": "6c25836a7ffb71ae5f72bfdab92872ba", "fusion_lon": 0.0, "bike_id": "6c25836a7ffb71ae5f72bfdab92872ba", "is_disabled": 0, "is_reserved": 0}, {"rental_uris": {"ios": "https://dc.lft.to/lastmile_qr_scan", "android": "https://dc.lft.to/lastmile_qr_scan"}, "lon": -77.00228316666667, "type": "electric_bike", "fusion_lat": 0.0, "lat": 38.908754, "name": "057344ef113133b73c5dcde40cae8176", "fusion_lon": 0.0, "bike_id": "057344ef113133b73c5dcde40cae8176", "is_disabled": 0, "is_reserved": 0}, {"rental_uris": {"ios": "https://dc.lft.to/lastmile_qr_scan", "android": "https://dc.lft.to/lastmile_qr_scan"}, "lon": -77.02397233333333, "type": "electric_scooter", "fusion_lat": 0.0, "lat": 38.91595266666667, "name": "3764685042e18092b5d65e3c4b4a5de6", "fusion_lon": 0.0, "bike_id": "3764685042e18092b5d65e3c4b4a5de6", "is_disabled": 0, "is_reserved": 0}, {"rental_uris": {"ios": "https://dc.lft.to/lastmile_qr_scan", "android": "https://dc.lft.to/lastmile_qr_scan"}, "lon": -77.00214, "type": "electric_scooter", "fusion_lat": 0.0, "lat": 38.90024566666666, "name": "776e9f50ac291ebd9dc2f88b7b110028", "fusion_lon": 0.0, "bike_id": "776e9f50ac291ebd9dc2f88b7b110028", "is_disabled": 0, "is_reserved": 0}, {"rental_uris": {"ios": "https://dc.lft.to/lastmile_qr_scan", "android": "https://dc.lft.to/lastmile_qr_scan"}, "lon": -77.0033495, "type": "electric_bike", "fusion_lat": 0.0, "lat": 38.919790666666664, "name": "56df51ab5df8a37871237b7e78456d38", "fusion_lon": 0.0, "bike_id": "56df51ab5df8a37871237b7e78456d38", "is_disabled": 0, "is_reserved": 0}, {"rental_uris": {"ios": "https://dc.lft.to/lastmile_qr_scan", "android": "https://dc.lft.to/lastmile_qr_scan"}, "lon": -77.03870116666667, "type": "electric_scooter", "fusion_lat": 0.0, "lat": 38.912619666666664, "name": "d91427434f4e1f46c65605541348f412", "fusion_lon": 0.0, "bike_id": "d91427434f4e1f46c65605541348f412", "is_disabled": 0, "is_reserved": 0}, {"rental_uris": {"ios": "https://dc.lft.to/lastmile_qr_scan", "android": "https://dc.lft.to/lastmile_qr_scan"}, "lon": -77.01542533333334, "type": "electric_scooter", "fusion_lat": 0.0, "lat": 38.87289166666667, "name": "3eeb019156b100662faee46c06a162cc", "fusion_lon": 0.0, "bike_id": "3eeb019156b100662faee46c06a162cc", "is_disabled": 0, "is_reserved": 0}, {"rental_uris": {"ios": "https://dc.lft.to/lastmile_qr_scan", "android": "https://dc.lft.to/lastmile_qr_scan"}, "lon": -77.06676933333334, "type": "electric_scooter", "fusion_lat": 0.0, "lat": 38.914075, "name": "dda49c2e36d7928167830b3175f9d523", "fusion_lon": 0.0, "bike_id": "dda49c2e36d7928167830b3175f9d523", "is_disabled": 0, "is_reserved": 0}, {"rental_uris": {"ios": "https://dc.lft.to/lastmile_qr_scan", "android": "https://dc.lft.to/lastmile_qr_scan"}, "lon": -77.06607066666666, "type": "electric_scooter", "fusion_lat": 0.0, "lat": 38.9052305, "name": "458aa63f26d438b701516a1ddae025e3", "fusion_lon": 0.0, "bike_id": "458aa63f26d438b701516a1ddae025e3", "is_disabled": 0, "is_reserved": 0}, {"rental_uris": {"ios": "https://dc.lft.to/lastmile_qr_scan", "android": "https://dc.lft.to/lastmile_qr_scan"}, "lon": -77.04389983333333, "type": "electric_scooter", "fusion_lat": 0.0, "lat": 38.910912, "name": "61581b20eb5ea4eade041118b67f8c0f", "fusion_lon": 0.0, "bike_id": "61581b20eb5ea4eade041118b67f8c0f", "is_disabled": 0, "is_reserved": 0}, {"rental_uris": {"ios": "https://dc.lft.to/lastmile_qr_scan", "android": "https://dc.lft.to/lastmile_qr_scan"}, "lon": -77.05271016666667, "type": "electric_scooter", "fusion_lat": 0.0, "lat": 38.8984055, "name": "095b9b791cb0531a341796061c3f38fd", "fusion_lon": 0.0, "bike_id": "095b9b791cb0531a341796061c3f38fd", "is_disabled": 0, "is_reserved": 0}, {"rental_uris": {"ios": "https://dc.lft.to/lastmile_qr_scan", "android": "https://dc.lft.to/lastmile_qr_scan"}, "lon": -77.04153, "type": "electric_scooter", "fusion_lat": 0.0, "lat": 38.923609166666665, "name": "c9fa23d47f543b450fcca9c898832ad3", "fusion_lon": 0.0, "bike_id": "c9fa23d47f543b450fcca9c898832ad3", "is_disabled": 0, "is_reserved": 0}, {"rental_uris": {"ios": "https://dc.lft.to/lastmile_qr_scan", "android": "https://dc.lft.to/lastmile_qr_scan"}, "lon": -77.032082, "type": "electric_scooter", "fusion_lat": 0.0, "lat": 38.920104333333335, "name": "a24f8d7f60112caeefb931d3347e5894", "fusion_lon": 0.0, "bike_id": "a24f8d7f60112caeefb931d3347e5894", "is_disabled": 0, "is_reserved": 0}, {"rental_uris": {"ios": "https://dc.lft.to/lastmile_qr_scan", "android": "https://dc.lft.to/lastmile_qr_scan"}, "lon": -76.94930183333334, "type": "electric_scooter", "fusion_lat": 0.0, "lat": 38.8948475, "name": "a0d187921f7bbaf21f2ffc7affbd28d6", "fusion_lon": 0.0, "bike_id": "a0d187921f7bbaf21f2ffc7affbd28d6", "is_disabled": 0, "is_reserved": 0}, {"rental_uris": {"ios": "https://dc.lft.to/lastmile_qr_scan", "android": "https://dc.lft.to/lastmile_qr_scan"}, "lon": -77.013569, "type": "electric_scooter", "fusion_lat": 0.0, "lat": 38.871204, "name": "6083e51575e9b5c4675b9ffe2df88937", "fusion_lon": 0.0, "bike_id": "6083e51575e9b5c4675b9ffe2df88937", "is_disabled": 0, "is_reserved": 0}, {"rental_uris": {"ios": "https://dc.lft.to/lastmile_qr_scan", "android": "https://dc.lft.to/lastmile_qr_scan"}, "lon": -77.04999883333333, "type": "electric_scooter", "fusion_lat": 0.0, "lat": 38.892300166666665, "name": "66e98ba3f77190073596182dd5ebdf2e", "fusion_lon": 0.0, "bike_id": "66e98ba3f77190073596182dd5ebdf2e", "is_disabled": 0, "is_reserved": 0}, {"rental_uris": {"ios": "https://dc.lft.to/lastmile_qr_scan", "android": "https://dc.lft.to/lastmile_qr_scan"}, "lon": -77.02327183333334, "type": "electric_scooter", "fusion_lat": 0.0, "lat": 38.89396983333334, "name": "25f70011b54a1baacf7efa6e4e0265b3", "fusion_lon": 0.0, "bike_id": "25f70011b54a1baacf7efa6e4e0265b3", "is_disabled": 0, "is_reserved": 0}, {"rental_uris": {"ios": "https://dc.lft.to/lastmile_qr_scan", "android": "https://dc.lft.to/lastmile_qr_scan"}, "lon": -77.01313766666667, "type": "electric_scooter", "fusion_lat": 0.0, "lat": 38.89738033333333, "name": "ca8af29ac3e8457c7580eac4b88158be", "fusion_lon": 0.0, "bike_id": "ca8af29ac3e8457c7580eac4b88158be", "is_disabled": 0, "is_reserved": 0}, {"rental_uris": {"ios": "https://dc.lft.to/lastmile_qr_scan", "android": "https://dc.lft.to/lastmile_qr_scan"}, "lon": -77.0281855, "type": "electric_bike", "fusion_lat": 0.0, "lat": 38.964985666666664, "name": "dd7c9693be784aa956664ab9ec68a57f", "fusion_lon": 0.0, "bike_id": "dd7c9693be784aa956664ab9ec68a57f", "is_disabled": 0, "is_reserved": 0}, {"rental_uris": {"ios": "https://dc.lft.to/lastmile_qr_scan", "android": "https://dc.lft.to/lastmile_qr_scan"}, "lon": -77.1122815, "type": "electric_bike", "fusion_lat": 0.0, "lat": 38.81221133333333, "name": "fe6445b73a1b2ba085d4ed0c0f4b518f", "fusion_lon": 0.0, "bike_id": "fe6445b73a1b2ba085d4ed0c0f4b518f", "is_disabled": 0, "is_reserved": 0}, {"rental_uris": {"ios": "https://dc.lft.to/lastmile_qr_scan", "android": "https://dc.lft.to/lastmile_qr_scan"}, "lon": -77.01358533333334, "type": "electric_scooter", "fusion_lat": 0.0, "lat": 38.9198565, "name": "b1e7384ef8fe115c9538165c5c52fc79", "fusion_lon": 0.0, "bike_id": "b1e7384ef8fe115c9538165c5c52fc79", "is_disabled": 0, "is_reserved": 0}, {"rental_uris": {"ios": "https://dc.lft.to/lastmile_qr_scan", "android": "https://dc.lft.to/lastmile_qr_scan"}, "lon": -77.02184033333333, "type": "electric_scooter", "fusion_lat": 0.0, "lat": 38.908346, "name": "19e7a5c4cf72d209f6bc794010ece6d5", "fusion_lon": 0.0, "bike_id": "19e7a5c4cf72d209f6bc794010ece6d5", "is_disabled": 0, "is_reserved": 0}, {"rental_uris": {"ios": "https://dc.lft.to/lastmile_qr_scan", "android": "https://dc.lft.to/lastmile_qr_scan"}, "lon": -76.95242766666667, "type": "electric_bike", "fusion_lat": 0.0, "lat": 38.90705966666667, "name": "8004cfeae431af1d5d4fe4062b9e9850", "fusion_lon": 0.0, "bike_id": "8004cfeae431af1d5d4fe4062b9e9850", "is_disabled": 0, "is_reserved": 0}, {"rental_uris": {"ios": "https://dc.lft.to/lastmile_qr_scan", "android": "https://dc.lft.to/lastmile_qr_scan"}, "lon": -77.02199383333334, "type": "electric_scooter", "fusion_lat": 0.0, "lat": 38.9313115, "name": "6d89dd4caa445ae07505b4b91ffc8576", "fusion_lon": 0.0, "bike_id": "6d89dd4caa445ae07505b4b91ffc8576", "is_disabled": 0, "is_reserved": 0}, {"rental_uris": {"ios": "https://dc.lft.to/lastmile_qr_scan", "android": "https://dc.lft.to/lastmile_qr_scan"}, "lon": -77.02206533333333, "type": "electric_scooter", "fusion_lat": 0.0, "lat": 38.88716616666667, "name": "adce44d64e8c7397e594309d0e62bd36", "fusion_lon": 0.0, "bike_id": "adce44d64e8c7397e594309d0e62bd36", "is_disabled": 0, "is_reserved": 0}, {"rental_uris": {"ios": "https://dc.lft.to/lastmile_qr_scan", "android": "https://dc.lft.to/lastmile_qr_scan"}, "lon": -76.9803435, "type": "electric_bike", "fusion_lat": 0.0, "lat": 38.900289, "name": "1d04c81775488c5bc8f4b12165cb1923", "fusion_lon": 0.0, "bike_id": "1d04c81775488c5bc8f4b12165cb1923", "is_disabled": 0, "is_reserved": 0}, {"rental_uris": {"ios": "https://dc.lft.to/lastmile_qr_scan", "android": "https://dc.lft.to/lastmile_qr_scan"}, "lon": -77.0384065, "type": "electric_scooter", "fusion_lat": 0.0, "lat": 38.9075115, "name": "3598f78350a846054e9eee2d0d87e2fb", "fusion_lon": 0.0, "bike_id": "3598f78350a846054e9eee2d0d87e2fb", "is_disabled": 0, "is_reserved": 0}, {"rental_uris": {"ios": "https://dc.lft.to/lastmile_qr_scan", "android": "https://dc.lft.to/lastmile_qr_scan"}, "lon": -77.07726683333334, "type": "electric_scooter", "fusion_lat": 0.0, "lat": 38.947045, "name": "9db11bb1b2fab315d4638ca578254a0b", "fusion_lon": 0.0, "bike_id": "9db11bb1b2fab315d4638ca578254a0b", "is_disabled": 0, "is_reserved": 0}, {"rental_uris": {"ios": "https://dc.lft.to/lastmile_qr_scan", "android": "https://dc.lft.to/lastmile_qr_scan"}, "lon": -77.03216583333334, "type": "electric_scooter", "fusion_lat": 0.0, "lat": 38.92009083333333, "name": "5f2293673c6b06302b2480b278ab0e7f", "fusion_lon": 0.0, "bike_id": "5f2293673c6b06302b2480b278ab0e7f", "is_disabled": 0, "is_reserved": 0}, {"rental_uris": {"ios": "https://dc.lft.to/lastmile_qr_scan", "android": "https://dc.lft.to/lastmile_qr_scan"}, "lon": -77.0278425, "type": "electric_scooter", "fusion_lat": 0.0, "lat": 38.953865666666665, "name": "08f9be92c12c8eee2554eb51e11c6567", "fusion_lon": 0.0, "bike_id": "08f9be92c12c8eee2554eb51e11c6567", "is_disabled": 0, "is_reserved": 0}, {"rental_uris": {"ios": "https://dc.lft.to/lastmile_qr_scan", "android": "https://dc.lft.to/lastmile_qr_scan"}, "lon": -77.025425, "type": "electric_scooter", "fusion_lat": 0.0, "lat": 38.9240375, "name": "a12af8275d0b2ae6a2023eb72fa35ba0", "fusion_lon": 0.0, "bike_id": "a12af8275d0b2ae6a2023eb72fa35ba0", "is_disabled": 0, "is_reserved": 0}, {"rental_uris": {"ios": "https://dc.lft.to/lastmile_qr_scan", "android": "https://dc.lft.to/lastmile_qr_scan"}, "lon": -76.97310283333333, "type": "electric_scooter", "fusion_lat": 0.0, "lat": 38.91992, "name": "8b6da73c08b85c8bd10058a0d7bcdb44", "fusion_lon": 0.0, "bike_id": "8b6da73c08b85c8bd10058a0d7bcdb44", "is_disabled": 0, "is_reserved": 0}, {"rental_uris": {"ios": "https://dc.lft.to/lastmile_qr_scan", "android": "https://dc.lft.to/lastmile_qr_scan"}, "lon": -77.03465133333333, "type": "electric_scooter", "fusion_lat": 0.0, "lat": 38.92350783333333, "name": "ca368ccbcf442942cb6da384a5d1b97f", "fusion_lon": 0.0, "bike_id": "ca368ccbcf442942cb6da384a5d1b97f", "is_disabled": 0, "is_reserved": 0}, {"rental_uris": {"ios": "https://dc.lft.to/lastmile_qr_scan", "android": "https://dc.lft.to/lastmile_qr_scan"}, "lon": -77.03667583333333, "type": "electric_scooter", "fusion_lat": 0.0, "lat": 38.91814466666666, "name": "9a339963db26bec2f536f4ea17dac705", "fusion_lon": 0.0, "bike_id": "9a339963db26bec2f536f4ea17dac705", "is_disabled": 0, "is_reserved": 0}, {"rental_uris": {"ios": "https://dc.lft.to/lastmile_qr_scan", "android": "https://dc.lft.to/lastmile_qr_scan"}, "lon": -77.03356533333333, "type": "electric_scooter", "fusion_lat": 0.0, "lat": 38.93231316666667, "name": "fa592b4f3b9bea6898b2cf2bf25e3765", "fusion_lon": 0.0, "bike_id": "fa592b4f3b9bea6898b2cf2bf25e3765", "is_disabled": 0, "is_reserved": 0}, {"rental_uris": {"ios": "https://dc.lft.to/lastmile_qr_scan", "android": "https://dc.lft.to/lastmile_qr_scan"}, "lon": -77.047953, "type": "electric_scooter", "fusion_lat": 0.0, "lat": 38.89953166666667, "name": "6664e4f6859d053b9d2d8c508c4f91c7", "fusion_lon": 0.0, "bike_id": "6664e4f6859d053b9d2d8c508c4f91c7", "is_disabled": 0, "is_reserved": 0}, {"rental_uris": {"ios": "https://dc.lft.to/lastmile_qr_scan", "android": "https://dc.lft.to/lastmile_qr_scan"}, "lon": -77.02181816666666, "type": "electric_scooter", "fusion_lat": 0.0, "lat": 38.88032183333333, "name": "14c5a62fb828a6158d8c140e4eee46cd", "fusion_lon": 0.0, "bike_id": "14c5a62fb828a6158d8c140e4eee46cd", "is_disabled": 0, "is_reserved": 0}, {"rental_uris": {"ios": "https://dc.lft.to/lastmile_qr_scan", "android": "https://dc.lft.to/lastmile_qr_scan"}, "lon": -77.006015, "type": "electric_scooter", "fusion_lat": 0.0, "lat": 38.884945333333334, "name": "7dca444069f8ef803429c3bdb79c6f7b", "fusion_lon": 0.0, "bike_id": "7dca444069f8ef803429c3bdb79c6f7b", "is_disabled": 0, "is_reserved": 0}, {"rental_uris": {"ios": "https://dc.lft.to/lastmile_qr_scan", "android": "https://dc.lft.to/lastmile_qr_scan"}, "lon": -77.07103283333333, "type": "electric_bike", "fusion_lat": 0.0, "lat": 38.914501666666666, "name": "4f4f521847b4075f3439e4c1f54e4640", "fusion_lon": 0.0, "bike_id": "4f4f521847b4075f3439e4c1f54e4640", "is_disabled": 0, "is_reserved": 0}, {"rental_uris": {"ios": "https://dc.lft.to/lastmile_qr_scan", "android": "https://dc.lft.to/lastmile_qr_scan"}, "lon": -77.0373525, "type": "electric_scooter", "fusion_lat": 0.0, "lat": 38.9070045, "name": "56f87986a37eb145708a3a1e5d9cccc4", "fusion_lon": 0.0, "bike_id": "56f87986a37eb145708a3a1e5d9cccc4", "is_disabled": 0, "is_reserved": 0}, {"rental_uris": {"ios": "https://dc.lft.to/lastmile_qr_scan", "android": "https://dc.lft.to/lastmile_qr_scan"}, "lon": -76.980927, "type": "electric_bike", "fusion_lat": 0.0, "lat": 38.881334, "name": "899b9f9d6a07cdc6dc78fd9f57855c7c", "fusion_lon": 0.0, "bike_id": "899b9f9d6a07cdc6dc78fd9f57855c7c", "is_disabled": 0, "is_reserved": 0}, {"rental_uris": {"ios": "https://dc.lft.to/lastmile_qr_scan", "android": "https://dc.lft.to/lastmile_qr_scan"}, "lon": -77.03864783333333, "type": "electric_scooter", "fusion_lat": 0.0, "lat": 38.9155005, "name": "71a345476236313a766f2a7474e3a1cd", "fusion_lon": 0.0, "bike_id": "71a345476236313a766f2a7474e3a1cd", "is_disabled": 0, "is_reserved": 0}, {"rental_uris": {"ios": "https://dc.lft.to/lastmile_qr_scan", "android": "https://dc.lft.to/lastmile_qr_scan"}, "lon": -77.07167166666666, "type": "electric_scooter", "fusion_lat": 0.0, "lat": 38.9145585, "name": "0262e0496fe663f8f48b9e47375eea9f", "fusion_lon": 0.0, "bike_id": "0262e0496fe663f8f48b9e47375eea9f", "is_disabled": 0, "is_reserved": 0}, {"rental_uris": {"ios": "https://dc.lft.to/lastmile_qr_scan", "android": "https://dc.lft.to/lastmile_qr_scan"}, "lon": -77.025951, "type": "electric_scooter", "fusion_lat": 0.0, "lat": 38.90757383333333, "name": "08645c162376d1370b436b9dc62ca519", "fusion_lon": 0.0, "bike_id": "08645c162376d1370b436b9dc62ca519", "is_disabled": 0, "is_reserved": 0}, {"rental_uris": {"ios": "https://dc.lft.to/lastmile_qr_scan", "android": "https://dc.lft.to/lastmile_qr_scan"}, "lon": -76.98091683333334, "type": "electric_bike", "fusion_lat": 0.0, "lat": 38.963618, "name": "e8c6ffa70982830e3e3565da30dc1d9a", "fusion_lon": 0.0, "bike_id": "e8c6ffa70982830e3e3565da30dc1d9a", "is_disabled": 0, "is_reserved": 0}, {"rental_uris": {"ios": "https://dc.lft.to/lastmile_qr_scan", "android": "https://dc.lft.to/lastmile_qr_scan"}, "lon": -77.04443183333333, "type": "electric_scooter", "fusion_lat": 0.0, "lat": 38.91879633333333, "name": "3d292f6ef59781c1e38a6ee87e413d38", "fusion_lon": 0.0, "bike_id": "3d292f6ef59781c1e38a6ee87e413d38", "is_disabled": 0, "is_reserved": 0}, {"rental_uris": {"ios": "https://dc.lft.to/lastmile_qr_scan", "android": "https://dc.lft.to/lastmile_qr_scan"}, "lon": -77.04417533333333, "type": "electric_scooter", "fusion_lat": 0.0, "lat": 38.906015, "name": "70bdc737b5c0e32924b015b820edc22b", "fusion_lon": 0.0, "bike_id": "70bdc737b5c0e32924b015b820edc22b", "is_disabled": 0, "is_reserved": 0}, {"rental_uris": {"ios": "https://dc.lft.to/lastmile_qr_scan", "android": "https://dc.lft.to/lastmile_qr_scan"}, "lon": -77.03007166666667, "type": "electric_scooter", "fusion_lat": 0.0, "lat": 38.91926466666666, "name": "da6232688cbcf1276330ce0723e49cea", "fusion_lon": 0.0, "bike_id": "da6232688cbcf1276330ce0723e49cea", "is_disabled": 0, "is_reserved": 0}, {"rental_uris": {"ios": "https://dc.lft.to/lastmile_qr_scan", "android": "https://dc.lft.to/lastmile_qr_scan"}, "lon": -77.02713366666667, "type": "electric_scooter", "fusion_lat": 0.0, "lat": 38.91821216666666, "name": "372e5dc9f047ec57995165f2c339fd60", "fusion_lon": 0.0, "bike_id": "372e5dc9f047ec57995165f2c339fd60", "is_disabled": 0, "is_reserved": 0}, {"rental_uris": {"ios": "https://dc.lft.to/lastmile_qr_scan", "android": "https://dc.lft.to/lastmile_qr_scan"}, "lon": -77.03271466666666, "type": "electric_scooter", "fusion_lat": 0.0, "lat": 38.9344845, "name": "0704c685fe361c2b382a7dd5e17a734f", "fusion_lon": 0.0, "bike_id": "0704c685fe361c2b382a7dd5e17a734f", "is_disabled": 0, "is_reserved": 0}, {"rental_uris": {"ios": "https://dc.lft.to/lastmile_qr_scan", "android": "https://dc.lft.to/lastmile_qr_scan"}, "lon": -77.05022766666667, "type": "electric_scooter", "fusion_lat": 0.0, "lat": 38.923571833333334, "name": "c95b51e7f6442b58572dd4cf35cb9130", "fusion_lon": 0.0, "bike_id": "c95b51e7f6442b58572dd4cf35cb9130", "is_disabled": 0, "is_reserved": 0}, {"rental_uris": {"ios": "https://dc.lft.to/lastmile_qr_scan", "android": "https://dc.lft.to/lastmile_qr_scan"}, "lon": -77.03505733333333, "type": "electric_scooter", "fusion_lat": 0.0, "lat": 38.923515333333334, "name": "6b5af98714c3c95b5867249413ce8141", "fusion_lon": 0.0, "bike_id": "6b5af98714c3c95b5867249413ce8141", "is_disabled": 0, "is_reserved": 0}, {"rental_uris": {"ios": "https://dc.lft.to/lastmile_qr_scan", "android": "https://dc.lft.to/lastmile_qr_scan"}, "lon": -77.03684516666667, "type": "electric_scooter", "fusion_lat": 0.0, "lat": 38.922606333333334, "name": "feb7fe4b9099b4ad8816a88effa42535", "fusion_lon": 0.0, "bike_id": "feb7fe4b9099b4ad8816a88effa42535", "is_disabled": 0, "is_reserved": 0}, {"rental_uris": {"ios": "https://dc.lft.to/lastmile_qr_scan", "android": "https://dc.lft.to/lastmile_qr_scan"}, "lon": -77.0382325, "type": "electric_scooter", "fusion_lat": 0.0, "lat": 38.907742666666664, "name": "b31c1795ed71d456d8e0d3a195b96033", "fusion_lon": 0.0, "bike_id": "b31c1795ed71d456d8e0d3a195b96033", "is_disabled": 0, "is_reserved": 0}, {"rental_uris": {"ios": "https://dc.lft.to/lastmile_qr_scan", "android": "https://dc.lft.to/lastmile_qr_scan"}, "lon": -77.03901033333334, "type": "electric_scooter", "fusion_lat": 0.0, "lat": 38.92217866666667, "name": "527aaff2f5bbba9a50bc3847efc73886", "fusion_lon": 0.0, "bike_id": "527aaff2f5bbba9a50bc3847efc73886", "is_disabled": 0, "is_reserved": 0}, {"rental_uris": {"ios": "https://dc.lft.to/lastmile_qr_scan", "android": "https://dc.lft.to/lastmile_qr_scan"}, "lon": -77.0318785, "type": "electric_scooter", "fusion_lat": 0.0, "lat": 38.917580666666666, "name": "46cee11b624c3a61dd343abcf84e43b1", "fusion_lon": 0.0, "bike_id": "46cee11b624c3a61dd343abcf84e43b1", "is_disabled": 0, "is_reserved": 0}, {"rental_uris": {"ios": "https://dc.lft.to/lastmile_qr_scan", "android": "https://dc.lft.to/lastmile_qr_scan"}, "lon": -77.01702716666667, "type": "electric_scooter", "fusion_lat": 0.0, "lat": 38.920242333333334, "name": "155e86d27cae1935ad92fa835899cc48", "fusion_lon": 0.0, "bike_id": "155e86d27cae1935ad92fa835899cc48", "is_disabled": 0, "is_reserved": 0}, {"rental_uris": {"ios": "https://dc.lft.to/lastmile_qr_scan", "android": "https://dc.lft.to/lastmile_qr_scan"}, "lon": -77.03868933333334, "type": "electric_scooter", "fusion_lat": 0.0, "lat": 38.91559316666667, "name": "3b4e805492acdc20d6c079ef7cfe8c70", "fusion_lon": 0.0, "bike_id": "3b4e805492acdc20d6c079ef7cfe8c70", "is_disabled": 0, "is_reserved": 0}, {"rental_uris": {"ios": "https://dc.lft.to/lastmile_qr_scan", "android": "https://dc.lft.to/lastmile_qr_scan"}, "lon": -76.999329, "type": "electric_scooter", "fusion_lat": 0.0, "lat": 38.896194, "name": "4036dfde64314a86b6f30f854b8cbdb5", "fusion_lon": 0.0, "bike_id": "4036dfde64314a86b6f30f854b8cbdb5", "is_disabled": 0, "is_reserved": 0}, {"rental_uris": {"ios": "https://dc.lft.to/lastmile_qr_scan", "android": "https://dc.lft.to/lastmile_qr_scan"}, "lon": -77.04558, "type": "electric_scooter", "fusion_lat": 0.0, "lat": 38.9179055, "name": "b6d0800ff1a5993470f898488aa93feb", "fusion_lon": 0.0, "bike_id": "b6d0800ff1a5993470f898488aa93feb", "is_disabled": 0, "is_reserved": 0}, {"rental_uris": {"ios": "https://dc.lft.to/lastmile_qr_scan", "android": "https://dc.lft.to/lastmile_qr_scan"}, "lon": -77.01303783333333, "type": "electric_scooter", "fusion_lat": 0.0, "lat": 38.900592, "name": "8f177087c93327b74bfecbaed6cb546d", "fusion_lon": 0.0, "bike_id": "8f177087c93327b74bfecbaed6cb546d", "is_disabled": 0, "is_reserved": 0}, {"rental_uris": {"ios": "https://dc.lft.to/lastmile_qr_scan", "android": "https://dc.lft.to/lastmile_qr_scan"}, "lon": -77.02401866666666, "type": "electric_scooter", "fusion_lat": 0.0, "lat": 38.91108533333333, "name": "7423829a02bbea51ae3307b526a8e25e", "fusion_lon": 0.0, "bike_id": "7423829a02bbea51ae3307b526a8e25e", "is_disabled": 0, "is_reserved": 0}, {"rental_uris": {"ios": "https://dc.lft.to/lastmile_qr_scan", "android": "https://dc.lft.to/lastmile_qr_scan"}, "lon": -77.02835783333333, "type": "electric_scooter", "fusion_lat": 0.0, "lat": 38.887703, "name": "941dbb3057d7d7c2bb2b0bcc9aad1141", "fusion_lon": 0.0, "bike_id": "941dbb3057d7d7c2bb2b0bcc9aad1141", "is_disabled": 0, "is_reserved": 0}, {"rental_uris": {"ios": "https://dc.lft.to/lastmile_qr_scan", "android": "https://dc.lft.to/lastmile_qr_scan"}, "lon": -77.0455855, "type": "electric_scooter", "fusion_lat": 0.0, "lat": 38.91043, "name": "2eee8fb0ac6592cffae0013ae6674f79", "fusion_lon": 0.0, "bike_id": "2eee8fb0ac6592cffae0013ae6674f79", "is_disabled": 0, "is_reserved": 0}, {"rental_uris": {"ios": "https://dc.lft.to/lastmile_qr_scan", "android": "https://dc.lft.to/lastmile_qr_scan"}, "lon": -77.0222235, "type": "electric_scooter", "fusion_lat": 0.0, "lat": 38.893557, "name": "044fdcdae22bcedf8a559cfcd3601e83", "fusion_lon": 0.0, "bike_id": "044fdcdae22bcedf8a559cfcd3601e83", "is_disabled": 0, "is_reserved": 0}, {"rental_uris": {"ios": "https://dc.lft.to/lastmile_qr_scan", "android": "https://dc.lft.to/lastmile_qr_scan"}, "lon": -77.02178966666666, "type": "electric_scooter", "fusion_lat": 0.0, "lat": 38.8925135, "name": "004068d7402d724932e9b285ca118dd4", "fusion_lon": 0.0, "bike_id": "004068d7402d724932e9b285ca118dd4", "is_disabled": 0, "is_reserved": 0}, {"rental_uris": {"ios": "https://dc.lft.to/lastmile_qr_scan", "android": "https://dc.lft.to/lastmile_qr_scan"}, "lon": -77.03864883333334, "type": "electric_scooter", "fusion_lat": 0.0, "lat": 38.91556666666666, "name": "e6607e9cd63ab68e4c8c50f80b2baa62", "fusion_lon": 0.0, "bike_id": "e6607e9cd63ab68e4c8c50f80b2baa62", "is_disabled": 0, "is_reserved": 0}, {"rental_uris": {"ios": "https://dc.lft.to/lastmile_qr_scan", "android": "https://dc.lft.to/lastmile_qr_scan"}, "lon": -77.04514216666666, "type": "electric_scooter", "fusion_lat": 0.0, "lat": 38.907888, "name": "510549ef841fda98a53ffde4bc02aafc", "fusion_lon": 0.0, "bike_id": "510549ef841fda98a53ffde4bc02aafc", "is_disabled": 0, "is_reserved": 0}, {"rental_uris": {"ios": "https://dc.lft.to/lastmile_qr_scan", "android": "https://dc.lft.to/lastmile_qr_scan"}, "lon": -77.03698133333333, "type": "electric_scooter", "fusion_lat": 0.0, "lat": 38.935233833333335, "name": "d17bfadda8177adbc8643c2fc4dbe8d1", "fusion_lon": 0.0, "bike_id": "d17bfadda8177adbc8643c2fc4dbe8d1", "is_disabled": 0, "is_reserved": 0}, {"rental_uris": {"ios": "https://dc.lft.to/lastmile_qr_scan", "android": "https://dc.lft.to/lastmile_qr_scan"}, "lon": -76.93195366666667, "type": "electric_scooter", "fusion_lat": 0.0, "lat": 38.88994783333333, "name": "a7a0c39bb830fa5a45b8bb00ae2fb69c", "fusion_lon": 0.0, "bike_id": "a7a0c39bb830fa5a45b8bb00ae2fb69c", "is_disabled": 0, "is_reserved": 0}, {"rental_uris": {"ios": "https://dc.lft.to/lastmile_qr_scan", "android": "https://dc.lft.to/lastmile_qr_scan"}, "lon": -76.97347666666667, "type": "electric_scooter", "fusion_lat": 0.0, "lat": 38.86511483333334, "name": "96f151d8f39863816043e60c30e02717", "fusion_lon": 0.0, "bike_id": "96f151d8f39863816043e60c30e02717", "is_disabled": 0, "is_reserved": 0}, {"rental_uris": {"ios": "https://dc.lft.to/lastmile_qr_scan", "android": "https://dc.lft.to/lastmile_qr_scan"}, "lon": -77.0179665, "type": "electric_scooter", "fusion_lat": 0.0, "lat": 38.904367666666666, "name": "3ce8da86bcc9b009673e56ddc96e7cf3", "fusion_lon": 0.0, "bike_id": "3ce8da86bcc9b009673e56ddc96e7cf3", "is_disabled": 0, "is_reserved": 0}, {"rental_uris": {"ios": "https://dc.lft.to/lastmile_qr_scan", "android": "https://dc.lft.to/lastmile_qr_scan"}, "lon": -77.029859, "type": "electric_scooter", "fusion_lat": 0.0, "lat": 38.92468616666667, "name": "a274cabee706c4df964c208614af12c5", "fusion_lon": 0.0, "bike_id": "a274cabee706c4df964c208614af12c5", "is_disabled": 0, "is_reserved": 0}, {"rental_uris": {"ios": "https://dc.lft.to/lastmile_qr_scan", "android": "https://dc.lft.to/lastmile_qr_scan"}, "lon": -77.01507783333334, "type": "electric_scooter", "fusion_lat": 0.0, "lat": 38.90147616666667, "name": "11a66fa01540f6622382f695e137065a", "fusion_lon": 0.0, "bike_id": "11a66fa01540f6622382f695e137065a", "is_disabled": 0, "is_reserved": 0}, {"rental_uris": {"ios": "https://dc.lft.to/lastmile_qr_scan", "android": "https://dc.lft.to/lastmile_qr_scan"}, "lon": -77.00573733333333, "type": "electric_scooter", "fusion_lat": 0.0, "lat": 38.90622483333333, "name": "119a299e3b41c17c44958746a48e3a27", "fusion_lon": 0.0, "bike_id": "119a299e3b41c17c44958746a48e3a27", "is_disabled": 0, "is_reserved": 0}, {"rental_uris": {"ios": "https://dc.lft.to/lastmile_qr_scan", "android": "https://dc.lft.to/lastmile_qr_scan"}, "lon": -77.03659116666667, "type": "electric_scooter", "fusion_lat": 0.0, "lat": 38.9230065, "name": "1c60219c36dff94790c649fbea6fb3d2", "fusion_lon": 0.0, "bike_id": "1c60219c36dff94790c649fbea6fb3d2", "is_disabled": 0, "is_reserved": 0}, {"rental_uris": {"ios": "https://dc.lft.to/lastmile_qr_scan", "android": "https://dc.lft.to/lastmile_qr_scan"}, "lon": -77.0087505, "type": "electric_scooter", "fusion_lat": 0.0, "lat": 38.90572616666667, "name": "cc83c64e113b8c496907dc2396ac1168", "fusion_lon": 0.0, "bike_id": "cc83c64e113b8c496907dc2396ac1168", "is_disabled": 0, "is_reserved": 0}, {"rental_uris": {"ios": "https://dc.lft.to/lastmile_qr_scan", "android": "https://dc.lft.to/lastmile_qr_scan"}, "lon": -76.98703333333333, "type": "electric_scooter", "fusion_lat": 0.0, "lat": 38.901558, "name": "46a0d0cfcdb9407d1dc86d1f2773af26", "fusion_lon": 0.0, "bike_id": "46a0d0cfcdb9407d1dc86d1f2773af26", "is_disabled": 0, "is_reserved": 0}, {"rental_uris": {"ios": "https://dc.lft.to/lastmile_qr_scan", "android": "https://dc.lft.to/lastmile_qr_scan"}, "lon": -77.05145566666667, "type": "electric_scooter", "fusion_lat": 0.0, "lat": 38.90571816666667, "name": "13fbce6b9dfe43ea209682289489a0bb", "fusion_lon": 0.0, "bike_id": "13fbce6b9dfe43ea209682289489a0bb", "is_disabled": 0, "is_reserved": 0}, {"rental_uris": {"ios": "https://dc.lft.to/lastmile_qr_scan", "android": "https://dc.lft.to/lastmile_qr_scan"}, "lon": -77.0508295, "type": "electric_scooter", "fusion_lat": 0.0, "lat": 38.896164, "name": "5c06f394c0dfead24277a460a19e66f6", "fusion_lon": 0.0, "bike_id": "5c06f394c0dfead24277a460a19e66f6", "is_disabled": 0, "is_reserved": 0}, {"rental_uris": {"ios": "https://dc.lft.to/lastmile_qr_scan", "android": "https://dc.lft.to/lastmile_qr_scan"}, "lon": -76.97211633333333, "type": "electric_scooter", "fusion_lat": 0.0, "lat": 38.854921, "name": "1fb5b94b03745f0d23fef7bb3d46eb9d", "fusion_lon": 0.0, "bike_id": "1fb5b94b03745f0d23fef7bb3d46eb9d", "is_disabled": 0, "is_reserved": 0}, {"rental_uris": {"ios": "https://dc.lft.to/lastmile_qr_scan", "android": "https://dc.lft.to/lastmile_qr_scan"}, "lon": -76.99881866666666, "type": "electric_scooter", "fusion_lat": 0.0, "lat": 38.907448333333335, "name": "9bf68b0c0c1b2d30a0cd614cb8181ff0", "fusion_lon": 0.0, "bike_id": "9bf68b0c0c1b2d30a0cd614cb8181ff0", "is_disabled": 0, "is_reserved": 0}, {"rental_uris": {"ios": "https://dc.lft.to/lastmile_qr_scan", "android": "https://dc.lft.to/lastmile_qr_scan"}, "lon": -77.03441016666666, "type": "electric_scooter", "fusion_lat": 0.0, "lat": 38.90756833333333, "name": "78fd363d27b2aaf5af3f5a1c9d74a46e", "fusion_lon": 0.0, "bike_id": "78fd363d27b2aaf5af3f5a1c9d74a46e", "is_disabled": 0, "is_reserved": 0}, {"rental_uris": {"ios": "https://dc.lft.to/lastmile_qr_scan", "android": "https://dc.lft.to/lastmile_qr_scan"}, "lon": -76.98558383333334, "type": "electric_bike", "fusion_lat": 0.0, "lat": 38.8689075, "name": "f91f06f97cd2d03b89bf483e32944898", "fusion_lon": 0.0, "bike_id": "f91f06f97cd2d03b89bf483e32944898", "is_disabled": 0, "is_reserved": 0}, {"rental_uris": {"ios": "https://dc.lft.to/lastmile_qr_scan", "android": "https://dc.lft.to/lastmile_qr_scan"}, "lon": -77.03281016666666, "type": "electric_scooter", "fusion_lat": 0.0, "lat": 38.93202633333333, "name": "c878647468919d0db223416e56ef7ec7", "fusion_lon": 0.0, "bike_id": "c878647468919d0db223416e56ef7ec7", "is_disabled": 0, "is_reserved": 0}, {"rental_uris": {"ios": "https://dc.lft.to/lastmile_qr_scan", "android": "https://dc.lft.to/lastmile_qr_scan"}, "lon": -77.0363255, "type": "electric_scooter", "fusion_lat": 0.0, "lat": 38.9371605, "name": "5d369e9e6efeccd54b8a74c203d6272d", "fusion_lon": 0.0, "bike_id": "5d369e9e6efeccd54b8a74c203d6272d", "is_disabled": 0, "is_reserved": 0}, {"rental_uris": {"ios": "https://dc.lft.to/lastmile_qr_scan", "android": "https://dc.lft.to/lastmile_qr_scan"}, "lon": -77.07169116666667, "type": "electric_scooter", "fusion_lat": 0.0, "lat": 38.90750283333333, "name": "5de0bd9c711c413dea7ec3dd4a421fd8", "fusion_lon": 0.0, "bike_id": "5de0bd9c711c413dea7ec3dd4a421fd8", "is_disabled": 0, "is_reserved": 0}, {"rental_uris": {"ios": "https://dc.lft.to/lastmile_qr_scan", "android": "https://dc.lft.to/lastmile_qr_scan"}, "lon": -76.99147316666667, "type": "electric_scooter", "fusion_lat": 0.0, "lat": 38.885955333333335, "name": "e5f0067c413dba286e7eb12ddc429357", "fusion_lon": 0.0, "bike_id": "e5f0067c413dba286e7eb12ddc429357", "is_disabled": 0, "is_reserved": 0}, {"rental_uris": {"ios": "https://dc.lft.to/lastmile_qr_scan", "android": "https://dc.lft.to/lastmile_qr_scan"}, "lon": -77.0220285, "type": "electric_scooter", "fusion_lat": 0.0, "lat": 38.907652666666664, "name": "769cc95fb94a3b7a544318ab85536d33", "fusion_lon": 0.0, "bike_id": "769cc95fb94a3b7a544318ab85536d33", "is_disabled": 0, "is_reserved": 0}, {"rental_uris": {"ios": "https://dc.lft.to/lastmile_qr_scan", "android": "https://dc.lft.to/lastmile_qr_scan"}, "lon": -77.026904, "type": "electric_scooter", "fusion_lat": 0.0, "lat": 38.9093325, "name": "e23ecbf32051e162972a4971600fbb73", "fusion_lon": 0.0, "bike_id": "e23ecbf32051e162972a4971600fbb73", "is_disabled": 0, "is_reserved": 0}, {"rental_uris": {"ios": "https://dc.lft.to/lastmile_qr_scan", "android": "https://dc.lft.to/lastmile_qr_scan"}, "lon": -77.0426715, "type": "electric_scooter", "fusion_lat": 0.0, "lat": 38.934126, "name": "699c999a5de356138852b6724adab6ca", "fusion_lon": 0.0, "bike_id": "699c999a5de356138852b6724adab6ca", "is_disabled": 0, "is_reserved": 0}, {"rental_uris": {"ios": "https://dc.lft.to/lastmile_qr_scan", "android": "https://dc.lft.to/lastmile_qr_scan"}, "lon": -76.946318, "type": "electric_bike", "fusion_lat": 0.0, "lat": 38.9462505, "name": "37765b6c4867fa47baefa3538f6f312f", "fusion_lon": 0.0, "bike_id": "37765b6c4867fa47baefa3538f6f312f", "is_disabled": 0, "is_reserved": 0}, {"rental_uris": {"ios": "https://dc.lft.to/lastmile_qr_scan", "android": "https://dc.lft.to/lastmile_qr_scan"}, "lon": -77.03174666666666, "type": "electric_scooter", "fusion_lat": 0.0, "lat": 38.893784333333336, "name": "71094b46f6bfb34c64efacb9e95e2ec6", "fusion_lon": 0.0, "bike_id": "71094b46f6bfb34c64efacb9e95e2ec6", "is_disabled": 0, "is_reserved": 0}, {"rental_uris": {"ios": "https://dc.lft.to/lastmile_qr_scan", "android": "https://dc.lft.to/lastmile_qr_scan"}, "lon": -77.022018, "type": "electric_scooter", "fusion_lat": 0.0, "lat": 38.915366666666664, "name": "62de92d009798de30cac157dab223e5d", "fusion_lon": 0.0, "bike_id": "62de92d009798de30cac157dab223e5d", "is_disabled": 0, "is_reserved": 0}, {"rental_uris": {"ios": "https://dc.lft.to/lastmile_qr_scan", "android": "https://dc.lft.to/lastmile_qr_scan"}, "lon": -77.03955333333333, "type": "electric_scooter", "fusion_lat": 0.0, "lat": 38.8924415, "name": "4ea7f3f9e9ee80c31e1eda726d37f370", "fusion_lon": 0.0, "bike_id": "4ea7f3f9e9ee80c31e1eda726d37f370", "is_disabled": 0, "is_reserved": 0}, {"rental_uris": {"ios": "https://dc.lft.to/lastmile_qr_scan", "android": "https://dc.lft.to/lastmile_qr_scan"}, "lon": -76.95514866666667, "type": "electric_scooter", "fusion_lat": 0.0, "lat": 38.8905545, "name": "e63b5c975f3114383fd9a0609746d9a3", "fusion_lon": 0.0, "bike_id": "e63b5c975f3114383fd9a0609746d9a3", "is_disabled": 0, "is_reserved": 0}, {"rental_uris": {"ios": "https://dc.lft.to/lastmile_qr_scan", "android": "https://dc.lft.to/lastmile_qr_scan"}, "lon": -77.02614316666667, "type": "electric_scooter", "fusion_lat": 0.0, "lat": 38.91674416666667, "name": "8bbacd291ca3b708f5edd48d28ec0fc2", "fusion_lon": 0.0, "bike_id": "8bbacd291ca3b708f5edd48d28ec0fc2", "is_disabled": 0, "is_reserved": 0}, {"rental_uris": {"ios": "https://dc.lft.to/lastmile_qr_scan", "android": "https://dc.lft.to/lastmile_qr_scan"}, "lon": -76.9802065, "type": "electric_scooter", "fusion_lat": 0.0, "lat": 38.88767683333333, "name": "2aa757f9a96297469b14a704e6bd5e46", "fusion_lon": 0.0, "bike_id": "2aa757f9a96297469b14a704e6bd5e46", "is_disabled": 0, "is_reserved": 0}, {"rental_uris": {"ios": "https://dc.lft.to/lastmile_qr_scan", "android": "https://dc.lft.to/lastmile_qr_scan"}, "lon": -76.99921833333333, "type": "electric_scooter", "fusion_lat": 0.0, "lat": 38.90909083333333, "name": "2b155ed3a883709dea966f70b6337b59", "fusion_lon": 0.0, "bike_id": "2b155ed3a883709dea966f70b6337b59", "is_disabled": 0, "is_reserved": 0}, {"rental_uris": {"ios": "https://dc.lft.to/lastmile_qr_scan", "android": "https://dc.lft.to/lastmile_qr_scan"}, "lon": -76.98231916666667, "type": "electric_scooter", "fusion_lat": 0.0, "lat": 38.86762566666667, "name": "b25e69964768b85d6249c00acc9cc007", "fusion_lon": 0.0, "bike_id": "b25e69964768b85d6249c00acc9cc007", "is_disabled": 0, "is_reserved": 0}, {"rental_uris": {"ios": "https://dc.lft.to/lastmile_qr_scan", "android": "https://dc.lft.to/lastmile_qr_scan"}, "lon": -77.0350655, "type": "electric_scooter", "fusion_lat": 0.0, "lat": 38.91878533333333, "name": "5bc0daee60964b85bb4f26247cef68f6", "fusion_lon": 0.0, "bike_id": "5bc0daee60964b85bb4f26247cef68f6", "is_disabled": 0, "is_reserved": 0}, {"rental_uris": {"ios": "https://dc.lft.to/lastmile_qr_scan", "android": "https://dc.lft.to/lastmile_qr_scan"}, "lon": -77.055129, "type": "electric_scooter", "fusion_lat": 0.0, "lat": 38.9283475, "name": "0ed2f2e85fd9eefc779dea7607f432d6", "fusion_lon": 0.0, "bike_id": "0ed2f2e85fd9eefc779dea7607f432d6", "is_disabled": 0, "is_reserved": 0}, {"rental_uris": {"ios": "https://dc.lft.to/lastmile_qr_scan", "android": "https://dc.lft.to/lastmile_qr_scan"}, "lon": -77.03369316666667, "type": "electric_scooter", "fusion_lat": 0.0, "lat": 38.9287975, "name": "c5a3ec778387c86e5723c7182f3ae77d", "fusion_lon": 0.0, "bike_id": "c5a3ec778387c86e5723c7182f3ae77d", "is_disabled": 0, "is_reserved": 0}, {"rental_uris": {"ios": "https://dc.lft.to/lastmile_qr_scan", "android": "https://dc.lft.to/lastmile_qr_scan"}, "lon": -77.025732, "type": "electric_scooter", "fusion_lat": 0.0, "lat": 38.8874715, "name": "d3e1a2f91f830870fe2573ceef89d7be", "fusion_lon": 0.0, "bike_id": "d3e1a2f91f830870fe2573ceef89d7be", "is_disabled": 0, "is_reserved": 0}, {"rental_uris": {"ios": "https://dc.lft.to/lastmile_qr_scan", "android": "https://dc.lft.to/lastmile_qr_scan"}, "lon": -77.03524166666666, "type": "electric_scooter", "fusion_lat": 0.0, "lat": 38.923404166666664, "name": "d508960a66a5124bfc9e81519af222a7", "fusion_lon": 0.0, "bike_id": "d508960a66a5124bfc9e81519af222a7", "is_disabled": 0, "is_reserved": 0}, {"rental_uris": {"ios": "https://dc.lft.to/lastmile_qr_scan", "android": "https://dc.lft.to/lastmile_qr_scan"}, "lon": -77.0575675, "type": "electric_scooter", "fusion_lat": 0.0, "lat": 38.93416716666667, "name": "6355024167c7c71815cd3594d14d16e0", "fusion_lon": 0.0, "bike_id": "6355024167c7c71815cd3594d14d16e0", "is_disabled": 0, "is_reserved": 0}, {"rental_uris": {"ios": "https://dc.lft.to/lastmile_qr_scan", "android": "https://dc.lft.to/lastmile_qr_scan"}, "lon": -77.02171516666667, "type": "electric_scooter", "fusion_lat": 0.0, "lat": 38.89734966666666, "name": "c1de66843538016f80845a10545a3da6", "fusion_lon": 0.0, "bike_id": "c1de66843538016f80845a10545a3da6", "is_disabled": 0, "is_reserved": 0}, {"rental_uris": {"ios": "https://dc.lft.to/lastmile_qr_scan", "android": "https://dc.lft.to/lastmile_qr_scan"}, "lon": -77.04620916666667, "type": "electric_scooter", "fusion_lat": 0.0, "lat": 38.9163835, "name": "312082429f68f2cbf0a1a448d96795dd", "fusion_lon": 0.0, "bike_id": "312082429f68f2cbf0a1a448d96795dd", "is_disabled": 0, "is_reserved": 0}, {"rental_uris": {"ios": "https://dc.lft.to/lastmile_qr_scan", "android": "https://dc.lft.to/lastmile_qr_scan"}, "lon": -77.07191216666666, "type": "electric_scooter", "fusion_lat": 0.0, "lat": 38.91999633333333, "name": "89a88cef65061d28a7df18d1f6d051d3", "fusion_lon": 0.0, "bike_id": "89a88cef65061d28a7df18d1f6d051d3", "is_disabled": 0, "is_reserved": 0}, {"rental_uris": {"ios": "https://dc.lft.to/lastmile_qr_scan", "android": "https://dc.lft.to/lastmile_qr_scan"}, "lon": -77.02639433333333, "type": "electric_scooter", "fusion_lat": 0.0, "lat": 38.927831833333336, "name": "11e2b9b2a0d2d8725b6408b402ec9350", "fusion_lon": 0.0, "bike_id": "11e2b9b2a0d2d8725b6408b402ec9350", "is_disabled": 0, "is_reserved": 0}, {"rental_uris": {"ios": "https://dc.lft.to/lastmile_qr_scan", "android": "https://dc.lft.to/lastmile_qr_scan"}, "lon": -77.05514383333333, "type": "electric_scooter", "fusion_lat": 0.0, "lat": 38.9300345, "name": "97325308bf45a217fe8ce60c6a468f67", "fusion_lon": 0.0, "bike_id": "97325308bf45a217fe8ce60c6a468f67", "is_disabled": 0, "is_reserved": 0}, {"rental_uris": {"ios": "https://dc.lft.to/lastmile_qr_scan", "android": "https://dc.lft.to/lastmile_qr_scan"}, "lon": -76.99624166666666, "type": "electric_scooter", "fusion_lat": 0.0, "lat": 38.88545033333333, "name": "53ee16f9d503537dbbbf0a623efaee5a", "fusion_lon": 0.0, "bike_id": "53ee16f9d503537dbbbf0a623efaee5a", "is_disabled": 0, "is_reserved": 0}, {"rental_uris": {"ios": "https://dc.lft.to/lastmile_qr_scan", "android": "https://dc.lft.to/lastmile_qr_scan"}, "lon": -77.04461816666667, "type": "electric_scooter", "fusion_lat": 0.0, "lat": 38.90940966666667, "name": "32d35b6e3979fa28180338e48c5206bc", "fusion_lon": 0.0, "bike_id": "32d35b6e3979fa28180338e48c5206bc", "is_disabled": 0, "is_reserved": 0}, {"rental_uris": {"ios": "https://dc.lft.to/lastmile_qr_scan", "android": "https://dc.lft.to/lastmile_qr_scan"}, "lon": -77.00585266666667, "type": "electric_scooter", "fusion_lat": 0.0, "lat": 38.844963, "name": "113b02820f0dc515b87424a2327037e9", "fusion_lon": 0.0, "bike_id": "113b02820f0dc515b87424a2327037e9", "is_disabled": 0, "is_reserved": 0}, {"rental_uris": {"ios": "https://dc.lft.to/lastmile_qr_scan", "android": "https://dc.lft.to/lastmile_qr_scan"}, "lon": -77.0238895, "type": "electric_scooter", "fusion_lat": 0.0, "lat": 38.9573345, "name": "f0c12ce881dedce0fa1914fff572f57f", "fusion_lon": 0.0, "bike_id": "f0c12ce881dedce0fa1914fff572f57f", "is_disabled": 0, "is_reserved": 0}, {"rental_uris": {"ios": "https://dc.lft.to/lastmile_qr_scan", "android": "https://dc.lft.to/lastmile_qr_scan"}, "lon": -77.05025483333333, "type": "electric_scooter", "fusion_lat": 0.0, "lat": 38.901636, "name": "dc7335bf239b93e091485d93131fef01", "fusion_lon": 0.0, "bike_id": "dc7335bf239b93e091485d93131fef01", "is_disabled": 0, "is_reserved": 0}, {"rental_uris": {"ios": "https://dc.lft.to/lastmile_qr_scan", "android": "https://dc.lft.to/lastmile_qr_scan"}, "lon": -76.992558, "type": "electric_scooter", "fusion_lat": 0.0, "lat": 38.919823666666666, "name": "4af4382a6f7589d8b4f64f416c6a6e81", "fusion_lon": 0.0, "bike_id": "4af4382a6f7589d8b4f64f416c6a6e81", "is_disabled": 0, "is_reserved": 0}, {"rental_uris": {"ios": "https://dc.lft.to/lastmile_qr_scan", "android": "https://dc.lft.to/lastmile_qr_scan"}, "lon": -76.98725816666666, "type": "electric_scooter", "fusion_lat": 0.0, "lat": 38.8670975, "name": "219266e150dd3dafd8f2abb4c47d5bb7", "fusion_lon": 0.0, "bike_id": "219266e150dd3dafd8f2abb4c47d5bb7", "is_disabled": 0, "is_reserved": 0}, {"rental_uris": {"ios": "https://dc.lft.to/lastmile_qr_scan", "android": "https://dc.lft.to/lastmile_qr_scan"}, "lon": -77.0151835, "type": "electric_scooter", "fusion_lat": 0.0, "lat": 38.91869533333333, "name": "5ce0f700d75e05bbc6a0c0df90d84804", "fusion_lon": 0.0, "bike_id": "5ce0f700d75e05bbc6a0c0df90d84804", "is_disabled": 0, "is_reserved": 0}, {"rental_uris": {"ios": "https://dc.lft.to/lastmile_qr_scan", "android": "https://dc.lft.to/lastmile_qr_scan"}, "lon": -76.9719385, "type": "electric_scooter", "fusion_lat": 0.0, "lat": 38.912644666666665, "name": "03c86405165c62800f1cde096a076c23", "fusion_lon": 0.0, "bike_id": "03c86405165c62800f1cde096a076c23", "is_disabled": 0, "is_reserved": 0}, {"rental_uris": {"ios": "https://dc.lft.to/lastmile_qr_scan", "android": "https://dc.lft.to/lastmile_qr_scan"}, "lon": -77.06694433333334, "type": "electric_scooter", "fusion_lat": 0.0, "lat": 38.909772, "name": "c8dd1cec605da186691d51627d16fc76", "fusion_lon": 0.0, "bike_id": "c8dd1cec605da186691d51627d16fc76", "is_disabled": 0, "is_reserved": 0}, {"rental_uris": {"ios": "https://dc.lft.to/lastmile_qr_scan", "android": "https://dc.lft.to/lastmile_qr_scan"}, "lon": -77.02947683333333, "type": "electric_scooter", "fusion_lat": 0.0, "lat": 38.91684466666667, "name": "acf04683f14483c53f1b2bbbaed81c7e", "fusion_lon": 0.0, "bike_id": "acf04683f14483c53f1b2bbbaed81c7e", "is_disabled": 0, "is_reserved": 0}, {"rental_uris": {"ios": "https://dc.lft.to/lastmile_qr_scan", "android": "https://dc.lft.to/lastmile_qr_scan"}, "lon": -76.9760955, "type": "electric_bike", "fusion_lat": 0.0, "lat": 38.91311116666667, "name": "4e2074dc255ce99c2856e34dfa402620", "fusion_lon": 0.0, "bike_id": "4e2074dc255ce99c2856e34dfa402620", "is_disabled": 0, "is_reserved": 0}, {"rental_uris": {"ios": "https://dc.lft.to/lastmile_qr_scan", "android": "https://dc.lft.to/lastmile_qr_scan"}, "lon": -77.00247383333334, "type": "electric_bike", "fusion_lat": 0.0, "lat": 38.911816, "name": "f369080b9de61174afe0669ba39001dd", "fusion_lon": 0.0, "bike_id": "f369080b9de61174afe0669ba39001dd", "is_disabled": 0, "is_reserved": 0}, {"rental_uris": {"ios": "https://dc.lft.to/lastmile_qr_scan", "android": "https://dc.lft.to/lastmile_qr_scan"}, "lon": -77.018224, "type": "electric_scooter", "fusion_lat": 0.0, "lat": 38.9081595, "name": "695459874254ab45faa4eb104ae2aec4", "fusion_lon": 0.0, "bike_id": "695459874254ab45faa4eb104ae2aec4", "is_disabled": 0, "is_reserved": 0}, {"rental_uris": {"ios": "https://dc.lft.to/lastmile_qr_scan", "android": "https://dc.lft.to/lastmile_qr_scan"}, "lon": -77.02317166666667, "type": "electric_scooter", "fusion_lat": 0.0, "lat": 38.88737866666666, "name": "493e80bbd1902e51f75382f2bb9d8795", "fusion_lon": 0.0, "bike_id": "493e80bbd1902e51f75382f2bb9d8795", "is_disabled": 0, "is_reserved": 0}, {"rental_uris": {"ios": "https://dc.lft.to/lastmile_qr_scan", "android": "https://dc.lft.to/lastmile_qr_scan"}, "lon": -77.00452666666666, "type": "electric_scooter", "fusion_lat": 0.0, "lat": 38.876873333333336, "name": "ce529b384bcf161983799596547c3738", "fusion_lon": 0.0, "bike_id": "ce529b384bcf161983799596547c3738", "is_disabled": 0, "is_reserved": 0}, {"rental_uris": {"ios": "https://dc.lft.to/lastmile_qr_scan", "android": "https://dc.lft.to/lastmile_qr_scan"}, "lon": -77.04393833333333, "type": "electric_scooter", "fusion_lat": 0.0, "lat": 38.922777333333336, "name": "973c8c35ce17fdccf310f71a599e064f", "fusion_lon": 0.0, "bike_id": "973c8c35ce17fdccf310f71a599e064f", "is_disabled": 0, "is_reserved": 0}, {"rental_uris": {"ios": "https://dc.lft.to/lastmile_qr_scan", "android": "https://dc.lft.to/lastmile_qr_scan"}, "lon": -77.020033, "type": "electric_scooter", "fusion_lat": 0.0, "lat": 38.892480666666664, "name": "d913eb63cadbf3a2866f9c4d2d84e7db", "fusion_lon": 0.0, "bike_id": "d913eb63cadbf3a2866f9c4d2d84e7db", "is_disabled": 0, "is_reserved": 0}, {"rental_uris": {"ios": "https://dc.lft.to/lastmile_qr_scan", "android": "https://dc.lft.to/lastmile_qr_scan"}, "lon": -76.99033866666667, "type": "electric_scooter", "fusion_lat": 0.0, "lat": 38.8587135, "name": "4e0c5132c7bdc834f206ff0b15b7b7ae", "fusion_lon": 0.0, "bike_id": "4e0c5132c7bdc834f206ff0b15b7b7ae", "is_disabled": 0, "is_reserved": 0}, {"rental_uris": {"ios": "https://dc.lft.to/lastmile_qr_scan", "android": "https://dc.lft.to/lastmile_qr_scan"}, "lon": -77.035017, "type": "electric_scooter", "fusion_lat": 0.0, "lat": 38.9027075, "name": "047b6349c8659aa52c3b040f6841e873", "fusion_lon": 0.0, "bike_id": "047b6349c8659aa52c3b040f6841e873", "is_disabled": 0, "is_reserved": 0}, {"rental_uris": {"ios": "https://dc.lft.to/lastmile_qr_scan", "android": "https://dc.lft.to/lastmile_qr_scan"}, "lon": -77.02127266666666, "type": "electric_scooter", "fusion_lat": 0.0, "lat": 38.9097125, "name": "619bf4ea5838b005fe57b6533b8bedad", "fusion_lon": 0.0, "bike_id": "619bf4ea5838b005fe57b6533b8bedad", "is_disabled": 0, "is_reserved": 0}, {"rental_uris": {"ios": "https://dc.lft.to/lastmile_qr_scan", "android": "https://dc.lft.to/lastmile_qr_scan"}, "lon": -77.06791966666667, "type": "electric_scooter", "fusion_lat": 0.0, "lat": 38.95206983333333, "name": "86c02500d2fd88248efa4596a561c6f2", "fusion_lon": 0.0, "bike_id": "86c02500d2fd88248efa4596a561c6f2", "is_disabled": 0, "is_reserved": 0}, {"rental_uris": {"ios": "https://dc.lft.to/lastmile_qr_scan", "android": "https://dc.lft.to/lastmile_qr_scan"}, "lon": -77.002114, "type": "electric_scooter", "fusion_lat": 0.0, "lat": 38.902235166666664, "name": "48b93ede8e1f4ceefda27c33d3ec6978", "fusion_lon": 0.0, "bike_id": "48b93ede8e1f4ceefda27c33d3ec6978", "is_disabled": 0, "is_reserved": 0}, {"rental_uris": {"ios": "https://dc.lft.to/lastmile_qr_scan", "android": "https://dc.lft.to/lastmile_qr_scan"}, "lon": -77.03935883333334, "type": "electric_scooter", "fusion_lat": 0.0, "lat": 38.90280216666667, "name": "f611d39276d3263a25b2bf13ef0391ab", "fusion_lon": 0.0, "bike_id": "f611d39276d3263a25b2bf13ef0391ab", "is_disabled": 0, "is_reserved": 0}, {"rental_uris": {"ios": "https://dc.lft.to/lastmile_qr_scan", "android": "https://dc.lft.to/lastmile_qr_scan"}, "lon": -77.00738183333333, "type": "electric_scooter", "fusion_lat": 0.0, "lat": 38.95524483333333, "name": "2a99c407bf15318a1f3501e9f034697a", "fusion_lon": 0.0, "bike_id": "2a99c407bf15318a1f3501e9f034697a", "is_disabled": 0, "is_reserved": 0}, {"rental_uris": {"ios": "https://dc.lft.to/lastmile_qr_scan", "android": "https://dc.lft.to/lastmile_qr_scan"}, "lon": -77.02500916666666, "type": "electric_scooter", "fusion_lat": 0.0, "lat": 38.91821783333333, "name": "b4005800f56ee8f4acea51d309821e02", "fusion_lon": 0.0, "bike_id": "b4005800f56ee8f4acea51d309821e02", "is_disabled": 0, "is_reserved": 0}, {"rental_uris": {"ios": "https://dc.lft.to/lastmile_qr_scan", "android": "https://dc.lft.to/lastmile_qr_scan"}, "lon": -77.03260266666666, "type": "electric_scooter", "fusion_lat": 0.0, "lat": 38.9323315, "name": "1ae9a5d12da7a0f1cda611e3730412e4", "fusion_lon": 0.0, "bike_id": "1ae9a5d12da7a0f1cda611e3730412e4", "is_disabled": 0, "is_reserved": 0}, {"rental_uris": {"ios": "https://dc.lft.to/lastmile_qr_scan", "android": "https://dc.lft.to/lastmile_qr_scan"}, "lon": -77.02352466666666, "type": "electric_scooter", "fusion_lat": 0.0, "lat": 38.922763, "name": "d60bfe3cbe2c65d3b5d5b23a6b312b33", "fusion_lon": 0.0, "bike_id": "d60bfe3cbe2c65d3b5d5b23a6b312b33", "is_disabled": 0, "is_reserved": 0}, {"rental_uris": {"ios": "https://dc.lft.to/lastmile_qr_scan", "android": "https://dc.lft.to/lastmile_qr_scan"}, "lon": -77.04374083333333, "type": "electric_scooter", "fusion_lat": 0.0, "lat": 38.91789333333333, "name": "847d43921349c8464e1f3811c7e10d69", "fusion_lon": 0.0, "bike_id": "847d43921349c8464e1f3811c7e10d69", "is_disabled": 0, "is_reserved": 0}, {"rental_uris": {"ios": "https://dc.lft.to/lastmile_qr_scan", "android": "https://dc.lft.to/lastmile_qr_scan"}, "lon": -77.0258185, "type": "electric_scooter", "fusion_lat": 0.0, "lat": 38.88433533333333, "name": "1febd360cb27270223fc0fd9a234ba70", "fusion_lon": 0.0, "bike_id": "1febd360cb27270223fc0fd9a234ba70", "is_disabled": 0, "is_reserved": 0}, {"rental_uris": {"ios": "https://dc.lft.to/lastmile_qr_scan", "android": "https://dc.lft.to/lastmile_qr_scan"}, "lon": -76.985122, "type": "electric_scooter", "fusion_lat": 0.0, "lat": 38.906087166666666, "name": "e1262bfbcf652c0f22ff115cbfcc9aaf", "fusion_lon": 0.0, "bike_id": "e1262bfbcf652c0f22ff115cbfcc9aaf", "is_disabled": 0, "is_reserved": 0}, {"rental_uris": {"ios": "https://dc.lft.to/lastmile_qr_scan", "android": "https://dc.lft.to/lastmile_qr_scan"}, "lon": -76.9997135, "type": "electric_scooter", "fusion_lat": 0.0, "lat": 38.909262, "name": "814dca5a52fa6749d16d10b9e433a641", "fusion_lon": 0.0, "bike_id": "814dca5a52fa6749d16d10b9e433a641", "is_disabled": 0, "is_reserved": 0}, {"rental_uris": {"ios": "https://dc.lft.to/lastmile_qr_scan", "android": "https://dc.lft.to/lastmile_qr_scan"}, "lon": -77.01881366666667, "type": "electric_scooter", "fusion_lat": 0.0, "lat": 38.906176, "name": "c581f25d60a751e8decdf339dfb192ef", "fusion_lon": 0.0, "bike_id": "c581f25d60a751e8decdf339dfb192ef", "is_disabled": 0, "is_reserved": 0}, {"rental_uris": {"ios": "https://dc.lft.to/lastmile_qr_scan", "android": "https://dc.lft.to/lastmile_qr_scan"}, "lon": -77.005865, "type": "electric_scooter", "fusion_lat": 0.0, "lat": 38.876977333333336, "name": "bfcfd4d2f3d975b87a5c83cb3698031d", "fusion_lon": 0.0, "bike_id": "bfcfd4d2f3d975b87a5c83cb3698031d", "is_disabled": 0, "is_reserved": 0}, {"rental_uris": {"ios": "https://dc.lft.to/lastmile_qr_scan", "android": "https://dc.lft.to/lastmile_qr_scan"}, "lon": -77.00214183333334, "type": "electric_scooter", "fusion_lat": 0.0, "lat": 38.9002995, "name": "75d8fea98688a0fb37dc22546233c636", "fusion_lon": 0.0, "bike_id": "75d8fea98688a0fb37dc22546233c636", "is_disabled": 0, "is_reserved": 0}, {"rental_uris": {"ios": "https://dc.lft.to/lastmile_qr_scan", "android": "https://dc.lft.to/lastmile_qr_scan"}, "lon": -77.03522683333334, "type": "electric_scooter", "fusion_lat": 0.0, "lat": 38.922206333333335, "name": "7f0f798c2cc498d63447d9281e5c53e9", "fusion_lon": 0.0, "bike_id": "7f0f798c2cc498d63447d9281e5c53e9", "is_disabled": 0, "is_reserved": 0}, {"rental_uris": {"ios": "https://dc.lft.to/lastmile_qr_scan", "android": "https://dc.lft.to/lastmile_qr_scan"}, "lon": -77.04127983333333, "type": "electric_scooter", "fusion_lat": 0.0, "lat": 38.921670166666665, "name": "c2d6af68a83b519a32d89dd4f3e40cea", "fusion_lon": 0.0, "bike_id": "c2d6af68a83b519a32d89dd4f3e40cea", "is_disabled": 0, "is_reserved": 0}, {"rental_uris": {"ios": "https://dc.lft.to/lastmile_qr_scan", "android": "https://dc.lft.to/lastmile_qr_scan"}, "lon": -76.998204, "type": "electric_scooter", "fusion_lat": 0.0, "lat": 38.8887285, "name": "49040687a53e49366d40e4aca6dc69e2", "fusion_lon": 0.0, "bike_id": "49040687a53e49366d40e4aca6dc69e2", "is_disabled": 0, "is_reserved": 0}, {"rental_uris": {"ios": "https://dc.lft.to/lastmile_qr_scan", "android": "https://dc.lft.to/lastmile_qr_scan"}, "lon": -77.035606, "type": "electric_bike", "fusion_lat": 0.0, "lat": 38.964718166666664, "name": "3a98e04ac5c612a79aa5ad15d083f096", "fusion_lon": 0.0, "bike_id": "3a98e04ac5c612a79aa5ad15d083f096", "is_disabled": 0, "is_reserved": 0}, {"rental_uris": {"ios": "https://dc.lft.to/lastmile_qr_scan", "android": "https://dc.lft.to/lastmile_qr_scan"}, "lon": -77.043318, "type": "electric_scooter", "fusion_lat": 0.0, "lat": 38.896543333333334, "name": "5d3c122e58eb5408a550eba5daecf273", "fusion_lon": 0.0, "bike_id": "5d3c122e58eb5408a550eba5daecf273", "is_disabled": 0, "is_reserved": 0}, {"rental_uris": {"ios": "https://dc.lft.to/lastmile_qr_scan", "android": "https://dc.lft.to/lastmile_qr_scan"}, "lon": -77.01625433333334, "type": "electric_scooter", "fusion_lat": 0.0, "lat": 38.90710133333333, "name": "e0a97be1161f7ff26c8d0bcf846305f8", "fusion_lon": 0.0, "bike_id": "e0a97be1161f7ff26c8d0bcf846305f8", "is_disabled": 0, "is_reserved": 0}, {"rental_uris": {"ios": "https://dc.lft.to/lastmile_qr_scan", "android": "https://dc.lft.to/lastmile_qr_scan"}, "lon": -77.01899666666667, "type": "electric_scooter", "fusion_lat": 0.0, "lat": 38.91174933333333, "name": "0fdede029b5baa9f77f7e626a14e744a", "fusion_lon": 0.0, "bike_id": "0fdede029b5baa9f77f7e626a14e744a", "is_disabled": 0, "is_reserved": 0}, {"rental_uris": {"ios": "https://dc.lft.to/lastmile_qr_scan", "android": "https://dc.lft.to/lastmile_qr_scan"}, "lon": -77.00221566666667, "type": "electric_scooter", "fusion_lat": 0.0, "lat": 38.9001855, "name": "0dc36a8de0048f8e28cd88be34a30fe9", "fusion_lon": 0.0, "bike_id": "0dc36a8de0048f8e28cd88be34a30fe9", "is_disabled": 0, "is_reserved": 0}, {"rental_uris": {"ios": "https://dc.lft.to/lastmile_qr_scan", "android": "https://dc.lft.to/lastmile_qr_scan"}, "lon": -77.007689, "type": "electric_scooter", "fusion_lat": 0.0, "lat": 38.9065085, "name": "edfdf5ab7002210479032452bfafbe51", "fusion_lon": 0.0, "bike_id": "edfdf5ab7002210479032452bfafbe51", "is_disabled": 0, "is_reserved": 0}, {"rental_uris": {"ios": "https://dc.lft.to/lastmile_qr_scan", "android": "https://dc.lft.to/lastmile_qr_scan"}, "lon": -77.03838816666666, "type": "electric_scooter", "fusion_lat": 0.0, "lat": 38.90862933333333, "name": "83d4bc252f638848688adda705de7362", "fusion_lon": 0.0, "bike_id": "83d4bc252f638848688adda705de7362", "is_disabled": 0, "is_reserved": 0}, {"rental_uris": {"ios": "https://dc.lft.to/lastmile_qr_scan", "android": "https://dc.lft.to/lastmile_qr_scan"}, "lon": -76.98886316666666, "type": "electric_scooter", "fusion_lat": 0.0, "lat": 38.86657266666667, "name": "bf0b9e3e4b137ba87de6a3ad9374e02f", "fusion_lon": 0.0, "bike_id": "bf0b9e3e4b137ba87de6a3ad9374e02f", "is_disabled": 0, "is_reserved": 0}, {"rental_uris": {"ios": "https://dc.lft.to/lastmile_qr_scan", "android": "https://dc.lft.to/lastmile_qr_scan"}, "lon": -77.025322, "type": "electric_scooter", "fusion_lat": 0.0, "lat": 38.924911333333334, "name": "86564e452ff056e1c10f78b96395bd10", "fusion_lon": 0.0, "bike_id": "86564e452ff056e1c10f78b96395bd10", "is_disabled": 0, "is_reserved": 0}, {"rental_uris": {"ios": "https://dc.lft.to/lastmile_qr_scan", "android": "https://dc.lft.to/lastmile_qr_scan"}, "lon": -77.0371185, "type": "electric_scooter", "fusion_lat": 0.0, "lat": 38.926361, "name": "071a04a043a6aec5b10695c382dc3b3c", "fusion_lon": 0.0, "bike_id": "071a04a043a6aec5b10695c382dc3b3c", "is_disabled": 0, "is_reserved": 0}, {"rental_uris": {"ios": "https://dc.lft.to/lastmile_qr_scan", "android": "https://dc.lft.to/lastmile_qr_scan"}, "lon": -77.00785883333333, "type": "electric_scooter", "fusion_lat": 0.0, "lat": 38.911907, "name": "898437f8632b0fdcbb97dd59bf26c840", "fusion_lon": 0.0, "bike_id": "898437f8632b0fdcbb97dd59bf26c840", "is_disabled": 0, "is_reserved": 0}, {"rental_uris": {"ios": "https://dc.lft.to/lastmile_qr_scan", "android": "https://dc.lft.to/lastmile_qr_scan"}, "lon": -77.0221385, "type": "electric_scooter", "fusion_lat": 0.0, "lat": 38.912735833333336, "name": "d09045410d26c831cae6694ab425445d", "fusion_lon": 0.0, "bike_id": "d09045410d26c831cae6694ab425445d", "is_disabled": 0, "is_reserved": 0}, {"rental_uris": {"ios": "https://dc.lft.to/lastmile_qr_scan", "android": "https://dc.lft.to/lastmile_qr_scan"}, "lon": -77.00353433333333, "type": "electric_scooter", "fusion_lat": 0.0, "lat": 38.89156966666667, "name": "9709bec531c8a8a34229a19d674f5401", "fusion_lon": 0.0, "bike_id": "9709bec531c8a8a34229a19d674f5401", "is_disabled": 0, "is_reserved": 0}, {"rental_uris": {"ios": "https://dc.lft.to/lastmile_qr_scan", "android": "https://dc.lft.to/lastmile_qr_scan"}, "lon": -77.02475116666666, "type": "electric_scooter", "fusion_lat": 0.0, "lat": 38.933576333333335, "name": "914e9345dec81f9d6d5f08ccf965a8c8", "fusion_lon": 0.0, "bike_id": "914e9345dec81f9d6d5f08ccf965a8c8", "is_disabled": 0, "is_reserved": 0}, {"rental_uris": {"ios": "https://dc.lft.to/lastmile_qr_scan", "android": "https://dc.lft.to/lastmile_qr_scan"}, "lon": -77.02947333333333, "type": "electric_scooter", "fusion_lat": 0.0, "lat": 38.9035765, "name": "fc8101a209658dbb9b089086117f53bb", "fusion_lon": 0.0, "bike_id": "fc8101a209658dbb9b089086117f53bb", "is_disabled": 0, "is_reserved": 0}, {"rental_uris": {"ios": "https://dc.lft.to/lastmile_qr_scan", "android": "https://dc.lft.to/lastmile_qr_scan"}, "lon": -77.00649383333334, "type": "electric_scooter", "fusion_lat": 0.0, "lat": 38.908604833333335, "name": "31c9934f9a003e4d0e229841f614b456", "fusion_lon": 0.0, "bike_id": "31c9934f9a003e4d0e229841f614b456", "is_disabled": 0, "is_reserved": 0}, {"rental_uris": {"ios": "https://dc.lft.to/lastmile_qr_scan", "android": "https://dc.lft.to/lastmile_qr_scan"}, "lon": -77.1498545, "type": "electric_bike", "fusion_lat": 0.0, "lat": 39.094608666666666, "name": "542e45eeb0844e19c3d7c319ea129065", "fusion_lon": 0.0, "bike_id": "542e45eeb0844e19c3d7c319ea129065", "is_disabled": 0, "is_reserved": 0}, {"rental_uris": {"ios": "https://dc.lft.to/lastmile_qr_scan", "android": "https://dc.lft.to/lastmile_qr_scan"}, "lon": -77.19910783333333, "type": "electric_bike", "fusion_lat": 0.0, "lat": 38.875314333333336, "name": "1f11adf57b81ea36cf1d117d6dd88d60", "fusion_lon": 0.0, "bike_id": "1f11adf57b81ea36cf1d117d6dd88d60", "is_disabled": 0, "is_reserved": 0}, {"rental_uris": {"ios": "https://dc.lft.to/lastmile_qr_scan", "android": "https://dc.lft.to/lastmile_qr_scan"}, "lon": -77.02479666666666, "type": "electric_scooter", "fusion_lat": 0.0, "lat": 38.93096966666667, "name": "c34cb68946f943cc08aeb5de0b211e44", "fusion_lon": 0.0, "bike_id": "c34cb68946f943cc08aeb5de0b211e44", "is_disabled": 0, "is_reserved": 0}, {"rental_uris": {"ios": "https://dc.lft.to/lastmile_qr_scan", "android": "https://dc.lft.to/lastmile_qr_scan"}, "lon": -76.9284915, "type": "electric_scooter", "fusion_lat": 0.0, "lat": 38.88362433333333, "name": "d8fe00959bcac78d07f43830d6ce5a66", "fusion_lon": 0.0, "bike_id": "d8fe00959bcac78d07f43830d6ce5a66", "is_disabled": 0, "is_reserved": 0}, {"rental_uris": {"ios": "https://dc.lft.to/lastmile_qr_scan", "android": "https://dc.lft.to/lastmile_qr_scan"}, "lon": -77.03140216666667, "type": "electric_scooter", "fusion_lat": 0.0, "lat": 38.89344716666667, "name": "b93960abee1b108e9bf5c654acc53301", "fusion_lon": 0.0, "bike_id": "b93960abee1b108e9bf5c654acc53301", "is_disabled": 0, "is_reserved": 0}, {"rental_uris": {"ios": "https://dc.lft.to/lastmile_qr_scan", "android": "https://dc.lft.to/lastmile_qr_scan"}, "lon": -76.99461816666667, "type": "electric_scooter", "fusion_lat": 0.0, "lat": 38.851648, "name": "35dc088fe1d85a83727eea879fe8a084", "fusion_lon": 0.0, "bike_id": "35dc088fe1d85a83727eea879fe8a084", "is_disabled": 0, "is_reserved": 0}, {"rental_uris": {"ios": "https://dc.lft.to/lastmile_qr_scan", "android": "https://dc.lft.to/lastmile_qr_scan"}, "lon": -76.95677366666666, "type": "electric_bike", "fusion_lat": 0.0, "lat": 38.94729516666666, "name": "b3d700ed53200295b15a53ee8d79d1a9", "fusion_lon": 0.0, "bike_id": "b3d700ed53200295b15a53ee8d79d1a9", "is_disabled": 0, "is_reserved": 0}, {"rental_uris": {"ios": "https://dc.lft.to/lastmile_qr_scan", "android": "https://dc.lft.to/lastmile_qr_scan"}, "lon": -77.0395255, "type": "electric_scooter", "fusion_lat": 0.0, "lat": 38.9026715, "name": "977b4446963d0114a72c5cd3425c47d7", "fusion_lon": 0.0, "bike_id": "977b4446963d0114a72c5cd3425c47d7", "is_disabled": 0, "is_reserved": 0}, {"rental_uris": {"ios": "https://dc.lft.to/lastmile_qr_scan", "android": "https://dc.lft.to/lastmile_qr_scan"}, "lon": -77.03579933333333, "type": "electric_scooter", "fusion_lat": 0.0, "lat": 38.9397895, "name": "bfdb4cedc79e47d24c0ffb19f60a63e3", "fusion_lon": 0.0, "bike_id": "bfdb4cedc79e47d24c0ffb19f60a63e3", "is_disabled": 0, "is_reserved": 0}, {"rental_uris": {"ios": "https://dc.lft.to/lastmile_qr_scan", "android": "https://dc.lft.to/lastmile_qr_scan"}, "lon": -77.03858966666667, "type": "electric_scooter", "fusion_lat": 0.0, "lat": 38.92263633333334, "name": "8245bee1f0061f14a64680afea759729", "fusion_lon": 0.0, "bike_id": "8245bee1f0061f14a64680afea759729", "is_disabled": 0, "is_reserved": 0}, {"rental_uris": {"ios": "https://dc.lft.to/lastmile_qr_scan", "android": "https://dc.lft.to/lastmile_qr_scan"}, "lon": -77.00337633333334, "type": "electric_bike", "fusion_lat": 0.0, "lat": 38.87660266666666, "name": "a0d4c62fc915805596879fd5ed1d3707", "fusion_lon": 0.0, "bike_id": "a0d4c62fc915805596879fd5ed1d3707", "is_disabled": 0, "is_reserved": 0}, {"rental_uris": {"ios": "https://dc.lft.to/lastmile_qr_scan", "android": "https://dc.lft.to/lastmile_qr_scan"}, "lon": -76.9315915, "type": "electric_scooter", "fusion_lat": 0.0, "lat": 38.8987835, "name": "a54fe3660ee16230c146723d81e47ab7", "fusion_lon": 0.0, "bike_id": "a54fe3660ee16230c146723d81e47ab7", "is_disabled": 0, "is_reserved": 0}, {"rental_uris": {"ios": "https://dc.lft.to/lastmile_qr_scan", "android": "https://dc.lft.to/lastmile_qr_scan"}, "lon": -77.045702, "type": "electric_scooter", "fusion_lat": 0.0, "lat": 38.9107245, "name": "a6afdd2f88f5322f8df23cb8e75e9f98", "fusion_lon": 0.0, "bike_id": "a6afdd2f88f5322f8df23cb8e75e9f98", "is_disabled": 0, "is_reserved": 0}, {"rental_uris": {"ios": "https://dc.lft.to/lastmile_qr_scan", "android": "https://dc.lft.to/lastmile_qr_scan"}, "lon": -76.92874016666667, "type": "electric_scooter", "fusion_lat": 0.0, "lat": 38.8843995, "name": "70107addd056538d43033b71d0713725", "fusion_lon": 0.0, "bike_id": "70107addd056538d43033b71d0713725", "is_disabled": 0, "is_reserved": 0}, {"rental_uris": {"ios": "https://dc.lft.to/lastmile_qr_scan", "android": "https://dc.lft.to/lastmile_qr_scan"}, "lon": -76.94844133333334, "type": "electric_scooter", "fusion_lat": 0.0, "lat": 38.884114833333335, "name": "9a7e1db939ba8393b58bc43e80aea2b3", "fusion_lon": 0.0, "bike_id": "9a7e1db939ba8393b58bc43e80aea2b3", "is_disabled": 0, "is_reserved": 0}, {"rental_uris": {"ios": "https://dc.lft.to/lastmile_qr_scan", "android": "https://dc.lft.to/lastmile_qr_scan"}, "lon": -77.04835733333333, "type": "electric_scooter", "fusion_lat": 0.0, "lat": 38.909753333333335, "name": "2313a3931234def995b33ed648768189", "fusion_lon": 0.0, "bike_id": "2313a3931234def995b33ed648768189", "is_disabled": 0, "is_reserved": 0}, {"rental_uris": {"ios": "https://dc.lft.to/lastmile_qr_scan", "android": "https://dc.lft.to/lastmile_qr_scan"}, "lon": -77.02023283333334, "type": "electric_bike", "fusion_lat": 0.0, "lat": 38.93725533333333, "name": "85bba917ca53bc051fd9f1ee57d96335", "fusion_lon": 0.0, "bike_id": "85bba917ca53bc051fd9f1ee57d96335", "is_disabled": 0, "is_reserved": 0}, {"rental_uris": {"ios": "https://dc.lft.to/lastmile_qr_scan", "android": "https://dc.lft.to/lastmile_qr_scan"}, "lon": -77.08047016666667, "type": "electric_bike", "fusion_lat": 0.0, "lat": 38.84843216666667, "name": "7553d88f649cbb85b85ccd66757f850f", "fusion_lon": 0.0, "bike_id": "7553d88f649cbb85b85ccd66757f850f", "is_disabled": 0, "is_reserved": 0}, {"rental_uris": {"ios": "https://dc.lft.to/lastmile_qr_scan", "android": "https://dc.lft.to/lastmile_qr_scan"}, "lon": -77.0363995, "type": "electric_scooter", "fusion_lat": 0.0, "lat": 38.90280766666667, "name": "bbabf1fad221c6171f9372d850c91a35", "fusion_lon": 0.0, "bike_id": "bbabf1fad221c6171f9372d850c91a35", "is_disabled": 0, "is_reserved": 0}, {"rental_uris": {"ios": "https://dc.lft.to/lastmile_qr_scan", "android": "https://dc.lft.to/lastmile_qr_scan"}, "lon": -77.03865116666667, "type": "electric_scooter", "fusion_lat": 0.0, "lat": 38.915595833333334, "name": "d5de6e0ac5ee5c7ef2c117b493f0c064", "fusion_lon": 0.0, "bike_id": "d5de6e0ac5ee5c7ef2c117b493f0c064", "is_disabled": 0, "is_reserved": 0}, {"rental_uris": {"ios": "https://dc.lft.to/lastmile_qr_scan", "android": "https://dc.lft.to/lastmile_qr_scan"}, "lon": -76.9851625, "type": "electric_scooter", "fusion_lat": 0.0, "lat": 38.910013, "name": "2e214a0371e4377d5af2c5bdcae7e086", "fusion_lon": 0.0, "bike_id": "2e214a0371e4377d5af2c5bdcae7e086", "is_disabled": 0, "is_reserved": 0}, {"rental_uris": {"ios": "https://dc.lft.to/lastmile_qr_scan", "android": "https://dc.lft.to/lastmile_qr_scan"}, "lon": -76.98602233333334, "type": "electric_scooter", "fusion_lat": 0.0, "lat": 38.878435833333334, "name": "f43b9ab6127d7b8a370fc16b2c9125e5", "fusion_lon": 0.0, "bike_id": "f43b9ab6127d7b8a370fc16b2c9125e5", "is_disabled": 0, "is_reserved": 0}, {"rental_uris": {"ios": "https://dc.lft.to/lastmile_qr_scan", "android": "https://dc.lft.to/lastmile_qr_scan"}, "lon": -77.03837516666667, "type": "electric_scooter", "fusion_lat": 0.0, "lat": 38.9075115, "name": "3a80d289e22811dd588addad793eda07", "fusion_lon": 0.0, "bike_id": "3a80d289e22811dd588addad793eda07", "is_disabled": 0, "is_reserved": 0}, {"rental_uris": {"ios": "https://dc.lft.to/lastmile_qr_scan", "android": "https://dc.lft.to/lastmile_qr_scan"}, "lon": -76.974241, "type": "electric_scooter", "fusion_lat": 0.0, "lat": 38.90249, "name": "9f4c97ebc23410dcabfaf1c46d080b05", "fusion_lon": 0.0, "bike_id": "9f4c97ebc23410dcabfaf1c46d080b05", "is_disabled": 0, "is_reserved": 0}, {"rental_uris": {"ios": "https://dc.lft.to/lastmile_qr_scan", "android": "https://dc.lft.to/lastmile_qr_scan"}, "lon": -77.01114533333333, "type": "electric_scooter", "fusion_lat": 0.0, "lat": 38.870853333333336, "name": "44436b88fc279c9aab6f8fac47c2be9c", "fusion_lon": 0.0, "bike_id": "44436b88fc279c9aab6f8fac47c2be9c", "is_disabled": 0, "is_reserved": 0}, {"rental_uris": {"ios": "https://dc.lft.to/lastmile_qr_scan", "android": "https://dc.lft.to/lastmile_qr_scan"}, "lon": -77.03412466666667, "type": "electric_scooter", "fusion_lat": 0.0, "lat": 38.924281, "name": "5cb5509afd934dddc2752aeada50b62f", "fusion_lon": 0.0, "bike_id": "5cb5509afd934dddc2752aeada50b62f", "is_disabled": 0, "is_reserved": 0}, {"rental_uris": {"ios": "https://dc.lft.to/lastmile_qr_scan", "android": "https://dc.lft.to/lastmile_qr_scan"}, "lon": -77.03639766666667, "type": "electric_scooter", "fusion_lat": 0.0, "lat": 38.913095166666665, "name": "83b99c31c6b6d0be3ddf76b4bbe7c09f", "fusion_lon": 0.0, "bike_id": "83b99c31c6b6d0be3ddf76b4bbe7c09f", "is_disabled": 0, "is_reserved": 0}, {"rental_uris": {"ios": "https://dc.lft.to/lastmile_qr_scan", "android": "https://dc.lft.to/lastmile_qr_scan"}, "lon": -77.05483333333333, "type": "electric_scooter", "fusion_lat": 0.0, "lat": 38.8996255, "name": "9fc12b83b890d259cbb95f08322e5a65", "fusion_lon": 0.0, "bike_id": "9fc12b83b890d259cbb95f08322e5a65", "is_disabled": 0, "is_reserved": 0}, {"rental_uris": {"ios": "https://dc.lft.to/lastmile_qr_scan", "android": "https://dc.lft.to/lastmile_qr_scan"}, "lon": -77.04540983333334, "type": "electric_scooter", "fusion_lat": 0.0, "lat": 38.89480416666667, "name": "444635f3f5bda75a32c3856e17ba8b4a", "fusion_lon": 0.0, "bike_id": "444635f3f5bda75a32c3856e17ba8b4a", "is_disabled": 0, "is_reserved": 0}, {"rental_uris": {"ios": "https://dc.lft.to/lastmile_qr_scan", "android": "https://dc.lft.to/lastmile_qr_scan"}, "lon": -77.03198666666667, "type": "electric_scooter", "fusion_lat": 0.0, "lat": 38.89827666666667, "name": "7f82cb2c78ce315bd5eee23c7197cc89", "fusion_lon": 0.0, "bike_id": "7f82cb2c78ce315bd5eee23c7197cc89", "is_disabled": 0, "is_reserved": 0}, {"rental_uris": {"ios": "https://dc.lft.to/lastmile_qr_scan", "android": "https://dc.lft.to/lastmile_qr_scan"}, "lon": -77.026948, "type": "electric_scooter", "fusion_lat": 0.0, "lat": 38.909402166666666, "name": "255d4d17ad5f6ad9a58d3dc9282b36d4", "fusion_lon": 0.0, "bike_id": "255d4d17ad5f6ad9a58d3dc9282b36d4", "is_disabled": 0, "is_reserved": 0}, {"rental_uris": {"ios": "https://dc.lft.to/lastmile_qr_scan", "android": "https://dc.lft.to/lastmile_qr_scan"}, "lon": -76.98370066666666, "type": "electric_scooter", "fusion_lat": 0.0, "lat": 38.915365666666666, "name": "3103a1be05ce118b6712cb11bccfcd09", "fusion_lon": 0.0, "bike_id": "3103a1be05ce118b6712cb11bccfcd09", "is_disabled": 0, "is_reserved": 0}, {"rental_uris": {"ios": "https://dc.lft.to/lastmile_qr_scan", "android": "https://dc.lft.to/lastmile_qr_scan"}, "lon": -77.0271955, "type": "electric_scooter", "fusion_lat": 0.0, "lat": 38.906718833333336, "name": "6d3b8e2bcca6a8f3551befe728c5e5d3", "fusion_lon": 0.0, "bike_id": "6d3b8e2bcca6a8f3551befe728c5e5d3", "is_disabled": 0, "is_reserved": 0}, {"rental_uris": {"ios": "https://dc.lft.to/lastmile_qr_scan", "android": "https://dc.lft.to/lastmile_qr_scan"}, "lon": -77.03194633333334, "type": "electric_scooter", "fusion_lat": 0.0, "lat": 38.900292666666665, "name": "f38890aa9bde28ec64e48c5f05fdbf5f", "fusion_lon": 0.0, "bike_id": "f38890aa9bde28ec64e48c5f05fdbf5f", "is_disabled": 0, "is_reserved": 0}, {"rental_uris": {"ios": "https://dc.lft.to/lastmile_qr_scan", "android": "https://dc.lft.to/lastmile_qr_scan"}, "lon": -77.02845616666667, "type": "electric_scooter", "fusion_lat": 0.0, "lat": 38.93450416666667, "name": "3668f098099649063b445c9813f58b06", "fusion_lon": 0.0, "bike_id": "3668f098099649063b445c9813f58b06", "is_disabled": 0, "is_reserved": 0}, {"rental_uris": {"ios": "https://dc.lft.to/lastmile_qr_scan", "android": "https://dc.lft.to/lastmile_qr_scan"}, "lon": -77.0265425, "type": "electric_scooter", "fusion_lat": 0.0, "lat": 38.881127, "name": "0de35a4e98ecaa24ec6f3a1eb3fb2b9c", "fusion_lon": 0.0, "bike_id": "0de35a4e98ecaa24ec6f3a1eb3fb2b9c", "is_disabled": 0, "is_reserved": 0}, {"rental_uris": {"ios": "https://dc.lft.to/lastmile_qr_scan", "android": "https://dc.lft.to/lastmile_qr_scan"}, "lon": -77.07310833333334, "type": "electric_scooter", "fusion_lat": 0.0, "lat": 38.936141166666665, "name": "bbd24e6b76ee8c9d1b1b06368f090671", "fusion_lon": 0.0, "bike_id": "bbd24e6b76ee8c9d1b1b06368f090671", "is_disabled": 0, "is_reserved": 0}, {"rental_uris": {"ios": "https://dc.lft.to/lastmile_qr_scan", "android": "https://dc.lft.to/lastmile_qr_scan"}, "lon": -77.006478, "type": "electric_scooter", "fusion_lat": 0.0, "lat": 38.87633733333333, "name": "70572cd4f9ccbf7dfb753fab08886747", "fusion_lon": 0.0, "bike_id": "70572cd4f9ccbf7dfb753fab08886747", "is_disabled": 0, "is_reserved": 0}, {"rental_uris": {"ios": "https://dc.lft.to/lastmile_qr_scan", "android": "https://dc.lft.to/lastmile_qr_scan"}, "lon": -77.0330155, "type": "electric_scooter", "fusion_lat": 0.0, "lat": 38.909087666666665, "name": "88fe0add22c44967e33fdba24117a9ff", "fusion_lon": 0.0, "bike_id": "88fe0add22c44967e33fdba24117a9ff", "is_disabled": 0, "is_reserved": 0}, {"rental_uris": {"ios": "https://dc.lft.to/lastmile_qr_scan", "android": "https://dc.lft.to/lastmile_qr_scan"}, "lon": -76.9906785, "type": "electric_scooter", "fusion_lat": 0.0, "lat": 38.86360583333333, "name": "d5f928330b7aee1db6c3404104e77334", "fusion_lon": 0.0, "bike_id": "d5f928330b7aee1db6c3404104e77334", "is_disabled": 0, "is_reserved": 0}, {"rental_uris": {"ios": "https://dc.lft.to/lastmile_qr_scan", "android": "https://dc.lft.to/lastmile_qr_scan"}, "lon": -77.03856383333333, "type": "electric_scooter", "fusion_lat": 0.0, "lat": 38.926527, "name": "23cd12f6292d59f8b60aabc0602b98ad", "fusion_lon": 0.0, "bike_id": "23cd12f6292d59f8b60aabc0602b98ad", "is_disabled": 0, "is_reserved": 0}, {"rental_uris": {"ios": "https://dc.lft.to/lastmile_qr_scan", "android": "https://dc.lft.to/lastmile_qr_scan"}, "lon": -77.003345, "type": "electric_scooter", "fusion_lat": 0.0, "lat": 38.893548, "name": "a60f665fcb30579dd96a492a50a9b2e0", "fusion_lon": 0.0, "bike_id": "a60f665fcb30579dd96a492a50a9b2e0", "is_disabled": 0, "is_reserved": 0}, {"rental_uris": {"ios": "https://dc.lft.to/lastmile_qr_scan", "android": "https://dc.lft.to/lastmile_qr_scan"}, "lon": -77.03539816666667, "type": "electric_scooter", "fusion_lat": 0.0, "lat": 38.9234165, "name": "250244f0d598ce900cb8abfa5d361144", "fusion_lon": 0.0, "bike_id": "250244f0d598ce900cb8abfa5d361144", "is_disabled": 0, "is_reserved": 0}, {"rental_uris": {"ios": "https://dc.lft.to/lastmile_qr_scan", "android": "https://dc.lft.to/lastmile_qr_scan"}, "lon": -77.02493383333334, "type": "electric_scooter", "fusion_lat": 0.0, "lat": 38.90569683333333, "name": "9a3e7c6c573bdc72566a775beabe75df", "fusion_lon": 0.0, "bike_id": "9a3e7c6c573bdc72566a775beabe75df", "is_disabled": 0, "is_reserved": 0}, {"rental_uris": {"ios": "https://dc.lft.to/lastmile_qr_scan", "android": "https://dc.lft.to/lastmile_qr_scan"}, "lon": -76.98555716666667, "type": "electric_scooter", "fusion_lat": 0.0, "lat": 38.89957533333333, "name": "bc4ee12ee83f4c9a037973e3b83e4e16", "fusion_lon": 0.0, "bike_id": "bc4ee12ee83f4c9a037973e3b83e4e16", "is_disabled": 0, "is_reserved": 0}, {"rental_uris": {"ios": "https://dc.lft.to/lastmile_qr_scan", "android": "https://dc.lft.to/lastmile_qr_scan"}, "lon": -77.020799, "type": "electric_scooter", "fusion_lat": 0.0, "lat": 38.89978, "name": "0f2a2a4faae930672b8846068fecc8c2", "fusion_lon": 0.0, "bike_id": "0f2a2a4faae930672b8846068fecc8c2", "is_disabled": 0, "is_reserved": 0}, {"rental_uris": {"ios": "https://dc.lft.to/lastmile_qr_scan", "android": "https://dc.lft.to/lastmile_qr_scan"}, "lon": -76.98884783333334, "type": "electric_scooter", "fusion_lat": 0.0, "lat": 38.866627, "name": "789fe3e09f0de8f635ff805e350a93f4", "fusion_lon": 0.0, "bike_id": "789fe3e09f0de8f635ff805e350a93f4", "is_disabled": 0, "is_reserved": 0}, {"rental_uris": {"ios": "https://dc.lft.to/lastmile_qr_scan", "android": "https://dc.lft.to/lastmile_qr_scan"}, "lon": -77.026722, "type": "electric_scooter", "fusion_lat": 0.0, "lat": 38.900059, "name": "987913f8f4035f56d5c3ae1708b55f5f", "fusion_lon": 0.0, "bike_id": "987913f8f4035f56d5c3ae1708b55f5f", "is_disabled": 0, "is_reserved": 0}, {"rental_uris": {"ios": "https://dc.lft.to/lastmile_qr_scan", "android": "https://dc.lft.to/lastmile_qr_scan"}, "lon": -77.045861, "type": "electric_scooter", "fusion_lat": 0.0, "lat": 38.921317, "name": "ed72ffb66f4f1caf239b8fd39022d03e", "fusion_lon": 0.0, "bike_id": "ed72ffb66f4f1caf239b8fd39022d03e", "is_disabled": 0, "is_reserved": 0}, {"rental_uris": {"ios": "https://dc.lft.to/lastmile_qr_scan", "android": "https://dc.lft.to/lastmile_qr_scan"}, "lon": -77.02088783333333, "type": "electric_scooter", "fusion_lat": 0.0, "lat": 38.931164833333334, "name": "2c3645212f7add52e03d448c9b36ff0f", "fusion_lon": 0.0, "bike_id": "2c3645212f7add52e03d448c9b36ff0f", "is_disabled": 0, "is_reserved": 0}, {"rental_uris": {"ios": "https://dc.lft.to/lastmile_qr_scan", "android": "https://dc.lft.to/lastmile_qr_scan"}, "lon": -76.97943233333334, "type": "electric_scooter", "fusion_lat": 0.0, "lat": 38.86614683333333, "name": "2deaef7a6e7f69a2d34c75c99fb7b279", "fusion_lon": 0.0, "bike_id": "2deaef7a6e7f69a2d34c75c99fb7b279", "is_disabled": 0, "is_reserved": 0}, {"rental_uris": {"ios": "https://dc.lft.to/lastmile_qr_scan", "android": "https://dc.lft.to/lastmile_qr_scan"}, "lon": -76.97945466666667, "type": "electric_scooter", "fusion_lat": 0.0, "lat": 38.902461, "name": "ececf90d36e69a00c16483940597bc33", "fusion_lon": 0.0, "bike_id": "ececf90d36e69a00c16483940597bc33", "is_disabled": 0, "is_reserved": 0}, {"rental_uris": {"ios": "https://dc.lft.to/lastmile_qr_scan", "android": "https://dc.lft.to/lastmile_qr_scan"}, "lon": -77.02936933333334, "type": "electric_scooter", "fusion_lat": 0.0, "lat": 38.9111235, "name": "e7049a831de9da5b8ccd8dae0ec0579b", "fusion_lon": 0.0, "bike_id": "e7049a831de9da5b8ccd8dae0ec0579b", "is_disabled": 0, "is_reserved": 0}, {"rental_uris": {"ios": "https://dc.lft.to/lastmile_qr_scan", "android": "https://dc.lft.to/lastmile_qr_scan"}, "lon": -77.02791016666667, "type": "electric_scooter", "fusion_lat": 0.0, "lat": 38.9237545, "name": "9d1e33871e9c17d5c168709cfb0d3541", "fusion_lon": 0.0, "bike_id": "9d1e33871e9c17d5c168709cfb0d3541", "is_disabled": 0, "is_reserved": 0}, {"rental_uris": {"ios": "https://dc.lft.to/lastmile_qr_scan", "android": "https://dc.lft.to/lastmile_qr_scan"}, "lon": -77.0395775, "type": "electric_scooter", "fusion_lat": 0.0, "lat": 38.8985475, "name": "83f67b5149eea6fdf930c3550496c32b", "fusion_lon": 0.0, "bike_id": "83f67b5149eea6fdf930c3550496c32b", "is_disabled": 0, "is_reserved": 0}, {"rental_uris": {"ios": "https://dc.lft.to/lastmile_qr_scan", "android": "https://dc.lft.to/lastmile_qr_scan"}, "lon": -77.026543, "type": "electric_scooter", "fusion_lat": 0.0, "lat": 38.88111966666666, "name": "faad4f6a47d62df8bfe1d240718b56e7", "fusion_lon": 0.0, "bike_id": "faad4f6a47d62df8bfe1d240718b56e7", "is_disabled": 0, "is_reserved": 0}, {"rental_uris": {"ios": "https://dc.lft.to/lastmile_qr_scan", "android": "https://dc.lft.to/lastmile_qr_scan"}, "lon": -77.0160505, "type": "electric_scooter", "fusion_lat": 0.0, "lat": 38.911295833333334, "name": "2a4b5a8c554351fc73fd0579b2a34174", "fusion_lon": 0.0, "bike_id": "2a4b5a8c554351fc73fd0579b2a34174", "is_disabled": 0, "is_reserved": 0}, {"rental_uris": {"ios": "https://dc.lft.to/lastmile_qr_scan", "android": "https://dc.lft.to/lastmile_qr_scan"}, "lon": -76.93175416666666, "type": "electric_scooter", "fusion_lat": 0.0, "lat": 38.89885433333333, "name": "81014486b996c7d1c3165923fcd0a766", "fusion_lon": 0.0, "bike_id": "81014486b996c7d1c3165923fcd0a766", "is_disabled": 0, "is_reserved": 0}, {"rental_uris": {"ios": "https://dc.lft.to/lastmile_qr_scan", "android": "https://dc.lft.to/lastmile_qr_scan"}, "lon": -76.937392, "type": "electric_scooter", "fusion_lat": 0.0, "lat": 38.89016933333333, "name": "b766343cbf24ee593ae16d3d11623ffe", "fusion_lon": 0.0, "bike_id": "b766343cbf24ee593ae16d3d11623ffe", "is_disabled": 0, "is_reserved": 0}, {"rental_uris": {"ios": "https://dc.lft.to/lastmile_qr_scan", "android": "https://dc.lft.to/lastmile_qr_scan"}, "lon": -77.00030816666667, "type": "electric_scooter", "fusion_lat": 0.0, "lat": 38.87639733333334, "name": "09ef99f05e22a09a130c5a00dba78277", "fusion_lon": 0.0, "bike_id": "09ef99f05e22a09a130c5a00dba78277", "is_disabled": 0, "is_reserved": 0}, {"rental_uris": {"ios": "https://dc.lft.to/lastmile_qr_scan", "android": "https://dc.lft.to/lastmile_qr_scan"}, "lon": -77.0415955, "type": "electric_scooter", "fusion_lat": 0.0, "lat": 38.91483933333333, "name": "6181f7a88df1ef1715c0c907519d11b0", "fusion_lon": 0.0, "bike_id": "6181f7a88df1ef1715c0c907519d11b0", "is_disabled": 0, "is_reserved": 0}, {"rental_uris": {"ios": "https://dc.lft.to/lastmile_qr_scan", "android": "https://dc.lft.to/lastmile_qr_scan"}, "lon": -77.03787816666667, "type": "electric_scooter", "fusion_lat": 0.0, "lat": 38.930241, "name": "513d9cc529fb20fd06c9aea944878ddc", "fusion_lon": 0.0, "bike_id": "513d9cc529fb20fd06c9aea944878ddc", "is_disabled": 0, "is_reserved": 0}, {"rental_uris": {"ios": "https://dc.lft.to/lastmile_qr_scan", "android": "https://dc.lft.to/lastmile_qr_scan"}, "lon": -77.0324925, "type": "electric_bike", "fusion_lat": 0.0, "lat": 38.93387, "name": "d6862e5d4e03ccaf031fdbda1415db47", "fusion_lon": 0.0, "bike_id": "d6862e5d4e03ccaf031fdbda1415db47", "is_disabled": 0, "is_reserved": 0}, {"rental_uris": {"ios": "https://dc.lft.to/lastmile_qr_scan", "android": "https://dc.lft.to/lastmile_qr_scan"}, "lon": -77.00369216666667, "type": "electric_scooter", "fusion_lat": 0.0, "lat": 38.838054, "name": "eab92e266ef5961c2126d2d974c3b00d", "fusion_lon": 0.0, "bike_id": "eab92e266ef5961c2126d2d974c3b00d", "is_disabled": 0, "is_reserved": 0}, {"rental_uris": {"ios": "https://dc.lft.to/lastmile_qr_scan", "android": "https://dc.lft.to/lastmile_qr_scan"}, "lon": -77.02803816666666, "type": "electric_scooter", "fusion_lat": 0.0, "lat": 38.961917666666665, "name": "fea905c37d43c0b598070636c4644cfd", "fusion_lon": 0.0, "bike_id": "fea905c37d43c0b598070636c4644cfd", "is_disabled": 0, "is_reserved": 0}, {"rental_uris": {"ios": "https://dc.lft.to/lastmile_qr_scan", "android": "https://dc.lft.to/lastmile_qr_scan"}, "lon": -77.03777066666666, "type": "electric_scooter", "fusion_lat": 0.0, "lat": 38.921888333333335, "name": "ec9eda95ef46e8fc7bf9044d5fc74241", "fusion_lon": 0.0, "bike_id": "ec9eda95ef46e8fc7bf9044d5fc74241", "is_disabled": 0, "is_reserved": 0}, {"rental_uris": {"ios": "https://dc.lft.to/lastmile_qr_scan", "android": "https://dc.lft.to/lastmile_qr_scan"}, "lon": -76.9463375, "type": "electric_scooter", "fusion_lat": 0.0, "lat": 38.89834583333333, "name": "eb9684b4eb8532e40b6d33c86689281c", "fusion_lon": 0.0, "bike_id": "eb9684b4eb8532e40b6d33c86689281c", "is_disabled": 0, "is_reserved": 0}, {"rental_uris": {"ios": "https://dc.lft.to/lastmile_qr_scan", "android": "https://dc.lft.to/lastmile_qr_scan"}, "lon": -77.03856016666667, "type": "electric_scooter", "fusion_lat": 0.0, "lat": 38.915605166666666, "name": "f879651036d4e0b439f22ab66e29e373", "fusion_lon": 0.0, "bike_id": "f879651036d4e0b439f22ab66e29e373", "is_disabled": 0, "is_reserved": 0}, {"rental_uris": {"ios": "https://dc.lft.to/lastmile_qr_scan", "android": "https://dc.lft.to/lastmile_qr_scan"}, "lon": -77.095501, "type": "electric_bike", "fusion_lat": 0.0, "lat": 38.837324, "name": "ffd8ad3484f2651bf0e335c9fd7da301", "fusion_lon": 0.0, "bike_id": "ffd8ad3484f2651bf0e335c9fd7da301", "is_disabled": 0, "is_reserved": 0}, {"rental_uris": {"ios": "https://dc.lft.to/lastmile_qr_scan", "android": "https://dc.lft.to/lastmile_qr_scan"}, "lon": -77.02169216666667, "type": "electric_scooter", "fusion_lat": 0.0, "lat": 38.897344833333335, "name": "8b2130fbb255216c5b3572e00a931e51", "fusion_lon": 0.0, "bike_id": "8b2130fbb255216c5b3572e00a931e51", "is_disabled": 0, "is_reserved": 0}, {"rental_uris": {"ios": "https://dc.lft.to/lastmile_qr_scan", "android": "https://dc.lft.to/lastmile_qr_scan"}, "lon": -77.00379866666667, "type": "electric_bike", "fusion_lat": 0.0, "lat": 38.83606916666667, "name": "ae7f95b151506d773f49a79e2383ac6d", "fusion_lon": 0.0, "bike_id": "ae7f95b151506d773f49a79e2383ac6d", "is_disabled": 0, "is_reserved": 0}, {"rental_uris": {"ios": "https://dc.lft.to/lastmile_qr_scan", "android": "https://dc.lft.to/lastmile_qr_scan"}, "lon": -77.04417716666667, "type": "electric_scooter", "fusion_lat": 0.0, "lat": 38.8922885, "name": "0a0d006116ec5875bb11cee9f0e4a5ac", "fusion_lon": 0.0, "bike_id": "0a0d006116ec5875bb11cee9f0e4a5ac", "is_disabled": 0, "is_reserved": 0}, {"rental_uris": {"ios": "https://dc.lft.to/lastmile_qr_scan", "android": "https://dc.lft.to/lastmile_qr_scan"}, "lon": -77.0346175, "type": "electric_scooter", "fusion_lat": 0.0, "lat": 38.93442833333334, "name": "9b3c44dd6377135f38511557abde824d", "fusion_lon": 0.0, "bike_id": "9b3c44dd6377135f38511557abde824d", "is_disabled": 0, "is_reserved": 0}, {"rental_uris": {"ios": "https://dc.lft.to/lastmile_qr_scan", "android": "https://dc.lft.to/lastmile_qr_scan"}, "lon": -77.0263375, "type": "electric_bike", "fusion_lat": 0.0, "lat": 38.962299333333334, "name": "31c5c1bdd7ef57173de23cc5a152c805", "fusion_lon": 0.0, "bike_id": "31c5c1bdd7ef57173de23cc5a152c805", "is_disabled": 0, "is_reserved": 0}, {"rental_uris": {"ios": "https://dc.lft.to/lastmile_qr_scan", "android": "https://dc.lft.to/lastmile_qr_scan"}, "lon": -77.00724133333334, "type": "electric_scooter", "fusion_lat": 0.0, "lat": 38.88492883333333, "name": "d457fefd7afc458a652be37fbbfbadb3", "fusion_lon": 0.0, "bike_id": "d457fefd7afc458a652be37fbbfbadb3", "is_disabled": 0, "is_reserved": 0}, {"rental_uris": {"ios": "https://dc.lft.to/lastmile_qr_scan", "android": "https://dc.lft.to/lastmile_qr_scan"}, "lon": -77.0478645, "type": "electric_scooter", "fusion_lat": 0.0, "lat": 38.8922395, "name": "f9567546b799455c382c93ee9a2576af", "fusion_lon": 0.0, "bike_id": "f9567546b799455c382c93ee9a2576af", "is_disabled": 0, "is_reserved": 0}, {"rental_uris": {"ios": "https://dc.lft.to/lastmile_qr_scan", "android": "https://dc.lft.to/lastmile_qr_scan"}, "lon": -77.0020545, "type": "electric_scooter", "fusion_lat": 0.0, "lat": 38.90031233333333, "name": "fd38b62f25f1263d30ecf65151637b63", "fusion_lon": 0.0, "bike_id": "fd38b62f25f1263d30ecf65151637b63", "is_disabled": 0, "is_reserved": 0}, {"rental_uris": {"ios": "https://dc.lft.to/lastmile_qr_scan", "android": "https://dc.lft.to/lastmile_qr_scan"}, "lon": -77.178487, "type": "electric_bike", "fusion_lat": 0.0, "lat": 39.08900083333333, "name": "5df0bb3bd08ebc99eb22454002fe9148", "fusion_lon": 0.0, "bike_id": "5df0bb3bd08ebc99eb22454002fe9148", "is_disabled": 0, "is_reserved": 0}, {"rental_uris": {"ios": "https://dc.lft.to/lastmile_qr_scan", "android": "https://dc.lft.to/lastmile_qr_scan"}, "lon": -77.033537, "type": "electric_scooter", "fusion_lat": 0.0, "lat": 38.885105833333334, "name": "6e6bed6f0fb2ed00e7f3e9f34dcb073c", "fusion_lon": 0.0, "bike_id": "6e6bed6f0fb2ed00e7f3e9f34dcb073c", "is_disabled": 0, "is_reserved": 0}, {"rental_uris": {"ios": "https://dc.lft.to/lastmile_qr_scan", "android": "https://dc.lft.to/lastmile_qr_scan"}, "lon": -77.08537333333334, "type": "electric_bike", "fusion_lat": 0.0, "lat": 38.856185333333336, "name": "865eb9ee606d81414525dca58e980931", "fusion_lon": 0.0, "bike_id": "865eb9ee606d81414525dca58e980931", "is_disabled": 0, "is_reserved": 0}, {"rental_uris": {"ios": "https://dc.lft.to/lastmile_qr_scan", "android": "https://dc.lft.to/lastmile_qr_scan"}, "lon": -77.02098333333333, "type": "electric_scooter", "fusion_lat": 0.0, "lat": 38.931159, "name": "373f3c990844a1569d0011cec8b0329b", "fusion_lon": 0.0, "bike_id": "373f3c990844a1569d0011cec8b0329b", "is_disabled": 0, "is_reserved": 0}, {"rental_uris": {"ios": "https://dc.lft.to/lastmile_qr_scan", "android": "https://dc.lft.to/lastmile_qr_scan"}, "lon": -77.0298005, "type": "electric_scooter", "fusion_lat": 0.0, "lat": 38.96231483333333, "name": "65190679fa6a0b408dcbae6a20e4473f", "fusion_lon": 0.0, "bike_id": "65190679fa6a0b408dcbae6a20e4473f", "is_disabled": 0, "is_reserved": 0}, {"rental_uris": {"ios": "https://dc.lft.to/lastmile_qr_scan", "android": "https://dc.lft.to/lastmile_qr_scan"}, "lon": -77.04103966666666, "type": "electric_scooter", "fusion_lat": 0.0, "lat": 38.9185675, "name": "b16dfe31be0c0def5efc1bb03f756ab6", "fusion_lon": 0.0, "bike_id": "b16dfe31be0c0def5efc1bb03f756ab6", "is_disabled": 0, "is_reserved": 0}, {"rental_uris": {"ios": "https://dc.lft.to/lastmile_qr_scan", "android": "https://dc.lft.to/lastmile_qr_scan"}, "lon": -77.03822433333333, "type": "electric_scooter", "fusion_lat": 0.0, "lat": 38.9110985, "name": "4d6a9abfac923f2410b85a9adcc140b4", "fusion_lon": 0.0, "bike_id": "4d6a9abfac923f2410b85a9adcc140b4", "is_disabled": 0, "is_reserved": 0}, {"rental_uris": {"ios": "https://dc.lft.to/lastmile_qr_scan", "android": "https://dc.lft.to/lastmile_qr_scan"}, "lon": -77.032546, "type": "electric_scooter", "fusion_lat": 0.0, "lat": 38.917992, "name": "3411830c1e3395608c0d5fa199e51423", "fusion_lon": 0.0, "bike_id": "3411830c1e3395608c0d5fa199e51423", "is_disabled": 0, "is_reserved": 0}, {"rental_uris": {"ios": "https://dc.lft.to/lastmile_qr_scan", "android": "https://dc.lft.to/lastmile_qr_scan"}, "lon": -77.056005, "type": "electric_scooter", "fusion_lat": 0.0, "lat": 38.927823833333335, "name": "c9fd42192bf0ecd1955e191da98cc69a", "fusion_lon": 0.0, "bike_id": "c9fd42192bf0ecd1955e191da98cc69a", "is_disabled": 0, "is_reserved": 0}, {"rental_uris": {"ios": "https://dc.lft.to/lastmile_qr_scan", "android": "https://dc.lft.to/lastmile_qr_scan"}, "lon": -77.044454, "type": "electric_scooter", "fusion_lat": 0.0, "lat": 38.9187585, "name": "0be7e3b9a7ac2ae02ac5ca1afa9e945b", "fusion_lon": 0.0, "bike_id": "0be7e3b9a7ac2ae02ac5ca1afa9e945b", "is_disabled": 0, "is_reserved": 0}, {"rental_uris": {"ios": "https://dc.lft.to/lastmile_qr_scan", "android": "https://dc.lft.to/lastmile_qr_scan"}, "lon": -77.04521, "type": "electric_scooter", "fusion_lat": 0.0, "lat": 38.909755833333335, "name": "41370f5b9ff36e96b1afdc9cda4929bf", "fusion_lon": 0.0, "bike_id": "41370f5b9ff36e96b1afdc9cda4929bf", "is_disabled": 0, "is_reserved": 0}, {"rental_uris": {"ios": "https://dc.lft.to/lastmile_qr_scan", "android": "https://dc.lft.to/lastmile_qr_scan"}, "lon": -77.03347383333333, "type": "electric_scooter", "fusion_lat": 0.0, "lat": 38.88506566666667, "name": "56ca383d4e05194ce4576335a26e1a1d", "fusion_lon": 0.0, "bike_id": "56ca383d4e05194ce4576335a26e1a1d", "is_disabled": 0, "is_reserved": 0}, {"rental_uris": {"ios": "https://dc.lft.to/lastmile_qr_scan", "android": "https://dc.lft.to/lastmile_qr_scan"}, "lon": -77.0320575, "type": "electric_scooter", "fusion_lat": 0.0, "lat": 38.91299716666666, "name": "68935fb63a8d839e24e4e2acaed10fe5", "fusion_lon": 0.0, "bike_id": "68935fb63a8d839e24e4e2acaed10fe5", "is_disabled": 0, "is_reserved": 0}, {"rental_uris": {"ios": "https://dc.lft.to/lastmile_qr_scan", "android": "https://dc.lft.to/lastmile_qr_scan"}, "lon": -76.99485866666667, "type": "electric_scooter", "fusion_lat": 0.0, "lat": 38.862377, "name": "b0dc530a44e69608a976997f7fb9250e", "fusion_lon": 0.0, "bike_id": "b0dc530a44e69608a976997f7fb9250e", "is_disabled": 0, "is_reserved": 0}, {"rental_uris": {"ios": "https://dc.lft.to/lastmile_qr_scan", "android": "https://dc.lft.to/lastmile_qr_scan"}, "lon": -77.09522616666666, "type": "electric_bike", "fusion_lat": 0.0, "lat": 38.838103333333336, "name": "7790eb73cc4e5cf6c35e6d448c694e3b", "fusion_lon": 0.0, "bike_id": "7790eb73cc4e5cf6c35e6d448c694e3b", "is_disabled": 0, "is_reserved": 0}, {"rental_uris": {"ios": "https://dc.lft.to/lastmile_qr_scan", "android": "https://dc.lft.to/lastmile_qr_scan"}, "lon": -77.043847, "type": "electric_scooter", "fusion_lat": 0.0, "lat": 38.902971666666666, "name": "05a170d8f327eba3915dc8a1563ca618", "fusion_lon": 0.0, "bike_id": "05a170d8f327eba3915dc8a1563ca618", "is_disabled": 0, "is_reserved": 0}, {"rental_uris": {"ios": "https://dc.lft.to/lastmile_qr_scan", "android": "https://dc.lft.to/lastmile_qr_scan"}, "lon": -77.04004283333333, "type": "electric_scooter", "fusion_lat": 0.0, "lat": 38.888883166666666, "name": "41d50d18f2fa3dde24f3d05f448f128a", "fusion_lon": 0.0, "bike_id": "41d50d18f2fa3dde24f3d05f448f128a", "is_disabled": 0, "is_reserved": 0}, {"rental_uris": {"ios": "https://dc.lft.to/lastmile_qr_scan", "android": "https://dc.lft.to/lastmile_qr_scan"}, "lon": -77.038294, "type": "electric_scooter", "fusion_lat": 0.0, "lat": 38.920660833333336, "name": "874c872e5fdcb6c72cf79ec5d389c2b7", "fusion_lon": 0.0, "bike_id": "874c872e5fdcb6c72cf79ec5d389c2b7", "is_disabled": 0, "is_reserved": 0}, {"rental_uris": {"ios": "https://dc.lft.to/lastmile_qr_scan", "android": "https://dc.lft.to/lastmile_qr_scan"}, "lon": -77.022186, "type": "electric_scooter", "fusion_lat": 0.0, "lat": 38.89196283333333, "name": "a2ebef33f610d0fbbe6f508ccac15b60", "fusion_lon": 0.0, "bike_id": "a2ebef33f610d0fbbe6f508ccac15b60", "is_disabled": 0, "is_reserved": 0},