{"data": {"bikes": [{"rental_uris": {"ios": "https://dc.lft.to/lastmile_qr_scan", "android": "https://dc.lft.to/lastmile_qr_scan"}, "type": "electric_scooter", "name": "7400f288a6ec732b524e659af2bb3f36", "is_reserved": 0, "lon": -77.04432266666667, "is_disabled": 0, "fusion_lat": 0.0, "lat": 38.89734516666667, "bike_id": "7400f288a6ec732b524e659af2bb3f36", "fusion_lon": 0.0}, {"rental_uris": {"ios": "https://dc.lft.to/lastmile_qr_scan", "android": "https://dc.lft.to/lastmile_qr_scan"}, "type": "electric_scooter", "name": "64afe9d2f3e1a0cfaa566c84be49494e", "is_reserved": 0, "lon": -77.01864516666667, "is_disabled": 0, "fusion_lat": 0.0, "lat": 38.951510166666665, "bike_id": "64afe9d2f3e1a0cfaa566c84be49494e", "fusion_lon": 0.0}, {"rental_uris": {"ios": "https://dc.lft.to/lastmile_qr_scan", "android": "https://dc.lft.to/lastmile_qr_scan"}, "type": "electric_scooter", "name": "10000dde529633ef7f3da0d6c730be82", "is_reserved": 0, "lon": -76.97203983333333, "is_disabled": 0, "fusion_lat": 0.0, "lat": 38.924569, "bike_id": "10000dde529633ef7f3da0d6c730be82", "fusion_lon": 0.0}, {"rental_uris": {"ios": "https://dc.lft.to/lastmile_qr_scan", "android": "https://dc.lft.to/lastmile_qr_scan"}, "type": "electric_scooter", "name": "f02c4383eba0ca7f09e57a6fcd783fe0", "is_reserved": 0, "lon": -77.040494, "is_disabled": 0, "fusion_lat": 0.0, "lat": 38.9301375, "bike_id": "f02c4383eba0ca7f09e57a6fcd783fe0", "fusion_lon": 0.0}, {"rental_uris": {"ios": "https://dc.lft.to/lastmile_qr_scan", "android": "https://dc.lft.to/lastmile_qr_scan"}, "type": "electric_scooter", "name": "f5d58cadcb3dada5368613b1f8cf1630", "is_reserved": 0, "lon": -77.00429966666667, "is_disabled": 0, "fusion_lat": 0.0, "lat": 38.88509, "bike_id": "f5d58cadcb3dada5368613b1f8cf1630", "fusion_lon": 0.0}, {"rental_uris": {"ios": "https://dc.lft.to/lastmile_qr_scan", "android": "https://dc.lft.to/lastmile_qr_scan"}, "type": "electric_scooter", "name": "0984086bfc1a791500f0d655045dc699", "is_reserved": 0, "lon": -77.02266983333334, "is_disabled": 0, "fusion_lat": 0.0, "lat": 38.92473566666666, "bike_id": "0984086bfc1a791500f0d655045dc699", "fusion_lon": 0.0}, {"rental_uris": {"ios": "https://dc.lft.to/lastmile_qr_scan", "android": "https://dc.lft.to/lastmile_qr_scan"}, "type": "electric_scooter", "name": "4e86e65b1216b410fb6c78e1c12d507a", "is_reserved": 0, "lon": -77.03780516666667, "is_disabled": 0, "fusion_lat": 0.0, "lat": 38.91572333333333, "bike_id": "4e86e65b1216b410fb6c78e1c12d507a", "fusion_lon": 0.0}, {"rental_uris": {"ios": "https://dc.lft.to/lastmile_qr_scan", "android": "https://dc.lft.to/lastmile_qr_scan"}, "type": "electric_scooter", "name": "93dcc3d95661406f604c30b95efa56d8", "is_reserved": 0, "lon": -77.02511033333333, "is_disabled": 0, "fusion_lat": 0.0, "lat": 38.904074666666666, "bike_id": "93dcc3d95661406f604c30b95efa56d8", "fusion_lon": 0.0}, {"rental_uris": {"ios": "https://dc.lft.to/lastmile_qr_scan", "android": "https://dc.lft.to/lastmile_qr_scan"}, "type": "electric_scooter", "name": "834220c37fbdb0405422cb5a8192ad57", "is_reserved": 0, "lon": -77.01501416666666, "is_disabled": 0, "fusion_lat": 0.0, "lat": 38.9266365, "bike_id": "834220c37fbdb0405422cb5a8192ad57", "fusion_lon": 0.0}, {"rental_uris": {"ios": "https://dc.lft.to/lastmile_qr_scan", "android": "https://dc.lft.to/lastmile_qr_scan"}, "type": "electric_scooter", "name": "7f66eeb032ab5ac2c8e9c3bfb3456d5c", "is_reserved": 0, "lon": -77.00407033333333, "is_disabled": 0, "fusion_lat": 0.0, "lat": 38.879472166666666, "bike_id": "7f66eeb032ab5ac2c8e9c3bfb3456d5c", "fusion_lon": 0.0}, {"rental_uris": {"ios": "https://dc.lft.to/lastmile_qr_scan", "android": "https://dc.lft.to/lastmile_qr_scan"}, "type": "electric_scooter", "name": "32e2d4b589d9a6edf7d5503e3a565a7b", "is_reserved": 0, "lon": -76.98648283333333, "is_disabled": 0, "fusion_lat": 0.0, "lat": 38.9053495, "bike_id": "32e2d4b589d9a6edf7d5503e3a565a7b", "fusion_lon": 0.0}, {"rental_uris": {"ios": "https://dc.lft.to/lastmile_qr_scan", "android": "https://dc.lft.to/lastmile_qr_scan"}, "type": "electric_bike", "name": "fc94e94bd9be3cca780d37a31fd54874", "is_reserved": 0, "lon": -77.07385766666667, "is_disabled": 0, "fusion_lat": 0.0, "lat": 38.91440866666667, "bike_id": "fc94e94bd9be3cca780d37a31fd54874", "fusion_lon": 0.0}, {"rental_uris": {"ios": "https://dc.lft.to/lastmile_qr_scan", "android": "https://dc.lft.to/lastmile_qr_scan"}, "type": "electric_scooter", "name": "c6e3f232dbc3e6dc1d11a855936713ff", "is_reserved": 0, "lon": -77.038334, "is_disabled": 0, "fusion_lat": 0.0, "lat": 38.910364333333334, "bike_id": "c6e3f232dbc3e6dc1d11a855936713ff", "fusion_lon": 0.0}, {"rental_uris": {"ios": "https://dc.lft.to/lastmile_qr_scan", "android": "https://dc.lft.to/lastmile_qr_scan"}, "type": "electric_bike", "name": "fd597cc60b4a0d6c90f4ceffad5c09d5", "is_reserved": 0, "lon": -77.10623033333333, "is_disabled": 0, "fusion_lat": 0.0, "lat": 38.8732535, "bike_id": "fd597cc60b4a0d6c90f4ceffad5c09d5", "fusion_lon": 0.0}, {"rental_uris": {"ios": "https://dc.lft.to/lastmile_qr_scan", "android": "https://dc.lft.to/lastmile_qr_scan"}, "type": "electric_scooter", "name": "9edf275f293a94fccf7e76e5f86b6059", "is_reserved": 0, "lon": -76.990108, "is_disabled": 0, "fusion_lat": 0.0, "lat": 38.898843666666664, "bike_id": "9edf275f293a94fccf7e76e5f86b6059", "fusion_lon": 0.0}, {"rental_uris": {"ios": "https://dc.lft.to/lastmile_qr_scan", "android": "https://dc.lft.to/lastmile_qr_scan"}, "type": "electric_scooter", "name": "48965828aacda6f811be23d274860aa2", "is_reserved": 0, "lon": -77.047546, "is_disabled": 0, "fusion_lat": 0.0, "lat": 38.900837833333334, "bike_id": "48965828aacda6f811be23d274860aa2", "fusion_lon": 0.0}, {"rental_uris": {"ios": "https://dc.lft.to/lastmile_qr_scan", "android": "https://dc.lft.to/lastmile_qr_scan"}, "type": "electric_scooter", "name": "20abc32870e351db2afa566c0351ef8e", "is_reserved": 0, "lon": -77.02197266666667, "is_disabled": 0, "fusion_lat": 0.0, "lat": 38.911337333333336, "bike_id": "20abc32870e351db2afa566c0351ef8e", "fusion_lon": 0.0}, {"rental_uris": {"ios": "https://dc.lft.to/lastmile_qr_scan", "android": "https://dc.lft.to/lastmile_qr_scan"}, "type": "electric_scooter", "name": "276c948f6b0191fb8887afc575833364", "is_reserved": 0, "lon": -76.92300933333334, "is_disabled": 0, "fusion_lat": 0.0, "lat": 38.893811666666664, "bike_id": "276c948f6b0191fb8887afc575833364", "fusion_lon": 0.0}, {"rental_uris": {"ios": "https://dc.lft.to/lastmile_qr_scan", "android": "https://dc.lft.to/lastmile_qr_scan"}, "type": "electric_scooter", "name": "59b9ceb25d5331ff0716e9bffbb12cf6", "is_reserved": 0, "lon": -77.02695933333334, "is_disabled": 0, "fusion_lat": 0.0, "lat": 38.9052235, "bike_id": "59b9ceb25d5331ff0716e9bffbb12cf6", "fusion_lon": 0.0}, {"rental_uris": {"ios": "https://dc.lft.to/lastmile_qr_scan", "android": "https://dc.lft.to/lastmile_qr_scan"}, "type": "electric_scooter", "name": "57bd2f6dff9c8fd1d22a38f708e507df", "is_reserved": 0, "lon": -77.02464516666667, "is_disabled": 0, "fusion_lat": 0.0, "lat": 38.957783666666664, "bike_id": "57bd2f6dff9c8fd1d22a38f708e507df", "fusion_lon": 0.0}, {"rental_uris": {"ios": "https://dc.lft.to/lastmile_qr_scan", "android": "https://dc.lft.to/lastmile_qr_scan"}, "type": "electric_scooter", "name": "276aed7ba75350186dbde80e8ad514bb", "is_reserved": 0, "lon": -77.02449366666667, "is_disabled": 0, "fusion_lat": 0.0, "lat": 38.94975316666667, "bike_id": "276aed7ba75350186dbde80e8ad514bb", "fusion_lon": 0.0}, {"rental_uris": {"ios": "https://dc.lft.to/lastmile_qr_scan", "android": "https://dc.lft.to/lastmile_qr_scan"}, "type": "electric_scooter", "name": "125fb2fb9614398243f61b53f7c364b9", "is_reserved": 0, "lon": -77.0202805, "is_disabled": 0, "fusion_lat": 0.0, "lat": 38.92435, "bike_id": "125fb2fb9614398243f61b53f7c364b9", "fusion_lon": 0.0}, {"rental_uris": {"ios": "https://dc.lft.to/lastmile_qr_scan", "android": "https://dc.lft.to/lastmile_qr_scan"}, "type": "electric_scooter", "name": "3fcc83a65cd40ca8a2748c20412ff494", "is_reserved": 0, "lon": -77.07406983333334, "is_disabled": 0, "fusion_lat": 0.0, "lat": 38.897281666666665, "bike_id": "3fcc83a65cd40ca8a2748c20412ff494", "fusion_lon": 0.0}, {"rental_uris": {"ios": "https://dc.lft.to/lastmile_qr_scan", "android": "https://dc.lft.to/lastmile_qr_scan"}, "type": "electric_scooter", "name": "8f21e30a5fe877d9a4b7a37783f33e24", "is_reserved": 0, "lon": -76.98862283333334, "is_disabled": 0, "fusion_lat": 0.0, "lat": 38.900312666666665, "bike_id": "8f21e30a5fe877d9a4b7a37783f33e24", "fusion_lon": 0.0}, {"rental_uris": {"ios": "https://dc.lft.to/lastmile_qr_scan", "android": "https://dc.lft.to/lastmile_qr_scan"}, "type": "electric_scooter", "name": "f41439a575725e2d5890b6b1b674bc56", "is_reserved": 0, "lon": -77.03492033333333, "is_disabled": 0, "fusion_lat": 0.0, "lat": 38.93272866666667, "bike_id": "f41439a575725e2d5890b6b1b674bc56", "fusion_lon": 0.0}, {"rental_uris": {"ios": "https://dc.lft.to/lastmile_qr_scan", "android": "https://dc.lft.to/lastmile_qr_scan"}, "type": "electric_bike", "name": "41b2812d769b5e2bcb4bf4d3ab416a89", "is_reserved": 0, "lon": -76.98059033333334, "is_disabled": 0, "fusion_lat": 0.0, "lat": 38.9725075, "bike_id": "41b2812d769b5e2bcb4bf4d3ab416a89", "fusion_lon": 0.0}, {"rental_uris": {"ios": "https://dc.lft.to/lastmile_qr_scan", "android": "https://dc.lft.to/lastmile_qr_scan"}, "type": "electric_scooter", "name": "6235978024cd2ba0b95067565f7358e5", "is_reserved": 0, "lon": -77.02405733333333, "is_disabled": 0, "fusion_lat": 0.0, "lat": 38.945045666666665, "bike_id": "6235978024cd2ba0b95067565f7358e5", "fusion_lon": 0.0}, {"rental_uris": {"ios": "https://dc.lft.to/lastmile_qr_scan", "android": "https://dc.lft.to/lastmile_qr_scan"}, "type": "electric_scooter", "name": "e4e049312e207aa36773192d6bc5c654", "is_reserved": 0, "lon": -77.01755216666666, "is_disabled": 0, "fusion_lat": 0.0, "lat": 38.880202, "bike_id": "e4e049312e207aa36773192d6bc5c654", "fusion_lon": 0.0}, {"rental_uris": {"ios": "https://dc.lft.to/lastmile_qr_scan", "android": "https://dc.lft.to/lastmile_qr_scan"}, "type": "electric_scooter", "name": "d3e11a9684067b81893240e9e3c07bc1", "is_reserved": 0, "lon": -77.03635516666667, "is_disabled": 0, "fusion_lat": 0.0, "lat": 38.93057666666667, "bike_id": "d3e11a9684067b81893240e9e3c07bc1", "fusion_lon": 0.0}, {"rental_uris": {"ios": "https://dc.lft.to/lastmile_qr_scan", "android": "https://dc.lft.to/lastmile_qr_scan"}, "type": "electric_scooter", "name": "0d0cdb8208d7e17811ca72241ab2c6bc", "is_reserved": 0, "lon": -77.028443, "is_disabled": 0, "fusion_lat": 0.0, "lat": 38.892216, "bike_id": "0d0cdb8208d7e17811ca72241ab2c6bc", "fusion_lon": 0.0}, {"rental_uris": {"ios": "https://dc.lft.to/lastmile_qr_scan", "android": "https://dc.lft.to/lastmile_qr_scan"}, "type": "electric_scooter", "name": "6504708369bcfd66863953c0f8f42f1a", "is_reserved": 0, "lon": -77.0269605, "is_disabled": 0, "fusion_lat": 0.0, "lat": 38.923966166666666, "bike_id": "6504708369bcfd66863953c0f8f42f1a", "fusion_lon": 0.0}, {"rental_uris": {"ios": "https://dc.lft.to/lastmile_qr_scan", "android": "https://dc.lft.to/lastmile_qr_scan"}, "type": "electric_scooter", "name": "7d928cdf7ac7e397ca64b53e4ce4abf4", "is_reserved": 0, "lon": -77.03974, "is_disabled": 0, "fusion_lat": 0.0, "lat": 38.9013805, "bike_id": "7d928cdf7ac7e397ca64b53e4ce4abf4", "fusion_lon": 0.0}, {"rental_uris": {"ios": "https://dc.lft.to/lastmile_qr_scan", "android": "https://dc.lft.to/lastmile_qr_scan"}, "type": "electric_bike", "name": "8fb132d51ecb1592f845e4f239295d97", "is_reserved": 0, "lon": -77.07523233333333, "is_disabled": 0, "fusion_lat": 0.0, "lat": 38.84283033333333, "bike_id": "8fb132d51ecb1592f845e4f239295d97", "fusion_lon": 0.0}, {"rental_uris": {"ios": "https://dc.lft.to/lastmile_qr_scan", "android": "https://dc.lft.to/lastmile_qr_scan"}, "type": "electric_scooter", "name": "3e06e6c866cdc1d13c819d9981fe914b", "is_reserved": 0, "lon": -77.04373566666666, "is_disabled": 0, "fusion_lat": 0.0, "lat": 38.934939166666666, "bike_id": "3e06e6c866cdc1d13c819d9981fe914b", "fusion_lon": 0.0}, {"rental_uris": {"ios": "https://dc.lft.to/lastmile_qr_scan", "android": "https://dc.lft.to/lastmile_qr_scan"}, "type": "electric_scooter", "name": "ade17dd2d56aed9026f975851a7dbc8d", "is_reserved": 0, "lon": -77.00104433333334, "is_disabled": 0, "fusion_lat": 0.0, "lat": 38.907826166666666, "bike_id": "ade17dd2d56aed9026f975851a7dbc8d", "fusion_lon": 0.0}, {"rental_uris": {"ios": "https://dc.lft.to/lastmile_qr_scan", "android": "https://dc.lft.to/lastmile_qr_scan"}, "type": "electric_scooter", "name": "e8647ce13317e124b0806d2dcfaf1101", "is_reserved": 0, "lon": -77.0736185, "is_disabled": 0, "fusion_lat": 0.0, "lat": 38.937419166666665, "bike_id": "e8647ce13317e124b0806d2dcfaf1101", "fusion_lon": 0.0}, {"rental_uris": {"ios": "https://dc.lft.to/lastmile_qr_scan", "android": "https://dc.lft.to/lastmile_qr_scan"}, "type": "electric_scooter", "name": "e0164038289d257f7e8940affe41ec9b", "is_reserved": 0, "lon": -77.067066, "is_disabled": 0, "fusion_lat": 0.0, "lat": 38.947936, "bike_id": "e0164038289d257f7e8940affe41ec9b", "fusion_lon": 0.0}, {"rental_uris": {"ios": "https://dc.lft.to/lastmile_qr_scan", "android": "https://dc.lft.to/lastmile_qr_scan"}, "type": "electric_scooter", "name": "772c13ea6aeaeee82d184a94744d68cb", "is_reserved": 0, "lon": -77.053273, "is_disabled": 0, "fusion_lat": 0.0, "lat": 38.90263183333333, "bike_id": "772c13ea6aeaeee82d184a94744d68cb", "fusion_lon": 0.0}, {"rental_uris": {"ios": "https://dc.lft.to/lastmile_qr_scan", "android": "https://dc.lft.to/lastmile_qr_scan"}, "type": "electric_scooter", "name": "f46eb4ba9ca1eda5654d80eed130068d", "is_reserved": 0, "lon": -77.03793933333333, "is_disabled": 0, "fusion_lat": 0.0, "lat": 38.931065, "bike_id": "f46eb4ba9ca1eda5654d80eed130068d", "fusion_lon": 0.0}, {"rental_uris": {"ios": "https://dc.lft.to/lastmile_qr_scan", "android": "https://dc.lft.to/lastmile_qr_scan"}, "type": "electric_bike", "name": "a6aba409109b729d0d16275626cba4aa", "is_reserved": 0, "lon": -76.94544516666667, "is_disabled": 0, "fusion_lat": 0.0, "lat": 38.982975, "bike_id": "a6aba409109b729d0d16275626cba4aa", "fusion_lon": 0.0}, {"rental_uris": {"ios": "https://dc.lft.to/lastmile_qr_scan", "android": "https://dc.lft.to/lastmile_qr_scan"}, "type": "electric_bike", "name": "029abdca23d9d6fa46ec3398402c3f1e", "is_reserved": 0, "lon": -76.95239716666667, "is_disabled": 0, "fusion_lat": 0.0, "lat": 38.884648166666665, "bike_id": "029abdca23d9d6fa46ec3398402c3f1e", "fusion_lon": 0.0}, {"rental_uris": {"ios": "https://dc.lft.to/lastmile_qr_scan", "android": "https://dc.lft.to/lastmile_qr_scan"}, "type": "electric_bike", "name": "c2bb6630757320b91d4f4b18a407c2ab", "is_reserved": 0, "lon": -77.04070216666666, "is_disabled": 0, "fusion_lat": 0.0, "lat": 38.99379066666667, "bike_id": "c2bb6630757320b91d4f4b18a407c2ab", "fusion_lon": 0.0}, {"rental_uris": {"ios": "https://dc.lft.to/lastmile_qr_scan", "android": "https://dc.lft.to/lastmile_qr_scan"}, "type": "electric_scooter", "name": "94d913b7a147aafa2b262bf5b9197266", "is_reserved": 0, "lon": -77.01443066666667, "is_disabled": 0, "fusion_lat": 0.0, "lat": 38.91107516666667, "bike_id": "94d913b7a147aafa2b262bf5b9197266", "fusion_lon": 0.0}, {"rental_uris": {"ios": "https://dc.lft.to/lastmile_qr_scan", "android": "https://dc.lft.to/lastmile_qr_scan"}, "type": "electric_scooter", "name": "482c8b3b3cfd970df7a811f126662aea", "is_reserved": 0, "lon": -77.08400566666667, "is_disabled": 0, "fusion_lat": 0.0, "lat": 38.908036333333335, "bike_id": "482c8b3b3cfd970df7a811f126662aea", "fusion_lon": 0.0}, {"rental_uris": {"ios": "https://dc.lft.to/lastmile_qr_scan", "android": "https://dc.lft.to/lastmile_qr_scan"}, "type": "electric_scooter", "name": "ccca2d34dc78cb93923fec57656e04b9", "is_reserved": 0, "lon": -77.03209416666667, "is_disabled": 0, "fusion_lat": 0.0, "lat": 38.887063833333336, "bike_id": "ccca2d34dc78cb93923fec57656e04b9", "fusion_lon": 0.0}, {"rental_uris": {"ios": "https://dc.lft.to/lastmile_qr_scan", "android": "https://dc.lft.to/lastmile_qr_scan"}, "type": "electric_bike", "name": "d980eea4a03b326f46c6d08943f9f179", "is_reserved": 0, "lon": -76.96885916666666, "is_disabled": 0, "fusion_lat": 0.0, "lat": 38.86986133333333, "bike_id": "d980eea4a03b326f46c6d08943f9f179", "fusion_lon": 0.0}, {"rental_uris": {"ios": "https://dc.lft.to/lastmile_qr_scan", "android": "https://dc.lft.to/lastmile_qr_scan"}, "type": "electric_bike", "name": "1dd21f9ab14898cfa16e2bdde6c257b9", "is_reserved": 0, "lon": -77.02143783333334, "is_disabled": 0, "fusion_lat": 0.0, "lat": 38.95100866666667, "bike_id": "1dd21f9ab14898cfa16e2bdde6c257b9", "fusion_lon": 0.0}, {"rental_uris": {"ios": "https://dc.lft.to/lastmile_qr_scan", "android": "https://dc.lft.to/lastmile_qr_scan"}, "type": "electric_bike", "name": "bf6b371d8fc30b8e79ac5cf269606b76", "is_reserved": 0, "lon": -77.0591105, "is_disabled": 0, "fusion_lat": 0.0, "lat": 38.90532616666667, "bike_id": "bf6b371d8fc30b8e79ac5cf269606b76", "fusion_lon": 0.0}, {"rental_uris": {"ios": "https://dc.lft.to/lastmile_qr_scan", "android": "https://dc.lft.to/lastmile_qr_scan"}, "type": "electric_scooter", "name": "4bf09524562c9e11e81173c9bd353979", "is_reserved": 0, "lon": -77.048092, "is_disabled": 0, "fusion_lat": 0.0, "lat": 38.90969666666667, "bike_id": "4bf09524562c9e11e81173c9bd353979", "fusion_lon": 0.0}, {"rental_uris": {"ios": "https://dc.lft.to/lastmile_qr_scan", "android": "https://dc.lft.to/lastmile_qr_scan"}, "type": "electric_scooter", "name": "cc4116c59a17e96b53a8d18b76b11d5f", "is_reserved": 0, "lon": -77.023934, "is_disabled": 0, "fusion_lat": 0.0, "lat": 38.921857833333334, "bike_id": "cc4116c59a17e96b53a8d18b76b11d5f", "fusion_lon": 0.0}, {"rental_uris": {"ios": "https://dc.lft.to/lastmile_qr_scan", "android": "https://dc.lft.to/lastmile_qr_scan"}, "type": "electric_scooter", "name": "ba4b16796557ea9a204fb38653474d2f", "is_reserved": 0, "lon": -77.05807216666666, "is_disabled": 0, "fusion_lat": 0.0, "lat": 38.905869833333334, "bike_id": "ba4b16796557ea9a204fb38653474d2f", "fusion_lon": 0.0}, {"rental_uris": {"ios": "https://dc.lft.to/lastmile_qr_scan", "android": "https://dc.lft.to/lastmile_qr_scan"}, "type": "electric_scooter", "name": "6e44f5da1dd01545aa89f5075a6be208", "is_reserved": 0, "lon": -77.0318425, "is_disabled": 0, "fusion_lat": 0.0, "lat": 38.91346133333333, "bike_id": "6e44f5da1dd01545aa89f5075a6be208", "fusion_lon": 0.0}, {"rental_uris": {"ios": "https://dc.lft.to/lastmile_qr_scan", "android": "https://dc.lft.to/lastmile_qr_scan"}, "type": "electric_scooter", "name": "62ea1aa5faa25bfeff4801409d780ca4", "is_reserved": 0, "lon": -77.03465916666667, "is_disabled": 0, "fusion_lat": 0.0, "lat": 38.90879266666666, "bike_id": "62ea1aa5faa25bfeff4801409d780ca4", "fusion_lon": 0.0}, {"rental_uris": {"ios": "https://dc.lft.to/lastmile_qr_scan", "android": "https://dc.lft.to/lastmile_qr_scan"}, "type": "electric_scooter", "name": "66f322b7250a541ce166e7140efee9b5", "is_reserved": 0, "lon": -77.04014316666667, "is_disabled": 0, "fusion_lat": 0.0, "lat": 38.925756, "bike_id": "66f322b7250a541ce166e7140efee9b5", "fusion_lon": 0.0}, {"rental_uris": {"ios": "https://dc.lft.to/lastmile_qr_scan", "android": "https://dc.lft.to/lastmile_qr_scan"}, "type": "electric_scooter", "name": "7745e847c22fd1cad67d9a934f9a5dc1", "is_reserved": 0, "lon": -77.0389035, "is_disabled": 0, "fusion_lat": 0.0, "lat": 38.90356216666667, "bike_id": "7745e847c22fd1cad67d9a934f9a5dc1", "fusion_lon": 0.0}, {"rental_uris": {"ios": "https://dc.lft.to/lastmile_qr_scan", "android": "https://dc.lft.to/lastmile_qr_scan"}, "type": "electric_scooter", "name": "b956ac24490e3a8b55ae2177f38372d6", "is_reserved": 0, "lon": -77.03283366666666, "is_disabled": 0, "fusion_lat": 0.0, "lat": 38.93882966666666, "bike_id": "b956ac24490e3a8b55ae2177f38372d6", "fusion_lon": 0.0}, {"rental_uris": {"ios": "https://dc.lft.to/lastmile_qr_scan", "android": "https://dc.lft.to/lastmile_qr_scan"}, "type": "electric_scooter", "name": "125e1e0720045aca227c56cadd02aaa6", "is_reserved": 0, "lon": -76.98559633333333, "is_disabled": 0, "fusion_lat": 0.0, "lat": 38.860003, "bike_id": "125e1e0720045aca227c56cadd02aaa6", "fusion_lon": 0.0}, {"rental_uris": {"ios": "https://dc.lft.to/lastmile_qr_scan", "android": "https://dc.lft.to/lastmile_qr_scan"}, "type": "electric_scooter", "name": "4a4feb20e081b92c445a1942a33d3dbf", "is_reserved": 0, "lon": -77.036619, "is_disabled": 0, "fusion_lat": 0.0, "lat": 38.91386283333333, "bike_id": "4a4feb20e081b92c445a1942a33d3dbf", "fusion_lon": 0.0}, {"rental_uris": {"ios": "https://dc.lft.to/lastmile_qr_scan", "android": "https://dc.lft.to/lastmile_qr_scan"}, "type": "electric_scooter", "name": "43c55fc734c0d0f65fa00b8e9f8d93e3", "is_reserved": 0, "lon": -77.04343733333333, "is_disabled": 0, "fusion_lat": 0.0, "lat": 38.896899833333336, "bike_id": "43c55fc734c0d0f65fa00b8e9f8d93e3", "fusion_lon": 0.0}, {"rental_uris": {"ios": "https://dc.lft.to/lastmile_qr_scan", "android": "https://dc.lft.to/lastmile_qr_scan"}, "type": "electric_scooter", "name": "503d959c8cfc85aa3e92d2b2989d533c", "is_reserved": 0, "lon": -76.937012, "is_disabled": 0, "fusion_lat": 0.0, "lat": 38.890210333333336, "bike_id": "503d959c8cfc85aa3e92d2b2989d533c", "fusion_lon": 0.0}, {"rental_uris": {"ios": "https://dc.lft.to/lastmile_qr_scan", "android": "https://dc.lft.to/lastmile_qr_scan"}, "type": "electric_scooter", "name": "e04e455de8d613738f5b2137f2b94267", "is_reserved": 0, "lon": -77.02473716666667, "is_disabled": 0, "fusion_lat": 0.0, "lat": 38.91816566666667, "bike_id": "e04e455de8d613738f5b2137f2b94267", "fusion_lon": 0.0}, {"rental_uris": {"ios": "https://dc.lft.to/lastmile_qr_scan", "android": "https://dc.lft.to/lastmile_qr_scan"}, "type": "electric_scooter", "name": "6f1e06cbc9f6902eb9698a01f795e3d4", "is_reserved": 0, "lon": -77.00891583333333, "is_disabled": 0, "fusion_lat": 0.0, "lat": 38.91709783333334, "bike_id": "6f1e06cbc9f6902eb9698a01f795e3d4", "fusion_lon": 0.0}, {"rental_uris": {"ios": "https://dc.lft.to/lastmile_qr_scan", "android": "https://dc.lft.to/lastmile_qr_scan"}, "type": "electric_scooter", "name": "a6a3e4ed2abf576799845d3880789030", "is_reserved": 0, "lon": -77.03067316666667, "is_disabled": 0, "fusion_lat": 0.0, "lat": 38.93452216666667, "bike_id": "a6a3e4ed2abf576799845d3880789030", "fusion_lon": 0.0}, {"rental_uris": {"ios": "https://dc.lft.to/lastmile_qr_scan", "android": "https://dc.lft.to/lastmile_qr_scan"}, "type": "electric_scooter", "name": "54cd83acbeaaf7b4e5f7e3061dc45b9e", "is_reserved": 0, "lon": -77.03180466666667, "is_disabled": 0, "fusion_lat": 0.0, "lat": 38.9082925, "bike_id": "54cd83acbeaaf7b4e5f7e3061dc45b9e", "fusion_lon": 0.0}, {"rental_uris": {"ios": "https://dc.lft.to/lastmile_qr_scan", "android": "https://dc.lft.to/lastmile_qr_scan"}, "type": "electric_scooter", "name": "547bc197e1cbada1adefee903e1c6524", "is_reserved": 0, "lon": -77.0448715, "is_disabled": 0, "fusion_lat": 0.0, "lat": 38.90005283333333, "bike_id": "547bc197e1cbada1adefee903e1c6524", "fusion_lon": 0.0}, {"rental_uris": {"ios": "https://dc.lft.to/lastmile_qr_scan", "android": "https://dc.lft.to/lastmile_qr_scan"}, "type": "electric_scooter", "name": "f6f2bba00fb6ecd6ff3c07d680cd2f83", "is_reserved": 0, "lon": -77.02224916666667, "is_disabled": 0, "fusion_lat": 0.0, "lat": 38.9208875, "bike_id": "f6f2bba00fb6ecd6ff3c07d680cd2f83", "fusion_lon": 0.0}, {"rental_uris": {"ios": "https://dc.lft.to/lastmile_qr_scan", "android": "https://dc.lft.to/lastmile_qr_scan"}, "type": "electric_scooter", "name": "be8d602e7fc5a51c293c2cc2c44381c6", "is_reserved": 0, "lon": -77.0642065, "is_disabled": 0, "fusion_lat": 0.0, "lat": 38.913944666666666, "bike_id": "be8d602e7fc5a51c293c2cc2c44381c6", "fusion_lon": 0.0}, {"rental_uris": {"ios": "https://dc.lft.to/lastmile_qr_scan", "android": "https://dc.lft.to/lastmile_qr_scan"}, "type": "electric_scooter", "name": "b15a9a821127c5f50017c29455bad032", "is_reserved": 0, "lon": -77.005554, "is_disabled": 0, "fusion_lat": 0.0, "lat": 38.874644333333336, "bike_id": "b15a9a821127c5f50017c29455bad032", "fusion_lon": 0.0}, {"rental_uris": {"ios": "https://dc.lft.to/lastmile_qr_scan", "android": "https://dc.lft.to/lastmile_qr_scan"}, "type": "electric_scooter", "name": "51fe7a56db0ac1975363982a2d883a33", "is_reserved": 0, "lon": -77.04204066666667, "is_disabled": 0, "fusion_lat": 0.0, "lat": 38.903803, "bike_id": "51fe7a56db0ac1975363982a2d883a33", "fusion_lon": 0.0}, {"rental_uris": {"ios": "https://dc.lft.to/lastmile_qr_scan", "android": "https://dc.lft.to/lastmile_qr_scan"}, "type": "electric_scooter", "name": "5b1a5969df15676b87b2442e0654fe9e", "is_reserved": 0, "lon": -77.00986483333334, "is_disabled": 0, "fusion_lat": 0.0, "lat": 38.90554016666667, "bike_id": "5b1a5969df15676b87b2442e0654fe9e", "fusion_lon": 0.0}, {"rental_uris": {"ios": "https://dc.lft.to/lastmile_qr_scan", "android": "https://dc.lft.to/lastmile_qr_scan"}, "type": "electric_scooter", "name": "dc6d5a95059c5ce6bd1c6fb366dde6b9", "is_reserved": 0, "lon": -77.03043383333333, "is_disabled": 0, "fusion_lat": 0.0, "lat": 38.88432233333333, "bike_id": "dc6d5a95059c5ce6bd1c6fb366dde6b9", "fusion_lon": 0.0}, {"rental_uris": {"ios": "https://dc.lft.to/lastmile_qr_scan", "android": "https://dc.lft.to/lastmile_qr_scan"}, "type": "electric_scooter", "name": "4489797868d51293d0e609df72450e84", "is_reserved": 0, "lon": -76.92935383333334, "is_disabled": 0, "fusion_lat": 0.0, "lat": 38.9033865, "bike_id": "4489797868d51293d0e609df72450e84", "fusion_lon": 0.0}, {"rental_uris": {"ios": "https://dc.lft.to/lastmile_qr_scan", "android": "https://dc.lft.to/lastmile_qr_scan"}, "type": "electric_scooter", "name": "5ee68b9ba5897cf3abb0b2509ede1459", "is_reserved": 0, "lon": -77.020643, "is_disabled": 0, "fusion_lat": 0.0, "lat": 38.9240305, "bike_id": "5ee68b9ba5897cf3abb0b2509ede1459", "fusion_lon": 0.0}, {"rental_uris": {"ios": "https://dc.lft.to/lastmile_qr_scan", "android": "https://dc.lft.to/lastmile_qr_scan"}, "type": "electric_scooter", "name": "58cd36d02572216dc7d9359659ee5ed8", "is_reserved": 0, "lon": -77.03955333333333, "is_disabled": 0, "fusion_lat": 0.0, "lat": 38.892503833333336, "bike_id": "58cd36d02572216dc7d9359659ee5ed8", "fusion_lon": 0.0}, {"rental_uris": {"ios": "https://dc.lft.to/lastmile_qr_scan", "android": "https://dc.lft.to/lastmile_qr_scan"}, "type": "electric_scooter", "name": "1e18705d100ef9b19b67c3e0dc608d98", "is_reserved": 0, "lon": -76.98493383333333, "is_disabled": 0, "fusion_lat": 0.0, "lat": 38.9200675, "bike_id": "1e18705d100ef9b19b67c3e0dc608d98", "fusion_lon": 0.0}, {"rental_uris": {"ios": "https://dc.lft.to/lastmile_qr_scan", "android": "https://dc.lft.to/lastmile_qr_scan"}, "type": "electric_scooter", "name": "61dd19df0b62afa6fca64c0e31b68aea", "is_reserved": 0, "lon": -77.01587816666667, "is_disabled": 0, "fusion_lat": 0.0, "lat": 38.87220033333333, "bike_id": "61dd19df0b62afa6fca64c0e31b68aea", "fusion_lon": 0.0}, {"rental_uris": {"ios": "https://dc.lft.to/lastmile_qr_scan", "android": "https://dc.lft.to/lastmile_qr_scan"}, "type": "electric_scooter", "name": "c19be4137b04fe77f22175945ad6ce7c", "is_reserved": 0, "lon": -77.0759195, "is_disabled": 0, "fusion_lat": 0.0, "lat": 38.937577166666664, "bike_id": "c19be4137b04fe77f22175945ad6ce7c", "fusion_lon": 0.0}, {"rental_uris": {"ios": "https://dc.lft.to/lastmile_qr_scan", "android": "https://dc.lft.to/lastmile_qr_scan"}, "type": "electric_scooter", "name": "a0ed0285a5a0df3002f584b4ab3f0436", "is_reserved": 0, "lon": -77.03066, "is_disabled": 0, "fusion_lat": 0.0, "lat": 38.92252416666667, "bike_id": "a0ed0285a5a0df3002f584b4ab3f0436", "fusion_lon": 0.0}, {"rental_uris": {"ios": "https://dc.lft.to/lastmile_qr_scan", "android": "https://dc.lft.to/lastmile_qr_scan"}, "type": "electric_scooter", "name": "12aa8095ab471ee557ce0d01446b826b", "is_reserved": 0, "lon": -77.02335616666667, "is_disabled": 0, "fusion_lat": 0.0, "lat": 38.91117283333333, "bike_id": "12aa8095ab471ee557ce0d01446b826b", "fusion_lon": 0.0}, {"rental_uris": {"ios": "https://dc.lft.to/lastmile_qr_scan", "android": "https://dc.lft.to/lastmile_qr_scan"}, "type": "electric_scooter", "name": "047a9fd37077657f524f0dd27eb67f00", "is_reserved": 0, "lon": -77.04023183333334, "is_disabled": 0, "fusion_lat": 0.0, "lat": 38.922564666666666, "bike_id": "047a9fd37077657f524f0dd27eb67f00", "fusion_lon": 0.0}, {"rental_uris": {"ios": "https://dc.lft.to/lastmile_qr_scan", "android": "https://dc.lft.to/lastmile_qr_scan"}, "type": "electric_scooter", "name": "60dc7e3ce4cabe62ece1a039b5027dfc", "is_reserved": 0, "lon": -77.051224, "is_disabled": 0, "fusion_lat": 0.0, "lat": 38.9252825, "bike_id": "60dc7e3ce4cabe62ece1a039b5027dfc", "fusion_lon": 0.0}, {"rental_uris": {"ios": "https://dc.lft.to/lastmile_qr_scan", "android": "https://dc.lft.to/lastmile_qr_scan"}, "type": "electric_scooter", "name": "1447add5a24578bea37a5fccb9e2d354", "is_reserved": 0, "lon": -77.04683916666667, "is_disabled": 0, "fusion_lat": 0.0, "lat": 38.8922115, "bike_id": "1447add5a24578bea37a5fccb9e2d354", "fusion_lon": 0.0}, {"rental_uris": {"ios": "https://dc.lft.to/lastmile_qr_scan", "android": "https://dc.lft.to/lastmile_qr_scan"}, "type": "electric_scooter", "name": "83bf3f64a22544f687987abc8036bf47", "is_reserved": 0, "lon": -77.04676083333334, "is_disabled": 0, "fusion_lat": 0.0, "lat": 38.892816833333335, "bike_id": "83bf3f64a22544f687987abc8036bf47", "fusion_lon": 0.0}, {"rental_uris": {"ios": "https://dc.lft.to/lastmile_qr_scan", "android": "https://dc.lft.to/lastmile_qr_scan"}, "type": "electric_scooter", "name": "70ffaf7350af3554b403086293d5cabd", "is_reserved": 0, "lon": -77.03960933333333, "is_disabled": 0, "fusion_lat": 0.0, "lat": 38.8924475, "bike_id": "70ffaf7350af3554b403086293d5cabd", "fusion_lon": 0.0}, {"rental_uris": {"ios": "https://dc.lft.to/lastmile_qr_scan", "android": "https://dc.lft.to/lastmile_qr_scan"}, "type": "electric_scooter", "name": "6697797d9e0c376f3f47f117d2bd040c", "is_reserved": 0, "lon": -77.00380466666667, "is_disabled": 0, "fusion_lat": 0.0, "lat": 38.94063833333333, "bike_id": "6697797d9e0c376f3f47f117d2bd040c", "fusion_lon": 0.0}, {"rental_uris": {"ios": "https://dc.lft.to/lastmile_qr_scan", "android": "https://dc.lft.to/lastmile_qr_scan"}, "type": "electric_scooter", "name": "7bf53c9b142220e1057255a7b802ec49", "is_reserved": 0, "lon": -77.03439116666667, "is_disabled": 0, "fusion_lat": 0.0, "lat": 38.9179575, "bike_id": "7bf53c9b142220e1057255a7b802ec49", "fusion_lon": 0.0}, {"rental_uris": {"ios": "https://dc.lft.to/lastmile_qr_scan", "android": "https://dc.lft.to/lastmile_qr_scan"}, "type": "electric_scooter", "name": "68d4ec55518bec16875612d5a8c40d3a", "is_reserved": 0, "lon": -77.04656866666667, "is_disabled": 0, "fusion_lat": 0.0, "lat": 38.905524, "bike_id": "68d4ec55518bec16875612d5a8c40d3a", "fusion_lon": 0.0}, {"rental_uris": {"ios": "https://dc.lft.to/lastmile_qr_scan", "android": "https://dc.lft.to/lastmile_qr_scan"}, "type": "electric_scooter", "name": "c04114b436fdc45220886060c37101ab", "is_reserved": 0, "lon": -77.02935666666667, "is_disabled": 0, "fusion_lat": 0.0, "lat": 38.907267166666664, "bike_id": "c04114b436fdc45220886060c37101ab", "fusion_lon": 0.0}, {"rental_uris": {"ios": "https://dc.lft.to/lastmile_qr_scan", "android": "https://dc.lft.to/lastmile_qr_scan"}, "type": "electric_scooter", "name": "c83734686bfa484829555e7b437eba18", "is_reserved": 0, "lon": -77.0446715, "is_disabled": 0, "fusion_lat": 0.0, "lat": 38.9229175, "bike_id": "c83734686bfa484829555e7b437eba18", "fusion_lon": 0.0}, {"rental_uris": {"ios": "https://dc.lft.to/lastmile_qr_scan", "android": "https://dc.lft.to/lastmile_qr_scan"}, "type": "electric_scooter", "name": "606920327971edecd4977ba3e393644b", "is_reserved": 0, "lon": -77.06612583333333, "is_disabled": 0, "fusion_lat": 0.0, "lat": 38.911072833333336, "bike_id": "606920327971edecd4977ba3e393644b", "fusion_lon": 0.0}, {"rental_uris": {"ios": "https://dc.lft.to/lastmile_qr_scan", "android": "https://dc.lft.to/lastmile_qr_scan"}, "type": "electric_scooter", "name": "3acdb16a0880067f5cd925935951e3a9", "is_reserved": 0, "lon": -77.0278205, "is_disabled": 0, "fusion_lat": 0.0, "lat": 38.9624325, "bike_id": "3acdb16a0880067f5cd925935951e3a9", "fusion_lon": 0.0}, {"rental_uris": {"ios": "https://dc.lft.to/lastmile_qr_scan", "android": "https://dc.lft.to/lastmile_qr_scan"}, "type": "electric_bike", "name": "c518ccd4a43c7d5bb9a0daefbab3f95f", "is_reserved": 0, "lon": -77.05512333333333, "is_disabled": 0, "fusion_lat": 0.0, "lat": 38.94400733333333, "bike_id": "c518ccd4a43c7d5bb9a0daefbab3f95f", "fusion_lon": 0.0}, {"rental_uris": {"ios": "https://dc.lft.to/lastmile_qr_scan", "android": "https://dc.lft.to/lastmile_qr_scan"}, "type": "electric_bike", "name": "c5b22e670c987c27691c1c839bfedad2", "is_reserved": 0, "lon": -76.9991915, "is_disabled": 0, "fusion_lat": 0.0, "lat": 38.9946985, "bike_id": "c5b22e670c987c27691c1c839bfedad2", "fusion_lon": 0.0}, {"rental_uris": {"ios": "https://dc.lft.to/lastmile_qr_scan", "android": "https://dc.lft.to/lastmile_qr_scan"}, "type": "electric_bike", "name": "49f01a18c1624658eea619b283716644", "is_reserved": 0, "lon": -76.97324133333333, "is_disabled": 0, "fusion_lat": 0.0, "lat": 38.8577985, "bike_id": "49f01a18c1624658eea619b283716644", "fusion_lon": 0.0}, {"rental_uris": {"ios": "https://dc.lft.to/lastmile_qr_scan", "android": "https://dc.lft.to/lastmile_qr_scan"}, "type": "electric_scooter", "name": "6f71f482e7e0d5986157af2666d654d9", "is_reserved": 0, "lon": -77.02474583333333, "is_disabled": 0, "fusion_lat": 0.0, "lat": 38.93913116666667, "bike_id": "6f71f482e7e0d5986157af2666d654d9", "fusion_lon": 0.0}, {"rental_uris": {"ios": "https://dc.lft.to/lastmile_qr_scan", "android": "https://dc.lft.to/lastmile_qr_scan"}, "type": "electric_scooter", "name": "00acc0a824db451e431b0a0a05b998c2", "is_reserved": 0, "lon": -77.03187033333333, "is_disabled": 0, "fusion_lat": 0.0, "lat": 38.920134833333336, "bike_id": "00acc0a824db451e431b0a0a05b998c2", "fusion_lon": 0.0}, {"rental_uris": {"ios": "https://dc.lft.to/lastmile_qr_scan", "android": "https://dc.lft.to/lastmile_qr_scan"}, "type": "electric_scooter", "name": "6ce0962235638c7952caa381111d9cc8", "is_reserved": 0, "lon": -77.03839333333333, "is_disabled": 0, "fusion_lat": 0.0, "lat": 38.910388, "bike_id": "6ce0962235638c7952caa381111d9cc8", "fusion_lon": 0.0}, {"rental_uris": {"ios": "https://dc.lft.to/lastmile_qr_scan", "android": "https://dc.lft.to/lastmile_qr_scan"}, "type": "electric_scooter", "name": "3f4efdb755ee4fb46c3b8512d0f087cc", "is_reserved": 0, "lon": -77.0087375, "is_disabled": 0, "fusion_lat": 0.0, "lat": 38.92246633333333, "bike_id": "3f4efdb755ee4fb46c3b8512d0f087cc", "fusion_lon": 0.0}, {"rental_uris": {"ios": "https://dc.lft.to/lastmile_qr_scan", "android": "https://dc.lft.to/lastmile_qr_scan"}, "type": "electric_scooter", "name": "4d885945869f70b69c7fed19f05dcfed", "is_reserved": 0, "lon": -77.00930066666666, "is_disabled": 0, "fusion_lat": 0.0, "lat": 38.881926666666665, "bike_id": "4d885945869f70b69c7fed19f05dcfed", "fusion_lon": 0.0}, {"rental_uris": {"ios": "https://dc.lft.to/lastmile_qr_scan", "android": "https://dc.lft.to/lastmile_qr_scan"}, "type": "electric_scooter", "name": "04fe84085ddd88c38f768ac87537eb67", "is_reserved": 0, "lon": -77.02604783333334, "is_disabled": 0, "fusion_lat": 0.0, "lat": 38.905824, "bike_id": "04fe84085ddd88c38f768ac87537eb67", "fusion_lon": 0.0}, {"rental_uris": {"ios": "https://dc.lft.to/lastmile_qr_scan", "android": "https://dc.lft.to/lastmile_qr_scan"}, "type": "electric_scooter", "name": "71c1b6e0af257fb5ce1ffe2066db9ea0", "is_reserved": 0, "lon": -77.01896916666666, "is_disabled": 0, "fusion_lat": 0.0, "lat": 38.92339116666667, "bike_id": "71c1b6e0af257fb5ce1ffe2066db9ea0", "fusion_lon": 0.0}, {"rental_uris": {"ios": "https://dc.lft.to/lastmile_qr_scan", "android": "https://dc.lft.to/lastmile_qr_scan"}, "type": "electric_scooter", "name": "e93f5a3f215ef74810c63513e5737a50", "is_reserved": 0, "lon": -77.02343483333334, "is_disabled": 0, "fusion_lat": 0.0, "lat": 38.931297, "bike_id": "e93f5a3f215ef74810c63513e5737a50", "fusion_lon": 0.0}, {"rental_uris": {"ios": "https://dc.lft.to/lastmile_qr_scan", "android": "https://dc.lft.to/lastmile_qr_scan"}, "type": "electric_scooter", "name": "35128b84d3d76ddc0109dfa657b588b4", "is_reserved": 0, "lon": -77.0365475, "is_disabled": 0, "fusion_lat": 0.0, "lat": 38.917237666666665, "bike_id": "35128b84d3d76ddc0109dfa657b588b4", "fusion_lon": 0.0}, {"rental_uris": {"ios": "https://dc.lft.to/lastmile_qr_scan", "android": "https://dc.lft.to/lastmile_qr_scan"}, "type": "electric_scooter", "name": "b6f8dd3c06e475f3383d6b86e199325c", "is_reserved": 0, "lon": -77.02388866666666, "is_disabled": 0, "fusion_lat": 0.0, "lat": 38.926982, "bike_id": "b6f8dd3c06e475f3383d6b86e199325c", "fusion_lon": 0.0}, {"rental_uris": {"ios": "https://dc.lft.to/lastmile_qr_scan", "android": "https://dc.lft.to/lastmile_qr_scan"}, "type": "electric_scooter", "name": "1e0c1abbc08baf1971059e60c6f0d75b", "is_reserved": 0, "lon": -77.0259075, "is_disabled": 0, "fusion_lat": 0.0, "lat": 38.91954583333333, "bike_id": "1e0c1abbc08baf1971059e60c6f0d75b", "fusion_lon": 0.0}, {"rental_uris": {"ios": "https://dc.lft.to/lastmile_qr_scan", "android": "https://dc.lft.to/lastmile_qr_scan"}, "type": "electric_scooter", "name": "84b18056b60cd7fd565332fea043f9bd", "is_reserved": 0, "lon": -77.02715283333333, "is_disabled": 0, "fusion_lat": 0.0, "lat": 38.924005666666666, "bike_id": "84b18056b60cd7fd565332fea043f9bd", "fusion_lon": 0.0}, {"rental_uris": {"ios": "https://dc.lft.to/lastmile_qr_scan", "android": "https://dc.lft.to/lastmile_qr_scan"}, "type": "electric_scooter", "name": "bb05674f6f6cfea3ff3b9aae273a9e4a", "is_reserved": 0, "lon": -77.04655666666666, "is_disabled": 0, "fusion_lat": 0.0, "lat": 38.9197415, "bike_id": "bb05674f6f6cfea3ff3b9aae273a9e4a", "fusion_lon": 0.0}, {"rental_uris": {"ios": "https://dc.lft.to/lastmile_qr_scan", "android": "https://dc.lft.to/lastmile_qr_scan"}, "type": "electric_bike", "name": "e58ff23f3936e322957eebf274ddc469", "is_reserved": 0, "lon": -77.00383266666667, "is_disabled": 0, "fusion_lat": 0.0, "lat": 38.8360705, "bike_id": "e58ff23f3936e322957eebf274ddc469", "fusion_lon": 0.0}, {"rental_uris": {"ios": "https://dc.lft.to/lastmile_qr_scan", "android": "https://dc.lft.to/lastmile_qr_scan"}, "type": "electric_scooter", "name": "e01bdb26f71194d6432469eb8132c9c0", "is_reserved": 0, "lon": -77.03259933333334, "is_disabled": 0, "fusion_lat": 0.0, "lat": 38.919855166666665, "bike_id": "e01bdb26f71194d6432469eb8132c9c0", "fusion_lon": 0.0}, {"rental_uris": {"ios": "https://dc.lft.to/lastmile_qr_scan", "android": "https://dc.lft.to/lastmile_qr_scan"}, "type": "electric_scooter", "name": "643d246d93b54719c86dc04294244ba8", "is_reserved": 0, "lon": -77.019268, "is_disabled": 0, "fusion_lat": 0.0, "lat": 38.92874533333333, "bike_id": "643d246d93b54719c86dc04294244ba8", "fusion_lon": 0.0}, {"rental_uris": {"ios": "https://dc.lft.to/lastmile_qr_scan", "android": "https://dc.lft.to/lastmile_qr_scan"}, "type": "electric_scooter", "name": "b94a35778977d2ff27288be4f56b64b9", "is_reserved": 0, "lon": -77.01765183333333, "is_disabled": 0, "fusion_lat": 0.0, "lat": 38.921232833333335, "bike_id": "b94a35778977d2ff27288be4f56b64b9", "fusion_lon": 0.0}, {"rental_uris": {"ios": "https://dc.lft.to/lastmile_qr_scan", "android": "https://dc.lft.to/lastmile_qr_scan"}, "type": "electric_scooter", "name": "ee44f7fafebc489c690fa0069ae0112c", "is_reserved": 0, "lon": -77.00925666666667, "is_disabled": 0, "fusion_lat": 0.0, "lat": 38.882014, "bike_id": "ee44f7fafebc489c690fa0069ae0112c", "fusion_lon": 0.0}, {"rental_uris": {"ios": "https://dc.lft.to/lastmile_qr_scan", "android": "https://dc.lft.to/lastmile_qr_scan"}, "type": "electric_scooter", "name": "327f806468045d2883f9a29487610506", "is_reserved": 0, "lon": -77.012211, "is_disabled": 0, "fusion_lat": 0.0, "lat": 38.920359166666664, "bike_id": "327f806468045d2883f9a29487610506", "fusion_lon": 0.0}, {"rental_uris": {"ios": "https://dc.lft.to/lastmile_qr_scan", "android": "https://dc.lft.to/lastmile_qr_scan"}, "type": "electric_scooter", "name": "a862ad6f8cbcfeee2e63008d7b4f3e16", "is_reserved": 0, "lon": -77.00401333333333, "is_disabled": 0, "fusion_lat": 0.0, "lat": 38.87456366666667, "bike_id": "a862ad6f8cbcfeee2e63008d7b4f3e16", "fusion_lon": 0.0}, {"rental_uris": {"ios": "https://dc.lft.to/lastmile_qr_scan", "android": "https://dc.lft.to/lastmile_qr_scan"}, "type": "electric_scooter", "name": "c1d258580d2e66a086b9ad4343cf2dfb", "is_reserved": 0, "lon": -77.018891, "is_disabled": 0, "fusion_lat": 0.0, "lat": 38.9233415, "bike_id": "c1d258580d2e66a086b9ad4343cf2dfb", "fusion_lon": 0.0}, {"rental_uris": {"ios": "https://dc.lft.to/lastmile_qr_scan", "android": "https://dc.lft.to/lastmile_qr_scan"}, "type": "electric_scooter", "name": "72760c32b7d807339e413c7f261ef66d", "is_reserved": 0, "lon": -77.03535666666667, "is_disabled": 0, "fusion_lat": 0.0, "lat": 38.923357833333334, "bike_id": "72760c32b7d807339e413c7f261ef66d", "fusion_lon": 0.0}, {"rental_uris": {"ios": "https://dc.lft.to/lastmile_qr_scan", "android": "https://dc.lft.to/lastmile_qr_scan"}, "type": "electric_scooter", "name": "d454174c280c942aae590ad4958ab593", "is_reserved": 0, "lon": -77.0056865, "is_disabled": 0, "fusion_lat": 0.0, "lat": 38.87459533333333, "bike_id": "d454174c280c942aae590ad4958ab593", "fusion_lon": 0.0}, {"rental_uris": {"ios": "https://dc.lft.to/lastmile_qr_scan", "android": "https://dc.lft.to/lastmile_qr_scan"}, "type": "electric_scooter", "name": "07b157b1b07df36de3a267865d237003", "is_reserved": 0, "lon": -76.98506433333333, "is_disabled": 0, "fusion_lat": 0.0, "lat": 38.906901500000004, "bike_id": "07b157b1b07df36de3a267865d237003", "fusion_lon": 0.0}, {"rental_uris": {"ios": "https://dc.lft.to/lastmile_qr_scan", "android": "https://dc.lft.to/lastmile_qr_scan"}, "type": "electric_scooter", "name": "c165f3b7dd8bb57b6fa75e568d1ce092", "is_reserved": 0, "lon": -76.95693233333333, "is_disabled": 0, "fusion_lat": 0.0, "lat": 38.89195633333333, "bike_id": "c165f3b7dd8bb57b6fa75e568d1ce092", "fusion_lon": 0.0}, {"rental_uris": {"ios": "https://dc.lft.to/lastmile_qr_scan", "android": "https://dc.lft.to/lastmile_qr_scan"}, "type": "electric_scooter", "name": "60e93c057be1ad44af2bbfd0e7b52106", "is_reserved": 0, "lon": -77.017755, "is_disabled": 0, "fusion_lat": 0.0, "lat": 38.876996, "bike_id": "60e93c057be1ad44af2bbfd0e7b52106", "fusion_lon": 0.0}, {"rental_uris": {"ios": "https://dc.lft.to/lastmile_qr_scan", "android": "https://dc.lft.to/lastmile_qr_scan"}, "type": "electric_scooter", "name": "65232077e250567ce4aecbf16a87b60f", "is_reserved": 0, "lon": -77.03857983333333, "is_disabled": 0, "fusion_lat": 0.0, "lat": 38.9171215, "bike_id": "65232077e250567ce4aecbf16a87b60f", "fusion_lon": 0.0}, {"rental_uris": {"ios": "https://dc.lft.to/lastmile_qr_scan", "android": "https://dc.lft.to/lastmile_qr_scan"}, "type": "electric_scooter", "name": "e070a3746ba3546aed8900b35852cb36", "is_reserved": 0, "lon": -76.99035033333334, "is_disabled": 0, "fusion_lat": 0.0, "lat": 38.888715, "bike_id": "e070a3746ba3546aed8900b35852cb36", "fusion_lon": 0.0}, {"rental_uris": {"ios": "https://dc.lft.to/lastmile_qr_scan", "android": "https://dc.lft.to/lastmile_qr_scan"}, "type": "electric_scooter", "name": "ca22eb7d464afe0bec2177b16e958803", "is_reserved": 0, "lon": -77.01145316666667, "is_disabled": 0, "fusion_lat": 0.0, "lat": 38.9145495, "bike_id": "ca22eb7d464afe0bec2177b16e958803", "fusion_lon": 0.0}, {"rental_uris": {"ios": "https://dc.lft.to/lastmile_qr_scan", "android": "https://dc.lft.to/lastmile_qr_scan"}, "type": "electric_scooter", "name": "825e719bed9bed4c3f9658fbac8dc8fb", "is_reserved": 0, "lon": -77.04350266666667, "is_disabled": 0, "fusion_lat": 0.0, "lat": 38.901256833333335, "bike_id": "825e719bed9bed4c3f9658fbac8dc8fb", "fusion_lon": 0.0}, {"rental_uris": {"ios": "https://dc.lft.to/lastmile_qr_scan", "android": "https://dc.lft.to/lastmile_qr_scan"}, "type": "electric_scooter", "name": "8fe1f2c25daf705b1a42f8be2423bfad", "is_reserved": 0, "lon": -77.01772016666666, "is_disabled": 0, "fusion_lat": 0.0, "lat": 38.92114933333333, "bike_id": "8fe1f2c25daf705b1a42f8be2423bfad", "fusion_lon": 0.0}, {"rental_uris": {"ios": "https://dc.lft.to/lastmile_qr_scan", "android": "https://dc.lft.to/lastmile_qr_scan"}, "type": "electric_scooter", "name": "220d59cf22c59440b1e0bc8566dc9108", "is_reserved": 0, "lon": -77.03283, "is_disabled": 0, "fusion_lat": 0.0, "lat": 38.928446666666666, "bike_id": "220d59cf22c59440b1e0bc8566dc9108", "fusion_lon": 0.0}, {"rental_uris": {"ios": "https://dc.lft.to/lastmile_qr_scan", "android": "https://dc.lft.to/lastmile_qr_scan"}, "type": "electric_scooter", "name": "f599ff41ff1576d3aa7dc064e4098fd9", "is_reserved": 0, "lon": -77.03814833333334, "is_disabled": 0, "fusion_lat": 0.0, "lat": 38.915555, "bike_id": "f599ff41ff1576d3aa7dc064e4098fd9", "fusion_lon": 0.0}, {"rental_uris": {"ios": "https://dc.lft.to/lastmile_qr_scan", "android": "https://dc.lft.to/lastmile_qr_scan"}, "type": "electric_scooter", "name": "83ee9d818e8e4eae138a1b995d5b71aa", "is_reserved": 0, "lon": -77.009273, "is_disabled": 0, "fusion_lat": 0.0, "lat": 38.91255783333333, "bike_id": "83ee9d818e8e4eae138a1b995d5b71aa", "fusion_lon": 0.0}, {"rental_uris": {"ios": "https://dc.lft.to/lastmile_qr_scan", "android": "https://dc.lft.to/lastmile_qr_scan"}, "type": "electric_bike", "name": "2b458404534b1f48d52ec40976199281", "is_reserved": 0, "lon": -76.97534116666667, "is_disabled": 0, "fusion_lat": 0.0, "lat": 38.903257833333335, "bike_id": "2b458404534b1f48d52ec40976199281", "fusion_lon": 0.0}, {"rental_uris": {"ios": "https://dc.lft.to/lastmile_qr_scan", "android": "https://dc.lft.to/lastmile_qr_scan"}, "type": "electric_scooter", "name": "b57fe8065f17f2f064a0263db902c4c6", "is_reserved": 0, "lon": -77.0228295, "is_disabled": 0, "fusion_lat": 0.0, "lat": 38.9079015, "bike_id": "b57fe8065f17f2f064a0263db902c4c6", "fusion_lon": 0.0}, {"rental_uris": {"ios": "https://dc.lft.to/lastmile_qr_scan", "android": "https://dc.lft.to/lastmile_qr_scan"}, "type": "electric_scooter", "name": "fcc866de8128ea82e0a65b4a5152571a", "is_reserved": 0, "lon": -77.02194483333334, "is_disabled": 0, "fusion_lat": 0.0, "lat": 38.911302166666665, "bike_id": "fcc866de8128ea82e0a65b4a5152571a", "fusion_lon": 0.0}, {"rental_uris": {"ios": "https://dc.lft.to/lastmile_qr_scan", "android": "https://dc.lft.to/lastmile_qr_scan"}, "type": "electric_scooter", "name": "53962237dcf09275d666cffdead42169", "is_reserved": 0, "lon": -77.02710383333333, "is_disabled": 0, "fusion_lat": 0.0, "lat": 38.91218716666667, "bike_id": "53962237dcf09275d666cffdead42169", "fusion_lon": 0.0}, {"rental_uris": {"ios": "https://dc.lft.to/lastmile_qr_scan", "android": "https://dc.lft.to/lastmile_qr_scan"}, "type": "electric_scooter", "name": "ba28659bd2a43bdfce97417f1c424a14", "is_reserved": 0, "lon": -77.03373866666666, "is_disabled": 0, "fusion_lat": 0.0, "lat": 38.910415666666665, "bike_id": "ba28659bd2a43bdfce97417f1c424a14", "fusion_lon": 0.0}, {"rental_uris": {"ios": "https://dc.lft.to/lastmile_qr_scan", "android": "https://dc.lft.to/lastmile_qr_scan"}, "type": "electric_scooter", "name": "05fd3728616dfe3b40eca39ef19057ad", "is_reserved": 0, "lon": -77.04135333333333, "is_disabled": 0, "fusion_lat": 0.0, "lat": 38.93463716666667, "bike_id": "05fd3728616dfe3b40eca39ef19057ad", "fusion_lon": 0.0}, {"rental_uris": {"ios": "https://dc.lft.to/lastmile_qr_scan", "android": "https://dc.lft.to/lastmile_qr_scan"}, "type": "electric_scooter", "name": "2c6febb835983f7ca2ef47963da32630", "is_reserved": 0, "lon": -77.0340265, "is_disabled": 0, "fusion_lat": 0.0, "lat": 38.919701333333336, "bike_id": "2c6febb835983f7ca2ef47963da32630", "fusion_lon": 0.0}, {"rental_uris": {"ios": "https://dc.lft.to/lastmile_qr_scan", "android": "https://dc.lft.to/lastmile_qr_scan"}, "type": "electric_scooter", "name": "62ef3c11e486caabbadd7331d974f44c", "is_reserved": 0, "lon": -77.03206416666667, "is_disabled": 0, "fusion_lat": 0.0, "lat": 38.9163495, "bike_id": "62ef3c11e486caabbadd7331d974f44c", "fusion_lon": 0.0}, {"rental_uris": {"ios": "https://dc.lft.to/lastmile_qr_scan", "android": "https://dc.lft.to/lastmile_qr_scan"}, "type": "electric_scooter", "name": "af3cb77977caed7f901d41303bcb84ae", "is_reserved": 0, "lon": -77.02308283333333, "is_disabled": 0, "fusion_lat": 0.0, "lat": 38.961310833333336, "bike_id": "af3cb77977caed7f901d41303bcb84ae", "fusion_lon": 0.0}, {"rental_uris": {"ios": "https://dc.lft.to/lastmile_qr_scan", "android": "https://dc.lft.to/lastmile_qr_scan"}, "type": "electric_scooter", "name": "478d73fd54e3ce1256353185996f749e", "is_reserved": 0, "lon": -77.03170816666666, "is_disabled": 0, "fusion_lat": 0.0, "lat": 38.920047, "bike_id": "478d73fd54e3ce1256353185996f749e", "fusion_lon": 0.0}, {"rental_uris": {"ios": "https://dc.lft.to/lastmile_qr_scan", "android": "https://dc.lft.to/lastmile_qr_scan"}, "type": "electric_scooter", "name": "55dd094c794fbdc8770ddf54563463f5", "is_reserved": 0, "lon": -77.019449, "is_disabled": 0, "fusion_lat": 0.0, "lat": 38.924236, "bike_id": "55dd094c794fbdc8770ddf54563463f5", "fusion_lon": 0.0}, {"rental_uris": {"ios": "https://dc.lft.to/lastmile_qr_scan", "android": "https://dc.lft.to/lastmile_qr_scan"}, "type": "electric_scooter", "name": "005e9440a4d639d2e897116dfccbb33f", "is_reserved": 0, "lon": -77.033161, "is_disabled": 0, "fusion_lat": 0.0, "lat": 38.89882016666667, "bike_id": "005e9440a4d639d2e897116dfccbb33f", "fusion_lon": 0.0}, {"rental_uris": {"ios": "https://dc.lft.to/lastmile_qr_scan", "android": "https://dc.lft.to/lastmile_qr_scan"}, "type": "electric_scooter", "name": "58d398e4c6be52de7e9977cc3755e55e", "is_reserved": 0, "lon": -77.09035483333334, "is_disabled": 0, "fusion_lat": 0.0, "lat": 38.9560365, "bike_id": "58d398e4c6be52de7e9977cc3755e55e", "fusion_lon": 0.0}, {"rental_uris": {"ios": "https://dc.lft.to/lastmile_qr_scan", "android": "https://dc.lft.to/lastmile_qr_scan"}, "type": "electric_bike", "name": "0a4536c4ffe687a0ae4176e6c1fda7aa", "is_reserved": 0, "lon": -77.0852895, "is_disabled": 0, "fusion_lat": 0.0, "lat": 38.85647183333333, "bike_id": "0a4536c4ffe687a0ae4176e6c1fda7aa", "fusion_lon": 0.0}, {"rental_uris": {"ios": "https://dc.lft.to/lastmile_qr_scan", "android": "https://dc.lft.to/lastmile_qr_scan"}, "type": "electric_scooter", "name": "cd3ad61adadfc9e6ee16a48874e90427", "is_reserved": 0, "lon": -76.96977183333334, "is_disabled": 0, "fusion_lat": 0.0, "lat": 38.861458, "bike_id": "cd3ad61adadfc9e6ee16a48874e90427", "fusion_lon": 0.0}, {"rental_uris": {"ios": "https://dc.lft.to/lastmile_qr_scan", "android": "https://dc.lft.to/lastmile_qr_scan"}, "type": "electric_scooter", "name": "bf7550b7e0f6853301122e578bae1999", "is_reserved": 0, "lon": -77.01769283333333, "is_disabled": 0, "fusion_lat": 0.0, "lat": 38.900795333333335, "bike_id": "bf7550b7e0f6853301122e578bae1999", "fusion_lon": 0.0}, {"rental_uris": {"ios": "https://dc.lft.to/lastmile_qr_scan", "android": "https://dc.lft.to/lastmile_qr_scan"}, "type": "electric_scooter", "name": "4198c84d90701aa1a43e6aa3e40c4480", "is_reserved": 0, "lon": -77.0436865, "is_disabled": 0, "fusion_lat": 0.0, "lat": 38.89223616666666, "bike_id": "4198c84d90701aa1a43e6aa3e40c4480", "fusion_lon": 0.0}, {"rental_uris": {"ios": "https://dc.lft.to/lastmile_qr_scan", "android": "https://dc.lft.to/lastmile_qr_scan"}, "type": "electric_scooter", "name": "f0877415e5c5f6c88fc3e57097c49640", "is_reserved": 0, "lon": -77.03284833333333, "is_disabled": 0, "fusion_lat": 0.0, "lat": 38.929404, "bike_id": "f0877415e5c5f6c88fc3e57097c49640", "fusion_lon": 0.0}, {"rental_uris": {"ios": "https://dc.lft.to/lastmile_qr_scan", "android": "https://dc.lft.to/lastmile_qr_scan"}, "type": "electric_scooter", "name": "456ad9ef3a65c43c351df2160717a66b", "is_reserved": 0, "lon": -77.03419133333334, "is_disabled": 0, "fusion_lat": 0.0, "lat": 38.92203333333333, "bike_id": "456ad9ef3a65c43c351df2160717a66b", "fusion_lon": 0.0}, {"rental_uris": {"ios": "https://dc.lft.to/lastmile_qr_scan", "android": "https://dc.lft.to/lastmile_qr_scan"}, "type": "electric_scooter", "name": "3ab249548b1f7ce7e0e3a945004f030b", "is_reserved": 0, "lon": -77.02273983333333, "is_disabled": 0, "fusion_lat": 0.0, "lat": 38.878828166666665, "bike_id": "3ab249548b1f7ce7e0e3a945004f030b", "fusion_lon": 0.0}, {"rental_uris": {"ios": "https://dc.lft.to/lastmile_qr_scan", "android": "https://dc.lft.to/lastmile_qr_scan"}, "type": "electric_scooter", "name": "eb16191f6021308c6df1e51100bc6bcb", "is_reserved": 0, "lon": -77.03937116666667, "is_disabled": 0, "fusion_lat": 0.0, "lat": 38.91412833333333, "bike_id": "eb16191f6021308c6df1e51100bc6bcb", "fusion_lon": 0.0}, {"rental_uris": {"ios": "https://dc.lft.to/lastmile_qr_scan", "android": "https://dc.lft.to/lastmile_qr_scan"}, "type": "electric_scooter", "name": "bbe62b427393ace2b1d34f493d89395e", "is_reserved": 0, "lon": -77.03388416666667, "is_disabled": 0, "fusion_lat": 0.0, "lat": 38.90264916666667, "bike_id": "bbe62b427393ace2b1d34f493d89395e", "fusion_lon": 0.0}, {"rental_uris": {"ios": "https://dc.lft.to/lastmile_qr_scan", "android": "https://dc.lft.to/lastmile_qr_scan"}, "type": "electric_scooter", "name": "1961170865a6c4d5d2a90d6704455926", "is_reserved": 0, "lon": -77.01581416666667, "is_disabled": 0, "fusion_lat": 0.0, "lat": 38.9167605, "bike_id": "1961170865a6c4d5d2a90d6704455926", "fusion_lon": 0.0}, {"rental_uris": {"ios": "https://dc.lft.to/lastmile_qr_scan", "android": "https://dc.lft.to/lastmile_qr_scan"}, "type": "electric_bike", "name": "c9de4461205ce94811bf176ce8b6b62a", "is_reserved": 0, "lon": -77.099614, "is_disabled": 0, "fusion_lat": 0.0, "lat": 38.857899, "bike_id": "c9de4461205ce94811bf176ce8b6b62a", "fusion_lon": 0.0}, {"rental_uris": {"ios": "https://dc.lft.to/lastmile_qr_scan", "android": "https://dc.lft.to/lastmile_qr_scan"}, "type": "electric_scooter", "name": "b3fb126fff5acff72750937f7b580534", "is_reserved": 0, "lon": -77.01857433333333, "is_disabled": 0, "fusion_lat": 0.0, "lat": 38.9149355, "bike_id": "b3fb126fff5acff72750937f7b580534", "fusion_lon": 0.0}, {"rental_uris": {"ios": "https://dc.lft.to/lastmile_qr_scan", "android": "https://dc.lft.to/lastmile_qr_scan"}, "type": "electric_scooter", "name": "52d2d441cf686139e7d43455b2102466", "is_reserved": 0, "lon": -77.02282566666666, "is_disabled": 0, "fusion_lat": 0.0, "lat": 38.90964266666667, "bike_id": "52d2d441cf686139e7d43455b2102466", "fusion_lon": 0.0}, {"rental_uris": {"ios": "https://dc.lft.to/lastmile_qr_scan", "android": "https://dc.lft.to/lastmile_qr_scan"}, "type": "electric_scooter", "name": "ce82dc127d133c3005e6837fbc0eeb9c", "is_reserved": 0, "lon": -76.99175866666667, "is_disabled": 0, "fusion_lat": 0.0, "lat": 38.88926633333333, "bike_id": "ce82dc127d133c3005e6837fbc0eeb9c", "fusion_lon": 0.0}, {"rental_uris": {"ios": "https://dc.lft.to/lastmile_qr_scan", "android": "https://dc.lft.to/lastmile_qr_scan"}, "type": "electric_scooter", "name": "535b0a325ea02fbd6045e8f1a63e6263", "is_reserved": 0, "lon": -77.003324, "is_disabled": 0, "fusion_lat": 0.0, "lat": 38.8972615, "bike_id": "535b0a325ea02fbd6045e8f1a63e6263", "fusion_lon": 0.0}, {"rental_uris": {"ios": "https://dc.lft.to/lastmile_qr_scan", "android": "https://dc.lft.to/lastmile_qr_scan"}, "type": "electric_scooter", "name": "98c354956bac0cde30461fed022f7bac", "is_reserved": 0, "lon": -77.029589, "is_disabled": 0, "fusion_lat": 0.0, "lat": 38.905011333333334, "bike_id": "98c354956bac0cde30461fed022f7bac", "fusion_lon": 0.0}, {"rental_uris": {"ios": "https://dc.lft.to/lastmile_qr_scan", "android": "https://dc.lft.to/lastmile_qr_scan"}, "type": "electric_scooter", "name": "ddd6d0b460329ecd5f6fffc0126af55a", "is_reserved": 0, "lon": -76.97998533333333, "is_disabled": 0, "fusion_lat": 0.0, "lat": 38.906787666666666, "bike_id": "ddd6d0b460329ecd5f6fffc0126af55a", "fusion_lon": 0.0}, {"rental_uris": {"ios": "https://dc.lft.to/lastmile_qr_scan", "android": "https://dc.lft.to/lastmile_qr_scan"}, "type": "electric_scooter", "name": "07c944fb196bc94b1607d5ed298ede0e", "is_reserved": 0, "lon": -76.973325, "is_disabled": 0, "fusion_lat": 0.0, "lat": 38.90410166666667, "bike_id": "07c944fb196bc94b1607d5ed298ede0e", "fusion_lon": 0.0}, {"rental_uris": {"ios": "https://dc.lft.to/lastmile_qr_scan", "android": "https://dc.lft.to/lastmile_qr_scan"}, "type": "electric_scooter", "name": "20f95cf4038305391e7db6968051dd90", "is_reserved": 0, "lon": -77.03518633333333, "is_disabled": 0, "fusion_lat": 0.0, "lat": 38.922146, "bike_id": "20f95cf4038305391e7db6968051dd90", "fusion_lon": 0.0}, {"rental_uris": {"ios": "https://dc.lft.to/lastmile_qr_scan", "android": "https://dc.lft.to/lastmile_qr_scan"}, "type": "electric_scooter", "name": "0f02f01188e7d460bf4a5efc7c02770c", "is_reserved": 0, "lon": -77.03475083333333, "is_disabled": 0, "fusion_lat": 0.0, "lat": 38.91711566666667, "bike_id": "0f02f01188e7d460bf4a5efc7c02770c", "fusion_lon": 0.0}, {"rental_uris": {"ios": "https://dc.lft.to/lastmile_qr_scan", "android": "https://dc.lft.to/lastmile_qr_scan"}, "type": "electric_scooter", "name": "0051bb0d0b11418d1467f72cc2eb1aaa", "is_reserved": 0, "lon": -77.02431366666667, "is_disabled": 0, "fusion_lat": 0.0, "lat": 38.90312183333333, "bike_id": "0051bb0d0b11418d1467f72cc2eb1aaa", "fusion_lon": 0.0}, {"rental_uris": {"ios": "https://dc.lft.to/lastmile_qr_scan", "android": "https://dc.lft.to/lastmile_qr_scan"}, "type": "electric_scooter", "name": "e4e9c6c149356a5e41d89d7bdf979ee3", "is_reserved": 0, "lon": -76.97938133333334, "is_disabled": 0, "fusion_lat": 0.0, "lat": 38.916019666666664, "bike_id": "e4e9c6c149356a5e41d89d7bdf979ee3", "fusion_lon": 0.0}, {"rental_uris": {"ios": "https://dc.lft.to/lastmile_qr_scan", "android": "https://dc.lft.to/lastmile_qr_scan"}, "type": "electric_scooter", "name": "8335d4a545d6a85859517c12a13e18e8", "is_reserved": 0, "lon": -77.0112345, "is_disabled": 0, "fusion_lat": 0.0, "lat": 38.89504383333333, "bike_id": "8335d4a545d6a85859517c12a13e18e8", "fusion_lon": 0.0}, {"rental_uris": {"ios": "https://dc.lft.to/lastmile_qr_scan", "android": "https://dc.lft.to/lastmile_qr_scan"}, "type": "electric_scooter", "name": "b4cd516cf8952ed2ea5a7c0709184c01", "is_reserved": 0, "lon": -77.00576483333333, "is_disabled": 0, "fusion_lat": 0.0, "lat": 38.87456, "bike_id": "b4cd516cf8952ed2ea5a7c0709184c01", "fusion_lon": 0.0}, {"rental_uris": {"ios": "https://dc.lft.to/lastmile_qr_scan", "android": "https://dc.lft.to/lastmile_qr_scan"}, "type": "electric_bike", "name": "a94064ea1513b850169a7c6ada41a3f0", "is_reserved": 0, "lon": -77.02584966666667, "is_disabled": 0, "fusion_lat": 0.0, "lat": 38.97872133333333, "bike_id": "a94064ea1513b850169a7c6ada41a3f0", "fusion_lon": 0.0}, {"rental_uris": {"ios": "https://dc.lft.to/lastmile_qr_scan", "android": "https://dc.lft.to/lastmile_qr_scan"}, "type": "electric_scooter", "name": "4722a059230f13de518bd472f235cca6", "is_reserved": 0, "lon": -77.02715, "is_disabled": 0, "fusion_lat": 0.0, "lat": 38.90953483333333, "bike_id": "4722a059230f13de518bd472f235cca6", "fusion_lon": 0.0}, {"rental_uris": {"ios": "https://dc.lft.to/lastmile_qr_scan", "android": "https://dc.lft.to/lastmile_qr_scan"}, "type": "electric_scooter", "name": "2492bbf8a64d387744573a7f131b1392", "is_reserved": 0, "lon": -77.02308833333333, "is_disabled": 0, "fusion_lat": 0.0, "lat": 38.91105566666667, "bike_id": "2492bbf8a64d387744573a7f131b1392", "fusion_lon": 0.0}, {"rental_uris": {"ios": "https://dc.lft.to/lastmile_qr_scan", "android": "https://dc.lft.to/lastmile_qr_scan"}, "type": "electric_scooter", "name": "46b32dedc16744c90e3d4e06056b9340", "is_reserved": 0, "lon": -77.03454183333334, "is_disabled": 0, "fusion_lat": 0.0, "lat": 38.9073495, "bike_id": "46b32dedc16744c90e3d4e06056b9340", "fusion_lon": 0.0}, {"rental_uris": {"ios": "https://dc.lft.to/lastmile_qr_scan", "android": "https://dc.lft.to/lastmile_qr_scan"}, "type": "electric_bike", "name": "ff3f301ac1dbc8edb648d662bda84274", "is_reserved": 0, "lon": -76.99913966666666, "is_disabled": 0, "fusion_lat": 0.0, "lat": 38.864470833333336, "bike_id": "ff3f301ac1dbc8edb648d662bda84274", "fusion_lon": 0.0}, {"rental_uris": {"ios": "https://dc.lft.to/lastmile_qr_scan", "android": "https://dc.lft.to/lastmile_qr_scan"}, "type": "electric_scooter", "name": "46c428dc2f3869d47d1aaea2f10badd1", "is_reserved": 0, "lon": -77.04077316666667, "is_disabled": 0, "fusion_lat": 0.0, "lat": 38.947778166666666, "bike_id": "46c428dc2f3869d47d1aaea2f10badd1", "fusion_lon": 0.0}, {"rental_uris": {"ios": "https://dc.lft.to/lastmile_qr_scan", "android": "https://dc.lft.to/lastmile_qr_scan"}, "type": "electric_scooter", "name": "af58f7189da188e8aeef97407efa623a", "is_reserved": 0, "lon": -77.00728916666667, "is_disabled": 0, "fusion_lat": 0.0, "lat": 38.8970755, "bike_id": "af58f7189da188e8aeef97407efa623a", "fusion_lon": 0.0}, {"rental_uris": {"ios": "https://dc.lft.to/lastmile_qr_scan", "android": "https://dc.lft.to/lastmile_qr_scan"}, "type": "electric_scooter", "name": "afe9482d8910d663492767d3a0f9293d", "is_reserved": 0, "lon": -77.04340466666666, "is_disabled": 0, "fusion_lat": 0.0, "lat": 38.90718733333333, "bike_id": "afe9482d8910d663492767d3a0f9293d", "fusion_lon": 0.0}, {"rental_uris": {"ios": "https://dc.lft.to/lastmile_qr_scan", "android": "https://dc.lft.to/lastmile_qr_scan"}, "type": "electric_scooter", "name": "7d73b5c73bdb489df7676a5a5050d771", "is_reserved": 0, "lon": -77.03957283333334, "is_disabled": 0, "fusion_lat": 0.0, "lat": 38.89250366666667, "bike_id": "7d73b5c73bdb489df7676a5a5050d771", "fusion_lon": 0.0}, {"rental_uris": {"ios": "https://dc.lft.to/lastmile_qr_scan", "android": "https://dc.lft.to/lastmile_qr_scan"}, "type": "electric_scooter", "name": "51801b4467bd98842e6a7d1557617b1b", "is_reserved": 0, "lon": -77.04934366666667, "is_disabled": 0, "fusion_lat": 0.0, "lat": 38.90067783333333, "bike_id": "51801b4467bd98842e6a7d1557617b1b", "fusion_lon": 0.0}, {"rental_uris": {"ios": "https://dc.lft.to/lastmile_qr_scan", "android": "https://dc.lft.to/lastmile_qr_scan"}, "type": "electric_scooter", "name": "1842acfc8b16eb6d24643b3b22cfc939", "is_reserved": 0, "lon": -77.03663316666666, "is_disabled": 0, "fusion_lat": 0.0, "lat": 38.9182425, "bike_id": "1842acfc8b16eb6d24643b3b22cfc939", "fusion_lon": 0.0}, {"rental_uris": {"ios": "https://dc.lft.to/lastmile_qr_scan", "android": "https://dc.lft.to/lastmile_qr_scan"}, "type": "electric_scooter", "name": "c2584d05fe82aa218a7b6e14cd5bf032", "is_reserved": 0, "lon": -77.00661566666666, "is_disabled": 0, "fusion_lat": 0.0, "lat": 38.87131383333333, "bike_id": "c2584d05fe82aa218a7b6e14cd5bf032", "fusion_lon": 0.0}, {"rental_uris": {"ios": "https://dc.lft.to/lastmile_qr_scan", "android": "https://dc.lft.to/lastmile_qr_scan"}, "type": "electric_scooter", "name": "076b103c41be01e4c385fdceae121504", "is_reserved": 0, "lon": -76.99504966666666, "is_disabled": 0, "fusion_lat": 0.0, "lat": 38.8624595, "bike_id": "076b103c41be01e4c385fdceae121504", "fusion_lon": 0.0}, {"rental_uris": {"ios": "https://dc.lft.to/lastmile_qr_scan", "android": "https://dc.lft.to/lastmile_qr_scan"}, "type": "electric_scooter", "name": "32a38e919c18ac6ba031bbf8babf7e38", "is_reserved": 0, "lon": -77.03426016666667, "is_disabled": 0, "fusion_lat": 0.0, "lat": 38.9055205, "bike_id": "32a38e919c18ac6ba031bbf8babf7e38", "fusion_lon": 0.0}, {"rental_uris": {"ios": "https://dc.lft.to/lastmile_qr_scan", "android": "https://dc.lft.to/lastmile_qr_scan"}, "type": "electric_bike", "name": "0c5b6c5721d615127f67d127be67d1d7", "is_reserved": 0, "lon": -76.93872316666666, "is_disabled": 0, "fusion_lat": 0.0, "lat": 38.9562565, "bike_id": "0c5b6c5721d615127f67d127be67d1d7", "fusion_lon": 0.0}, {"rental_uris": {"ios": "https://dc.lft.to/lastmile_qr_scan", "android": "https://dc.lft.to/lastmile_qr_scan"}, "type": "electric_bike", "name": "33e15ef106c9636642a0600dff3d576f", "is_reserved": 0, "lon": -76.97956583333334, "is_disabled": 0, "fusion_lat": 0.0, "lat": 38.920350666666664, "bike_id": "33e15ef106c9636642a0600dff3d576f", "fusion_lon": 0.0}, {"rental_uris": {"ios": "https://dc.lft.to/lastmile_qr_scan", "android": "https://dc.lft.to/lastmile_qr_scan"}, "type": "electric_scooter", "name": "9941571e07175706a47b3df0dd4ebef9", "is_reserved": 0, "lon": -77.00693333333334, "is_disabled": 0, "fusion_lat": 0.0, "lat": 38.90529083333333, "bike_id": "9941571e07175706a47b3df0dd4ebef9", "fusion_lon": 0.0}, {"rental_uris": {"ios": "https://dc.lft.to/lastmile_qr_scan", "android": "https://dc.lft.to/lastmile_qr_scan"}, "type": "electric_scooter", "name": "9107aa9fb56fc1812358871c9e55551e", "is_reserved": 0, "lon": -77.0351695, "is_disabled": 0, "fusion_lat": 0.0, "lat": 38.9225995, "bike_id": "9107aa9fb56fc1812358871c9e55551e", "fusion_lon": 0.0}, {"rental_uris": {"ios": "https://dc.lft.to/lastmile_qr_scan", "android": "https://dc.lft.to/lastmile_qr_scan"}, "type": "electric_scooter", "name": "11e745aac0694f8d658c6dd81d0ac1c7", "is_reserved": 0, "lon": -77.02439633333333, "is_disabled": 0, "fusion_lat": 0.0, "lat": 38.897255666666666, "bike_id": "11e745aac0694f8d658c6dd81d0ac1c7", "fusion_lon": 0.0}, {"rental_uris": {"ios": "https://dc.lft.to/lastmile_qr_scan", "android": "https://dc.lft.to/lastmile_qr_scan"}, "type": "electric_scooter", "name": "cab88d0e7fbd4a67105e459098e4c08c", "is_reserved": 0, "lon": -77.04908416666666, "is_disabled": 0, "fusion_lat": 0.0, "lat": 38.903814833333335, "bike_id": "cab88d0e7fbd4a67105e459098e4c08c", "fusion_lon": 0.0}, {"rental_uris": {"ios": "https://dc.lft.to/lastmile_qr_scan", "android": "https://dc.lft.to/lastmile_qr_scan"}, "type": "electric_scooter", "name": "82693184c6005ba4ff79fe372306e40c", "is_reserved": 0, "lon": -77.01198016666666, "is_disabled": 0, "fusion_lat": 0.0, "lat": 38.87176766666666, "bike_id": "82693184c6005ba4ff79fe372306e40c", "fusion_lon": 0.0}, {"rental_uris": {"ios": "https://dc.lft.to/lastmile_qr_scan", "android": "https://dc.lft.to/lastmile_qr_scan"}, "type": "electric_bike", "name": "065f626eb98a902cbb31ef27b1d76b3d", "is_reserved": 0, "lon": -76.9927245, "is_disabled": 0, "fusion_lat": 0.0, "lat": 38.932390166666664, "bike_id": "065f626eb98a902cbb31ef27b1d76b3d", "fusion_lon": 0.0}, {"rental_uris": {"ios": "https://dc.lft.to/lastmile_qr_scan", "android": "https://dc.lft.to/lastmile_qr_scan"}, "type": "electric_scooter", "name": "30891fafeec68581fd7fed1f48d29c3b", "is_reserved": 0, "lon": -77.03482433333333, "is_disabled": 0, "fusion_lat": 0.0, "lat": 38.935554833333335, "bike_id": "30891fafeec68581fd7fed1f48d29c3b", "fusion_lon": 0.0}, {"rental_uris": {"ios": "https://dc.lft.to/lastmile_qr_scan", "android": "https://dc.lft.to/lastmile_qr_scan"}, "type": "electric_scooter", "name": "85efbcf2b051df26bb7d4334b631cf75", "is_reserved": 0, "lon": -77.03245633333333, "is_disabled": 0, "fusion_lat": 0.0, "lat": 38.905458833333334, "bike_id": "85efbcf2b051df26bb7d4334b631cf75", "fusion_lon": 0.0}, {"rental_uris": {"ios": "https://dc.lft.to/lastmile_qr_scan", "android": "https://dc.lft.to/lastmile_qr_scan"}, "type": "electric_scooter", "name": "3497e3914f8bab916b346adf366ecc79", "is_reserved": 0, "lon": -77.02694933333333, "is_disabled": 0, "fusion_lat": 0.0, "lat": 38.923305166666665, "bike_id": "3497e3914f8bab916b346adf366ecc79", "fusion_lon": 0.0}, {"rental_uris": {"ios": "https://dc.lft.to/lastmile_qr_scan", "android": "https://dc.lft.to/lastmile_qr_scan"}, "type": "electric_scooter", "name": "69c7a2fd66af4d968bd2bff531e574c4", "is_reserved": 0, "lon": -77.001982, "is_disabled": 0, "fusion_lat": 0.0, "lat": 38.902407833333335, "bike_id": "69c7a2fd66af4d968bd2bff531e574c4", "fusion_lon": 0.0}, {"rental_uris": {"ios": "https://dc.lft.to/lastmile_qr_scan", "android": "https://dc.lft.to/lastmile_qr_scan"}, "type": "electric_scooter", "name": "9d09e466aabe4a20856734e69273e9a1", "is_reserved": 0, "lon": -77.0473865, "is_disabled": 0, "fusion_lat": 0.0, "lat": 38.90847766666667, "bike_id": "9d09e466aabe4a20856734e69273e9a1", "fusion_lon": 0.0}, {"rental_uris": {"ios": "https://dc.lft.to/lastmile_qr_scan", "android": "https://dc.lft.to/lastmile_qr_scan"}, "type": "electric_scooter", "name": "90c76130326eafbec1be1969adfcf734", "is_reserved": 0, "lon": -77.050612, "is_disabled": 0, "fusion_lat": 0.0, "lat": 38.900860333333334, "bike_id": "90c76130326eafbec1be1969adfcf734", "fusion_lon": 0.0}, {"rental_uris": {"ios": "https://dc.lft.to/lastmile_qr_scan", "android": "https://dc.lft.to/lastmile_qr_scan"}, "type": "electric_scooter", "name": "1bbb74a8af5931d55fcb9e381fa79565", "is_reserved": 0, "lon": -76.97936316666667, "is_disabled": 0, "fusion_lat": 0.0, "lat": 38.906588, "bike_id": "1bbb74a8af5931d55fcb9e381fa79565", "fusion_lon": 0.0}, {"rental_uris": {"ios": "https://dc.lft.to/lastmile_qr_scan", "android": "https://dc.lft.to/lastmile_qr_scan"}, "type": "electric_scooter", "name": "7296361dddf5505faa89b00563ec6ef1", "is_reserved": 0, "lon": -77.02700283333333, "is_disabled": 0, "fusion_lat": 0.0, "lat": 38.91802116666667, "bike_id": "7296361dddf5505faa89b00563ec6ef1", "fusion_lon": 0.0}, {"rental_uris": {"ios": "https://dc.lft.to/lastmile_qr_scan", "android": "https://dc.lft.to/lastmile_qr_scan"}, "type": "electric_scooter", "name": "573959c55859dc4f91d82b30981befab", "is_reserved": 0, "lon": -77.03661416666667, "is_disabled": 0, "fusion_lat": 0.0, "lat": 38.92287116666667, "bike_id": "573959c55859dc4f91d82b30981befab", "fusion_lon": 0.0}, {"rental_uris": {"ios": "https://dc.lft.to/lastmile_qr_scan", "android": "https://dc.lft.to/lastmile_qr_scan"}, "type": "electric_scooter", "name": "6bfc8e6fe9ff8a9789050dd8c88cc0c7", "is_reserved": 0, "lon": -77.0220645, "is_disabled": 0, "fusion_lat": 0.0, "lat": 38.895100666666664, "bike_id": "6bfc8e6fe9ff8a9789050dd8c88cc0c7", "fusion_lon": 0.0}, {"rental_uris": {"ios": "https://dc.lft.to/lastmile_qr_scan", "android": "https://dc.lft.to/lastmile_qr_scan"}, "type": "electric_bike", "name": "5dc2ca7d2d85a1e4e5185eee8796a2a4", "is_reserved": 0, "lon": -77.0014035, "is_disabled": 0, "fusion_lat": 0.0, "lat": 38.995037833333335, "bike_id": "5dc2ca7d2d85a1e4e5185eee8796a2a4", "fusion_lon": 0.0}, {"rental_uris": {"ios": "https://dc.lft.to/lastmile_qr_scan", "android": "https://dc.lft.to/lastmile_qr_scan"}, "type": "electric_scooter", "name": "6fd6368151608dc94e6f1c788d7e1e7b", "is_reserved": 0, "lon": -77.0091435, "is_disabled": 0, "fusion_lat": 0.0, "lat": 38.8987735, "bike_id": "6fd6368151608dc94e6f1c788d7e1e7b", "fusion_lon": 0.0}, {"rental_uris": {"ios": "https://dc.lft.to/lastmile_qr_scan", "android": "https://dc.lft.to/lastmile_qr_scan"}, "type": "electric_scooter", "name": "0293a7434a18c4b80832ae2c7299e2f1", "is_reserved": 0, "lon": -77.0521495, "is_disabled": 0, "fusion_lat": 0.0, "lat": 38.900182666666666, "bike_id": "0293a7434a18c4b80832ae2c7299e2f1", "fusion_lon": 0.0}, {"rental_uris": {"ios": "https://dc.lft.to/lastmile_qr_scan", "android": "https://dc.lft.to/lastmile_qr_scan"}, "type": "electric_scooter", "name": "223d7db2ecaf16f9b81037a49c0b855c", "is_reserved": 0, "lon": -77.0075555, "is_disabled": 0, "fusion_lat": 0.0, "lat": 38.9252815, "bike_id": "223d7db2ecaf16f9b81037a49c0b855c", "fusion_lon": 0.0}, {"rental_uris": {"ios": "https://dc.lft.to/lastmile_qr_scan", "android": "https://dc.lft.to/lastmile_qr_scan"}, "type": "electric_scooter", "name": "5d8160555d35d714970da5bb84265008", "is_reserved": 0, "lon": -77.06479666666667, "is_disabled": 0, "fusion_lat": 0.0, "lat": 38.910264833333336, "bike_id": "5d8160555d35d714970da5bb84265008", "fusion_lon": 0.0}, {"rental_uris": {"ios": "https://dc.lft.to/lastmile_qr_scan", "android": "https://dc.lft.to/lastmile_qr_scan"}, "type": "electric_scooter", "name": "4d70d55dff644484fe112c8d1a9918c9", "is_reserved": 0, "lon": -77.00417183333333, "is_disabled": 0, "fusion_lat": 0.0, "lat": 38.9057155, "bike_id": "4d70d55dff644484fe112c8d1a9918c9", "fusion_lon": 0.0}, {"rental_uris": {"ios": "https://dc.lft.to/lastmile_qr_scan", "android": "https://dc.lft.to/lastmile_qr_scan"}, "type": "electric_scooter", "name": "67cdb7a324a5376ed433af007af895c6", "is_reserved": 0, "lon": -76.9298885, "is_disabled": 0, "fusion_lat": 0.0, "lat": 38.892922166666665, "bike_id": "67cdb7a324a5376ed433af007af895c6", "fusion_lon": 0.0}, {"rental_uris": {"ios": "https://dc.lft.to/lastmile_qr_scan", "android": "https://dc.lft.to/lastmile_qr_scan"}, "type": "electric_scooter", "name": "233421237aae75c37b80ce8c529825d8", "is_reserved": 0, "lon": -77.00686016666667, "is_disabled": 0, "fusion_lat": 0.0, "lat": 38.90017916666667, "bike_id": "233421237aae75c37b80ce8c529825d8", "fusion_lon": 0.0}, {"rental_uris": {"ios": "https://dc.lft.to/lastmile_qr_scan", "android": "https://dc.lft.to/lastmile_qr_scan"}, "type": "electric_scooter", "name": "a8783f8480077aa7ffd72a9087c9f4a7", "is_reserved": 0, "lon": -77.050578, "is_disabled": 0, "fusion_lat": 0.0, "lat": 38.9258365, "bike_id": "a8783f8480077aa7ffd72a9087c9f4a7", "fusion_lon": 0.0}, {"rental_uris": {"ios": "https://dc.lft.to/lastmile_qr_scan", "android": "https://dc.lft.to/lastmile_qr_scan"}, "type": "electric_scooter", "name": "4ec86fe88181861e91a509a87d6dd867", "is_reserved": 0, "lon": -77.02214516666666, "is_disabled": 0, "fusion_lat": 0.0, "lat": 38.9247015, "bike_id": "4ec86fe88181861e91a509a87d6dd867", "fusion_lon": 0.0}, {"rental_uris": {"ios": "https://dc.lft.to/lastmile_qr_scan", "android": "https://dc.lft.to/lastmile_qr_scan"}, "type": "electric_bike", "name": "a67fc728daea035b17080583dac2e40d", "is_reserved": 0, "lon": -77.132324, "is_disabled": 0, "fusion_lat": 0.0, "lat": 38.8044795, "bike_id": "a67fc728daea035b17080583dac2e40d", "fusion_lon": 0.0}, {"rental_uris": {"ios": "https://dc.lft.to/lastmile_qr_scan", "android": "https://dc.lft.to/lastmile_qr_scan"}, "type": "electric_scooter", "name": "b816079196e610f799d1ebad18390f5f", "is_reserved": 0, "lon": -76.97403433333334, "is_disabled": 0, "fusion_lat": 0.0, "lat": 38.9013835, "bike_id": "b816079196e610f799d1ebad18390f5f", "fusion_lon": 0.0}, {"rental_uris": {"ios": "https://dc.lft.to/lastmile_qr_scan", "android": "https://dc.lft.to/lastmile_qr_scan"}, "type": "electric_scooter", "name": "47400d9a66c347291f847a6c854f530e", "is_reserved": 0, "lon": -77.036385, "is_disabled": 0, "fusion_lat": 0.0, "lat": 38.9243805, "bike_id": "47400d9a66c347291f847a6c854f530e", "fusion_lon": 0.0}, {"rental_uris": {"ios": "https://dc.lft.to/lastmile_qr_scan", "android": "https://dc.lft.to/lastmile_qr_scan"}, "type": "electric_scooter", "name": "11eac1de675fd86eca1460b3192a5b38", "is_reserved": 0, "lon": -77.03947633333334, "is_disabled": 0, "fusion_lat": 0.0, "lat": 38.9080845, "bike_id": "11eac1de675fd86eca1460b3192a5b38", "fusion_lon": 0.0}, {"rental_uris": {"ios": "https://dc.lft.to/lastmile_qr_scan", "android": "https://dc.lft.to/lastmile_qr_scan"}, "type": "electric_scooter", "name": "67781e78caa2c3a4ee0d8b1fe68b8b49", "is_reserved": 0, "lon": -77.045026, "is_disabled": 0, "fusion_lat": 0.0, "lat": 38.91415383333333, "bike_id": "67781e78caa2c3a4ee0d8b1fe68b8b49", "fusion_lon": 0.0}, {"rental_uris": {"ios": "https://dc.lft.to/lastmile_qr_scan", "android": "https://dc.lft.to/lastmile_qr_scan"}, "type": "electric_scooter", "name": "5bf8756a5e06133a0cece5ed07f62230", "is_reserved": 0, "lon": -77.00588483333334, "is_disabled": 0, "fusion_lat": 0.0, "lat": 38.905494166666664, "bike_id": "5bf8756a5e06133a0cece5ed07f62230", "fusion_lon": 0.0}, {"rental_uris": {"ios": "https://dc.lft.to/lastmile_qr_scan", "android": "https://dc.lft.to/lastmile_qr_scan"}, "type": "electric_scooter", "name": "4000f42b8df18c5d007bbc284db8202d", "is_reserved": 0, "lon": -77.03382966666666, "is_disabled": 0, "fusion_lat": 0.0, "lat": 38.90265333333333, "bike_id": "4000f42b8df18c5d007bbc284db8202d", "fusion_lon": 0.0}, {"rental_uris": {"ios": "https://dc.lft.to/lastmile_qr_scan", "android": "https://dc.lft.to/lastmile_qr_scan"}, "type": "electric_scooter", "name": "f4a748ddc48bdd597566ddf324b06eb3", "is_reserved": 0, "lon": -77.03873233333333, "is_disabled": 0, "fusion_lat": 0.0, "lat": 38.90387533333333, "bike_id": "f4a748ddc48bdd597566ddf324b06eb3", "fusion_lon": 0.0}, {"rental_uris": {"ios": "https://dc.lft.to/lastmile_qr_scan", "android": "https://dc.lft.to/lastmile_qr_scan"}, "type": "electric_scooter", "name": "54dc53b17941e4eae0fabeaf5fc4ccbf", "is_reserved": 0, "lon": -77.0532865, "is_disabled": 0, "fusion_lat": 0.0, "lat": 38.906479, "bike_id": "54dc53b17941e4eae0fabeaf5fc4ccbf", "fusion_lon": 0.0}, {"rental_uris": {"ios": "https://dc.lft.to/lastmile_qr_scan", "android": "https://dc.lft.to/lastmile_qr_scan"}, "type": "electric_scooter", "name": "5a42b65fa1c79b252518471a93e66f54", "is_reserved": 0, "lon": -77.02879933333334, "is_disabled": 0, "fusion_lat": 0.0, "lat": 38.90442866666667, "bike_id": "5a42b65fa1c79b252518471a93e66f54", "fusion_lon": 0.0}, {"rental_uris": {"ios": "https://dc.lft.to/lastmile_qr_scan", "android": "https://dc.lft.to/lastmile_qr_scan"}, "type": "electric_scooter", "name": "274cf2ffc94b36b4410597cd944e2c69", "is_reserved": 0, "lon": -77.02335216666667, "is_disabled": 0, "fusion_lat": 0.0, "lat": 38.9223015, "bike_id": "274cf2ffc94b36b4410597cd944e2c69", "fusion_lon": 0.0}, {"rental_uris": {"ios": "https://dc.lft.to/lastmile_qr_scan", "android": "https://dc.lft.to/lastmile_qr_scan"}, "type": "electric_scooter", "name": "a6fe4c4aa8e83cde2491c70fcd1c614f", "is_reserved": 0, "lon": -77.01430233333333, "is_disabled": 0, "fusion_lat": 0.0, "lat": 38.91465, "bike_id": "a6fe4c4aa8e83cde2491c70fcd1c614f", "fusion_lon": 0.0}, {"rental_uris": {"ios": "https://dc.lft.to/lastmile_qr_scan", "android": "https://dc.lft.to/lastmile_qr_scan"}, "type": "electric_scooter", "name": "a3f106e7039ae30925b371d31ca0011a", "is_reserved": 0, "lon": -77.033883, "is_disabled": 0, "fusion_lat": 0.0, "lat": 38.90265333333333, "bike_id": "a3f106e7039ae30925b371d31ca0011a", "fusion_lon": 0.0}, {"rental_uris": {"ios": "https://dc.lft.to/lastmile_qr_scan", "android": "https://dc.lft.to/lastmile_qr_scan"}, "type": "electric_scooter", "name": "41030482a4b972a1667bb32c2e523fb2", "is_reserved": 0, "lon": -77.02380133333334, "is_disabled": 0, "fusion_lat": 0.0, "lat": 38.919573666666665, "bike_id": "41030482a4b972a1667bb32c2e523fb2", "fusion_lon": 0.0}, {"rental_uris": {"ios": "https://dc.lft.to/lastmile_qr_scan", "android": "https://dc.lft.to/lastmile_qr_scan"}, "type": "electric_scooter", "name": "ed3e299bed7ac5b8a16ee22cde3a4287", "is_reserved": 0, "lon": -77.0354535, "is_disabled": 0, "fusion_lat": 0.0, "lat": 38.93619566666667, "bike_id": "ed3e299bed7ac5b8a16ee22cde3a4287", "fusion_lon": 0.0}, {"rental_uris": {"ios": "https://dc.lft.to/lastmile_qr_scan", "android": "https://dc.lft.to/lastmile_qr_scan"}, "type": "electric_scooter", "name": "cd448a7d1ab6a0efb4e4e7a609f29e28", "is_reserved": 0, "lon": -77.02555983333333, "is_disabled": 0, "fusion_lat": 0.0, "lat": 38.930975, "bike_id": "cd448a7d1ab6a0efb4e4e7a609f29e28", "fusion_lon": 0.0}, {"rental_uris": {"ios": "https://dc.lft.to/lastmile_qr_scan", "android": "https://dc.lft.to/lastmile_qr_scan"}, "type": "electric_scooter", "name": "8456868b779bdf331955136fe0e0b263", "is_reserved": 0, "lon": -76.97802833333333, "is_disabled": 0, "fusion_lat": 0.0, "lat": 38.9030705, "bike_id": "8456868b779bdf331955136fe0e0b263", "fusion_lon": 0.0}, {"rental_uris": {"ios": "https://dc.lft.to/lastmile_qr_scan", "android": "https://dc.lft.to/lastmile_qr_scan"}, "type": "electric_scooter", "name": "d5d3febdf9d51b744bc24951cce725f8", "is_reserved": 0, "lon": -77.02302483333334, "is_disabled": 0, "fusion_lat": 0.0, "lat": 38.913957833333335, "bike_id": "d5d3febdf9d51b744bc24951cce725f8", "fusion_lon": 0.0}, {"rental_uris": {"ios": "https://dc.lft.to/lastmile_qr_scan", "android": "https://dc.lft.to/lastmile_qr_scan"}, "type": "electric_scooter", "name": "bec41b6099a5a9a801ac1d9c99f66977", "is_reserved": 0, "lon": -77.04494166666667, "is_disabled": 0, "fusion_lat": 0.0, "lat": 38.91931916666667, "bike_id": "bec41b6099a5a9a801ac1d9c99f66977", "fusion_lon": 0.0}, {"rental_uris": {"ios": "https://dc.lft.to/lastmile_qr_scan", "android": "https://dc.lft.to/lastmile_qr_scan"}, "type": "electric_scooter", "name": "08f04006114ad097391e6101713b20b8", "is_reserved": 0, "lon": -77.02682666666666, "is_disabled": 0, "fusion_lat": 0.0, "lat": 38.902473666666666, "bike_id": "08f04006114ad097391e6101713b20b8", "fusion_lon": 0.0}, {"rental_uris": {"ios": "https://dc.lft.to/lastmile_qr_scan", "android": "https://dc.lft.to/lastmile_qr_scan"}, "type": "electric_scooter", "name": "004a9c1d5f7fc3ff3d819fc2c61f409d", "is_reserved": 0, "lon": -77.01789983333333, "is_disabled": 0, "fusion_lat": 0.0, "lat": 38.919843666666665, "bike_id": "004a9c1d5f7fc3ff3d819fc2c61f409d", "fusion_lon": 0.0}, {"rental_uris": {"ios": "https://dc.lft.to/lastmile_qr_scan", "android": "https://dc.lft.to/lastmile_qr_scan"}, "type": "electric_scooter", "name": "e56e46aec52aebb50ddb341c8eb45955", "is_reserved": 0, "lon": -77.03808116666667, "is_disabled": 0, "fusion_lat": 0.0, "lat": 38.91189, "bike_id": "e56e46aec52aebb50ddb341c8eb45955", "fusion_lon": 0.0}, {"rental_uris": {"ios": "https://dc.lft.to/lastmile_qr_scan", "android": "https://dc.lft.to/lastmile_qr_scan"}, "type": "electric_scooter", "name": "f9dc61e066ae534a658d5eea78c0266a", "is_reserved": 0, "lon": -77.02094966666667, "is_disabled": 0, "fusion_lat": 0.0, "lat": 38.93007633333333, "bike_id": "f9dc61e066ae534a658d5eea78c0266a", "fusion_lon": 0.0}, {"rental_uris": {"ios": "https://dc.lft.to/lastmile_qr_scan", "android": "https://dc.lft.to/lastmile_qr_scan"}, "type": "electric_scooter", "name": "7173e08fea78dd92c28f0a320925b909", "is_reserved": 0, "lon": -77.04189883333333, "is_disabled": 0, "fusion_lat": 0.0, "lat": 38.92050533333333, "bike_id": "7173e08fea78dd92c28f0a320925b909", "fusion_lon": 0.0}, {"rental_uris": {"ios": "https://dc.lft.to/lastmile_qr_scan", "android": "https://dc.lft.to/lastmile_qr_scan"}, "type": "electric_scooter", "name": "c846d35515fdd69f9939ce0481525656", "is_reserved": 0, "lon": -77.02474566666666, "is_disabled": 0, "fusion_lat": 0.0, "lat": 38.918129666666665, "bike_id": "c846d35515fdd69f9939ce0481525656", "fusion_lon": 0.0}, {"rental_uris": {"ios": "https://dc.lft.to/lastmile_qr_scan", "android": "https://dc.lft.to/lastmile_qr_scan"}, "type": "electric_scooter", "name": "174ca2c87b66b91d3e04f1820d6d083a", "is_reserved": 0, "lon": -77.02135583333333, "is_disabled": 0, "fusion_lat": 0.0, "lat": 38.905573833333335, "bike_id": "174ca2c87b66b91d3e04f1820d6d083a", "fusion_lon": 0.0}, {"rental_uris": {"ios": "https://dc.lft.to/lastmile_qr_scan", "android": "https://dc.lft.to/lastmile_qr_scan"}, "type": "electric_scooter", "name": "2c676591ba76c32dfe4b4d71642d433e", "is_reserved": 0, "lon": -77.06124983333333, "is_disabled": 0, "fusion_lat": 0.0, "lat": 38.905022833333334, "bike_id": "2c676591ba76c32dfe4b4d71642d433e", "fusion_lon": 0.0}, {"rental_uris": {"ios": "https://dc.lft.to/lastmile_qr_scan", "android": "https://dc.lft.to/lastmile_qr_scan"}, "type": "electric_scooter", "name": "fa65174058a46fcc128b01a18dc33841", "is_reserved": 0, "lon": -77.02973816666666, "is_disabled": 0, "fusion_lat": 0.0, "lat": 38.90495933333333, "bike_id": "fa65174058a46fcc128b01a18dc33841", "fusion_lon": 0.0}, {"rental_uris": {"ios": "https://dc.lft.to/lastmile_qr_scan", "android": "https://dc.lft.to/lastmile_qr_scan"}, "type": "electric_scooter", "name": "fac0d4ff2f4130f69b1b6fd0ad1c0837", "is_reserved": 0, "lon": -77.048036, "is_disabled": 0, "fusion_lat": 0.0, "lat": 38.911021, "bike_id": "fac0d4ff2f4130f69b1b6fd0ad1c0837", "fusion_lon": 0.0}, {"rental_uris": {"ios": "https://dc.lft.to/lastmile_qr_scan", "android": "https://dc.lft.to/lastmile_qr_scan"}, "type": "electric_scooter", "name": "e2ac5403a203fe1ca46b15b8d8a0fd78", "is_reserved": 0, "lon": -77.02373433333334, "is_disabled": 0, "fusion_lat": 0.0, "lat": 38.91683666666667, "bike_id": "e2ac5403a203fe1ca46b15b8d8a0fd78", "fusion_lon": 0.0}, {"rental_uris": {"ios": "https://dc.lft.to/lastmile_qr_scan", "android": "https://dc.lft.to/lastmile_qr_scan"}, "type": "electric_scooter", "name": "81b49af6896192419fb0e660e6796a9a", "is_reserved": 0, "lon": -76.94198366666667, "is_disabled": 0, "fusion_lat": 0.0, "lat": 38.902278, "bike_id": "81b49af6896192419fb0e660e6796a9a", "fusion_lon": 0.0}, {"rental_uris": {"ios": "https://dc.lft.to/lastmile_qr_scan", "android": "https://dc.lft.to/lastmile_qr_scan"}, "type": "electric_scooter", "name": "69247d989c6e238b8ad5f6f388776803", "is_reserved": 0, "lon": -77.07555183333334, "is_disabled": 0, "fusion_lat": 0.0, "lat": 38.92085, "bike_id": "69247d989c6e238b8ad5f6f388776803", "fusion_lon": 0.0}, {"rental_uris": {"ios": "https://dc.lft.to/lastmile_qr_scan", "android": "https://dc.lft.to/lastmile_qr_scan"}, "type": "electric_scooter", "name": "b330a1ac0776074b8ad45af03b77362f", "is_reserved": 0, "lon": -77.02308116666667, "is_disabled": 0, "fusion_lat": 0.0, "lat": 38.92864433333333, "bike_id": "b330a1ac0776074b8ad45af03b77362f", "fusion_lon": 0.0}, {"rental_uris": {"ios": "https://dc.lft.to/lastmile_qr_scan", "android": "https://dc.lft.to/lastmile_qr_scan"}, "type": "electric_scooter", "name": "e3a79f695e545375e4db943eb8cbcfde", "is_reserved": 0, "lon": -77.0176745, "is_disabled": 0, "fusion_lat": 0.0, "lat": 38.900841166666666, "bike_id": "e3a79f695e545375e4db943eb8cbcfde", "fusion_lon": 0.0}, {"rental_uris": {"ios": "https://dc.lft.to/lastmile_qr_scan", "android": "https://dc.lft.to/lastmile_qr_scan"}, "type": "electric_scooter", "name": "693935292369ce18244c2ab5d982ddc3", "is_reserved": 0, "lon": -77.03751583333333, "is_disabled": 0, "fusion_lat": 0.0, "lat": 38.93195766666667, "bike_id": "693935292369ce18244c2ab5d982ddc3", "fusion_lon": 0.0}, {"rental_uris": {"ios": "https://dc.lft.to/lastmile_qr_scan", "android": "https://dc.lft.to/lastmile_qr_scan"}, "type": "electric_scooter", "name": "41b7d8c07b38d32b77cfb3a8209439f5", "is_reserved": 0, "lon": -77.0384685, "is_disabled": 0, "fusion_lat": 0.0, "lat": 38.916420333333335, "bike_id": "41b7d8c07b38d32b77cfb3a8209439f5", "fusion_lon": 0.0}, {"rental_uris": {"ios": "https://dc.lft.to/lastmile_qr_scan", "android": "https://dc.lft.to/lastmile_qr_scan"}, "type": "electric_scooter", "name": "ac6c52da8105c7f21fc129ce69f311dc", "is_reserved": 0, "lon": -77.02207083333333, "is_disabled": 0, "fusion_lat": 0.0, "lat": 38.920530666666664, "bike_id": "ac6c52da8105c7f21fc129ce69f311dc", "fusion_lon": 0.0}, {"rental_uris": {"ios": "https://dc.lft.to/lastmile_qr_scan", "android": "https://dc.lft.to/lastmile_qr_scan"}, "type": "electric_scooter", "name": "7618e051fbc932940ad046a3314903c1", "is_reserved": 0, "lon": -76.99471983333333, "is_disabled": 0, "fusion_lat": 0.0, "lat": 38.90548233333333, "bike_id": "7618e051fbc932940ad046a3314903c1", "fusion_lon": 0.0}, {"rental_uris": {"ios": "https://dc.lft.to/lastmile_qr_scan", "android": "https://dc.lft.to/lastmile_qr_scan"}, "type": "electric_scooter", "name": "b901c4c055b2e21d68b04de0145b2d86", "is_reserved": 0, "lon": -77.003995, "is_disabled": 0, "fusion_lat": 0.0, "lat": 38.90555833333333, "bike_id": "b901c4c055b2e21d68b04de0145b2d86", "fusion_lon": 0.0}, {"rental_uris": {"ios": "https://dc.lft.to/lastmile_qr_scan", "android": "https://dc.lft.to/lastmile_qr_scan"}, "type": "electric_bike", "name": "b91b590d91a675eefe9f8e0f3c581b42", "is_reserved": 0, "lon": -76.974197, "is_disabled": 0, "fusion_lat": 0.0, "lat": 38.932362499999996, "bike_id": "b91b590d91a675eefe9f8e0f3c581b42", "fusion_lon": 0.0}, {"rental_uris": {"ios": "https://dc.lft.to/lastmile_qr_scan", "android": "https://dc.lft.to/lastmile_qr_scan"}, "type": "electric_scooter", "name": "0777cc89f69a269a4a6d937f0d0ae872", "is_reserved": 0, "lon": -77.04989766666667, "is_disabled": 0, "fusion_lat": 0.0, "lat": 38.9055355, "bike_id": "0777cc89f69a269a4a6d937f0d0ae872", "fusion_lon": 0.0}, {"rental_uris": {"ios": "https://dc.lft.to/lastmile_qr_scan", "android": "https://dc.lft.to/lastmile_qr_scan"}, "type": "electric_scooter", "name": "d85091a2bf2a37ba8b629ae09151cfdf", "is_reserved": 0, "lon": -77.022114, "is_disabled": 0, "fusion_lat": 0.0, "lat": 38.88736216666667, "bike_id": "d85091a2bf2a37ba8b629ae09151cfdf", "fusion_lon": 0.0}, {"rental_uris": {"ios": "https://dc.lft.to/lastmile_qr_scan", "android": "https://dc.lft.to/lastmile_qr_scan"}, "type": "electric_scooter", "name": "3dc7508a2019b7ec32bd56ce850260d7", "is_reserved": 0, "lon": -77.03082933333333, "is_disabled": 0, "fusion_lat": 0.0, "lat": 38.938746333333334, "bike_id": "3dc7508a2019b7ec32bd56ce850260d7", "fusion_lon": 0.0}, {"rental_uris": {"ios": "https://dc.lft.to/lastmile_qr_scan", "android": "https://dc.lft.to/lastmile_qr_scan"}, "type": "electric_scooter", "name": "ae0832ebbbf3af79d24682bc40d326d4", "is_reserved": 0, "lon": -76.998813, "is_disabled": 0, "fusion_lat": 0.0, "lat": 38.92056483333333, "bike_id": "ae0832ebbbf3af79d24682bc40d326d4", "fusion_lon": 0.0}, {"rental_uris": {"ios": "https://dc.lft.to/lastmile_qr_scan", "android": "https://dc.lft.to/lastmile_qr_scan"}, "type": "electric_bike", "name": "6074c8bf2017f705899a38d2d45c2e6f", "is_reserved": 0, "lon": -76.97531666666667, "is_disabled": 0, "fusion_lat": 0.0, "lat": 38.903275666666666, "bike_id": "6074c8bf2017f705899a38d2d45c2e6f", "fusion_lon": 0.0}, {"rental_uris": {"ios": "https://dc.lft.to/lastmile_qr_scan", "android": "https://dc.lft.to/lastmile_qr_scan"}, "type": "electric_scooter", "name": "3edc36c57f22b0a9f19bfaefcaf3ead5", "is_reserved": 0, "lon": -77.03441166666667, "is_disabled": 0, "fusion_lat": 0.0, "lat": 38.934347333333335, "bike_id": "3edc36c57f22b0a9f19bfaefcaf3ead5", "fusion_lon": 0.0}, {"rental_uris": {"ios": "https://dc.lft.to/lastmile_qr_scan", "android": "https://dc.lft.to/lastmile_qr_scan"}, "type": "electric_scooter", "name": "89b2b896a012867381dd00739420ca81", "is_reserved": 0, "lon": -77.02308766666667, "is_disabled": 0, "fusion_lat": 0.0, "lat": 38.9162165, "bike_id": "89b2b896a012867381dd00739420ca81", "fusion_lon": 0.0}, {"rental_uris": {"ios": "https://dc.lft.to/lastmile_qr_scan", "android": "https://dc.lft.to/lastmile_qr_scan"}, "type": "electric_scooter", "name": "e8d662189da59fcff8ed0ffb174c43ab", "is_reserved": 0, "lon": -77.04872783333333, "is_disabled": 0, "fusion_lat": 0.0, "lat": 38.89907133333333, "bike_id": "e8d662189da59fcff8ed0ffb174c43ab", "fusion_lon": 0.0}, {"rental_uris": {"ios": "https://dc.lft.to/lastmile_qr_scan", "android": "https://dc.lft.to/lastmile_qr_scan"}, "type": "electric_scooter", "name": "b0a9c4f03aa395f2e3e63aff24bb10a3", "is_reserved": 0, "lon": -77.07721566666666, "is_disabled": 0, "fusion_lat": 0.0, "lat": 38.942897333333335, "bike_id": "b0a9c4f03aa395f2e3e63aff24bb10a3", "fusion_lon": 0.0}, {"rental_uris": {"ios": "https://dc.lft.to/lastmile_qr_scan", "android": "https://dc.lft.to/lastmile_qr_scan"}, "type": "electric_scooter", "name": "ec2723ea94d641c143979f44d45fa1b6", "is_reserved": 0, "lon": -76.99387283333333, "is_disabled": 0, "fusion_lat": 0.0, "lat": 38.910115833333336, "bike_id": "ec2723ea94d641c143979f44d45fa1b6", "fusion_lon": 0.0}, {"rental_uris": {"ios": "https://dc.lft.to/lastmile_qr_scan", "android": "https://dc.lft.to/lastmile_qr_scan"}, "type": "electric_scooter", "name": "3ff1d89197a35158fa7b65320c22fd3d", "is_reserved": 0, "lon": -76.998399, "is_disabled": 0, "fusion_lat": 0.0, "lat": 38.900255333333334, "bike_id": "3ff1d89197a35158fa7b65320c22fd3d", "fusion_lon": 0.0}, {"rental_uris": {"ios": "https://dc.lft.to/lastmile_qr_scan", "android": "https://dc.lft.to/lastmile_qr_scan"}, "type": "electric_scooter", "name": "1ff8e173afb4b014bd9c7547569bc2f6", "is_reserved": 0, "lon": -77.01820133333334, "is_disabled": 0, "fusion_lat": 0.0, "lat": 38.911072, "bike_id": "1ff8e173afb4b014bd9c7547569bc2f6", "fusion_lon": 0.0}, {"rental_uris": {"ios": "https://dc.lft.to/lastmile_qr_scan", "android": "https://dc.lft.to/lastmile_qr_scan"}, "type": "electric_scooter", "name": "1698c90b07c91dd4ecf494f1cada861c", "is_reserved": 0, "lon": -77.05683333333333, "is_disabled": 0, "fusion_lat": 0.0, "lat": 38.933892666666665, "bike_id": "1698c90b07c91dd4ecf494f1cada861c", "fusion_lon": 0.0}, {"rental_uris": {"ios": "https://dc.lft.to/lastmile_qr_scan", "android": "https://dc.lft.to/lastmile_qr_scan"}, "type": "electric_scooter", "name": "81740179774c8ee8f897efd9492fcb1a", "is_reserved": 0, "lon": -77.02628933333334, "is_disabled": 0, "fusion_lat": 0.0, "lat": 38.8922215, "bike_id": "81740179774c8ee8f897efd9492fcb1a", "fusion_lon": 0.0}, {"rental_uris": {"ios": "https://dc.lft.to/lastmile_qr_scan", "android": "https://dc.lft.to/lastmile_qr_scan"}, "type": "electric_scooter", "name": "36ad6350f5f6adeeb93069d895c8a396", "is_reserved": 0, "lon": -77.0417815, "is_disabled": 0, "fusion_lat": 0.0, "lat": 38.9140495, "bike_id": "36ad6350f5f6adeeb93069d895c8a396", "fusion_lon": 0.0}, {"rental_uris": {"ios": "https://dc.lft.to/lastmile_qr_scan", "android": "https://dc.lft.to/lastmile_qr_scan"}, "type": "electric_scooter", "name": "69bce0f88f36919c4bf3611b7934e04a", "is_reserved": 0, "lon": -77.00195966666666, "is_disabled": 0, "fusion_lat": 0.0, "lat": 38.90240583333333, "bike_id": "69bce0f88f36919c4bf3611b7934e04a", "fusion_lon": 0.0}, {"rental_uris": {"ios": "https://dc.lft.to/lastmile_qr_scan", "android": "https://dc.lft.to/lastmile_qr_scan"}, "type": "electric_scooter", "name": "9b8e7bdfc6886734f18d92e66ff0f350", "is_reserved": 0, "lon": -77.03318566666667, "is_disabled": 0, "fusion_lat": 0.0, "lat": 38.91808983333333, "bike_id": "9b8e7bdfc6886734f18d92e66ff0f350", "fusion_lon": 0.0}, {"rental_uris": {"ios": "https://dc.lft.to/lastmile_qr_scan", "android": "https://dc.lft.to/lastmile_qr_scan"}, "type": "electric_scooter", "name": "0d27c3411d3a0ff1f603ea87a7be1c02", "is_reserved": 0, "lon": -77.02510416666667, "is_disabled": 0, "fusion_lat": 0.0, "lat": 38.89747833333333, "bike_id": "0d27c3411d3a0ff1f603ea87a7be1c02", "fusion_lon": 0.0}, {"rental_uris": {"ios": "https://dc.lft.to/lastmile_qr_scan", "android": "https://dc.lft.to/lastmile_qr_scan"}, "type": "electric_scooter", "name": "94a96013f878bd65d01cae4394cdbc04", "is_reserved": 0, "lon": -77.02548883333333, "is_disabled": 0, "fusion_lat": 0.0, "lat": 38.931004, "bike_id": "94a96013f878bd65d01cae4394cdbc04", "fusion_lon": 0.0}, {"rental_uris": {"ios": "https://dc.lft.to/lastmile_qr_scan", "android": "https://dc.lft.to/lastmile_qr_scan"}, "type": "electric_scooter", "name": "f9224a749c0eb6da8b040ddd1a426542", "is_reserved": 0, "lon": -77.03932083333333, "is_disabled": 0, "fusion_lat": 0.0, "lat": 38.9015805, "bike_id": "f9224a749c0eb6da8b040ddd1a426542", "fusion_lon": 0.0}, {"rental_uris": {"ios": "https://dc.lft.to/lastmile_qr_scan", "android": "https://dc.lft.to/lastmile_qr_scan"}, "type": "electric_scooter", "name": "512a05d56a9359c7492476a13cbf5f91", "is_reserved": 0, "lon": -77.0526375, "is_disabled": 0, "fusion_lat": 0.0, "lat": 38.925626333333334, "bike_id": "512a05d56a9359c7492476a13cbf5f91", "fusion_lon": 0.0}, {"rental_uris": {"ios": "https://dc.lft.to/lastmile_qr_scan", "android": "https://dc.lft.to/lastmile_qr_scan"}, "type": "electric_scooter", "name": "2cc9e577b300448ed0568a797c61abe1", "is_reserved": 0, "lon": -77.04770466666666, "is_disabled": 0, "fusion_lat": 0.0, "lat": 38.918713, "bike_id": "2cc9e577b300448ed0568a797c61abe1", "fusion_lon": 0.0}, {"rental_uris": {"ios": "https://dc.lft.to/lastmile_qr_scan", "android": "https://dc.lft.to/lastmile_qr_scan"}, "type": "electric_scooter", "name": "a441762a625db063ea00c03aae16a28f", "is_reserved": 0, "lon": -77.009226, "is_disabled": 0, "fusion_lat": 0.0, "lat": 38.8969025, "bike_id": "a441762a625db063ea00c03aae16a28f", "fusion_lon": 0.0}, {"rental_uris": {"ios": "https://dc.lft.to/lastmile_qr_scan", "android": "https://dc.lft.to/lastmile_qr_scan"}, "type": "electric_scooter", "name": "ee2d886776d40beea373f43918c89ae8", "is_reserved": 0, "lon": -77.02201016666666, "is_disabled": 0, "fusion_lat": 0.0, "lat": 38.9515545, "bike_id": "ee2d886776d40beea373f43918c89ae8", "fusion_lon": 0.0}, {"rental_uris": {"ios": "https://dc.lft.to/lastmile_qr_scan", "android": "https://dc.lft.to/lastmile_qr_scan"}, "type": "electric_scooter", "name": "fcc5590fc749f7f656b93a47834b089b", "is_reserved": 0, "lon": -77.00174083333333, "is_disabled": 0, "fusion_lat": 0.0, "lat": 38.874920833333334, "bike_id": "fcc5590fc749f7f656b93a47834b089b", "fusion_lon": 0.0}, {"rental_uris": {"ios": "https://dc.lft.to/lastmile_qr_scan", "android": "https://dc.lft.to/lastmile_qr_scan"}, "type": "electric_scooter", "name": "dbcb117050f8518fdd56cc7d92573b57", "is_reserved": 0, "lon": -77.0270215, "is_disabled": 0, "fusion_lat": 0.0, "lat": 38.918046333333336, "bike_id": "dbcb117050f8518fdd56cc7d92573b57", "fusion_lon": 0.0}, {"rental_uris": {"ios": "https://dc.lft.to/lastmile_qr_scan", "android": "https://dc.lft.to/lastmile_qr_scan"}, "type": "electric_scooter", "name": "1280115912dae81b77bdb352568ec04d", "is_reserved": 0, "lon": -77.04162233333334, "is_disabled": 0, "fusion_lat": 0.0, "lat": 38.91567033333333, "bike_id": "1280115912dae81b77bdb352568ec04d", "fusion_lon": 0.0}, {"rental_uris": {"ios": "https://dc.lft.to/lastmile_qr_scan", "android": "https://dc.lft.to/lastmile_qr_scan"}, "type": "electric_bike", "name": "d185fc1bbbfb25245fc1d6752f2061a9", "is_reserved": 0, "lon": -77.09452116666667, "is_disabled": 0, "fusion_lat": 0.0, "lat": 38.80753833333333, "bike_id": "d185fc1bbbfb25245fc1d6752f2061a9", "fusion_lon": 0.0}, {"rental_uris": {"ios": "https://dc.lft.to/lastmile_qr_scan", "android": "https://dc.lft.to/lastmile_qr_scan"}, "type": "electric_scooter", "name": "e2d48b33c42d9d63e4055244d18171bb", "is_reserved": 0, "lon": -77.02565733333333, "is_disabled": 0, "fusion_lat": 0.0, "lat": 38.923853, "bike_id": "e2d48b33c42d9d63e4055244d18171bb", "fusion_lon": 0.0}, {"rental_uris": {"ios": "https://dc.lft.to/lastmile_qr_scan", "android": "https://dc.lft.to/lastmile_qr_scan"}, "type": "electric_scooter", "name": "2a45d7a0b0b49b6d5a82921443d4c3c4", "is_reserved": 0, "lon": -77.07877783333333, "is_disabled": 0, "fusion_lat": 0.0, "lat": 38.946133833333334, "bike_id": "2a45d7a0b0b49b6d5a82921443d4c3c4", "fusion_lon": 0.0}, {"rental_uris": {"ios": "https://dc.lft.to/lastmile_qr_scan", "android": "https://dc.lft.to/lastmile_qr_scan"}, "type": "electric_scooter", "name": "77dbb7d3a3c55fecab3155397a7dddb7", "is_reserved": 0, "lon": -77.0215185, "is_disabled": 0, "fusion_lat": 0.0, "lat": 38.92604716666666, "bike_id": "77dbb7d3a3c55fecab3155397a7dddb7", "fusion_lon": 0.0}, {"rental_uris": {"ios": "https://dc.lft.to/lastmile_qr_scan", "android": "https://dc.lft.to/lastmile_qr_scan"}, "type": "electric_scooter", "name": "7dd4e003f707a6d4fe78ac11d72ae926", "is_reserved": 0, "lon": -76.982604, "is_disabled": 0, "fusion_lat": 0.0, "lat": 38.86626483333333, "bike_id": "7dd4e003f707a6d4fe78ac11d72ae926", "fusion_lon": 0.0}, {"rental_uris": {"ios": "https://dc.lft.to/lastmile_qr_scan", "android": "https://dc.lft.to/lastmile_qr_scan"}, "type": "electric_scooter", "name": "822e7d747b952119b3ed25790324fd7d", "is_reserved": 0, "lon": -77.03445283333333, "is_disabled": 0, "fusion_lat": 0.0, "lat": 38.909681, "bike_id": "822e7d747b952119b3ed25790324fd7d", "fusion_lon": 0.0}, {"rental_uris": {"ios": "https://dc.lft.to/lastmile_qr_scan", "android": "https://dc.lft.to/lastmile_qr_scan"}, "type": "electric_scooter", "name": "2253cbe09a9dd5350938536f11447e51", "is_reserved": 0, "lon": -77.036622, "is_disabled": 0, "fusion_lat": 0.0, "lat": 38.92283666666667, "bike_id": "2253cbe09a9dd5350938536f11447e51", "fusion_lon": 0.0}, {"rental_uris": {"ios": "https://dc.lft.to/lastmile_qr_scan", "android": "https://dc.lft.to/lastmile_qr_scan"}, "type": "electric_scooter", "name": "6b049783944e921e516d2306be64b42c", "is_reserved": 0, "lon": -77.0204245, "is_disabled": 0, "fusion_lat": 0.0, "lat": 38.922425, "bike_id": "6b049783944e921e516d2306be64b42c", "fusion_lon": 0.0},