{"data": {"bikes": [{"fusion_lat": 0.0, "name": "cc9055850474213197921fcbed94e3b4", "is_disabled": 0, "rental_uris": {"android": "https://dc.lft.to/lastmile_qr_scan", "ios": "https://dc.lft.to/lastmile_qr_scan"}, "fusion_lon": 0.0, "lat": 38.84504716666667, "bike_id": "cc9055850474213197921fcbed94e3b4", "type": "electric_bike", "is_reserved": 0, "lon": -76.99353416666666}, {"fusion_lat": 0.0, "name": "6776431475af11cf68e4514a3bf69dd5", "is_disabled": 0, "rental_uris": {"android": "https://dc.lft.to/lastmile_qr_scan", "ios": "https://dc.lft.to/lastmile_qr_scan"}, "fusion_lon": 0.0, "lat": 38.91279766666667, "bike_id": "6776431475af11cf68e4514a3bf69dd5", "type": "electric_scooter", "is_reserved": 0, "lon": -77.047269}, {"fusion_lat": 0.0, "name": "9adaa134e3c0865b47906cb355d3a2fc", "is_disabled": 0, "rental_uris": {"android": "https://dc.lft.to/lastmile_qr_scan", "ios": "https://dc.lft.to/lastmile_qr_scan"}, "fusion_lon": 0.0, "lat": 38.8960995, "bike_id": "9adaa134e3c0865b47906cb355d3a2fc", "type": "electric_scooter", "is_reserved": 0, "lon": -77.04486583333333}, {"fusion_lat": 0.0, "name": "39b35f63fcb704bfb909d66683370c17", "is_disabled": 0, "rental_uris": {"android": "https://dc.lft.to/lastmile_qr_scan", "ios": "https://dc.lft.to/lastmile_qr_scan"}, "fusion_lon": 0.0, "lat": 38.917847, "bike_id": "39b35f63fcb704bfb909d66683370c17", "type": "electric_scooter", "is_reserved": 0, "lon": -77.02319783333333}, {"fusion_lat": 0.0, "name": "faf23fbe2f3d09a64fde799db8e8b56b", "is_disabled": 0, "rental_uris": {"android": "https://dc.lft.to/lastmile_qr_scan", "ios": "https://dc.lft.to/lastmile_qr_scan"}, "fusion_lon": 0.0, "lat": 38.85776833333333, "bike_id": "faf23fbe2f3d09a64fde799db8e8b56b", "type": "electric_scooter", "is_reserved": 0, "lon": -76.97298233333333}, {"fusion_lat": 0.0, "name": "803ce494782d6ba2007cc71d7c8ea6ff", "is_disabled": 0, "rental_uris": {"android": "https://dc.lft.to/lastmile_qr_scan", "ios": "https://dc.lft.to/lastmile_qr_scan"}, "fusion_lon": 0.0, "lat": 38.90381816666667, "bike_id": "803ce494782d6ba2007cc71d7c8ea6ff", "type": "electric_scooter", "is_reserved": 0, "lon": -77.06141}, {"fusion_lat": 0.0, "name": "3b30fdba39022fb8bf27da26756ef818", "is_disabled": 0, "rental_uris": {"android": "https://dc.lft.to/lastmile_qr_scan", "ios": "https://dc.lft.to/lastmile_qr_scan"}, "fusion_lon": 0.0, "lat": 38.957926, "bike_id": "3b30fdba39022fb8bf27da26756ef818", "type": "electric_bike", "is_reserved": 0, "lon": -76.99968316666667}, {"fusion_lat": 0.0, "name": "e8b7cf403906a73ffdba29378d1ea18e", "is_disabled": 0, "rental_uris": {"android": "https://dc.lft.to/lastmile_qr_scan", "ios": "https://dc.lft.to/lastmile_qr_scan"}, "fusion_lon": 0.0, "lat": 38.969444, "bike_id": "e8b7cf403906a73ffdba29378d1ea18e", "type": "electric_bike", "is_reserved": 0, "lon": -77.03338116666667}, {"fusion_lat": 0.0, "name": "316dce13b623ad3951e2b80e761811c7", "is_disabled": 0, "rental_uris": {"android": "https://dc.lft.to/lastmile_qr_scan", "ios": "https://dc.lft.to/lastmile_qr_scan"}, "fusion_lon": 0.0, "lat": 38.9205935, "bike_id": "316dce13b623ad3951e2b80e761811c7", "type": "electric_scooter", "is_reserved": 0, "lon": -77.02534583333333}, {"fusion_lat": 0.0, "name": "9f11ee4ae905c885304aadeb6fa19777", "is_disabled": 0, "rental_uris": {"android": "https://dc.lft.to/lastmile_qr_scan", "ios": "https://dc.lft.to/lastmile_qr_scan"}, "fusion_lon": 0.0, "lat": 38.90059433333333, "bike_id": "9f11ee4ae905c885304aadeb6fa19777", "type": "electric_scooter", "is_reserved": 0, "lon": -76.93382566666666}, {"fusion_lat": 0.0, "name": "5523c69c4e0fddff17896bee130f804f", "is_disabled": 0, "rental_uris": {"android": "https://dc.lft.to/lastmile_qr_scan", "ios": "https://dc.lft.to/lastmile_qr_scan"}, "fusion_lon": 0.0, "lat": 38.92965916666667, "bike_id": "5523c69c4e0fddff17896bee130f804f", "type": "electric_scooter", "is_reserved": 0, "lon": -77.028139}, {"fusion_lat": 0.0, "name": "734965e7676ab6dce030932b833764a2", "is_disabled": 0, "rental_uris": {"android": "https://dc.lft.to/lastmile_qr_scan", "ios": "https://dc.lft.to/lastmile_qr_scan"}, "fusion_lon": 0.0, "lat": 38.92530416666666, "bike_id": "734965e7676ab6dce030932b833764a2", "type": "electric_scooter", "is_reserved": 0, "lon": -77.05538783333333}, {"fusion_lat": 0.0, "name": "a2ec5e6e203af54cc6ddd93facc2395d", "is_disabled": 0, "rental_uris": {"android": "https://dc.lft.to/lastmile_qr_scan", "ios": "https://dc.lft.to/lastmile_qr_scan"}, "fusion_lon": 0.0, "lat": 38.899982666666666, "bike_id": "a2ec5e6e203af54cc6ddd93facc2395d", "type": "electric_scooter", "is_reserved": 0, "lon": -77.03961316666667}, {"fusion_lat": 0.0, "name": "83aed86212668f0ce69ae468d2d4311e", "is_disabled": 0, "rental_uris": {"android": "https://dc.lft.to/lastmile_qr_scan", "ios": "https://dc.lft.to/lastmile_qr_scan"}, "fusion_lon": 0.0, "lat": 38.93544383333333, "bike_id": "83aed86212668f0ce69ae468d2d4311e", "type": "electric_scooter", "is_reserved": 0, "lon": -77.03258833333334}, {"fusion_lat": 0.0, "name": "7c1b537f1a34537db29772ac8821dcbe", "is_disabled": 0, "rental_uris": {"android": "https://dc.lft.to/lastmile_qr_scan", "ios": "https://dc.lft.to/lastmile_qr_scan"}, "fusion_lon": 0.0, "lat": 38.9191285, "bike_id": "7c1b537f1a34537db29772ac8821dcbe", "type": "electric_scooter", "is_reserved": 0, "lon": -77.03575233333333}, {"fusion_lat": 0.0, "name": "64cf4cc90d2ed4e363158a85a10e4670", "is_disabled": 0, "rental_uris": {"android": "https://dc.lft.to/lastmile_qr_scan", "ios": "https://dc.lft.to/lastmile_qr_scan"}, "fusion_lon": 0.0, "lat": 38.93902383333333, "bike_id": "64cf4cc90d2ed4e363158a85a10e4670", "type": "electric_scooter", "is_reserved": 0, "lon": -77.024835}, {"fusion_lat": 0.0, "name": "9d3cc60dd53e6ab67ab390377841f03c", "is_disabled": 0, "rental_uris": {"android": "https://dc.lft.to/lastmile_qr_scan", "ios": "https://dc.lft.to/lastmile_qr_scan"}, "fusion_lon": 0.0, "lat": 39.05254133333333, "bike_id": "9d3cc60dd53e6ab67ab390377841f03c", "type": "electric_bike", "is_reserved": 0, "lon": -77.08068533333334}, {"fusion_lat": 0.0, "name": "89415bb674c61cc5f044c7c9b35476ba", "is_disabled": 0, "rental_uris": {"android": "https://dc.lft.to/lastmile_qr_scan", "ios": "https://dc.lft.to/lastmile_qr_scan"}, "fusion_lon": 0.0, "lat": 38.93985816666667, "bike_id": "89415bb674c61cc5f044c7c9b35476ba", "type": "electric_bike", "is_reserved": 0, "lon": -77.03570816666667}, {"fusion_lat": 0.0, "name": "e2cdb73783cdad5e98e5d0cfd6d099dc", "is_disabled": 0, "rental_uris": {"android": "https://dc.lft.to/lastmile_qr_scan", "ios": "https://dc.lft.to/lastmile_qr_scan"}, "fusion_lon": 0.0, "lat": 38.89620333333333, "bike_id": "e2cdb73783cdad5e98e5d0cfd6d099dc", "type": "electric_scooter", "is_reserved": 0, "lon": -77.00922616666666}, {"fusion_lat": 0.0, "name": "a981d58c04af4f8139d89ff8c6fb7c04", "is_disabled": 0, "rental_uris": {"android": "https://dc.lft.to/lastmile_qr_scan", "ios": "https://dc.lft.to/lastmile_qr_scan"}, "fusion_lon": 0.0, "lat": 38.897584, "bike_id": "a981d58c04af4f8139d89ff8c6fb7c04", "type": "electric_scooter", "is_reserved": 0, "lon": -77.009027}, {"fusion_lat": 0.0, "name": "09ac4dd308d1d2142817b4dfe756dc09", "is_disabled": 0, "rental_uris": {"android": "https://dc.lft.to/lastmile_qr_scan", "ios": "https://dc.lft.to/lastmile_qr_scan"}, "fusion_lon": 0.0, "lat": 38.899312, "bike_id": "09ac4dd308d1d2142817b4dfe756dc09", "type": "electric_scooter", "is_reserved": 0, "lon": -77.00351533333334}, {"fusion_lat": 0.0, "name": "66041e3529b6d8929581bd0344443761", "is_disabled": 0, "rental_uris": {"android": "https://dc.lft.to/lastmile_qr_scan", "ios": "https://dc.lft.to/lastmile_qr_scan"}, "fusion_lon": 0.0, "lat": 38.92741516666667, "bike_id": "66041e3529b6d8929581bd0344443761", "type": "electric_scooter", "is_reserved": 0, "lon": -77.02432933333333}, {"fusion_lat": 0.0, "name": "f039f002e822c4b48d88d2607b3f1f7d", "is_disabled": 0, "rental_uris": {"android": "https://dc.lft.to/lastmile_qr_scan", "ios": "https://dc.lft.to/lastmile_qr_scan"}, "fusion_lon": 0.0, "lat": 38.88317833333333, "bike_id": "f039f002e822c4b48d88d2607b3f1f7d", "type": "electric_scooter", "is_reserved": 0, "lon": -77.017651}, {"fusion_lat": 0.0, "name": "139a49d70917f47f74d981f7ef865b00", "is_disabled": 0, "rental_uris": {"android": "https://dc.lft.to/lastmile_qr_scan", "ios": "https://dc.lft.to/lastmile_qr_scan"}, "fusion_lon": 0.0, "lat": 38.91253283333333, "bike_id": "139a49d70917f47f74d981f7ef865b00", "type": "electric_scooter", "is_reserved": 0, "lon": -77.00152683333333}, {"fusion_lat": 0.0, "name": "cb1ef673e560a6f7f4d5992735bd7c45", "is_disabled": 0, "rental_uris": {"android": "https://dc.lft.to/lastmile_qr_scan", "ios": "https://dc.lft.to/lastmile_qr_scan"}, "fusion_lon": 0.0, "lat": 38.871764166666665, "bike_id": "cb1ef673e560a6f7f4d5992735bd7c45", "type": "electric_scooter", "is_reserved": 0, "lon": -77.00613816666667}, {"fusion_lat": 0.0, "name": "1203ed45c0aed024b29271e2f82b9530", "is_disabled": 0, "rental_uris": {"android": "https://dc.lft.to/lastmile_qr_scan", "ios": "https://dc.lft.to/lastmile_qr_scan"}, "fusion_lon": 0.0, "lat": 38.898739, "bike_id": "1203ed45c0aed024b29271e2f82b9530", "type": "electric_scooter", "is_reserved": 0, "lon": -76.93186083333333}, {"fusion_lat": 0.0, "name": "1b415892b2aa02c9e2c3fa992c950dc9", "is_disabled": 0, "rental_uris": {"android": "https://dc.lft.to/lastmile_qr_scan", "ios": "https://dc.lft.to/lastmile_qr_scan"}, "fusion_lon": 0.0, "lat": 38.887393, "bike_id": "1b415892b2aa02c9e2c3fa992c950dc9", "type": "electric_scooter", "is_reserved": 0, "lon": -77.01527816666666}, {"fusion_lat": 0.0, "name": "fe7e62630f976e50166a6e3ca3edfa12", "is_disabled": 0, "rental_uris": {"android": "https://dc.lft.to/lastmile_qr_scan", "ios": "https://dc.lft.to/lastmile_qr_scan"}, "fusion_lon": 0.0, "lat": 38.8832345, "bike_id": "fe7e62630f976e50166a6e3ca3edfa12", "type": "electric_scooter", "is_reserved": 0, "lon": -77.01752283333333}, {"fusion_lat": 0.0, "name": "b0041c14106dd376d691d0adaab5d739", "is_disabled": 0, "rental_uris": {"android": "https://dc.lft.to/lastmile_qr_scan", "ios": "https://dc.lft.to/lastmile_qr_scan"}, "fusion_lon": 0.0, "lat": 38.8624255, "bike_id": "b0041c14106dd376d691d0adaab5d739", "type": "electric_scooter", "is_reserved": 0, "lon": -76.99498233333334}, {"fusion_lat": 0.0, "name": "f0b1486580e5bd254348583b68e6f6c8", "is_disabled": 0, "rental_uris": {"android": "https://dc.lft.to/lastmile_qr_scan", "ios": "https://dc.lft.to/lastmile_qr_scan"}, "fusion_lon": 0.0, "lat": 38.935195666666665, "bike_id": "f0b1486580e5bd254348583b68e6f6c8", "type": "electric_scooter", "is_reserved": 0, "lon": -77.07267783333333}, {"fusion_lat": 0.0, "name": "ababf7615c2a5eebaff122af78d87662", "is_disabled": 0, "rental_uris": {"android": "https://dc.lft.to/lastmile_qr_scan", "ios": "https://dc.lft.to/lastmile_qr_scan"}, "fusion_lon": 0.0, "lat": 38.94288366666667, "bike_id": "ababf7615c2a5eebaff122af78d87662", "type": "electric_scooter", "is_reserved": 0, "lon": -77.02169966666666}, {"fusion_lat": 0.0, "name": "df38a188d7c2e38820c1648e7ec57748", "is_disabled": 0, "rental_uris": {"android": "https://dc.lft.to/lastmile_qr_scan", "ios": "https://dc.lft.to/lastmile_qr_scan"}, "fusion_lon": 0.0, "lat": 38.9002805, "bike_id": "df38a188d7c2e38820c1648e7ec57748", "type": "electric_scooter", "is_reserved": 0, "lon": -77.03497616666667}, {"fusion_lat": 0.0, "name": "58c3e8844fdf06aeb93aee0f276cfb3d", "is_disabled": 0, "rental_uris": {"android": "https://dc.lft.to/lastmile_qr_scan", "ios": "https://dc.lft.to/lastmile_qr_scan"}, "fusion_lon": 0.0, "lat": 38.98550866666667, "bike_id": "58c3e8844fdf06aeb93aee0f276cfb3d", "type": "electric_bike", "is_reserved": 0, "lon": -77.004035}, {"fusion_lat": 0.0, "name": "ddb80be82a192e92ea1349683176d196", "is_disabled": 0, "rental_uris": {"android": "https://dc.lft.to/lastmile_qr_scan", "ios": "https://dc.lft.to/lastmile_qr_scan"}, "fusion_lon": 0.0, "lat": 38.88297566666667, "bike_id": "ddb80be82a192e92ea1349683176d196", "type": "electric_scooter", "is_reserved": 0, "lon": -76.948539}, {"fusion_lat": 0.0, "name": "2d40e9177bdd9da6546015bf0d203bc9", "is_disabled": 0, "rental_uris": {"android": "https://dc.lft.to/lastmile_qr_scan", "ios": "https://dc.lft.to/lastmile_qr_scan"}, "fusion_lon": 0.0, "lat": 38.88426466666667, "bike_id": "2d40e9177bdd9da6546015bf0d203bc9", "type": "electric_scooter", "is_reserved": 0, "lon": -76.95755466666667}, {"fusion_lat": 0.0, "name": "53981d8242e2c45d9b31e4b7afe65ca9", "is_disabled": 0, "rental_uris": {"android": "https://dc.lft.to/lastmile_qr_scan", "ios": "https://dc.lft.to/lastmile_qr_scan"}, "fusion_lon": 0.0, "lat": 38.89839383333333, "bike_id": "53981d8242e2c45d9b31e4b7afe65ca9", "type": "electric_scooter", "is_reserved": 0, "lon": -77.01335466666667}, {"fusion_lat": 0.0, "name": "1825b8ccabc963ab494075f3a4d17376", "is_disabled": 0, "rental_uris": {"android": "https://dc.lft.to/lastmile_qr_scan", "ios": "https://dc.lft.to/lastmile_qr_scan"}, "fusion_lon": 0.0, "lat": 38.924152666666664, "bike_id": "1825b8ccabc963ab494075f3a4d17376", "type": "electric_scooter", "is_reserved": 0, "lon": -76.99623033333333}, {"fusion_lat": 0.0, "name": "d02209ca769370dce251bbe144320f6d", "is_disabled": 0, "rental_uris": {"android": "https://dc.lft.to/lastmile_qr_scan", "ios": "https://dc.lft.to/lastmile_qr_scan"}, "fusion_lon": 0.0, "lat": 38.92511833333333, "bike_id": "d02209ca769370dce251bbe144320f6d", "type": "electric_scooter", "is_reserved": 0, "lon": -77.022825}, {"fusion_lat": 0.0, "name": "a8859deaf753aaafcc3ac3e236ca7fa9", "is_disabled": 0, "rental_uris": {"android": "https://dc.lft.to/lastmile_qr_scan", "ios": "https://dc.lft.to/lastmile_qr_scan"}, "fusion_lon": 0.0, "lat": 38.9357485, "bike_id": "a8859deaf753aaafcc3ac3e236ca7fa9", "type": "electric_scooter", "is_reserved": 0, "lon": -77.02841383333333}, {"fusion_lat": 0.0, "name": "bea2fb5862b536fc9371f14bcb3f9d18", "is_disabled": 0, "rental_uris": {"android": "https://dc.lft.to/lastmile_qr_scan", "ios": "https://dc.lft.to/lastmile_qr_scan"}, "fusion_lon": 0.0, "lat": 38.8876535, "bike_id": "bea2fb5862b536fc9371f14bcb3f9d18", "type": "electric_scooter", "is_reserved": 0, "lon": -77.03302466666666}, {"fusion_lat": 0.0, "name": "37a2e24d59c93b784c463e5cee0ab426", "is_disabled": 0, "rental_uris": {"android": "https://dc.lft.to/lastmile_qr_scan", "ios": "https://dc.lft.to/lastmile_qr_scan"}, "fusion_lon": 0.0, "lat": 38.90774483333333, "bike_id": "37a2e24d59c93b784c463e5cee0ab426", "type": "electric_scooter", "is_reserved": 0, "lon": -77.05602416666666}, {"fusion_lat": 0.0, "name": "8def115e7354f7a85a7385a2781c0195", "is_disabled": 0, "rental_uris": {"android": "https://dc.lft.to/lastmile_qr_scan", "ios": "https://dc.lft.to/lastmile_qr_scan"}, "fusion_lon": 0.0, "lat": 38.91217116666667, "bike_id": "8def115e7354f7a85a7385a2781c0195", "type": "electric_scooter", "is_reserved": 0, "lon": -77.03191466666667}, {"fusion_lat": 0.0, "name": "715f7057a56d892aad1903134c697fad", "is_disabled": 0, "rental_uris": {"android": "https://dc.lft.to/lastmile_qr_scan", "ios": "https://dc.lft.to/lastmile_qr_scan"}, "fusion_lon": 0.0, "lat": 38.95217316666667, "bike_id": "715f7057a56d892aad1903134c697fad", "type": "electric_scooter", "is_reserved": 0, "lon": -77.08216666666667}, {"fusion_lat": 0.0, "name": "98c95617e08ed1615da18720348dee33", "is_disabled": 0, "rental_uris": {"android": "https://dc.lft.to/lastmile_qr_scan", "ios": "https://dc.lft.to/lastmile_qr_scan"}, "fusion_lon": 0.0, "lat": 38.897196, "bike_id": "98c95617e08ed1615da18720348dee33", "type": "electric_scooter", "is_reserved": 0, "lon": -77.046238}, {"fusion_lat": 0.0, "name": "ce6a66ee3709ee71b3ade753c2d26d79", "is_disabled": 0, "rental_uris": {"android": "https://dc.lft.to/lastmile_qr_scan", "ios": "https://dc.lft.to/lastmile_qr_scan"}, "fusion_lon": 0.0, "lat": 38.87845466666667, "bike_id": "ce6a66ee3709ee71b3ade753c2d26d79", "type": "electric_bike", "is_reserved": 0, "lon": -77.03022816666666}, {"fusion_lat": 0.0, "name": "2cef8c1bdc6dbb0fdb7ddb6b6bbf2ffa", "is_disabled": 0, "rental_uris": {"android": "https://dc.lft.to/lastmile_qr_scan", "ios": "https://dc.lft.to/lastmile_qr_scan"}, "fusion_lon": 0.0, "lat": 38.908618, "bike_id": "2cef8c1bdc6dbb0fdb7ddb6b6bbf2ffa", "type": "electric_scooter", "is_reserved": 0, "lon": -77.04475216666667}, {"fusion_lat": 0.0, "name": "5b3dd26887205155b98bc193a5d8a40f", "is_disabled": 0, "rental_uris": {"android": "https://dc.lft.to/lastmile_qr_scan", "ios": "https://dc.lft.to/lastmile_qr_scan"}, "fusion_lon": 0.0, "lat": 38.9199135, "bike_id": "5b3dd26887205155b98bc193a5d8a40f", "type": "electric_scooter", "is_reserved": 0, "lon": -77.071899}, {"fusion_lat": 0.0, "name": "3b14267c512e90ae9d28edaf1e1fa783", "is_disabled": 0, "rental_uris": {"android": "https://dc.lft.to/lastmile_qr_scan", "ios": "https://dc.lft.to/lastmile_qr_scan"}, "fusion_lon": 0.0, "lat": 38.85409516666667, "bike_id": "3b14267c512e90ae9d28edaf1e1fa783", "type": "electric_bike", "is_reserved": 0, "lon": -77.120789}, {"fusion_lat": 0.0, "name": "29290770f4058d396d202d454ed7d685", "is_disabled": 0, "rental_uris": {"android": "https://dc.lft.to/lastmile_qr_scan", "ios": "https://dc.lft.to/lastmile_qr_scan"}, "fusion_lon": 0.0, "lat": 38.920807333333336, "bike_id": "29290770f4058d396d202d454ed7d685", "type": "electric_scooter", "is_reserved": 0, "lon": -76.994566}, {"fusion_lat": 0.0, "name": "b578164e75087397bc3dc791b6d0e22b", "is_disabled": 0, "rental_uris": {"android": "https://dc.lft.to/lastmile_qr_scan", "ios": "https://dc.lft.to/lastmile_qr_scan"}, "fusion_lon": 0.0, "lat": 38.972584833333336, "bike_id": "b578164e75087397bc3dc791b6d0e22b", "type": "electric_bike", "is_reserved": 0, "lon": -76.99277666666667}, {"fusion_lat": 0.0, "name": "9d9dc4aca4c4318a301fd87e5597a356", "is_disabled": 0, "rental_uris": {"android": "https://dc.lft.to/lastmile_qr_scan", "ios": "https://dc.lft.to/lastmile_qr_scan"}, "fusion_lon": 0.0, "lat": 38.88325066666667, "bike_id": "9d9dc4aca4c4318a301fd87e5597a356", "type": "electric_scooter", "is_reserved": 0, "lon": -77.0137795}, {"fusion_lat": 0.0, "name": "84d4ea55da27cd98bf97f47e9ac087f9", "is_disabled": 0, "rental_uris": {"android": "https://dc.lft.to/lastmile_qr_scan", "ios": "https://dc.lft.to/lastmile_qr_scan"}, "fusion_lon": 0.0, "lat": 38.9029395, "bike_id": "84d4ea55da27cd98bf97f47e9ac087f9", "type": "electric_scooter", "is_reserved": 0, "lon": -77.04382}, {"fusion_lat": 0.0, "name": "b9e94fadecf68838d38746a3d2177dd1", "is_disabled": 0, "rental_uris": {"android": "https://dc.lft.to/lastmile_qr_scan", "ios": "https://dc.lft.to/lastmile_qr_scan"}, "fusion_lon": 0.0, "lat": 38.923286833333336, "bike_id": "b9e94fadecf68838d38746a3d2177dd1", "type": "electric_scooter", "is_reserved": 0, "lon": -77.04121966666666}, {"fusion_lat": 0.0, "name": "7a34d7ea30c48ec7b1df345fa1b77716", "is_disabled": 0, "rental_uris": {"android": "https://dc.lft.to/lastmile_qr_scan", "ios": "https://dc.lft.to/lastmile_qr_scan"}, "fusion_lon": 0.0, "lat": 38.894502, "bike_id": "7a34d7ea30c48ec7b1df345fa1b77716", "type": "electric_scooter", "is_reserved": 0, "lon": -77.026881}, {"fusion_lat": 0.0, "name": "2bac844396d17234274df62690403b3a", "is_disabled": 0, "rental_uris": {"android": "https://dc.lft.to/lastmile_qr_scan", "ios": "https://dc.lft.to/lastmile_qr_scan"}, "fusion_lon": 0.0, "lat": 38.896929, "bike_id": "2bac844396d17234274df62690403b3a", "type": "electric_scooter", "is_reserved": 0, "lon": -77.051501}, {"fusion_lat": 0.0, "name": "aee37475088f467375bc43d86163a7dd", "is_disabled": 0, "rental_uris": {"android": "https://dc.lft.to/lastmile_qr_scan", "ios": "https://dc.lft.to/lastmile_qr_scan"}, "fusion_lon": 0.0, "lat": 38.906960166666664, "bike_id": "aee37475088f467375bc43d86163a7dd", "type": "electric_scooter", "is_reserved": 0, "lon": -77.06520483333334}, {"fusion_lat": 0.0, "name": "a3eb0cf543a0de260c69ca96f7984dd3", "is_disabled": 0, "rental_uris": {"android": "https://dc.lft.to/lastmile_qr_scan", "ios": "https://dc.lft.to/lastmile_qr_scan"}, "fusion_lon": 0.0, "lat": 38.92319666666667, "bike_id": "a3eb0cf543a0de260c69ca96f7984dd3", "type": "electric_scooter", "is_reserved": 0, "lon": -77.0296585}, {"fusion_lat": 0.0, "name": "09daf9a6331868c28e3f8f221a1e70f9", "is_disabled": 0, "rental_uris": {"android": "https://dc.lft.to/lastmile_qr_scan", "ios": "https://dc.lft.to/lastmile_qr_scan"}, "fusion_lon": 0.0, "lat": 39.03428816666667, "bike_id": "09daf9a6331868c28e3f8f221a1e70f9", "type": "electric_bike", "is_reserved": 0, "lon": -77.043055}, {"fusion_lat": 0.0, "name": "9672d61896be322d6d37a7db46865fd6", "is_disabled": 0, "rental_uris": {"android": "https://dc.lft.to/lastmile_qr_scan", "ios": "https://dc.lft.to/lastmile_qr_scan"}, "fusion_lon": 0.0, "lat": 38.924473, "bike_id": "9672d61896be322d6d37a7db46865fd6", "type": "electric_scooter", "is_reserved": 0, "lon": -77.008773}, {"fusion_lat": 0.0, "name": "32f4d4bfc9ffb296be32ef181ef8ee0b", "is_disabled": 0, "rental_uris": {"android": "https://dc.lft.to/lastmile_qr_scan", "ios": "https://dc.lft.to/lastmile_qr_scan"}, "fusion_lon": 0.0, "lat": 38.923973833333335, "bike_id": "32f4d4bfc9ffb296be32ef181ef8ee0b", "type": "electric_scooter", "is_reserved": 0, "lon": -77.036388}, {"fusion_lat": 0.0, "name": "e06f60ea34449dee08c5c17e8fdc396f", "is_disabled": 0, "rental_uris": {"android": "https://dc.lft.to/lastmile_qr_scan", "ios": "https://dc.lft.to/lastmile_qr_scan"}, "fusion_lon": 0.0, "lat": 38.91982333333333, "bike_id": "e06f60ea34449dee08c5c17e8fdc396f", "type": "electric_scooter", "is_reserved": 0, "lon": -77.023797}, {"fusion_lat": 0.0, "name": "381a15c6034288f50e7f5c2f4cd7cf9b", "is_disabled": 0, "rental_uris": {"android": "https://dc.lft.to/lastmile_qr_scan", "ios": "https://dc.lft.to/lastmile_qr_scan"}, "fusion_lon": 0.0, "lat": 38.90407883333334, "bike_id": "381a15c6034288f50e7f5c2f4cd7cf9b", "type": "electric_scooter", "is_reserved": 0, "lon": -76.97331733333333}, {"fusion_lat": 0.0, "name": "43727391d9d33a98a0e5a48c5a10f4a4", "is_disabled": 0, "rental_uris": {"android": "https://dc.lft.to/lastmile_qr_scan", "ios": "https://dc.lft.to/lastmile_qr_scan"}, "fusion_lon": 0.0, "lat": 38.8854845, "bike_id": "43727391d9d33a98a0e5a48c5a10f4a4", "type": "electric_scooter", "is_reserved": 0, "lon": -76.9977615}, {"fusion_lat": 0.0, "name": "70f6a76f7fe51d4f6ba7d3afa9bd49f8", "is_disabled": 0, "rental_uris": {"android": "https://dc.lft.to/lastmile_qr_scan", "ios": "https://dc.lft.to/lastmile_qr_scan"}, "fusion_lon": 0.0, "lat": 38.924314833333334, "bike_id": "70f6a76f7fe51d4f6ba7d3afa9bd49f8", "type": "electric_scooter", "is_reserved": 0, "lon": -77.00066883333334}, {"fusion_lat": 0.0, "name": "3b0937b2aaab11cc6e2ef82709a4496f", "is_disabled": 0, "rental_uris": {"android": "https://dc.lft.to/lastmile_qr_scan", "ios": "https://dc.lft.to/lastmile_qr_scan"}, "fusion_lon": 0.0, "lat": 38.9176805, "bike_id": "3b0937b2aaab11cc6e2ef82709a4496f", "type": "electric_scooter", "is_reserved": 0, "lon": -77.02287683333333}, {"fusion_lat": 0.0, "name": "e0328891dc9b1a2ef18a8e75763de38b", "is_disabled": 0, "rental_uris": {"android": "https://dc.lft.to/lastmile_qr_scan", "ios": "https://dc.lft.to/lastmile_qr_scan"}, "fusion_lon": 0.0, "lat": 38.9179305, "bike_id": "e0328891dc9b1a2ef18a8e75763de38b", "type": "electric_scooter", "is_reserved": 0, "lon": -77.04590033333334}, {"fusion_lat": 0.0, "name": "d3f5b14ea5bbc4abc054660d95c3e803", "is_disabled": 0, "rental_uris": {"android": "https://dc.lft.to/lastmile_qr_scan", "ios": "https://dc.lft.to/lastmile_qr_scan"}, "fusion_lon": 0.0, "lat": 38.877113333333334, "bike_id": "d3f5b14ea5bbc4abc054660d95c3e803", "type": "electric_scooter", "is_reserved": 0, "lon": -77.0176415}, {"fusion_lat": 0.0, "name": "a44c00966a48b50ec2e7e64f726a59bb", "is_disabled": 0, "rental_uris": {"android": "https://dc.lft.to/lastmile_qr_scan", "ios": "https://dc.lft.to/lastmile_qr_scan"}, "fusion_lon": 0.0, "lat": 38.92340516666667, "bike_id": "a44c00966a48b50ec2e7e64f726a59bb", "type": "electric_scooter", "is_reserved": 0, "lon": -77.05132133333333}, {"fusion_lat": 0.0, "name": "e3077260ad142350176570467c800727", "is_disabled": 0, "rental_uris": {"android": "https://dc.lft.to/lastmile_qr_scan", "ios": "https://dc.lft.to/lastmile_qr_scan"}, "fusion_lon": 0.0, "lat": 38.90777633333333, "bike_id": "e3077260ad142350176570467c800727", "type": "electric_scooter", "is_reserved": 0, "lon": -77.03863316666667}, {"fusion_lat": 0.0, "name": "b0555b56509105c98e32012537e70d20", "is_disabled": 0, "rental_uris": {"android": "https://dc.lft.to/lastmile_qr_scan", "ios": "https://dc.lft.to/lastmile_qr_scan"}, "fusion_lon": 0.0, "lat": 38.90120183333333, "bike_id": "b0555b56509105c98e32012537e70d20", "type": "electric_scooter", "is_reserved": 0, "lon": -77.04988383333334}, {"fusion_lat": 0.0, "name": "49a2e465477934761f5e9758d1c62f68", "is_disabled": 0, "rental_uris": {"android": "https://dc.lft.to/lastmile_qr_scan", "ios": "https://dc.lft.to/lastmile_qr_scan"}, "fusion_lon": 0.0, "lat": 38.93189133333333, "bike_id": "49a2e465477934761f5e9758d1c62f68", "type": "electric_scooter", "is_reserved": 0, "lon": -77.04300583333334}, {"fusion_lat": 0.0, "name": "8cdcad831e871c48f767507f3a12f242", "is_disabled": 0, "rental_uris": {"android": "https://dc.lft.to/lastmile_qr_scan", "ios": "https://dc.lft.to/lastmile_qr_scan"}, "fusion_lon": 0.0, "lat": 38.8971485, "bike_id": "8cdcad831e871c48f767507f3a12f242", "type": "electric_scooter", "is_reserved": 0, "lon": -77.0079475}, {"fusion_lat": 0.0, "name": "90760b0938743b2182a04f57cb83b834", "is_disabled": 0, "rental_uris": {"android": "https://dc.lft.to/lastmile_qr_scan", "ios": "https://dc.lft.to/lastmile_qr_scan"}, "fusion_lon": 0.0, "lat": 38.9042215, "bike_id": "90760b0938743b2182a04f57cb83b834", "type": "electric_scooter", "is_reserved": 0, "lon": -76.98177933333334}, {"fusion_lat": 0.0, "name": "798d36e9b86ccfb9ee22469a46b88ea6", "is_disabled": 0, "rental_uris": {"android": "https://dc.lft.to/lastmile_qr_scan", "ios": "https://dc.lft.to/lastmile_qr_scan"}, "fusion_lon": 0.0, "lat": 38.86683033333333, "bike_id": "798d36e9b86ccfb9ee22469a46b88ea6", "type": "electric_scooter", "is_reserved": 0, "lon": -76.98574283333333}, {"fusion_lat": 0.0, "name": "6cd553220c1661e8704c2d39e42a576e", "is_disabled": 0, "rental_uris": {"android": "https://dc.lft.to/lastmile_qr_scan", "ios": "https://dc.lft.to/lastmile_qr_scan"}, "fusion_lon": 0.0, "lat": 38.905712, "bike_id": "6cd553220c1661e8704c2d39e42a576e", "type": "electric_scooter", "is_reserved": 0, "lon": -77.0464295}, {"fusion_lat": 0.0, "name": "3a2730584637e478cfe7cbe5cc8faf98", "is_disabled": 0, "rental_uris": {"android": "https://dc.lft.to/lastmile_qr_scan", "ios": "https://dc.lft.to/lastmile_qr_scan"}, "fusion_lon": 0.0, "lat": 38.93537516666667, "bike_id": "3a2730584637e478cfe7cbe5cc8faf98", "type": "electric_scooter", "is_reserved": 0, "lon": -77.03266416666666}, {"fusion_lat": 0.0, "name": "a318d296bb1c6a67f1f222850dd0b57e", "is_disabled": 0, "rental_uris": {"android": "https://dc.lft.to/lastmile_qr_scan", "ios": "https://dc.lft.to/lastmile_qr_scan"}, "fusion_lon": 0.0, "lat": 38.90778433333333, "bike_id": "a318d296bb1c6a67f1f222850dd0b57e", "type": "electric_scooter", "is_reserved": 0, "lon": -77.03856416666666}, {"fusion_lat": 0.0, "name": "3bc7568dd4412e342184aa83719bc964", "is_disabled": 0, "rental_uris": {"android": "https://dc.lft.to/lastmile_qr_scan", "ios": "https://dc.lft.to/lastmile_qr_scan"}, "fusion_lon": 0.0, "lat": 38.92366916666667, "bike_id": "3bc7568dd4412e342184aa83719bc964", "type": "electric_scooter", "is_reserved": 0, "lon": -77.0213055}, {"fusion_lat": 0.0, "name": "d52fcca28d8a542653baa7fca401b7c4", "is_disabled": 0, "rental_uris": {"android": "https://dc.lft.to/lastmile_qr_scan", "ios": "https://dc.lft.to/lastmile_qr_scan"}, "fusion_lon": 0.0, "lat": 38.88336816666666, "bike_id": "d52fcca28d8a542653baa7fca401b7c4", "type": "electric_scooter", "is_reserved": 0, "lon": -77.01711233333333}, {"fusion_lat": 0.0, "name": "7a164bee5ae872ed7a149d165aa75d4e", "is_disabled": 0, "rental_uris": {"android": "https://dc.lft.to/lastmile_qr_scan", "ios": "https://dc.lft.to/lastmile_qr_scan"}, "fusion_lon": 0.0, "lat": 38.91326883333333, "bike_id": "7a164bee5ae872ed7a149d165aa75d4e", "type": "electric_scooter", "is_reserved": 0, "lon": -77.02138633333334}, {"fusion_lat": 0.0, "name": "4e6013f0f556bd5edac8144b9bdf57cd", "is_disabled": 0, "rental_uris": {"android": "https://dc.lft.to/lastmile_qr_scan", "ios": "https://dc.lft.to/lastmile_qr_scan"}, "fusion_lon": 0.0, "lat": 38.884675666666666, "bike_id": "4e6013f0f556bd5edac8144b9bdf57cd", "type": "electric_scooter", "is_reserved": 0, "lon": -77.01517933333334}, {"fusion_lat": 0.0, "name": "26c7524371f39df97b9a1dc71919cf69", "is_disabled": 0, "rental_uris": {"android": "https://dc.lft.to/lastmile_qr_scan", "ios": "https://dc.lft.to/lastmile_qr_scan"}, "fusion_lon": 0.0, "lat": 38.931974833333335, "bike_id": "26c7524371f39df97b9a1dc71919cf69", "type": "electric_scooter", "is_reserved": 0, "lon": -77.07330483333334}, {"fusion_lat": 0.0, "name": "19d710d9c9e1d884b97273ac7e60730f", "is_disabled": 0, "rental_uris": {"android": "https://dc.lft.to/lastmile_qr_scan", "ios": "https://dc.lft.to/lastmile_qr_scan"}, "fusion_lon": 0.0, "lat": 38.88493116666667, "bike_id": "19d710d9c9e1d884b97273ac7e60730f", "type": "electric_scooter", "is_reserved": 0, "lon": -77.01084633333333}, {"fusion_lat": 0.0, "name": "4c766366270e65019e19fd0de92ff188", "is_disabled": 0, "rental_uris": {"android": "https://dc.lft.to/lastmile_qr_scan", "ios": "https://dc.lft.to/lastmile_qr_scan"}, "fusion_lon": 0.0, "lat": 39.003781, "bike_id": "4c766366270e65019e19fd0de92ff188", "type": "electric_bike", "is_reserved": 0, "lon": -77.012805}, {"fusion_lat": 0.0, "name": "41b0639b6da706efbcb1f48d18049b85", "is_disabled": 0, "rental_uris": {"android": "https://dc.lft.to/lastmile_qr_scan", "ios": "https://dc.lft.to/lastmile_qr_scan"}, "fusion_lon": 0.0, "lat": 38.9001615, "bike_id": "41b0639b6da706efbcb1f48d18049b85", "type": "electric_scooter", "is_reserved": 0, "lon": -77.03192566666667}, {"fusion_lat": 0.0, "name": "2352becfa2f7c4791bd81d90094bcb10", "is_disabled": 0, "rental_uris": {"android": "https://dc.lft.to/lastmile_qr_scan", "ios": "https://dc.lft.to/lastmile_qr_scan"}, "fusion_lon": 0.0, "lat": 38.90791083333333, "bike_id": "2352becfa2f7c4791bd81d90094bcb10", "type": "electric_scooter", "is_reserved": 0, "lon": -77.034362}, {"fusion_lat": 0.0, "name": "5033fa77940a8ab87bdef99cc6bb3f32", "is_disabled": 0, "rental_uris": {"android": "https://dc.lft.to/lastmile_qr_scan", "ios": "https://dc.lft.to/lastmile_qr_scan"}, "fusion_lon": 0.0, "lat": 38.905679, "bike_id": "5033fa77940a8ab87bdef99cc6bb3f32", "type": "electric_scooter", "is_reserved": 0, "lon": -77.02195933333333}, {"fusion_lat": 0.0, "name": "8853c750f3c6f4f52ae18980e99fea65", "is_disabled": 0, "rental_uris": {"android": "https://dc.lft.to/lastmile_qr_scan", "ios": "https://dc.lft.to/lastmile_qr_scan"}, "fusion_lon": 0.0, "lat": 38.81329433333333, "bike_id": "8853c750f3c6f4f52ae18980e99fea65", "type": "electric_bike", "is_reserved": 0, "lon": -77.05088466666666}, {"fusion_lat": 0.0, "name": "7f3f472ffa7b9a9659d8df1ed36c55c7", "is_disabled": 0, "rental_uris": {"android": "https://dc.lft.to/lastmile_qr_scan", "ios": "https://dc.lft.to/lastmile_qr_scan"}, "fusion_lon": 0.0, "lat": 38.9319175, "bike_id": "7f3f472ffa7b9a9659d8df1ed36c55c7", "type": "electric_bike", "is_reserved": 0, "lon": -77.22927816666666}, {"fusion_lat": 0.0, "name": "8d19563a6c95d113e8671e73a42e26e3", "is_disabled": 0, "rental_uris": {"android": "https://dc.lft.to/lastmile_qr_scan", "ios": "https://dc.lft.to/lastmile_qr_scan"}, "fusion_lon": 0.0, "lat": 38.91422883333333, "bike_id": "8d19563a6c95d113e8671e73a42e26e3", "type": "electric_scooter", "is_reserved": 0, "lon": -77.0345825}, {"fusion_lat": 0.0, "name": "3638b346abeb846afe5cbc3914b8dd4a", "is_disabled": 0, "rental_uris": {"android": "https://dc.lft.to/lastmile_qr_scan", "ios": "https://dc.lft.to/lastmile_qr_scan"}, "fusion_lon": 0.0, "lat": 38.92479433333333, "bike_id": "3638b346abeb846afe5cbc3914b8dd4a", "type": "electric_scooter", "is_reserved": 0, "lon": -77.0262665}, {"fusion_lat": 0.0, "name": "d2b58b374b58f271f06bfb6f9a5d6efa", "is_disabled": 0, "rental_uris": {"android": "https://dc.lft.to/lastmile_qr_scan", "ios": "https://dc.lft.to/lastmile_qr_scan"}, "fusion_lon": 0.0, "lat": 38.920002333333336, "bike_id": "d2b58b374b58f271f06bfb6f9a5d6efa", "type": "electric_scooter", "is_reserved": 0, "lon": -77.03145766666667}, {"fusion_lat": 0.0, "name": "ac73cd52ca545256b93d296fd0df4148", "is_disabled": 0, "rental_uris": {"android": "https://dc.lft.to/lastmile_qr_scan", "ios": "https://dc.lft.to/lastmile_qr_scan"}, "fusion_lon": 0.0, "lat": 38.922417833333334, "bike_id": "ac73cd52ca545256b93d296fd0df4148", "type": "electric_scooter", "is_reserved": 0, "lon": -77.0747205}, {"fusion_lat": 0.0, "name": "4a6b4637e07d169673ba3cee60f67ebd", "is_disabled": 0, "rental_uris": {"android": "https://dc.lft.to/lastmile_qr_scan", "ios": "https://dc.lft.to/lastmile_qr_scan"}, "fusion_lon": 0.0, "lat": 38.935099, "bike_id": "4a6b4637e07d169673ba3cee60f67ebd", "type": "electric_scooter", "is_reserved": 0, "lon": -77.0325755}, {"fusion_lat": 0.0, "name": "17abad7f8c3a054ab7ac32745b62ef78", "is_disabled": 0, "rental_uris": {"android": "https://dc.lft.to/lastmile_qr_scan", "ios": "https://dc.lft.to/lastmile_qr_scan"}, "fusion_lon": 0.0, "lat": 38.92067266666667, "bike_id": "17abad7f8c3a054ab7ac32745b62ef78", "type": "electric_scooter", "is_reserved": 0, "lon": -77.04257383333334}, {"fusion_lat": 0.0, "name": "2947fde00b2a3980d7bef75237b27a75", "is_disabled": 0, "rental_uris": {"android": "https://dc.lft.to/lastmile_qr_scan", "ios": "https://dc.lft.to/lastmile_qr_scan"}, "fusion_lon": 0.0, "lat": 38.90027083333333, "bike_id": "2947fde00b2a3980d7bef75237b27a75", "type": "electric_scooter", "is_reserved": 0, "lon": -77.001976}, {"fusion_lat": 0.0, "name": "1eac176ef3430a569c50e452356a9943", "is_disabled": 0, "rental_uris": {"android": "https://dc.lft.to/lastmile_qr_scan", "ios": "https://dc.lft.to/lastmile_qr_scan"}, "fusion_lon": 0.0, "lat": 38.88316533333333, "bike_id": "1eac176ef3430a569c50e452356a9943", "type": "electric_scooter", "is_reserved": 0, "lon": -77.01784633333334}, {"fusion_lat": 0.0, "name": "573e779851832b8a38037c2e45b4f63d", "is_disabled": 0, "rental_uris": {"android": "https://dc.lft.to/lastmile_qr_scan", "ios": "https://dc.lft.to/lastmile_qr_scan"}, "fusion_lon": 0.0, "lat": 38.9022345, "bike_id": "573e779851832b8a38037c2e45b4f63d", "type": "electric_scooter", "is_reserved": 0, "lon": -77.05939916666667}, {"fusion_lat": 0.0, "name": "e61ca23d554965270835da11fa787e8a", "is_disabled": 0, "rental_uris": {"android": "https://dc.lft.to/lastmile_qr_scan", "ios": "https://dc.lft.to/lastmile_qr_scan"}, "fusion_lon": 0.0, "lat": 38.92327266666667, "bike_id": "e61ca23d554965270835da11fa787e8a", "type": "electric_scooter", "is_reserved": 0, "lon": -77.0351435}, {"fusion_lat": 0.0, "name": "19e0840a619ecbc21111b7b3c21ef876", "is_disabled": 0, "rental_uris": {"android": "https://dc.lft.to/lastmile_qr_scan", "ios": "https://dc.lft.to/lastmile_qr_scan"}, "fusion_lon": 0.0, "lat": 38.918030333333334, "bike_id": "19e0840a619ecbc21111b7b3c21ef876", "type": "electric_scooter", "is_reserved": 0, "lon": -77.04437383333334}, {"fusion_lat": 0.0, "name": "5ce094d1102562e9733dcfcb878fdc50", "is_disabled": 0, "rental_uris": {"android": "https://dc.lft.to/lastmile_qr_scan", "ios": "https://dc.lft.to/lastmile_qr_scan"}, "fusion_lon": 0.0, "lat": 38.91729333333333, "bike_id": "5ce094d1102562e9733dcfcb878fdc50", "type": "electric_scooter", "is_reserved": 0, "lon": -77.025012}, {"fusion_lat": 0.0, "name": "9047e9dc27f4d73daad8849bf269b612", "is_disabled": 0, "rental_uris": {"android": "https://dc.lft.to/lastmile_qr_scan", "ios": "https://dc.lft.to/lastmile_qr_scan"}, "fusion_lon": 0.0, "lat": 38.92079016666667, "bike_id": "9047e9dc27f4d73daad8849bf269b612", "type": "electric_bike", "is_reserved": 0, "lon": -76.98943983333334}, {"fusion_lat": 0.0, "name": "db35137cd00c0653640b2a22114ea428", "is_disabled": 0, "rental_uris": {"android": "https://dc.lft.to/lastmile_qr_scan", "ios": "https://dc.lft.to/lastmile_qr_scan"}, "fusion_lon": 0.0, "lat": 38.89486683333333, "bike_id": "db35137cd00c0653640b2a22114ea428", "type": "electric_scooter", "is_reserved": 0, "lon": -77.02166983333333}, {"fusion_lat": 0.0, "name": "39a5fcbd9a4f72fb19ada5d352d82b02", "is_disabled": 0, "rental_uris": {"android": "https://dc.lft.to/lastmile_qr_scan", "ios": "https://dc.lft.to/lastmile_qr_scan"}, "fusion_lon": 0.0, "lat": 38.9013725, "bike_id": "39a5fcbd9a4f72fb19ada5d352d82b02", "type": "electric_scooter", "is_reserved": 0, "lon": -77.04998683333334}, {"fusion_lat": 0.0, "name": "d7360f49b5af3ea558772e9e805c43e1", "is_disabled": 0, "rental_uris": {"android": "https://dc.lft.to/lastmile_qr_scan", "ios": "https://dc.lft.to/lastmile_qr_scan"}, "fusion_lon": 0.0, "lat": 38.937311666666666, "bike_id": "d7360f49b5af3ea558772e9e805c43e1", "type": "electric_scooter", "is_reserved": 0, "lon": -77.02443}, {"fusion_lat": 0.0, "name": "bbacff7e33c9e0a1910cf671510b15ad", "is_disabled": 0, "rental_uris": {"android": "https://dc.lft.to/lastmile_qr_scan", "ios": "https://dc.lft.to/lastmile_qr_scan"}, "fusion_lon": 0.0, "lat": 38.898279, "bike_id": "bbacff7e33c9e0a1910cf671510b15ad", "type": "electric_scooter", "is_reserved": 0, "lon": -77.0467905}, {"fusion_lat": 0.0, "name": "f30618186e4bf4df48a5cf904d2b550a", "is_disabled": 0, "rental_uris": {"android": "https://dc.lft.to/lastmile_qr_scan", "ios": "https://dc.lft.to/lastmile_qr_scan"}, "fusion_lon": 0.0, "lat": 38.94228483333333, "bike_id": "f30618186e4bf4df48a5cf904d2b550a", "type": "electric_scooter", "is_reserved": 0, "lon": -77.01383216666666}, {"fusion_lat": 0.0, "name": "268ca55f1ecb1338d578f6e561232007", "is_disabled": 0, "rental_uris": {"android": "https://dc.lft.to/lastmile_qr_scan", "ios": "https://dc.lft.to/lastmile_qr_scan"}, "fusion_lon": 0.0, "lat": 38.936474833333335, "bike_id": "268ca55f1ecb1338d578f6e561232007", "type": "electric_scooter", "is_reserved": 0, "lon": -77.030483}, {"fusion_lat": 0.0, "name": "cdae21fc20c41ad49030791d379bb207", "is_disabled": 0, "rental_uris": {"android": "https://dc.lft.to/lastmile_qr_scan", "ios": "https://dc.lft.to/lastmile_qr_scan"}, "fusion_lon": 0.0, "lat": 38.91316233333333, "bike_id": "cdae21fc20c41ad49030791d379bb207", "type": "electric_scooter", "is_reserved": 0, "lon": -77.03173283333334}, {"fusion_lat": 0.0, "name": "54b07b9c1b69b0f65ccb48bf63774bc8", "is_disabled": 0, "rental_uris": {"android": "https://dc.lft.to/lastmile_qr_scan", "ios": "https://dc.lft.to/lastmile_qr_scan"}, "fusion_lon": 0.0, "lat": 38.8852245, "bike_id": "54b07b9c1b69b0f65ccb48bf63774bc8", "type": "electric_scooter", "is_reserved": 0, "lon": -77.01500416666667}, {"fusion_lat": 0.0, "name": "b7a84679a1c1fdaa69397244e50f4359", "is_disabled": 0, "rental_uris": {"android": "https://dc.lft.to/lastmile_qr_scan", "ios": "https://dc.lft.to/lastmile_qr_scan"}, "fusion_lon": 0.0, "lat": 38.89791983333333, "bike_id": "b7a84679a1c1fdaa69397244e50f4359", "type": "electric_scooter", "is_reserved": 0, "lon": -77.010781}, {"fusion_lat": 0.0, "name": "9210defd5f3897f7333131e3e66866f7", "is_disabled": 0, "rental_uris": {"android": "https://dc.lft.to/lastmile_qr_scan", "ios": "https://dc.lft.to/lastmile_qr_scan"}, "fusion_lon": 0.0, "lat": 38.885032333333335, "bike_id": "9210defd5f3897f7333131e3e66866f7", "type": "electric_scooter", "is_reserved": 0, "lon": -77.006993}, {"fusion_lat": 0.0, "name": "ba85c7fddfc8ef3cba22785c5600e769", "is_disabled": 0, "rental_uris": {"android": "https://dc.lft.to/lastmile_qr_scan", "ios": "https://dc.lft.to/lastmile_qr_scan"}, "fusion_lon": 0.0, "lat": 38.88402583333333, "bike_id": "ba85c7fddfc8ef3cba22785c5600e769", "type": "electric_bike", "is_reserved": 0, "lon": -76.9605655}, {"fusion_lat": 0.0, "name": "7a5824f1e059ee98204a27bf23892f24", "is_disabled": 0, "rental_uris": {"android": "https://dc.lft.to/lastmile_qr_scan", "ios": "https://dc.lft.to/lastmile_qr_scan"}, "fusion_lon": 0.0, "lat": 38.920755666666665, "bike_id": "7a5824f1e059ee98204a27bf23892f24", "type": "electric_scooter", "is_reserved": 0, "lon": -77.02316133333333}, {"fusion_lat": 0.0, "name": "60c5ec7e316511dc22d2e5d6b966ca82", "is_disabled": 0, "rental_uris": {"android": "https://dc.lft.to/lastmile_qr_scan", "ios": "https://dc.lft.to/lastmile_qr_scan"}, "fusion_lon": 0.0, "lat": 38.92577166666667, "bike_id": "60c5ec7e316511dc22d2e5d6b966ca82", "type": "electric_scooter", "is_reserved": 0, "lon": -77.03229633333333}, {"fusion_lat": 0.0, "name": "b76c6e77d324817f00b39c0257663338", "is_disabled": 0, "rental_uris": {"android": "https://dc.lft.to/lastmile_qr_scan", "ios": "https://dc.lft.to/lastmile_qr_scan"}, "fusion_lon": 0.0, "lat": 38.86557033333333, "bike_id": "b76c6e77d324817f00b39c0257663338", "type": "electric_scooter", "is_reserved": 0, "lon": -76.98350866666667}, {"fusion_lat": 0.0, "name": "5c77f45503664f1b9468581cb2f500a9", "is_disabled": 0, "rental_uris": {"android": "https://dc.lft.to/lastmile_qr_scan", "ios": "https://dc.lft.to/lastmile_qr_scan"}, "fusion_lon": 0.0, "lat": 38.897249, "bike_id": "5c77f45503664f1b9468581cb2f500a9", "type": "electric_scooter", "is_reserved": 0, "lon": -76.94698266666667}, {"fusion_lat": 0.0, "name": "e52c8ffe59248de7e389ef53e459b480", "is_disabled": 0, "rental_uris": {"android": "https://dc.lft.to/lastmile_qr_scan", "ios": "https://dc.lft.to/lastmile_qr_scan"}, "fusion_lon": 0.0, "lat": 38.9234055, "bike_id": "e52c8ffe59248de7e389ef53e459b480", "type": "electric_scooter", "is_reserved": 0, "lon": -77.02446366666666}, {"fusion_lat": 0.0, "name": "f2d82fe41d3387a8ca281467aea18cec", "is_disabled": 0, "rental_uris": {"android": "https://dc.lft.to/lastmile_qr_scan", "ios": "https://dc.lft.to/lastmile_qr_scan"}, "fusion_lon": 0.0, "lat": 38.89532, "bike_id": "f2d82fe41d3387a8ca281467aea18cec", "type": "electric_scooter", "is_reserved": 0, "lon": -77.0265695}, {"fusion_lat": 0.0, "name": "20e7eb300ce7b406b708774d95b60a33", "is_disabled": 0, "rental_uris": {"android": "https://dc.lft.to/lastmile_qr_scan", "ios": "https://dc.lft.to/lastmile_qr_scan"}, "fusion_lon": 0.0, "lat": 38.90785433333333, "bike_id": "20e7eb300ce7b406b708774d95b60a33", "type": "electric_scooter", "is_reserved": 0, "lon": -77.01110916666667}, {"fusion_lat": 0.0, "name": "4b28a65cc01d6703d3fb11e0c8766fa0", "is_disabled": 0, "rental_uris": {"android": "https://dc.lft.to/lastmile_qr_scan", "ios": "https://dc.lft.to/lastmile_qr_scan"}, "fusion_lon": 0.0, "lat": 38.89695866666667, "bike_id": "4b28a65cc01d6703d3fb11e0c8766fa0", "type": "electric_scooter", "is_reserved": 0, "lon": -77.05144233333333}, {"fusion_lat": 0.0, "name": "500f3bc42c0a47fb169a1958b4fe8b0d", "is_disabled": 0, "rental_uris": {"android": "https://dc.lft.to/lastmile_qr_scan", "ios": "https://dc.lft.to/lastmile_qr_scan"}, "fusion_lon": 0.0, "lat": 38.902149333333334, "bike_id": "500f3bc42c0a47fb169a1958b4fe8b0d", "type": "electric_scooter", "is_reserved": 0, "lon": -77.02305316666667}, {"fusion_lat": 0.0, "name": "3f2fc8d5153df1f1b76388b060f288aa", "is_disabled": 0, "rental_uris": {"android": "https://dc.lft.to/lastmile_qr_scan", "ios": "https://dc.lft.to/lastmile_qr_scan"}, "fusion_lon": 0.0, "lat": 38.901115833333336, "bike_id": "3f2fc8d5153df1f1b76388b060f288aa", "type": "electric_scooter", "is_reserved": 0, "lon": -77.0523915}, {"fusion_lat": 0.0, "name": "a344dfc64dbd511d8a4c398c5f4986da", "is_disabled": 0, "rental_uris": {"android": "https://dc.lft.to/lastmile_qr_scan", "ios": "https://dc.lft.to/lastmile_qr_scan"}, "fusion_lon": 0.0, "lat": 38.896094166666664, "bike_id": "a344dfc64dbd511d8a4c398c5f4986da", "type": "electric_scooter", "is_reserved": 0, "lon": -76.94814266666667}, {"fusion_lat": 0.0, "name": "72dee8cbb69b3a516894db051c4b5c0e", "is_disabled": 0, "rental_uris": {"android": "https://dc.lft.to/lastmile_qr_scan", "ios": "https://dc.lft.to/lastmile_qr_scan"}, "fusion_lon": 0.0, "lat": 38.89829266666667, "bike_id": "72dee8cbb69b3a516894db051c4b5c0e", "type": "electric_scooter", "is_reserved": 0, "lon": -76.946304}, {"fusion_lat": 0.0, "name": "20b30be97a13f043a83c1e522be61010", "is_disabled": 0, "rental_uris": {"android": "https://dc.lft.to/lastmile_qr_scan", "ios": "https://dc.lft.to/lastmile_qr_scan"}, "fusion_lon": 0.0, "lat": 38.8832525, "bike_id": "20b30be97a13f043a83c1e522be61010", "type": "electric_scooter", "is_reserved": 0, "lon": -77.01773966666667}, {"fusion_lat": 0.0, "name": "fc965f5618fb2007b6f5af45ce6e8b24", "is_disabled": 0, "rental_uris": {"android": "https://dc.lft.to/lastmile_qr_scan", "ios": "https://dc.lft.to/lastmile_qr_scan"}, "fusion_lon": 0.0, "lat": 38.877532, "bike_id": "fc965f5618fb2007b6f5af45ce6e8b24", "type": "electric_scooter", "is_reserved": 0, "lon": -77.01430333333333}, {"fusion_lat": 0.0, "name": "f306b816d8d58e052cad7038c9ac8cb1", "is_disabled": 0, "rental_uris": {"android": "https://dc.lft.to/lastmile_qr_scan", "ios": "https://dc.lft.to/lastmile_qr_scan"}, "fusion_lon": 0.0, "lat": 38.87952466666667, "bike_id": "f306b816d8d58e052cad7038c9ac8cb1", "type": "electric_scooter", "is_reserved": 0, "lon": -76.99010583333333}, {"fusion_lat": 0.0, "name": "b362096bb397d02e3b067397a436e69c", "is_disabled": 0, "rental_uris": {"android": "https://dc.lft.to/lastmile_qr_scan", "ios": "https://dc.lft.to/lastmile_qr_scan"}, "fusion_lon": 0.0, "lat": 38.890005, "bike_id": "b362096bb397d02e3b067397a436e69c", "type": "electric_scooter", "is_reserved": 0, "lon": -76.937406}, {"fusion_lat": 0.0, "name": "21e284889261f1ea99c3a5e67fcc7f44", "is_disabled": 0, "rental_uris": {"android": "https://dc.lft.to/lastmile_qr_scan", "ios": "https://dc.lft.to/lastmile_qr_scan"}, "fusion_lon": 0.0, "lat": 38.9260115, "bike_id": "21e284889261f1ea99c3a5e67fcc7f44", "type": "electric_scooter", "is_reserved": 0, "lon": -77.02152716666667}, {"fusion_lat": 0.0, "name": "cee6d6cc936b79a3fb8b5afa0dbd3338", "is_disabled": 0, "rental_uris": {"android": "https://dc.lft.to/lastmile_qr_scan", "ios": "https://dc.lft.to/lastmile_qr_scan"}, "fusion_lon": 0.0, "lat": 38.9166175, "bike_id": "cee6d6cc936b79a3fb8b5afa0dbd3338", "type": "electric_scooter", "is_reserved": 0, "lon": -77.02811566666666}, {"fusion_lat": 0.0, "name": "5eed6a7c0947d7ea804d7b006d65ee4a", "is_disabled": 0, "rental_uris": {"android": "https://dc.lft.to/lastmile_qr_scan", "ios": "https://dc.lft.to/lastmile_qr_scan"}, "fusion_lon": 0.0, "lat": 38.87686016666667, "bike_id": "5eed6a7c0947d7ea804d7b006d65ee4a", "type": "electric_scooter", "is_reserved": 0, "lon": -77.0175565}, {"fusion_lat": 0.0, "name": "f0e02f8f97d10ee64073404689b9ade4", "is_disabled": 0, "rental_uris": {"android": "https://dc.lft.to/lastmile_qr_scan", "ios": "https://dc.lft.to/lastmile_qr_scan"}, "fusion_lon": 0.0, "lat": 38.82174416666667, "bike_id": "f0e02f8f97d10ee64073404689b9ade4", "type": "electric_bike", "is_reserved": 0, "lon": -76.99507166666666}, {"fusion_lat": 0.0, "name": "336934825350d4651d55be6b477d5d3f", "is_disabled": 0, "rental_uris": {"android": "https://dc.lft.to/lastmile_qr_scan", "ios": "https://dc.lft.to/lastmile_qr_scan"}, "fusion_lon": 0.0, "lat": 38.932608, "bike_id": "336934825350d4651d55be6b477d5d3f", "type": "electric_scooter", "is_reserved": 0, "lon": -77.02094016666666}, {"fusion_lat": 0.0, "name": "cf943c6fed5838a6a47c3e56ccda0919", "is_disabled": 0, "rental_uris": {"android": "https://dc.lft.to/lastmile_qr_scan", "ios": "https://dc.lft.to/lastmile_qr_scan"}, "fusion_lon": 0.0, "lat": 38.92092533333334, "bike_id": "cf943c6fed5838a6a47c3e56ccda0919", "type": "electric_scooter", "is_reserved": 0, "lon": -76.99460383333333}, {"fusion_lat": 0.0, "name": "ad28dd5729e1ee0accb9067062457b71", "is_disabled": 0, "rental_uris": {"android": "https://dc.lft.to/lastmile_qr_scan", "ios": "https://dc.lft.to/lastmile_qr_scan"}, "fusion_lon": 0.0, "lat": 38.9146865, "bike_id": "ad28dd5729e1ee0accb9067062457b71", "type": "electric_scooter", "is_reserved": 0, "lon": -77.04545266666666}, {"fusion_lat": 0.0, "name": "f190fbd726cfe31713a2e2b1309f2d39", "is_disabled": 0, "rental_uris": {"android": "https://dc.lft.to/lastmile_qr_scan", "ios": "https://dc.lft.to/lastmile_qr_scan"}, "fusion_lon": 0.0, "lat": 38.897141, "bike_id": "f190fbd726cfe31713a2e2b1309f2d39", "type": "electric_scooter", "is_reserved": 0, "lon": -77.04617616666667}, {"fusion_lat": 0.0, "name": "f6108775452e9cef402c9211b06551dd", "is_disabled": 0, "rental_uris": {"android": "https://dc.lft.to/lastmile_qr_scan", "ios": "https://dc.lft.to/lastmile_qr_scan"}, "fusion_lon": 0.0, "lat": 38.804473333333334, "bike_id": "f6108775452e9cef402c9211b06551dd", "type": "electric_bike", "is_reserved": 0, "lon": -77.0538555}, {"fusion_lat": 0.0, "name": "eed1d355add61fa408db10e725799481", "is_disabled": 0, "rental_uris": {"android": "https://dc.lft.to/lastmile_qr_scan", "ios": "https://dc.lft.to/lastmile_qr_scan"}, "fusion_lon": 0.0, "lat": 38.900224333333334, "bike_id": "eed1d355add61fa408db10e725799481", "type": "electric_scooter", "is_reserved": 0, "lon": -77.00187233333334}, {"fusion_lat": 0.0, "name": "5c7a05b67a2eac825a79a429dcb01d33", "is_disabled": 0, "rental_uris": {"android": "https://dc.lft.to/lastmile_qr_scan", "ios": "https://dc.lft.to/lastmile_qr_scan"}, "fusion_lon": 0.0, "lat": 38.92731883333333, "bike_id": "5c7a05b67a2eac825a79a429dcb01d33", "type": "electric_scooter", "is_reserved": 0, "lon": -77.03424066666666}, {"fusion_lat": 0.0, "name": "06ef608f5c06f1c253702321c1a7e571", "is_disabled": 0, "rental_uris": {"android": "https://dc.lft.to/lastmile_qr_scan", "ios": "https://dc.lft.to/lastmile_qr_scan"}, "fusion_lon": 0.0, "lat": 38.90407233333333, "bike_id": "06ef608f5c06f1c253702321c1a7e571", "type": "electric_scooter", "is_reserved": 0, "lon": -76.97331383333334}, {"fusion_lat": 0.0, "name": "4a456389a116c3db686241a1124c37a2", "is_disabled": 0, "rental_uris": {"android": "https://dc.lft.to/lastmile_qr_scan", "ios": "https://dc.lft.to/lastmile_qr_scan"}, "fusion_lon": 0.0, "lat": 38.89694683333333, "bike_id": "4a456389a116c3db686241a1124c37a2", "type": "electric_scooter", "is_reserved": 0, "lon": -77.029564}, {"fusion_lat": 0.0, "name": "f6cbd971f694049934ae5ab948df7daa", "is_disabled": 0, "rental_uris": {"android": "https://dc.lft.to/lastmile_qr_scan", "ios": "https://dc.lft.to/lastmile_qr_scan"}, "fusion_lon": 0.0, "lat": 38.8869575, "bike_id": "f6cbd971f694049934ae5ab948df7daa", "type": "electric_scooter", "is_reserved": 0, "lon": -77.00249633333334}, {"fusion_lat": 0.0, "name": "21c3ba9af2bb882cf6884e97f8359776", "is_disabled": 0, "rental_uris": {"android": "https://dc.lft.to/lastmile_qr_scan", "ios": "https://dc.lft.to/lastmile_qr_scan"}, "fusion_lon": 0.0, "lat": 38.92098216666667, "bike_id": "21c3ba9af2bb882cf6884e97f8359776", "type": "electric_scooter", "is_reserved": 0, "lon": -77.04678083333333}, {"fusion_lat": 0.0, "name": "4f7dd2f85b9f942a911d08f6147e82da", "is_disabled": 0, "rental_uris": {"android": "https://dc.lft.to/lastmile_qr_scan", "ios": "https://dc.lft.to/lastmile_qr_scan"}, "fusion_lon": 0.0, "lat": 38.924555166666664, "bike_id": "4f7dd2f85b9f942a911d08f6147e82da", "type": "electric_scooter", "is_reserved": 0, "lon": -77.02409866666666}, {"fusion_lat": 0.0, "name": "8e6a9c22bfaffd076d19fbb8a7aeac3e", "is_disabled": 0, "rental_uris": {"android": "https://dc.lft.to/lastmile_qr_scan", "ios": "https://dc.lft.to/lastmile_qr_scan"}, "fusion_lon": 0.0, "lat": 38.92027816666667, "bike_id": "8e6a9c22bfaffd076d19fbb8a7aeac3e", "type": "electric_scooter", "is_reserved": 0, "lon": -77.0306925}, {"fusion_lat": 0.0, "name": "b660400f3a8f64d97b612cbf866cbbaf", "is_disabled": 0, "rental_uris": {"android": "https://dc.lft.to/lastmile_qr_scan", "ios": "https://dc.lft.to/lastmile_qr_scan"}, "fusion_lon": 0.0, "lat": 38.91123233333333, "bike_id": "b660400f3a8f64d97b612cbf866cbbaf", "type": "electric_scooter", "is_reserved": 0, "lon": -77.02193466666667}, {"fusion_lat": 0.0, "name": "f49559ccda6394afb6310b67517a2a89", "is_disabled": 0, "rental_uris": {"android": "https://dc.lft.to/lastmile_qr_scan", "ios": "https://dc.lft.to/lastmile_qr_scan"}, "fusion_lon": 0.0, "lat": 38.90873066666666, "bike_id": "f49559ccda6394afb6310b67517a2a89", "type": "electric_scooter", "is_reserved": 0, "lon": -77.04412583333334}, {"fusion_lat": 0.0, "name": "576af7dd05ff04dcfcbebc0bfaf992ff", "is_disabled": 0, "rental_uris": {"android": "https://dc.lft.to/lastmile_qr_scan", "ios": "https://dc.lft.to/lastmile_qr_scan"}, "fusion_lon": 0.0, "lat": 38.842768, "bike_id": "576af7dd05ff04dcfcbebc0bfaf992ff", "type": "electric_bike", "is_reserved": 0, "lon": -76.98841983333334}, {"fusion_lat": 0.0, "name": "9c643d34cb0bc9e408abaf752b00b84c", "is_disabled": 0, "rental_uris": {"android": "https://dc.lft.to/lastmile_qr_scan", "ios": "https://dc.lft.to/lastmile_qr_scan"}, "fusion_lon": 0.0, "lat": 38.92062416666667, "bike_id": "9c643d34cb0bc9e408abaf752b00b84c", "type": "electric_scooter", "is_reserved": 0, "lon": -77.02852883333334}, {"fusion_lat": 0.0, "name": "865decd2ce9413f49a8f06d09643f5ea", "is_disabled": 0, "rental_uris": {"android": "https://dc.lft.to/lastmile_qr_scan", "ios": "https://dc.lft.to/lastmile_qr_scan"}, "fusion_lon": 0.0, "lat": 38.9181275, "bike_id": "865decd2ce9413f49a8f06d09643f5ea", "type": "electric_scooter", "is_reserved": 0, "lon": -77.032762}, {"fusion_lat": 0.0, "name": "4ce90064394279231dcee62c6e07e779", "is_disabled": 0, "rental_uris": {"android": "https://dc.lft.to/lastmile_qr_scan", "ios": "https://dc.lft.to/lastmile_qr_scan"}, "fusion_lon": 0.0, "lat": 38.92259216666667, "bike_id": "4ce90064394279231dcee62c6e07e779", "type": "electric_bike", "is_reserved": 0, "lon": -77.0703005}, {"fusion_lat": 0.0, "name": "dbf6d12a2f54e305ed257f53b7425fda", "is_disabled": 0, "rental_uris": {"android": "https://dc.lft.to/lastmile_qr_scan", "ios": "https://dc.lft.to/lastmile_qr_scan"}, "fusion_lon": 0.0, "lat": 38.920758, "bike_id": "dbf6d12a2f54e305ed257f53b7425fda", "type": "electric_scooter", "is_reserved": 0, "lon": -77.02314583333333}, {"fusion_lat": 0.0, "name": "d17e5017ef23e843836c0c1a931e5e37", "is_disabled": 0, "rental_uris": {"android": "https://dc.lft.to/lastmile_qr_scan", "ios": "https://dc.lft.to/lastmile_qr_scan"}, "fusion_lon": 0.0, "lat": 38.916485333333334, "bike_id": "d17e5017ef23e843836c0c1a931e5e37", "type": "electric_scooter", "is_reserved": 0, "lon": -77.041922}, {"fusion_lat": 0.0, "name": "9da62c536fc34088570461ec95103ec8", "is_disabled": 0, "rental_uris": {"android": "https://dc.lft.to/lastmile_qr_scan", "ios": "https://dc.lft.to/lastmile_qr_scan"}, "fusion_lon": 0.0, "lat": 38.9209195, "bike_id": "9da62c536fc34088570461ec95103ec8", "type": "electric_scooter", "is_reserved": 0, "lon": -77.0393765}, {"fusion_lat": 0.0, "name": "20972a5e1581ef91b58a14dd5a00795b", "is_disabled": 0, "rental_uris": {"android": "https://dc.lft.to/lastmile_qr_scan", "ios": "https://dc.lft.to/lastmile_qr_scan"}, "fusion_lon": 0.0, "lat": 38.9345825, "bike_id": "20972a5e1581ef91b58a14dd5a00795b", "type": "electric_scooter", "is_reserved": 0, "lon": -77.05777133333333}, {"fusion_lat": 0.0, "name": "183fb22cbf09b9fb85067d2c582c5f5a", "is_disabled": 0, "rental_uris": {"android": "https://dc.lft.to/lastmile_qr_scan", "ios": "https://dc.lft.to/lastmile_qr_scan"}, "fusion_lon": 0.0, "lat": 38.89730266666667, "bike_id": "183fb22cbf09b9fb85067d2c582c5f5a", "type": "electric_scooter", "is_reserved": 0, "lon": -77.03184766666666}, {"fusion_lat": 0.0, "name": "81527761649302d8f647eeca1ca22345", "is_disabled": 0, "rental_uris": {"android": "https://dc.lft.to/lastmile_qr_scan", "ios": "https://dc.lft.to/lastmile_qr_scan"}, "fusion_lon": 0.0, "lat": 38.935296666666666, "bike_id": "81527761649302d8f647eeca1ca22345", "type": "electric_scooter", "is_reserved": 0, "lon": -77.023423}, {"fusion_lat": 0.0, "name": "a25b4ec4ec0f2c001e29fe846d9d0391", "is_disabled": 0, "rental_uris": {"android": "https://dc.lft.to/lastmile_qr_scan", "ios": "https://dc.lft.to/lastmile_qr_scan"}, "fusion_lon": 0.0, "lat": 38.91226866666667, "bike_id": "a25b4ec4ec0f2c001e29fe846d9d0391", "type": "electric_scooter", "is_reserved": 0, "lon": -77.04859333333333}, {"fusion_lat": 0.0, "name": "0e322abd72b3f85d3cc1f71c8629c865", "is_disabled": 0, "rental_uris": {"android": "https://dc.lft.to/lastmile_qr_scan", "ios": "https://dc.lft.to/lastmile_qr_scan"}, "fusion_lon": 0.0, "lat": 38.92338983333333, "bike_id": "0e322abd72b3f85d3cc1f71c8629c865", "type": "electric_scooter", "is_reserved": 0, "lon": -77.02438366666667}, {"fusion_lat": 0.0, "name": "12fb1493174e0c258bde448981b375f5", "is_disabled": 0, "rental_uris": {"android": "https://dc.lft.to/lastmile_qr_scan", "ios": "https://dc.lft.to/lastmile_qr_scan"}, "fusion_lon": 0.0, "lat": 38.909740166666666, "bike_id": "12fb1493174e0c258bde448981b375f5", "type": "electric_scooter", "is_reserved": 0, "lon": -77.03862233333334}, {"fusion_lat": 0.0, "name": "46fa22872b41b4903426bf3914a7cbb9", "is_disabled": 0, "rental_uris": {"android": "https://dc.lft.to/lastmile_qr_scan", "ios": "https://dc.lft.to/lastmile_qr_scan"}, "fusion_lon": 0.0, "lat": 38.933688, "bike_id": "46fa22872b41b4903426bf3914a7cbb9", "type": "electric_scooter", "is_reserved": 0, "lon": -77.03078933333333}, {"fusion_lat": 0.0, "name": "b162346b2d6103fc02064955b5d04265", "is_disabled": 0, "rental_uris": {"android": "https://dc.lft.to/lastmile_qr_scan", "ios": "https://dc.lft.to/lastmile_qr_scan"}, "fusion_lon": 0.0, "lat": 38.9006325, "bike_id": "b162346b2d6103fc02064955b5d04265", "type": "electric_scooter", "is_reserved": 0, "lon": -77.056304}, {"fusion_lat": 0.0, "name": "c282926437fd3db5a063ccf4b5c235fb", "is_disabled": 0, "rental_uris": {"android": "https://dc.lft.to/lastmile_qr_scan", "ios": "https://dc.lft.to/lastmile_qr_scan"}, "fusion_lon": 0.0, "lat": 38.9483645, "bike_id": "c282926437fd3db5a063ccf4b5c235fb", "type": "electric_scooter", "is_reserved": 0, "lon": -77.02561666666666}, {"fusion_lat": 0.0, "name": "5cc4d86ec07bd41cb89681c05f5204b8", "is_disabled": 0, "rental_uris": {"android": "https://dc.lft.to/lastmile_qr_scan", "ios": "https://dc.lft.to/lastmile_qr_scan"}, "fusion_lon": 0.0, "lat": 38.91897866666667, "bike_id": "5cc4d86ec07bd41cb89681c05f5204b8", "type": "electric_scooter", "is_reserved": 0, "lon": -77.02754716666666}, {"fusion_lat": 0.0, "name": "92bdaac1d17eddd1eb45495a765c87f8", "is_disabled": 0, "rental_uris": {"android": "https://dc.lft.to/lastmile_qr_scan", "ios": "https://dc.lft.to/lastmile_qr_scan"}, "fusion_lon": 0.0, "lat": 38.92250683333333, "bike_id": "92bdaac1d17eddd1eb45495a765c87f8", "type": "electric_scooter", "is_reserved": 0, "lon": -77.02977933333334}, {"fusion_lat": 0.0, "name": "2d7b50b00263c6b59693238dcbaae56e", "is_disabled": 0, "rental_uris": {"android": "https://dc.lft.to/lastmile_qr_scan", "ios": "https://dc.lft.to/lastmile_qr_scan"}, "fusion_lon": 0.0, "lat": 38.917047833333335, "bike_id": "2d7b50b00263c6b59693238dcbaae56e", "type": "electric_scooter", "is_reserved": 0, "lon": -77.0417535}, {"fusion_lat": 0.0, "name": "d3f89ca03cece8c6b84294d834cc65a5", "is_disabled": 0, "rental_uris": {"android": "https://dc.lft.to/lastmile_qr_scan", "ios": "https://dc.lft.to/lastmile_qr_scan"}, "fusion_lon": 0.0, "lat": 38.79468033333333, "bike_id": "d3f89ca03cece8c6b84294d834cc65a5", "type": "electric_bike", "is_reserved": 0, "lon": -76.99248566666667}, {"fusion_lat": 0.0, "name": "f7d5010272633e1f731f1ff76b1f4703", "is_disabled": 0, "rental_uris": {"android": "https://dc.lft.to/lastmile_qr_scan", "ios": "https://dc.lft.to/lastmile_qr_scan"}, "fusion_lon": 0.0, "lat": 38.90032383333333, "bike_id": "f7d5010272633e1f731f1ff76b1f4703", "type": "electric_scooter", "is_reserved": 0, "lon": -77.05820866666667}, {"fusion_lat": 0.0, "name": "57bb3dcbfd96633ee2dae2583a466b15", "is_disabled": 0, "rental_uris": {"android": "https://dc.lft.to/lastmile_qr_scan", "ios": "https://dc.lft.to/lastmile_qr_scan"}, "fusion_lon": 0.0, "lat": 38.892932, "bike_id": "57bb3dcbfd96633ee2dae2583a466b15", "type": "electric_scooter", "is_reserved": 0, "lon": -77.02141366666666}, {"fusion_lat": 0.0, "name": "83f54d4de2d4b0f15396a4f9609f9f1c", "is_disabled": 0, "rental_uris": {"android": "https://dc.lft.to/lastmile_qr_scan", "ios": "https://dc.lft.to/lastmile_qr_scan"}, "fusion_lon": 0.0, "lat": 38.946598, "bike_id": "83f54d4de2d4b0f15396a4f9609f9f1c", "type": "electric_bike", "is_reserved": 0, "lon": -76.9566815}, {"fusion_lat": 0.0, "name": "88c982883b721b441127d8daff4d5456", "is_disabled": 0, "rental_uris": {"android": "https://dc.lft.to/lastmile_qr_scan", "ios": "https://dc.lft.to/lastmile_qr_scan"}, "fusion_lon": 0.0, "lat": 38.920938666666665, "bike_id": "88c982883b721b441127d8daff4d5456", "type": "electric_scooter", "is_reserved": 0, "lon": -77.04683816666666}, {"fusion_lat": 0.0, "name": "7732553d713e65a0d1e710ae48ce8a47", "is_disabled": 0, "rental_uris": {"android": "https://dc.lft.to/lastmile_qr_scan", "ios": "https://dc.lft.to/lastmile_qr_scan"}, "fusion_lon": 0.0, "lat": 38.898984166666665, "bike_id": "7732553d713e65a0d1e710ae48ce8a47", "type": "electric_scooter", "is_reserved": 0, "lon": -76.93367416666666}, {"fusion_lat": 0.0, "name": "0d412182396e826c84ddd92071c22331", "is_disabled": 0, "rental_uris": {"android": "https://dc.lft.to/lastmile_qr_scan", "ios": "https://dc.lft.to/lastmile_qr_scan"}, "fusion_lon": 0.0, "lat": 38.8977835, "bike_id": "0d412182396e826c84ddd92071c22331", "type": "electric_scooter", "is_reserved": 0, "lon": -77.046621}, {"fusion_lat": 0.0, "name": "f9eaf2baaf793f691bca9485045c494d", "is_disabled": 0, "rental_uris": {"android": "https://dc.lft.to/lastmile_qr_scan", "ios": "https://dc.lft.to/lastmile_qr_scan"}, "fusion_lon": 0.0, "lat": 38.9166515, "bike_id": "f9eaf2baaf793f691bca9485045c494d", "type": "electric_scooter", "is_reserved": 0, "lon": -77.028216}, {"fusion_lat": 0.0, "name": "803b147bb47e7f76d9b52eb5c59c1329", "is_disabled": 0, "rental_uris": {"android": "https://dc.lft.to/lastmile_qr_scan", "ios": "https://dc.lft.to/lastmile_qr_scan"}, "fusion_lon": 0.0, "lat": 38.90175216666667, "bike_id": "803b147bb47e7f76d9b52eb5c59c1329", "type": "electric_scooter", "is_reserved": 0, "lon": -77.0160485}, {"fusion_lat": 0.0, "name": "cdf57e9823c405f455be316644e826bb", "is_disabled": 0, "rental_uris": {"android": "https://dc.lft.to/lastmile_qr_scan", "ios": "https://dc.lft.to/lastmile_qr_scan"}, "fusion_lon": 0.0, "lat": 38.9241105, "bike_id": "cdf57e9823c405f455be316644e826bb", "type": "electric_scooter", "is_reserved": 0, "lon": -77.0445575}, {"fusion_lat": 0.0, "name": "48a4b64c22d10977094e837239826136", "is_disabled": 0, "rental_uris": {"android": "https://dc.lft.to/lastmile_qr_scan", "ios": "https://dc.lft.to/lastmile_qr_scan"}, "fusion_lon": 0.0, "lat": 38.878702833333335, "bike_id": "48a4b64c22d10977094e837239826136", "type": "electric_scooter", "is_reserved": 0, "lon": -77.0222085}, {"fusion_lat": 0.0, "name": "3d87eb3fcfc8e11fd516f03eaf526f3b", "is_disabled": 0, "rental_uris": {"android": "https://dc.lft.to/lastmile_qr_scan", "ios": "https://dc.lft.to/lastmile_qr_scan"}, "fusion_lon": 0.0, "lat": 38.89616483333333, "bike_id": "3d87eb3fcfc8e11fd516f03eaf526f3b", "type": "electric_bike", "is_reserved": 0, "lon": -76.90740983333333}, {"fusion_lat": 0.0, "name": "f05c8759e41263cf7600ac45c55f5531", "is_disabled": 0, "rental_uris": {"android": "https://dc.lft.to/lastmile_qr_scan", "ios": "https://dc.lft.to/lastmile_qr_scan"}, "fusion_lon": 0.0, "lat": 38.941136166666666, "bike_id": "f05c8759e41263cf7600ac45c55f5531", "type": "electric_scooter", "is_reserved": 0, "lon": -77.02533366666667}, {"fusion_lat": 0.0, "name": "fa58d76b9432673e50c012fccb6b79b4", "is_disabled": 0, "rental_uris": {"android": "https://dc.lft.to/lastmile_qr_scan", "ios": "https://dc.lft.to/lastmile_qr_scan"}, "fusion_lon": 0.0, "lat": 38.92671216666667, "bike_id": "fa58d76b9432673e50c012fccb6b79b4", "type": "electric_scooter", "is_reserved": 0, "lon": -77.01479833333333}, {"fusion_lat": 0.0, "name": "2ab14120dc8762d2f467dc57b3b4a8cc", "is_disabled": 0, "rental_uris": {"android": "https://dc.lft.to/lastmile_qr_scan", "ios": "https://dc.lft.to/lastmile_qr_scan"}, "fusion_lon": 0.0, "lat": 38.92338483333333, "bike_id": "2ab14120dc8762d2f467dc57b3b4a8cc", "type": "electric_scooter", "is_reserved": 0, "lon": -77.05298416666666}, {"fusion_lat": 0.0, "name": "49491fb481e9f43b56f11e2db934b1f0", "is_disabled": 0, "rental_uris": {"android": "https://dc.lft.to/lastmile_qr_scan", "ios": "https://dc.lft.to/lastmile_qr_scan"}, "fusion_lon": 0.0, "lat": 38.931443, "bike_id": "49491fb481e9f43b56f11e2db934b1f0", "type": "electric_scooter", "is_reserved": 0, "lon": -77.0298755}, {"fusion_lat": 0.0, "name": "528978f843c6897a36ff55346a5012b7", "is_disabled": 0, "rental_uris": {"android": "https://dc.lft.to/lastmile_qr_scan", "ios": "https://dc.lft.to/lastmile_qr_scan"}, "fusion_lon": 0.0, "lat": 38.927444666666666, "bike_id": "528978f843c6897a36ff55346a5012b7", "type": "electric_scooter", "is_reserved": 0, "lon": -77.02533883333334}, {"fusion_lat": 0.0, "name": "cf3af35ee777941fd2d55dda94aa95df", "is_disabled": 0, "rental_uris": {"android": "https://dc.lft.to/lastmile_qr_scan", "ios": "https://dc.lft.to/lastmile_qr_scan"}, "fusion_lon": 0.0, "lat": 38.89835766666667, "bike_id": "cf3af35ee777941fd2d55dda94aa95df", "type": "electric_scooter", "is_reserved": 0, "lon": -77.04150933333334}, {"fusion_lat": 0.0, "name": "d310085e721fceac74257b01e400470f", "is_disabled": 0, "rental_uris": {"android": "https://dc.lft.to/lastmile_qr_scan", "ios": "https://dc.lft.to/lastmile_qr_scan"}, "fusion_lon": 0.0, "lat": 38.93118583333333, "bike_id": "d310085e721fceac74257b01e400470f", "type": "electric_scooter", "is_reserved": 0, "lon": -77.03035216666666}, {"fusion_lat": 0.0, "name": "264f0425a754c9ddb6676e5c97dd8a66", "is_disabled": 0, "rental_uris": {"android": "https://dc.lft.to/lastmile_qr_scan", "ios": "https://dc.lft.to/lastmile_qr_scan"}, "fusion_lon": 0.0, "lat": 38.942291, "bike_id": "264f0425a754c9ddb6676e5c97dd8a66", "type": "electric_bike", "is_reserved": 0, "lon": -77.013849}, {"fusion_lat": 0.0, "name": "a1f5d1ae9b666660a63c20925f86afe9", "is_disabled": 0, "rental_uris": {"android": "https://dc.lft.to/lastmile_qr_scan", "ios": "https://dc.lft.to/lastmile_qr_scan"}, "fusion_lon": 0.0, "lat": 38.892845, "bike_id": "a1f5d1ae9b666660a63c20925f86afe9", "type": "electric_scooter", "is_reserved": 0, "lon": -76.98304033333334}, {"fusion_lat": 0.0, "name": "ad7355c0d54ec429b64593bfe264056a", "is_disabled": 0, "rental_uris": {"android": "https://dc.lft.to/lastmile_qr_scan", "ios": "https://dc.lft.to/lastmile_qr_scan"}, "fusion_lon": 0.0, "lat": 38.927838666666666, "bike_id": "ad7355c0d54ec429b64593bfe264056a", "type": "electric_scooter", "is_reserved": 0, "lon": -77.03214166666666}, {"fusion_lat": 0.0, "name": "5323ceeb8b17c1a5242ab8d23e9e2c55", "is_disabled": 0, "rental_uris": {"android": "https://dc.lft.to/lastmile_qr_scan", "ios": "https://dc.lft.to/lastmile_qr_scan"}, "fusion_lon": 0.0, "lat": 38.920442666666666, "bike_id": "5323ceeb8b17c1a5242ab8d23e9e2c55", "type": "electric_scooter", "is_reserved": 0, "lon": -77.00201483333333}, {"fusion_lat": 0.0, "name": "3a0217c579a02d4b419dee05a864a332", "is_disabled": 0, "rental_uris": {"android": "https://dc.lft.to/lastmile_qr_scan", "ios": "https://dc.lft.to/lastmile_qr_scan"}, "fusion_lon": 0.0, "lat": 38.914149, "bike_id": "3a0217c579a02d4b419dee05a864a332", "type": "electric_scooter", "is_reserved": 0, "lon": -77.02213716666667}, {"fusion_lat": 0.0, "name": "8ff2077f8052ecc5bc13363addc26ee4", "is_disabled": 0, "rental_uris": {"android": "https://dc.lft.to/lastmile_qr_scan", "ios": "https://dc.lft.to/lastmile_qr_scan"}, "fusion_lon": 0.0, "lat": 38.92502183333333, "bike_id": "8ff2077f8052ecc5bc13363addc26ee4", "type": "electric_scooter", "is_reserved": 0, "lon": -77.021427}, {"fusion_lat": 0.0, "name": "195ab1ddd5f5e366677e09d313e1bdcd", "is_disabled": 0, "rental_uris": {"android": "https://dc.lft.to/lastmile_qr_scan", "ios": "https://dc.lft.to/lastmile_qr_scan"}, "fusion_lon": 0.0, "lat": 38.918342, "bike_id": "195ab1ddd5f5e366677e09d313e1bdcd", "type": "electric_scooter", "is_reserved": 0, "lon": -77.03517166666667}, {"fusion_lat": 0.0, "name": "130ee074694cb224c2e832bc3955e240", "is_disabled": 0, "rental_uris": {"android": "https://dc.lft.to/lastmile_qr_scan", "ios": "https://dc.lft.to/lastmile_qr_scan"}, "fusion_lon": 0.0, "lat": 38.90825866666667, "bike_id": "130ee074694cb224c2e832bc3955e240", "type": "electric_scooter", "is_reserved": 0, "lon": -76.98264333333333}, {"fusion_lat": 0.0, "name": "9498b4891bf86764e3adee4bb52a3414", "is_disabled": 0, "rental_uris": {"android": "https://dc.lft.to/lastmile_qr_scan", "ios": "https://dc.lft.to/lastmile_qr_scan"}, "fusion_lon": 0.0, "lat": 38.917555166666666, "bike_id": "9498b4891bf86764e3adee4bb52a3414", "type": "electric_scooter", "is_reserved": 0, "lon": -77.036427}, {"fusion_lat": 0.0, "name": "dd737f41cfcce9854fee33252446463c", "is_disabled": 0, "rental_uris": {"android": "https://dc.lft.to/lastmile_qr_scan", "ios": "https://dc.lft.to/lastmile_qr_scan"}, "fusion_lon": 0.0, "lat": 38.919587, "bike_id": "dd737f41cfcce9854fee33252446463c", "type": "electric_scooter", "is_reserved": 0, "lon": -77.07091083333333}, {"fusion_lat": 0.0, "name": "7d8851567bd17076ca00d5fd77865e52", "is_disabled": 0, "rental_uris": {"android": "https://dc.lft.to/lastmile_qr_scan", "ios": "https://dc.lft.to/lastmile_qr_scan"}, "fusion_lon": 0.0, "lat": 38.91559633333333, "bike_id": "7d8851567bd17076ca00d5fd77865e52", "type": "electric_scooter", "is_reserved": 0, "lon": -77.03849783333334}, {"fusion_lat": 0.0, "name": "a058875eea71874c90cc75fbf8e56c67", "is_disabled": 0, "rental_uris": {"android": "https://dc.lft.to/lastmile_qr_scan", "ios": "https://dc.lft.to/lastmile_qr_scan"}, "fusion_lon": 0.0, "lat": 38.93592316666667, "bike_id": "a058875eea71874c90cc75fbf8e56c67", "type": "electric_scooter", "is_reserved": 0, "lon": -77.02282366666667}, {"fusion_lat": 0.0, "name": "dee175d2d44ba6592db5e3a41d121128", "is_disabled": 0, "rental_uris": {"android": "https://dc.lft.to/lastmile_qr_scan", "ios": "https://dc.lft.to/lastmile_qr_scan"}, "fusion_lon": 0.0, "lat": 38.8616275, "bike_id": "dee175d2d44ba6592db5e3a41d121128", "type": "electric_scooter", "is_reserved": 0, "lon": -76.98365633333333}, {"fusion_lat": 0.0, "name": "15cfb64c6f2718fb2ef704f1cc353ac8", "is_disabled": 0, "rental_uris": {"android": "https://dc.lft.to/lastmile_qr_scan", "ios": "https://dc.lft.to/lastmile_qr_scan"}, "fusion_lon": 0.0, "lat": 38.920376833333336, "bike_id": "15cfb64c6f2718fb2ef704f1cc353ac8", "type": "electric_scooter", "is_reserved": 0, "lon": -77.03148866666666}, {"fusion_lat": 0.0, "name": "0a4b407d04f8959a5764ce5c4fe1df05", "is_disabled": 0, "rental_uris": {"android": "https://dc.lft.to/lastmile_qr_scan", "ios": "https://dc.lft.to/lastmile_qr_scan"}, "fusion_lon": 0.0, "lat": 38.912918833333336, "bike_id": "0a4b407d04f8959a5764ce5c4fe1df05", "type": "electric_scooter", "is_reserved": 0, "lon": -77.0486815}, {"fusion_lat": 0.0, "name": "8104b858e226e79bf0b88238139a56ad", "is_disabled": 0, "rental_uris": {"android": "https://dc.lft.to/lastmile_qr_scan", "ios": "https://dc.lft.to/lastmile_qr_scan"}, "fusion_lon": 0.0, "lat": 38.990947, "bike_id": "8104b858e226e79bf0b88238139a56ad", "type": "electric_bike", "is_reserved": 0, "lon": -76.99372933333333}, {"fusion_lat": 0.0, "name": "41310ea599ba913f192d077fd5c32a02", "is_disabled": 0, "rental_uris": {"android": "https://dc.lft.to/lastmile_qr_scan", "ios": "https://dc.lft.to/lastmile_qr_scan"}, "fusion_lon": 0.0, "lat": 38.928956166666666, "bike_id": "41310ea599ba913f192d077fd5c32a02", "type": "electric_scooter", "is_reserved": 0, "lon": -77.03258433333333}, {"fusion_lat": 0.0, "name": "e5e9490b86369e969e9f1bd581cd0557", "is_disabled": 0, "rental_uris": {"android": "https://dc.lft.to/lastmile_qr_scan", "ios": "https://dc.lft.to/lastmile_qr_scan"}, "fusion_lon": 0.0, "lat": 38.89601483333333, "bike_id": "e5e9490b86369e969e9f1bd581cd0557", "type": "electric_scooter", "is_reserved": 0, "lon": -77.00324666666667}, {"fusion_lat": 0.0, "name": "97d7ac1ae58bf0e8fca81afdd4829df6", "is_disabled": 0, "rental_uris": {"android": "https://dc.lft.to/lastmile_qr_scan", "ios": "https://dc.lft.to/lastmile_qr_scan"}, "fusion_lon": 0.0, "lat": 38.90030983333333, "bike_id": "97d7ac1ae58bf0e8fca81afdd4829df6", "type": "electric_scooter", "is_reserved": 0, "lon": -77.001918}, {"fusion_lat": 0.0, "name": "33bb0d00567c308ffce4a55de1b9477c", "is_disabled": 0, "rental_uris": {"android": "https://dc.lft.to/lastmile_qr_scan", "ios": "https://dc.lft.to/lastmile_qr_scan"}, "fusion_lon": 0.0, "lat": 38.89709716666667, "bike_id": "33bb0d00567c308ffce4a55de1b9477c", "type": "electric_scooter", "is_reserved": 0, "lon": -77.00722033333334}, {"fusion_lat": 0.0, "name": "c4990669316596919ac0fad9f47cda12", "is_disabled": 0, "rental_uris": {"android": "https://dc.lft.to/lastmile_qr_scan", "ios": "https://dc.lft.to/lastmile_qr_scan"}, "fusion_lon": 0.0, "lat": 38.89896366666667, "bike_id": "c4990669316596919ac0fad9f47cda12", "type": "electric_bike", "is_reserved": 0, "lon": -77.0961725}, {"fusion_lat": 0.0, "name": "a27cae60edab3e41fc5ac57e28f6e2f6", "is_disabled": 0, "rental_uris": {"android": "https://dc.lft.to/lastmile_qr_scan", "ios": "https://dc.lft.to/lastmile_qr_scan"}, "fusion_lon": 0.0, "lat": 38.9208875, "bike_id": "a27cae60edab3e41fc5ac57e28f6e2f6", "type": "electric_scooter", "is_reserved": 0, "lon": -76.99485866666667}, {"fusion_lat": 0.0, "name": "a4e62afa21f42b351d58fdd8e84c65c1", "is_disabled": 0, "rental_uris": {"android": "https://dc.lft.to/lastmile_qr_scan", "ios": "https://dc.lft.to/lastmile_qr_scan"}, "fusion_lon": 0.0, "lat": 38.900409, "bike_id": "a4e62afa21f42b351d58fdd8e84c65c1", "type": "electric_scooter", "is_reserved": 0, "lon": -77.03483266666667}, {"fusion_lat": 0.0, "name": "f3f7e63f725c67996a57f23bd097f099", "is_disabled": 0, "rental_uris": {"android": "https://dc.lft.to/lastmile_qr_scan", "ios": "https://dc.lft.to/lastmile_qr_scan"}, "fusion_lon": 0.0, "lat": 38.898270333333336, "bike_id": "f3f7e63f725c67996a57f23bd097f099", "type": "electric_scooter", "is_reserved": 0, "lon": -76.94652216666667}, {"fusion_lat": 0.0, "name": "c260bfa9ea586cd3fabfea972d1da51d", "is_disabled": 0, "rental_uris": {"android": "https://dc.lft.to/lastmile_qr_scan", "ios": "https://dc.lft.to/lastmile_qr_scan"}, "fusion_lon": 0.0, "lat": 38.92147033333333, "bike_id": "c260bfa9ea586cd3fabfea972d1da51d", "type": "electric_scooter", "is_reserved": 0, "lon": -77.01797433333333}, {"fusion_lat": 0.0, "name": "b6a68e3a0d5e72f303cfbed3ef430f38", "is_disabled": 0, "rental_uris": {"android": "https://dc.lft.to/lastmile_qr_scan", "ios": "https://dc.lft.to/lastmile_qr_scan"}, "fusion_lon": 0.0, "lat": 38.916863166666666, "bike_id": "b6a68e3a0d5e72f303cfbed3ef430f38", "type": "electric_scooter", "is_reserved": 0, "lon": -77.032359}, {"fusion_lat": 0.0, "name": "35cdc17a0a90884c86f7bbd4f30f1aee", "is_disabled": 0, "rental_uris": {"android": "https://dc.lft.to/lastmile_qr_scan", "ios": "https://dc.lft.to/lastmile_qr_scan"}, "fusion_lon": 0.0, "lat": 38.899023, "bike_id": "35cdc17a0a90884c86f7bbd4f30f1aee", "type": "electric_scooter", "is_reserved": 0, "lon": -76.93361683333333}, {"fusion_lat": 0.0, "name": "dc9601d863d2695286fc7e842a22c801", "is_disabled": 0, "rental_uris": {"android": "https://dc.lft.to/lastmile_qr_scan", "ios": "https://dc.lft.to/lastmile_qr_scan"}, "fusion_lon": 0.0, "lat": 38.922455666666664, "bike_id": "dc9601d863d2695286fc7e842a22c801", "type": "electric_scooter", "is_reserved": 0, "lon": -77.01946083333333}, {"fusion_lat": 0.0, "name": "b4cfaab003ea53a78fa66ef75e3c5cd3", "is_disabled": 0, "rental_uris": {"android": "https://dc.lft.to/lastmile_qr_scan", "ios": "https://dc.lft.to/lastmile_qr_scan"}, "fusion_lon": 0.0, "lat": 38.93594016666667, "bike_id": "b4cfaab003ea53a78fa66ef75e3c5cd3", "type": "electric_scooter", "is_reserved": 0, "lon": -77.03652133333334}, {"fusion_lat": 0.0, "name": "b73d3b7d631593eb585ec8c3b5d784e2", "is_disabled": 0, "rental_uris": {"android": "https://dc.lft.to/lastmile_qr_scan", "ios": "https://dc.lft.to/lastmile_qr_scan"}, "fusion_lon": 0.0, "lat": 38.950514, "bike_id": "b73d3b7d631593eb585ec8c3b5d784e2", "type": "electric_scooter", "is_reserved": 0, "lon": -77.0802445}, {"fusion_lat": 0.0, "name": "20dd3e99a83e8dbd98f58a6c9cb886ad", "is_disabled": 0, "rental_uris": {"android": "https://dc.lft.to/lastmile_qr_scan", "ios": "https://dc.lft.to/lastmile_qr_scan"}, "fusion_lon": 0.0, "lat": 38.89615116666667, "bike_id": "20dd3e99a83e8dbd98f58a6c9cb886ad", "type": "electric_scooter", "is_reserved": 0, "lon": -77.03246083333333}, {"fusion_lat": 0.0, "name": "facf1e1af0ac2b750baeffe5e84ea8b5", "is_disabled": 0, "rental_uris": {"android": "https://dc.lft.to/lastmile_qr_scan", "ios": "https://dc.lft.to/lastmile_qr_scan"}, "fusion_lon": 0.0, "lat": 38.89186316666667, "bike_id": "facf1e1af0ac2b750baeffe5e84ea8b5", "type": "electric_scooter", "is_reserved": 0, "lon": -76.99839633333333}, {"fusion_lat": 0.0, "name": "a828b030b50c6fc20923fe9896f7535c", "is_disabled": 0, "rental_uris": {"android": "https://dc.lft.to/lastmile_qr_scan", "ios": "https://dc.lft.to/lastmile_qr_scan"}, "fusion_lon": 0.0, "lat": 38.916079833333335, "bike_id": "a828b030b50c6fc20923fe9896f7535c", "type": "electric_scooter", "is_reserved": 0, "lon": -77.03124766666667}, {"fusion_lat": 0.0, "name": "0ee0e6709ee09dfacc1a05979325e770", "is_disabled": 0, "rental_uris": {"android": "https://dc.lft.to/lastmile_qr_scan", "ios": "https://dc.lft.to/lastmile_qr_scan"}, "fusion_lon": 0.0, "lat": 38.918832, "bike_id": "0ee0e6709ee09dfacc1a05979325e770", "type": "electric_scooter", "is_reserved": 0, "lon": -77.04827833333333}, {"fusion_lat": 0.0, "name": "0b48782c1d7fe449fe785a49fd97fd45", "is_disabled": 0, "rental_uris": {"android": "https://dc.lft.to/lastmile_qr_scan", "ios": "https://dc.lft.to/lastmile_qr_scan"}, "fusion_lon": 0.0, "lat": 38.87576966666666, "bike_id": "0b48782c1d7fe449fe785a49fd97fd45", "type": "electric_bike", "is_reserved": 0, "lon": -77.23410116666666}, {"fusion_lat": 0.0, "name": "a709eb4157d5324c95b4abf664be1882", "is_disabled": 0, "rental_uris": {"android": "https://dc.lft.to/lastmile_qr_scan", "ios": "https://dc.lft.to/lastmile_qr_scan"}, "fusion_lon": 0.0, "lat": 38.90773133333333, "bike_id": "a709eb4157d5324c95b4abf664be1882", "type": "electric_scooter", "is_reserved": 0, "lon": -77.04335666666667}, {"fusion_lat": 0.0, "name": "e48f8d0df18e7ca92afe89b98cb25456", "is_disabled": 0, "rental_uris": {"android": "https://dc.lft.to/lastmile_qr_scan", "ios": "https://dc.lft.to/lastmile_qr_scan"}, "fusion_lon": 0.0, "lat": 38.885237000000004, "bike_id": "e48f8d0df18e7ca92afe89b98cb25456", "type": "electric_scooter", "is_reserved": 0, "lon": -76.92910633333334}, {"fusion_lat": 0.0, "name": "a4b213a5966e29c8684115a049d4e0b6", "is_disabled": 0, "rental_uris": {"android": "https://dc.lft.to/lastmile_qr_scan", "ios": "https://dc.lft.to/lastmile_qr_scan"}, "fusion_lon": 0.0, "lat": 38.8733165, "bike_id": "a4b213a5966e29c8684115a049d4e0b6", "type": "electric_bike", "is_reserved": 0, "lon": -77.0821325}, {"fusion_lat": 0.0, "name": "9c32e4b586a39d76fdf54c34a7933826", "is_disabled": 0, "rental_uris": {"android": "https://dc.lft.to/lastmile_qr_scan", "ios": "https://dc.lft.to/lastmile_qr_scan"}, "fusion_lon": 0.0, "lat": 38.93198, "bike_id": "9c32e4b586a39d76fdf54c34a7933826", "type": "electric_scooter", "is_reserved": 0, "lon": -77.0375045}, {"fusion_lat": 0.0, "name": "009f0238130420f935d13d6a5f1ad71c", "is_disabled": 0, "rental_uris": {"android": "https://dc.lft.to/lastmile_qr_scan", "ios": "https://dc.lft.to/lastmile_qr_scan"}, "fusion_lon": 0.0, "lat": 38.91365233333333, "bike_id": "009f0238130420f935d13d6a5f1ad71c", "type": "electric_scooter", "is_reserved": 0, "lon": -77.0199915}, {"fusion_lat": 0.0, "name": "41c3553b610473100cb13f8a8a55f340", "is_disabled": 0, "rental_uris": {"android": "https://dc.lft.to/lastmile_qr_scan", "ios": "https://dc.lft.to/lastmile_qr_scan"}, "fusion_lon": 0.0, "lat": 38.8472505, "bike_id": "41c3553b610473100cb13f8a8a55f340", "type": "electric_scooter", "is_reserved": 0, "lon": -76.98253183333334}, {"fusion_lat": 0.0, "name": "0722b60e60e93a60973512d76dfa90ab", "is_disabled": 0, "rental_uris": {"android": "https://dc.lft.to/lastmile_qr_scan", "ios": "https://dc.lft.to/lastmile_qr_scan"}, "fusion_lon": 0.0, "lat": 38.919563833333335, "bike_id": "0722b60e60e93a60973512d76dfa90ab", "type": "electric_scooter", "is_reserved": 0, "lon": -77.070972}, {"fusion_lat": 0.0, "name": "4eace6750eba0b7026c8a4157d8baec9", "is_disabled": 0, "rental_uris": {"android": "https://dc.lft.to/lastmile_qr_scan", "ios": "https://dc.lft.to/lastmile_qr_scan"}, "fusion_lon": 0.0, "lat": 38.904622, "bike_id": "4eace6750eba0b7026c8a4157d8baec9", "type": "electric_scooter", "is_reserved": 0, "lon": -77.043164}, {"fusion_lat": 0.0, "name": "2cc8e2aadf62497b294258cac3602373", "is_disabled": 0, "rental_uris": {"android": "https://dc.lft.to/lastmile_qr_scan", "ios": "https://dc.lft.to/lastmile_qr_scan"}, "fusion_lon": 0.0, "lat": 38.9287915, "bike_id": "2cc8e2aadf62497b294258cac3602373", "type": "electric_scooter", "is_reserved": 0, "lon": -77.037332}, {"fusion_lat": 0.0, "name": "92d3c166313e37e8bad012a744913bb8", "is_disabled": 0, "rental_uris": {"android": "https://dc.lft.to/lastmile_qr_scan", "ios": "https://dc.lft.to/lastmile_qr_scan"}, "fusion_lon": 0.0, "lat": 38.903628833333336, "bike_id": "92d3c166313e37e8bad012a744913bb8", "type": "electric_scooter", "is_reserved": 0, "lon": -77.03833216666666}, {"fusion_lat": 0.0, "name": "fd04f876e060739087ef1539f99275e1", "is_disabled": 0, "rental_uris": {"android": "https://dc.lft.to/lastmile_qr_scan", "ios": "https://dc.lft.to/lastmile_qr_scan"}, "fusion_lon": 0.0, "lat": 38.800192333333335, "bike_id": "fd04f876e060739087ef1539f99275e1", "type": "electric_bike", "is_reserved": 0, "lon": -77.05483033333333}, {"fusion_lat": 0.0, "name": "f63c2109e641078ce2ef9df702e66551", "is_disabled": 0, "rental_uris": {"android": "https://dc.lft.to/lastmile_qr_scan", "ios": "https://dc.lft.to/lastmile_qr_scan"}, "fusion_lon": 0.0, "lat": 38.906591166666665, "bike_id": "f63c2109e641078ce2ef9df702e66551", "type": "electric_scooter", "is_reserved": 0, "lon": -77.03424583333333}, {"fusion_lat": 0.0, "name": "e23dd00f31fa7f6ad59420851326d862", "is_disabled": 0, "rental_uris": {"android": "https://dc.lft.to/lastmile_qr_scan", "ios": "https://dc.lft.to/lastmile_qr_scan"}, "fusion_lon": 0.0, "lat": 38.91108633333333, "bike_id": "e23dd00f31fa7f6ad59420851326d862", "type": "electric_scooter", "is_reserved": 0, "lon": -77.0290395}, {"fusion_lat": 0.0, "name": "4890e15a6d4726d9d1962395c86f2d0e", "is_disabled": 0, "rental_uris": {"android": "https://dc.lft.to/lastmile_qr_scan", "ios": "https://dc.lft.to/lastmile_qr_scan"}, "fusion_lon": 0.0, "lat": 38.9306345, "bike_id": "4890e15a6d4726d9d1962395c86f2d0e", "type": "electric_scooter", "is_reserved": 0, "lon": -77.04054183333334}, {"fusion_lat": 0.0, "name": "268ba19dc80adfbeaebc4fe705b00439", "is_disabled": 0, "rental_uris": {"android": "https://dc.lft.to/lastmile_qr_scan", "ios": "https://dc.lft.to/lastmile_qr_scan"}, "fusion_lon": 0.0, "lat": 38.909091333333336, "bike_id": "268ba19dc80adfbeaebc4fe705b00439", "type": "electric_scooter", "is_reserved": 0, "lon": -77.07282933333333}, {"fusion_lat": 0.0, "name": "287d86dc94660b3c508ce00f75470ef1", "is_disabled": 0, "rental_uris": {"android": "https://dc.lft.to/lastmile_qr_scan", "ios": "https://dc.lft.to/lastmile_qr_scan"}, "fusion_lon": 0.0, "lat": 38.8973665, "bike_id": "287d86dc94660b3c508ce00f75470ef1", "type": "electric_bike", "is_reserved": 0, "lon": -76.92047366666667}, {"fusion_lat": 0.0, "name": "d9c9ee9b5c0d264615fd551802b8926b", "is_disabled": 0, "rental_uris": {"android": "https://dc.lft.to/lastmile_qr_scan", "ios": "https://dc.lft.to/lastmile_qr_scan"}, "fusion_lon": 0.0, "lat": 38.88115283333333, "bike_id": "d9c9ee9b5c0d264615fd551802b8926b", "type": "electric_bike", "is_reserved": 0, "lon": -77.01671866666666}, {"fusion_lat": 0.0, "name": "6abc99622d1454100d30facf63025f5a", "is_disabled": 0, "rental_uris": {"android": "https://dc.lft.to/lastmile_qr_scan", "ios": "https://dc.lft.to/lastmile_qr_scan"}, "fusion_lon": 0.0, "lat": 38.89731783333333, "bike_id": "6abc99622d1454100d30facf63025f5a", "type": "electric_scooter", "is_reserved": 0, "lon": -77.00376533333333}, {"fusion_lat": 0.0, "name": "4d8c0aa9378e2a21ab2bfb9a20b404f1", "is_disabled": 0, "rental_uris": {"android": "https://dc.lft.to/lastmile_qr_scan", "ios": "https://dc.lft.to/lastmile_qr_scan"}, "fusion_lon": 0.0, "lat": 38.91908866666667, "bike_id": "4d8c0aa9378e2a21ab2bfb9a20b404f1", "type": "electric_scooter", "is_reserved": 0, "lon": -77.002142}, {"fusion_lat": 0.0, "name": "086459e8a11d250a769ed5968dd2bf67", "is_disabled": 0, "rental_uris": {"android": "https://dc.lft.to/lastmile_qr_scan", "ios": "https://dc.lft.to/lastmile_qr_scan"}, "fusion_lon": 0.0, "lat": 38.975106, "bike_id": "086459e8a11d250a769ed5968dd2bf67", "type": "electric_scooter", "is_reserved": 0, "lon": -77.01729316666666}, {"fusion_lat": 0.0, "name": "96be636087f5b865591b25f160b4908f", "is_disabled": 0, "rental_uris": {"android": "https://dc.lft.to/lastmile_qr_scan", "ios": "https://dc.lft.to/lastmile_qr_scan"}, "fusion_lon": 0.0, "lat": 38.926437666666665, "bike_id": "96be636087f5b865591b25f160b4908f", "type": "electric_scooter", "is_reserved": 0, "lon": -77.03322}, {"fusion_lat": 0.0, "name": "261d2559b158a0c1611a8eb9eac43b25", "is_disabled": 0, "rental_uris": {"android": "https://dc.lft.to/lastmile_qr_scan", "ios": "https://dc.lft.to/lastmile_qr_scan"}, "fusion_lon": 0.0, "lat": 38.896769666666664, "bike_id": "261d2559b158a0c1611a8eb9eac43b25", "type": "electric_scooter", "is_reserved": 0, "lon": -77.04323633333334}, {"fusion_lat": 0.0, "name": "ecc8ed36e571cb50bbc6af0914b438c2", "is_disabled": 0, "rental_uris": {"android": "https://dc.lft.to/lastmile_qr_scan", "ios": "https://dc.lft.to/lastmile_qr_scan"}, "fusion_lon": 0.0, "lat": 38.908676166666666, "bike_id": "ecc8ed36e571cb50bbc6af0914b438c2", "type": "electric_scooter", "is_reserved": 0, "lon": -77.04258766666666}, {"fusion_lat": 0.0, "name": "3e542ad519f75cd7e2817d94a9ef677a", "is_disabled": 0, "rental_uris": {"android": "https://dc.lft.to/lastmile_qr_scan", "ios": "https://dc.lft.to/lastmile_qr_scan"}, "fusion_lon": 0.0, "lat": 38.90697616666667, "bike_id": "3e542ad519f75cd7e2817d94a9ef677a", "type": "electric_scooter", "is_reserved": 0, "lon": -77.02711916666667}, {"fusion_lat": 0.0, "name": "92d34055bf6d3e2fa48707cb2aa1887a", "is_disabled": 0, "rental_uris": {"android": "https://dc.lft.to/lastmile_qr_scan", "ios": "https://dc.lft.to/lastmile_qr_scan"}, "fusion_lon": 0.0, "lat": 38.911280833333336, "bike_id": "92d34055bf6d3e2fa48707cb2aa1887a", "type": "electric_scooter", "is_reserved": 0, "lon": -77.020808}, {"fusion_lat": 0.0, "name": "98a1f7fcef9478e1dd59c004b3dcd022", "is_disabled": 0, "rental_uris": {"android": "https://dc.lft.to/lastmile_qr_scan", "ios": "https://dc.lft.to/lastmile_qr_scan"}, "fusion_lon": 0.0, "lat": 38.89110466666666, "bike_id": "98a1f7fcef9478e1dd59c004b3dcd022", "type": "electric_scooter", "is_reserved": 0, "lon": -76.943821}, {"fusion_lat": 0.0, "name": "dcaf6c6038e003081e62d87f6486cdda", "is_disabled": 0, "rental_uris": {"android": "https://dc.lft.to/lastmile_qr_scan", "ios": "https://dc.lft.to/lastmile_qr_scan"}, "fusion_lon": 0.0, "lat": 38.969865666666664, "bike_id": "dcaf6c6038e003081e62d87f6486cdda", "type": "electric_scooter", "is_reserved": 0, "lon": -77.01156033333334}, {"fusion_lat": 0.0, "name": "90fb3718e19889dae9e1c1a0d898ecdc", "is_disabled": 0, "rental_uris": {"android": "https://dc.lft.to/lastmile_qr_scan", "ios": "https://dc.lft.to/lastmile_qr_scan"}, "fusion_lon": 0.0, "lat": 38.9151755, "bike_id": "90fb3718e19889dae9e1c1a0d898ecdc", "type": "electric_scooter", "is_reserved": 0, "lon": -77.01324766666667}, {"fusion_lat": 0.0, "name": "104975737f788c87ff37139cac80c0a3", "is_disabled": 0, "rental_uris": {"android": "https://dc.lft.to/lastmile_qr_scan", "ios": "https://dc.lft.to/lastmile_qr_scan"}, "fusion_lon": 0.0, "lat": 38.855172333333336, "bike_id": "104975737f788c87ff37139cac80c0a3", "type": "electric_bike", "is_reserved": 0, "lon": -77.12020533333333}, {"fusion_lat": 0.0, "name": "4bc8d495771522d491898ab9c3894bc5", "is_disabled": 0, "rental_uris": {"android": "https://dc.lft.to/lastmile_qr_scan", "ios": "https://dc.lft.to/lastmile_qr_scan"}, "fusion_lon": 0.0, "lat": 38.937138166666664, "bike_id": "4bc8d495771522d491898ab9c3894bc5", "type": "electric_scooter", "is_reserved": 0, "lon": -77.02524}, {"fusion_lat": 0.0, "name": "8142e6341ad8f78e318e031b50a066ca", "is_disabled": 0, "rental_uris": {"android": "https://dc.lft.to/lastmile_qr_scan", "ios": "https://dc.lft.to/lastmile_qr_scan"}, "fusion_lon": 0.0, "lat": 38.902379333333336, "bike_id": "8142e6341ad8f78e318e031b50a066ca", "type": "electric_scooter", "is_reserved": 0, "lon": -77.03960283333333}, {"fusion_lat": 0.0, "name": "c3a60a0c1529dd70faec4444a8308899", "is_disabled": 0, "rental_uris": {"android": "https://dc.lft.to/lastmile_qr_scan", "ios": "https://dc.lft.to/lastmile_qr_scan"}, "fusion_lon": 0.0, "lat": 38.92224816666667, "bike_id": "c3a60a0c1529dd70faec4444a8308899", "type": "electric_scooter", "is_reserved": 0, "lon": -77.04645883333333}, {"fusion_lat": 0.0, "name": "c8f8a98612fb56007f704620cb83c5b6", "is_disabled": 0, "rental_uris": {"android": "https://dc.lft.to/lastmile_qr_scan", "ios": "https://dc.lft.to/lastmile_qr_scan"}, "fusion_lon": 0.0, "lat": 38.918095666666666, "bike_id": "c8f8a98612fb56007f704620cb83c5b6", "type": "electric_scooter", "is_reserved": 0, "lon": -77.02473616666667}, {"fusion_lat": 0.0, "name": "192b2a280681a583fd806679b21def17", "is_disabled": 0, "rental_uris": {"android": "https://dc.lft.to/lastmile_qr_scan", "ios": "https://dc.lft.to/lastmile_qr_scan"}, "fusion_lon": 0.0, "lat": 38.91251033333333, "bike_id": "192b2a280681a583fd806679b21def17", "type": "electric_scooter", "is_reserved": 0, "lon": -77.0077375}, {"fusion_lat": 0.0, "name": "16ca92c038331e805107b387efbdc743", "is_disabled": 0, "rental_uris": {"android": "https://dc.lft.to/lastmile_qr_scan", "ios": "https://dc.lft.to/lastmile_qr_scan"}, "fusion_lon": 0.0, "lat": 38.99217016666667, "bike_id": "16ca92c038331e805107b387efbdc743", "type": "electric_bike", "is_reserved": 0, "lon": -76.94447133333334}, {"fusion_lat": 0.0, "name": "27136669d193e0f2f0d8d096d21622b1", "is_disabled": 0, "rental_uris": {"android": "https://dc.lft.to/lastmile_qr_scan", "ios": "https://dc.lft.to/lastmile_qr_scan"}, "fusion_lon": 0.0, "lat": 38.901343833333335, "bike_id": "27136669d193e0f2f0d8d096d21622b1", "type": "electric_scooter", "is_reserved": 0, "lon": -76.9904225}, {"fusion_lat": 0.0, "name": "57ef53cdb23b5f86e4100856c0e38157", "is_disabled": 0, "rental_uris": {"android": "https://dc.lft.to/lastmile_qr_scan", "ios": "https://dc.lft.to/lastmile_qr_scan"}, "fusion_lon": 0.0, "lat": 38.87641883333333, "bike_id": "57ef53cdb23b5f86e4100856c0e38157", "type": "electric_scooter", "is_reserved": 0, "lon": -77.00680016666666}, {"fusion_lat": 0.0, "name": "04534f1021a825f7e0a2c3f671f95fb5", "is_disabled": 0, "rental_uris": {"android": "https://dc.lft.to/lastmile_qr_scan", "ios": "https://dc.lft.to/lastmile_qr_scan"}, "fusion_lon": 0.0, "lat": 38.89792666666666, "bike_id": "04534f1021a825f7e0a2c3f671f95fb5", "type": "electric_bike", "is_reserved": 0, "lon": -76.999529}, {"fusion_lat": 0.0, "name": "1f574300f5b187fe6a54b45ba3fc00b2", "is_disabled": 0, "rental_uris": {"android": "https://dc.lft.to/lastmile_qr_scan", "ios": "https://dc.lft.to/lastmile_qr_scan"}, "fusion_lon": 0.0, "lat": 38.91663333333333, "bike_id": "1f574300f5b187fe6a54b45ba3fc00b2", "type": "electric_scooter", "is_reserved": 0, "lon": -77.0296615}, {"fusion_lat": 0.0, "name": "f83ee3496522d1241d46152c61fa1413", "is_disabled": 0, "rental_uris": {"android": "https://dc.lft.to/lastmile_qr_scan", "ios": "https://dc.lft.to/lastmile_qr_scan"}, "fusion_lon": 0.0, "lat": 38.9518075, "bike_id": "f83ee3496522d1241d46152c61fa1413", "type": "electric_scooter", "is_reserved": 0, "lon": -77.02613633333333}, {"fusion_lat": 0.0, "name": "92764efbc402f56ae82dadff7212d26d", "is_disabled": 0, "rental_uris": {"android": "https://dc.lft.to/lastmile_qr_scan", "ios": "https://dc.lft.to/lastmile_qr_scan"}, "fusion_lon": 0.0, "lat": 38.81968783333333, "bike_id": "92764efbc402f56ae82dadff7212d26d", "type": "electric_bike", "is_reserved": 0, "lon": -76.99810966666666}, {"fusion_lat": 0.0, "name": "aeffc9b67ba0daf885f1f23205e377a4", "is_disabled": 0, "rental_uris": {"android": "https://dc.lft.to/lastmile_qr_scan", "ios": "https://dc.lft.to/lastmile_qr_scan"}, "fusion_lon": 0.0, "lat": 38.90925033333333, "bike_id": "aeffc9b67ba0daf885f1f23205e377a4", "type": "electric_scooter", "is_reserved": 0, "lon": -77.03841483333333}, {"fusion_lat": 0.0, "name": "941c35c64d167abacf016fb06ad08adb", "is_disabled": 0, "rental_uris": {"android": "https://dc.lft.to/lastmile_qr_scan", "ios": "https://dc.lft.to/lastmile_qr_scan"}, "fusion_lon": 0.0, "lat": 38.908758, "bike_id": "941c35c64d167abacf016fb06ad08adb", "type": "electric_scooter", "is_reserved": 0, "lon": -77.00233516666667}, {"fusion_lat": 0.0, "name": "e7923ae6bafab5ae2f1ed70f334dc2c0", "is_disabled": 0, "rental_uris": {"android": "https://dc.lft.to/lastmile_qr_scan", "ios": "https://dc.lft.to/lastmile_qr_scan"}, "fusion_lon": 0.0, "lat": 38.909738833333336, "bike_id": "e7923ae6bafab5ae2f1ed70f334dc2c0", "type": "electric_scooter", "is_reserved": 0, "lon": -77.0269675}, {"fusion_lat": 0.0, "name": "eb90028b37f3f73e2ca78853072d8ca7", "is_disabled": 0, "rental_uris": {"android": "https://dc.lft.to/lastmile_qr_scan", "ios": "https://dc.lft.to/lastmile_qr_scan"}, "fusion_lon": 0.0, "lat": 38.911069, "bike_id": "eb90028b37f3f73e2ca78853072d8ca7", "type": "electric_scooter", "is_reserved": 0, "lon": -77.03824166666666}, {"fusion_lat": 0.0, "name": "11c39a042984b76dd06b78f293133a37", "is_disabled": 0, "rental_uris": {"android": "https://dc.lft.to/lastmile_qr_scan", "ios": "https://dc.lft.to/lastmile_qr_scan"}, "fusion_lon": 0.0, "lat": 38.94957016666667, "bike_id": "11c39a042984b76dd06b78f293133a37", "type": "electric_scooter", "is_reserved": 0, "lon": -77.06653166666666}, {"fusion_lat": 0.0, "name": "33a6f34095d6b15173b24485b223457a", "is_disabled": 0, "rental_uris": {"android": "https://dc.lft.to/lastmile_qr_scan", "ios": "https://dc.lft.to/lastmile_qr_scan"}, "fusion_lon": 0.0, "lat": 38.932778666666664, "bike_id": "33a6f34095d6b15173b24485b223457a", "type": "electric_scooter", "is_reserved": 0, "lon": -77.04081633333334}, {"fusion_lat": 0.0, "name": "23661bad62b3db3603bab237be5d89ab", "is_disabled": 0, "rental_uris": {"android": "https://dc.lft.to/lastmile_qr_scan", "ios": "https://dc.lft.to/lastmile_qr_scan"}, "fusion_lon": 0.0, "lat": 38.91551183333333, "bike_id": "23661bad62b3db3603bab237be5d89ab", "type": "electric_scooter", "is_reserved": 0, "lon": -77.03475133333333}, {"fusion_lat": 0.0, "name": "61d7cf303852bf195df3b32f3219bec8", "is_disabled": 0, "rental_uris": {"android": "https://dc.lft.to/lastmile_qr_scan", "ios": "https://dc.lft.to/lastmile_qr_scan"}, "fusion_lon": 0.0, "lat": 38.9505675, "bike_id": "61d7cf303852bf195df3b32f3219bec8", "type": "electric_scooter", "is_reserved": 0, "lon": -77.0802335}, {"fusion_lat": 0.0, "name": "7539d36d4572fc24b4cee4eaab31670b", "is_disabled": 0, "rental_uris": {"android": "https://dc.lft.to/lastmile_qr_scan", "ios": "https://dc.lft.to/lastmile_qr_scan"}, "fusion_lon": 0.0, "lat": 38.86628133333333, "bike_id": "7539d36d4572fc24b4cee4eaab31670b", "type": "electric_scooter", "is_reserved": 0, "lon": -76.9871645}, {"fusion_lat": 0.0, "name": "58629c28b64db5431ca99db21228eedc", "is_disabled": 0, "rental_uris": {"android": "https://dc.lft.to/lastmile_qr_scan", "ios": "https://dc.lft.to/lastmile_qr_scan"}, "fusion_lon": 0.0, "lat": 38.90300833333333, "bike_id": "58629c28b64db5431ca99db21228eedc", "type": "electric_scooter", "is_reserved": 0, "lon": -77.06000316666666}, {"fusion_lat": 0.0, "name": "1cca26f0dc0a3622acca032f38370bc8", "is_disabled": 0, "rental_uris": {"android": "https://dc.lft.to/lastmile_qr_scan", "ios": "https://dc.lft.to/lastmile_qr_scan"}, "fusion_lon": 0.0, "lat": 38.931847, "bike_id": "1cca26f0dc0a3622acca032f38370bc8", "type": "electric_scooter", "is_reserved": 0, "lon": -77.02969766666666}, {"fusion_lat": 0.0, "name": "b6acbde598102be97028e4261d30c723", "is_disabled": 0, "rental_uris": {"android": "https://dc.lft.to/lastmile_qr_scan", "ios": "https://dc.lft.to/lastmile_qr_scan"}, "fusion_lon": 0.0, "lat": 38.90054716666667, "bike_id": "b6acbde598102be97028e4261d30c723", "type": "electric_scooter", "is_reserved": 0, "lon": -76.98714633333333}, {"fusion_lat": 0.0, "name": "8669d396fefcdce050c63683ceefef7f", "is_disabled": 0, "rental_uris": {"android": "https://dc.lft.to/lastmile_qr_scan", "ios": "https://dc.lft.to/lastmile_qr_scan"}, "fusion_lon": 0.0, "lat": 38.92702533333333, "bike_id": "8669d396fefcdce050c63683ceefef7f", "type": "electric_scooter", "is_reserved": 0, "lon": -77.02082616666667}, {"fusion_lat": 0.0, "name": "e0c0a8658d36583ff3c1e0b59ff2c21d", "is_disabled": 0, "rental_uris": {"android": "https://dc.lft.to/lastmile_qr_scan", "ios": "https://dc.lft.to/lastmile_qr_scan"}, "fusion_lon": 0.0, "lat": 38.849139, "bike_id": "e0c0a8658d36583ff3c1e0b59ff2c21d", "type": "electric_bike", "is_reserved": 0, "lon": -77.0792945}, {"fusion_lat": 0.0, "name": "ee32d71c9738135b0914b79661f9d953", "is_disabled": 0, "rental_uris": {"android": "https://dc.lft.to/lastmile_qr_scan", "ios": "https://dc.lft.to/lastmile_qr_scan"}, "fusion_lon": 0.0, "lat": 38.885136833333334, "bike_id": "ee32d71c9738135b0914b79661f9d953", "type": "electric_scooter", "is_reserved": 0, "lon": -76.99754333333334}, {"fusion_lat": 0.0, "name": "f653666378084b63045b3371bb24153a", "is_disabled": 0, "rental_uris": {"android": "https://dc.lft.to/lastmile_qr_scan", "ios": "https://dc.lft.to/lastmile_qr_scan"}, "fusion_lon": 0.0, "lat": 38.92397183333333, "bike_id": "f653666378084b63045b3371bb24153a", "type": "electric_scooter", "is_reserved": 0, "lon": -77.036421}, {"fusion_lat": 0.0, "name": "1f507bae52e099632591948382f4907b", "is_disabled": 0, "rental_uris": {"android": "https://dc.lft.to/lastmile_qr_scan", "ios": "https://dc.lft.to/lastmile_qr_scan"}, "fusion_lon": 0.0, "lat": 38.816073333333335, "bike_id": "1f507bae52e099632591948382f4907b", "type": "electric_bike", "is_reserved": 0, "lon": -76.996547}, {"fusion_lat": 0.0, "name": "6c9c9af3332140a3b71783b2c4cd86d6", "is_disabled": 0, "rental_uris": {"android": "https://dc.lft.to/lastmile_qr_scan", "ios": "https://dc.lft.to/lastmile_qr_scan"}, "fusion_lon": 0.0, "lat": 39.0141535, "bike_id": "6c9c9af3332140a3b71783b2c4cd86d6", "type": "electric_bike", "is_reserved": 0, "lon": -77.04494683333333}, {"fusion_lat": 0.0, "name": "6dc6032fdd3c04b9f30b1fae901e9615", "is_disabled": 0, "rental_uris": {"android": "https://dc.lft.to/lastmile_qr_scan", "ios": "https://dc.lft.to/lastmile_qr_scan"}, "fusion_lon": 0.0, "lat": 38.91996816666666, "bike_id": "6dc6032fdd3c04b9f30b1fae901e9615", "type": "electric_scooter", "is_reserved": 0, "lon": -77.02374116666667}, {"fusion_lat": 0.0, "name": "95dd0e4519a821a1f654330ab42f06cd", "is_disabled": 0, "rental_uris": {"android": "https://dc.lft.to/lastmile_qr_scan", "ios": "https://dc.lft.to/lastmile_qr_scan"}, "fusion_lon": 0.0, "lat": 38.90979516666667, "bike_id": "95dd0e4519a821a1f654330ab42f06cd", "type": "electric_scooter", "is_reserved": 0, "lon": -77.03190983333333},