{"data": {"bikes": [{"is_disabled": 0, "rental_uris": {"android": "https://dc.lft.to/lastmile_qr_scan", "ios": "https://dc.lft.to/lastmile_qr_scan"}, "is_reserved": 0, "name": "d83ee4a3b564d99c8af26cf4dfa3702f", "lon": -77.02220666666666, "type": "electric_scooter", "bike_id": "d83ee4a3b564d99c8af26cf4dfa3702f", "fusion_lon": 0.0, "lat": 38.91563716666667, "fusion_lat": 0.0}, {"is_disabled": 0, "rental_uris": {"android": "https://dc.lft.to/lastmile_qr_scan", "ios": "https://dc.lft.to/lastmile_qr_scan"}, "is_reserved": 0, "name": "fdf9805d302f3eecc36a60c18baed60a", "lon": -77.02879033333333, "type": "electric_bike", "bike_id": "fdf9805d302f3eecc36a60c18baed60a", "fusion_lon": 0.0, "lat": 38.998871333333334, "fusion_lat": 0.0}, {"is_disabled": 0, "rental_uris": {"android": "https://dc.lft.to/lastmile_qr_scan", "ios": "https://dc.lft.to/lastmile_qr_scan"}, "is_reserved": 0, "name": "a7e81a326157a34e6d37448965d8f1fc", "lon": -77.04009233333333, "type": "electric_bike", "bike_id": "a7e81a326157a34e6d37448965d8f1fc", "fusion_lon": 0.0, "lat": 38.90131383333333, "fusion_lat": 0.0}, {"is_disabled": 0, "rental_uris": {"android": "https://dc.lft.to/lastmile_qr_scan", "ios": "https://dc.lft.to/lastmile_qr_scan"}, "is_reserved": 0, "name": "eb038b9b2bcbb06c25c72293303debc4", "lon": -77.04721866666667, "type": "electric_scooter", "bike_id": "eb038b9b2bcbb06c25c72293303debc4", "fusion_lon": 0.0, "lat": 38.89849916666667, "fusion_lat": 0.0}, {"is_disabled": 0, "rental_uris": {"android": "https://dc.lft.to/lastmile_qr_scan", "ios": "https://dc.lft.to/lastmile_qr_scan"}, "is_reserved": 0, "name": "0998b6dadb8c4c8c08c1d092b9d2a57a", "lon": -77.0215375, "type": "electric_scooter", "bike_id": "0998b6dadb8c4c8c08c1d092b9d2a57a", "fusion_lon": 0.0, "lat": 38.92602766666667, "fusion_lat": 0.0}, {"is_disabled": 0, "rental_uris": {"android": "https://dc.lft.to/lastmile_qr_scan", "ios": "https://dc.lft.to/lastmile_qr_scan"}, "is_reserved": 0, "name": "a97fdb0eceeacfcb8503eefe11887e65", "lon": -76.9721705, "type": "electric_bike", "bike_id": "a97fdb0eceeacfcb8503eefe11887e65", "fusion_lon": 0.0, "lat": 38.8448045, "fusion_lat": 0.0}, {"is_disabled": 0, "rental_uris": {"android": "https://dc.lft.to/lastmile_qr_scan", "ios": "https://dc.lft.to/lastmile_qr_scan"}, "is_reserved": 0, "name": "afaa5c6d0e610b5952dfb07d25230eb4", "lon": -77.04165333333333, "type": "electric_scooter", "bike_id": "afaa5c6d0e610b5952dfb07d25230eb4", "fusion_lon": 0.0, "lat": 38.913119, "fusion_lat": 0.0}, {"is_disabled": 0, "rental_uris": {"android": "https://dc.lft.to/lastmile_qr_scan", "ios": "https://dc.lft.to/lastmile_qr_scan"}, "is_reserved": 0, "name": "ca75132f01376e7d062c971d3d6fa8e0", "lon": -77.026872, "type": "electric_scooter", "bike_id": "ca75132f01376e7d062c971d3d6fa8e0", "fusion_lon": 0.0, "lat": 38.908717333333335, "fusion_lat": 0.0}, {"is_disabled": 0, "rental_uris": {"android": "https://dc.lft.to/lastmile_qr_scan", "ios": "https://dc.lft.to/lastmile_qr_scan"}, "is_reserved": 0, "name": "8936d9cebd1064cf2f997749a57dd2c2", "lon": -76.97428883333333, "type": "electric_scooter", "bike_id": "8936d9cebd1064cf2f997749a57dd2c2", "fusion_lon": 0.0, "lat": 38.865169333333334, "fusion_lat": 0.0}, {"is_disabled": 0, "rental_uris": {"android": "https://dc.lft.to/lastmile_qr_scan", "ios": "https://dc.lft.to/lastmile_qr_scan"}, "is_reserved": 0, "name": "ca588d6d1dced6849e1fba95ebd09fdf", "lon": -77.0545105, "type": "electric_scooter", "bike_id": "ca588d6d1dced6849e1fba95ebd09fdf", "fusion_lon": 0.0, "lat": 38.93531433333333, "fusion_lat": 0.0}, {"is_disabled": 0, "rental_uris": {"android": "https://dc.lft.to/lastmile_qr_scan", "ios": "https://dc.lft.to/lastmile_qr_scan"}, "is_reserved": 0, "name": "b37da956ea3c5de1ef0084fa657ff8fb", "lon": -77.0675705, "type": "electric_scooter", "bike_id": "b37da956ea3c5de1ef0084fa657ff8fb", "fusion_lon": 0.0, "lat": 38.9498115, "fusion_lat": 0.0}, {"is_disabled": 0, "rental_uris": {"android": "https://dc.lft.to/lastmile_qr_scan", "ios": "https://dc.lft.to/lastmile_qr_scan"}, "is_reserved": 0, "name": "0193c9b092028c0019f5772efdaecdc0", "lon": -76.934129, "type": "electric_bike", "bike_id": "0193c9b092028c0019f5772efdaecdc0", "fusion_lon": 0.0, "lat": 38.946246, "fusion_lat": 0.0}, {"is_disabled": 0, "rental_uris": {"android": "https://dc.lft.to/lastmile_qr_scan", "ios": "https://dc.lft.to/lastmile_qr_scan"}, "is_reserved": 0, "name": "2600a3974ac6fade11983c7bbcb5a98c", "lon": -77.0351845, "type": "electric_scooter", "bike_id": "2600a3974ac6fade11983c7bbcb5a98c", "fusion_lon": 0.0, "lat": 38.93586033333333, "fusion_lat": 0.0}, {"is_disabled": 0, "rental_uris": {"android": "https://dc.lft.to/lastmile_qr_scan", "ios": "https://dc.lft.to/lastmile_qr_scan"}, "is_reserved": 0, "name": "d633d98882c23addfd4d5ba2072fc4ed", "lon": -77.02125983333333, "type": "electric_scooter", "bike_id": "d633d98882c23addfd4d5ba2072fc4ed", "fusion_lon": 0.0, "lat": 38.887399333333335, "fusion_lat": 0.0}, {"is_disabled": 0, "rental_uris": {"android": "https://dc.lft.to/lastmile_qr_scan", "ios": "https://dc.lft.to/lastmile_qr_scan"}, "is_reserved": 0, "name": "1e3fa6078463192076a4171bc379a459", "lon": -77.02920133333333, "type": "electric_scooter", "bike_id": "1e3fa6078463192076a4171bc379a459", "fusion_lon": 0.0, "lat": 38.93876, "fusion_lat": 0.0}, {"is_disabled": 0, "rental_uris": {"android": "https://dc.lft.to/lastmile_qr_scan", "ios": "https://dc.lft.to/lastmile_qr_scan"}, "is_reserved": 0, "name": "e864c37d4d6c70955a155a65b31225d1", "lon": -77.025278, "type": "electric_scooter", "bike_id": "e864c37d4d6c70955a155a65b31225d1", "fusion_lon": 0.0, "lat": 38.902674833333336, "fusion_lat": 0.0}, {"is_disabled": 0, "rental_uris": {"android": "https://dc.lft.to/lastmile_qr_scan", "ios": "https://dc.lft.to/lastmile_qr_scan"}, "is_reserved": 0, "name": "60f334c74e767b100c0c0fca7d4bb8fd", "lon": -76.9654375, "type": "electric_scooter", "bike_id": "60f334c74e767b100c0c0fca7d4bb8fd", "fusion_lon": 0.0, "lat": 38.918679, "fusion_lat": 0.0}, {"is_disabled": 0, "rental_uris": {"android": "https://dc.lft.to/lastmile_qr_scan", "ios": "https://dc.lft.to/lastmile_qr_scan"}, "is_reserved": 0, "name": "d65d8a5f6e5c854d4734f5aee0389fae", "lon": -77.0158345, "type": "electric_scooter", "bike_id": "d65d8a5f6e5c854d4734f5aee0389fae", "fusion_lon": 0.0, "lat": 38.876624, "fusion_lat": 0.0}, {"is_disabled": 0, "rental_uris": {"android": "https://dc.lft.to/lastmile_qr_scan", "ios": "https://dc.lft.to/lastmile_qr_scan"}, "is_reserved": 0, "name": "21036b67db69ebcd5fcace3e948c73e8", "lon": -77.0597815, "type": "electric_scooter", "bike_id": "21036b67db69ebcd5fcace3e948c73e8", "fusion_lon": 0.0, "lat": 38.9053955, "fusion_lat": 0.0}, {"is_disabled": 0, "rental_uris": {"android": "https://dc.lft.to/lastmile_qr_scan", "ios": "https://dc.lft.to/lastmile_qr_scan"}, "is_reserved": 0, "name": "64662e3da1b7b532478f34832b16045e", "lon": -77.02369683333333, "type": "electric_scooter", "bike_id": "64662e3da1b7b532478f34832b16045e", "fusion_lon": 0.0, "lat": 38.8876845, "fusion_lat": 0.0}, {"is_disabled": 0, "rental_uris": {"android": "https://dc.lft.to/lastmile_qr_scan", "ios": "https://dc.lft.to/lastmile_qr_scan"}, "is_reserved": 0, "name": "c5adb8dee22bb75bd681c31795cfc1a6", "lon": -77.02846016666666, "type": "electric_scooter", "bike_id": "c5adb8dee22bb75bd681c31795cfc1a6", "fusion_lon": 0.0, "lat": 38.934192333333336, "fusion_lat": 0.0}, {"is_disabled": 0, "rental_uris": {"android": "https://dc.lft.to/lastmile_qr_scan", "ios": "https://dc.lft.to/lastmile_qr_scan"}, "is_reserved": 0, "name": "0e3a0a5f8e119c01d078c698f4d4072c", "lon": -77.034358, "type": "electric_scooter", "bike_id": "0e3a0a5f8e119c01d078c698f4d4072c", "fusion_lon": 0.0, "lat": 38.90725233333333, "fusion_lat": 0.0}, {"is_disabled": 0, "rental_uris": {"android": "https://dc.lft.to/lastmile_qr_scan", "ios": "https://dc.lft.to/lastmile_qr_scan"}, "is_reserved": 0, "name": "0e6e11b1574846f05012c75b1359ae6e", "lon": -77.012609, "type": "electric_scooter", "bike_id": "0e6e11b1574846f05012c75b1359ae6e", "fusion_lon": 0.0, "lat": 38.87629616666667, "fusion_lat": 0.0}, {"is_disabled": 0, "rental_uris": {"android": "https://dc.lft.to/lastmile_qr_scan", "ios": "https://dc.lft.to/lastmile_qr_scan"}, "is_reserved": 0, "name": "c9f8b21798778f8e1edad2d2816ae5c8", "lon": -77.03962683333333, "type": "electric_scooter", "bike_id": "c9f8b21798778f8e1edad2d2816ae5c8", "fusion_lon": 0.0, "lat": 38.931552, "fusion_lat": 0.0}, {"is_disabled": 0, "rental_uris": {"android": "https://dc.lft.to/lastmile_qr_scan", "ios": "https://dc.lft.to/lastmile_qr_scan"}, "is_reserved": 0, "name": "0bbc108a8db39f0810b5b32204114db7", "lon": -77.017534, "type": "electric_scooter", "bike_id": "0bbc108a8db39f0810b5b32204114db7", "fusion_lon": 0.0, "lat": 38.8769255, "fusion_lat": 0.0}, {"is_disabled": 0, "rental_uris": {"android": "https://dc.lft.to/lastmile_qr_scan", "ios": "https://dc.lft.to/lastmile_qr_scan"}, "is_reserved": 0, "name": "d496067d1cf85f7c59402a1de3b30a00", "lon": -77.007276, "type": "electric_scooter", "bike_id": "d496067d1cf85f7c59402a1de3b30a00", "fusion_lon": 0.0, "lat": 38.900413, "fusion_lat": 0.0}, {"is_disabled": 0, "rental_uris": {"android": "https://dc.lft.to/lastmile_qr_scan", "ios": "https://dc.lft.to/lastmile_qr_scan"}, "is_reserved": 0, "name": "c3ea3e255e1eb6f6aabb7204bae1b521", "lon": -77.03230383333333, "type": "electric_scooter", "bike_id": "c3ea3e255e1eb6f6aabb7204bae1b521", "fusion_lon": 0.0, "lat": 38.900039, "fusion_lat": 0.0}, {"is_disabled": 0, "rental_uris": {"android": "https://dc.lft.to/lastmile_qr_scan", "ios": "https://dc.lft.to/lastmile_qr_scan"}, "is_reserved": 0, "name": "4d3f7d193f474d7ce63e4f2e95939096", "lon": -76.948966, "type": "electric_scooter", "bike_id": "4d3f7d193f474d7ce63e4f2e95939096", "fusion_lon": 0.0, "lat": 38.895286666666664, "fusion_lat": 0.0}, {"is_disabled": 0, "rental_uris": {"android": "https://dc.lft.to/lastmile_qr_scan", "ios": "https://dc.lft.to/lastmile_qr_scan"}, "is_reserved": 0, "name": "99cc28baf51b9aef1a510b21dcf6a79f", "lon": -76.97384633333333, "type": "electric_scooter", "bike_id": "99cc28baf51b9aef1a510b21dcf6a79f", "fusion_lon": 0.0, "lat": 38.883629, "fusion_lat": 0.0}, {"is_disabled": 0, "rental_uris": {"android": "https://dc.lft.to/lastmile_qr_scan", "ios": "https://dc.lft.to/lastmile_qr_scan"}, "is_reserved": 0, "name": "fda52f17fedc32d1cd0d0b9aaf4477d0", "lon": -77.04332066666667, "type": "electric_scooter", "bike_id": "fda52f17fedc32d1cd0d0b9aaf4477d0", "fusion_lon": 0.0, "lat": 38.906671833333334, "fusion_lat": 0.0}, {"is_disabled": 0, "rental_uris": {"android": "https://dc.lft.to/lastmile_qr_scan", "ios": "https://dc.lft.to/lastmile_qr_scan"}, "is_reserved": 0, "name": "af810e32cdd577a3a788b9b9fb37fa49", "lon": -76.99956466666667, "type": "electric_scooter", "bike_id": "af810e32cdd577a3a788b9b9fb37fa49", "fusion_lon": 0.0, "lat": 38.84290983333333, "fusion_lat": 0.0}, {"is_disabled": 0, "rental_uris": {"android": "https://dc.lft.to/lastmile_qr_scan", "ios": "https://dc.lft.to/lastmile_qr_scan"}, "is_reserved": 0, "name": "38e64202936737c09bed99e7edb4f2e9", "lon": -76.94781916666666, "type": "electric_scooter", "bike_id": "38e64202936737c09bed99e7edb4f2e9", "fusion_lon": 0.0, "lat": 38.884628166666666, "fusion_lat": 0.0}, {"is_disabled": 0, "rental_uris": {"android": "https://dc.lft.to/lastmile_qr_scan", "ios": "https://dc.lft.to/lastmile_qr_scan"}, "is_reserved": 0, "name": "ae6efc35fb575a0825b34650c3f87caa", "lon": -77.05938983333333, "type": "electric_scooter", "bike_id": "ae6efc35fb575a0825b34650c3f87caa", "fusion_lon": 0.0, "lat": 38.93673783333333, "fusion_lat": 0.0}, {"is_disabled": 0, "rental_uris": {"android": "https://dc.lft.to/lastmile_qr_scan", "ios": "https://dc.lft.to/lastmile_qr_scan"}, "is_reserved": 0, "name": "7809e7e7ead7970745c2e67263694721", "lon": -77.01759916666667, "type": "electric_scooter", "bike_id": "7809e7e7ead7970745c2e67263694721", "fusion_lon": 0.0, "lat": 38.921184, "fusion_lat": 0.0}, {"is_disabled": 0, "rental_uris": {"android": "https://dc.lft.to/lastmile_qr_scan", "ios": "https://dc.lft.to/lastmile_qr_scan"}, "is_reserved": 0, "name": "727c68f6c591a625d34104e6dfee6a64", "lon": -77.04390516666666, "type": "electric_scooter", "bike_id": "727c68f6c591a625d34104e6dfee6a64", "fusion_lon": 0.0, "lat": 38.905841833333334, "fusion_lat": 0.0}, {"is_disabled": 0, "rental_uris": {"android": "https://dc.lft.to/lastmile_qr_scan", "ios": "https://dc.lft.to/lastmile_qr_scan"}, "is_reserved": 0, "name": "bda666c57d56de3a692332a23fc569ae", "lon": -77.02545483333333, "type": "electric_scooter", "bike_id": "bda666c57d56de3a692332a23fc569ae", "fusion_lon": 0.0, "lat": 38.907206, "fusion_lat": 0.0}, {"is_disabled": 0, "rental_uris": {"android": "https://dc.lft.to/lastmile_qr_scan", "ios": "https://dc.lft.to/lastmile_qr_scan"}, "is_reserved": 0, "name": "efe43441f8aa365a7b49d6f3638cda74", "lon": -77.063634, "type": "electric_scooter", "bike_id": "efe43441f8aa365a7b49d6f3638cda74", "fusion_lon": 0.0, "lat": 38.94418066666667, "fusion_lat": 0.0}, {"is_disabled": 0, "rental_uris": {"android": "https://dc.lft.to/lastmile_qr_scan", "ios": "https://dc.lft.to/lastmile_qr_scan"}, "is_reserved": 0, "name": "f3e0d26a8c51913f39d7263668180522", "lon": -77.0403205, "type": "electric_scooter", "bike_id": "f3e0d26a8c51913f39d7263668180522", "fusion_lon": 0.0, "lat": 38.917858333333335, "fusion_lat": 0.0}, {"is_disabled": 0, "rental_uris": {"android": "https://dc.lft.to/lastmile_qr_scan", "ios": "https://dc.lft.to/lastmile_qr_scan"}, "is_reserved": 0, "name": "bab37a638c5502f09cead617335dc528", "lon": -77.00214483333333, "type": "electric_scooter", "bike_id": "bab37a638c5502f09cead617335dc528", "fusion_lon": 0.0, "lat": 38.8949855, "fusion_lat": 0.0}, {"is_disabled": 0, "rental_uris": {"android": "https://dc.lft.to/lastmile_qr_scan", "ios": "https://dc.lft.to/lastmile_qr_scan"}, "is_reserved": 0, "name": "7ca588da2cd4290e3ee4d4cbe4397484", "lon": -77.10719916666666, "type": "electric_bike", "bike_id": "7ca588da2cd4290e3ee4d4cbe4397484", "fusion_lon": 0.0, "lat": 38.855417833333334, "fusion_lat": 0.0}, {"is_disabled": 0, "rental_uris": {"android": "https://dc.lft.to/lastmile_qr_scan", "ios": "https://dc.lft.to/lastmile_qr_scan"}, "is_reserved": 0, "name": "6c74f3fccf87a7c466ecd19e2dd035ad", "lon": -77.008915, "type": "electric_scooter", "bike_id": "6c74f3fccf87a7c466ecd19e2dd035ad", "fusion_lon": 0.0, "lat": 38.90384233333333, "fusion_lat": 0.0}, {"is_disabled": 0, "rental_uris": {"android": "https://dc.lft.to/lastmile_qr_scan", "ios": "https://dc.lft.to/lastmile_qr_scan"}, "is_reserved": 0, "name": "bb9711aa776581fd128248958a8abff9", "lon": -77.051152, "type": "electric_bike", "bike_id": "bb9711aa776581fd128248958a8abff9", "fusion_lon": 0.0, "lat": 38.9455785, "fusion_lat": 0.0}, {"is_disabled": 0, "rental_uris": {"android": "https://dc.lft.to/lastmile_qr_scan", "ios": "https://dc.lft.to/lastmile_qr_scan"}, "is_reserved": 0, "name": "ccff16224087a4b8e0f0c903b6b90c0a", "lon": -76.9995555, "type": "electric_scooter", "bike_id": "ccff16224087a4b8e0f0c903b6b90c0a", "fusion_lon": 0.0, "lat": 38.903429833333334, "fusion_lat": 0.0}, {"is_disabled": 0, "rental_uris": {"android": "https://dc.lft.to/lastmile_qr_scan", "ios": "https://dc.lft.to/lastmile_qr_scan"}, "is_reserved": 0, "name": "d159c89e99644b9c1cf95641f2d93a9c", "lon": -77.04348833333333, "type": "electric_scooter", "bike_id": "d159c89e99644b9c1cf95641f2d93a9c", "fusion_lon": 0.0, "lat": 38.901348666666664, "fusion_lat": 0.0}, {"is_disabled": 0, "rental_uris": {"android": "https://dc.lft.to/lastmile_qr_scan", "ios": "https://dc.lft.to/lastmile_qr_scan"}, "is_reserved": 0, "name": "f5c02de4636f4b691621ca31e628b824", "lon": -77.03879766666667, "type": "electric_scooter", "bike_id": "f5c02de4636f4b691621ca31e628b824", "fusion_lon": 0.0, "lat": 38.93428516666667, "fusion_lat": 0.0}, {"is_disabled": 0, "rental_uris": {"android": "https://dc.lft.to/lastmile_qr_scan", "ios": "https://dc.lft.to/lastmile_qr_scan"}, "is_reserved": 0, "name": "dc3dad4f806f2a5abf275dc222327b61", "lon": -77.0331695, "type": "electric_scooter", "bike_id": "dc3dad4f806f2a5abf275dc222327b61", "fusion_lon": 0.0, "lat": 38.898457666666665, "fusion_lat": 0.0}, {"is_disabled": 0, "rental_uris": {"android": "https://dc.lft.to/lastmile_qr_scan", "ios": "https://dc.lft.to/lastmile_qr_scan"}, "is_reserved": 0, "name": "7070887465c0d4b6711f6a16f2713167", "lon": -77.03199933333333, "type": "electric_scooter", "bike_id": "7070887465c0d4b6711f6a16f2713167", "fusion_lon": 0.0, "lat": 38.91916966666667, "fusion_lat": 0.0}, {"is_disabled": 0, "rental_uris": {"android": "https://dc.lft.to/lastmile_qr_scan", "ios": "https://dc.lft.to/lastmile_qr_scan"}, "is_reserved": 0, "name": "23bce9509e2a01709ed1b0c597e98ea9", "lon": -77.0319825, "type": "electric_scooter", "bike_id": "23bce9509e2a01709ed1b0c597e98ea9", "fusion_lon": 0.0, "lat": 38.919169333333336, "fusion_lat": 0.0}, {"is_disabled": 0, "rental_uris": {"android": "https://dc.lft.to/lastmile_qr_scan", "ios": "https://dc.lft.to/lastmile_qr_scan"}, "is_reserved": 0, "name": "b1fa19e6f2e9030c1ee10806cdde55b6", "lon": -77.0436885, "type": "electric_scooter", "bike_id": "b1fa19e6f2e9030c1ee10806cdde55b6", "fusion_lon": 0.0, "lat": 38.902726666666666, "fusion_lat": 0.0}, {"is_disabled": 0, "rental_uris": {"android": "https://dc.lft.to/lastmile_qr_scan", "ios": "https://dc.lft.to/lastmile_qr_scan"}, "is_reserved": 0, "name": "cb67e88afc02da1fa6318074af1ccfaa", "lon": -77.031435, "type": "electric_scooter", "bike_id": "cb67e88afc02da1fa6318074af1ccfaa", "fusion_lon": 0.0, "lat": 38.92485533333333, "fusion_lat": 0.0}, {"is_disabled": 0, "rental_uris": {"android": "https://dc.lft.to/lastmile_qr_scan", "ios": "https://dc.lft.to/lastmile_qr_scan"}, "is_reserved": 0, "name": "7b6603dc57f6a844efb3fb883e1325ae", "lon": -77.04145166666666, "type": "electric_bike", "bike_id": "7b6603dc57f6a844efb3fb883e1325ae", "fusion_lon": 0.0, "lat": 38.89935416666667, "fusion_lat": 0.0}, {"is_disabled": 0, "rental_uris": {"android": "https://dc.lft.to/lastmile_qr_scan", "ios": "https://dc.lft.to/lastmile_qr_scan"}, "is_reserved": 0, "name": "e39422a80b80b5b4c454d3510639e8a3", "lon": -77.04076016666667, "type": "electric_scooter", "bike_id": "e39422a80b80b5b4c454d3510639e8a3", "fusion_lon": 0.0, "lat": 38.900302833333335, "fusion_lat": 0.0}, {"is_disabled": 0, "rental_uris": {"android": "https://dc.lft.to/lastmile_qr_scan", "ios": "https://dc.lft.to/lastmile_qr_scan"}, "is_reserved": 0, "name": "48a31b35ba6fdf5cf6047eecaf859e6f", "lon": -77.011027, "type": "electric_scooter", "bike_id": "48a31b35ba6fdf5cf6047eecaf859e6f", "fusion_lon": 0.0, "lat": 38.9096705, "fusion_lat": 0.0}, {"is_disabled": 0, "rental_uris": {"android": "https://dc.lft.to/lastmile_qr_scan", "ios": "https://dc.lft.to/lastmile_qr_scan"}, "is_reserved": 0, "name": "c1e15e77a0ab0df8a851ef3e8fd348a6", "lon": -77.03551183333333, "type": "electric_scooter", "bike_id": "c1e15e77a0ab0df8a851ef3e8fd348a6", "fusion_lon": 0.0, "lat": 38.90823, "fusion_lat": 0.0}, {"is_disabled": 0, "rental_uris": {"android": "https://dc.lft.to/lastmile_qr_scan", "ios": "https://dc.lft.to/lastmile_qr_scan"}, "is_reserved": 0, "name": "f8270cf50816f2c422e91151c962eec0", "lon": -77.00711666666666, "type": "electric_scooter", "bike_id": "f8270cf50816f2c422e91151c962eec0", "fusion_lon": 0.0, "lat": 38.88491416666667, "fusion_lat": 0.0}, {"is_disabled": 0, "rental_uris": {"android": "https://dc.lft.to/lastmile_qr_scan", "ios": "https://dc.lft.to/lastmile_qr_scan"}, "is_reserved": 0, "name": "5e739f2d13bd8eb0d1ef197b678565b9", "lon": -77.0957945, "type": "electric_bike", "bike_id": "5e739f2d13bd8eb0d1ef197b678565b9", "fusion_lon": 0.0, "lat": 38.91681166666667, "fusion_lat": 0.0}, {"is_disabled": 0, "rental_uris": {"android": "https://dc.lft.to/lastmile_qr_scan", "ios": "https://dc.lft.to/lastmile_qr_scan"}, "is_reserved": 0, "name": "8e19de6a03b6496dfacebfa816ab2961", "lon": -77.01557566666666, "type": "electric_scooter", "bike_id": "8e19de6a03b6496dfacebfa816ab2961", "fusion_lon": 0.0, "lat": 38.872656666666664, "fusion_lat": 0.0}, {"is_disabled": 0, "rental_uris": {"android": "https://dc.lft.to/lastmile_qr_scan", "ios": "https://dc.lft.to/lastmile_qr_scan"}, "is_reserved": 0, "name": "cbcca03a2b9eef2aad48b4fb378f79c3", "lon": -77.07621733333333, "type": "electric_scooter", "bike_id": "cbcca03a2b9eef2aad48b4fb378f79c3", "fusion_lon": 0.0, "lat": 38.91269916666667, "fusion_lat": 0.0}, {"is_disabled": 0, "rental_uris": {"android": "https://dc.lft.to/lastmile_qr_scan", "ios": "https://dc.lft.to/lastmile_qr_scan"}, "is_reserved": 0, "name": "b93a5c1c1c060ec96387510420c3e400", "lon": -76.99725666666667, "type": "electric_scooter", "bike_id": "b93a5c1c1c060ec96387510420c3e400", "fusion_lon": 0.0, "lat": 38.910262333333336, "fusion_lat": 0.0}, {"is_disabled": 0, "rental_uris": {"android": "https://dc.lft.to/lastmile_qr_scan", "ios": "https://dc.lft.to/lastmile_qr_scan"}, "is_reserved": 0, "name": "22ad9e01a8383c6d2c9c115e8ed17282", "lon": -77.01472716666666, "type": "electric_scooter", "bike_id": "22ad9e01a8383c6d2c9c115e8ed17282", "fusion_lon": 0.0, "lat": 38.917666833333335, "fusion_lat": 0.0}, {"is_disabled": 0, "rental_uris": {"android": "https://dc.lft.to/lastmile_qr_scan", "ios": "https://dc.lft.to/lastmile_qr_scan"}, "is_reserved": 0, "name": "a3e2f33c936d97e52373c756f358a7eb", "lon": -76.995393, "type": "electric_scooter", "bike_id": "a3e2f33c936d97e52373c756f358a7eb", "fusion_lon": 0.0, "lat": 38.862545833333336, "fusion_lat": 0.0}, {"is_disabled": 0, "rental_uris": {"android": "https://dc.lft.to/lastmile_qr_scan", "ios": "https://dc.lft.to/lastmile_qr_scan"}, "is_reserved": 0, "name": "e822ccc123b160c9aca7a7c7dcfed037", "lon": -77.03984133333333, "type": "electric_bike", "bike_id": "e822ccc123b160c9aca7a7c7dcfed037", "fusion_lon": 0.0, "lat": 38.80296383333334, "fusion_lat": 0.0}, {"is_disabled": 0, "rental_uris": {"android": "https://dc.lft.to/lastmile_qr_scan", "ios": "https://dc.lft.to/lastmile_qr_scan"}, "is_reserved": 0, "name": "3ca91bd028470e64492b2b003bac2b2c", "lon": -77.01767883333333, "type": "electric_scooter", "bike_id": "3ca91bd028470e64492b2b003bac2b2c", "fusion_lon": 0.0, "lat": 38.88337883333333, "fusion_lat": 0.0}, {"is_disabled": 0, "rental_uris": {"android": "https://dc.lft.to/lastmile_qr_scan", "ios": "https://dc.lft.to/lastmile_qr_scan"}, "is_reserved": 0, "name": "5405e3e35fc0df6d44c4b379e8e24d99", "lon": -77.01668433333333, "type": "electric_scooter", "bike_id": "5405e3e35fc0df6d44c4b379e8e24d99", "fusion_lon": 0.0, "lat": 38.9290005, "fusion_lat": 0.0}, {"is_disabled": 0, "rental_uris": {"android": "https://dc.lft.to/lastmile_qr_scan", "ios": "https://dc.lft.to/lastmile_qr_scan"}, "is_reserved": 0, "name": "a058359e889c4f2238dcb4b21c90034b", "lon": -76.87773116666666, "type": "electric_bike", "bike_id": "a058359e889c4f2238dcb4b21c90034b", "fusion_lon": 0.0, "lat": 38.992303, "fusion_lat": 0.0}, {"is_disabled": 0, "rental_uris": {"android": "https://dc.lft.to/lastmile_qr_scan", "ios": "https://dc.lft.to/lastmile_qr_scan"}, "is_reserved": 0, "name": "2c9f42777b56ea94b4e1b4ab63a0e9da", "lon": -77.01302883333334, "type": "electric_scooter", "bike_id": "2c9f42777b56ea94b4e1b4ab63a0e9da", "fusion_lon": 0.0, "lat": 38.90141966666667, "fusion_lat": 0.0}, {"is_disabled": 0, "rental_uris": {"android": "https://dc.lft.to/lastmile_qr_scan", "ios": "https://dc.lft.to/lastmile_qr_scan"}, "is_reserved": 0, "name": "27d442c6cfa3ed56909d7b50fef9e8ac", "lon": -77.01480716666667, "type": "electric_scooter", "bike_id": "27d442c6cfa3ed56909d7b50fef9e8ac", "fusion_lon": 0.0, "lat": 38.876264666666664, "fusion_lat": 0.0}, {"is_disabled": 0, "rental_uris": {"android": "https://dc.lft.to/lastmile_qr_scan", "ios": "https://dc.lft.to/lastmile_qr_scan"}, "is_reserved": 0, "name": "90a22a035421ad34eb18239c7e2c6d7f", "lon": -77.04497, "type": "electric_scooter", "bike_id": "90a22a035421ad34eb18239c7e2c6d7f", "fusion_lon": 0.0, "lat": 38.89614233333333, "fusion_lat": 0.0}, {"is_disabled": 0, "rental_uris": {"android": "https://dc.lft.to/lastmile_qr_scan", "ios": "https://dc.lft.to/lastmile_qr_scan"}, "is_reserved": 0, "name": "27041ffd3a5978ffb82b50938c35ae24", "lon": -77.10727233333333, "type": "electric_bike", "bike_id": "27041ffd3a5978ffb82b50938c35ae24", "fusion_lon": 0.0, "lat": 38.85543966666667, "fusion_lat": 0.0}, {"is_disabled": 0, "rental_uris": {"android": "https://dc.lft.to/lastmile_qr_scan", "ios": "https://dc.lft.to/lastmile_qr_scan"}, "is_reserved": 0, "name": "8ae749d49e48e3055ee85504f5eb5fb3", "lon": -77.0315155, "type": "electric_bike", "bike_id": "8ae749d49e48e3055ee85504f5eb5fb3", "fusion_lon": 0.0, "lat": 38.89451066666667, "fusion_lat": 0.0}, {"is_disabled": 0, "rental_uris": {"android": "https://dc.lft.to/lastmile_qr_scan", "ios": "https://dc.lft.to/lastmile_qr_scan"}, "is_reserved": 0, "name": "a800b68472a509b99aeccba9fcd6501e", "lon": -77.02204816666666, "type": "electric_scooter", "bike_id": "a800b68472a509b99aeccba9fcd6501e", "fusion_lon": 0.0, "lat": 38.9054535, "fusion_lat": 0.0}, {"is_disabled": 0, "rental_uris": {"android": "https://dc.lft.to/lastmile_qr_scan", "ios": "https://dc.lft.to/lastmile_qr_scan"}, "is_reserved": 0, "name": "69c0dc390d3d740740df77ff24c98126", "lon": -77.02414916666666, "type": "electric_scooter", "bike_id": "69c0dc390d3d740740df77ff24c98126", "fusion_lon": 0.0, "lat": 38.892540333333336, "fusion_lat": 0.0}, {"is_disabled": 0, "rental_uris": {"android": "https://dc.lft.to/lastmile_qr_scan", "ios": "https://dc.lft.to/lastmile_qr_scan"}, "is_reserved": 0, "name": "0b7a7a2019c2f0e3e810ab7759d9dafa", "lon": -76.93754066666666, "type": "electric_scooter", "bike_id": "0b7a7a2019c2f0e3e810ab7759d9dafa", "fusion_lon": 0.0, "lat": 38.890460833333336, "fusion_lat": 0.0}, {"is_disabled": 0, "rental_uris": {"android": "https://dc.lft.to/lastmile_qr_scan", "ios": "https://dc.lft.to/lastmile_qr_scan"}, "is_reserved": 0, "name": "24ddad29968dcd83e4359ab8c34b671d", "lon": -77.02966433333333, "type": "electric_scooter", "bike_id": "24ddad29968dcd83e4359ab8c34b671d", "fusion_lon": 0.0, "lat": 38.924608166666665, "fusion_lat": 0.0}, {"is_disabled": 0, "rental_uris": {"android": "https://dc.lft.to/lastmile_qr_scan", "ios": "https://dc.lft.to/lastmile_qr_scan"}, "is_reserved": 0, "name": "ca142c0a588a508a86491b8e2dcaeb6a", "lon": -76.94866883333333, "type": "electric_bike", "bike_id": "ca142c0a588a508a86491b8e2dcaeb6a", "fusion_lon": 0.0, "lat": 38.889678333333336, "fusion_lat": 0.0}, {"is_disabled": 0, "rental_uris": {"android": "https://dc.lft.to/lastmile_qr_scan", "ios": "https://dc.lft.to/lastmile_qr_scan"}, "is_reserved": 0, "name": "7980f238534b16ea30eb06299772d2fd", "lon": -76.96389883333333, "type": "electric_bike", "bike_id": "7980f238534b16ea30eb06299772d2fd", "fusion_lon": 0.0, "lat": 38.9757935, "fusion_lat": 0.0}, {"is_disabled": 0, "rental_uris": {"android": "https://dc.lft.to/lastmile_qr_scan", "ios": "https://dc.lft.to/lastmile_qr_scan"}, "is_reserved": 0, "name": "8af7143dcaba9ac00c5c356db5a9841f", "lon": -77.00781966666666, "type": "electric_bike", "bike_id": "8af7143dcaba9ac00c5c356db5a9841f", "fusion_lon": 0.0, "lat": 38.9812805, "fusion_lat": 0.0}, {"is_disabled": 0, "rental_uris": {"android": "https://dc.lft.to/lastmile_qr_scan", "ios": "https://dc.lft.to/lastmile_qr_scan"}, "is_reserved": 0, "name": "1aeed1675d39ed55121a055c72eee71e", "lon": -77.11220883333333, "type": "electric_bike", "bike_id": "1aeed1675d39ed55121a055c72eee71e", "fusion_lon": 0.0, "lat": 38.828720833333335, "fusion_lat": 0.0}, {"is_disabled": 0, "rental_uris": {"android": "https://dc.lft.to/lastmile_qr_scan", "ios": "https://dc.lft.to/lastmile_qr_scan"}, "is_reserved": 0, "name": "b3e0cb1972fa287f50fa91b148e35cb6", "lon": -77.0284875, "type": "electric_scooter", "bike_id": "b3e0cb1972fa287f50fa91b148e35cb6", "fusion_lon": 0.0, "lat": 38.90157983333334, "fusion_lat": 0.0}, {"is_disabled": 0, "rental_uris": {"android": "https://dc.lft.to/lastmile_qr_scan", "ios": "https://dc.lft.to/lastmile_qr_scan"}, "is_reserved": 0, "name": "6ad42896790ba6fad34a7265437cdbf8", "lon": -77.03185733333333, "type": "electric_scooter", "bike_id": "6ad42896790ba6fad34a7265437cdbf8", "fusion_lon": 0.0, "lat": 38.892251, "fusion_lat": 0.0}, {"is_disabled": 0, "rental_uris": {"android": "https://dc.lft.to/lastmile_qr_scan", "ios": "https://dc.lft.to/lastmile_qr_scan"}, "is_reserved": 0, "name": "2965fad122dcbeac1e462a6834a9de28", "lon": -76.93756583333334, "type": "electric_scooter", "bike_id": "2965fad122dcbeac1e462a6834a9de28", "fusion_lon": 0.0, "lat": 38.890359, "fusion_lat": 0.0}, {"is_disabled": 0, "rental_uris": {"android": "https://dc.lft.to/lastmile_qr_scan", "ios": "https://dc.lft.to/lastmile_qr_scan"}, "is_reserved": 0, "name": "cb03465028e07a46b2ef3d113361f5b6", "lon": -77.03808416666666, "type": "electric_scooter", "bike_id": "cb03465028e07a46b2ef3d113361f5b6", "fusion_lon": 0.0, "lat": 38.90978283333333, "fusion_lat": 0.0}, {"is_disabled": 0, "rental_uris": {"android": "https://dc.lft.to/lastmile_qr_scan", "ios": "https://dc.lft.to/lastmile_qr_scan"}, "is_reserved": 0, "name": "1a59030d4226de06852016d4b7fdd58a", "lon": -77.03982166666667, "type": "electric_scooter", "bike_id": "1a59030d4226de06852016d4b7fdd58a", "fusion_lon": 0.0, "lat": 38.902565, "fusion_lat": 0.0}, {"is_disabled": 0, "rental_uris": {"android": "https://dc.lft.to/lastmile_qr_scan", "ios": "https://dc.lft.to/lastmile_qr_scan"}, "is_reserved": 0, "name": "c976b1a15477b466f688f0ff82703768", "lon": -77.01762366666667, "type": "electric_scooter", "bike_id": "c976b1a15477b466f688f0ff82703768", "fusion_lon": 0.0, "lat": 38.921049333333336, "fusion_lat": 0.0}, {"is_disabled": 0, "rental_uris": {"android": "https://dc.lft.to/lastmile_qr_scan", "ios": "https://dc.lft.to/lastmile_qr_scan"}, "is_reserved": 0, "name": "d75f0858b435d79dbd5c43705cf3e20a", "lon": -77.02954316666667, "type": "electric_scooter", "bike_id": "d75f0858b435d79dbd5c43705cf3e20a", "fusion_lon": 0.0, "lat": 38.905085666666665, "fusion_lat": 0.0}, {"is_disabled": 0, "rental_uris": {"android": "https://dc.lft.to/lastmile_qr_scan", "ios": "https://dc.lft.to/lastmile_qr_scan"}, "is_reserved": 0, "name": "e91de4ee47e6921f6337feeafee8523b", "lon": -77.0280535, "type": "electric_scooter", "bike_id": "e91de4ee47e6921f6337feeafee8523b", "fusion_lon": 0.0, "lat": 38.8973415, "fusion_lat": 0.0}, {"is_disabled": 0, "rental_uris": {"android": "https://dc.lft.to/lastmile_qr_scan", "ios": "https://dc.lft.to/lastmile_qr_scan"}, "is_reserved": 0, "name": "3189b15062715b1b560ede1f41d737b8", "lon": -77.07295216666667, "type": "electric_scooter", "bike_id": "3189b15062715b1b560ede1f41d737b8", "fusion_lon": 0.0, "lat": 38.92280383333333, "fusion_lat": 0.0}, {"is_disabled": 0, "rental_uris": {"android": "https://dc.lft.to/lastmile_qr_scan", "ios": "https://dc.lft.to/lastmile_qr_scan"}, "is_reserved": 0, "name": "d83cf40d1664030a7b047f9c9486c8ee", "lon": -77.042101, "type": "electric_scooter", "bike_id": "d83cf40d1664030a7b047f9c9486c8ee", "fusion_lon": 0.0, "lat": 38.90903983333333, "fusion_lat": 0.0}, {"is_disabled": 0, "rental_uris": {"android": "https://dc.lft.to/lastmile_qr_scan", "ios": "https://dc.lft.to/lastmile_qr_scan"}, "is_reserved": 0, "name": "6d6f2407955479d475e0626a4512a861", "lon": -77.04349, "type": "electric_scooter", "bike_id": "6d6f2407955479d475e0626a4512a861", "fusion_lon": 0.0, "lat": 38.90335133333333, "fusion_lat": 0.0}, {"is_disabled": 0, "rental_uris": {"android": "https://dc.lft.to/lastmile_qr_scan", "ios": "https://dc.lft.to/lastmile_qr_scan"}, "is_reserved": 0, "name": "8e6c357a06e4818e2d0407f058ec6ac9", "lon": -77.0201055, "type": "electric_scooter", "bike_id": "8e6c357a06e4818e2d0407f058ec6ac9", "fusion_lon": 0.0, "lat": 38.89565533333333, "fusion_lat": 0.0}, {"is_disabled": 0, "rental_uris": {"android": "https://dc.lft.to/lastmile_qr_scan", "ios": "https://dc.lft.to/lastmile_qr_scan"}, "is_reserved": 0, "name": "b10cae22abea5d6d8e40596cc518bb76", "lon": -76.87496216666666, "type": "electric_bike", "bike_id": "b10cae22abea5d6d8e40596cc518bb76", "fusion_lon": 0.0, "lat": 38.990924666666665, "fusion_lat": 0.0}, {"is_disabled": 0, "rental_uris": {"android": "https://dc.lft.to/lastmile_qr_scan", "ios": "https://dc.lft.to/lastmile_qr_scan"}, "is_reserved": 0, "name": "04fd12f3d5d118f3f4daef16bd7ccf0c", "lon": -77.0318005, "type": "electric_scooter", "bike_id": "04fd12f3d5d118f3f4daef16bd7ccf0c", "fusion_lon": 0.0, "lat": 38.9191385, "fusion_lat": 0.0}, {"is_disabled": 0, "rental_uris": {"android": "https://dc.lft.to/lastmile_qr_scan", "ios": "https://dc.lft.to/lastmile_qr_scan"}, "is_reserved": 0, "name": "ea831a023863e9c72f4b60c1ad30f664", "lon": -77.03755983333333, "type": "electric_scooter", "bike_id": "ea831a023863e9c72f4b60c1ad30f664", "fusion_lon": 0.0, "lat": 38.929027833333336, "fusion_lat": 0.0}, {"is_disabled": 0, "rental_uris": {"android": "https://dc.lft.to/lastmile_qr_scan", "ios": "https://dc.lft.to/lastmile_qr_scan"}, "is_reserved": 0, "name": "a45838feda25e6659ba24a55415353b0", "lon": -77.04182366666667, "type": "electric_scooter", "bike_id": "a45838feda25e6659ba24a55415353b0", "fusion_lon": 0.0, "lat": 38.89229683333333, "fusion_lat": 0.0}, {"is_disabled": 0, "rental_uris": {"android": "https://dc.lft.to/lastmile_qr_scan", "ios": "https://dc.lft.to/lastmile_qr_scan"}, "is_reserved": 0, "name": "1548d67076fe7eb37e804089409cb976", "lon": -77.03153933333333, "type": "electric_scooter", "bike_id": "1548d67076fe7eb37e804089409cb976", "fusion_lon": 0.0, "lat": 38.927242666666665, "fusion_lat": 0.0}, {"is_disabled": 0, "rental_uris": {"android": "https://dc.lft.to/lastmile_qr_scan", "ios": "https://dc.lft.to/lastmile_qr_scan"}, "is_reserved": 0, "name": "3616dffbd39a17e30a9e7f867e444d74", "lon": -77.03828266666666, "type": "electric_scooter", "bike_id": "3616dffbd39a17e30a9e7f867e444d74", "fusion_lon": 0.0, "lat": 38.90667716666667, "fusion_lat": 0.0}, {"is_disabled": 0, "rental_uris": {"android": "https://dc.lft.to/lastmile_qr_scan", "ios": "https://dc.lft.to/lastmile_qr_scan"}, "is_reserved": 0, "name": "96bd33c0fcd57b20e68cf314f6906352", "lon": -76.98202333333333, "type": "electric_bike", "bike_id": "96bd33c0fcd57b20e68cf314f6906352", "fusion_lon": 0.0, "lat": 38.98503733333333, "fusion_lat": 0.0}, {"is_disabled": 0, "rental_uris": {"android": "https://dc.lft.to/lastmile_qr_scan", "ios": "https://dc.lft.to/lastmile_qr_scan"}, "is_reserved": 0, "name": "096f9198e6883eadcca7bf837b16a106", "lon": -77.019885, "type": "electric_scooter", "bike_id": "096f9198e6883eadcca7bf837b16a106", "fusion_lon": 0.0, "lat": 38.88596033333334, "fusion_lat": 0.0}, {"is_disabled": 0, "rental_uris": {"android": "https://dc.lft.to/lastmile_qr_scan", "ios": "https://dc.lft.to/lastmile_qr_scan"}, "is_reserved": 0, "name": "9bba41517b04839673dccf98e6d5f70a", "lon": -77.026885, "type": "electric_scooter", "bike_id": "9bba41517b04839673dccf98e6d5f70a", "fusion_lon": 0.0, "lat": 38.920692333333335, "fusion_lat": 0.0}, {"is_disabled": 0, "rental_uris": {"android": "https://dc.lft.to/lastmile_qr_scan", "ios": "https://dc.lft.to/lastmile_qr_scan"}, "is_reserved": 0, "name": "f80e1dffb44b3f160b2d786e263ac03e", "lon": -77.04370366666667, "type": "electric_scooter", "bike_id": "f80e1dffb44b3f160b2d786e263ac03e", "fusion_lon": 0.0, "lat": 38.90272816666667, "fusion_lat": 0.0}, {"is_disabled": 0, "rental_uris": {"android": "https://dc.lft.to/lastmile_qr_scan", "ios": "https://dc.lft.to/lastmile_qr_scan"}, "is_reserved": 0, "name": "62895e606f64b7f289e368f33c300a65", "lon": -77.02971866666667, "type": "electric_scooter", "bike_id": "62895e606f64b7f289e368f33c300a65", "fusion_lon": 0.0, "lat": 38.922500666666664, "fusion_lat": 0.0}, {"is_disabled": 0, "rental_uris": {"android": "https://dc.lft.to/lastmile_qr_scan", "ios": "https://dc.lft.to/lastmile_qr_scan"}, "is_reserved": 0, "name": "a49c27a80e2a3542ccd6ad449acf83a6", "lon": -77.048814, "type": "electric_scooter", "bike_id": "a49c27a80e2a3542ccd6ad449acf83a6", "fusion_lon": 0.0, "lat": 38.90741116666667, "fusion_lat": 0.0}, {"is_disabled": 0, "rental_uris": {"android": "https://dc.lft.to/lastmile_qr_scan", "ios": "https://dc.lft.to/lastmile_qr_scan"}, "is_reserved": 0, "name": "9dbb2d516020355f109a324e7f6beeca", "lon": -77.043978, "type": "electric_scooter", "bike_id": "9dbb2d516020355f109a324e7f6beeca", "fusion_lon": 0.0, "lat": 38.894003, "fusion_lat": 0.0}, {"is_disabled": 0, "rental_uris": {"android": "https://dc.lft.to/lastmile_qr_scan", "ios": "https://dc.lft.to/lastmile_qr_scan"}, "is_reserved": 0, "name": "b0b68ac18cfcf186fb44cc78880d3e34", "lon": -77.04279666666666, "type": "electric_scooter", "bike_id": "b0b68ac18cfcf186fb44cc78880d3e34", "fusion_lon": 0.0, "lat": 38.9341455, "fusion_lat": 0.0}, {"is_disabled": 0, "rental_uris": {"android": "https://dc.lft.to/lastmile_qr_scan", "ios": "https://dc.lft.to/lastmile_qr_scan"}, "is_reserved": 0, "name": "76d15f37fefdfe7a7cc64558fc588291", "lon": -77.02383483333334, "type": "electric_bike", "bike_id": "76d15f37fefdfe7a7cc64558fc588291", "fusion_lon": 0.0, "lat": 38.9907185, "fusion_lat": 0.0}, {"is_disabled": 0, "rental_uris": {"android": "https://dc.lft.to/lastmile_qr_scan", "ios": "https://dc.lft.to/lastmile_qr_scan"}, "is_reserved": 0, "name": "638b23a7e0aa37bef1c5abd33c76f74f", "lon": -77.04357633333333, "type": "electric_scooter", "bike_id": "638b23a7e0aa37bef1c5abd33c76f74f", "fusion_lon": 0.0, "lat": 38.905034666666666, "fusion_lat": 0.0}, {"is_disabled": 0, "rental_uris": {"android": "https://dc.lft.to/lastmile_qr_scan", "ios": "https://dc.lft.to/lastmile_qr_scan"}, "is_reserved": 0, "name": "e77371a83be97ad4a52d74d76a971a3f", "lon": -77.0415475, "type": "electric_scooter", "bike_id": "e77371a83be97ad4a52d74d76a971a3f", "fusion_lon": 0.0, "lat": 38.9179705, "fusion_lat": 0.0}, {"is_disabled": 0, "rental_uris": {"android": "https://dc.lft.to/lastmile_qr_scan", "ios": "https://dc.lft.to/lastmile_qr_scan"}, "is_reserved": 0, "name": "e8664fb3b1480b3c0fecb961792ee6cc", "lon": -77.00563866666667, "type": "electric_scooter", "bike_id": "e8664fb3b1480b3c0fecb961792ee6cc", "fusion_lon": 0.0, "lat": 38.885057, "fusion_lat": 0.0}, {"is_disabled": 0, "rental_uris": {"android": "https://dc.lft.to/lastmile_qr_scan", "ios": "https://dc.lft.to/lastmile_qr_scan"}, "is_reserved": 0, "name": "a253f33c7974c5171b3c1e60f5df6a46", "lon": -77.02692266666666, "type": "electric_scooter", "bike_id": "a253f33c7974c5171b3c1e60f5df6a46", "fusion_lon": 0.0, "lat": 38.896399833333334, "fusion_lat": 0.0}, {"is_disabled": 0, "rental_uris": {"android": "https://dc.lft.to/lastmile_qr_scan", "ios": "https://dc.lft.to/lastmile_qr_scan"}, "is_reserved": 0, "name": "85ce7d6041fb525c563dfab4a02ca441", "lon": -77.03484533333334, "type": "electric_scooter", "bike_id": "85ce7d6041fb525c563dfab4a02ca441", "fusion_lon": 0.0, "lat": 38.9248555, "fusion_lat": 0.0}, {"is_disabled": 0, "rental_uris": {"android": "https://dc.lft.to/lastmile_qr_scan", "ios": "https://dc.lft.to/lastmile_qr_scan"}, "is_reserved": 0, "name": "93926d3b0e30622f139d92c7c878523a", "lon": -76.97795216666667, "type": "electric_bike", "bike_id": "93926d3b0e30622f139d92c7c878523a", "fusion_lon": 0.0, "lat": 38.896085166666666, "fusion_lat": 0.0}, {"is_disabled": 0, "rental_uris": {"android": "https://dc.lft.to/lastmile_qr_scan", "ios": "https://dc.lft.to/lastmile_qr_scan"}, "is_reserved": 0, "name": "5f03dee36b5b16285e441e3cf6f26cbb", "lon": -77.02068366666667, "type": "electric_scooter", "bike_id": "5f03dee36b5b16285e441e3cf6f26cbb", "fusion_lon": 0.0, "lat": 38.88118816666667, "fusion_lat": 0.0}, {"is_disabled": 0, "rental_uris": {"android": "https://dc.lft.to/lastmile_qr_scan", "ios": "https://dc.lft.to/lastmile_qr_scan"}, "is_reserved": 0, "name": "b528e7aab90d14a926282c49f09bc06b", "lon": -77.00376, "type": "electric_scooter", "bike_id": "b528e7aab90d14a926282c49f09bc06b", "fusion_lon": 0.0, "lat": 38.89731483333333, "fusion_lat": 0.0}, {"is_disabled": 0, "rental_uris": {"android": "https://dc.lft.to/lastmile_qr_scan", "ios": "https://dc.lft.to/lastmile_qr_scan"}, "is_reserved": 0, "name": "21cd9feded1c97f2daa2912bb2a21ea9", "lon": -76.98884766666667, "type": "electric_scooter", "bike_id": "21cd9feded1c97f2daa2912bb2a21ea9", "fusion_lon": 0.0, "lat": 38.866608166666666, "fusion_lat": 0.0}, {"is_disabled": 0, "rental_uris": {"android": "https://dc.lft.to/lastmile_qr_scan", "ios": "https://dc.lft.to/lastmile_qr_scan"}, "is_reserved": 0, "name": "497751f68a44df09ba8b06b4df30d7c9", "lon": -77.04813966666667, "type": "electric_scooter", "bike_id": "497751f68a44df09ba8b06b4df30d7c9", "fusion_lon": 0.0, "lat": 38.920397666666666, "fusion_lat": 0.0}, {"is_disabled": 0, "rental_uris": {"android": "https://dc.lft.to/lastmile_qr_scan", "ios": "https://dc.lft.to/lastmile_qr_scan"}, "is_reserved": 0, "name": "22a7c41048fe1e775183fa924ac773ba", "lon": -77.0653285, "type": "electric_scooter", "bike_id": "22a7c41048fe1e775183fa924ac773ba", "fusion_lon": 0.0, "lat": 38.90528166666667, "fusion_lat": 0.0}, {"is_disabled": 0, "rental_uris": {"android": "https://dc.lft.to/lastmile_qr_scan", "ios": "https://dc.lft.to/lastmile_qr_scan"}, "is_reserved": 0, "name": "586db5294bdfe5373b9b34d4db10e538", "lon": -77.04423633333333, "type": "electric_scooter", "bike_id": "586db5294bdfe5373b9b34d4db10e538", "fusion_lon": 0.0, "lat": 38.911318666666666, "fusion_lat": 0.0}, {"is_disabled": 0, "rental_uris": {"android": "https://dc.lft.to/lastmile_qr_scan", "ios": "https://dc.lft.to/lastmile_qr_scan"}, "is_reserved": 0, "name": "cef57a1b5420e080ce5a598533ea6ee2", "lon": -77.03517516666666, "type": "electric_scooter", "bike_id": "cef57a1b5420e080ce5a598533ea6ee2", "fusion_lon": 0.0, "lat": 38.9223835, "fusion_lat": 0.0}, {"is_disabled": 0, "rental_uris": {"android": "https://dc.lft.to/lastmile_qr_scan", "ios": "https://dc.lft.to/lastmile_qr_scan"}, "is_reserved": 0, "name": "2f0224a0d50dc42cbae82271dc7b42ab", "lon": -77.0451515, "type": "electric_scooter", "bike_id": "2f0224a0d50dc42cbae82271dc7b42ab", "fusion_lon": 0.0, "lat": 38.903779166666666, "fusion_lat": 0.0}, {"is_disabled": 0, "rental_uris": {"android": "https://dc.lft.to/lastmile_qr_scan", "ios": "https://dc.lft.to/lastmile_qr_scan"}, "is_reserved": 0, "name": "0084b003f6b74167b08a8130ae43e909", "lon": -77.02799216666666, "type": "electric_scooter", "bike_id": "0084b003f6b74167b08a8130ae43e909", "fusion_lon": 0.0, "lat": 38.88423016666667, "fusion_lat": 0.0}, {"is_disabled": 0, "rental_uris": {"android": "https://dc.lft.to/lastmile_qr_scan", "ios": "https://dc.lft.to/lastmile_qr_scan"}, "is_reserved": 0, "name": "ac279b331d477397b02a6fc43e8ebaea", "lon": -77.04142516666667, "type": "electric_scooter", "bike_id": "ac279b331d477397b02a6fc43e8ebaea", "fusion_lon": 0.0, "lat": 38.901380333333336, "fusion_lat": 0.0}, {"is_disabled": 0, "rental_uris": {"android": "https://dc.lft.to/lastmile_qr_scan", "ios": "https://dc.lft.to/lastmile_qr_scan"}, "is_reserved": 0, "name": "c4eb7c9f946f11c47d06cf0caf2e8c9a", "lon": -77.04501766666667, "type": "electric_scooter", "bike_id": "c4eb7c9f946f11c47d06cf0caf2e8c9a", "fusion_lon": 0.0, "lat": 38.8961495, "fusion_lat": 0.0}, {"is_disabled": 0, "rental_uris": {"android": "https://dc.lft.to/lastmile_qr_scan", "ios": "https://dc.lft.to/lastmile_qr_scan"}, "is_reserved": 0, "name": "3d564e7b747532ba767efbc600d8059d", "lon": -77.003354, "type": "electric_scooter", "bike_id": "3d564e7b747532ba767efbc600d8059d", "fusion_lon": 0.0, "lat": 38.8935465, "fusion_lat": 0.0}, {"is_disabled": 0, "rental_uris": {"android": "https://dc.lft.to/lastmile_qr_scan", "ios": "https://dc.lft.to/lastmile_qr_scan"}, "is_reserved": 0, "name": "cb8cd7662d1c0097e3bc220272610711", "lon": -77.010497, "type": "electric_scooter", "bike_id": "cb8cd7662d1c0097e3bc220272610711", "fusion_lon": 0.0, "lat": 38.8988915, "fusion_lat": 0.0}, {"is_disabled": 0, "rental_uris": {"android": "https://dc.lft.to/lastmile_qr_scan", "ios": "https://dc.lft.to/lastmile_qr_scan"}, "is_reserved": 0, "name": "ed47f39b85c0edf5d95df2e78781c22b", "lon": -76.97723433333333, "type": "electric_scooter", "bike_id": "ed47f39b85c0edf5d95df2e78781c22b", "fusion_lon": 0.0, "lat": 38.88829583333333, "fusion_lat": 0.0}, {"is_disabled": 0, "rental_uris": {"android": "https://dc.lft.to/lastmile_qr_scan", "ios": "https://dc.lft.to/lastmile_qr_scan"}, "is_reserved": 0, "name": "cf1abd3686bf664b578b4636aa4d8755", "lon": -77.034537, "type": "electric_scooter", "bike_id": "cf1abd3686bf664b578b4636aa4d8755", "fusion_lon": 0.0, "lat": 38.91014466666667, "fusion_lat": 0.0}, {"is_disabled": 0, "rental_uris": {"android": "https://dc.lft.to/lastmile_qr_scan", "ios": "https://dc.lft.to/lastmile_qr_scan"}, "is_reserved": 0, "name": "cd8fe51ba5d9649d897b59334db4931d", "lon": -77.03844816666667, "type": "electric_scooter", "bike_id": "cd8fe51ba5d9649d897b59334db4931d", "fusion_lon": 0.0, "lat": 38.903871, "fusion_lat": 0.0}, {"is_disabled": 0, "rental_uris": {"android": "https://dc.lft.to/lastmile_qr_scan", "ios": "https://dc.lft.to/lastmile_qr_scan"}, "is_reserved": 0, "name": "7ac80be9868c4214b6e69aad6e23a3e1", "lon": -77.04348033333333, "type": "electric_scooter", "bike_id": "7ac80be9868c4214b6e69aad6e23a3e1", "fusion_lon": 0.0, "lat": 38.911273666666666, "fusion_lat": 0.0}, {"is_disabled": 0, "rental_uris": {"android": "https://dc.lft.to/lastmile_qr_scan", "ios": "https://dc.lft.to/lastmile_qr_scan"}, "is_reserved": 0, "name": "2a2a3ec6f1638ab368741dbc958da3df", "lon": -77.03229033333334, "type": "electric_scooter", "bike_id": "2a2a3ec6f1638ab368741dbc958da3df", "fusion_lon": 0.0, "lat": 38.909688, "fusion_lat": 0.0}, {"is_disabled": 0, "rental_uris": {"android": "https://dc.lft.to/lastmile_qr_scan", "ios": "https://dc.lft.to/lastmile_qr_scan"}, "is_reserved": 0, "name": "9438fcd19af138f7cf23727585bc1582", "lon": -77.02308766666667, "type": "electric_scooter", "bike_id": "9438fcd19af138f7cf23727585bc1582", "fusion_lon": 0.0, "lat": 38.916969333333334, "fusion_lat": 0.0}, {"is_disabled": 0, "rental_uris": {"android": "https://dc.lft.to/lastmile_qr_scan", "ios": "https://dc.lft.to/lastmile_qr_scan"}, "is_reserved": 0, "name": "c64cafa7b95b2a98bfef11633ba3105c", "lon": -77.11511816666666, "type": "electric_bike", "bike_id": "c64cafa7b95b2a98bfef11633ba3105c", "fusion_lon": 0.0, "lat": 38.88221983333333, "fusion_lat": 0.0}, {"is_disabled": 0, "rental_uris": {"android": "https://dc.lft.to/lastmile_qr_scan", "ios": "https://dc.lft.to/lastmile_qr_scan"}, "is_reserved": 0, "name": "1937cb55b14dca3fb14bcb60873c6a42", "lon": -77.04415283333333, "type": "electric_scooter", "bike_id": "1937cb55b14dca3fb14bcb60873c6a42", "fusion_lon": 0.0, "lat": 38.917705166666664, "fusion_lat": 0.0}, {"is_disabled": 0, "rental_uris": {"android": "https://dc.lft.to/lastmile_qr_scan", "ios": "https://dc.lft.to/lastmile_qr_scan"}, "is_reserved": 0, "name": "73f4c12bf5bcff0fc1294d7535f92d2c", "lon": -77.02190883333333, "type": "electric_scooter", "bike_id": "73f4c12bf5bcff0fc1294d7535f92d2c", "fusion_lon": 0.0, "lat": 38.901539666666665, "fusion_lat": 0.0}, {"is_disabled": 0, "rental_uris": {"android": "https://dc.lft.to/lastmile_qr_scan", "ios": "https://dc.lft.to/lastmile_qr_scan"}, "is_reserved": 0, "name": "13ab8e5cbcbc173daf788dfbe2a857a4", "lon": -76.984744, "type": "electric_scooter", "bike_id": "13ab8e5cbcbc173daf788dfbe2a857a4", "fusion_lon": 0.0, "lat": 38.8935585, "fusion_lat": 0.0}, {"is_disabled": 0, "rental_uris": {"android": "https://dc.lft.to/lastmile_qr_scan", "ios": "https://dc.lft.to/lastmile_qr_scan"}, "is_reserved": 0, "name": "51c0b0760ad8afd124b02abdd36ad761", "lon": -76.9799595, "type": "electric_scooter", "bike_id": "51c0b0760ad8afd124b02abdd36ad761", "fusion_lon": 0.0, "lat": 38.88873816666667, "fusion_lat": 0.0}, {"is_disabled": 0, "rental_uris": {"android": "https://dc.lft.to/lastmile_qr_scan", "ios": "https://dc.lft.to/lastmile_qr_scan"}, "is_reserved": 0, "name": "756e1e4736277c1ce6787f25fc869d5f", "lon": -77.0308695, "type": "electric_scooter", "bike_id": "756e1e4736277c1ce6787f25fc869d5f", "fusion_lon": 0.0, "lat": 38.9224095, "fusion_lat": 0.0}, {"is_disabled": 0, "rental_uris": {"android": "https://dc.lft.to/lastmile_qr_scan", "ios": "https://dc.lft.to/lastmile_qr_scan"}, "is_reserved": 0, "name": "2c0b5ea975368975934fe5b8b0c958bf", "lon": -77.04408, "type": "electric_scooter", "bike_id": "2c0b5ea975368975934fe5b8b0c958bf", "fusion_lon": 0.0, "lat": 38.929522, "fusion_lat": 0.0}, {"is_disabled": 0, "rental_uris": {"android": "https://dc.lft.to/lastmile_qr_scan", "ios": "https://dc.lft.to/lastmile_qr_scan"}, "is_reserved": 0, "name": "d207f957d304232625a7010cef787273", "lon": -77.02782333333333, "type": "electric_scooter", "bike_id": "d207f957d304232625a7010cef787273", "fusion_lon": 0.0, "lat": 38.951243, "fusion_lat": 0.0}, {"is_disabled": 0, "rental_uris": {"android": "https://dc.lft.to/lastmile_qr_scan", "ios": "https://dc.lft.to/lastmile_qr_scan"}, "is_reserved": 0, "name": "60d6bc41c0b353b5fd3932fe03d20417", "lon": -77.0204805, "type": "electric_scooter", "bike_id": "60d6bc41c0b353b5fd3932fe03d20417", "fusion_lon": 0.0, "lat": 38.95870566666667, "fusion_lat": 0.0}, {"is_disabled": 0, "rental_uris": {"android": "https://dc.lft.to/lastmile_qr_scan", "ios": "https://dc.lft.to/lastmile_qr_scan"}, "is_reserved": 0, "name": "e2fa52f350b341fcf0027304d2da3db2", "lon": -77.050273, "type": "electric_bike", "bike_id": "e2fa52f350b341fcf0027304d2da3db2", "fusion_lon": 0.0, "lat": 38.9007475, "fusion_lat": 0.0}, {"is_disabled": 0, "rental_uris": {"android": "https://dc.lft.to/lastmile_qr_scan", "ios": "https://dc.lft.to/lastmile_qr_scan"}, "is_reserved": 0, "name": "342f325a2d6000a8f2d6c34098e3ee41", "lon": -77.044736, "type": "electric_scooter", "bike_id": "342f325a2d6000a8f2d6c34098e3ee41", "fusion_lon": 0.0, "lat": 38.911053333333335, "fusion_lat": 0.0}, {"is_disabled": 0, "rental_uris": {"android": "https://dc.lft.to/lastmile_qr_scan", "ios": "https://dc.lft.to/lastmile_qr_scan"}, "is_reserved": 0, "name": "2bf67de3c3b68ec1d846bf2806d8ee4c", "lon": -77.02110483333334, "type": "electric_scooter", "bike_id": "2bf67de3c3b68ec1d846bf2806d8ee4c", "fusion_lon": 0.0, "lat": 38.94096233333333, "fusion_lat": 0.0}, {"is_disabled": 0, "rental_uris": {"android": "https://dc.lft.to/lastmile_qr_scan", "ios": "https://dc.lft.to/lastmile_qr_scan"}, "is_reserved": 0, "name": "38a4d09540b44436bfcea5c51e01b311", "lon": -76.990532, "type": "electric_scooter", "bike_id": "38a4d09540b44436bfcea5c51e01b311", "fusion_lon": 0.0, "lat": 38.86353366666667, "fusion_lat": 0.0}, {"is_disabled": 0, "rental_uris": {"android": "https://dc.lft.to/lastmile_qr_scan", "ios": "https://dc.lft.to/lastmile_qr_scan"}, "is_reserved": 0, "name": "95ca634557bbc9f9b27148d7e75f7bf3", "lon": -77.01245783333333, "type": "electric_scooter", "bike_id": "95ca634557bbc9f9b27148d7e75f7bf3", "fusion_lon": 0.0, "lat": 38.93106083333333, "fusion_lat": 0.0}, {"is_disabled": 0, "rental_uris": {"android": "https://dc.lft.to/lastmile_qr_scan", "ios": "https://dc.lft.to/lastmile_qr_scan"}, "is_reserved": 0, "name": "092db97f83bbe6518564f25c01e0c911", "lon": -77.02481133333333, "type": "electric_scooter", "bike_id": "092db97f83bbe6518564f25c01e0c911", "fusion_lon": 0.0, "lat": 38.9375935, "fusion_lat": 0.0}, {"is_disabled": 0, "rental_uris": {"android": "https://dc.lft.to/lastmile_qr_scan", "ios": "https://dc.lft.to/lastmile_qr_scan"}, "is_reserved": 0, "name": "2436d60e4f64f9649e979a007683656f", "lon": -77.04125816666667, "type": "electric_scooter", "bike_id": "2436d60e4f64f9649e979a007683656f", "fusion_lon": 0.0, "lat": 38.92138383333333, "fusion_lat": 0.0}, {"is_disabled": 0, "rental_uris": {"android": "https://dc.lft.to/lastmile_qr_scan", "ios": "https://dc.lft.to/lastmile_qr_scan"}, "is_reserved": 0, "name": "0690de22c964d35919b7cb3891e9476b", "lon": -77.018546, "type": "electric_scooter", "bike_id": "0690de22c964d35919b7cb3891e9476b", "fusion_lon": 0.0, "lat": 38.954322, "fusion_lat": 0.0}, {"is_disabled": 0, "rental_uris": {"android": "https://dc.lft.to/lastmile_qr_scan", "ios": "https://dc.lft.to/lastmile_qr_scan"}, "is_reserved": 0, "name": "49717098c1cec20a5e0886ed93aa3b02", "lon": -77.008146, "type": "electric_scooter", "bike_id": "49717098c1cec20a5e0886ed93aa3b02", "fusion_lon": 0.0, "lat": 38.88332916666667, "fusion_lat": 0.0}, {"is_disabled": 0, "rental_uris": {"android": "https://dc.lft.to/lastmile_qr_scan", "ios": "https://dc.lft.to/lastmile_qr_scan"}, "is_reserved": 0, "name": "1f94884c5de4d5a6013bbc9cc1a941fa", "lon": -77.03607466666666, "type": "electric_scooter", "bike_id": "1f94884c5de4d5a6013bbc9cc1a941fa", "fusion_lon": 0.0, "lat": 38.91109133333333, "fusion_lat": 0.0}, {"is_disabled": 0, "rental_uris": {"android": "https://dc.lft.to/lastmile_qr_scan", "ios": "https://dc.lft.to/lastmile_qr_scan"}, "is_reserved": 0, "name": "593509c61e5b1dab28cf27d8162fb3d3", "lon": -77.021598, "type": "electric_scooter", "bike_id": "593509c61e5b1dab28cf27d8162fb3d3", "fusion_lon": 0.0, "lat": 38.9261325, "fusion_lat": 0.0}, {"is_disabled": 0, "rental_uris": {"android": "https://dc.lft.to/lastmile_qr_scan", "ios": "https://dc.lft.to/lastmile_qr_scan"}, "is_reserved": 0, "name": "6bb1d8f67e986981fdd72cc81b1242c7", "lon": -76.997026, "type": "electric_scooter", "bike_id": "6bb1d8f67e986981fdd72cc81b1242c7", "fusion_lon": 0.0, "lat": 38.83866583333333, "fusion_lat": 0.0}, {"is_disabled": 0, "rental_uris": {"android": "https://dc.lft.to/lastmile_qr_scan", "ios": "https://dc.lft.to/lastmile_qr_scan"}, "is_reserved": 0, "name": "0be879f089bc04b12bd64084563807b0", "lon": -77.00588783333333, "type": "electric_scooter", "bike_id": "0be879f089bc04b12bd64084563807b0", "fusion_lon": 0.0, "lat": 38.92759383333333, "fusion_lat": 0.0}, {"is_disabled": 0, "rental_uris": {"android": "https://dc.lft.to/lastmile_qr_scan", "ios": "https://dc.lft.to/lastmile_qr_scan"}, "is_reserved": 0, "name": "adfaa127b749125fc152e2fadf748582", "lon": -76.980719, "type": "electric_scooter", "bike_id": "adfaa127b749125fc152e2fadf748582", "fusion_lon": 0.0, "lat": 38.919368166666665, "fusion_lat": 0.0}, {"is_disabled": 0, "rental_uris": {"android": "https://dc.lft.to/lastmile_qr_scan", "ios": "https://dc.lft.to/lastmile_qr_scan"}, "is_reserved": 0, "name": "16671694c429391304bacdaf6d2a34ed", "lon": -77.02543, "type": "electric_scooter", "bike_id": "16671694c429391304bacdaf6d2a34ed", "fusion_lon": 0.0, "lat": 38.907198666666666, "fusion_lat": 0.0}, {"is_disabled": 0, "rental_uris": {"android": "https://dc.lft.to/lastmile_qr_scan", "ios": "https://dc.lft.to/lastmile_qr_scan"}, "is_reserved": 0, "name": "f2ad94ec38359fb5a0a511042e96fe00", "lon": -77.0020575, "type": "electric_scooter", "bike_id": "f2ad94ec38359fb5a0a511042e96fe00", "fusion_lon": 0.0, "lat": 38.900287666666664, "fusion_lat": 0.0}, {"is_disabled": 0, "rental_uris": {"android": "https://dc.lft.to/lastmile_qr_scan", "ios": "https://dc.lft.to/lastmile_qr_scan"}, "is_reserved": 0, "name": "f81672175fd998eef7bb4d0f10d19197", "lon": -77.04149783333334, "type": "electric_scooter", "bike_id": "f81672175fd998eef7bb4d0f10d19197", "fusion_lon": 0.0, "lat": 38.923523833333334, "fusion_lat": 0.0}, {"is_disabled": 0, "rental_uris": {"android": "https://dc.lft.to/lastmile_qr_scan", "ios": "https://dc.lft.to/lastmile_qr_scan"}, "is_reserved": 0, "name": "58fd8adbeadfd9e271cd86b9b8171db4", "lon": -77.04105433333334, "type": "electric_scooter", "bike_id": "58fd8adbeadfd9e271cd86b9b8171db4", "fusion_lon": 0.0, "lat": 38.906054, "fusion_lat": 0.0}, {"is_disabled": 0, "rental_uris": {"android": "https://dc.lft.to/lastmile_qr_scan", "ios": "https://dc.lft.to/lastmile_qr_scan"}, "is_reserved": 0, "name": "710e91d7507a79b8a5a89f11be3e8705", "lon": -77.01377683333334, "type": "electric_scooter", "bike_id": "710e91d7507a79b8a5a89f11be3e8705", "fusion_lon": 0.0, "lat": 38.8708745, "fusion_lat": 0.0}, {"is_disabled": 0, "rental_uris": {"android": "https://dc.lft.to/lastmile_qr_scan", "ios": "https://dc.lft.to/lastmile_qr_scan"}, "is_reserved": 0, "name": "982a1990a72c1f7ae922c49367fde125", "lon": -76.93199933333334, "type": "electric_bike", "bike_id": "982a1990a72c1f7ae922c49367fde125", "fusion_lon": 0.0, "lat": 38.872326666666666, "fusion_lat": 0.0}, {"is_disabled": 0, "rental_uris": {"android": "https://dc.lft.to/lastmile_qr_scan", "ios": "https://dc.lft.to/lastmile_qr_scan"}, "is_reserved": 0, "name": "fe480fbebb5d34e7f6ac73c6c0868b85", "lon": -77.00876416666667, "type": "electric_scooter", "bike_id": "fe480fbebb5d34e7f6ac73c6c0868b85", "fusion_lon": 0.0, "lat": 38.90573916666666, "fusion_lat": 0.0}, {"is_disabled": 0, "rental_uris": {"android": "https://dc.lft.to/lastmile_qr_scan", "ios": "https://dc.lft.to/lastmile_qr_scan"}, "is_reserved": 0, "name": "9dd2117d514acc0d8fc06760cb58632c", "lon": -76.972171, "type": "electric_scooter", "bike_id": "9dd2117d514acc0d8fc06760cb58632c", "fusion_lon": 0.0, "lat": 38.897972833333334, "fusion_lat": 0.0}, {"is_disabled": 0, "rental_uris": {"android": "https://dc.lft.to/lastmile_qr_scan", "ios": "https://dc.lft.to/lastmile_qr_scan"}, "is_reserved": 0, "name": "75fe7f3f11aedd64f818662b63acf091", "lon": -77.03245033333333, "type": "electric_scooter", "bike_id": "75fe7f3f11aedd64f818662b63acf091", "fusion_lon": 0.0, "lat": 38.921211, "fusion_lat": 0.0}, {"is_disabled": 0, "rental_uris": {"android": "https://dc.lft.to/lastmile_qr_scan", "ios": "https://dc.lft.to/lastmile_qr_scan"}, "is_reserved": 0, "name": "6bb62439849911fceaf4522ad876cff8", "lon": -77.00987766666667, "type": "electric_scooter", "bike_id": "6bb62439849911fceaf4522ad876cff8", "fusion_lon": 0.0, "lat": 38.897286666666666, "fusion_lat": 0.0}, {"is_disabled": 0, "rental_uris": {"android": "https://dc.lft.to/lastmile_qr_scan", "ios": "https://dc.lft.to/lastmile_qr_scan"}, "is_reserved": 0, "name": "93dc462fa60a860f05f942547e056474", "lon": -76.933572, "type": "electric_scooter", "bike_id": "93dc462fa60a860f05f942547e056474", "fusion_lon": 0.0, "lat": 38.899087, "fusion_lat": 0.0}, {"is_disabled": 0, "rental_uris": {"android": "https://dc.lft.to/lastmile_qr_scan", "ios": "https://dc.lft.to/lastmile_qr_scan"}, "is_reserved": 0, "name": "76f7e999a6f03c72b32434d62cb65b2f", "lon": -77.011108, "type": "electric_scooter", "bike_id": "76f7e999a6f03c72b32434d62cb65b2f", "fusion_lon": 0.0, "lat": 38.903689, "fusion_lat": 0.0}, {"is_disabled": 0, "rental_uris": {"android": "https://dc.lft.to/lastmile_qr_scan", "ios": "https://dc.lft.to/lastmile_qr_scan"}, "is_reserved": 0, "name": "4bf80e4955238aed2ceacd3b528c913c", "lon": -77.0385645, "type": "electric_scooter", "bike_id": "4bf80e4955238aed2ceacd3b528c913c", "fusion_lon": 0.0, "lat": 38.91198933333333, "fusion_lat": 0.0}, {"is_disabled": 0, "rental_uris": {"android": "https://dc.lft.to/lastmile_qr_scan", "ios": "https://dc.lft.to/lastmile_qr_scan"}, "is_reserved": 0, "name": "d2cd33527a5983143e716b5c453f3125", "lon": -77.024281, "type": "electric_scooter", "bike_id": "d2cd33527a5983143e716b5c453f3125", "fusion_lon": 0.0, "lat": 38.912551666666666, "fusion_lat": 0.0}, {"is_disabled": 0, "rental_uris": {"android": "https://dc.lft.to/lastmile_qr_scan", "ios": "https://dc.lft.to/lastmile_qr_scan"}, "is_reserved": 0, "name": "e372738881a6dd6a5cc470e24712bc1e", "lon": -77.031548, "type": "electric_scooter", "bike_id": "e372738881a6dd6a5cc470e24712bc1e", "fusion_lon": 0.0, "lat": 38.8875125, "fusion_lat": 0.0}, {"is_disabled": 0, "rental_uris": {"android": "https://dc.lft.to/lastmile_qr_scan", "ios": "https://dc.lft.to/lastmile_qr_scan"}, "is_reserved": 0, "name": "ac23d48df34a54f9349337215d56e6df", "lon": -76.96531633333333, "type": "electric_scooter", "bike_id": "ac23d48df34a54f9349337215d56e6df", "fusion_lon": 0.0, "lat": 38.8762795, "fusion_lat": 0.0}, {"is_disabled": 0, "rental_uris": {"android": "https://dc.lft.to/lastmile_qr_scan", "ios": "https://dc.lft.to/lastmile_qr_scan"}, "is_reserved": 0, "name": "7ab6a7522fa2517e65456b708b0c7e8d", "lon": -76.99411133333334, "type": "electric_scooter", "bike_id": "7ab6a7522fa2517e65456b708b0c7e8d", "fusion_lon": 0.0, "lat": 38.877837, "fusion_lat": 0.0}, {"is_disabled": 0, "rental_uris": {"android": "https://dc.lft.to/lastmile_qr_scan", "ios": "https://dc.lft.to/lastmile_qr_scan"}, "is_reserved": 0, "name": "c8d385a893f2141b16d1b805e8bea681", "lon": -77.02720633333334, "type": "electric_scooter", "bike_id": "c8d385a893f2141b16d1b805e8bea681", "fusion_lon": 0.0, "lat": 38.90859433333333, "fusion_lat": 0.0}, {"is_disabled": 0, "rental_uris": {"android": "https://dc.lft.to/lastmile_qr_scan", "ios": "https://dc.lft.to/lastmile_qr_scan"}, "is_reserved": 0, "name": "007051cf585aac9dc07d1cd23448340d", "lon": -77.08529683333333, "type": "electric_bike", "bike_id": "007051cf585aac9dc07d1cd23448340d", "fusion_lon": 0.0, "lat": 38.856475, "fusion_lat": 0.0}, {"is_disabled": 0, "rental_uris": {"android": "https://dc.lft.to/lastmile_qr_scan", "ios": "https://dc.lft.to/lastmile_qr_scan"}, "is_reserved": 0, "name": "ea4d814990b2137e614f8564118cc83f", "lon": -76.988846, "type": "electric_scooter", "bike_id": "ea4d814990b2137e614f8564118cc83f", "fusion_lon": 0.0, "lat": 38.866747333333336, "fusion_lat": 0.0}, {"is_disabled": 0, "rental_uris": {"android": "https://dc.lft.to/lastmile_qr_scan", "ios": "https://dc.lft.to/lastmile_qr_scan"}, "is_reserved": 0, "name": "259a4112cedafd73d8c07209cc5067d6", "lon": -76.99006916666667, "type": "electric_scooter", "bike_id": "259a4112cedafd73d8c07209cc5067d6", "fusion_lon": 0.0, "lat": 38.8650435, "fusion_lat": 0.0}, {"is_disabled": 0, "rental_uris": {"android": "https://dc.lft.to/lastmile_qr_scan", "ios": "https://dc.lft.to/lastmile_qr_scan"}, "is_reserved": 0, "name": "6321cf818c7cbe4179ec7f5e6bd5c8d7", "lon": -77.0358345, "type": "electric_scooter", "bike_id": "6321cf818c7cbe4179ec7f5e6bd5c8d7", "fusion_lon": 0.0, "lat": 38.90760133333333, "fusion_lat": 0.0}, {"is_disabled": 0, "rental_uris": {"android": "https://dc.lft.to/lastmile_qr_scan", "ios": "https://dc.lft.to/lastmile_qr_scan"}, "is_reserved": 0, "name": "d9e70b1f2866e10ba797449719efb25f", "lon": -77.04173183333333, "type": "electric_scooter", "bike_id": "d9e70b1f2866e10ba797449719efb25f", "fusion_lon": 0.0, "lat": 38.90142083333333, "fusion_lat": 0.0}, {"is_disabled": 0, "rental_uris": {"android": "https://dc.lft.to/lastmile_qr_scan", "ios": "https://dc.lft.to/lastmile_qr_scan"}, "is_reserved": 0, "name": "7597b211197c7f5eaef44b75e52676a1", "lon": -77.05013083333333, "type": "electric_scooter", "bike_id": "7597b211197c7f5eaef44b75e52676a1", "fusion_lon": 0.0, "lat": 38.89772083333333, "fusion_lat": 0.0}, {"is_disabled": 0, "rental_uris": {"android": "https://dc.lft.to/lastmile_qr_scan", "ios": "https://dc.lft.to/lastmile_qr_scan"}, "is_reserved": 0, "name": "2d7d06db90f96bd088d06687519374e2", "lon": -77.04612166666666, "type": "electric_scooter", "bike_id": "2d7d06db90f96bd088d06687519374e2", "fusion_lon": 0.0, "lat": 38.915591166666665, "fusion_lat": 0.0}, {"is_disabled": 0, "rental_uris": {"android": "https://dc.lft.to/lastmile_qr_scan", "ios": "https://dc.lft.to/lastmile_qr_scan"}, "is_reserved": 0, "name": "adf395c38ca8ec38553f4e23949e3cb1", "lon": -77.03295716666666, "type": "electric_scooter", "bike_id": "adf395c38ca8ec38553f4e23949e3cb1", "fusion_lon": 0.0, "lat": 38.9204515, "fusion_lat": 0.0}, {"is_disabled": 0, "rental_uris": {"android": "https://dc.lft.to/lastmile_qr_scan", "ios": "https://dc.lft.to/lastmile_qr_scan"}, "is_reserved": 0, "name": "473b6307df0472dd215a5e64a76c7814", "lon": -77.03266433333333, "type": "electric_scooter", "bike_id": "473b6307df0472dd215a5e64a76c7814", "fusion_lon": 0.0, "lat": 38.913331666666664, "fusion_lat": 0.0}, {"is_disabled": 0, "rental_uris": {"android": "https://dc.lft.to/lastmile_qr_scan", "ios": "https://dc.lft.to/lastmile_qr_scan"}, "is_reserved": 0, "name": "7b854bfc854b3f0148d42e63d9c99af7", "lon": -77.0221295, "type": "electric_scooter", "bike_id": "7b854bfc854b3f0148d42e63d9c99af7", "fusion_lon": 0.0, "lat": 38.895990166666664, "fusion_lat": 0.0}, {"is_disabled": 0, "rental_uris": {"android": "https://dc.lft.to/lastmile_qr_scan", "ios": "https://dc.lft.to/lastmile_qr_scan"}, "is_reserved": 0, "name": "adc45808327212d38f0ae4d6627c6d0e", "lon": -77.02701516666667, "type": "electric_bike", "bike_id": "adc45808327212d38f0ae4d6627c6d0e", "fusion_lon": 0.0, "lat": 38.9054155, "fusion_lat": 0.0}, {"is_disabled": 0, "rental_uris": {"android": "https://dc.lft.to/lastmile_qr_scan", "ios": "https://dc.lft.to/lastmile_qr_scan"}, "is_reserved": 0, "name": "0aa62f3db6947b7a72471fcb9ae1eaec", "lon": -76.99521366666667, "type": "electric_scooter", "bike_id": "0aa62f3db6947b7a72471fcb9ae1eaec", "fusion_lon": 0.0, "lat": 38.88379066666667, "fusion_lat": 0.0}, {"is_disabled": 0, "rental_uris": {"android": "https://dc.lft.to/lastmile_qr_scan", "ios": "https://dc.lft.to/lastmile_qr_scan"}, "is_reserved": 0, "name": "2f33812edfcf65f0c7fbcfe9f7ced09c", "lon": -77.03316516666666, "type": "electric_scooter", "bike_id": "2f33812edfcf65f0c7fbcfe9f7ced09c", "fusion_lon": 0.0, "lat": 38.89840783333333, "fusion_lat": 0.0}, {"is_disabled": 0, "rental_uris": {"android": "https://dc.lft.to/lastmile_qr_scan", "ios": "https://dc.lft.to/lastmile_qr_scan"}, "is_reserved": 0, "name": "c46ab3cb2b07acff1b94b8590625c8ad", "lon": -76.996271, "type": "electric_scooter", "bike_id": "c46ab3cb2b07acff1b94b8590625c8ad", "fusion_lon": 0.0, "lat": 38.900384833333334, "fusion_lat": 0.0}, {"is_disabled": 0, "rental_uris": {"android": "https://dc.lft.to/lastmile_qr_scan", "ios": "https://dc.lft.to/lastmile_qr_scan"}, "is_reserved": 0, "name": "a443eadea08dbc5f61299968d0167dbc", "lon": -77.17801983333334, "type": "electric_bike", "bike_id": "a443eadea08dbc5f61299968d0167dbc", "fusion_lon": 0.0, "lat": 39.088443, "fusion_lat": 0.0}, {"is_disabled": 0, "rental_uris": {"android": "https://dc.lft.to/lastmile_qr_scan", "ios": "https://dc.lft.to/lastmile_qr_scan"}, "is_reserved": 0, "name": "fd6e1628facb418cc06fc53e458307a7", "lon": -77.0420865, "type": "electric_scooter", "bike_id": "fd6e1628facb418cc06fc53e458307a7", "fusion_lon": 0.0, "lat": 38.90909533333333, "fusion_lat": 0.0}, {"is_disabled": 0, "rental_uris": {"android": "https://dc.lft.to/lastmile_qr_scan", "ios": "https://dc.lft.to/lastmile_qr_scan"}, "is_reserved": 0, "name": "616d9531cc8fb8b31da985831ee3dec0", "lon": -76.98168866666667, "type": "electric_bike", "bike_id": "616d9531cc8fb8b31da985831ee3dec0", "fusion_lon": 0.0, "lat": 38.95962133333333, "fusion_lat": 0.0}, {"is_disabled": 0, "rental_uris": {"android": "https://dc.lft.to/lastmile_qr_scan", "ios": "https://dc.lft.to/lastmile_qr_scan"}, "is_reserved": 0, "name": "ab553a10dd50d0adc2cd56a8548a5a98", "lon": -77.0278875, "type": "electric_scooter", "bike_id": "ab553a10dd50d0adc2cd56a8548a5a98", "fusion_lon": 0.0, "lat": 38.961278, "fusion_lat": 0.0}, {"is_disabled": 0, "rental_uris": {"android": "https://dc.lft.to/lastmile_qr_scan", "ios": "https://dc.lft.to/lastmile_qr_scan"}, "is_reserved": 0, "name": "219bb91b573ee8742b424d53828a2ee4", "lon": -77.040494, "type": "electric_scooter", "bike_id": "219bb91b573ee8742b424d53828a2ee4", "fusion_lon": 0.0, "lat": 38.910435, "fusion_lat": 0.0}, {"is_disabled": 0, "rental_uris": {"android": "https://dc.lft.to/lastmile_qr_scan", "ios": "https://dc.lft.to/lastmile_qr_scan"}, "is_reserved": 0, "name": "e1e7220eca647c87dcb5a20b3a49b7d0", "lon": -77.02469833333333, "type": "electric_bike", "bike_id": "e1e7220eca647c87dcb5a20b3a49b7d0", "fusion_lon": 0.0, "lat": 38.9557845, "fusion_lat": 0.0}, {"is_disabled": 0, "rental_uris": {"android": "https://dc.lft.to/lastmile_qr_scan", "ios": "https://dc.lft.to/lastmile_qr_scan"}, "is_reserved": 0, "name": "7ef420adbab450bc3235c4c62cdb78f2", "lon": -77.02808583333334, "type": "electric_scooter", "bike_id": "7ef420adbab450bc3235c4c62cdb78f2", "fusion_lon": 0.0, "lat": 38.930814833333336, "fusion_lat": 0.0}, {"is_disabled": 0, "rental_uris": {"android": "https://dc.lft.to/lastmile_qr_scan", "ios": "https://dc.lft.to/lastmile_qr_scan"}, "is_reserved": 0, "name": "8ab0a9e919306d53cb288f6dc42fa991", "lon": -76.991941, "type": "electric_scooter", "bike_id": "8ab0a9e919306d53cb288f6dc42fa991", "fusion_lon": 0.0, "lat": 38.92581233333333, "fusion_lat": 0.0}, {"is_disabled": 0, "rental_uris": {"android": "https://dc.lft.to/lastmile_qr_scan", "ios": "https://dc.lft.to/lastmile_qr_scan"}, "is_reserved": 0, "name": "9104f620ce406c37a34e04307a8b6923", "lon": -77.0570515, "type": "electric_scooter", "bike_id": "9104f620ce406c37a34e04307a8b6923", "fusion_lon": 0.0, "lat": 38.926197333333334, "fusion_lat": 0.0}, {"is_disabled": 0, "rental_uris": {"android": "https://dc.lft.to/lastmile_qr_scan", "ios": "https://dc.lft.to/lastmile_qr_scan"}, "is_reserved": 0, "name": "f9bfb3fc2e4a5bfbc02e2a940227ff50", "lon": -76.9335615, "type": "electric_scooter", "bike_id": "f9bfb3fc2e4a5bfbc02e2a940227ff50", "fusion_lon": 0.0, "lat": 38.899090666666666, "fusion_lat": 0.0}, {"is_disabled": 0, "rental_uris": {"android": "https://dc.lft.to/lastmile_qr_scan", "ios": "https://dc.lft.to/lastmile_qr_scan"}, "is_reserved": 0, "name": "ce2e9bffde75812a1aa4d7b59d160c82", "lon": -77.02401583333334, "type": "electric_scooter", "bike_id": "ce2e9bffde75812a1aa4d7b59d160c82", "fusion_lon": 0.0, "lat": 38.905853666666665, "fusion_lat": 0.0}, {"is_disabled": 0, "rental_uris": {"android": "https://dc.lft.to/lastmile_qr_scan", "ios": "https://dc.lft.to/lastmile_qr_scan"}, "is_reserved": 0, "name": "14fdcf80c49d35385f190c8acc9856e1", "lon": -76.95671816666666, "type": "electric_scooter", "bike_id": "14fdcf80c49d35385f190c8acc9856e1", "fusion_lon": 0.0, "lat": 38.8876675, "fusion_lat": 0.0}, {"is_disabled": 0, "rental_uris": {"android": "https://dc.lft.to/lastmile_qr_scan", "ios": "https://dc.lft.to/lastmile_qr_scan"}, "is_reserved": 0, "name": "2b705efcd8c2ce6c069cf3476861ba17", "lon": -77.0385925, "type": "electric_scooter", "bike_id": "2b705efcd8c2ce6c069cf3476861ba17", "fusion_lon": 0.0, "lat": 38.907834, "fusion_lat": 0.0}, {"is_disabled": 0, "rental_uris": {"android": "https://dc.lft.to/lastmile_qr_scan", "ios": "https://dc.lft.to/lastmile_qr_scan"}, "is_reserved": 0, "name": "3f8517f83482e2edb050aed053e4829f", "lon": -77.04145633333333, "type": "electric_scooter", "bike_id": "3f8517f83482e2edb050aed053e4829f", "fusion_lon": 0.0, "lat": 38.912654333333336, "fusion_lat": 0.0}, {"is_disabled": 0, "rental_uris": {"android": "https://dc.lft.to/lastmile_qr_scan", "ios": "https://dc.lft.to/lastmile_qr_scan"}, "is_reserved": 0, "name": "2ed2c8566a9c1996273b83185a063fea", "lon": -77.00827233333334, "type": "electric_scooter", "bike_id": "2ed2c8566a9c1996273b83185a063fea", "fusion_lon": 0.0, "lat": 38.912582666666665, "fusion_lat": 0.0}, {"is_disabled": 0, "rental_uris": {"android": "https://dc.lft.to/lastmile_qr_scan", "ios": "https://dc.lft.to/lastmile_qr_scan"}, "is_reserved": 0, "name": "38dc7aa97609201ddef1c7c55e302cdd", "lon": -77.01415366666667, "type": "electric_scooter", "bike_id": "38dc7aa97609201ddef1c7c55e302cdd", "fusion_lon": 0.0, "lat": 38.927975833333335, "fusion_lat": 0.0}, {"is_disabled": 0, "rental_uris": {"android": "https://dc.lft.to/lastmile_qr_scan", "ios": "https://dc.lft.to/lastmile_qr_scan"}, "is_reserved": 0, "name": "2da6300dc10bb2a66e7698e23571dfeb", "lon": -77.00336966666667, "type": "electric_scooter", "bike_id": "2da6300dc10bb2a66e7698e23571dfeb", "fusion_lon": 0.0, "lat": 38.8935785, "fusion_lat": 0.0}, {"is_disabled": 0, "rental_uris": {"android": "https://dc.lft.to/lastmile_qr_scan", "ios": "https://dc.lft.to/lastmile_qr_scan"}, "is_reserved": 0, "name": "d619d0908b38dc3254de5a022b224e6d", "lon": -77.00590783333334, "type": "electric_scooter", "bike_id": "d619d0908b38dc3254de5a022b224e6d", "fusion_lon": 0.0, "lat": 38.9056055, "fusion_lat": 0.0}, {"is_disabled": 0, "rental_uris": {"android": "https://dc.lft.to/lastmile_qr_scan", "ios": "https://dc.lft.to/lastmile_qr_scan"}, "is_reserved": 0, "name": "b7bf12f5a929e6254113a590e123843e", "lon": -76.88906616666667, "type": "electric_bike", "bike_id": "b7bf12f5a929e6254113a590e123843e", "fusion_lon": 0.0, "lat": 38.92593016666667, "fusion_lat": 0.0}, {"is_disabled": 0, "rental_uris": {"android": "https://dc.lft.to/lastmile_qr_scan", "ios": "https://dc.lft.to/lastmile_qr_scan"}, "is_reserved": 0, "name": "1481c80e7641c9d748e9bb73da807517", "lon": -76.95222466666667, "type": "electric_bike", "bike_id": "1481c80e7641c9d748e9bb73da807517", "fusion_lon": 0.0, "lat": 38.892359166666665, "fusion_lat": 0.0}, {"is_disabled": 0, "rental_uris": {"android": "https://dc.lft.to/lastmile_qr_scan", "ios": "https://dc.lft.to/lastmile_qr_scan"}, "is_reserved": 0, "name": "e3a645a6c36a83a916d3fde6698225d7", "lon": -77.05419533333334, "type": "electric_scooter", "bike_id": "e3a645a6c36a83a916d3fde6698225d7", "fusion_lon": 0.0, "lat": 38.899184, "fusion_lat": 0.0}, {"is_disabled": 0, "rental_uris": {"android": "https://dc.lft.to/lastmile_qr_scan", "ios": "https://dc.lft.to/lastmile_qr_scan"}, "is_reserved": 0, "name": "bdd03f0d428d8616c9492e8eee1899f7", "lon": -77.0208455, "type": "electric_scooter", "bike_id": "bdd03f0d428d8616c9492e8eee1899f7", "fusion_lon": 0.0, "lat": 38.9301225, "fusion_lat": 0.0}, {"is_disabled": 0, "rental_uris": {"android": "https://dc.lft.to/lastmile_qr_scan", "ios": "https://dc.lft.to/lastmile_qr_scan"}, "is_reserved": 0, "name": "ff9017e51a96daad42d9e52a2d3239fc", "lon": -77.0326235, "type": "electric_scooter", "bike_id": "ff9017e51a96daad42d9e52a2d3239fc", "fusion_lon": 0.0, "lat": 38.93693866666667, "fusion_lat": 0.0}, {"is_disabled": 0, "rental_uris": {"android": "https://dc.lft.to/lastmile_qr_scan", "ios": "https://dc.lft.to/lastmile_qr_scan"}, "is_reserved": 0, "name": "dc7bb50198fe90dddef0b3c0bc7beb73", "lon": -77.009226, "type": "electric_scooter", "bike_id": "dc7bb50198fe90dddef0b3c0bc7beb73", "fusion_lon": 0.0, "lat": 38.896119166666665, "fusion_lat": 0.0}, {"is_disabled": 0, "rental_uris": {"android": "https://dc.lft.to/lastmile_qr_scan", "ios": "https://dc.lft.to/lastmile_qr_scan"}, "is_reserved": 0, "name": "433c7ea38c341a7eb1d1c690f4e45143", "lon": -77.05159433333333, "type": "electric_scooter", "bike_id": "433c7ea38c341a7eb1d1c690f4e45143", "fusion_lon": 0.0, "lat": 38.905801333333336, "fusion_lat": 0.0}, {"is_disabled": 0, "rental_uris": {"android": "https://dc.lft.to/lastmile_qr_scan", "ios": "https://dc.lft.to/lastmile_qr_scan"}, "is_reserved": 0, "name": "d54894138a7e0370697ef63dc400c5de", "lon": -77.04839983333333, "type": "electric_scooter", "bike_id": "d54894138a7e0370697ef63dc400c5de", "fusion_lon": 0.0, "lat": 38.888315166666665, "fusion_lat": 0.0}, {"is_disabled": 0, "rental_uris": {"android": "https://dc.lft.to/lastmile_qr_scan", "ios": "https://dc.lft.to/lastmile_qr_scan"}, "is_reserved": 0, "name": "ee2ec9357b538d50d68ac7b24a588c94", "lon": -77.04497883333333, "type": "electric_scooter", "bike_id": "ee2ec9357b538d50d68ac7b24a588c94", "fusion_lon": 0.0, "lat": 38.896165333333336, "fusion_lat": 0.0}, {"is_disabled": 0, "rental_uris": {"android": "https://dc.lft.to/lastmile_qr_scan", "ios": "https://dc.lft.to/lastmile_qr_scan"}, "is_reserved": 0, "name": "30e7daa7aab39d31942877195edfd48d", "lon": -76.96839783333333, "type": "electric_bike", "bike_id": "30e7daa7aab39d31942877195edfd48d", "fusion_lon": 0.0, "lat": 38.92447883333333, "fusion_lat": 0.0}, {"is_disabled": 0, "rental_uris": {"android": "https://dc.lft.to/lastmile_qr_scan", "ios": "https://dc.lft.to/lastmile_qr_scan"}, "is_reserved": 0, "name": "ca54bf907adcb4f928ec964fab13f605", "lon": -77.05731933333334, "type": "electric_scooter", "bike_id": "ca54bf907adcb4f928ec964fab13f605", "fusion_lon": 0.0, "lat": 38.9336505, "fusion_lat": 0.0}, {"is_disabled": 0, "rental_uris": {"android": "https://dc.lft.to/lastmile_qr_scan", "ios": "https://dc.lft.to/lastmile_qr_scan"}, "is_reserved": 0, "name": "05ee7e28bdb3ffbdc1f0ec3d5939f356", "lon": -76.98328666666667, "type": "electric_scooter", "bike_id": "05ee7e28bdb3ffbdc1f0ec3d5939f356", "fusion_lon": 0.0, "lat": 38.86170033333333, "fusion_lat": 0.0}, {"is_disabled": 0, "rental_uris": {"android": "https://dc.lft.to/lastmile_qr_scan", "ios": "https://dc.lft.to/lastmile_qr_scan"}, "is_reserved": 0, "name": "5ce8f977859aa85d46ed2b710ef2d9ec", "lon": -77.1526705, "type": "electric_bike", "bike_id": "5ce8f977859aa85d46ed2b710ef2d9ec", "fusion_lon": 0.0, "lat": 39.105657, "fusion_lat": 0.0}, {"is_disabled": 0, "rental_uris": {"android": "https://dc.lft.to/lastmile_qr_scan", "ios": "https://dc.lft.to/lastmile_qr_scan"}, "is_reserved": 0, "name": "8378a196a81a6f074dd5bfe1219d9186", "lon": -77.03194683333334, "type": "electric_scooter", "bike_id": "8378a196a81a6f074dd5bfe1219d9186", "fusion_lon": 0.0, "lat": 38.9182865, "fusion_lat": 0.0}, {"is_disabled": 0, "rental_uris": {"android": "https://dc.lft.to/lastmile_qr_scan", "ios": "https://dc.lft.to/lastmile_qr_scan"}, "is_reserved": 0, "name": "c8da5b39f4c81787f1e2749ad5552082", "lon": -77.03451116666666, "type": "electric_scooter", "bike_id": "c8da5b39f4c81787f1e2749ad5552082", "fusion_lon": 0.0, "lat": 38.964266333333335, "fusion_lat": 0.0}, {"is_disabled": 0, "rental_uris": {"android": "https://dc.lft.to/lastmile_qr_scan", "ios": "https://dc.lft.to/lastmile_qr_scan"}, "is_reserved": 0, "name": "cde2787633cadba14eb1b143f393f725", "lon": -77.03154583333334, "type": "electric_scooter", "bike_id": "cde2787633cadba14eb1b143f393f725", "fusion_lon": 0.0, "lat": 38.90373, "fusion_lat": 0.0}, {"is_disabled": 0, "rental_uris": {"android": "https://dc.lft.to/lastmile_qr_scan", "ios": "https://dc.lft.to/lastmile_qr_scan"}, "is_reserved": 0, "name": "ec18369a8f748097f3a72ccc728a6f0b", "lon": -77.0471825, "type": "electric_scooter", "bike_id": "ec18369a8f748097f3a72ccc728a6f0b", "fusion_lon": 0.0, "lat": 38.8996055, "fusion_lat": 0.0}, {"is_disabled": 0, "rental_uris": {"android": "https://dc.lft.to/lastmile_qr_scan", "ios": "https://dc.lft.to/lastmile_qr_scan"}, "is_reserved": 0, "name": "15a45fe3e0ff127f0bff89006c98a995", "lon": -76.98081866666666, "type": "electric_scooter", "bike_id": "15a45fe3e0ff127f0bff89006c98a995", "fusion_lon": 0.0, "lat": 38.870099, "fusion_lat": 0.0}, {"is_disabled": 0, "rental_uris": {"android": "https://dc.lft.to/lastmile_qr_scan", "ios": "https://dc.lft.to/lastmile_qr_scan"}, "is_reserved": 0, "name": "98acbfa758f80d8806830ccd70dd90fb", "lon": -77.02921633333334, "type": "electric_scooter", "bike_id": "98acbfa758f80d8806830ccd70dd90fb", "fusion_lon": 0.0, "lat": 38.898396, "fusion_lat": 0.0}, {"is_disabled": 0, "rental_uris": {"android": "https://dc.lft.to/lastmile_qr_scan", "ios": "https://dc.lft.to/lastmile_qr_scan"}, "is_reserved": 0, "name": "8ce947ca056b2fe2d6652759e7c117fb", "lon": -76.98362316666666, "type": "electric_scooter", "bike_id": "8ce947ca056b2fe2d6652759e7c117fb", "fusion_lon": 0.0, "lat": 38.891722666666666, "fusion_lat": 0.0}, {"is_disabled": 0, "rental_uris": {"android": "https://dc.lft.to/lastmile_qr_scan", "ios": "https://dc.lft.to/lastmile_qr_scan"}, "is_reserved": 0, "name": "de4a1b639599519bf804bfac125affd2", "lon": -76.98727833333334, "type": "electric_scooter", "bike_id": "de4a1b639599519bf804bfac125affd2", "fusion_lon": 0.0, "lat": 38.8670345, "fusion_lat": 0.0}, {"is_disabled": 0, "rental_uris": {"android": "https://dc.lft.to/lastmile_qr_scan", "ios": "https://dc.lft.to/lastmile_qr_scan"}, "is_reserved": 0, "name": "4cc6b19243e41e5fbb2189f03c8c8af7", "lon": -77.02243816666666, "type": "electric_scooter", "bike_id": "4cc6b19243e41e5fbb2189f03c8c8af7", "fusion_lon": 0.0, "lat": 38.91637733333334, "fusion_lat": 0.0}, {"is_disabled": 0, "rental_uris": {"android": "https://dc.lft.to/lastmile_qr_scan", "ios": "https://dc.lft.to/lastmile_qr_scan"}, "is_reserved": 0, "name": "c536f3198a041e3ce31dd188ef27211b", "lon": -77.0475265, "type": "electric_scooter", "bike_id": "c536f3198a041e3ce31dd188ef27211b", "fusion_lon": 0.0, "lat": 38.905241333333336, "fusion_lat": 0.0}, {"is_disabled": 0, "rental_uris": {"android": "https://dc.lft.to/lastmile_qr_scan", "ios": "https://dc.lft.to/lastmile_qr_scan"}, "is_reserved": 0, "name": "e0a238e30bb322beb97d1737cdf85e31", "lon": -77.03998483333334, "type": "electric_scooter", "bike_id": "e0a238e30bb322beb97d1737cdf85e31", "fusion_lon": 0.0, "lat": 38.918078666666666, "fusion_lat": 0.0}, {"is_disabled": 0, "rental_uris": {"android": "https://dc.lft.to/lastmile_qr_scan", "ios": "https://dc.lft.to/lastmile_qr_scan"}, "is_reserved": 0, "name": "148ffce3ffbe642827f920ef77d4ebc8", "lon": -77.03173316666667, "type": "electric_scooter", "bike_id": "148ffce3ffbe642827f920ef77d4ebc8", "fusion_lon": 0.0, "lat": 38.9033635, "fusion_lat": 0.0}, {"is_disabled": 0, "rental_uris": {"android": "https://dc.lft.to/lastmile_qr_scan", "ios": "https://dc.lft.to/lastmile_qr_scan"}, "is_reserved": 0, "name": "bb5b1a4938ea3017b28232ab98e7abe3", "lon": -77.06649983333334, "type": "electric_scooter", "bike_id": "bb5b1a4938ea3017b28232ab98e7abe3", "fusion_lon": 0.0, "lat": 38.949653, "fusion_lat": 0.0}, {"is_disabled": 0, "rental_uris": {"android": "https://dc.lft.to/lastmile_qr_scan", "ios": "https://dc.lft.to/lastmile_qr_scan"}, "is_reserved": 0, "name": "9355b0e7feea2a81c5b0e33ed9958bd4", "lon": -77.044489, "type": "electric_scooter", "bike_id": "9355b0e7feea2a81c5b0e33ed9958bd4", "fusion_lon": 0.0, "lat": 38.902596333333335, "fusion_lat": 0.0}, {"is_disabled": 0, "rental_uris": {"android": "https://dc.lft.to/lastmile_qr_scan", "ios": "https://dc.lft.to/lastmile_qr_scan"}, "is_reserved": 0, "name": "381dcb0403938ab04bd9816efd615830", "lon": -77.025042, "type": "electric_scooter", "bike_id": "381dcb0403938ab04bd9816efd615830", "fusion_lon": 0.0, "lat": 38.9387385, "fusion_lat": 0.0}, {"is_disabled": 0, "rental_uris": {"android": "https://dc.lft.to/lastmile_qr_scan", "ios": "https://dc.lft.to/lastmile_qr_scan"}, "is_reserved": 0, "name": "89436fdecec50e42551bc85a7f134c1a", "lon": -77.05016983333333, "type": "electric_scooter", "bike_id": "89436fdecec50e42551bc85a7f134c1a", "fusion_lon": 0.0, "lat": 38.906092666666666, "fusion_lat": 0.0}, {"is_disabled": 0, "rental_uris": {"android": "https://dc.lft.to/lastmile_qr_scan", "ios": "https://dc.lft.to/lastmile_qr_scan"}, "is_reserved": 0, "name": "592fe0cefcdf443fbcc4e3e523057a42", "lon": -77.0287375, "type": "electric_scooter", "bike_id": "592fe0cefcdf443fbcc4e3e523057a42", "fusion_lon": 0.0, "lat": 38.922395, "fusion_lat": 0.0}, {"is_disabled": 0, "rental_uris": {"android": "https://dc.lft.to/lastmile_qr_scan", "ios": "https://dc.lft.to/lastmile_qr_scan"}, "is_reserved": 0, "name": "aa2003d1c1a0b28e9d4edfc2c7b5b8ba", "lon": -76.93150616666667, "type": "electric_scooter", "bike_id": "aa2003d1c1a0b28e9d4edfc2c7b5b8ba", "fusion_lon": 0.0, "lat": 38.898508, "fusion_lat": 0.0}, {"is_disabled": 0, "rental_uris": {"android": "https://dc.lft.to/lastmile_qr_scan", "ios": "https://dc.lft.to/lastmile_qr_scan"}, "is_reserved": 0, "name": "0c32aa05dd1373a376441f7bddbd496c", "lon": -77.02211233333334, "type": "electric_scooter", "bike_id": "0c32aa05dd1373a376441f7bddbd496c", "fusion_lon": 0.0, "lat": 38.887442166666666, "fusion_lat": 0.0}, {"is_disabled": 0, "rental_uris": {"android": "https://dc.lft.to/lastmile_qr_scan", "ios": "https://dc.lft.to/lastmile_qr_scan"}, "is_reserved": 0, "name": "f4e9ab615874dc7830929cc2d6f831a9", "lon": -76.99645883333334, "type": "electric_scooter", "bike_id": "f4e9ab615874dc7830929cc2d6f831a9", "fusion_lon": 0.0, "lat": 38.887211, "fusion_lat": 0.0}, {"is_disabled": 0, "rental_uris": {"android": "https://dc.lft.to/lastmile_qr_scan", "ios": "https://dc.lft.to/lastmile_qr_scan"}, "is_reserved": 0, "name": "bd555500c545e2763b4ae077ff790b9b", "lon": -77.01872366666667, "type": "electric_scooter", "bike_id": "bd555500c545e2763b4ae077ff790b9b", "fusion_lon": 0.0, "lat": 38.93053116666667, "fusion_lat": 0.0}, {"is_disabled": 0, "rental_uris": {"android": "https://dc.lft.to/lastmile_qr_scan", "ios": "https://dc.lft.to/lastmile_qr_scan"}, "is_reserved": 0, "name": "62d82cf164200b987ed284605c9dbc34", "lon": -77.05745516666667, "type": "electric_scooter", "bike_id": "62d82cf164200b987ed284605c9dbc34", "fusion_lon": 0.0, "lat": 38.93345566666667, "fusion_lat": 0.0}, {"is_disabled": 0, "rental_uris": {"android": "https://dc.lft.to/lastmile_qr_scan", "ios": "https://dc.lft.to/lastmile_qr_scan"}, "is_reserved": 0, "name": "158a9349bf8e48e91e493827ae1ced53", "lon": -77.00797416666667, "type": "electric_scooter", "bike_id": "158a9349bf8e48e91e493827ae1ced53", "fusion_lon": 0.0, "lat": 38.8971555, "fusion_lat": 0.0}, {"is_disabled": 0, "rental_uris": {"android": "https://dc.lft.to/lastmile_qr_scan", "ios": "https://dc.lft.to/lastmile_qr_scan"}, "is_reserved": 0, "name": "3d8b3a3b4803f4ef966bc315a9806bd4", "lon": -77.03142633333333, "type": "electric_scooter", "bike_id": "3d8b3a3b4803f4ef966bc315a9806bd4", "fusion_lon": 0.0, "lat": 38.90373066666667, "fusion_lat": 0.0}, {"is_disabled": 0, "rental_uris": {"android": "https://dc.lft.to/lastmile_qr_scan", "ios": "https://dc.lft.to/lastmile_qr_scan"}, "is_reserved": 0, "name": "60f2b0defc8541827ecd32afea400201", "lon": -77.0326, "type": "electric_scooter", "bike_id": "60f2b0defc8541827ecd32afea400201", "fusion_lon": 0.0, "lat": 38.90448283333333, "fusion_lat": 0.0}, {"is_disabled": 0, "rental_uris": {"android": "https://dc.lft.to/lastmile_qr_scan", "ios": "https://dc.lft.to/lastmile_qr_scan"}, "is_reserved": 0, "name": "3acbb2c692c42c7437728956979c0719", "lon": -77.03847016666667, "type": "electric_scooter", "bike_id": "3acbb2c692c42c7437728956979c0719", "fusion_lon": 0.0, "lat": 38.902774, "fusion_lat": 0.0}, {"is_disabled": 0, "rental_uris": {"android": "https://dc.lft.to/lastmile_qr_scan", "ios": "https://dc.lft.to/lastmile_qr_scan"}, "is_reserved": 0, "name": "a3ca1ffe03731ed4522b83413db20531", "lon": -77.02312, "type": "electric_scooter", "bike_id": "a3ca1ffe03731ed4522b83413db20531", "fusion_lon": 0.0, "lat": 38.9089615, "fusion_lat": 0.0}, {"is_disabled": 0, "rental_uris": {"android": "https://dc.lft.to/lastmile_qr_scan", "ios": "https://dc.lft.to/lastmile_qr_scan"}, "is_reserved": 0, "name": "6295228217db3d5e099f1979ac55ab98", "lon": -77.05787633333334, "type": "electric_scooter", "bike_id": "6295228217db3d5e099f1979ac55ab98", "fusion_lon": 0.0, "lat": 38.905119166666665, "fusion_lat": 0.0}, {"is_disabled": 0, "rental_uris": {"android": "https://dc.lft.to/lastmile_qr_scan", "ios": "https://dc.lft.to/lastmile_qr_scan"}, "is_reserved": 0, "name": "ca0fba7db693080e7bafa76f285a4e52", "lon": -77.04292566666666, "type": "electric_scooter", "bike_id": "ca0fba7db693080e7bafa76f285a4e52", "fusion_lon": 0.0, "lat": 38.913381333333334, "fusion_lat": 0.0}, {"is_disabled": 0, "rental_uris": {"android": "https://dc.lft.to/lastmile_qr_scan", "ios": "https://dc.lft.to/lastmile_qr_scan"}, "is_reserved": 0, "name": "083b85a5ab4c780d93502b7a7ef75595", "lon": -77.04045116666667, "type": "electric_scooter", "bike_id": "083b85a5ab4c780d93502b7a7ef75595", "fusion_lon": 0.0, "lat": 38.90561366666667, "fusion_lat": 0.0}, {"is_disabled": 0, "rental_uris": {"android": "https://dc.lft.to/lastmile_qr_scan", "ios": "https://dc.lft.to/lastmile_qr_scan"}, "is_reserved": 0, "name": "61f83f722d3375e797d5fccf2a0b71ca", "lon": -77.042421, "type": "electric_scooter", "bike_id": "61f83f722d3375e797d5fccf2a0b71ca", "fusion_lon": 0.0, "lat": 38.919188166666665, "fusion_lat": 0.0}, {"is_disabled": 0, "rental_uris": {"android": "https://dc.lft.to/lastmile_qr_scan", "ios": "https://dc.lft.to/lastmile_qr_scan"}, "is_reserved": 0, "name": "16555beef29b908db4d87b5af4c6e6ed", "lon": -77.01441483333333, "type": "electric_scooter", "bike_id": "16555beef29b908db4d87b5af4c6e6ed", "fusion_lon": 0.0, "lat": 38.8798395, "fusion_lat": 0.0}, {"is_disabled": 0, "rental_uris": {"android": "https://dc.lft.to/lastmile_qr_scan", "ios": "https://dc.lft.to/lastmile_qr_scan"}, "is_reserved": 0, "name": "4d3e874149494e4ef52010525988e87a", "lon": -77.00731916666666, "type": "electric_scooter", "bike_id": "4d3e874149494e4ef52010525988e87a", "fusion_lon": 0.0, "lat": 38.8984255, "fusion_lat": 0.0}, {"is_disabled": 0, "rental_uris": {"android": "https://dc.lft.to/lastmile_qr_scan", "ios": "https://dc.lft.to/lastmile_qr_scan"}, "is_reserved": 0, "name": "fde07871defb3813c4cd0414efedbc04", "lon": -77.022264, "type": "electric_scooter", "bike_id": "fde07871defb3813c4cd0414efedbc04", "fusion_lon": 0.0, "lat": 38.89222816666667, "fusion_lat": 0.0}, {"is_disabled": 0, "rental_uris": {"android": "https://dc.lft.to/lastmile_qr_scan", "ios": "https://dc.lft.to/lastmile_qr_scan"}, "is_reserved": 0, "name": "a25f683553874b9c0f173d5a838f35dc", "lon": -76.93184466666666, "type": "electric_scooter", "bike_id": "a25f683553874b9c0f173d5a838f35dc", "fusion_lon": 0.0, "lat": 38.898797333333334, "fusion_lat": 0.0}, {"is_disabled": 0, "rental_uris": {"android": "https://dc.lft.to/lastmile_qr_scan", "ios": "https://dc.lft.to/lastmile_qr_scan"}, "is_reserved": 0, "name": "6baf2cf53c7ad586c6de86b59f721140", "lon": -76.96556583333333, "type": "electric_scooter", "bike_id": "6baf2cf53c7ad586c6de86b59f721140", "fusion_lon": 0.0, "lat": 38.91846533333333, "fusion_lat": 0.0}, {"is_disabled": 0, "rental_uris": {"android": "https://dc.lft.to/lastmile_qr_scan", "ios": "https://dc.lft.to/lastmile_qr_scan"}, "is_reserved": 0, "name": "de9a60a8d411a42682647104b6ea87dc", "lon": -77.03806066666667, "type": "electric_scooter", "bike_id": "de9a60a8d411a42682647104b6ea87dc", "fusion_lon": 0.0, "lat": 38.92554483333333, "fusion_lat": 0.0}, {"is_disabled": 0, "rental_uris": {"android": "https://dc.lft.to/lastmile_qr_scan", "ios": "https://dc.lft.to/lastmile_qr_scan"}, "is_reserved": 0, "name": "b65944d319c72d52ead7fe0211ea695e", "lon": -77.05483666666667, "type": "electric_scooter", "bike_id": "b65944d319c72d52ead7fe0211ea695e", "fusion_lon": 0.0, "lat": 38.90444083333333, "fusion_lat": 0.0}, {"is_disabled": 0, "rental_uris": {"android": "https://dc.lft.to/lastmile_qr_scan", "ios": "https://dc.lft.to/lastmile_qr_scan"}, "is_reserved": 0, "name": "d45a5b459f610622bebcec7777332ddc", "lon": -77.03179933333334, "type": "electric_scooter", "bike_id": "d45a5b459f610622bebcec7777332ddc", "fusion_lon": 0.0, "lat": 38.9191495, "fusion_lat": 0.0}, {"is_disabled": 0, "rental_uris": {"android": "https://dc.lft.to/lastmile_qr_scan", "ios": "https://dc.lft.to/lastmile_qr_scan"}, "is_reserved": 0, "name": "3210167377d3957c162801e43dec4b74", "lon": -77.021714, "type": "electric_scooter", "bike_id": "3210167377d3957c162801e43dec4b74", "fusion_lon": 0.0, "lat": 38.942960166666666, "fusion_lat": 0.0}, {"is_disabled": 0, "rental_uris": {"android": "https://dc.lft.to/lastmile_qr_scan", "ios": "https://dc.lft.to/lastmile_qr_scan"}, "is_reserved": 0, "name": "cd381d097b8ea5cc3767d8621662c457", "lon": -77.03905933333333, "type": "electric_scooter", "bike_id": "cd381d097b8ea5cc3767d8621662c457", "fusion_lon": 0.0, "lat": 38.906358833333336, "fusion_lat": 0.0}, {"is_disabled": 0, "rental_uris": {"android": "https://dc.lft.to/lastmile_qr_scan", "ios": "https://dc.lft.to/lastmile_qr_scan"}, "is_reserved": 0, "name": "34b403f35ff0b27df4658b35cf437f13", "lon": -76.99077216666667, "type": "electric_scooter", "bike_id": "34b403f35ff0b27df4658b35cf437f13", "fusion_lon": 0.0, "lat": 38.90424066666667, "fusion_lat": 0.0}, {"is_disabled": 0, "rental_uris": {"android": "https://dc.lft.to/lastmile_qr_scan", "ios": "https://dc.lft.to/lastmile_qr_scan"}, "is_reserved": 0, "name": "72351e901c0efe3b177b4afcc30c11da", "lon": -76.93522416666667, "type": "electric_scooter", "bike_id": "72351e901c0efe3b177b4afcc30c11da", "fusion_lon": 0.0, "lat": 38.878961833333335, "fusion_lat": 0.0}, {"is_disabled": 0, "rental_uris": {"android": "https://dc.lft.to/lastmile_qr_scan", "ios": "https://dc.lft.to/lastmile_qr_scan"}, "is_reserved": 0, "name": "28599244ec17a53ef3eb5f256625eeb7", "lon": -76.93351883333334, "type": "electric_scooter", "bike_id": "28599244ec17a53ef3eb5f256625eeb7", "fusion_lon": 0.0, "lat": 38.901945166666664, "fusion_lat": 0.0}, {"is_disabled": 0, "rental_uris": {"android": "https://dc.lft.to/lastmile_qr_scan", "ios": "https://dc.lft.to/lastmile_qr_scan"}, "is_reserved": 0, "name": "7f9074ce7a369094043ddc9312e02d81", "lon": -77.03358433333334, "type": "electric_scooter", "bike_id": "7f9074ce7a369094043ddc9312e02d81", "fusion_lon": 0.0, "lat": 38.9119205, "fusion_lat": 0.0}, {"is_disabled": 0, "rental_uris": {"android": "https://dc.lft.to/lastmile_qr_scan", "ios": "https://dc.lft.to/lastmile_qr_scan"}, "is_reserved": 0, "name": "0df54b91b7ca8b3841dfa644d39cdde8", "lon": -77.03795133333334, "type": "electric_bike", "bike_id": "0df54b91b7ca8b3841dfa644d39cdde8", "fusion_lon": 0.0, "lat": 38.996649833333336, "fusion_lat": 0.0}, {"is_disabled": 0, "rental_uris": {"android": "https://dc.lft.to/lastmile_qr_scan", "ios": "https://dc.lft.to/lastmile_qr_scan"}, "is_reserved": 0, "name": "6ed1f5a986671095a3aca247c800e9d4", "lon": -77.024914, "type": "electric_bike", "bike_id": "6ed1f5a986671095a3aca247c800e9d4", "fusion_lon": 0.0, "lat": 38.97404133333333, "fusion_lat": 0.0}, {"is_disabled": 0, "rental_uris": {"android": "https://dc.lft.to/lastmile_qr_scan", "ios": "https://dc.lft.to/lastmile_qr_scan"}, "is_reserved": 0, "name": "25bcdbe2810b563a75bf660ea906466d", "lon": -77.04819666666667, "type": "electric_scooter", "bike_id": "25bcdbe2810b563a75bf660ea906466d", "fusion_lon": 0.0, "lat": 38.90454916666667, "fusion_lat": 0.0}, {"is_disabled": 0, "rental_uris": {"android": "https://dc.lft.to/lastmile_qr_scan", "ios": "https://dc.lft.to/lastmile_qr_scan"}, "is_reserved": 0, "name": "d2d5138d9f041fce93737ccce815e233", "lon": -77.09832066666667, "type": "electric_bike", "bike_id": "d2d5138d9f041fce93737ccce815e233", "fusion_lon": 0.0, "lat": 38.85790166666666, "fusion_lat": 0.0}, {"is_disabled": 0, "rental_uris": {"android": "https://dc.lft.to/lastmile_qr_scan", "ios": "https://dc.lft.to/lastmile_qr_scan"}, "is_reserved": 0, "name": "1bf6a4f31ce6397a38806ac78ec3ae1f", "lon": -77.0724555, "type": "electric_scooter", "bike_id": "1bf6a4f31ce6397a38806ac78ec3ae1f", "fusion_lon": 0.0, "lat": 38.90787133333333, "fusion_lat": 0.0}, {"is_disabled": 0, "rental_uris": {"android": "https://dc.lft.to/lastmile_qr_scan", "ios": "https://dc.lft.to/lastmile_qr_scan"}, "is_reserved": 0, "name": "6665cfd8c5611e29b068a09a8c8026ce", "lon": -77.02701166666667, "type": "electric_scooter", "bike_id": "6665cfd8c5611e29b068a09a8c8026ce", "fusion_lon": 0.0, "lat": 38.94987, "fusion_lat": 0.0}, {"is_disabled": 0, "rental_uris": {"android": "https://dc.lft.to/lastmile_qr_scan", "ios": "https://dc.lft.to/lastmile_qr_scan"}, "is_reserved": 0, "name": "653d86e8ceedaf4e408559a42cca23ee", "lon": -77.036353, "type": "electric_scooter", "bike_id": "653d86e8ceedaf4e408559a42cca23ee", "fusion_lon": 0.0, "lat": 38.930462, "fusion_lat": 0.0}, {"is_disabled": 0, "rental_uris": {"android": "https://dc.lft.to/lastmile_qr_scan", "ios": "https://dc.lft.to/lastmile_qr_scan"}, "is_reserved": 0, "name": "86b8c9f840b968f1f0a6d61b461fb5a2", "lon": -77.04243916666667, "type": "electric_scooter", "bike_id": "86b8c9f840b968f1f0a6d61b461fb5a2", "fusion_lon": 0.0, "lat": 38.92222733333333, "fusion_lat": 0.0}, {"is_disabled": 0, "rental_uris": {"android": "https://dc.lft.to/lastmile_qr_scan", "ios": "https://dc.lft.to/lastmile_qr_scan"}, "is_reserved": 0, "name": "e58f2394f47a97d2d60d2f45318cedc3", "lon": -77.0287845, "type": "electric_scooter", "bike_id": "e58f2394f47a97d2d60d2f45318cedc3", "fusion_lon": 0.0, "lat": 38.901389, "fusion_lat": 0.0}, {"is_disabled": 0, "rental_uris": {"android": "https://dc.lft.to/lastmile_qr_scan", "ios": "https://dc.lft.to/lastmile_qr_scan"}, "is_reserved": 0, "name": "791626ad7356072dff79da1a0ae3a1dd", "lon": -77.022089, "type": "electric_scooter", "bike_id": "791626ad7356072dff79da1a0ae3a1dd", "fusion_lon": 0.0, "lat": 38.910226333333334, "fusion_lat": 0.0}, {"is_disabled": 0, "rental_uris": {"android": "https://dc.lft.to/lastmile_qr_scan", "ios": "https://dc.lft.to/lastmile_qr_scan"}, "is_reserved": 0, "name": "080e28c4ee617d4f180ab31f439d6bf7", "lon": -77.04928466666667, "type": "electric_scooter", "bike_id": "080e28c4ee617d4f180ab31f439d6bf7", "fusion_lon": 0.0, "lat": 38.90743783333333, "fusion_lat": 0.0}, {"is_disabled": 0, "rental_uris": {"android": "https://dc.lft.to/lastmile_qr_scan", "ios": "https://dc.lft.to/lastmile_qr_scan"}, "is_reserved": 0, "name": "9b8b36b2ff3225160eed9f245dfd58a0", "lon": -76.96528683333334, "type": "electric_scooter", "bike_id": "9b8b36b2ff3225160eed9f245dfd58a0", "fusion_lon": 0.0, "lat": 38.876325, "fusion_lat": 0.0}, {"is_disabled": 0, "rental_uris": {"android": "https://dc.lft.to/lastmile_qr_scan", "ios": "https://dc.lft.to/lastmile_qr_scan"}, "is_reserved": 0, "name": "f63a615f5b6121016fe9e778fade6f2f", "lon": -77.03378516666666, "type": "electric_scooter", "bike_id": "f63a615f5b6121016fe9e778fade6f2f", "fusion_lon": 0.0, "lat": 38.9215365, "fusion_lat": 0.0}, {"is_disabled": 0, "rental_uris": {"android": "https://dc.lft.to/lastmile_qr_scan", "ios": "https://dc.lft.to/lastmile_qr_scan"}, "is_reserved": 0, "name": "327526b047386eee23e3b15b76766e08", "lon": -77.00671516666667, "type": "electric_bike", "bike_id": "327526b047386eee23e3b15b76766e08", "fusion_lon": 0.0, "lat": 38.945115666666666, "fusion_lat": 0.0}, {"is_disabled": 0, "rental_uris": {"android": "https://dc.lft.to/lastmile_qr_scan", "ios": "https://dc.lft.to/lastmile_qr_scan"}, "is_reserved": 0, "name": "09124d5ebf51fa637f5866e9fce62b5e", "lon": -77.028048, "type": "electric_scooter", "bike_id": "09124d5ebf51fa637f5866e9fce62b5e", "fusion_lon": 0.0, "lat": 38.9621765, "fusion_lat": 0.0}, {"is_disabled": 0, "rental_uris": {"android": "https://dc.lft.to/lastmile_qr_scan", "ios": "https://dc.lft.to/lastmile_qr_scan"}, "is_reserved": 0, "name": "d1ea3424fa2c0c51c504316048c226a2", "lon": -77.07442566666667, "type": "electric_scooter", "bike_id": "d1ea3424fa2c0c51c504316048c226a2", "fusion_lon": 0.0, "lat": 38.910968, "fusion_lat": 0.0}, {"is_disabled": 0, "rental_uris": {"android": "https://dc.lft.to/lastmile_qr_scan", "ios": "https://dc.lft.to/lastmile_qr_scan"}, "is_reserved": 0, "name": "cfa3c4ffd0a05f701e93c8c7589e3103", "lon": -77.059432, "type": "electric_scooter", "bike_id": "cfa3c4ffd0a05f701e93c8c7589e3103", "fusion_lon": 0.0, "lat": 38.936739833333334, "fusion_lat": 0.0}, {"is_disabled": 0, "rental_uris": {"android": "https://dc.lft.to/lastmile_qr_scan", "ios": "https://dc.lft.to/lastmile_qr_scan"}, "is_reserved": 0, "name": "d3f62d9635ed2156888bf8042f7bfee4", "lon": -77.02720566666666, "type": "electric_scooter", "bike_id": "d3f62d9635ed2156888bf8042f7bfee4", "fusion_lon": 0.0, "lat": 38.940929, "fusion_lat": 0.0}, {"is_disabled": 0, "rental_uris": {"android": "https://dc.lft.to/lastmile_qr_scan", "ios": "https://dc.lft.to/lastmile_qr_scan"}, "is_reserved": 0, "name": "66c137f51d3c7d2853c30b3a1e27990f", "lon": -77.04370583333333, "type": "electric_scooter", "bike_id": "66c137f51d3c7d2853c30b3a1e27990f", "fusion_lon": 0.0, "lat": 38.900295, "fusion_lat": 0.0}, {"is_disabled": 0, "rental_uris": {"android": "https://dc.lft.to/lastmile_qr_scan", "ios": "https://dc.lft.to/lastmile_qr_scan"}, "is_reserved": 0, "name": "eb1f4b4d14d2e139dac569cd62711a75", "lon": -77.046144, "type": "electric_scooter", "bike_id": "eb1f4b4d14d2e139dac569cd62711a75", "fusion_lon": 0.0, "lat": 38.9069215, "fusion_lat": 0.0}, {"is_disabled": 0, "rental_uris": {"android": "https://dc.lft.to/lastmile_qr_scan", "ios": "https://dc.lft.to/lastmile_qr_scan"}, "is_reserved": 0, "name": "1391b7393f76fe8250a621026543ada9", "lon": -77.04401316666667, "type": "electric_scooter", "bike_id": "1391b7393f76fe8250a621026543ada9", "fusion_lon": 0.0, "lat": 38.91087233333333, "fusion_lat": 0.0}, {"is_disabled": 0, "rental_uris": {"android": "https://dc.lft.to/lastmile_qr_scan", "ios": "https://dc.lft.to/lastmile_qr_scan"},