{"data": {"bikes": [{"bike_id": "602b0abf4510d9c9d91aad06c89bc5f4", "lat": 38.904299333333334, "is_disabled": 0, "lon": -77.05801166666667, "fusion_lon": 0.0, "is_reserved": 0, "fusion_lat": 0.0, "rental_uris": {"android": "https://dc.lft.to/lastmile_qr_scan", "ios": "https://dc.lft.to/lastmile_qr_scan"}, "type": "electric_scooter", "name": "602b0abf4510d9c9d91aad06c89bc5f4"}, {"bike_id": "8af9871766c152d33190f4e9682d46e3", "lat": 38.93566366666667, "is_disabled": 0, "lon": -77.10606033333333, "fusion_lon": 0.0, "is_reserved": 0, "fusion_lat": 0.0, "rental_uris": {"android": "https://dc.lft.to/lastmile_qr_scan", "ios": "https://dc.lft.to/lastmile_qr_scan"}, "type": "electric_bike", "name": "8af9871766c152d33190f4e9682d46e3"}, {"bike_id": "7b508936ff81ab2fa995fd467c43718e", "lat": 38.893605, "is_disabled": 0, "lon": -76.99262716666667, "fusion_lon": 0.0, "is_reserved": 0, "fusion_lat": 0.0, "rental_uris": {"android": "https://dc.lft.to/lastmile_qr_scan", "ios": "https://dc.lft.to/lastmile_qr_scan"}, "type": "electric_bike", "name": "7b508936ff81ab2fa995fd467c43718e"}, {"bike_id": "6a128a531854c5c0392fb90fd22ff6c8", "lat": 38.87107566666667, "is_disabled": 0, "lon": -77.00759383333333, "fusion_lon": 0.0, "is_reserved": 0, "fusion_lat": 0.0, "rental_uris": {"android": "https://dc.lft.to/lastmile_qr_scan", "ios": "https://dc.lft.to/lastmile_qr_scan"}, "type": "electric_scooter", "name": "6a128a531854c5c0392fb90fd22ff6c8"}, {"bike_id": "049f28dba7bbe36bb4b83b6904e41dfe", "lat": 38.846724333333334, "is_disabled": 0, "lon": -76.9828145, "fusion_lon": 0.0, "is_reserved": 0, "fusion_lat": 0.0, "rental_uris": {"android": "https://dc.lft.to/lastmile_qr_scan", "ios": "https://dc.lft.to/lastmile_qr_scan"}, "type": "electric_bike", "name": "049f28dba7bbe36bb4b83b6904e41dfe"}, {"bike_id": "a369d55c17f6f9717746510867b64aa4", "lat": 38.91945583333333, "is_disabled": 0, "lon": -77.01798233333334, "fusion_lon": 0.0, "is_reserved": 0, "fusion_lat": 0.0, "rental_uris": {"android": "https://dc.lft.to/lastmile_qr_scan", "ios": "https://dc.lft.to/lastmile_qr_scan"}, "type": "electric_scooter", "name": "a369d55c17f6f9717746510867b64aa4"}, {"bike_id": "63e5d450f5a4191b4d2e200cc232cd07", "lat": 38.972143833333334, "is_disabled": 0, "lon": -77.0333965, "fusion_lon": 0.0, "is_reserved": 0, "fusion_lat": 0.0, "rental_uris": {"android": "https://dc.lft.to/lastmile_qr_scan", "ios": "https://dc.lft.to/lastmile_qr_scan"}, "type": "electric_scooter", "name": "63e5d450f5a4191b4d2e200cc232cd07"}, {"bike_id": "2df1ba886819948015e3f7f88b27ec7d", "lat": 38.918161833333336, "is_disabled": 0, "lon": -77.03257883333333, "fusion_lon": 0.0, "is_reserved": 0, "fusion_lat": 0.0, "rental_uris": {"android": "https://dc.lft.to/lastmile_qr_scan", "ios": "https://dc.lft.to/lastmile_qr_scan"}, "type": "electric_scooter", "name": "2df1ba886819948015e3f7f88b27ec7d"}, {"bike_id": "e12a72e5393c68b8be9fa0b173154d8c", "lat": 38.89345633333333, "is_disabled": 0, "lon": -76.9522855, "fusion_lon": 0.0, "is_reserved": 0, "fusion_lat": 0.0, "rental_uris": {"android": "https://dc.lft.to/lastmile_qr_scan", "ios": "https://dc.lft.to/lastmile_qr_scan"}, "type": "electric_scooter", "name": "e12a72e5393c68b8be9fa0b173154d8c"}, {"bike_id": "b857539cb7e7847a68ceade3fdfaa2ca", "lat": 38.897225166666665, "is_disabled": 0, "lon": -77.01914416666666, "fusion_lon": 0.0, "is_reserved": 0, "fusion_lat": 0.0, "rental_uris": {"android": "https://dc.lft.to/lastmile_qr_scan", "ios": "https://dc.lft.to/lastmile_qr_scan"}, "type": "electric_scooter", "name": "b857539cb7e7847a68ceade3fdfaa2ca"}, {"bike_id": "6b4e475d4e3e1eeee3989fdfa9a68bc9", "lat": 38.91903766666667, "is_disabled": 0, "lon": -77.02889616666667, "fusion_lon": 0.0, "is_reserved": 0, "fusion_lat": 0.0, "rental_uris": {"android": "https://dc.lft.to/lastmile_qr_scan", "ios": "https://dc.lft.to/lastmile_qr_scan"}, "type": "electric_scooter", "name": "6b4e475d4e3e1eeee3989fdfa9a68bc9"}, {"bike_id": "edb4fc0206987bd1b69fe57084072d8c", "lat": 38.912543166666666, "is_disabled": 0, "lon": -77.041677, "fusion_lon": 0.0, "is_reserved": 0, "fusion_lat": 0.0, "rental_uris": {"android": "https://dc.lft.to/lastmile_qr_scan", "ios": "https://dc.lft.to/lastmile_qr_scan"}, "type": "electric_scooter", "name": "edb4fc0206987bd1b69fe57084072d8c"}, {"bike_id": "03973f1b9bcc281fa5c2ef1bfccfa251", "lat": 38.92233066666667, "is_disabled": 0, "lon": -77.0444945, "fusion_lon": 0.0, "is_reserved": 0, "fusion_lat": 0.0, "rental_uris": {"android": "https://dc.lft.to/lastmile_qr_scan", "ios": "https://dc.lft.to/lastmile_qr_scan"}, "type": "electric_scooter", "name": "03973f1b9bcc281fa5c2ef1bfccfa251"}, {"bike_id": "58dfbe02f80009e04faeb2527bd28362", "lat": 38.911653333333334, "is_disabled": 0, "lon": -77.0161395, "fusion_lon": 0.0, "is_reserved": 0, "fusion_lat": 0.0, "rental_uris": {"android": "https://dc.lft.to/lastmile_qr_scan", "ios": "https://dc.lft.to/lastmile_qr_scan"}, "type": "electric_scooter", "name": "58dfbe02f80009e04faeb2527bd28362"}, {"bike_id": "c85325da3773db68decb32f4464037df", "lat": 38.89270166666667, "is_disabled": 0, "lon": -77.04671566666667, "fusion_lon": 0.0, "is_reserved": 0, "fusion_lat": 0.0, "rental_uris": {"android": "https://dc.lft.to/lastmile_qr_scan", "ios": "https://dc.lft.to/lastmile_qr_scan"}, "type": "electric_scooter", "name": "c85325da3773db68decb32f4464037df"}, {"bike_id": "fcd11f16aa3faf0c5911be8bcf48c32b", "lat": 38.917517833333335, "is_disabled": 0, "lon": -77.04151383333334, "fusion_lon": 0.0, "is_reserved": 0, "fusion_lat": 0.0, "rental_uris": {"android": "https://dc.lft.to/lastmile_qr_scan", "ios": "https://dc.lft.to/lastmile_qr_scan"}, "type": "electric_scooter", "name": "fcd11f16aa3faf0c5911be8bcf48c32b"}, {"bike_id": "ab72fd4334dd3e8a3fbe2e058933cef7", "lat": 38.892187666666665, "is_disabled": 0, "lon": -77.03994, "fusion_lon": 0.0, "is_reserved": 0, "fusion_lat": 0.0, "rental_uris": {"android": "https://dc.lft.to/lastmile_qr_scan", "ios": "https://dc.lft.to/lastmile_qr_scan"}, "type": "electric_scooter", "name": "ab72fd4334dd3e8a3fbe2e058933cef7"}, {"bike_id": "a78fca6bc9a60e02de34062c34d41c75", "lat": 38.91383866666666, "is_disabled": 0, "lon": -77.032105, "fusion_lon": 0.0, "is_reserved": 0, "fusion_lat": 0.0, "rental_uris": {"android": "https://dc.lft.to/lastmile_qr_scan", "ios": "https://dc.lft.to/lastmile_qr_scan"}, "type": "electric_scooter", "name": "a78fca6bc9a60e02de34062c34d41c75"}, {"bike_id": "627fb1865e07d931d6a4f2b385e2a086", "lat": 38.89531133333333, "is_disabled": 0, "lon": -77.04645866666667, "fusion_lon": 0.0, "is_reserved": 0, "fusion_lat": 0.0, "rental_uris": {"android": "https://dc.lft.to/lastmile_qr_scan", "ios": "https://dc.lft.to/lastmile_qr_scan"}, "type": "electric_scooter", "name": "627fb1865e07d931d6a4f2b385e2a086"}, {"bike_id": "5e9e5a3a37bff038ef938e65a7f29929", "lat": 38.94070116666666, "is_disabled": 0, "lon": -77.003963, "fusion_lon": 0.0, "is_reserved": 0, "fusion_lat": 0.0, "rental_uris": {"android": "https://dc.lft.to/lastmile_qr_scan", "ios": "https://dc.lft.to/lastmile_qr_scan"}, "type": "electric_scooter", "name": "5e9e5a3a37bff038ef938e65a7f29929"}, {"bike_id": "75502d699867f49b632d1fd78a68b995", "lat": 38.9440645, "is_disabled": 0, "lon": -77.05518016666667, "fusion_lon": 0.0, "is_reserved": 0, "fusion_lat": 0.0, "rental_uris": {"android": "https://dc.lft.to/lastmile_qr_scan", "ios": "https://dc.lft.to/lastmile_qr_scan"}, "type": "electric_bike", "name": "75502d699867f49b632d1fd78a68b995"}, {"bike_id": "bf68dd04b6a72cefe151eb063d105890", "lat": 38.9168135, "is_disabled": 0, "lon": -77.03475883333333, "fusion_lon": 0.0, "is_reserved": 0, "fusion_lat": 0.0, "rental_uris": {"android": "https://dc.lft.to/lastmile_qr_scan", "ios": "https://dc.lft.to/lastmile_qr_scan"}, "type": "electric_scooter", "name": "bf68dd04b6a72cefe151eb063d105890"}, {"bike_id": "f27015e29d0a243da802ce6296433829", "lat": 38.9229755, "is_disabled": 0, "lon": -77.02320566666667, "fusion_lon": 0.0, "is_reserved": 0, "fusion_lat": 0.0, "rental_uris": {"android": "https://dc.lft.to/lastmile_qr_scan", "ios": "https://dc.lft.to/lastmile_qr_scan"}, "type": "electric_scooter", "name": "f27015e29d0a243da802ce6296433829"}, {"bike_id": "d714e0b7d2c85e8d1a99735c2672339c", "lat": 38.914218166666664, "is_disabled": 0, "lon": -77.04591683333334, "fusion_lon": 0.0, "is_reserved": 0, "fusion_lat": 0.0, "rental_uris": {"android": "https://dc.lft.to/lastmile_qr_scan", "ios": "https://dc.lft.to/lastmile_qr_scan"}, "type": "electric_scooter", "name": "d714e0b7d2c85e8d1a99735c2672339c"}, {"bike_id": "926ff7f40d5748c9e3845b801efc0be7", "lat": 38.933265166666665, "is_disabled": 0, "lon": -77.02922533333333, "fusion_lon": 0.0, "is_reserved": 0, "fusion_lat": 0.0, "rental_uris": {"android": "https://dc.lft.to/lastmile_qr_scan", "ios": "https://dc.lft.to/lastmile_qr_scan"}, "type": "electric_scooter", "name": "926ff7f40d5748c9e3845b801efc0be7"}, {"bike_id": "d235bba19d7c7f353b8c38ff01992eb8", "lat": 38.913099333333335, "is_disabled": 0, "lon": -77.047194, "fusion_lon": 0.0, "is_reserved": 0, "fusion_lat": 0.0, "rental_uris": {"android": "https://dc.lft.to/lastmile_qr_scan", "ios": "https://dc.lft.to/lastmile_qr_scan"}, "type": "electric_scooter", "name": "d235bba19d7c7f353b8c38ff01992eb8"}, {"bike_id": "df326e95c54dd387298524417a2fedee", "lat": 38.9185205, "is_disabled": 0, "lon": -77.04482983333334, "fusion_lon": 0.0, "is_reserved": 0, "fusion_lat": 0.0, "rental_uris": {"android": "https://dc.lft.to/lastmile_qr_scan", "ios": "https://dc.lft.to/lastmile_qr_scan"}, "type": "electric_scooter", "name": "df326e95c54dd387298524417a2fedee"}, {"bike_id": "b26436d05f579ee575efa7652599f181", "lat": 38.857174, "is_disabled": 0, "lon": -76.990991, "fusion_lon": 0.0, "is_reserved": 0, "fusion_lat": 0.0, "rental_uris": {"android": "https://dc.lft.to/lastmile_qr_scan", "ios": "https://dc.lft.to/lastmile_qr_scan"}, "type": "electric_scooter", "name": "b26436d05f579ee575efa7652599f181"}, {"bike_id": "8ec747ce759a467808e8fd7e8a369798", "lat": 38.906844166666666, "is_disabled": 0, "lon": -77.04487683333333, "fusion_lon": 0.0, "is_reserved": 0, "fusion_lat": 0.0, "rental_uris": {"android": "https://dc.lft.to/lastmile_qr_scan", "ios": "https://dc.lft.to/lastmile_qr_scan"}, "type": "electric_scooter", "name": "8ec747ce759a467808e8fd7e8a369798"}, {"bike_id": "e2d786b170a7c54d91be17f9d11f87ba", "lat": 38.90464866666667, "is_disabled": 0, "lon": -76.99504583333334, "fusion_lon": 0.0, "is_reserved": 0, "fusion_lat": 0.0, "rental_uris": {"android": "https://dc.lft.to/lastmile_qr_scan", "ios": "https://dc.lft.to/lastmile_qr_scan"}, "type": "electric_scooter", "name": "e2d786b170a7c54d91be17f9d11f87ba"}, {"bike_id": "6089b09cbcaf468f8ab046e7118714af", "lat": 38.9224915, "is_disabled": 0, "lon": -77.020087, "fusion_lon": 0.0, "is_reserved": 0, "fusion_lat": 0.0, "rental_uris": {"android": "https://dc.lft.to/lastmile_qr_scan", "ios": "https://dc.lft.to/lastmile_qr_scan"}, "type": "electric_scooter", "name": "6089b09cbcaf468f8ab046e7118714af"}, {"bike_id": "d3e1a45c9ad3bae5497612400c188194", "lat": 38.9054785, "is_disabled": 0, "lon": -77.03250466666667, "fusion_lon": 0.0, "is_reserved": 0, "fusion_lat": 0.0, "rental_uris": {"android": "https://dc.lft.to/lastmile_qr_scan", "ios": "https://dc.lft.to/lastmile_qr_scan"}, "type": "electric_scooter", "name": "d3e1a45c9ad3bae5497612400c188194"}, {"bike_id": "75dc93c0c1ee95e4da4b7cb212a54cff", "lat": 38.923353, "is_disabled": 0, "lon": -77.019071, "fusion_lon": 0.0, "is_reserved": 0, "fusion_lat": 0.0, "rental_uris": {"android": "https://dc.lft.to/lastmile_qr_scan", "ios": "https://dc.lft.to/lastmile_qr_scan"}, "type": "electric_scooter", "name": "75dc93c0c1ee95e4da4b7cb212a54cff"}, {"bike_id": "8cb925f8ef56043daf606715692ccf1a", "lat": 38.91925083333334, "is_disabled": 0, "lon": -77.079409, "fusion_lon": 0.0, "is_reserved": 0, "fusion_lat": 0.0, "rental_uris": {"android": "https://dc.lft.to/lastmile_qr_scan", "ios": "https://dc.lft.to/lastmile_qr_scan"}, "type": "electric_scooter", "name": "8cb925f8ef56043daf606715692ccf1a"}, {"bike_id": "d2a49ca191fe7d2a734b171cc5290d4a", "lat": 38.8756865, "is_disabled": 0, "lon": -77.020513, "fusion_lon": 0.0, "is_reserved": 0, "fusion_lat": 0.0, "rental_uris": {"android": "https://dc.lft.to/lastmile_qr_scan", "ios": "https://dc.lft.to/lastmile_qr_scan"}, "type": "electric_scooter", "name": "d2a49ca191fe7d2a734b171cc5290d4a"}, {"bike_id": "8974065a5d2f736cd9d08bf5c985e50a", "lat": 38.87924133333333, "is_disabled": 0, "lon": -76.99544516666667, "fusion_lon": 0.0, "is_reserved": 0, "fusion_lat": 0.0, "rental_uris": {"android": "https://dc.lft.to/lastmile_qr_scan", "ios": "https://dc.lft.to/lastmile_qr_scan"}, "type": "electric_scooter", "name": "8974065a5d2f736cd9d08bf5c985e50a"}, {"bike_id": "ac84492a6c87248e1cff7ed2a5870fbb", "lat": 38.90115216666667, "is_disabled": 0, "lon": -77.03217566666666, "fusion_lon": 0.0, "is_reserved": 0, "fusion_lat": 0.0, "rental_uris": {"android": "https://dc.lft.to/lastmile_qr_scan", "ios": "https://dc.lft.to/lastmile_qr_scan"}, "type": "electric_scooter", "name": "ac84492a6c87248e1cff7ed2a5870fbb"}, {"bike_id": "aa86e3b87e5de018956c8d81ac2822a4", "lat": 38.8922195, "is_disabled": 0, "lon": -77.02219666666667, "fusion_lon": 0.0, "is_reserved": 0, "fusion_lat": 0.0, "rental_uris": {"android": "https://dc.lft.to/lastmile_qr_scan", "ios": "https://dc.lft.to/lastmile_qr_scan"}, "type": "electric_scooter", "name": "aa86e3b87e5de018956c8d81ac2822a4"}, {"bike_id": "4deaeb23563a10c08476142554321960", "lat": 38.910834, "is_disabled": 0, "lon": -76.99941216666667, "fusion_lon": 0.0, "is_reserved": 0, "fusion_lat": 0.0, "rental_uris": {"android": "https://dc.lft.to/lastmile_qr_scan", "ios": "https://dc.lft.to/lastmile_qr_scan"}, "type": "electric_scooter", "name": "4deaeb23563a10c08476142554321960"}, {"bike_id": "61668670ff130ba41553c9a5be0df7e8", "lat": 38.89195016666667, "is_disabled": 0, "lon": -77.0238095, "fusion_lon": 0.0, "is_reserved": 0, "fusion_lat": 0.0, "rental_uris": {"android": "https://dc.lft.to/lastmile_qr_scan", "ios": "https://dc.lft.to/lastmile_qr_scan"}, "type": "electric_scooter", "name": "61668670ff130ba41553c9a5be0df7e8"}, {"bike_id": "ed4742e812e7a78ca7d6ec541e2b9eb2", "lat": 38.916966, "is_disabled": 0, "lon": -77.03166533333334, "fusion_lon": 0.0, "is_reserved": 0, "fusion_lat": 0.0, "rental_uris": {"android": "https://dc.lft.to/lastmile_qr_scan", "ios": "https://dc.lft.to/lastmile_qr_scan"}, "type": "electric_scooter", "name": "ed4742e812e7a78ca7d6ec541e2b9eb2"}, {"bike_id": "0663afde702488e23bc235303ff31b78", "lat": 38.90236133333333, "is_disabled": 0, "lon": -77.001991, "fusion_lon": 0.0, "is_reserved": 0, "fusion_lat": 0.0, "rental_uris": {"android": "https://dc.lft.to/lastmile_qr_scan", "ios": "https://dc.lft.to/lastmile_qr_scan"}, "type": "electric_scooter", "name": "0663afde702488e23bc235303ff31b78"}, {"bike_id": "d8a4341dd1033da892273c382a19a743", "lat": 38.92050733333333, "is_disabled": 0, "lon": -77.03207416666666, "fusion_lon": 0.0, "is_reserved": 0, "fusion_lat": 0.0, "rental_uris": {"android": "https://dc.lft.to/lastmile_qr_scan", "ios": "https://dc.lft.to/lastmile_qr_scan"}, "type": "electric_scooter", "name": "d8a4341dd1033da892273c382a19a743"}, {"bike_id": "83d85e45e9c9591f5a40eafabfafb515", "lat": 38.87160733333333, "is_disabled": 0, "lon": -77.00684233333334, "fusion_lon": 0.0, "is_reserved": 0, "fusion_lat": 0.0, "rental_uris": {"android": "https://dc.lft.to/lastmile_qr_scan", "ios": "https://dc.lft.to/lastmile_qr_scan"}, "type": "electric_scooter", "name": "83d85e45e9c9591f5a40eafabfafb515"}, {"bike_id": "97a289706b87eb7da69a7951476c0ab3", "lat": 38.871747, "is_disabled": 0, "lon": -77.0062705, "fusion_lon": 0.0, "is_reserved": 0, "fusion_lat": 0.0, "rental_uris": {"android": "https://dc.lft.to/lastmile_qr_scan", "ios": "https://dc.lft.to/lastmile_qr_scan"}, "type": "electric_scooter", "name": "97a289706b87eb7da69a7951476c0ab3"}, {"bike_id": "927b43fe12f17f719ebe5b95b731b2b7", "lat": 38.9477185, "is_disabled": 0, "lon": -77.04077766666667, "fusion_lon": 0.0, "is_reserved": 0, "fusion_lat": 0.0, "rental_uris": {"android": "https://dc.lft.to/lastmile_qr_scan", "ios": "https://dc.lft.to/lastmile_qr_scan"}, "type": "electric_scooter", "name": "927b43fe12f17f719ebe5b95b731b2b7"}, {"bike_id": "c6a29ba1f48b790aff3f9eaa4573952a", "lat": 38.88076566666667, "is_disabled": 0, "lon": -76.98529833333333, "fusion_lon": 0.0, "is_reserved": 0, "fusion_lat": 0.0, "rental_uris": {"android": "https://dc.lft.to/lastmile_qr_scan", "ios": "https://dc.lft.to/lastmile_qr_scan"}, "type": "electric_scooter", "name": "c6a29ba1f48b790aff3f9eaa4573952a"}, {"bike_id": "3484a3d8686ffe212486574344a65f37", "lat": 38.8922085, "is_disabled": 0, "lon": -77.02622333333333, "fusion_lon": 0.0, "is_reserved": 0, "fusion_lat": 0.0, "rental_uris": {"android": "https://dc.lft.to/lastmile_qr_scan", "ios": "https://dc.lft.to/lastmile_qr_scan"}, "type": "electric_scooter", "name": "3484a3d8686ffe212486574344a65f37"}, {"bike_id": "5378402692cdade22581a1d046a4722d", "lat": 38.95654583333334, "is_disabled": 0, "lon": -77.01971016666667, "fusion_lon": 0.0, "is_reserved": 0, "fusion_lat": 0.0, "rental_uris": {"android": "https://dc.lft.to/lastmile_qr_scan", "ios": "https://dc.lft.to/lastmile_qr_scan"}, "type": "electric_scooter", "name": "5378402692cdade22581a1d046a4722d"}, {"bike_id": "8e47688531cc80effd11efe4704800a1", "lat": 38.92341416666667, "is_disabled": 0, "lon": -77.03521616666667, "fusion_lon": 0.0, "is_reserved": 0, "fusion_lat": 0.0, "rental_uris": {"android": "https://dc.lft.to/lastmile_qr_scan", "ios": "https://dc.lft.to/lastmile_qr_scan"}, "type": "electric_scooter", "name": "8e47688531cc80effd11efe4704800a1"}, {"bike_id": "9c01654fdfcf04e8d167c12ab140ec05", "lat": 38.971907333333334, "is_disabled": 0, "lon": -77.027206, "fusion_lon": 0.0, "is_reserved": 0, "fusion_lat": 0.0, "rental_uris": {"android": "https://dc.lft.to/lastmile_qr_scan", "ios": "https://dc.lft.to/lastmile_qr_scan"}, "type": "electric_bike", "name": "9c01654fdfcf04e8d167c12ab140ec05"}, {"bike_id": "20c5a5e43c05b17755be4255be2e21cd", "lat": 38.9072055, "is_disabled": 0, "lon": -77.04391533333333, "fusion_lon": 0.0, "is_reserved": 0, "fusion_lat": 0.0, "rental_uris": {"android": "https://dc.lft.to/lastmile_qr_scan", "ios": "https://dc.lft.to/lastmile_qr_scan"}, "type": "electric_scooter", "name": "20c5a5e43c05b17755be4255be2e21cd"}, {"bike_id": "b1d3690f7d4489d37278a342ad10eee3", "lat": 38.9059845, "is_disabled": 0, "lon": -77.0414055, "fusion_lon": 0.0, "is_reserved": 0, "fusion_lat": 0.0, "rental_uris": {"android": "https://dc.lft.to/lastmile_qr_scan", "ios": "https://dc.lft.to/lastmile_qr_scan"}, "type": "electric_scooter", "name": "b1d3690f7d4489d37278a342ad10eee3"}, {"bike_id": "a18f6c90cfa5605318839348a6fa8f23", "lat": 38.894374166666665, "is_disabled": 0, "lon": -76.98082666666667, "fusion_lon": 0.0, "is_reserved": 0, "fusion_lat": 0.0, "rental_uris": {"android": "https://dc.lft.to/lastmile_qr_scan", "ios": "https://dc.lft.to/lastmile_qr_scan"}, "type": "electric_scooter", "name": "a18f6c90cfa5605318839348a6fa8f23"}, {"bike_id": "bcf6e88f09a348908cfbde6f624ab197", "lat": 38.909511, "is_disabled": 0, "lon": -77.04631683333334, "fusion_lon": 0.0, "is_reserved": 0, "fusion_lat": 0.0, "rental_uris": {"android": "https://dc.lft.to/lastmile_qr_scan", "ios": "https://dc.lft.to/lastmile_qr_scan"}, "type": "electric_scooter", "name": "bcf6e88f09a348908cfbde6f624ab197"}, {"bike_id": "faf8d26484936da699d1d4d3ba1b9517", "lat": 38.8666275, "is_disabled": 0, "lon": -76.98886633333333, "fusion_lon": 0.0, "is_reserved": 0, "fusion_lat": 0.0, "rental_uris": {"android": "https://dc.lft.to/lastmile_qr_scan", "ios": "https://dc.lft.to/lastmile_qr_scan"}, "type": "electric_scooter", "name": "faf8d26484936da699d1d4d3ba1b9517"}, {"bike_id": "28e57cbe39da2d6b527dbd15eaaba1f5", "lat": 38.9038105, "is_disabled": 0, "lon": -77.0248155, "fusion_lon": 0.0, "is_reserved": 0, "fusion_lat": 0.0, "rental_uris": {"android": "https://dc.lft.to/lastmile_qr_scan", "ios": "https://dc.lft.to/lastmile_qr_scan"}, "type": "electric_scooter", "name": "28e57cbe39da2d6b527dbd15eaaba1f5"}, {"bike_id": "46ade961b0a7e270f1bf3a9408586a7b", "lat": 38.9180085, "is_disabled": 0, "lon": -77.0343465, "fusion_lon": 0.0, "is_reserved": 0, "fusion_lat": 0.0, "rental_uris": {"android": "https://dc.lft.to/lastmile_qr_scan", "ios": "https://dc.lft.to/lastmile_qr_scan"}, "type": "electric_scooter", "name": "46ade961b0a7e270f1bf3a9408586a7b"}, {"bike_id": "052662a2aede1b6e400b35702b31ba03", "lat": 38.9207735, "is_disabled": 0, "lon": -77.04204983333334, "fusion_lon": 0.0, "is_reserved": 0, "fusion_lat": 0.0, "rental_uris": {"android": "https://dc.lft.to/lastmile_qr_scan", "ios": "https://dc.lft.to/lastmile_qr_scan"}, "type": "electric_scooter", "name": "052662a2aede1b6e400b35702b31ba03"}, {"bike_id": "87ef82d425d83665e2b050e6548e459a", "lat": 38.917931833333334, "is_disabled": 0, "lon": -77.02698566666666, "fusion_lon": 0.0, "is_reserved": 0, "fusion_lat": 0.0, "rental_uris": {"android": "https://dc.lft.to/lastmile_qr_scan", "ios": "https://dc.lft.to/lastmile_qr_scan"}, "type": "electric_scooter", "name": "87ef82d425d83665e2b050e6548e459a"}, {"bike_id": "6fbc62c03f25f3677ea1322f62244f91", "lat": 38.916307333333336, "is_disabled": 0, "lon": -77.03637516666667, "fusion_lon": 0.0, "is_reserved": 0, "fusion_lat": 0.0, "rental_uris": {"android": "https://dc.lft.to/lastmile_qr_scan", "ios": "https://dc.lft.to/lastmile_qr_scan"}, "type": "electric_scooter", "name": "6fbc62c03f25f3677ea1322f62244f91"}, {"bike_id": "2c97de6f6dd891616f0eda1d3e411abe", "lat": 38.903884, "is_disabled": 0, "lon": -77.03409416666666, "fusion_lon": 0.0, "is_reserved": 0, "fusion_lat": 0.0, "rental_uris": {"android": "https://dc.lft.to/lastmile_qr_scan", "ios": "https://dc.lft.to/lastmile_qr_scan"}, "type": "electric_scooter", "name": "2c97de6f6dd891616f0eda1d3e411abe"}, {"bike_id": "a03161ef7e628a8e61c2c0797bde92a6", "lat": 38.89620083333333, "is_disabled": 0, "lon": -77.03189083333334, "fusion_lon": 0.0, "is_reserved": 0, "fusion_lat": 0.0, "rental_uris": {"android": "https://dc.lft.to/lastmile_qr_scan", "ios": "https://dc.lft.to/lastmile_qr_scan"}, "type": "electric_scooter", "name": "a03161ef7e628a8e61c2c0797bde92a6"}, {"bike_id": "c22e419d2009df85fbb2ecd1323fc3ac", "lat": 38.92101683333333, "is_disabled": 0, "lon": -77.0317175, "fusion_lon": 0.0, "is_reserved": 0, "fusion_lat": 0.0, "rental_uris": {"android": "https://dc.lft.to/lastmile_qr_scan", "ios": "https://dc.lft.to/lastmile_qr_scan"}, "type": "electric_scooter", "name": "c22e419d2009df85fbb2ecd1323fc3ac"}, {"bike_id": "b658e213c1d685acacf6ff1a0ca1caa6", "lat": 38.898445833333334, "is_disabled": 0, "lon": -77.03918266666666, "fusion_lon": 0.0, "is_reserved": 0, "fusion_lat": 0.0, "rental_uris": {"android": "https://dc.lft.to/lastmile_qr_scan", "ios": "https://dc.lft.to/lastmile_qr_scan"}, "type": "electric_scooter", "name": "b658e213c1d685acacf6ff1a0ca1caa6"}, {"bike_id": "a07ee7dec36dab3f52092dc5e0b3a30e", "lat": 38.896535666666665, "is_disabled": 0, "lon": -77.03372083333333, "fusion_lon": 0.0, "is_reserved": 0, "fusion_lat": 0.0, "rental_uris": {"android": "https://dc.lft.to/lastmile_qr_scan", "ios": "https://dc.lft.to/lastmile_qr_scan"}, "type": "electric_scooter", "name": "a07ee7dec36dab3f52092dc5e0b3a30e"}, {"bike_id": "7ba94dbf0289b007384e12508fa057a2", "lat": 38.901790166666665, "is_disabled": 0, "lon": -77.02207483333333, "fusion_lon": 0.0, "is_reserved": 0, "fusion_lat": 0.0, "rental_uris": {"android": "https://dc.lft.to/lastmile_qr_scan", "ios": "https://dc.lft.to/lastmile_qr_scan"}, "type": "electric_scooter", "name": "7ba94dbf0289b007384e12508fa057a2"}, {"bike_id": "90e0f5a73d1d0841d9bacd61eb589e00", "lat": 38.892173666666665, "is_disabled": 0, "lon": -77.02368866666667, "fusion_lon": 0.0, "is_reserved": 0, "fusion_lat": 0.0, "rental_uris": {"android": "https://dc.lft.to/lastmile_qr_scan", "ios": "https://dc.lft.to/lastmile_qr_scan"}, "type": "electric_scooter", "name": "90e0f5a73d1d0841d9bacd61eb589e00"}, {"bike_id": "b3410f10676118ee3253f050e6cdd74d", "lat": 38.900407, "is_disabled": 0, "lon": -76.99848266666666, "fusion_lon": 0.0, "is_reserved": 0, "fusion_lat": 0.0, "rental_uris": {"android": "https://dc.lft.to/lastmile_qr_scan", "ios": "https://dc.lft.to/lastmile_qr_scan"}, "type": "electric_scooter", "name": "b3410f10676118ee3253f050e6cdd74d"}, {"bike_id": "49b6a45b224d0169a0cf29f4a4407076", "lat": 38.903688833333334, "is_disabled": 0, "lon": -77.03200366666667, "fusion_lon": 0.0, "is_reserved": 0, "fusion_lat": 0.0, "rental_uris": {"android": "https://dc.lft.to/lastmile_qr_scan", "ios": "https://dc.lft.to/lastmile_qr_scan"}, "type": "electric_scooter", "name": "49b6a45b224d0169a0cf29f4a4407076"}, {"bike_id": "1a2f20bb94a27a08315cf15725f438eb", "lat": 38.89242333333333, "is_disabled": 0, "lon": -77.03953266666667, "fusion_lon": 0.0, "is_reserved": 0, "fusion_lat": 0.0, "rental_uris": {"android": "https://dc.lft.to/lastmile_qr_scan", "ios": "https://dc.lft.to/lastmile_qr_scan"}, "type": "electric_scooter", "name": "1a2f20bb94a27a08315cf15725f438eb"}, {"bike_id": "13f2a6dc8511e4ba0cd277d670b78d8a", "lat": 38.92455566666667, "is_disabled": 0, "lon": -77.040465, "fusion_lon": 0.0, "is_reserved": 0, "fusion_lat": 0.0, "rental_uris": {"android": "https://dc.lft.to/lastmile_qr_scan", "ios": "https://dc.lft.to/lastmile_qr_scan"}, "type": "electric_scooter", "name": "13f2a6dc8511e4ba0cd277d670b78d8a"}, {"bike_id": "af8ab05f743c70508128ececc001d0ed", "lat": 38.879233, "is_disabled": 0, "lon": -76.9433025, "fusion_lon": 0.0, "is_reserved": 0, "fusion_lat": 0.0, "rental_uris": {"android": "https://dc.lft.to/lastmile_qr_scan", "ios": "https://dc.lft.to/lastmile_qr_scan"}, "type": "electric_scooter", "name": "af8ab05f743c70508128ececc001d0ed"}, {"bike_id": "93891610348b5cb47b32bc99993f0e21", "lat": 38.80638366666667, "is_disabled": 0, "lon": -77.06249483333333, "fusion_lon": 0.0, "is_reserved": 0, "fusion_lat": 0.0, "rental_uris": {"android": "https://dc.lft.to/lastmile_qr_scan", "ios": "https://dc.lft.to/lastmile_qr_scan"}, "type": "electric_bike", "name": "93891610348b5cb47b32bc99993f0e21"}, {"bike_id": "9f394185dca2671c2f8c94431c46c2b9", "lat": 38.900267666666664, "is_disabled": 0, "lon": -77.01173583333333, "fusion_lon": 0.0, "is_reserved": 0, "fusion_lat": 0.0, "rental_uris": {"android": "https://dc.lft.to/lastmile_qr_scan", "ios": "https://dc.lft.to/lastmile_qr_scan"}, "type": "electric_scooter", "name": "9f394185dca2671c2f8c94431c46c2b9"}, {"bike_id": "0b9cc49b9995e7051c8a98663e525baa", "lat": 38.92976566666667, "is_disabled": 0, "lon": -77.02525083333333, "fusion_lon": 0.0, "is_reserved": 0, "fusion_lat": 0.0, "rental_uris": {"android": "https://dc.lft.to/lastmile_qr_scan", "ios": "https://dc.lft.to/lastmile_qr_scan"}, "type": "electric_scooter", "name": "0b9cc49b9995e7051c8a98663e525baa"}, {"bike_id": "7b6ea5f94484398a2c2557f1ddb14645", "lat": 38.9169045, "is_disabled": 0, "lon": -77.0259595, "fusion_lon": 0.0, "is_reserved": 0, "fusion_lat": 0.0, "rental_uris": {"android": "https://dc.lft.to/lastmile_qr_scan", "ios": "https://dc.lft.to/lastmile_qr_scan"}, "type": "electric_scooter", "name": "7b6ea5f94484398a2c2557f1ddb14645"}, {"bike_id": "081957ec6a92ae91fdef45cc3c04d9a0", "lat": 38.9184175, "is_disabled": 0, "lon": -77.04021833333333, "fusion_lon": 0.0, "is_reserved": 0, "fusion_lat": 0.0, "rental_uris": {"android": "https://dc.lft.to/lastmile_qr_scan", "ios": "https://dc.lft.to/lastmile_qr_scan"}, "type": "electric_scooter", "name": "081957ec6a92ae91fdef45cc3c04d9a0"}, {"bike_id": "c4292308a602b692519df1fd3d426773", "lat": 38.894881166666664, "is_disabled": 0, "lon": -77.00208016666667, "fusion_lon": 0.0, "is_reserved": 0, "fusion_lat": 0.0, "rental_uris": {"android": "https://dc.lft.to/lastmile_qr_scan", "ios": "https://dc.lft.to/lastmile_qr_scan"}, "type": "electric_scooter", "name": "c4292308a602b692519df1fd3d426773"}, {"bike_id": "e52eb02261e582745b1e9e6c01b44420", "lat": 38.91939216666667, "is_disabled": 0, "lon": -77.07062266666667, "fusion_lon": 0.0, "is_reserved": 0, "fusion_lat": 0.0, "rental_uris": {"android": "https://dc.lft.to/lastmile_qr_scan", "ios": "https://dc.lft.to/lastmile_qr_scan"}, "type": "electric_scooter", "name": "e52eb02261e582745b1e9e6c01b44420"}, {"bike_id": "189f1a9dd012e7da100145091df84419", "lat": 38.9211495, "is_disabled": 0, "lon": -77.01755166666666, "fusion_lon": 0.0, "is_reserved": 0, "fusion_lat": 0.0, "rental_uris": {"android": "https://dc.lft.to/lastmile_qr_scan", "ios": "https://dc.lft.to/lastmile_qr_scan"}, "type": "electric_scooter", "name": "189f1a9dd012e7da100145091df84419"}, {"bike_id": "fdea905f6e19cce005d097e37ad7065e", "lat": 38.8626205, "is_disabled": 0, "lon": -76.98354283333333, "fusion_lon": 0.0, "is_reserved": 0, "fusion_lat": 0.0, "rental_uris": {"android": "https://dc.lft.to/lastmile_qr_scan", "ios": "https://dc.lft.to/lastmile_qr_scan"}, "type": "electric_bike", "name": "fdea905f6e19cce005d097e37ad7065e"}, {"bike_id": "1546a12eea04b39fc0e7da240cc45bfe", "lat": 38.9197965, "is_disabled": 0, "lon": -77.03223433333334, "fusion_lon": 0.0, "is_reserved": 0, "fusion_lat": 0.0, "rental_uris": {"android": "https://dc.lft.to/lastmile_qr_scan", "ios": "https://dc.lft.to/lastmile_qr_scan"}, "type": "electric_scooter", "name": "1546a12eea04b39fc0e7da240cc45bfe"}, {"bike_id": "4f4e74225decfe613430376c4d98b2ab", "lat": 38.922469, "is_disabled": 0, "lon": -77.07300916666667, "fusion_lon": 0.0, "is_reserved": 0, "fusion_lat": 0.0, "rental_uris": {"android": "https://dc.lft.to/lastmile_qr_scan", "ios": "https://dc.lft.to/lastmile_qr_scan"}, "type": "electric_scooter", "name": "4f4e74225decfe613430376c4d98b2ab"}, {"bike_id": "5f20b163864ca481e66baa2c90c38508", "lat": 38.900160166666666, "is_disabled": 0, "lon": -77.02418766666666, "fusion_lon": 0.0, "is_reserved": 0, "fusion_lat": 0.0, "rental_uris": {"android": "https://dc.lft.to/lastmile_qr_scan", "ios": "https://dc.lft.to/lastmile_qr_scan"}, "type": "electric_scooter", "name": "5f20b163864ca481e66baa2c90c38508"}, {"bike_id": "46cea159375212be6e19df2bcb0c840a", "lat": 38.922449, "is_disabled": 0, "lon": -77.02056366666666, "fusion_lon": 0.0, "is_reserved": 0, "fusion_lat": 0.0, "rental_uris": {"android": "https://dc.lft.to/lastmile_qr_scan", "ios": "https://dc.lft.to/lastmile_qr_scan"}, "type": "electric_scooter", "name": "46cea159375212be6e19df2bcb0c840a"}, {"bike_id": "1c63d9f37c17a088ceeb4c14d0fa1dff", "lat": 38.9275615, "is_disabled": 0, "lon": -77.02935483333333, "fusion_lon": 0.0, "is_reserved": 0, "fusion_lat": 0.0, "rental_uris": {"android": "https://dc.lft.to/lastmile_qr_scan", "ios": "https://dc.lft.to/lastmile_qr_scan"}, "type": "electric_scooter", "name": "1c63d9f37c17a088ceeb4c14d0fa1dff"}, {"bike_id": "072a8d6362f1696599d4a0ecfb103c2e", "lat": 38.905503833333334, "is_disabled": 0, "lon": -77.04610983333333, "fusion_lon": 0.0, "is_reserved": 0, "fusion_lat": 0.0, "rental_uris": {"android": "https://dc.lft.to/lastmile_qr_scan", "ios": "https://dc.lft.to/lastmile_qr_scan"}, "type": "electric_scooter", "name": "072a8d6362f1696599d4a0ecfb103c2e"}, {"bike_id": "f8c8ce4d90771192c56c99822a8acd6d", "lat": 38.897371166666666, "is_disabled": 0, "lon": -77.0397375, "fusion_lon": 0.0, "is_reserved": 0, "fusion_lat": 0.0, "rental_uris": {"android": "https://dc.lft.to/lastmile_qr_scan", "ios": "https://dc.lft.to/lastmile_qr_scan"}, "type": "electric_scooter", "name": "f8c8ce4d90771192c56c99822a8acd6d"}, {"bike_id": "512f2ab40c0bec5f2945e0016ae4a9ba", "lat": 38.87779466666667, "is_disabled": 0, "lon": -76.9941165, "fusion_lon": 0.0, "is_reserved": 0, "fusion_lat": 0.0, "rental_uris": {"android": "https://dc.lft.to/lastmile_qr_scan", "ios": "https://dc.lft.to/lastmile_qr_scan"}, "type": "electric_scooter", "name": "512f2ab40c0bec5f2945e0016ae4a9ba"}, {"bike_id": "c3c9fac8927e4fb57e29f722a9470685", "lat": 38.917148166666664, "is_disabled": 0, "lon": -77.03347933333333, "fusion_lon": 0.0, "is_reserved": 0, "fusion_lat": 0.0, "rental_uris": {"android": "https://dc.lft.to/lastmile_qr_scan", "ios": "https://dc.lft.to/lastmile_qr_scan"}, "type": "electric_scooter", "name": "c3c9fac8927e4fb57e29f722a9470685"}, {"bike_id": "eda3d953fabc39508318576bff5bd975", "lat": 38.8623535, "is_disabled": 0, "lon": -76.99588183333333, "fusion_lon": 0.0, "is_reserved": 0, "fusion_lat": 0.0, "rental_uris": {"android": "https://dc.lft.to/lastmile_qr_scan", "ios": "https://dc.lft.to/lastmile_qr_scan"}, "type": "electric_bike", "name": "eda3d953fabc39508318576bff5bd975"}, {"bike_id": "dcd5c7eca5d152223a639266b2cb1445", "lat": 38.89162533333333, "is_disabled": 0, "lon": -77.015419, "fusion_lon": 0.0, "is_reserved": 0, "fusion_lat": 0.0, "rental_uris": {"android": "https://dc.lft.to/lastmile_qr_scan", "ios": "https://dc.lft.to/lastmile_qr_scan"}, "type": "electric_scooter", "name": "dcd5c7eca5d152223a639266b2cb1445"}, {"bike_id": "0f1478fd5aa71a35e33dfc64d9cc9ba4", "lat": 38.91765483333333, "is_disabled": 0, "lon": -77.0234225, "fusion_lon": 0.0, "is_reserved": 0, "fusion_lat": 0.0, "rental_uris": {"android": "https://dc.lft.to/lastmile_qr_scan", "ios": "https://dc.lft.to/lastmile_qr_scan"}, "type": "electric_scooter", "name": "0f1478fd5aa71a35e33dfc64d9cc9ba4"}, {"bike_id": "7b35af03b3a9ad44692dc22862bd483b", "lat": 38.876683666666665, "is_disabled": 0, "lon": -77.00935416666667, "fusion_lon": 0.0, "is_reserved": 0, "fusion_lat": 0.0, "rental_uris": {"android": "https://dc.lft.to/lastmile_qr_scan", "ios": "https://dc.lft.to/lastmile_qr_scan"}, "type": "electric_scooter", "name": "7b35af03b3a9ad44692dc22862bd483b"}, {"bike_id": "5bca8928165753475a6a14c9a5bc375e", "lat": 38.88560066666667, "is_disabled": 0, "lon": -76.99789866666667, "fusion_lon": 0.0, "is_reserved": 0, "fusion_lat": 0.0, "rental_uris": {"android": "https://dc.lft.to/lastmile_qr_scan", "ios": "https://dc.lft.to/lastmile_qr_scan"}, "type": "electric_scooter", "name": "5bca8928165753475a6a14c9a5bc375e"}, {"bike_id": "27d4b00cec7534fc9a39fdd67bcbb121", "lat": 38.927683, "is_disabled": 0, "lon": -77.040609, "fusion_lon": 0.0, "is_reserved": 0, "fusion_lat": 0.0, "rental_uris": {"android": "https://dc.lft.to/lastmile_qr_scan", "ios": "https://dc.lft.to/lastmile_qr_scan"}, "type": "electric_scooter", "name": "27d4b00cec7534fc9a39fdd67bcbb121"}, {"bike_id": "9eec9e8a34ea5129be51894a9c7e326a", "lat": 38.88685533333334, "is_disabled": 0, "lon": -77.09683516666666, "fusion_lon": 0.0, "is_reserved": 0, "fusion_lat": 0.0, "rental_uris": {"android": "https://dc.lft.to/lastmile_qr_scan", "ios": "https://dc.lft.to/lastmile_qr_scan"}, "type": "electric_bike", "name": "9eec9e8a34ea5129be51894a9c7e326a"}, {"bike_id": "ec6649e7aae2f2bd0f7883fabdf8763a", "lat": 38.93569216666667, "is_disabled": 0, "lon": -76.9930595, "fusion_lon": 0.0, "is_reserved": 0, "fusion_lat": 0.0, "rental_uris": {"android": "https://dc.lft.to/lastmile_qr_scan", "ios": "https://dc.lft.to/lastmile_qr_scan"}, "type": "electric_scooter", "name": "ec6649e7aae2f2bd0f7883fabdf8763a"}, {"bike_id": "f354282d45c444df8f0a980bc77edd8a", "lat": 38.8948345, "is_disabled": 0, "lon": -77.00290066666666, "fusion_lon": 0.0, "is_reserved": 0, "fusion_lat": 0.0, "rental_uris": {"android": "https://dc.lft.to/lastmile_qr_scan", "ios": "https://dc.lft.to/lastmile_qr_scan"}, "type": "electric_scooter", "name": "f354282d45c444df8f0a980bc77edd8a"}, {"bike_id": "826c4da47cf65f0989bdb20a92b0ca86", "lat": 38.9082015, "is_disabled": 0, "lon": -77.03945183333333, "fusion_lon": 0.0, "is_reserved": 0, "fusion_lat": 0.0, "rental_uris": {"android": "https://dc.lft.to/lastmile_qr_scan", "ios": "https://dc.lft.to/lastmile_qr_scan"}, "type": "electric_scooter", "name": "826c4da47cf65f0989bdb20a92b0ca86"}, {"bike_id": "01249d8e58b9cd9851bc779b73f2e440", "lat": 38.9046035, "is_disabled": 0, "lon": -77.03455633333333, "fusion_lon": 0.0, "is_reserved": 0, "fusion_lat": 0.0, "rental_uris": {"android": "https://dc.lft.to/lastmile_qr_scan", "ios": "https://dc.lft.to/lastmile_qr_scan"}, "type": "electric_scooter", "name": "01249d8e58b9cd9851bc779b73f2e440"}, {"bike_id": "5df4725b03681e28182ff333d5120082", "lat": 38.895322, "is_disabled": 0, "lon": -77.04648533333334, "fusion_lon": 0.0, "is_reserved": 0, "fusion_lat": 0.0, "rental_uris": {"android": "https://dc.lft.to/lastmile_qr_scan", "ios": "https://dc.lft.to/lastmile_qr_scan"}, "type": "electric_scooter", "name": "5df4725b03681e28182ff333d5120082"}, {"bike_id": "ad96b9da0bcd859995558ead16d73311", "lat": 38.9247215, "is_disabled": 0, "lon": -77.022164, "fusion_lon": 0.0, "is_reserved": 0, "fusion_lat": 0.0, "rental_uris": {"android": "https://dc.lft.to/lastmile_qr_scan", "ios": "https://dc.lft.to/lastmile_qr_scan"}, "type": "electric_scooter", "name": "ad96b9da0bcd859995558ead16d73311"}, {"bike_id": "2826ce2201c5be0d536431e46786b0c7", "lat": 38.8982645, "is_disabled": 0, "lon": -77.00752933333334, "fusion_lon": 0.0, "is_reserved": 0, "fusion_lat": 0.0, "rental_uris": {"android": "https://dc.lft.to/lastmile_qr_scan", "ios": "https://dc.lft.to/lastmile_qr_scan"}, "type": "electric_scooter", "name": "2826ce2201c5be0d536431e46786b0c7"}, {"bike_id": "b3f83f383cd97a12882071b2b77c78a7", "lat": 38.92158416666667, "is_disabled": 0, "lon": -77.03279466666666, "fusion_lon": 0.0, "is_reserved": 0, "fusion_lat": 0.0, "rental_uris": {"android": "https://dc.lft.to/lastmile_qr_scan", "ios": "https://dc.lft.to/lastmile_qr_scan"}, "type": "electric_scooter", "name": "b3f83f383cd97a12882071b2b77c78a7"}, {"bike_id": "def9ceb71283eb80f2f0b43aaa5f38e3", "lat": 38.9141035, "is_disabled": 0, "lon": -77.04505683333333, "fusion_lon": 0.0, "is_reserved": 0, "fusion_lat": 0.0, "rental_uris": {"android": "https://dc.lft.to/lastmile_qr_scan", "ios": "https://dc.lft.to/lastmile_qr_scan"}, "type": "electric_scooter", "name": "def9ceb71283eb80f2f0b43aaa5f38e3"}, {"bike_id": "a0954043341399fa81aa6cf99a12586c", "lat": 38.91269, "is_disabled": 0, "lon": -77.02255633333333, "fusion_lon": 0.0, "is_reserved": 0, "fusion_lat": 0.0, "rental_uris": {"android": "https://dc.lft.to/lastmile_qr_scan", "ios": "https://dc.lft.to/lastmile_qr_scan"}, "type": "electric_scooter", "name": "a0954043341399fa81aa6cf99a12586c"}, {"bike_id": "7c233ba55a9a0a007995e55372b51476", "lat": 38.91111633333333, "is_disabled": 0, "lon": -77.04547583333333, "fusion_lon": 0.0, "is_reserved": 0, "fusion_lat": 0.0, "rental_uris": {"android": "https://dc.lft.to/lastmile_qr_scan", "ios": "https://dc.lft.to/lastmile_qr_scan"}, "type": "electric_scooter", "name": "7c233ba55a9a0a007995e55372b51476"}, {"bike_id": "1e6945e81c08edad9b035757307f86c0", "lat": 38.90553083333333, "is_disabled": 0, "lon": -77.01791483333334, "fusion_lon": 0.0, "is_reserved": 0, "fusion_lat": 0.0, "rental_uris": {"android": "https://dc.lft.to/lastmile_qr_scan", "ios": "https://dc.lft.to/lastmile_qr_scan"}, "type": "electric_scooter", "name": "1e6945e81c08edad9b035757307f86c0"}, {"bike_id": "c37e13e6d78f82e9e4ce1a2787e61ca5", "lat": 38.898466666666664, "is_disabled": 0, "lon": -76.94255333333334, "fusion_lon": 0.0, "is_reserved": 0, "fusion_lat": 0.0, "rental_uris": {"android": "https://dc.lft.to/lastmile_qr_scan", "ios": "https://dc.lft.to/lastmile_qr_scan"}, "type": "electric_scooter", "name": "c37e13e6d78f82e9e4ce1a2787e61ca5"}, {"bike_id": "4effddaa28655f556025821009aba62c", "lat": 38.92132, "is_disabled": 0, "lon": -77.01798683333334, "fusion_lon": 0.0, "is_reserved": 0, "fusion_lat": 0.0, "rental_uris": {"android": "https://dc.lft.to/lastmile_qr_scan", "ios": "https://dc.lft.to/lastmile_qr_scan"}, "type": "electric_scooter", "name": "4effddaa28655f556025821009aba62c"}, {"bike_id": "4acded115f17cafc8c40386deaeb3617", "lat": 38.88180933333334, "is_disabled": 0, "lon": -76.99266583333333, "fusion_lon": 0.0, "is_reserved": 0, "fusion_lat": 0.0, "rental_uris": {"android": "https://dc.lft.to/lastmile_qr_scan", "ios": "https://dc.lft.to/lastmile_qr_scan"}, "type": "electric_scooter", "name": "4acded115f17cafc8c40386deaeb3617"}, {"bike_id": "356847d43fd1d1efc815882d03adb6c4", "lat": 38.892231833333334, "is_disabled": 0, "lon": -77.0419895, "fusion_lon": 0.0, "is_reserved": 0, "fusion_lat": 0.0, "rental_uris": {"android": "https://dc.lft.to/lastmile_qr_scan", "ios": "https://dc.lft.to/lastmile_qr_scan"}, "type": "electric_scooter", "name": "356847d43fd1d1efc815882d03adb6c4"}, {"bike_id": "97ad93c1fb6ad301813a9d673efc706f", "lat": 38.90464433333333, "is_disabled": 0, "lon": -77.006021, "fusion_lon": 0.0, "is_reserved": 0, "fusion_lat": 0.0, "rental_uris": {"android": "https://dc.lft.to/lastmile_qr_scan", "ios": "https://dc.lft.to/lastmile_qr_scan"}, "type": "electric_scooter", "name": "97ad93c1fb6ad301813a9d673efc706f"}, {"bike_id": "d431b4d30f9cd4c7ab75baa8fd9a1e9e", "lat": 38.93276516666667, "is_disabled": 0, "lon": -77.04082733333334, "fusion_lon": 0.0, "is_reserved": 0, "fusion_lat": 0.0, "rental_uris": {"android": "https://dc.lft.to/lastmile_qr_scan", "ios": "https://dc.lft.to/lastmile_qr_scan"}, "type": "electric_scooter", "name": "d431b4d30f9cd4c7ab75baa8fd9a1e9e"}, {"bike_id": "2da6ab38cc55e8aed48d65c289f0ab8d", "lat": 38.90376766666667, "is_disabled": 0, "lon": -77.0195245, "fusion_lon": 0.0, "is_reserved": 0, "fusion_lat": 0.0, "rental_uris": {"android": "https://dc.lft.to/lastmile_qr_scan", "ios": "https://dc.lft.to/lastmile_qr_scan"}, "type": "electric_scooter", "name": "2da6ab38cc55e8aed48d65c289f0ab8d"}, {"bike_id": "4b98eac8f56393abca18ab8896305fe3", "lat": 38.8974265, "is_disabled": 0, "lon": -77.03184616666667, "fusion_lon": 0.0, "is_reserved": 0, "fusion_lat": 0.0, "rental_uris": {"android": "https://dc.lft.to/lastmile_qr_scan", "ios": "https://dc.lft.to/lastmile_qr_scan"}, "type": "electric_scooter", "name": "4b98eac8f56393abca18ab8896305fe3"}, {"bike_id": "f8482b820ee38832d4c5c6c2ca7ec3b3", "lat": 38.8991615, "is_disabled": 0, "lon": -76.93378883333334, "fusion_lon": 0.0, "is_reserved": 0, "fusion_lat": 0.0, "rental_uris": {"android": "https://dc.lft.to/lastmile_qr_scan", "ios": "https://dc.lft.to/lastmile_qr_scan"}, "type": "electric_scooter", "name": "f8482b820ee38832d4c5c6c2ca7ec3b3"}, {"bike_id": "1d66a096742442a5d252c8700d8beeed", "lat": 38.889939166666665, "is_disabled": 0, "lon": -77.00060183333333, "fusion_lon": 0.0, "is_reserved": 0, "fusion_lat": 0.0, "rental_uris": {"android": "https://dc.lft.to/lastmile_qr_scan", "ios": "https://dc.lft.to/lastmile_qr_scan"}, "type": "electric_scooter", "name": "1d66a096742442a5d252c8700d8beeed"}, {"bike_id": "7b870252ee46afbc7ff5c100e0557fdd", "lat": 38.906979, "is_disabled": 0, "lon": -76.98562033333333, "fusion_lon": 0.0, "is_reserved": 0, "fusion_lat": 0.0, "rental_uris": {"android": "https://dc.lft.to/lastmile_qr_scan", "ios": "https://dc.lft.to/lastmile_qr_scan"}, "type": "electric_scooter", "name": "7b870252ee46afbc7ff5c100e0557fdd"}, {"bike_id": "18f1b65d992f0a52c2c28db5d6a8fe57", "lat": 38.906311333333335, "is_disabled": 0, "lon": -77.04238383333333, "fusion_lon": 0.0, "is_reserved": 0, "fusion_lat": 0.0, "rental_uris": {"android": "https://dc.lft.to/lastmile_qr_scan", "ios": "https://dc.lft.to/lastmile_qr_scan"}, "type": "electric_scooter", "name": "18f1b65d992f0a52c2c28db5d6a8fe57"}, {"bike_id": "dbd9661ddaf7f18156de4a73ebc00075", "lat": 38.876476833333335, "is_disabled": 0, "lon": -76.96507733333334, "fusion_lon": 0.0, "is_reserved": 0, "fusion_lat": 0.0, "rental_uris": {"android": "https://dc.lft.to/lastmile_qr_scan", "ios": "https://dc.lft.to/lastmile_qr_scan"}, "type": "electric_scooter", "name": "dbd9661ddaf7f18156de4a73ebc00075"}, {"bike_id": "4aa05bf5d4146274dc2100580d21a9ea", "lat": 38.9284595, "is_disabled": 0, "lon": -77.0309465, "fusion_lon": 0.0, "is_reserved": 0, "fusion_lat": 0.0, "rental_uris": {"android": "https://dc.lft.to/lastmile_qr_scan", "ios": "https://dc.lft.to/lastmile_qr_scan"}, "type": "electric_scooter", "name": "4aa05bf5d4146274dc2100580d21a9ea"}, {"bike_id": "3a1029d5c71d207376fc20697ba3835d", "lat": 38.884891333333336, "is_disabled": 0, "lon": -76.95761433333334, "fusion_lon": 0.0, "is_reserved": 0, "fusion_lat": 0.0, "rental_uris": {"android": "https://dc.lft.to/lastmile_qr_scan", "ios": "https://dc.lft.to/lastmile_qr_scan"}, "type": "electric_bike", "name": "3a1029d5c71d207376fc20697ba3835d"}, {"bike_id": "f9606ba33afc24c19a75e201602585e2", "lat": 38.91662916666667, "is_disabled": 0, "lon": -77.03183083333333, "fusion_lon": 0.0, "is_reserved": 0, "fusion_lat": 0.0, "rental_uris": {"android": "https://dc.lft.to/lastmile_qr_scan", "ios": "https://dc.lft.to/lastmile_qr_scan"}, "type": "electric_scooter", "name": "f9606ba33afc24c19a75e201602585e2"}, {"bike_id": "966d38fa27aaa3b1cc1141d713147181", "lat": 38.9422045, "is_disabled": 0, "lon": -77.03865383333333, "fusion_lon": 0.0, "is_reserved": 0, "fusion_lat": 0.0, "rental_uris": {"android": "https://dc.lft.to/lastmile_qr_scan", "ios": "https://dc.lft.to/lastmile_qr_scan"}, "type": "electric_scooter", "name": "966d38fa27aaa3b1cc1141d713147181"}, {"bike_id": "d60e77c684b761ba5d257af5e189453d", "lat": 38.921574166666666, "is_disabled": 0, "lon": -77.04695566666666, "fusion_lon": 0.0, "is_reserved": 0, "fusion_lat": 0.0, "rental_uris": {"android": "https://dc.lft.to/lastmile_qr_scan", "ios": "https://dc.lft.to/lastmile_qr_scan"}, "type": "electric_scooter", "name": "d60e77c684b761ba5d257af5e189453d"}, {"bike_id": "3c470aadacbbfa2719f2962b07cf6260", "lat": 38.923914833333335, "is_disabled": 0, "lon": -77.03401333333333, "fusion_lon": 0.0, "is_reserved": 0, "fusion_lat": 0.0, "rental_uris": {"android": "https://dc.lft.to/lastmile_qr_scan", "ios": "https://dc.lft.to/lastmile_qr_scan"}, "type": "electric_scooter", "name": "3c470aadacbbfa2719f2962b07cf6260"}, {"bike_id": "d96a93a13597c012a5dcf778e97382dc", "lat": 38.887134333333336, "is_disabled": 0, "lon": -77.02201283333333, "fusion_lon": 0.0, "is_reserved": 0, "fusion_lat": 0.0, "rental_uris": {"android": "https://dc.lft.to/lastmile_qr_scan", "ios": "https://dc.lft.to/lastmile_qr_scan"}, "type": "electric_scooter", "name": "d96a93a13597c012a5dcf778e97382dc"}, {"bike_id": "19dcc2f3e7ebb91fe0ee273aa151d5d6", "lat": 38.91713816666667, "is_disabled": 0, "lon": -77.02567183333333, "fusion_lon": 0.0, "is_reserved": 0, "fusion_lat": 0.0, "rental_uris": {"android": "https://dc.lft.to/lastmile_qr_scan", "ios": "https://dc.lft.to/lastmile_qr_scan"}, "type": "electric_scooter", "name": "19dcc2f3e7ebb91fe0ee273aa151d5d6"}, {"bike_id": "b95bb696992ac1ae87a600b8ec94b6b4", "lat": 38.90126816666667, "is_disabled": 0, "lon": -77.04429733333333, "fusion_lon": 0.0, "is_reserved": 0, "fusion_lat": 0.0, "rental_uris": {"android": "https://dc.lft.to/lastmile_qr_scan", "ios": "https://dc.lft.to/lastmile_qr_scan"}, "type": "electric_scooter", "name": "b95bb696992ac1ae87a600b8ec94b6b4"}, {"bike_id": "3786716d596d3aeceb144dba20288ba0", "lat": 38.89656866666667, "is_disabled": 0, "lon": -77.04011283333334, "fusion_lon": 0.0, "is_reserved": 0, "fusion_lat": 0.0, "rental_uris": {"android": "https://dc.lft.to/lastmile_qr_scan", "ios": "https://dc.lft.to/lastmile_qr_scan"}, "type": "electric_scooter", "name": "3786716d596d3aeceb144dba20288ba0"}, {"bike_id": "2d1645beab093ffe051bf7126393dc81", "lat": 38.892488, "is_disabled": 0, "lon": -77.02200433333333, "fusion_lon": 0.0, "is_reserved": 0, "fusion_lat": 0.0, "rental_uris": {"android": "https://dc.lft.to/lastmile_qr_scan", "ios": "https://dc.lft.to/lastmile_qr_scan"}, "type": "electric_scooter", "name": "2d1645beab093ffe051bf7126393dc81"}, {"bike_id": "1d438d8f1ab9c688df54843fa4d9f7ef", "lat": 38.926082, "is_disabled": 0, "lon": -77.021586, "fusion_lon": 0.0, "is_reserved": 0, "fusion_lat": 0.0, "rental_uris": {"android": "https://dc.lft.to/lastmile_qr_scan", "ios": "https://dc.lft.to/lastmile_qr_scan"}, "type": "electric_scooter", "name": "1d438d8f1ab9c688df54843fa4d9f7ef"}, {"bike_id": "b176a7a8094812207c2e57acf4b59162", "lat": 38.88746833333333, "is_disabled": 0, "lon": -76.992336, "fusion_lon": 0.0, "is_reserved": 0, "fusion_lat": 0.0, "rental_uris": {"android": "https://dc.lft.to/lastmile_qr_scan", "ios": "https://dc.lft.to/lastmile_qr_scan"}, "type": "electric_scooter", "name": "b176a7a8094812207c2e57acf4b59162"}, {"bike_id": "b4d518ac354282d851a4f618e59a271a", "lat": 38.88493316666667, "is_disabled": 0, "lon": -77.00711933333334, "fusion_lon": 0.0, "is_reserved": 0, "fusion_lat": 0.0, "rental_uris": {"android": "https://dc.lft.to/lastmile_qr_scan", "ios": "https://dc.lft.to/lastmile_qr_scan"}, "type": "electric_scooter", "name": "b4d518ac354282d851a4f618e59a271a"}, {"bike_id": "b5b53de23bb654033a0caf485efa9169", "lat": 38.899409, "is_disabled": 0, "lon": -77.0036225, "fusion_lon": 0.0, "is_reserved": 0, "fusion_lat": 0.0, "rental_uris": {"android": "https://dc.lft.to/lastmile_qr_scan", "ios": "https://dc.lft.to/lastmile_qr_scan"}, "type": "electric_scooter", "name": "b5b53de23bb654033a0caf485efa9169"}, {"bike_id": "cb966c4c917ceeabd2ffc8e424dfd1a9", "lat": 38.92626466666667, "is_disabled": 0, "lon": -76.9962305, "fusion_lon": 0.0, "is_reserved": 0, "fusion_lat": 0.0, "rental_uris": {"android": "https://dc.lft.to/lastmile_qr_scan", "ios": "https://dc.lft.to/lastmile_qr_scan"}, "type": "electric_scooter", "name": "cb966c4c917ceeabd2ffc8e424dfd1a9"}, {"bike_id": "d79013623a1bdf2307d0ee5c6f98a775", "lat": 38.89763933333333, "is_disabled": 0, "lon": -76.98647916666667, "fusion_lon": 0.0, "is_reserved": 0, "fusion_lat": 0.0, "rental_uris": {"android": "https://dc.lft.to/lastmile_qr_scan", "ios": "https://dc.lft.to/lastmile_qr_scan"}, "type": "electric_scooter", "name": "d79013623a1bdf2307d0ee5c6f98a775"}, {"bike_id": "103c1312799c98801af48e1d1c6c604a", "lat": 38.881206666666664, "is_disabled": 0, "lon": -77.0271845, "fusion_lon": 0.0, "is_reserved": 0, "fusion_lat": 0.0, "rental_uris": {"android": "https://dc.lft.to/lastmile_qr_scan", "ios": "https://dc.lft.to/lastmile_qr_scan"}, "type": "electric_scooter", "name": "103c1312799c98801af48e1d1c6c604a"}, {"bike_id": "245f5ac058c65b401286cf4e296727b3", "lat": 38.8985115, "is_disabled": 0, "lon": -77.02855733333334, "fusion_lon": 0.0, "is_reserved": 0, "fusion_lat": 0.0, "rental_uris": {"android": "https://dc.lft.to/lastmile_qr_scan", "ios": "https://dc.lft.to/lastmile_qr_scan"}, "type": "electric_scooter", "name": "245f5ac058c65b401286cf4e296727b3"}, {"bike_id": "6b769f111118cf296c215b448242b817", "lat": 38.915999666666664, "is_disabled": 0, "lon": -77.0167175, "fusion_lon": 0.0, "is_reserved": 0, "fusion_lat": 0.0, "rental_uris": {"android": "https://dc.lft.to/lastmile_qr_scan", "ios": "https://dc.lft.to/lastmile_qr_scan"}, "type": "electric_scooter", "name": "6b769f111118cf296c215b448242b817"}, {"bike_id": "0813ac7b8c7566c706efc7f8b3f14ec4", "lat": 38.8954035, "is_disabled": 0, "lon": -77.02168466666667, "fusion_lon": 0.0, "is_reserved": 0, "fusion_lat": 0.0, "rental_uris": {"android": "https://dc.lft.to/lastmile_qr_scan", "ios": "https://dc.lft.to/lastmile_qr_scan"}, "type": "electric_scooter", "name": "0813ac7b8c7566c706efc7f8b3f14ec4"}, {"bike_id": "ae9ff1969e562dff20511f0dddb63a2e", "lat": 38.905522166666664, "is_disabled": 0, "lon": -77.03243666666667, "fusion_lon": 0.0, "is_reserved": 0, "fusion_lat": 0.0, "rental_uris": {"android": "https://dc.lft.to/lastmile_qr_scan", "ios": "https://dc.lft.to/lastmile_qr_scan"}, "type": "electric_scooter", "name": "ae9ff1969e562dff20511f0dddb63a2e"}, {"bike_id": "116c0bb783bd0b076c197ab84d578991", "lat": 38.902759, "is_disabled": 0, "lon": -77.04188766666667, "fusion_lon": 0.0, "is_reserved": 0, "fusion_lat": 0.0, "rental_uris": {"android": "https://dc.lft.to/lastmile_qr_scan", "ios": "https://dc.lft.to/lastmile_qr_scan"}, "type": "electric_scooter", "name": "116c0bb783bd0b076c197ab84d578991"}, {"bike_id": "d98268c3f8054ac5b6628880ed88e8cf", "lat": 38.88594716666667, "is_disabled": 0, "lon": -77.01793016666667, "fusion_lon": 0.0, "is_reserved": 0, "fusion_lat": 0.0, "rental_uris": {"android": "https://dc.lft.to/lastmile_qr_scan", "ios": "https://dc.lft.to/lastmile_qr_scan"}, "type": "electric_scooter", "name": "d98268c3f8054ac5b6628880ed88e8cf"}, {"bike_id": "0aa7d01182a78cb576fb6858b279ed4e", "lat": 38.79983, "is_disabled": 0, "lon": -77.12973733333334, "fusion_lon": 0.0, "is_reserved": 0, "fusion_lat": 0.0, "rental_uris": {"android": "https://dc.lft.to/lastmile_qr_scan", "ios": "https://dc.lft.to/lastmile_qr_scan"}, "type": "electric_bike", "name": "0aa7d01182a78cb576fb6858b279ed4e"}, {"bike_id": "a45bebe3ad9d303e4b7b2dcd4d9bb60a", "lat": 38.896596333333335, "is_disabled": 0, "lon": -76.93323933333333, "fusion_lon": 0.0, "is_reserved": 0, "fusion_lat": 0.0, "rental_uris": {"android": "https://dc.lft.to/lastmile_qr_scan", "ios": "https://dc.lft.to/lastmile_qr_scan"}, "type": "electric_scooter", "name": "a45bebe3ad9d303e4b7b2dcd4d9bb60a"}, {"bike_id": "bc9a41566f17d6b0eb9261dd3db4c7ed", "lat": 38.94510733333333, "is_disabled": 0, "lon": -77.0335885, "fusion_lon": 0.0, "is_reserved": 0, "fusion_lat": 0.0, "rental_uris": {"android": "https://dc.lft.to/lastmile_qr_scan", "ios": "https://dc.lft.to/lastmile_qr_scan"}, "type": "electric_scooter", "name": "bc9a41566f17d6b0eb9261dd3db4c7ed"}, {"bike_id": "bf2ddbbe091033aedf264c63ab8a2619", "lat": 38.8941525, "is_disabled": 0, "lon": -76.999523, "fusion_lon": 0.0, "is_reserved": 0, "fusion_lat": 0.0, "rental_uris": {"android": "https://dc.lft.to/lastmile_qr_scan", "ios": "https://dc.lft.to/lastmile_qr_scan"}, "type": "electric_scooter", "name": "bf2ddbbe091033aedf264c63ab8a2619"}, {"bike_id": "981b666de6ac2d087a3204b8bcc018ce", "lat": 38.8666435, "is_disabled": 0, "lon": -76.9888855, "fusion_lon": 0.0, "is_reserved": 0, "fusion_lat": 0.0, "rental_uris": {"android": "https://dc.lft.to/lastmile_qr_scan", "ios": "https://dc.lft.to/lastmile_qr_scan"}, "type": "electric_scooter", "name": "981b666de6ac2d087a3204b8bcc018ce"}, {"bike_id": "e9aa806973972bed58511bc26dae24e9", "lat": 38.934231, "is_disabled": 0, "lon": -77.03997583333333, "fusion_lon": 0.0, "is_reserved": 0, "fusion_lat": 0.0, "rental_uris": {"android": "https://dc.lft.to/lastmile_qr_scan", "ios": "https://dc.lft.to/lastmile_qr_scan"}, "type": "electric_scooter", "name": "e9aa806973972bed58511bc26dae24e9"}, {"bike_id": "8191323d927aef933173adc25b71c42a", "lat": 38.9441005, "is_disabled": 0, "lon": -77.05518766666667, "fusion_lon": 0.0, "is_reserved": 0, "fusion_lat": 0.0, "rental_uris": {"android": "https://dc.lft.to/lastmile_qr_scan", "ios": "https://dc.lft.to/lastmile_qr_scan"}, "type": "electric_bike", "name": "8191323d927aef933173adc25b71c42a"}, {"bike_id": "dccd79b6a552a7c69d2ff96a5e654c63", "lat": 39.0106675, "is_disabled": 0, "lon": -76.91058016666666, "fusion_lon": 0.0, "is_reserved": 0, "fusion_lat": 0.0, "rental_uris": {"android": "https://dc.lft.to/lastmile_qr_scan", "ios": "https://dc.lft.to/lastmile_qr_scan"}, "type": "electric_bike", "name": "dccd79b6a552a7c69d2ff96a5e654c63"}, {"bike_id": "226b2a602b4b0753c6c13306e189061b", "lat": 38.941864, "is_disabled": 0, "lon": -77.02383383333333, "fusion_lon": 0.0, "is_reserved": 0, "fusion_lat": 0.0, "rental_uris": {"android": "https://dc.lft.to/lastmile_qr_scan", "ios": "https://dc.lft.to/lastmile_qr_scan"}, "type": "electric_scooter", "name": "226b2a602b4b0753c6c13306e189061b"}, {"bike_id": "6adf6e9d0978333c2ac7d09125ebe681", "lat": 38.92327233333334, "is_disabled": 0, "lon": -77.02293933333333, "fusion_lon": 0.0, "is_reserved": 0, "fusion_lat": 0.0, "rental_uris": {"android": "https://dc.lft.to/lastmile_qr_scan", "ios": "https://dc.lft.to/lastmile_qr_scan"}, "type": "electric_scooter", "name": "6adf6e9d0978333c2ac7d09125ebe681"}, {"bike_id": "eaa9e084c70ec429cac08d43d58f9bf4", "lat": 38.948873666666664, "is_disabled": 0, "lon": -77.01852416666667, "fusion_lon": 0.0, "is_reserved": 0, "fusion_lat": 0.0, "rental_uris": {"android": "https://dc.lft.to/lastmile_qr_scan", "ios": "https://dc.lft.to/lastmile_qr_scan"}, "type": "electric_scooter", "name": "eaa9e084c70ec429cac08d43d58f9bf4"}, {"bike_id": "4be7e1587d23c2f64805dfed6482bbf8", "lat": 38.8767965, "is_disabled": 0, "lon": -77.00369983333333, "fusion_lon": 0.0, "is_reserved": 0, "fusion_lat": 0.0, "rental_uris": {"android": "https://dc.lft.to/lastmile_qr_scan", "ios": "https://dc.lft.to/lastmile_qr_scan"}, "type": "electric_scooter", "name": "4be7e1587d23c2f64805dfed6482bbf8"}, {"bike_id": "c9afea2b85f06593b90508b6947fe31c", "lat": 38.89841083333334, "is_disabled": 0, "lon": -77.02872966666666, "fusion_lon": 0.0, "is_reserved": 0, "fusion_lat": 0.0, "rental_uris": {"android": "https://dc.lft.to/lastmile_qr_scan", "ios": "https://dc.lft.to/lastmile_qr_scan"}, "type": "electric_scooter", "name": "c9afea2b85f06593b90508b6947fe31c"}, {"bike_id": "1fed3a45dd8a8fc8932f8d68ea8e8b1f", "lat": 38.917917, "is_disabled": 0, "lon": -77.02345833333334, "fusion_lon": 0.0, "is_reserved": 0, "fusion_lat": 0.0, "rental_uris": {"android": "https://dc.lft.to/lastmile_qr_scan", "ios": "https://dc.lft.to/lastmile_qr_scan"}, "type": "electric_scooter", "name": "1fed3a45dd8a8fc8932f8d68ea8e8b1f"}, {"bike_id": "7f23bf9599d27e7d84b4e54bc0304cf7", "lat": 38.92124583333333, "is_disabled": 0, "lon": -77.04215533333333, "fusion_lon": 0.0, "is_reserved": 0, "fusion_lat": 0.0, "rental_uris": {"android": "https://dc.lft.to/lastmile_qr_scan", "ios": "https://dc.lft.to/lastmile_qr_scan"}, "type": "electric_scooter", "name": "7f23bf9599d27e7d84b4e54bc0304cf7"}, {"bike_id": "0577e1870c87f455d838d42113bc6c5f", "lat": 38.90235466666667, "is_disabled": 0, "lon": -77.00200416666667, "fusion_lon": 0.0, "is_reserved": 0, "fusion_lat": 0.0, "rental_uris": {"android": "https://dc.lft.to/lastmile_qr_scan", "ios": "https://dc.lft.to/lastmile_qr_scan"}, "type": "electric_scooter", "name": "0577e1870c87f455d838d42113bc6c5f"}, {"bike_id": "fa007530ee421ef67f85b48ed96dc4b9", "lat": 38.92735116666667, "is_disabled": 0, "lon": -76.95551033333334, "fusion_lon": 0.0, "is_reserved": 0, "fusion_lat": 0.0, "rental_uris": {"android": "https://dc.lft.to/lastmile_qr_scan", "ios": "https://dc.lft.to/lastmile_qr_scan"}, "type": "electric_scooter", "name": "fa007530ee421ef67f85b48ed96dc4b9"}, {"bike_id": "978612ec8c0cc4034315915fd3d16b9e", "lat": 38.862859, "is_disabled": 0, "lon": -76.99223783333333, "fusion_lon": 0.0, "is_reserved": 0, "fusion_lat": 0.0, "rental_uris": {"android": "https://dc.lft.to/lastmile_qr_scan", "ios": "https://dc.lft.to/lastmile_qr_scan"}, "type": "electric_scooter", "name": "978612ec8c0cc4034315915fd3d16b9e"}, {"bike_id": "c2c1b342d284414487e6de10603b3431", "lat": 38.900173833333334, "is_disabled": 0, "lon": -77.04336333333333, "fusion_lon": 0.0, "is_reserved": 0, "fusion_lat": 0.0, "rental_uris": {"android": "https://dc.lft.to/lastmile_qr_scan", "ios": "https://dc.lft.to/lastmile_qr_scan"}, "type": "electric_scooter", "name": "c2c1b342d284414487e6de10603b3431"}, {"bike_id": "e5a6b8ee3d69acfa3956fd412dd78dac", "lat": 38.892389, "is_disabled": 0, "lon": -77.032087, "fusion_lon": 0.0, "is_reserved": 0, "fusion_lat": 0.0, "rental_uris": {"android": "https://dc.lft.to/lastmile_qr_scan", "ios": "https://dc.lft.to/lastmile_qr_scan"}, "type": "electric_scooter", "name": "e5a6b8ee3d69acfa3956fd412dd78dac"}, {"bike_id": "fded74415dd67b84bf3110546e19c7d5", "lat": 38.919550666666666, "is_disabled": 0, "lon": -77.02593566666667, "fusion_lon": 0.0, "is_reserved": 0, "fusion_lat": 0.0, "rental_uris": {"android": "https://dc.lft.to/lastmile_qr_scan", "ios": "https://dc.lft.to/lastmile_qr_scan"}, "type": "electric_scooter", "name": "fded74415dd67b84bf3110546e19c7d5"}, {"bike_id": "9d044d84bd9c75253ffc8e4b16f976d6", "lat": 38.88656566666667, "is_disabled": 0, "lon": -77.028266, "fusion_lon": 0.0, "is_reserved": 0, "fusion_lat": 0.0, "rental_uris": {"android": "https://dc.lft.to/lastmile_qr_scan", "ios": "https://dc.lft.to/lastmile_qr_scan"}, "type": "electric_scooter", "name": "9d044d84bd9c75253ffc8e4b16f976d6"}, {"bike_id": "5eae49caf1d63e82b70f923883c377f8", "lat": 38.88184716666667, "is_disabled": 0, "lon": -77.02092916666666, "fusion_lon": 0.0, "is_reserved": 0, "fusion_lat": 0.0, "rental_uris": {"android": "https://dc.lft.to/lastmile_qr_scan", "ios": "https://dc.lft.to/lastmile_qr_scan"}, "type": "electric_scooter", "name": "5eae49caf1d63e82b70f923883c377f8"}, {"bike_id": "8c290602a9c5446721d1a59dc9247122", "lat": 38.903084, "is_disabled": 0, "lon": -77.05015533333334, "fusion_lon": 0.0, "is_reserved": 0, "fusion_lat": 0.0, "rental_uris": {"android": "https://dc.lft.to/lastmile_qr_scan", "ios": "https://dc.lft.to/lastmile_qr_scan"}, "type": "electric_scooter", "name": "8c290602a9c5446721d1a59dc9247122"}, {"bike_id": "4c7817e3c840ac60195374a304dd4dc8", "lat": 38.90687233333333, "is_disabled": 0, "lon": -77.02399266666667, "fusion_lon": 0.0, "is_reserved": 0, "fusion_lat": 0.0, "rental_uris": {"android": "https://dc.lft.to/lastmile_qr_scan", "ios": "https://dc.lft.to/lastmile_qr_scan"}, "type": "electric_scooter", "name": "4c7817e3c840ac60195374a304dd4dc8"}, {"bike_id": "5caf6014abebef216a651c55981b6b29", "lat": 38.835944, "is_disabled": 0, "lon": -77.00126016666667, "fusion_lon": 0.0, "is_reserved": 0, "fusion_lat": 0.0, "rental_uris": {"android": "https://dc.lft.to/lastmile_qr_scan", "ios": "https://dc.lft.to/lastmile_qr_scan"}, "type": "electric_bike", "name": "5caf6014abebef216a651c55981b6b29"}, {"bike_id": "b44fe1e907101ad60775a0cff1c1089b", "lat": 38.9211245, "is_disabled": 0, "lon": -77.0177065, "fusion_lon": 0.0, "is_reserved": 0, "fusion_lat": 0.0, "rental_uris": {"android": "https://dc.lft.to/lastmile_qr_scan", "ios": "https://dc.lft.to/lastmile_qr_scan"}, "type": "electric_scooter", "name": "b44fe1e907101ad60775a0cff1c1089b"}, {"bike_id": "4f40d0bf1bccd77d872112f78c058b34", "lat": 38.9224935, "is_disabled": 0, "lon": -77.02121983333333, "fusion_lon": 0.0, "is_reserved": 0, "fusion_lat": 0.0, "rental_uris": {"android": "https://dc.lft.to/lastmile_qr_scan", "ios": "https://dc.lft.to/lastmile_qr_scan"}, "type": "electric_scooter", "name": "4f40d0bf1bccd77d872112f78c058b34"}, {"bike_id": "0d528aa7875e4aeea27e25dc72961173", "lat": 38.908992166666664, "is_disabled": 0, "lon": -77.04500983333334, "fusion_lon": 0.0, "is_reserved": 0, "fusion_lat": 0.0, "rental_uris": {"android": "https://dc.lft.to/lastmile_qr_scan", "ios": "https://dc.lft.to/lastmile_qr_scan"}, "type": "electric_scooter", "name": "0d528aa7875e4aeea27e25dc72961173"}, {"bike_id": "2816c90fca309992ab16d36cb82f051a", "lat": 38.890575166666665, "is_disabled": 0, "lon": -77.02542816666667, "fusion_lon": 0.0, "is_reserved": 0, "fusion_lat": 0.0, "rental_uris": {"android": "https://dc.lft.to/lastmile_qr_scan", "ios": "https://dc.lft.to/lastmile_qr_scan"}, "type": "electric_scooter", "name": "2816c90fca309992ab16d36cb82f051a"}, {"bike_id": "583f33d6bc2054e7994b7fe7fd02e4e9", "lat": 38.89874066666667, "is_disabled": 0, "lon": -77.009224, "fusion_lon": 0.0, "is_reserved": 0, "fusion_lat": 0.0, "rental_uris": {"android": "https://dc.lft.to/lastmile_qr_scan", "ios": "https://dc.lft.to/lastmile_qr_scan"}, "type": "electric_scooter", "name": "583f33d6bc2054e7994b7fe7fd02e4e9"}, {"bike_id": "588e78a155149b4f517741a2fa0e2f95", "lat": 38.906580166666664, "is_disabled": 0, "lon": -76.97938383333333, "fusion_lon": 0.0, "is_reserved": 0, "fusion_lat": 0.0, "rental_uris": {"android": "https://dc.lft.to/lastmile_qr_scan", "ios": "https://dc.lft.to/lastmile_qr_scan"}, "type": "electric_scooter", "name": "588e78a155149b4f517741a2fa0e2f95"}, {"bike_id": "deae127061e06705d7be4698f0815771", "lat": 38.882036166666666, "is_disabled": 0, "lon": -77.01768483333333, "fusion_lon": 0.0, "is_reserved": 0, "fusion_lat": 0.0, "rental_uris": {"android": "https://dc.lft.to/lastmile_qr_scan", "ios": "https://dc.lft.to/lastmile_qr_scan"}, "type": "electric_scooter", "name": "deae127061e06705d7be4698f0815771"}, {"bike_id": "815807346b37305c09e12909547c3da5", "lat": 38.913138333333336, "is_disabled": 0, "lon": -77.03312083333333, "fusion_lon": 0.0, "is_reserved": 0, "fusion_lat": 0.0, "rental_uris": {"android": "https://dc.lft.to/lastmile_qr_scan", "ios": "https://dc.lft.to/lastmile_qr_scan"}, "type": "electric_scooter", "name": "815807346b37305c09e12909547c3da5"}, {"bike_id": "7982a57118bdfee674fe71f05240f4cb", "lat": 38.83993916666667, "is_disabled": 0, "lon": -76.97700416666666, "fusion_lon": 0.0, "is_reserved": 0, "fusion_lat": 0.0, "rental_uris": {"android": "https://dc.lft.to/lastmile_qr_scan", "ios": "https://dc.lft.to/lastmile_qr_scan"}, "type": "electric_bike", "name": "7982a57118bdfee674fe71f05240f4cb"}, {"bike_id": "f15da20b403bd442d01bb3448a6d5db5", "lat": 38.90366933333333, "is_disabled": 0, "lon": -77.0480195, "fusion_lon": 0.0, "is_reserved": 0, "fusion_lat": 0.0, "rental_uris": {"android": "https://dc.lft.to/lastmile_qr_scan", "ios": "https://dc.lft.to/lastmile_qr_scan"}, "type": "electric_scooter", "name": "f15da20b403bd442d01bb3448a6d5db5"}, {"bike_id": "f865cc41a4414c560f5addfea6eacdc5", "lat": 38.89216116666667, "is_disabled": 0, "lon": -77.03220016666667, "fusion_lon": 0.0, "is_reserved": 0, "fusion_lat": 0.0, "rental_uris": {"android": "https://dc.lft.to/lastmile_qr_scan", "ios": "https://dc.lft.to/lastmile_qr_scan"}, "type": "electric_scooter", "name": "f865cc41a4414c560f5addfea6eacdc5"}, {"bike_id": "9ad46769709f175da9d13e71bbe16bdb", "lat": 38.919497666666665, "is_disabled": 0, "lon": -77.01793083333334, "fusion_lon": 0.0, "is_reserved": 0, "fusion_lat": 0.0, "rental_uris": {"android": "https://dc.lft.to/lastmile_qr_scan", "ios": "https://dc.lft.to/lastmile_qr_scan"}, "type": "electric_scooter", "name": "9ad46769709f175da9d13e71bbe16bdb"}, {"bike_id": "fc671557942e9df0789732f3ad7b0957", "lat": 38.912910333333336, "is_disabled": 0, "lon": -77.03182883333334, "fusion_lon": 0.0, "is_reserved": 0, "fusion_lat": 0.0, "rental_uris": {"android": "https://dc.lft.to/lastmile_qr_scan", "ios": "https://dc.lft.to/lastmile_qr_scan"}, "type": "electric_scooter", "name": "fc671557942e9df0789732f3ad7b0957"}, {"bike_id": "58cae26e17605698ddd0cf3eb8296ed9", "lat": 38.90822133333333, "is_disabled": 0, "lon": -77.04359216666667, "fusion_lon": 0.0, "is_reserved": 0, "fusion_lat": 0.0, "rental_uris": {"android": "https://dc.lft.to/lastmile_qr_scan", "ios": "https://dc.lft.to/lastmile_qr_scan"}, "type": "electric_scooter", "name": "58cae26e17605698ddd0cf3eb8296ed9"}, {"bike_id": "2358e25f4cbd8621c99b4e14a003bff1", "lat": 38.89475683333333, "is_disabled": 0, "lon": -77.02177033333334, "fusion_lon": 0.0, "is_reserved": 0, "fusion_lat": 0.0, "rental_uris": {"android": "https://dc.lft.to/lastmile_qr_scan", "ios": "https://dc.lft.to/lastmile_qr_scan"}, "type": "electric_scooter", "name": "2358e25f4cbd8621c99b4e14a003bff1"}, {"bike_id": "4c741593534e5af67b1fafd87ab1e1a3", "lat": 38.904337, "is_disabled": 0, "lon": -77.03488266666666, "fusion_lon": 0.0, "is_reserved": 0, "fusion_lat": 0.0, "rental_uris": {"android": "https://dc.lft.to/lastmile_qr_scan", "ios": "https://dc.lft.to/lastmile_qr_scan"}, "type": "electric_scooter", "name": "4c741593534e5af67b1fafd87ab1e1a3"}, {"bike_id": "c863386c4faaa6bccddbb35f9f454cbe", "lat": 38.878694, "is_disabled": 0, "lon": -76.962605, "fusion_lon": 0.0, "is_reserved": 0, "fusion_lat": 0.0, "rental_uris": {"android": "https://dc.lft.to/lastmile_qr_scan", "ios": "https://dc.lft.to/lastmile_qr_scan"}, "type": "electric_scooter", "name": "c863386c4faaa6bccddbb35f9f454cbe"}, {"bike_id": "3e791fe446d54061b4f82b6672053228", "lat": 38.8817895, "is_disabled": 0, "lon": -77.02200483333333, "fusion_lon": 0.0, "is_reserved": 0, "fusion_lat": 0.0, "rental_uris": {"android": "https://dc.lft.to/lastmile_qr_scan", "ios": "https://dc.lft.to/lastmile_qr_scan"}, "type": "electric_scooter", "name": "3e791fe446d54061b4f82b6672053228"}, {"bike_id": "59d4817e197b64382a1e48deca9893fd", "lat": 38.9231225, "is_disabled": 0, "lon": -77.04133883333333, "fusion_lon": 0.0, "is_reserved": 0, "fusion_lat": 0.0, "rental_uris": {"android": "https://dc.lft.to/lastmile_qr_scan", "ios": "https://dc.lft.to/lastmile_qr_scan"}, "type": "electric_scooter", "name": "59d4817e197b64382a1e48deca9893fd"}, {"bike_id": "65158e9e494bf3a6c0cbcbea09431474", "lat": 38.86266116666667, "is_disabled": 0, "lon": -76.983496, "fusion_lon": 0.0, "is_reserved": 0, "fusion_lat": 0.0, "rental_uris": {"android": "https://dc.lft.to/lastmile_qr_scan", "ios": "https://dc.lft.to/lastmile_qr_scan"}, "type": "electric_bike", "name": "65158e9e494bf3a6c0cbcbea09431474"}, {"bike_id": "94c4d8135390d05fbd439dc3f04fa398", "lat": 38.92176366666666, "is_disabled": 0, "lon": -77.0210125, "fusion_lon": 0.0, "is_reserved": 0, "fusion_lat": 0.0, "rental_uris": {"android": "https://dc.lft.to/lastmile_qr_scan", "ios": "https://dc.lft.to/lastmile_qr_scan"}, "type": "electric_scooter", "name": "94c4d8135390d05fbd439dc3f04fa398"}, {"bike_id": "491947ebe138a30c5b0ae037c323194d", "lat": 38.933114333333336, "is_disabled": 0, "lon": -77.0326485, "fusion_lon": 0.0, "is_reserved": 0, "fusion_lat": 0.0, "rental_uris": {"android": "https://dc.lft.to/lastmile_qr_scan", "ios": "https://dc.lft.to/lastmile_qr_scan"}, "type": "electric_scooter", "name": "491947ebe138a30c5b0ae037c323194d"}, {"bike_id": "4cefc112b6049dc319509cbfb5932ecb", "lat": 38.916106666666664, "is_disabled": 0, "lon": -77.048791, "fusion_lon": 0.0, "is_reserved": 0, "fusion_lat": 0.0, "rental_uris": {"android": "https://dc.lft.to/lastmile_qr_scan", "ios": "https://dc.lft.to/lastmile_qr_scan"}, "type": "electric_scooter", "name": "4cefc112b6049dc319509cbfb5932ecb"}, {"bike_id": "0aa5379ab2b0115c3a0a8e7c658da627", "lat": 38.807417, "is_disabled": 0, "lon": -77.09723716666667, "fusion_lon": 0.0, "is_reserved": 0, "fusion_lat": 0.0, "rental_uris": {"android": "https://dc.lft.to/lastmile_qr_scan", "ios": "https://dc.lft.to/lastmile_qr_scan"}, "type": "electric_bike", "name": "0aa5379ab2b0115c3a0a8e7c658da627"}, {"bike_id": "26e33b52b0c560d5d9f15f52a49fa79b", "lat": 38.928373666666666, "is_disabled": 0, "lon": -77.0326875, "fusion_lon": 0.0, "is_reserved": 0, "fusion_lat": 0.0, "rental_uris": {"android": "https://dc.lft.to/lastmile_qr_scan", "ios": "https://dc.lft.to/lastmile_qr_scan"}, "type": "electric_scooter", "name": "26e33b52b0c560d5d9f15f52a49fa79b"}, {"bike_id": "f6db21b4523f99b610777d0acf477261", "lat": 38.905834666666664, "is_disabled": 0, "lon": -77.065233, "fusion_lon": 0.0, "is_reserved": 0, "fusion_lat": 0.0, "rental_uris": {"android": "https://dc.lft.to/lastmile_qr_scan", "ios": "https://dc.lft.to/lastmile_qr_scan"}, "type": "electric_scooter", "name": "f6db21b4523f99b610777d0acf477261"}, {"bike_id": "2572075716f800b40243577083a1f85c", "lat": 38.89286716666667, "is_disabled": 0, "lon": -76.95098566666667, "fusion_lon": 0.0, "is_reserved": 0, "fusion_lat": 0.0, "rental_uris": {"android": "https://dc.lft.to/lastmile_qr_scan", "ios": "https://dc.lft.to/lastmile_qr_scan"}, "type": "electric_scooter", "name": "2572075716f800b40243577083a1f85c"}, {"bike_id": "13d5601bf61ed65b76749001a676e0cd", "lat": 38.908309833333334, "is_disabled": 0, "lon": -77.03653383333334, "fusion_lon": 0.0, "is_reserved": 0, "fusion_lat": 0.0, "rental_uris": {"android": "https://dc.lft.to/lastmile_qr_scan", "ios": "https://dc.lft.to/lastmile_qr_scan"}, "type": "electric_scooter", "name": "13d5601bf61ed65b76749001a676e0cd"}, {"bike_id": "aaa9ad62fd43c576d0e02f3e1ad2eee4", "lat": 38.92264383333333, "is_disabled": 0, "lon": -77.01922416666666, "fusion_lon": 0.0, "is_reserved": 0, "fusion_lat": 0.0, "rental_uris": {"android": "https://dc.lft.to/lastmile_qr_scan", "ios": "https://dc.lft.to/lastmile_qr_scan"}, "type": "electric_scooter", "name": "aaa9ad62fd43c576d0e02f3e1ad2eee4"}, {"bike_id": "5beb5a70e79f19c0cb3d139adb419325", "lat": 38.9282425, "is_disabled": 0, "lon": -77.02255566666666, "fusion_lon": 0.0, "is_reserved": 0, "fusion_lat": 0.0, "rental_uris": {"android": "https://dc.lft.to/lastmile_qr_scan", "ios": "https://dc.lft.to/lastmile_qr_scan"}, "type": "electric_scooter", "name": "5beb5a70e79f19c0cb3d139adb419325"}, {"bike_id": "9c0f1db3b0a5d2abb72f93113f902334", "lat": 38.9245, "is_disabled": 0, "lon": -77.03295716666666, "fusion_lon": 0.0, "is_reserved": 0, "fusion_lat": 0.0, "rental_uris": {"android": "https://dc.lft.to/lastmile_qr_scan", "ios": "https://dc.lft.to/lastmile_qr_scan"}, "type": "electric_scooter", "name": "9c0f1db3b0a5d2abb72f93113f902334"}, {"bike_id": "a834107adcb1530a292529e523ac40ba", "lat": 38.919272, "is_disabled": 0, "lon": -77.02516916666667, "fusion_lon": 0.0, "is_reserved": 0, "fusion_lat": 0.0, "rental_uris": {"android": "https://dc.lft.to/lastmile_qr_scan", "ios": "https://dc.lft.to/lastmile_qr_scan"}, "type": "electric_scooter", "name": "a834107adcb1530a292529e523ac40ba"}, {"bike_id": "23b96285ac2e8145319f240bd44dc852", "lat": 38.92450016666667, "is_disabled": 0, "lon": -77.0519775, "fusion_lon": 0.0, "is_reserved": 0, "fusion_lat": 0.0, "rental_uris": {"android": "https://dc.lft.to/lastmile_qr_scan", "ios": "https://dc.lft.to/lastmile_qr_scan"}, "type": "electric_scooter", "name": "23b96285ac2e8145319f240bd44dc852"}, {"bike_id": "76e7c1b31cf0cbd8838e149e79fb9d7e", "lat": 38.932733999999996, "is_disabled": 0, "lon": -77.03703383333334, "fusion_lon": 0.0, "is_reserved": 0, "fusion_lat": 0.0, "rental_uris": {"android": "https://dc.lft.to/lastmile_qr_scan", "ios": "https://dc.lft.to/lastmile_qr_scan"}, "type": "electric_scooter", "name": "76e7c1b31cf0cbd8838e149e79fb9d7e"}, {"bike_id": "6613f2222822d0b37b596ed86f4f4a56", "lat": 38.92001616666667, "is_disabled": 0, "lon": -77.0320285, "fusion_lon": 0.0, "is_reserved": 0, "fusion_lat": 0.0, "rental_uris": {"android": "https://dc.lft.to/lastmile_qr_scan", "ios": "https://dc.lft.to/lastmile_qr_scan"}, "type": "electric_scooter", "name": "6613f2222822d0b37b596ed86f4f4a56"}, {"bike_id": "9f773aff8a69406a860cd144d1a88c28", "lat": 38.956422333333336, "is_disabled": 0, "lon": -77.01320983333333, "fusion_lon": 0.0, "is_reserved": 0, "fusion_lat": 0.0, "rental_uris": {"android": "https://dc.lft.to/lastmile_qr_scan", "ios": "https://dc.lft.to/lastmile_qr_scan"}, "type": "electric_bike", "name": "9f773aff8a69406a860cd144d1a88c28"}, {"bike_id": "5312f92f7aa71c20f3c02d0c0524c9c1", "lat": 38.909922, "is_disabled": 0, "lon": -77.0382965, "fusion_lon": 0.0, "is_reserved": 0, "fusion_lat": 0.0, "rental_uris": {"android": "https://dc.lft.to/lastmile_qr_scan", "ios": "https://dc.lft.to/lastmile_qr_scan"}, "type": "electric_scooter", "name": "5312f92f7aa71c20f3c02d0c0524c9c1"}, {"bike_id": "505d9ad318b11f4f6f2a1a3384482634", "lat": 38.90895416666667, "is_disabled": 0, "lon": -77.03185166666667, "fusion_lon": 0.0, "is_reserved": 0, "fusion_lat": 0.0, "rental_uris": {"android": "https://dc.lft.to/lastmile_qr_scan", "ios": "https://dc.lft.to/lastmile_qr_scan"}, "type": "electric_scooter", "name": "505d9ad318b11f4f6f2a1a3384482634"}, {"bike_id": "9ab2355c4f3dc7827e281f92a253553e", "lat": 38.88427983333333, "is_disabled": 0, "lon": -77.02623766666666, "fusion_lon": 0.0, "is_reserved": 0, "fusion_lat": 0.0, "rental_uris": {"android": "https://dc.lft.to/lastmile_qr_scan", "ios": "https://dc.lft.to/lastmile_qr_scan"}, "type": "electric_scooter", "name": "9ab2355c4f3dc7827e281f92a253553e"}, {"bike_id": "b8c57d46245727aadf19c3c8da31246e", "lat": 38.924133499999996, "is_disabled": 0, "lon": -77.01949333333333, "fusion_lon": 0.0, "is_reserved": 0, "fusion_lat": 0.0, "rental_uris": {"android": "https://dc.lft.to/lastmile_qr_scan", "ios": "https://dc.lft.to/lastmile_qr_scan"}, "type": "electric_scooter", "name": "b8c57d46245727aadf19c3c8da31246e"}, {"bike_id": "6cfabc9a8fc8b5f4981ea35e6ef0e0ad", "lat": 38.877215666666665, "is_disabled": 0, "lon": -77.00932033333333, "fusion_lon": 0.0, "is_reserved": 0, "fusion_lat": 0.0, "rental_uris": {"android": "https://dc.lft.to/lastmile_qr_scan", "ios": "https://dc.lft.to/lastmile_qr_scan"}, "type": "electric_scooter", "name": "6cfabc9a8fc8b5f4981ea35e6ef0e0ad"}, {"bike_id": "30413f2c209977339c2d9b4754379aec", "lat": 38.9289405, "is_disabled": 0, "lon": -77.074593, "fusion_lon": 0.0, "is_reserved": 0, "fusion_lat": 0.0, "rental_uris": {"android": "https://dc.lft.to/lastmile_qr_scan", "ios": "https://dc.lft.to/lastmile_qr_scan"}, "type": "electric_bike", "name": "30413f2c209977339c2d9b4754379aec"}, {"bike_id": "18499f6bb225614eb3947379c2a1a77d", "lat": 38.9276995, "is_disabled": 0, "lon": -77.02854483333333, "fusion_lon": 0.0, "is_reserved": 0, "fusion_lat": 0.0, "rental_uris": {"android": "https://dc.lft.to/lastmile_qr_scan", "ios": "https://dc.lft.to/lastmile_qr_scan"}, "type": "electric_scooter", "name": "18499f6bb225614eb3947379c2a1a77d"}, {"bike_id": "747f8bfb14534ed93712689770ace9b0", "lat": 38.926791333333334, "is_disabled": 0, "lon": -77.027958, "fusion_lon": 0.0, "is_reserved": 0, "fusion_lat": 0.0, "rental_uris": {"android": "https://dc.lft.to/lastmile_qr_scan", "ios": "https://dc.lft.to/lastmile_qr_scan"}, "type": "electric_scooter", "name": "747f8bfb14534ed93712689770ace9b0"}, {"bike_id": "89fb4eecf35a1c713718bd1a44b468db", "lat": 38.923972666666664, "is_disabled": 0, "lon": -77.03409516666666, "fusion_lon": 0.0, "is_reserved": 0, "fusion_lat": 0.0, "rental_uris": {"android": "https://dc.lft.to/lastmile_qr_scan", "ios": "https://dc.lft.to/lastmile_qr_scan"}, "type": "electric_scooter", "name": "89fb4eecf35a1c713718bd1a44b468db"}, {"bike_id": "860c6fd7f88572c27ae318879409ac04", "lat": 38.95754183333333, "is_disabled": 0, "lon": -76.9992845, "fusion_lon": 0.0, "is_reserved": 0, "fusion_lat": 0.0, "rental_uris": {"android": "https://dc.lft.to/lastmile_qr_scan", "ios": "https://dc.lft.to/lastmile_qr_scan"}, "type": "electric_bike", "name": "860c6fd7f88572c27ae318879409ac04"}, {"bike_id": "3de08385a63ad07b28f21586192e13d1", "lat": 38.89062033333333, "is_disabled": 0, "lon": -77.023032, "fusion_lon": 0.0, "is_reserved": 0, "fusion_lat": 0.0, "rental_uris": {"android": "https://dc.lft.to/lastmile_qr_scan", "ios": "https://dc.lft.to/lastmile_qr_scan"}, "type": "electric_scooter", "name": "3de08385a63ad07b28f21586192e13d1"}, {"bike_id": "01beb35c4200fac328ab93ac3708650d", "lat": 38.91987066666667, "is_disabled": 0, "lon": -77.021719, "fusion_lon": 0.0, "is_reserved": 0, "fusion_lat": 0.0, "rental_uris": {"android": "https://dc.lft.to/lastmile_qr_scan", "ios": "https://dc.lft.to/lastmile_qr_scan"}, "type": "electric_scooter", "name": "01beb35c4200fac328ab93ac3708650d"}, {"bike_id": "d14e6a397ca780aec0ee1c724e72a070", "lat": 38.853138, "is_disabled": 0, "lon": -76.98013633333333, "fusion_lon": 0.0, "is_reserved": 0, "fusion_lat": 0.0, "rental_uris": {"android": "https://dc.lft.to/lastmile_qr_scan", "ios": "https://dc.lft.to/lastmile_qr_scan"}, "type": "electric_bike", "name": "d14e6a397ca780aec0ee1c724e72a070"}, {"bike_id": "237e26cab9440354c4cc782a56fd6f0f", "lat": 38.92581933333334, "is_disabled": 0, "lon": -77.0215415, "fusion_lon": 0.0, "is_reserved": 0, "fusion_lat": 0.0, "rental_uris": {"android": "https://dc.lft.to/lastmile_qr_scan", "ios": "https://dc.lft.to/lastmile_qr_scan"}, "type": "electric_scooter", "name": "237e26cab9440354c4cc782a56fd6f0f"}, {"bike_id": "f4e03823947b3dc6b5e4cc3ff98e7a4d", "lat": 38.92162316666667, "is_disabled": 0, "lon": -77.04022883333333, "fusion_lon": 0.0, "is_reserved": 0, "fusion_lat": 0.0, "rental_uris": {"android": "https://dc.lft.to/lastmile_qr_scan", "ios": "https://dc.lft.to/lastmile_qr_scan"}, "type": "electric_scooter", "name": "f4e03823947b3dc6b5e4cc3ff98e7a4d"}, {"bike_id": "0c2691b0fe5939932e378d313d01f528", "lat": 38.921106333333334, "is_disabled": 0, "lon": -77.01767383333333, "fusion_lon": 0.0, "is_reserved": 0, "fusion_lat": 0.0, "rental_uris": {"android": "https://dc.lft.to/lastmile_qr_scan", "ios": "https://dc.lft.to/lastmile_qr_scan"}, "type": "electric_scooter", "name": "0c2691b0fe5939932e378d313d01f528"}, {"bike_id": "019de443ee7740096bf59f5c5dc0bbab", "lat": 38.89216233333333, "is_disabled": 0, "lon": -77.02366433333333, "fusion_lon": 0.0, "is_reserved": 0, "fusion_lat": 0.0, "rental_uris": {"android": "https://dc.lft.to/lastmile_qr_scan", "ios": "https://dc.lft.to/lastmile_qr_scan"}, "type": "electric_scooter", "name": "019de443ee7740096bf59f5c5dc0bbab"}, {"bike_id": "42d90374917fa8c3f19847b5c41df0e1", "lat": 38.88520616666667, "is_disabled": 0, "lon": -77.00600283333333, "fusion_lon": 0.0, "is_reserved": 0, "fusion_lat": 0.0, "rental_uris": {"android": "https://dc.lft.to/lastmile_qr_scan", "ios": "https://dc.lft.to/lastmile_qr_scan"}, "type": "electric_scooter", "name": "42d90374917fa8c3f19847b5c41df0e1"}, {"bike_id": "0f75d820cade98a2290783cdede3dc9e", "lat": 38.947888166666665, "is_disabled": 0, "lon": -77.04080033333334, "fusion_lon": 0.0, "is_reserved": 0, "fusion_lat": 0.0, "rental_uris": {"android": "https://dc.lft.to/lastmile_qr_scan", "ios": "https://dc.lft.to/lastmile_qr_scan"}, "type": "electric_scooter", "name": "0f75d820cade98a2290783cdede3dc9e"}, {"bike_id": "f2e30c01e873e26921e8c8274ba3d6ad", "lat": 38.9079705, "is_disabled": 0, "lon": -77.08400633333333, "fusion_lon": 0.0, "is_reserved": 0, "fusion_lat": 0.0, "rental_uris": {"android": "https://dc.lft.to/lastmile_qr_scan", "ios": "https://dc.lft.to/lastmile_qr_scan"}, "type": "electric_scooter", "name": "f2e30c01e873e26921e8c8274ba3d6ad"}, {"bike_id": "eefe13ffc0f3246d28bac9bf94bc6c31", "lat": 38.934940833333336, "is_disabled": 0, "lon": -77.04378483333333, "fusion_lon": 0.0, "is_reserved": 0, "fusion_lat": 0.0, "rental_uris": {"android": "https://dc.lft.to/lastmile_qr_scan", "ios": "https://dc.lft.to/lastmile_qr_scan"}, "type": "electric_scooter", "name": "eefe13ffc0f3246d28bac9bf94bc6c31"}, {"bike_id": "f7ab190a0a8f195e791c460f4da4ee71", "lat": 38.898703166666664, "is_disabled": 0, "lon": -76.94661783333333, "fusion_lon": 0.0, "is_reserved": 0, "fusion_lat": 0.0, "rental_uris": {"android": "https://dc.lft.to/lastmile_qr_scan", "ios": "https://dc.lft.to/lastmile_qr_scan"}, "type": "electric_scooter", "name": "f7ab190a0a8f195e791c460f4da4ee71"}, {"bike_id": "2c32e7e8a72cb70378363277e2b1c06a", "lat": 38.92965483333333, "is_disabled": 0, "lon": -77.0550505, "fusion_lon": 0.0, "is_reserved": 0, "fusion_lat": 0.0, "rental_uris": {"android": "https://dc.lft.to/lastmile_qr_scan", "ios": "https://dc.lft.to/lastmile_qr_scan"}, "type": "electric_scooter", "name": "2c32e7e8a72cb70378363277e2b1c06a"}, {"bike_id": "241af6aa831e110051f6ab3b25562003", "lat": 38.909193, "is_disabled": 0, "lon": -76.99964133333333, "fusion_lon": 0.0, "is_reserved": 0, "fusion_lat": 0.0, "rental_uris": {"android": "https://dc.lft.to/lastmile_qr_scan", "ios": "https://dc.lft.to/lastmile_qr_scan"}, "type": "electric_scooter", "name": "241af6aa831e110051f6ab3b25562003"}, {"bike_id": "18c79d1e80c9a35d53c5631d826263af", "lat": 38.988104, "is_disabled": 0, "lon": -76.939649, "fusion_lon": 0.0, "is_reserved": 0, "fusion_lat": 0.0, "rental_uris": {"android": "https://dc.lft.to/lastmile_qr_scan", "ios": "https://dc.lft.to/lastmile_qr_scan"}, "type": "electric_bike", "name": "18c79d1e80c9a35d53c5631d826263af"}, {"bike_id": "4c348c70452d3011eb313024b122871f", "lat": 38.941088, "is_disabled": 0, "lon": -77.07624633333333, "fusion_lon": 0.0, "is_reserved": 0, "fusion_lat": 0.0, "rental_uris": {"android": "https://dc.lft.to/lastmile_qr_scan", "ios": "https://dc.lft.to/lastmile_qr_scan"}, "type": "electric_scooter", "name": "4c348c70452d3011eb313024b122871f"}, {"bike_id": "629352dea9fa24ded4332bb0ec8bed68", "lat": 38.93463833333333, "is_disabled": 0, "lon": -77.04128183333333, "fusion_lon": 0.0, "is_reserved": 0, "fusion_lat": 0.0, "rental_uris": {"android": "https://dc.lft.to/lastmile_qr_scan", "ios": "https://dc.lft.to/lastmile_qr_scan"}, "type": "electric_scooter", "name": "629352dea9fa24ded4332bb0ec8bed68"}, {"bike_id": "b2ef974181b0a82e766b21f347d259f8", "lat": 38.92235983333333, "is_disabled": 0, "lon": -77.02262116666667, "fusion_lon": 0.0, "is_reserved": 0, "fusion_lat": 0.0, "rental_uris": {"android": "https://dc.lft.to/lastmile_qr_scan", "ios": "https://dc.lft.to/lastmile_qr_scan"}, "type": "electric_scooter", "name": "b2ef974181b0a82e766b21f347d259f8"}, {"bike_id": "73e546fdff263bbf783170a3ffc63224", "lat": 38.993764666666664, "is_disabled": 0, "lon": -77.04071633333334, "fusion_lon": 0.0, "is_reserved": 0, "fusion_lat": 0.0, "rental_uris": {"android": "https://dc.lft.to/lastmile_qr_scan", "ios": "https://dc.lft.to/lastmile_qr_scan"}, "type": "electric_bike", "name": "73e546fdff263bbf783170a3ffc63224"}, {"bike_id": "319d4a4980e99dc131e221c542b078c9", "lat": 38.859171, "is_disabled": 0, "lon": -77.05147966666667, "fusion_lon": 0.0, "is_reserved": 0, "fusion_lat": 0.0, "rental_uris": {"android": "https://dc.lft.to/lastmile_qr_scan", "ios": "https://dc.lft.to/lastmile_qr_scan"}, "type": "electric_bike", "name": "319d4a4980e99dc131e221c542b078c9"}, {"bike_id": "820f75e62a495c2dd55fcfa3d2023076", "lat": 38.88462883333333, "is_disabled": 0, "lon": -76.95239616666667, "fusion_lon": 0.0, "is_reserved": 0, "fusion_lat": 0.0, "rental_uris": {"android": "https://dc.lft.to/lastmile_qr_scan", "ios": "https://dc.lft.to/lastmile_qr_scan"}, "type": "electric_bike", "name": "820f75e62a495c2dd55fcfa3d2023076"}, {"bike_id": "78cd81f465570fecc62a4324f170b6f6", "lat": 38.916821, "is_disabled": 0, "lon": -77.03320283333333, "fusion_lon": 0.0, "is_reserved": 0, "fusion_lat": 0.0, "rental_uris": {"android": "https://dc.lft.to/lastmile_qr_scan", "ios": "https://dc.lft.to/lastmile_qr_scan"}, "type": "electric_scooter", "name": "78cd81f465570fecc62a4324f170b6f6"}, {"bike_id": "72740777769b9709d2c862fc1c847c69", "lat": 38.90872983333333, "is_disabled": 0, "lon": -77.04348766666666, "fusion_lon": 0.0, "is_reserved": 0, "fusion_lat": 0.0, "rental_uris": {"android": "https://dc.lft.to/lastmile_qr_scan", "ios": "https://dc.lft.to/lastmile_qr_scan"}, "type": "electric_scooter", "name": "72740777769b9709d2c862fc1c847c69"}, {"bike_id": "6ec2dba0a3703ec8a90fb367cca649aa", "lat": 38.91117633333333, "is_disabled": 0, "lon": -77.006046, "fusion_lon": 0.0, "is_reserved": 0, "fusion_lat": 0.0, "rental_uris": {"android": "https://dc.lft.to/lastmile_qr_scan", "ios": "https://dc.lft.to/lastmile_qr_scan"}, "type": "electric_scooter", "name": "6ec2dba0a3703ec8a90fb367cca649aa"}, {"bike_id": "cee297f28d4ebc29fe40a91218d3a7d5", "lat": 38.9352555, "is_disabled": 0, "lon": -77.03261433333333, "fusion_lon": 0.0, "is_reserved": 0, "fusion_lat": 0.0, "rental_uris": {"android": "https://dc.lft.to/lastmile_qr_scan", "ios": "https://dc.lft.to/lastmile_qr_scan"}, "type": "electric_scooter", "name": "cee297f28d4ebc29fe40a91218d3a7d5"}, {"bike_id": "cd1ceadf38a72a84acf977b2fb646d50", "lat": 38.91806833333333, "is_disabled": 0, "lon": -77.0247655, "fusion_lon": 0.0, "is_reserved": 0, "fusion_lat": 0.0, "rental_uris": {"android": "https://dc.lft.to/lastmile_qr_scan", "ios": "https://dc.lft.to/lastmile_qr_scan"}, "type": "electric_scooter", "name": "cd1ceadf38a72a84acf977b2fb646d50"}, {"bike_id": "840b44be319208fdc4667e9a08636687", "lat": 38.92065516666667, "is_disabled": 0, "lon": -77.0231565, "fusion_lon": 0.0, "is_reserved": 0, "fusion_lat": 0.0, "rental_uris": {"android": "https://dc.lft.to/lastmile_qr_scan", "ios": "https://dc.lft.to/lastmile_qr_scan"}, "type": "electric_scooter", "name": "840b44be319208fdc4667e9a08636687"}, {"bike_id": "42bd5515209594f2b7d9a045823db0a5", "lat": 38.90112466666667, "is_disabled": 0, "lon": -77.0382115, "fusion_lon": 0.0, "is_reserved": 0, "fusion_lat": 0.0, "rental_uris": {"android": "https://dc.lft.to/lastmile_qr_scan", "ios": "https://dc.lft.to/lastmile_qr_scan"}, "type": "electric_scooter", "name": "42bd5515209594f2b7d9a045823db0a5"}, {"bike_id": "a922d4c731c352164816867d36984752", "lat": 38.8960685, "is_disabled": 0, "lon": -77.05441383333333, "fusion_lon": 0.0, "is_reserved": 0, "fusion_lat": 0.0, "rental_uris": {"android": "https://dc.lft.to/lastmile_qr_scan", "ios": "https://dc.lft.to/lastmile_qr_scan"}, "type": "electric_scooter", "name": "a922d4c731c352164816867d36984752"}, {"bike_id": "64394fbdef6ab301e87cfa63d67d3d19", "lat": 38.90225383333333, "is_disabled": 0, "lon": -77.00214733333334, "fusion_lon": 0.0, "is_reserved": 0, "fusion_lat": 0.0, "rental_uris": {"android": "https://dc.lft.to/lastmile_qr_scan", "ios": "https://dc.lft.to/lastmile_qr_scan"}, "type": "electric_scooter", "name": "64394fbdef6ab301e87cfa63d67d3d19"}, {"bike_id": "ceec65394a7e9e0ffc8e5eec6188a60d", "lat": 38.90025416666667, "is_disabled": 0, "lon": -77.00226, "fusion_lon": 0.0, "is_reserved": 0, "fusion_lat": 0.0, "rental_uris": {"android": "https://dc.lft.to/lastmile_qr_scan", "ios": "https://dc.lft.to/lastmile_qr_scan"}, "type": "electric_scooter", "name": "ceec65394a7e9e0ffc8e5eec6188a60d"}, {"bike_id": "6eb5470e12d49ffa8ab93d0e5fa94228", "lat": 38.906793, "is_disabled": 0, "lon": -77.042068, "fusion_lon": 0.0, "is_reserved": 0, "fusion_lat": 0.0, "rental_uris": {"android": "https://dc.lft.to/lastmile_qr_scan", "ios": "https://dc.lft.to/lastmile_qr_scan"}, "type": "electric_scooter", "name": "6eb5470e12d49ffa8ab93d0e5fa94228"}, {"bike_id": "6279350c40b80aa15dc75a936541e541", "lat": 38.914126333333336, "is_disabled": 0, "lon": -77.041559, "fusion_lon": 0.0, "is_reserved": 0, "fusion_lat": 0.0, "rental_uris": {"android": "https://dc.lft.to/lastmile_qr_scan", "ios": "https://dc.lft.to/lastmile_qr_scan"}, "type": "electric_scooter", "name": "6279350c40b80aa15dc75a936541e541"}, {"bike_id": "6c6c9aa481d959e4b52a2a685a5bfd80", "lat": 38.920032166666665, "is_disabled": 0, "lon": -77.032044, "fusion_lon": 0.0, "is_reserved": 0, "fusion_lat": 0.0, "rental_uris": {"android": "https://dc.lft.to/lastmile_qr_scan", "ios": "https://dc.lft.to/lastmile_qr_scan"}, "type": "electric_scooter", "name": "6c6c9aa481d959e4b52a2a685a5bfd80"}, {"bike_id": "1ba34dfb3a735c9291d55e0c4fc84aef", "lat": 38.906918, "is_disabled": 0, "lon": -76.9525335, "fusion_lon": 0.0, "is_reserved": 0, "fusion_lat": 0.0, "rental_uris": {"android": "https://dc.lft.to/lastmile_qr_scan", "ios": "https://dc.lft.to/lastmile_qr_scan"}, "type": "electric_bike", "name": "1ba34dfb3a735c9291d55e0c4fc84aef"}, {"bike_id": "d2e6beb39a1753f6e778586670b7360d", "lat": 38.90177033333333, "is_disabled": 0, "lon": -76.92828316666666, "fusion_lon": 0.0, "is_reserved": 0, "fusion_lat": 0.0, "rental_uris": {"android": "https://dc.lft.to/lastmile_qr_scan", "ios": "https://dc.lft.to/lastmile_qr_scan"}, "type": "electric_scooter", "name": "d2e6beb39a1753f6e778586670b7360d"}, {"bike_id": "efd557989ac00c698f94ca2e74ec4b16", "lat": 38.935570166666665, "is_disabled": 0, "lon": -77.06373333333333, "fusion_lon": 0.0, "is_reserved": 0, "fusion_lat": 0.0, "rental_uris": {"android": "https://dc.lft.to/lastmile_qr_scan", "ios": "https://dc.lft.to/lastmile_qr_scan"}, "type": "electric_scooter", "name": "efd557989ac00c698f94ca2e74ec4b16"}, {"bike_id": "9b6360e71be36a1d62ce2bc9ffc48a35", "lat": 38.907865666666666, "is_disabled": 0, "lon": -77.03824183333333, "fusion_lon": 0.0, "is_reserved": 0, "fusion_lat": 0.0, "rental_uris": {"android": "https://dc.lft.to/lastmile_qr_scan", "ios": "https://dc.lft.to/lastmile_qr_scan"}, "type": "electric_scooter", "name": "9b6360e71be36a1d62ce2bc9ffc48a35"}, {"bike_id": "bd6baa4ff2e3a0c8a4e9c3de337bf7c8", "lat": 38.950237666666666, "is_disabled": 0, "lon": -77.06676333333333, "fusion_lon": 0.0, "is_reserved": 0, "fusion_lat": 0.0, "rental_uris": {"android": "https://dc.lft.to/lastmile_qr_scan", "ios": "https://dc.lft.to/lastmile_qr_scan"}, "type": "electric_scooter", "name": "bd6baa4ff2e3a0c8a4e9c3de337bf7c8"}, {"bike_id": "f246df696132d35d8612402ce088660e", "lat": 38.89356933333333, "is_disabled": 0, "lon": -76.94748716666666, "fusion_lon": 0.0, "is_reserved": 0, "fusion_lat": 0.0, "rental_uris": {"android": "https://dc.lft.to/lastmile_qr_scan", "ios": "https://dc.lft.to/lastmile_qr_scan"}, "type": "electric_scooter", "name": "f246df696132d35d8612402ce088660e"}, {"bike_id": "4430594bbcdcd6971adc288a8a09aaed", "lat": 38.90129483333333, "is_disabled": 0, "lon": -77.03978216666667, "fusion_lon": 0.0, "is_reserved": 0, "fusion_lat": 0.0, "rental_uris": {"android": "https://dc.lft.to/lastmile_qr_scan", "ios": "https://dc.lft.to/lastmile_qr_scan"}, "type": "electric_scooter", "name": "4430594bbcdcd6971adc288a8a09aaed"}, {"bike_id": "ae9bb44be7cb70ae9d5535ed72834180", "lat": 38.81904516666667, "is_disabled": 0, "lon": -77.12649516666667, "fusion_lon": 0.0, "is_reserved": 0, "fusion_lat": 0.0, "rental_uris": {"android": "https://dc.lft.to/lastmile_qr_scan", "ios": "https://dc.lft.to/lastmile_qr_scan"}, "type": "electric_bike", "name": "ae9bb44be7cb70ae9d5535ed72834180"}, {"bike_id": "243134374a0a8e1287d13cd59bbd02e8", "lat": 38.8998865, "is_disabled": 0, "lon": -77.03371866666667, "fusion_lon": 0.0, "is_reserved": 0, "fusion_lat": 0.0, "rental_uris": {"android": "https://dc.lft.to/lastmile_qr_scan", "ios": "https://dc.lft.to/lastmile_qr_scan"}, "type": "electric_scooter", "name": "243134374a0a8e1287d13cd59bbd02e8"}, {"bike_id": "eadaea15a4329ee1e0fa66a36463b2fe", "lat": 38.901604666666664, "is_disabled": 0, "lon": -77.03933283333333, "fusion_lon": 0.0, "is_reserved": 0, "fusion_lat": 0.0, "rental_uris": {"android": "https://dc.lft.to/lastmile_qr_scan", "ios": "https://dc.lft.to/lastmile_qr_scan"}, "type": "electric_scooter", "name": "eadaea15a4329ee1e0fa66a36463b2fe"}, {"bike_id": "d1d53db1029a95082649c75f3f9799cd", "lat": 38.89167966666667, "is_disabled": 0, "lon": -77.01556983333333, "fusion_lon": 0.0, "is_reserved": 0, "fusion_lat": 0.0, "rental_uris": {"android": "https://dc.lft.to/lastmile_qr_scan", "ios": "https://dc.lft.to/lastmile_qr_scan"}, "type": "electric_scooter", "name": "d1d53db1029a95082649c75f3f9799cd"}, {"bike_id": "541d595f4bc253195d0f095a8c20c7ea", "lat": 38.916092666666664, "is_disabled": 0, "lon": -77.03214416666667, "fusion_lon": 0.0, "is_reserved": 0, "fusion_lat": 0.0, "rental_uris": {"android": "https://dc.lft.to/lastmile_qr_scan", "ios": "https://dc.lft.to/lastmile_qr_scan"}, "type": "electric_scooter", "name": "541d595f4bc253195d0f095a8c20c7ea"}, {"bike_id": "d0f8c69e74280660a3245b2a2702c5de", "lat": 38.91758933333333, "is_disabled": 0, "lon": -77.02408883333334, "fusion_lon": 0.0, "is_reserved": 0, "fusion_lat": 0.0, "rental_uris": {"android": "https://dc.lft.to/lastmile_qr_scan", "ios": "https://dc.lft.to/lastmile_qr_scan"}, "type": "electric_scooter", "name": "d0f8c69e74280660a3245b2a2702c5de"}, {"bike_id": "37d91d19c7b3a20671980a8ac4ba5a3f", "lat": 38.9085825, "is_disabled": 0, "lon": -77.03181233333333, "fusion_lon": 0.0, "is_reserved": 0, "fusion_lat": 0.0, "rental_uris": {"android": "https://dc.lft.to/lastmile_qr_scan", "ios": "https://dc.lft.to/lastmile_qr_scan"}, "type": "electric_scooter", "name": "37d91d19c7b3a20671980a8ac4ba5a3f"}, {"bike_id": "1d18ea7042c1ee61ad78130e9a9bcff9", "lat": 38.91809583333333, "is_disabled": 0, "lon": -77.0318095, "fusion_lon": 0.0, "is_reserved": 0, "fusion_lat": 0.0, "rental_uris": {"android": "https://dc.lft.to/lastmile_qr_scan", "ios": "https://dc.lft.to/lastmile_qr_scan"}, "type": "electric_scooter", "name": "1d18ea7042c1ee61ad78130e9a9bcff9"}, {"bike_id": "ea8ae26df7a27d67119d41190db78ee6", "lat": 38.9175295, "is_disabled": 0, "lon": -77.0122315, "fusion_lon": 0.0, "is_reserved": 0, "fusion_lat": 0.0, "rental_uris": {"android": "https://dc.lft.to/lastmile_qr_scan", "ios": "https://dc.lft.to/lastmile_qr_scan"}, "type": "electric_scooter", "name": "ea8ae26df7a27d67119d41190db78ee6"}, {"bike_id": "a4d2c124fe995e442baef5075b76f2c4", "lat": 38.9242875, "is_disabled": 0, "lon": -77.0203325, "fusion_lon": 0.0, "is_reserved": 0, "fusion_lat": 0.0, "rental_uris": {"android": "https://dc.lft.to/lastmile_qr_scan", "ios": "https://dc.lft.to/lastmile_qr_scan"}, "type": "electric_scooter", "name": "a4d2c124fe995e442baef5075b76f2c4"}, {"bike_id": "bba9061913a5b79a16a4a0ec5633c60e", "lat": 38.898336, "is_disabled": 0, "lon": -76.94630983333333, "fusion_lon": 0.0, "is_reserved": 0, "fusion_lat": 0.0, "rental_uris": {"android": "https://dc.lft.to/lastmile_qr_scan", "ios": "https://dc.lft.to/lastmile_qr_scan"}, "type": "electric_scooter", "name": "bba9061913a5b79a16a4a0ec5633c60e"}, {"bike_id": "6b293675bdbd833466956eab3173d448", "lat": 38.9055565, "is_disabled": 0, "lon": -77.04611533333333, "fusion_lon": 0.0, "is_reserved": 0, "fusion_lat": 0.0, "rental_uris": {"android": "https://dc.lft.to/lastmile_qr_scan", "ios": "https://dc.lft.to/lastmile_qr_scan"}, "type": "electric_scooter", "name": "6b293675bdbd833466956eab3173d448"}, {"bike_id": "32ebb65fc1057d4d7ca59013d9a07dae", "lat": 38.93108316666667, "is_disabled": 0, "lon": -77.0559815, "fusion_lon": 0.0, "is_reserved": 0, "fusion_lat": 0.0, "rental_uris": {"android": "https://dc.lft.to/lastmile_qr_scan", "ios": "https://dc.lft.to/lastmile_qr_scan"}, "type": "electric_scooter", "name": "32ebb65fc1057d4d7ca59013d9a07dae"}, {"bike_id": "60b371cc6e466d4da97ff0a3da908969", "lat": 38.9051505, "is_disabled": 0, "lon": -77.04189816666667, "fusion_lon": 0.0, "is_reserved": 0, "fusion_lat": 0.0, "rental_uris": {"android": "https://dc.lft.to/lastmile_qr_scan", "ios": "https://dc.lft.to/lastmile_qr_scan"}, "type": "electric_scooter", "name": "60b371cc6e466d4da97ff0a3da908969"}, {"bike_id": "d0a4779eb904b032ba9e9390df8ff323", "lat": 38.897388, "is_disabled": 0, "lon": -77.048652, "fusion_lon": 0.0, "is_reserved": 0, "fusion_lat": 0.0, "rental_uris": {"android": "https://dc.lft.to/lastmile_qr_scan", "ios": "https://dc.lft.to/lastmile_qr_scan"}, "type": "electric_scooter", "name": "d0a4779eb904b032ba9e9390df8ff323"}, {"bike_id": "940f5aaa5e155bf6e91cfd818703e0ca", "lat": 38.88696383333333, "is_disabled": 0, "lon": -77.03170433333334, "fusion_lon": 0.0, "is_reserved": 0, "fusion_lat": 0.0, "rental_uris": {"android": "https://dc.lft.to/lastmile_qr_scan", "ios": "https://dc.lft.to/lastmile_qr_scan"}, "type": "electric_scooter", "name": "940f5aaa5e155bf6e91cfd818703e0ca"}, {"bike_id": "6a913e28622e5eb0135571fed67d7b39", "lat": 38.89030066666667, "is_disabled": 0, "lon": -77.022891, "fusion_lon": 0.0, "is_reserved": 0, "fusion_lat": 0.0, "rental_uris": {"android": "https://dc.lft.to/lastmile_qr_scan", "ios": "https://dc.lft.to/lastmile_qr_scan"}, "type": "electric_scooter", "name": "6a913e28622e5eb0135571fed67d7b39"}, {"bike_id": "be339d26f3b54ebb308978cdec689561", "lat": 38.90329783333333, "is_disabled": 0, "lon": -76.92949033333333, "fusion_lon": 0.0, "is_reserved": 0, "fusion_lat": 0.0, "rental_uris": {"android": "https://dc.lft.to/lastmile_qr_scan", "ios": "https://dc.lft.to/lastmile_qr_scan"}, "type": "electric_scooter", "name": "be339d26f3b54ebb308978cdec689561"}, {"bike_id": "d29a90c3129e859d7ad80827eee96893", "lat": 38.92503033333333, "is_disabled": 0, "lon": -77.0022515, "fusion_lon": 0.0, "is_reserved": 0, "fusion_lat": 0.0, "rental_uris": {"android": "https://dc.lft.to/lastmile_qr_scan", "ios": "https://dc.lft.to/lastmile_qr_scan"}, "type": "electric_scooter", "name": "d29a90c3129e859d7ad80827eee96893"}, {"bike_id": "22a4a1f8a31e1fccb4e6f6f12f42dccc", "lat": 38.8987005, "is_disabled": 0, "lon": -77.01621683333333, "fusion_lon": 0.0, "is_reserved": 0, "fusion_lat": 0.0, "rental_uris": {"android": "https://dc.lft.to/lastmile_qr_scan", "ios": "https://dc.lft.to/lastmile_qr_scan"}, "type": "electric_scooter", "name": "22a4a1f8a31e1fccb4e6f6f12f42dccc"}, {"bike_id": "5ecd4e6cfd45b0e97da18531351d3a46", "lat": 38.88964466666667, "is_disabled": 0, "lon": -76.98328183333334, "fusion_lon": 0.0, "is_reserved": 0, "fusion_lat": 0.0, "rental_uris": {"android": "https://dc.lft.to/lastmile_qr_scan", "ios": "https://dc.lft.to/lastmile_qr_scan"}, "type": "electric_scooter", "name": "5ecd4e6cfd45b0e97da18531351d3a46"}, {"bike_id": "04ed158f0db472df8fd3dda4e110f142", "lat": 38.90725833333333, "is_disabled": 0, "lon": -77.0414545, "fusion_lon": 0.0, "is_reserved": 0, "fusion_lat": 0.0, "rental_uris": {"android": "https://dc.lft.to/lastmile_qr_scan", "ios": "https://dc.lft.to/lastmile_qr_scan"}, "type": "electric_scooter", "name": "04ed158f0db472df8fd3dda4e110f142"},