{"data": {"bikes": [{"fusion_lon": 0.0, "name": "885e24ccdbaea4cf5ea40a48833ba21f", "rental_uris": {"android": "https://dc.lft.to/lastmile_qr_scan", "ios": "https://dc.lft.to/lastmile_qr_scan"}, "lat": 38.90494283333334, "bike_id": "885e24ccdbaea4cf5ea40a48833ba21f", "is_disabled": 0, "lon": -76.97738433333333, "is_reserved": 0, "fusion_lat": 0.0, "type": "electric_scooter"}, {"fusion_lon": 0.0, "name": "4ff440db9be7a9b6ab31b7035e17c650", "rental_uris": {"android": "https://dc.lft.to/lastmile_qr_scan", "ios": "https://dc.lft.to/lastmile_qr_scan"}, "lat": 38.93332316666667, "bike_id": "4ff440db9be7a9b6ab31b7035e17c650", "is_disabled": 0, "lon": -77.02923616666666, "is_reserved": 0, "fusion_lat": 0.0, "type": "electric_scooter"}, {"fusion_lon": 0.0, "name": "62f2deb66faaf4f26095aa817de2306e", "rental_uris": {"android": "https://dc.lft.to/lastmile_qr_scan", "ios": "https://dc.lft.to/lastmile_qr_scan"}, "lat": 38.931393666666665, "bike_id": "62f2deb66faaf4f26095aa817de2306e", "is_disabled": 0, "lon": -77.07846483333333, "is_reserved": 0, "fusion_lat": 0.0, "type": "electric_scooter"}, {"fusion_lon": 0.0, "name": "41829fb3935e7198d858aa559d5581fe", "rental_uris": {"android": "https://dc.lft.to/lastmile_qr_scan", "ios": "https://dc.lft.to/lastmile_qr_scan"}, "lat": 38.900654833333334, "bike_id": "41829fb3935e7198d858aa559d5581fe", "is_disabled": 0, "lon": -77.04751216666666, "is_reserved": 0, "fusion_lat": 0.0, "type": "electric_scooter"}, {"fusion_lon": 0.0, "name": "575003b6167e82d140cc68b7d1943c16", "rental_uris": {"android": "https://dc.lft.to/lastmile_qr_scan", "ios": "https://dc.lft.to/lastmile_qr_scan"}, "lat": 38.9591205, "bike_id": "575003b6167e82d140cc68b7d1943c16", "is_disabled": 0, "lon": -77.000154, "is_reserved": 0, "fusion_lat": 0.0, "type": "electric_scooter"}, {"fusion_lon": 0.0, "name": "e08a8a50ae5c700e9ccfccf60e80d7a2", "rental_uris": {"android": "https://dc.lft.to/lastmile_qr_scan", "ios": "https://dc.lft.to/lastmile_qr_scan"}, "lat": 38.892309166666664, "bike_id": "e08a8a50ae5c700e9ccfccf60e80d7a2", "is_disabled": 0, "lon": -77.05000616666666, "is_reserved": 0, "fusion_lat": 0.0, "type": "electric_scooter"}, {"fusion_lon": 0.0, "name": "9648fa0f5f548af54c81c6a3fd0c08ab", "rental_uris": {"android": "https://dc.lft.to/lastmile_qr_scan", "ios": "https://dc.lft.to/lastmile_qr_scan"}, "lat": 38.90030566666667, "bike_id": "9648fa0f5f548af54c81c6a3fd0c08ab", "is_disabled": 0, "lon": -76.99608233333333, "is_reserved": 0, "fusion_lat": 0.0, "type": "electric_scooter"}, {"fusion_lon": 0.0, "name": "2ca8da62e155e060d635eb3cca99fa0d", "rental_uris": {"android": "https://dc.lft.to/lastmile_qr_scan", "ios": "https://dc.lft.to/lastmile_qr_scan"}, "lat": 38.9033245, "bike_id": "2ca8da62e155e060d635eb3cca99fa0d", "is_disabled": 0, "lon": -76.9822295, "is_reserved": 0, "fusion_lat": 0.0, "type": "electric_scooter"}, {"fusion_lon": 0.0, "name": "8e098387847b5cff6eaf466837ad0e91", "rental_uris": {"android": "https://dc.lft.to/lastmile_qr_scan", "ios": "https://dc.lft.to/lastmile_qr_scan"}, "lat": 38.915623, "bike_id": "8e098387847b5cff6eaf466837ad0e91", "is_disabled": 0, "lon": -77.0488275, "is_reserved": 0, "fusion_lat": 0.0, "type": "electric_scooter"}, {"fusion_lon": 0.0, "name": "e7e44523ba11b220e6f37b9a46fdd849", "rental_uris": {"android": "https://dc.lft.to/lastmile_qr_scan", "ios": "https://dc.lft.to/lastmile_qr_scan"}, "lat": 38.852334666666664, "bike_id": "e7e44523ba11b220e6f37b9a46fdd849", "is_disabled": 0, "lon": -77.05310033333333, "is_reserved": 0, "fusion_lat": 0.0, "type": "electric_bike"}, {"fusion_lon": 0.0, "name": "f13b449a690e93ea687898e6ff856034", "rental_uris": {"android": "https://dc.lft.to/lastmile_qr_scan", "ios": "https://dc.lft.to/lastmile_qr_scan"}, "lat": 38.928522, "bike_id": "f13b449a690e93ea687898e6ff856034", "is_disabled": 0, "lon": -77.05430633333333, "is_reserved": 0, "fusion_lat": 0.0, "type": "electric_scooter"}, {"fusion_lon": 0.0, "name": "a82ebbbf825285e31f319b382e98effa", "rental_uris": {"android": "https://dc.lft.to/lastmile_qr_scan", "ios": "https://dc.lft.to/lastmile_qr_scan"}, "lat": 38.930617833333336, "bike_id": "a82ebbbf825285e31f319b382e98effa", "is_disabled": 0, "lon": -77.039499, "is_reserved": 0, "fusion_lat": 0.0, "type": "electric_scooter"}, {"fusion_lon": 0.0, "name": "b948ce125602ef290b02cc14fabe65d4", "rental_uris": {"android": "https://dc.lft.to/lastmile_qr_scan", "ios": "https://dc.lft.to/lastmile_qr_scan"}, "lat": 38.926360333333335, "bike_id": "b948ce125602ef290b02cc14fabe65d4", "is_disabled": 0, "lon": -77.0371545, "is_reserved": 0, "fusion_lat": 0.0, "type": "electric_scooter"}, {"fusion_lon": 0.0, "name": "ec86cb7daa68c07bf38068fa7ba42746", "rental_uris": {"android": "https://dc.lft.to/lastmile_qr_scan", "ios": "https://dc.lft.to/lastmile_qr_scan"}, "lat": 38.924690166666664, "bike_id": "ec86cb7daa68c07bf38068fa7ba42746", "is_disabled": 0, "lon": -77.05237683333333, "is_reserved": 0, "fusion_lat": 0.0, "type": "electric_scooter"}, {"fusion_lon": 0.0, "name": "cd6f982ce84b16ef10e7eb8325faf3e7", "rental_uris": {"android": "https://dc.lft.to/lastmile_qr_scan", "ios": "https://dc.lft.to/lastmile_qr_scan"}, "lat": 38.91119533333333, "bike_id": "cd6f982ce84b16ef10e7eb8325faf3e7", "is_disabled": 0, "lon": -77.03832466666667, "is_reserved": 0, "fusion_lat": 0.0, "type": "electric_scooter"}, {"fusion_lon": 0.0, "name": "8ed38c67d8b1f1e423e808d765a0c338", "rental_uris": {"android": "https://dc.lft.to/lastmile_qr_scan", "ios": "https://dc.lft.to/lastmile_qr_scan"}, "lat": 38.932056333333335, "bike_id": "8ed38c67d8b1f1e423e808d765a0c338", "is_disabled": 0, "lon": -77.03266133333334, "is_reserved": 0, "fusion_lat": 0.0, "type": "electric_scooter"}, {"fusion_lon": 0.0, "name": "5906c404d6c4e0bd1a60506aa3f996fd", "rental_uris": {"android": "https://dc.lft.to/lastmile_qr_scan", "ios": "https://dc.lft.to/lastmile_qr_scan"}, "lat": 38.92621183333333, "bike_id": "5906c404d6c4e0bd1a60506aa3f996fd", "is_disabled": 0, "lon": -77.03678833333333, "is_reserved": 0, "fusion_lat": 0.0, "type": "electric_scooter"}, {"fusion_lon": 0.0, "name": "7ecaa243a26d3bdaaaf15d0d9881d55c", "rental_uris": {"android": "https://dc.lft.to/lastmile_qr_scan", "ios": "https://dc.lft.to/lastmile_qr_scan"}, "lat": 38.90359083333333, "bike_id": "7ecaa243a26d3bdaaaf15d0d9881d55c", "is_disabled": 0, "lon": -77.02611183333333, "is_reserved": 0, "fusion_lat": 0.0, "type": "electric_scooter"}, {"fusion_lon": 0.0, "name": "8a6dd9be4520ac80f7e71324aa328599", "rental_uris": {"android": "https://dc.lft.to/lastmile_qr_scan", "ios": "https://dc.lft.to/lastmile_qr_scan"}, "lat": 38.95731633333333, "bike_id": "8a6dd9be4520ac80f7e71324aa328599", "is_disabled": 0, "lon": -77.0241925, "is_reserved": 0, "fusion_lat": 0.0, "type": "electric_scooter"}, {"fusion_lon": 0.0, "name": "1159050da64a91478a9c0056e20b38b6", "rental_uris": {"android": "https://dc.lft.to/lastmile_qr_scan", "ios": "https://dc.lft.to/lastmile_qr_scan"}, "lat": 38.89476966666667, "bike_id": "1159050da64a91478a9c0056e20b38b6", "is_disabled": 0, "lon": -77.0211775, "is_reserved": 0, "fusion_lat": 0.0, "type": "electric_scooter"}, {"fusion_lon": 0.0, "name": "9127c2e8d56c3cd832cbee8d076a183d", "rental_uris": {"android": "https://dc.lft.to/lastmile_qr_scan", "ios": "https://dc.lft.to/lastmile_qr_scan"}, "lat": 38.93296633333333, "bike_id": "9127c2e8d56c3cd832cbee8d076a183d", "is_disabled": 0, "lon": -77.08530083333333, "is_reserved": 0, "fusion_lat": 0.0, "type": "electric_scooter"}, {"fusion_lon": 0.0, "name": "ae2a2d9ef6cb6e5c0b4da1f18c67fbc6", "rental_uris": {"android": "https://dc.lft.to/lastmile_qr_scan", "ios": "https://dc.lft.to/lastmile_qr_scan"}, "lat": 38.92039416666667, "bike_id": "ae2a2d9ef6cb6e5c0b4da1f18c67fbc6", "is_disabled": 0, "lon": -77.04815166666667, "is_reserved": 0, "fusion_lat": 0.0, "type": "electric_scooter"}, {"fusion_lon": 0.0, "name": "36e401e1ad17d0126d672440d2375682", "rental_uris": {"android": "https://dc.lft.to/lastmile_qr_scan", "ios": "https://dc.lft.to/lastmile_qr_scan"}, "lat": 38.90639933333333, "bike_id": "36e401e1ad17d0126d672440d2375682", "is_disabled": 0, "lon": -77.03464483333333, "is_reserved": 0, "fusion_lat": 0.0, "type": "electric_scooter"}, {"fusion_lon": 0.0, "name": "e1bf4251631de4653428e025b5520277", "rental_uris": {"android": "https://dc.lft.to/lastmile_qr_scan", "ios": "https://dc.lft.to/lastmile_qr_scan"}, "lat": 38.930589833333336, "bike_id": "e1bf4251631de4653428e025b5520277", "is_disabled": 0, "lon": -77.02322216666667, "is_reserved": 0, "fusion_lat": 0.0, "type": "electric_scooter"}, {"fusion_lon": 0.0, "name": "a1514aff09d453a034a73f06ff31ccfc", "rental_uris": {"android": "https://dc.lft.to/lastmile_qr_scan", "ios": "https://dc.lft.to/lastmile_qr_scan"}, "lat": 38.94423033333333, "bike_id": "a1514aff09d453a034a73f06ff31ccfc", "is_disabled": 0, "lon": -77.055192, "is_reserved": 0, "fusion_lat": 0.0, "type": "electric_scooter"}, {"fusion_lon": 0.0, "name": "d76366d7f26379836c8097e041ee33ca", "rental_uris": {"android": "https://dc.lft.to/lastmile_qr_scan", "ios": "https://dc.lft.to/lastmile_qr_scan"}, "lat": 38.9170735, "bike_id": "d76366d7f26379836c8097e041ee33ca", "is_disabled": 0, "lon": -77.00111766666667, "is_reserved": 0, "fusion_lat": 0.0, "type": "electric_scooter"}, {"fusion_lon": 0.0, "name": "de6a598d4aaf68d7aa9ad8e78a9d773a", "rental_uris": {"android": "https://dc.lft.to/lastmile_qr_scan", "ios": "https://dc.lft.to/lastmile_qr_scan"}, "lat": 38.90502766666667, "bike_id": "de6a598d4aaf68d7aa9ad8e78a9d773a", "is_disabled": 0, "lon": -77.03053333333334, "is_reserved": 0, "fusion_lat": 0.0, "type": "electric_scooter"}, {"fusion_lon": 0.0, "name": "935a0fdac0ade07afeae3fe17af09071", "rental_uris": {"android": "https://dc.lft.to/lastmile_qr_scan", "ios": "https://dc.lft.to/lastmile_qr_scan"}, "lat": 38.920432, "bike_id": "935a0fdac0ade07afeae3fe17af09071", "is_disabled": 0, "lon": -77.02429333333333, "is_reserved": 0, "fusion_lat": 0.0, "type": "electric_scooter"}, {"fusion_lon": 0.0, "name": "0968a117e695464ff105506ee14f27de", "rental_uris": {"android": "https://dc.lft.to/lastmile_qr_scan", "ios": "https://dc.lft.to/lastmile_qr_scan"}, "lat": 38.930601333333335, "bike_id": "0968a117e695464ff105506ee14f27de", "is_disabled": 0, "lon": -77.0393995, "is_reserved": 0, "fusion_lat": 0.0, "type": "electric_scooter"}, {"fusion_lon": 0.0, "name": "143e96bdd03d807f34957f5cc4d35892", "rental_uris": {"android": "https://dc.lft.to/lastmile_qr_scan", "ios": "https://dc.lft.to/lastmile_qr_scan"}, "lat": 38.901989666666665, "bike_id": "143e96bdd03d807f34957f5cc4d35892", "is_disabled": 0, "lon": -77.05889966666666, "is_reserved": 0, "fusion_lat": 0.0, "type": "electric_scooter"}, {"fusion_lon": 0.0, "name": "a0df42bf881e5055a3251e00896ee6c4", "rental_uris": {"android": "https://dc.lft.to/lastmile_qr_scan", "ios": "https://dc.lft.to/lastmile_qr_scan"}, "lat": 38.9195885, "bike_id": "a0df42bf881e5055a3251e00896ee6c4", "is_disabled": 0, "lon": -77.04846466666666, "is_reserved": 0, "fusion_lat": 0.0, "type": "electric_scooter"}, {"fusion_lon": 0.0, "name": "49373266a6ff09c6c326ae65ebc7baaa", "rental_uris": {"android": "https://dc.lft.to/lastmile_qr_scan", "ios": "https://dc.lft.to/lastmile_qr_scan"}, "lat": 38.929622, "bike_id": "49373266a6ff09c6c326ae65ebc7baaa", "is_disabled": 0, "lon": -77.02796366666666, "is_reserved": 0, "fusion_lat": 0.0, "type": "electric_scooter"}, {"fusion_lon": 0.0, "name": "ab1d24ed7a2679232affb350975a95cb", "rental_uris": {"android": "https://dc.lft.to/lastmile_qr_scan", "ios": "https://dc.lft.to/lastmile_qr_scan"}, "lat": 38.90718716666667, "bike_id": "ab1d24ed7a2679232affb350975a95cb", "is_disabled": 0, "lon": -77.048483, "is_reserved": 0, "fusion_lat": 0.0, "type": "electric_scooter"}, {"fusion_lon": 0.0, "name": "cae8ebf6edf7f014e9666112243c29e6", "rental_uris": {"android": "https://dc.lft.to/lastmile_qr_scan", "ios": "https://dc.lft.to/lastmile_qr_scan"}, "lat": 38.9017285, "bike_id": "cae8ebf6edf7f014e9666112243c29e6", "is_disabled": 0, "lon": -77.050769, "is_reserved": 0, "fusion_lat": 0.0, "type": "electric_scooter"}, {"fusion_lon": 0.0, "name": "94236d5aeca8b67c33a225bc264a4d7e", "rental_uris": {"android": "https://dc.lft.to/lastmile_qr_scan", "ios": "https://dc.lft.to/lastmile_qr_scan"}, "lat": 38.892293333333335, "bike_id": "94236d5aeca8b67c33a225bc264a4d7e", "is_disabled": 0, "lon": -77.03373966666666, "is_reserved": 0, "fusion_lat": 0.0, "type": "electric_scooter"}, {"fusion_lon": 0.0, "name": "e3ea6d2cf2b197ddb89bdaaafee0e5b4", "rental_uris": {"android": "https://dc.lft.to/lastmile_qr_scan", "ios": "https://dc.lft.to/lastmile_qr_scan"}, "lat": 38.93435616666667, "bike_id": "e3ea6d2cf2b197ddb89bdaaafee0e5b4", "is_disabled": 0, "lon": -77.03442633333333, "is_reserved": 0, "fusion_lat": 0.0, "type": "electric_scooter"}, {"fusion_lon": 0.0, "name": "3887967c09593f7c03da37f61af18393", "rental_uris": {"android": "https://dc.lft.to/lastmile_qr_scan", "ios": "https://dc.lft.to/lastmile_qr_scan"}, "lat": 38.89454666666666, "bike_id": "3887967c09593f7c03da37f61af18393", "is_disabled": 0, "lon": -77.02685866666667, "is_reserved": 0, "fusion_lat": 0.0, "type": "electric_scooter"}, {"fusion_lon": 0.0, "name": "c42a627eae45f935bb5ecaed8f81b7dc", "rental_uris": {"android": "https://dc.lft.to/lastmile_qr_scan", "ios": "https://dc.lft.to/lastmile_qr_scan"}, "lat": 38.900595833333334, "bike_id": "c42a627eae45f935bb5ecaed8f81b7dc", "is_disabled": 0, "lon": -77.0317445, "is_reserved": 0, "fusion_lat": 0.0, "type": "electric_scooter"}, {"fusion_lon": 0.0, "name": "3753aa0dabfcdc08ed90966244c181a7", "rental_uris": {"android": "https://dc.lft.to/lastmile_qr_scan", "ios": "https://dc.lft.to/lastmile_qr_scan"}, "lat": 38.902626, "bike_id": "3753aa0dabfcdc08ed90966244c181a7", "is_disabled": 0, "lon": -77.01759683333333, "is_reserved": 0, "fusion_lat": 0.0, "type": "electric_scooter"}, {"fusion_lon": 0.0, "name": "3117363bdf2b7ee8f9b612a742cfb69f", "rental_uris": {"android": "https://dc.lft.to/lastmile_qr_scan", "ios": "https://dc.lft.to/lastmile_qr_scan"}, "lat": 39.084900166666664, "bike_id": "3117363bdf2b7ee8f9b612a742cfb69f", "is_disabled": 0, "lon": -76.95052616666666, "is_reserved": 0, "fusion_lat": 0.0, "type": "electric_bike"}, {"fusion_lon": 0.0, "name": "d9e9e0311e7f7912aa07f00635b53056", "rental_uris": {"android": "https://dc.lft.to/lastmile_qr_scan", "ios": "https://dc.lft.to/lastmile_qr_scan"}, "lat": 38.88608516666667, "bike_id": "d9e9e0311e7f7912aa07f00635b53056", "is_disabled": 0, "lon": -77.00282766666666, "is_reserved": 0, "fusion_lat": 0.0, "type": "electric_scooter"}, {"fusion_lon": 0.0, "name": "bf498ac99df3dce5f0ae7a4e106f0294", "rental_uris": {"android": "https://dc.lft.to/lastmile_qr_scan", "ios": "https://dc.lft.to/lastmile_qr_scan"}, "lat": 38.876348, "bike_id": "bf498ac99df3dce5f0ae7a4e106f0294", "is_disabled": 0, "lon": -77.0158495, "is_reserved": 0, "fusion_lat": 0.0, "type": "electric_scooter"}, {"fusion_lon": 0.0, "name": "bd84cbdd175d9e2bb97774c0f4e4d661", "rental_uris": {"android": "https://dc.lft.to/lastmile_qr_scan", "ios": "https://dc.lft.to/lastmile_qr_scan"}, "lat": 38.9090675, "bike_id": "bd84cbdd175d9e2bb97774c0f4e4d661", "is_disabled": 0, "lon": -77.0726135, "is_reserved": 0, "fusion_lat": 0.0, "type": "electric_scooter"}, {"fusion_lon": 0.0, "name": "05f58985a410d12579c11727c061d3eb", "rental_uris": {"android": "https://dc.lft.to/lastmile_qr_scan", "ios": "https://dc.lft.to/lastmile_qr_scan"}, "lat": 38.93599666666667, "bike_id": "05f58985a410d12579c11727c061d3eb", "is_disabled": 0, "lon": -77.02111816666667, "is_reserved": 0, "fusion_lat": 0.0, "type": "electric_bike"}, {"fusion_lon": 0.0, "name": "a4b571040160ef091a851d408394df24", "rental_uris": {"android": "https://dc.lft.to/lastmile_qr_scan", "ios": "https://dc.lft.to/lastmile_qr_scan"}, "lat": 38.901362166666665, "bike_id": "a4b571040160ef091a851d408394df24", "is_disabled": 0, "lon": -77.0454615, "is_reserved": 0, "fusion_lat": 0.0, "type": "electric_scooter"}, {"fusion_lon": 0.0, "name": "f64e1c235ea22924f564607416f3e746", "rental_uris": {"android": "https://dc.lft.to/lastmile_qr_scan", "ios": "https://dc.lft.to/lastmile_qr_scan"}, "lat": 38.905511, "bike_id": "f64e1c235ea22924f564607416f3e746", "is_disabled": 0, "lon": -77.02605583333333, "is_reserved": 0, "fusion_lat": 0.0, "type": "electric_scooter"}, {"fusion_lon": 0.0, "name": "42ee2ab6d1a9439ec66220306d6b3ed9", "rental_uris": {"android": "https://dc.lft.to/lastmile_qr_scan", "ios": "https://dc.lft.to/lastmile_qr_scan"}, "lat": 38.931019, "bike_id": "42ee2ab6d1a9439ec66220306d6b3ed9", "is_disabled": 0, "lon": -77.02476466666667, "is_reserved": 0, "fusion_lat": 0.0, "type": "electric_scooter"}, {"fusion_lon": 0.0, "name": "d1d965d95476ad2ed11de137ad0e3522", "rental_uris": {"android": "https://dc.lft.to/lastmile_qr_scan", "ios": "https://dc.lft.to/lastmile_qr_scan"}, "lat": 38.909994, "bike_id": "d1d965d95476ad2ed11de137ad0e3522", "is_disabled": 0, "lon": -77.031958, "is_reserved": 0, "fusion_lat": 0.0, "type": "electric_scooter"}, {"fusion_lon": 0.0, "name": "e5a8e28694dcc9ae02aa012bd501e4cf", "rental_uris": {"android": "https://dc.lft.to/lastmile_qr_scan", "ios": "https://dc.lft.to/lastmile_qr_scan"}, "lat": 38.91122816666667, "bike_id": "e5a8e28694dcc9ae02aa012bd501e4cf", "is_disabled": 0, "lon": -77.038327, "is_reserved": 0, "fusion_lat": 0.0, "type": "electric_scooter"}, {"fusion_lon": 0.0, "name": "6f6dff12a9d4a1c10c19a75d5ba87263", "rental_uris": {"android": "https://dc.lft.to/lastmile_qr_scan", "ios": "https://dc.lft.to/lastmile_qr_scan"}, "lat": 38.91503983333333, "bike_id": "6f6dff12a9d4a1c10c19a75d5ba87263", "is_disabled": 0, "lon": -77.03213683333334, "is_reserved": 0, "fusion_lat": 0.0, "type": "electric_scooter"}, {"fusion_lon": 0.0, "name": "a9c5c1d859a9790e4ac402d8c056edb7", "rental_uris": {"android": "https://dc.lft.to/lastmile_qr_scan", "ios": "https://dc.lft.to/lastmile_qr_scan"}, "lat": 38.894103666666666, "bike_id": "a9c5c1d859a9790e4ac402d8c056edb7", "is_disabled": 0, "lon": -76.97892283333333, "is_reserved": 0, "fusion_lat": 0.0, "type": "electric_bike"}, {"fusion_lon": 0.0, "name": "46e7d2479c87a819b86853bbf69d08f8", "rental_uris": {"android": "https://dc.lft.to/lastmile_qr_scan", "ios": "https://dc.lft.to/lastmile_qr_scan"}, "lat": 38.892345666666664, "bike_id": "46e7d2479c87a819b86853bbf69d08f8", "is_disabled": 0, "lon": -77.03377083333334, "is_reserved": 0, "fusion_lat": 0.0, "type": "electric_scooter"}, {"fusion_lon": 0.0, "name": "4730b210276e3890341644dbd3ec7c96", "rental_uris": {"android": "https://dc.lft.to/lastmile_qr_scan", "ios": "https://dc.lft.to/lastmile_qr_scan"}, "lat": 38.88273733333333, "bike_id": "4730b210276e3890341644dbd3ec7c96", "is_disabled": 0, "lon": -76.93234683333333, "is_reserved": 0, "fusion_lat": 0.0, "type": "electric_bike"}, {"fusion_lon": 0.0, "name": "a56dd6142dfe83354d8456ebebdc8358", "rental_uris": {"android": "https://dc.lft.to/lastmile_qr_scan", "ios": "https://dc.lft.to/lastmile_qr_scan"}, "lat": 38.91403916666667, "bike_id": "a56dd6142dfe83354d8456ebebdc8358", "is_disabled": 0, "lon": -77.0220635, "is_reserved": 0, "fusion_lat": 0.0, "type": "electric_scooter"}, {"fusion_lon": 0.0, "name": "966b6e3be25406d5e07bb0c0c59681ad", "rental_uris": {"android": "https://dc.lft.to/lastmile_qr_scan", "ios": "https://dc.lft.to/lastmile_qr_scan"}, "lat": 38.896965, "bike_id": "966b6e3be25406d5e07bb0c0c59681ad", "is_disabled": 0, "lon": -77.04338283333334, "is_reserved": 0, "fusion_lat": 0.0, "type": "electric_scooter"}, {"fusion_lon": 0.0, "name": "880a925c52499a88cd4f5ce5a454b42d", "rental_uris": {"android": "https://dc.lft.to/lastmile_qr_scan", "ios": "https://dc.lft.to/lastmile_qr_scan"}, "lat": 38.92879583333333, "bike_id": "880a925c52499a88cd4f5ce5a454b42d", "is_disabled": 0, "lon": -77.033705, "is_reserved": 0, "fusion_lat": 0.0, "type": "electric_scooter"}, {"fusion_lon": 0.0, "name": "d0f6e30093a0294e743be17d3bdcbb83", "rental_uris": {"android": "https://dc.lft.to/lastmile_qr_scan", "ios": "https://dc.lft.to/lastmile_qr_scan"}, "lat": 38.89716583333333, "bike_id": "d0f6e30093a0294e743be17d3bdcbb83", "is_disabled": 0, "lon": -77.03206283333333, "is_reserved": 0, "fusion_lat": 0.0, "type": "electric_scooter"}, {"fusion_lon": 0.0, "name": "2ebc0a510c020d406aa6f7359f3c2a0f", "rental_uris": {"android": "https://dc.lft.to/lastmile_qr_scan", "ios": "https://dc.lft.to/lastmile_qr_scan"}, "lat": 38.900772, "bike_id": "2ebc0a510c020d406aa6f7359f3c2a0f", "is_disabled": 0, "lon": -76.988379, "is_reserved": 0, "fusion_lat": 0.0, "type": "electric_scooter"}, {"fusion_lon": 0.0, "name": "1c7e0fa1d82e141577a62474ff1b11c9", "rental_uris": {"android": "https://dc.lft.to/lastmile_qr_scan", "ios": "https://dc.lft.to/lastmile_qr_scan"}, "lat": 38.923038, "bike_id": "1c7e0fa1d82e141577a62474ff1b11c9", "is_disabled": 0, "lon": -77.0301995, "is_reserved": 0, "fusion_lat": 0.0, "type": "electric_scooter"}, {"fusion_lon": 0.0, "name": "61b7aa26c4c803de5dfd355a9c3274d7", "rental_uris": {"android": "https://dc.lft.to/lastmile_qr_scan", "ios": "https://dc.lft.to/lastmile_qr_scan"}, "lat": 38.941830333333336, "bike_id": "61b7aa26c4c803de5dfd355a9c3274d7", "is_disabled": 0, "lon": -77.03090033333334, "is_reserved": 0, "fusion_lat": 0.0, "type": "electric_scooter"}, {"fusion_lon": 0.0, "name": "dd1118e82ca1dff13e73ba9914f079c5", "rental_uris": {"android": "https://dc.lft.to/lastmile_qr_scan", "ios": "https://dc.lft.to/lastmile_qr_scan"}, "lat": 38.92398566666667, "bike_id": "dd1118e82ca1dff13e73ba9914f079c5", "is_disabled": 0, "lon": -76.99589616666667, "is_reserved": 0, "fusion_lat": 0.0, "type": "electric_scooter"}, {"fusion_lon": 0.0, "name": "1abb9c04ae367cc751af3249bf8e2e75", "rental_uris": {"android": "https://dc.lft.to/lastmile_qr_scan", "ios": "https://dc.lft.to/lastmile_qr_scan"}, "lat": 38.915637333333336, "bike_id": "1abb9c04ae367cc751af3249bf8e2e75", "is_disabled": 0, "lon": -77.0071895, "is_reserved": 0, "fusion_lat": 0.0, "type": "electric_scooter"}, {"fusion_lon": 0.0, "name": "57de5a95306d023ea35cc21868428eec", "rental_uris": {"android": "https://dc.lft.to/lastmile_qr_scan", "ios": "https://dc.lft.to/lastmile_qr_scan"}, "lat": 38.91887883333333, "bike_id": "57de5a95306d023ea35cc21868428eec", "is_disabled": 0, "lon": -77.0275625, "is_reserved": 0, "fusion_lat": 0.0, "type": "electric_scooter"}, {"fusion_lon": 0.0, "name": "78f242fd6b13c81c8c2497c46dcab1da", "rental_uris": {"android": "https://dc.lft.to/lastmile_qr_scan", "ios": "https://dc.lft.to/lastmile_qr_scan"}, "lat": 38.88025316666667, "bike_id": "78f242fd6b13c81c8c2497c46dcab1da", "is_disabled": 0, "lon": -76.94322233333334, "is_reserved": 0, "fusion_lat": 0.0, "type": "electric_scooter"}, {"fusion_lon": 0.0, "name": "76a0a01acbb9eca9e562a4e501ed8fe6", "rental_uris": {"android": "https://dc.lft.to/lastmile_qr_scan", "ios": "https://dc.lft.to/lastmile_qr_scan"}, "lat": 38.896865, "bike_id": "76a0a01acbb9eca9e562a4e501ed8fe6", "is_disabled": 0, "lon": -76.93666716666667, "is_reserved": 0, "fusion_lat": 0.0, "type": "electric_scooter"}, {"fusion_lon": 0.0, "name": "836a169e178bf2a64ffb8df85cf5fa60", "rental_uris": {"android": "https://dc.lft.to/lastmile_qr_scan", "ios": "https://dc.lft.to/lastmile_qr_scan"}, "lat": 38.90700483333333, "bike_id": "836a169e178bf2a64ffb8df85cf5fa60", "is_disabled": 0, "lon": -77.0343755, "is_reserved": 0, "fusion_lat": 0.0, "type": "electric_scooter"}, {"fusion_lon": 0.0, "name": "9addfc8300236f0a1f7a9a3d8eee50bc", "rental_uris": {"android": "https://dc.lft.to/lastmile_qr_scan", "ios": "https://dc.lft.to/lastmile_qr_scan"}, "lat": 38.80388766666667, "bike_id": "9addfc8300236f0a1f7a9a3d8eee50bc", "is_disabled": 0, "lon": -76.98813016666666, "is_reserved": 0, "fusion_lat": 0.0, "type": "electric_bike"}, {"fusion_lon": 0.0, "name": "0e4219c9dcdb613d0017541f74b6bf6f", "rental_uris": {"android": "https://dc.lft.to/lastmile_qr_scan", "ios": "https://dc.lft.to/lastmile_qr_scan"}, "lat": 38.90252, "bike_id": "0e4219c9dcdb613d0017541f74b6bf6f", "is_disabled": 0, "lon": -77.017547, "is_reserved": 0, "fusion_lat": 0.0, "type": "electric_scooter"}, {"fusion_lon": 0.0, "name": "4b6dc29c24a6ed943d5e4e5296db7a96", "rental_uris": {"android": "https://dc.lft.to/lastmile_qr_scan", "ios": "https://dc.lft.to/lastmile_qr_scan"}, "lat": 38.86574383333333, "bike_id": "4b6dc29c24a6ed943d5e4e5296db7a96", "is_disabled": 0, "lon": -76.97851283333333, "is_reserved": 0, "fusion_lat": 0.0, "type": "electric_scooter"}, {"fusion_lon": 0.0, "name": "24e93c497c1aa5f4420fd39e8ddeb673", "rental_uris": {"android": "https://dc.lft.to/lastmile_qr_scan", "ios": "https://dc.lft.to/lastmile_qr_scan"}, "lat": 38.913268333333335, "bike_id": "24e93c497c1aa5f4420fd39e8ddeb673", "is_disabled": 0, "lon": -77.04542416666666, "is_reserved": 0, "fusion_lat": 0.0, "type": "electric_scooter"}, {"fusion_lon": 0.0, "name": "4944163b2decc95d37b78b44bd6ea1f6", "rental_uris": {"android": "https://dc.lft.to/lastmile_qr_scan", "ios": "https://dc.lft.to/lastmile_qr_scan"}, "lat": 39.04235633333333, "bike_id": "4944163b2decc95d37b78b44bd6ea1f6", "is_disabled": 0, "lon": -76.99731033333333, "is_reserved": 0, "fusion_lat": 0.0, "type": "electric_bike"}, {"fusion_lon": 0.0, "name": "0aeb273389af3e6c67c5ca3bdbc46985", "rental_uris": {"android": "https://dc.lft.to/lastmile_qr_scan", "ios": "https://dc.lft.to/lastmile_qr_scan"}, "lat": 38.898422833333335, "bike_id": "0aeb273389af3e6c67c5ca3bdbc46985", "is_disabled": 0, "lon": -77.02493766666667, "is_reserved": 0, "fusion_lat": 0.0, "type": "electric_scooter"}, {"fusion_lon": 0.0, "name": "4bb2bf3bf23465c181512add75015e38", "rental_uris": {"android": "https://dc.lft.to/lastmile_qr_scan", "ios": "https://dc.lft.to/lastmile_qr_scan"}, "lat": 38.85873183333333, "bike_id": "4bb2bf3bf23465c181512add75015e38", "is_disabled": 0, "lon": -76.990435, "is_reserved": 0, "fusion_lat": 0.0, "type": "electric_scooter"}, {"fusion_lon": 0.0, "name": "6d9da4d6ec288122758a277b7b0f4b76", "rental_uris": {"android": "https://dc.lft.to/lastmile_qr_scan", "ios": "https://dc.lft.to/lastmile_qr_scan"}, "lat": 38.97335266666666, "bike_id": "6d9da4d6ec288122758a277b7b0f4b76", "is_disabled": 0, "lon": -76.99587133333333, "is_reserved": 0, "fusion_lat": 0.0, "type": "electric_bike"}, {"fusion_lon": 0.0, "name": "2570c6b119b221b07455e19ab4984783", "rental_uris": {"android": "https://dc.lft.to/lastmile_qr_scan", "ios": "https://dc.lft.to/lastmile_qr_scan"}, "lat": 38.91174616666667, "bike_id": "2570c6b119b221b07455e19ab4984783", "is_disabled": 0, "lon": -77.041431, "is_reserved": 0, "fusion_lat": 0.0, "type": "electric_scooter"}, {"fusion_lon": 0.0, "name": "fcca94af0769471ee16a5d91a10c33d9", "rental_uris": {"android": "https://dc.lft.to/lastmile_qr_scan", "ios": "https://dc.lft.to/lastmile_qr_scan"}, "lat": 38.89225833333333, "bike_id": "fcca94af0769471ee16a5d91a10c33d9", "is_disabled": 0, "lon": -77.04336433333333, "is_reserved": 0, "fusion_lat": 0.0, "type": "electric_scooter"}, {"fusion_lon": 0.0, "name": "e7e696625d359629f4db79a54a878ea9", "rental_uris": {"android": "https://dc.lft.to/lastmile_qr_scan", "ios": "https://dc.lft.to/lastmile_qr_scan"}, "lat": 38.903868333333335, "bike_id": "e7e696625d359629f4db79a54a878ea9", "is_disabled": 0, "lon": -77.0163615, "is_reserved": 0, "fusion_lat": 0.0, "type": "electric_scooter"}, {"fusion_lon": 0.0, "name": "4df0e5b538adce39802179c5299b947e", "rental_uris": {"android": "https://dc.lft.to/lastmile_qr_scan", "ios": "https://dc.lft.to/lastmile_qr_scan"}, "lat": 38.90054633333333, "bike_id": "4df0e5b538adce39802179c5299b947e", "is_disabled": 0, "lon": -76.98485416666666, "is_reserved": 0, "fusion_lat": 0.0, "type": "electric_scooter"}, {"fusion_lon": 0.0, "name": "2cb244a34b5adc287d73e40c02a3dc7a", "rental_uris": {"android": "https://dc.lft.to/lastmile_qr_scan", "ios": "https://dc.lft.to/lastmile_qr_scan"}, "lat": 38.91112366666667, "bike_id": "2cb244a34b5adc287d73e40c02a3dc7a", "is_disabled": 0, "lon": -77.00397633333333, "is_reserved": 0, "fusion_lat": 0.0, "type": "electric_scooter"}, {"fusion_lon": 0.0, "name": "eb4d6e0ccabc0bd2190c1410ea2ec0c1", "rental_uris": {"android": "https://dc.lft.to/lastmile_qr_scan", "ios": "https://dc.lft.to/lastmile_qr_scan"}, "lat": 38.901449, "bike_id": "eb4d6e0ccabc0bd2190c1410ea2ec0c1", "is_disabled": 0, "lon": -77.04663883333333, "is_reserved": 0, "fusion_lat": 0.0, "type": "electric_scooter"}, {"fusion_lon": 0.0, "name": "b12f5b0c47cb72a13bc10a4003662b25", "rental_uris": {"android": "https://dc.lft.to/lastmile_qr_scan", "ios": "https://dc.lft.to/lastmile_qr_scan"}, "lat": 38.909158, "bike_id": "b12f5b0c47cb72a13bc10a4003662b25", "is_disabled": 0, "lon": -77.023084, "is_reserved": 0, "fusion_lat": 0.0, "type": "electric_scooter"}, {"fusion_lon": 0.0, "name": "848251156fb6a99d9a27d59571190c1a", "rental_uris": {"android": "https://dc.lft.to/lastmile_qr_scan", "ios": "https://dc.lft.to/lastmile_qr_scan"}, "lat": 38.9205565, "bike_id": "848251156fb6a99d9a27d59571190c1a", "is_disabled": 0, "lon": -76.98427633333333, "is_reserved": 0, "fusion_lat": 0.0, "type": "electric_scooter"}, {"fusion_lon": 0.0, "name": "1bb01cde7951e369013ad2739627d306", "rental_uris": {"android": "https://dc.lft.to/lastmile_qr_scan", "ios": "https://dc.lft.to/lastmile_qr_scan"}, "lat": 38.90139216666667, "bike_id": "1bb01cde7951e369013ad2739627d306", "is_disabled": 0, "lon": -76.989651, "is_reserved": 0, "fusion_lat": 0.0, "type": "electric_scooter"}, {"fusion_lon": 0.0, "name": "f3165e69d6ef7887757eaea412d931ac", "rental_uris": {"android": "https://dc.lft.to/lastmile_qr_scan", "ios": "https://dc.lft.to/lastmile_qr_scan"}, "lat": 38.91626333333333, "bike_id": "f3165e69d6ef7887757eaea412d931ac", "is_disabled": 0, "lon": -77.035002, "is_reserved": 0, "fusion_lat": 0.0, "type": "electric_scooter"}, {"fusion_lon": 0.0, "name": "71ed41f0c179891aec12fd6cc5436a9f", "rental_uris": {"android": "https://dc.lft.to/lastmile_qr_scan", "ios": "https://dc.lft.to/lastmile_qr_scan"}, "lat": 38.895638166666664, "bike_id": "71ed41f0c179891aec12fd6cc5436a9f", "is_disabled": 0, "lon": -77.021611, "is_reserved": 0, "fusion_lat": 0.0, "type": "electric_bike"}, {"fusion_lon": 0.0, "name": "d5a03c45c48b9491473fa1b2a7cf4828", "rental_uris": {"android": "https://dc.lft.to/lastmile_qr_scan", "ios": "https://dc.lft.to/lastmile_qr_scan"}, "lat": 38.87845883333333, "bike_id": "d5a03c45c48b9491473fa1b2a7cf4828", "is_disabled": 0, "lon": -77.019673, "is_reserved": 0, "fusion_lat": 0.0, "type": "electric_scooter"}, {"fusion_lon": 0.0, "name": "405d31d87c943fb0041b9e4f36e323ee", "rental_uris": {"android": "https://dc.lft.to/lastmile_qr_scan", "ios": "https://dc.lft.to/lastmile_qr_scan"}, "lat": 38.8928145, "bike_id": "405d31d87c943fb0041b9e4f36e323ee", "is_disabled": 0, "lon": -77.0500555, "is_reserved": 0, "fusion_lat": 0.0, "type": "electric_bike"}, {"fusion_lon": 0.0, "name": "f3cb628c048770174b7abdf1cd0838b0", "rental_uris": {"android": "https://dc.lft.to/lastmile_qr_scan", "ios": "https://dc.lft.to/lastmile_qr_scan"}, "lat": 38.91003583333333, "bike_id": "f3cb628c048770174b7abdf1cd0838b0", "is_disabled": 0, "lon": -77.031952, "is_reserved": 0, "fusion_lat": 0.0, "type": "electric_scooter"}, {"fusion_lon": 0.0, "name": "14ed645d5097c26a792aa14cdf787ee0", "rental_uris": {"android": "https://dc.lft.to/lastmile_qr_scan", "ios": "https://dc.lft.to/lastmile_qr_scan"}, "lat": 38.8945965, "bike_id": "14ed645d5097c26a792aa14cdf787ee0", "is_disabled": 0, "lon": -77.191308, "is_reserved": 0, "fusion_lat": 0.0, "type": "electric_bike"}, {"fusion_lon": 0.0, "name": "c24910fe18355fd46da0efba73bc0a33", "rental_uris": {"android": "https://dc.lft.to/lastmile_qr_scan", "ios": "https://dc.lft.to/lastmile_qr_scan"}, "lat": 38.889901333333334, "bike_id": "c24910fe18355fd46da0efba73bc0a33", "is_disabled": 0, "lon": -76.921089, "is_reserved": 0, "fusion_lat": 0.0, "type": "electric_scooter"}, {"fusion_lon": 0.0, "name": "2199ef898f513c7effce2f1bce8d5c38", "rental_uris": {"android": "https://dc.lft.to/lastmile_qr_scan", "ios": "https://dc.lft.to/lastmile_qr_scan"}, "lat": 38.89887083333333, "bike_id": "2199ef898f513c7effce2f1bce8d5c38", "is_disabled": 0, "lon": -76.93173783333333, "is_reserved": 0, "fusion_lat": 0.0, "type": "electric_scooter"}, {"fusion_lon": 0.0, "name": "c3ae51d2ab03c55cd57be8f37081ebc2", "rental_uris": {"android": "https://dc.lft.to/lastmile_qr_scan", "ios": "https://dc.lft.to/lastmile_qr_scan"}, "lat": 38.92751966666667, "bike_id": "c3ae51d2ab03c55cd57be8f37081ebc2", "is_disabled": 0, "lon": -77.02962383333333, "is_reserved": 0, "fusion_lat": 0.0, "type": "electric_scooter"}, {"fusion_lon": 0.0, "name": "75a1a93aab6f50231b92aa9750aaab10", "rental_uris": {"android": "https://dc.lft.to/lastmile_qr_scan", "ios": "https://dc.lft.to/lastmile_qr_scan"}, "lat": 38.92810766666667, "bike_id": "75a1a93aab6f50231b92aa9750aaab10", "is_disabled": 0, "lon": -77.019485, "is_reserved": 0, "fusion_lat": 0.0, "type": "electric_scooter"}, {"fusion_lon": 0.0, "name": "28ed254dc76abcb9ab1527df7b51688e", "rental_uris": {"android": "https://dc.lft.to/lastmile_qr_scan", "ios": "https://dc.lft.to/lastmile_qr_scan"}, "lat": 38.919135833333335, "bike_id": "28ed254dc76abcb9ab1527df7b51688e", "is_disabled": 0, "lon": -77.04466666666667, "is_reserved": 0, "fusion_lat": 0.0, "type": "electric_scooter"}, {"fusion_lon": 0.0, "name": "ad5a5cb237964067504a159632f6ec23", "rental_uris": {"android": "https://dc.lft.to/lastmile_qr_scan", "ios": "https://dc.lft.to/lastmile_qr_scan"}, "lat": 38.90568366666667, "bike_id": "ad5a5cb237964067504a159632f6ec23", "is_disabled": 0, "lon": -77.03078683333334, "is_reserved": 0, "fusion_lat": 0.0, "type": "electric_scooter"}, {"fusion_lon": 0.0, "name": "c6487daf215639fa2dd0fb7974ebb7c5", "rental_uris": {"android": "https://dc.lft.to/lastmile_qr_scan", "ios": "https://dc.lft.to/lastmile_qr_scan"}, "lat": 38.92636916666667, "bike_id": "c6487daf215639fa2dd0fb7974ebb7c5", "is_disabled": 0, "lon": -77.0370865, "is_reserved": 0, "fusion_lat": 0.0, "type": "electric_scooter"}, {"fusion_lon": 0.0, "name": "2b5078ccfbbc055578b203a91ddf0cd8", "rental_uris": {"android": "https://dc.lft.to/lastmile_qr_scan", "ios": "https://dc.lft.to/lastmile_qr_scan"}, "lat": 38.88732316666667, "bike_id": "2b5078ccfbbc055578b203a91ddf0cd8", "is_disabled": 0, "lon": -77.01342966666667, "is_reserved": 0, "fusion_lat": 0.0, "type": "electric_scooter"}, {"fusion_lon": 0.0, "name": "ae7025c291312a47ce1972ae098dbf69", "rental_uris": {"android": "https://dc.lft.to/lastmile_qr_scan", "ios": "https://dc.lft.to/lastmile_qr_scan"}, "lat": 38.90069033333333, "bike_id": "ae7025c291312a47ce1972ae098dbf69", "is_disabled": 0, "lon": -77.04891033333334, "is_reserved": 0, "fusion_lat": 0.0, "type": "electric_scooter"}, {"fusion_lon": 0.0, "name": "90f77aea51a1df8ad73d2f3b5f432b11", "rental_uris": {"android": "https://dc.lft.to/lastmile_qr_scan", "ios": "https://dc.lft.to/lastmile_qr_scan"}, "lat": 38.9034845, "bike_id": "90f77aea51a1df8ad73d2f3b5f432b11", "is_disabled": 0, "lon": -77.019081, "is_reserved": 0, "fusion_lat": 0.0, "type": "electric_scooter"}, {"fusion_lon": 0.0, "name": "b0666b05da24fc4d9f82eb291f6cb55d", "rental_uris": {"android": "https://dc.lft.to/lastmile_qr_scan", "ios": "https://dc.lft.to/lastmile_qr_scan"}, "lat": 38.919235666666665, "bike_id": "b0666b05da24fc4d9f82eb291f6cb55d", "is_disabled": 0, "lon": -77.03420983333334, "is_reserved": 0, "fusion_lat": 0.0, "type": "electric_scooter"}, {"fusion_lon": 0.0, "name": "a218239042c6fb798495df031ea20379", "rental_uris": {"android": "https://dc.lft.to/lastmile_qr_scan", "ios": "https://dc.lft.to/lastmile_qr_scan"}, "lat": 38.92247866666666, "bike_id": "a218239042c6fb798495df031ea20379", "is_disabled": 0, "lon": -77.0436555, "is_reserved": 0, "fusion_lat": 0.0, "type": "electric_scooter"}, {"fusion_lon": 0.0, "name": "8ea542c2a726c28faf4d89d0bed1881c", "rental_uris": {"android": "https://dc.lft.to/lastmile_qr_scan", "ios": "https://dc.lft.to/lastmile_qr_scan"}, "lat": 38.90044616666667, "bike_id": "8ea542c2a726c28faf4d89d0bed1881c", "is_disabled": 0, "lon": -76.98555566666667, "is_reserved": 0, "fusion_lat": 0.0, "type": "electric_scooter"}, {"fusion_lon": 0.0, "name": "a6a56e56b6cfe06264fc6bc4c38e6494", "rental_uris": {"android": "https://dc.lft.to/lastmile_qr_scan", "ios": "https://dc.lft.to/lastmile_qr_scan"}, "lat": 38.935036833333335, "bike_id": "a6a56e56b6cfe06264fc6bc4c38e6494", "is_disabled": 0, "lon": -77.0200825, "is_reserved": 0, "fusion_lat": 0.0, "type": "electric_scooter"}, {"fusion_lon": 0.0, "name": "8f0b1084da0f682a305dda7093be68f1", "rental_uris": {"android": "https://dc.lft.to/lastmile_qr_scan", "ios": "https://dc.lft.to/lastmile_qr_scan"}, "lat": 38.90069916666667, "bike_id": "8f0b1084da0f682a305dda7093be68f1", "is_disabled": 0, "lon": -77.048942, "is_reserved": 0, "fusion_lat": 0.0, "type": "electric_scooter"}, {"fusion_lon": 0.0, "name": "d7a4db80897b0b290d2d35a194b564ed", "rental_uris": {"android": "https://dc.lft.to/lastmile_qr_scan", "ios": "https://dc.lft.to/lastmile_qr_scan"}, "lat": 38.903173333333335, "bike_id": "d7a4db80897b0b290d2d35a194b564ed", "is_disabled": 0, "lon": -77.01881783333333, "is_reserved": 0, "fusion_lat": 0.0, "type": "electric_scooter"}, {"fusion_lon": 0.0, "name": "0a7f907470af193c8374aa71833da481", "rental_uris": {"android": "https://dc.lft.to/lastmile_qr_scan", "ios": "https://dc.lft.to/lastmile_qr_scan"}, "lat": 38.89692016666667, "bike_id": "0a7f907470af193c8374aa71833da481", "is_disabled": 0, "lon": -77.04357483333334, "is_reserved": 0, "fusion_lat": 0.0, "type": "electric_scooter"}, {"fusion_lon": 0.0, "name": "91d8c81cc4ba4f57a04671b4b99a11e8", "rental_uris": {"android": "https://dc.lft.to/lastmile_qr_scan", "ios": "https://dc.lft.to/lastmile_qr_scan"}, "lat": 38.91418683333333, "bike_id": "91d8c81cc4ba4f57a04671b4b99a11e8", "is_disabled": 0, "lon": -77.01798416666666, "is_reserved": 0, "fusion_lat": 0.0, "type": "electric_scooter"}, {"fusion_lon": 0.0, "name": "9e17ccbdb6e392596e31e015f97f5f41", "rental_uris": {"android": "https://dc.lft.to/lastmile_qr_scan", "ios": "https://dc.lft.to/lastmile_qr_scan"}, "lat": 38.92268883333333, "bike_id": "9e17ccbdb6e392596e31e015f97f5f41", "is_disabled": 0, "lon": -77.019433, "is_reserved": 0, "fusion_lat": 0.0, "type": "electric_scooter"}, {"fusion_lon": 0.0, "name": "48e9491906d973e67f4594b9f6ab122c", "rental_uris": {"android": "https://dc.lft.to/lastmile_qr_scan", "ios": "https://dc.lft.to/lastmile_qr_scan"}, "lat": 38.92120583333333, "bike_id": "48e9491906d973e67f4594b9f6ab122c", "is_disabled": 0, "lon": -77.0365945, "is_reserved": 0, "fusion_lat": 0.0, "type": "electric_scooter"}, {"fusion_lon": 0.0, "name": "f7ec601ecabb513fabdc2b0a23205f3b", "rental_uris": {"android": "https://dc.lft.to/lastmile_qr_scan", "ios": "https://dc.lft.to/lastmile_qr_scan"}, "lat": 38.935582833333335, "bike_id": "f7ec601ecabb513fabdc2b0a23205f3b", "is_disabled": 0, "lon": -77.03487283333334, "is_reserved": 0, "fusion_lat": 0.0, "type": "electric_scooter"}, {"fusion_lon": 0.0, "name": "2e021ce9056155e3b9a337a7ff7e23e6", "rental_uris": {"android": "https://dc.lft.to/lastmile_qr_scan", "ios": "https://dc.lft.to/lastmile_qr_scan"}, "lat": 38.929236, "bike_id": "2e021ce9056155e3b9a337a7ff7e23e6", "is_disabled": 0, "lon": -76.998173, "is_reserved": 0, "fusion_lat": 0.0, "type": "electric_scooter"}, {"fusion_lon": 0.0, "name": "9203281d4270787cdef6b3de341f9e76", "rental_uris": {"android": "https://dc.lft.to/lastmile_qr_scan", "ios": "https://dc.lft.to/lastmile_qr_scan"}, "lat": 38.880385833333335, "bike_id": "9203281d4270787cdef6b3de341f9e76", "is_disabled": 0, "lon": -77.00368166666667, "is_reserved": 0, "fusion_lat": 0.0, "type": "electric_scooter"}, {"fusion_lon": 0.0, "name": "484485e711c47811d1e1781d3ae58cfc", "rental_uris": {"android": "https://dc.lft.to/lastmile_qr_scan", "ios": "https://dc.lft.to/lastmile_qr_scan"}, "lat": 38.93638116666666, "bike_id": "484485e711c47811d1e1781d3ae58cfc", "is_disabled": 0, "lon": -77.03264, "is_reserved": 0, "fusion_lat": 0.0, "type": "electric_scooter"}, {"fusion_lon": 0.0, "name": "f236396cca233d2284677e676a06045f", "rental_uris": {"android": "https://dc.lft.to/lastmile_qr_scan", "ios": "https://dc.lft.to/lastmile_qr_scan"}, "lat": 38.895435666666664, "bike_id": "f236396cca233d2284677e676a06045f", "is_disabled": 0, "lon": -76.98335066666667, "is_reserved": 0, "fusion_lat": 0.0, "type": "electric_scooter"}, {"fusion_lon": 0.0, "name": "59ad4ee164ff1544e9a6337818a0dd4c", "rental_uris": {"android": "https://dc.lft.to/lastmile_qr_scan", "ios": "https://dc.lft.to/lastmile_qr_scan"}, "lat": 38.9028, "bike_id": "59ad4ee164ff1544e9a6337818a0dd4c", "is_disabled": 0, "lon": -77.017329, "is_reserved": 0, "fusion_lat": 0.0, "type": "electric_scooter"}, {"fusion_lon": 0.0, "name": "3d4292bb096e50034b4a4a2556abd4b5", "rental_uris": {"android": "https://dc.lft.to/lastmile_qr_scan", "ios": "https://dc.lft.to/lastmile_qr_scan"}, "lat": 38.91917633333333, "bike_id": "3d4292bb096e50034b4a4a2556abd4b5", "is_disabled": 0, "lon": -77.03425266666666, "is_reserved": 0, "fusion_lat": 0.0, "type": "electric_scooter"}, {"fusion_lon": 0.0, "name": "0d426cd68c9632498c27256b610f6a20", "rental_uris": {"android": "https://dc.lft.to/lastmile_qr_scan", "ios": "https://dc.lft.to/lastmile_qr_scan"}, "lat": 38.90766566666667, "bike_id": "0d426cd68c9632498c27256b610f6a20", "is_disabled": 0, "lon": -77.0597865, "is_reserved": 0, "fusion_lat": 0.0, "type": "electric_scooter"}, {"fusion_lon": 0.0, "name": "8a3119892f1aed6845b20f43a87127a1", "rental_uris": {"android": "https://dc.lft.to/lastmile_qr_scan", "ios": "https://dc.lft.to/lastmile_qr_scan"}, "lat": 38.924798833333334, "bike_id": "8a3119892f1aed6845b20f43a87127a1", "is_disabled": 0, "lon": -77.03824966666667, "is_reserved": 0, "fusion_lat": 0.0, "type": "electric_scooter"}, {"fusion_lon": 0.0, "name": "0b59f480a79f48f550edeef992318ce4", "rental_uris": {"android": "https://dc.lft.to/lastmile_qr_scan", "ios": "https://dc.lft.to/lastmile_qr_scan"}, "lat": 38.917143, "bike_id": "0b59f480a79f48f550edeef992318ce4", "is_disabled": 0, "lon": -77.03863733333333, "is_reserved": 0, "fusion_lat": 0.0, "type": "electric_scooter"}, {"fusion_lon": 0.0, "name": "f04416c741d137bccf7e7896a187dddf", "rental_uris": {"android": "https://dc.lft.to/lastmile_qr_scan", "ios": "https://dc.lft.to/lastmile_qr_scan"}, "lat": 38.94465116666667, "bike_id": "f04416c741d137bccf7e7896a187dddf", "is_disabled": 0, "lon": -77.06389566666667, "is_reserved": 0, "fusion_lat": 0.0, "type": "electric_scooter"}, {"fusion_lon": 0.0, "name": "2559328e9496733fb6dc75f81882aa08", "rental_uris": {"android": "https://dc.lft.to/lastmile_qr_scan", "ios": "https://dc.lft.to/lastmile_qr_scan"}, "lat": 38.94174983333333, "bike_id": "2559328e9496733fb6dc75f81882aa08", "is_disabled": 0, "lon": -77.0234155, "is_reserved": 0, "fusion_lat": 0.0, "type": "electric_scooter"}, {"fusion_lon": 0.0, "name": "10d8a20157d4fd007e22c478a39d4250", "rental_uris": {"android": "https://dc.lft.to/lastmile_qr_scan", "ios": "https://dc.lft.to/lastmile_qr_scan"}, "lat": 38.923186, "bike_id": "10d8a20157d4fd007e22c478a39d4250", "is_disabled": 0, "lon": -77.0404205, "is_reserved": 0, "fusion_lat": 0.0, "type": "electric_scooter"}, {"fusion_lon": 0.0, "name": "441c522060ff889074491999d900ad8e", "rental_uris": {"android": "https://dc.lft.to/lastmile_qr_scan", "ios": "https://dc.lft.to/lastmile_qr_scan"}, "lat": 38.898862666666666, "bike_id": "441c522060ff889074491999d900ad8e", "is_disabled": 0, "lon": -76.988304, "is_reserved": 0, "fusion_lat": 0.0, "type": "electric_scooter"}, {"fusion_lon": 0.0, "name": "d61685906c756e965a56e2c5dc37592f", "rental_uris": {"android": "https://dc.lft.to/lastmile_qr_scan", "ios": "https://dc.lft.to/lastmile_qr_scan"}, "lat": 38.9245745, "bike_id": "d61685906c756e965a56e2c5dc37592f", "is_disabled": 0, "lon": -77.032868, "is_reserved": 0, "fusion_lat": 0.0, "type": "electric_scooter"}, {"fusion_lon": 0.0, "name": "bdbf26d2a79afb210ad7b50e685d6fdb", "rental_uris": {"android": "https://dc.lft.to/lastmile_qr_scan", "ios": "https://dc.lft.to/lastmile_qr_scan"}, "lat": 38.87763833333333, "bike_id": "bdbf26d2a79afb210ad7b50e685d6fdb", "is_disabled": 0, "lon": -77.01199633333333, "is_reserved": 0, "fusion_lat": 0.0, "type": "electric_bike"}, {"fusion_lon": 0.0, "name": "a944316cc27d17c02f206251f4cd3b67", "rental_uris": {"android": "https://dc.lft.to/lastmile_qr_scan", "ios": "https://dc.lft.to/lastmile_qr_scan"}, "lat": 38.918445, "bike_id": "a944316cc27d17c02f206251f4cd3b67", "is_disabled": 0, "lon": -77.0386135, "is_reserved": 0, "fusion_lat": 0.0, "type": "electric_scooter"}, {"fusion_lon": 0.0, "name": "234bff1bf9b181b740f2b1a87b4bf759", "rental_uris": {"android": "https://dc.lft.to/lastmile_qr_scan", "ios": "https://dc.lft.to/lastmile_qr_scan"}, "lat": 38.910077, "bike_id": "234bff1bf9b181b740f2b1a87b4bf759", "is_disabled": 0, "lon": -76.994008, "is_reserved": 0, "fusion_lat": 0.0, "type": "electric_scooter"}, {"fusion_lon": 0.0, "name": "d0a3c164adacb72af4d5b855285bea22", "rental_uris": {"android": "https://dc.lft.to/lastmile_qr_scan", "ios": "https://dc.lft.to/lastmile_qr_scan"}, "lat": 38.91589333333334, "bike_id": "d0a3c164adacb72af4d5b855285bea22", "is_disabled": 0, "lon": -77.04476116666666, "is_reserved": 0, "fusion_lat": 0.0, "type": "electric_scooter"}, {"fusion_lon": 0.0, "name": "271f776f4ed5e3accc2739f0e39cf24d", "rental_uris": {"android": "https://dc.lft.to/lastmile_qr_scan", "ios": "https://dc.lft.to/lastmile_qr_scan"}, "lat": 38.905248, "bike_id": "271f776f4ed5e3accc2739f0e39cf24d", "is_disabled": 0, "lon": -77.06099733333333, "is_reserved": 0, "fusion_lat": 0.0, "type": "electric_scooter"}, {"fusion_lon": 0.0, "name": "e839f6c24374c7503b9d9cf196c95f9e", "rental_uris": {"android": "https://dc.lft.to/lastmile_qr_scan", "ios": "https://dc.lft.to/lastmile_qr_scan"}, "lat": 38.888347, "bike_id": "e839f6c24374c7503b9d9cf196c95f9e", "is_disabled": 0, "lon": -76.986851, "is_reserved": 0, "fusion_lat": 0.0, "type": "electric_scooter"}, {"fusion_lon": 0.0, "name": "e8ac412c252be91e851e7136b270702a", "rental_uris": {"android": "https://dc.lft.to/lastmile_qr_scan", "ios": "https://dc.lft.to/lastmile_qr_scan"}, "lat": 38.91696833333334, "bike_id": "e8ac412c252be91e851e7136b270702a", "is_disabled": 0, "lon": -77.04335866666666, "is_reserved": 0, "fusion_lat": 0.0, "type": "electric_scooter"}, {"fusion_lon": 0.0, "name": "296a5de89852fea7f4703d482a2af13e", "rental_uris": {"android": "https://dc.lft.to/lastmile_qr_scan", "ios": "https://dc.lft.to/lastmile_qr_scan"}, "lat": 38.91924483333333, "bike_id": "296a5de89852fea7f4703d482a2af13e", "is_disabled": 0, "lon": -77.0116865, "is_reserved": 0, "fusion_lat": 0.0, "type": "electric_scooter"}, {"fusion_lon": 0.0, "name": "c9e4c205fae5af848b75d0a30cf88dab", "rental_uris": {"android": "https://dc.lft.to/lastmile_qr_scan", "ios": "https://dc.lft.to/lastmile_qr_scan"}, "lat": 38.92688866666667, "bike_id": "c9e4c205fae5af848b75d0a30cf88dab", "is_disabled": 0, "lon": -77.03238733333333, "is_reserved": 0, "fusion_lat": 0.0, "type": "electric_scooter"}, {"fusion_lon": 0.0, "name": "820ed6edfa79942b36ed4e13030bd19a", "rental_uris": {"android": "https://dc.lft.to/lastmile_qr_scan", "ios": "https://dc.lft.to/lastmile_qr_scan"}, "lat": 38.92031216666667, "bike_id": "820ed6edfa79942b36ed4e13030bd19a", "is_disabled": 0, "lon": -77.028035, "is_reserved": 0, "fusion_lat": 0.0, "type": "electric_scooter"}, {"fusion_lon": 0.0, "name": "b02dcd8e8c890355811e9f052dcf1c3b", "rental_uris": {"android": "https://dc.lft.to/lastmile_qr_scan", "ios": "https://dc.lft.to/lastmile_qr_scan"}, "lat": 38.903293166666664, "bike_id": "b02dcd8e8c890355811e9f052dcf1c3b", "is_disabled": 0, "lon": -76.97531983333333, "is_reserved": 0, "fusion_lat": 0.0, "type": "electric_bike"}, {"fusion_lon": 0.0, "name": "ab0803a93a526567f97b85d1e6533209", "rental_uris": {"android": "https://dc.lft.to/lastmile_qr_scan", "ios": "https://dc.lft.to/lastmile_qr_scan"}, "lat": 38.895057333333334, "bike_id": "ab0803a93a526567f97b85d1e6533209", "is_disabled": 0, "lon": -76.934744, "is_reserved": 0, "fusion_lat": 0.0, "type": "electric_scooter"}, {"fusion_lon": 0.0, "name": "c37c3ddf575e0da93ef40c2e75f9cc31", "rental_uris": {"android": "https://dc.lft.to/lastmile_qr_scan", "ios": "https://dc.lft.to/lastmile_qr_scan"}, "lat": 38.90745366666667, "bike_id": "c37c3ddf575e0da93ef40c2e75f9cc31", "is_disabled": 0, "lon": -76.98344683333333, "is_reserved": 0, "fusion_lat": 0.0, "type": "electric_scooter"}, {"fusion_lon": 0.0, "name": "8fbe1b8554bfe832c19753180f0136c8", "rental_uris": {"android": "https://dc.lft.to/lastmile_qr_scan", "ios": "https://dc.lft.to/lastmile_qr_scan"}, "lat": 38.88899683333333, "bike_id": "8fbe1b8554bfe832c19753180f0136c8", "is_disabled": 0, "lon": -76.95229733333333, "is_reserved": 0, "fusion_lat": 0.0, "type": "electric_scooter"}, {"fusion_lon": 0.0, "name": "5ec6d21e5f9277eb35041ef6470989b6", "rental_uris": {"android": "https://dc.lft.to/lastmile_qr_scan", "ios": "https://dc.lft.to/lastmile_qr_scan"}, "lat": 38.9014085, "bike_id": "5ec6d21e5f9277eb35041ef6470989b6", "is_disabled": 0, "lon": -76.9896005, "is_reserved": 0, "fusion_lat": 0.0, "type": "electric_scooter"}, {"fusion_lon": 0.0, "name": "92bea8dc874c472b5b063da8c690f15a", "rental_uris": {"android": "https://dc.lft.to/lastmile_qr_scan", "ios": "https://dc.lft.to/lastmile_qr_scan"}, "lat": 38.8744975, "bike_id": "92bea8dc874c472b5b063da8c690f15a", "is_disabled": 0, "lon": -77.00035966666667, "is_reserved": 0, "fusion_lat": 0.0, "type": "electric_scooter"}, {"fusion_lon": 0.0, "name": "a39b6f1faf5734c6a6def380c4449446", "rental_uris": {"android": "https://dc.lft.to/lastmile_qr_scan", "ios": "https://dc.lft.to/lastmile_qr_scan"}, "lat": 38.924344, "bike_id": "a39b6f1faf5734c6a6def380c4449446", "is_disabled": 0, "lon": -77.0032095, "is_reserved": 0, "fusion_lat": 0.0, "type": "electric_scooter"}, {"fusion_lon": 0.0, "name": "4f25599e823a66904eaf861cf6da40eb", "rental_uris": {"android": "https://dc.lft.to/lastmile_qr_scan", "ios": "https://dc.lft.to/lastmile_qr_scan"}, "lat": 38.8656565, "bike_id": "4f25599e823a66904eaf861cf6da40eb", "is_disabled": 0, "lon": -76.97841116666666, "is_reserved": 0, "fusion_lat": 0.0, "type": "electric_scooter"}, {"fusion_lon": 0.0, "name": "a8a2f8ef5176e261cd846b9544f02f8c", "rental_uris": {"android": "https://dc.lft.to/lastmile_qr_scan", "ios": "https://dc.lft.to/lastmile_qr_scan"}, "lat": 38.90729316666667, "bike_id": "a8a2f8ef5176e261cd846b9544f02f8c", "is_disabled": 0, "lon": -77.03214283333334, "is_reserved": 0, "fusion_lat": 0.0, "type": "electric_scooter"}, {"fusion_lon": 0.0, "name": "b61c1292f94bef06fbc3549f0acff29d", "rental_uris": {"android": "https://dc.lft.to/lastmile_qr_scan", "ios": "https://dc.lft.to/lastmile_qr_scan"}, "lat": 38.924442166666665, "bike_id": "b61c1292f94bef06fbc3549f0acff29d", "is_disabled": 0, "lon": -77.04030083333333, "is_reserved": 0, "fusion_lat": 0.0, "type": "electric_scooter"}, {"fusion_lon": 0.0, "name": "0a966af046b75afb4b8006e2a90dcad8", "rental_uris": {"android": "https://dc.lft.to/lastmile_qr_scan", "ios": "https://dc.lft.to/lastmile_qr_scan"}, "lat": 38.89737983333333, "bike_id": "0a966af046b75afb4b8006e2a90dcad8", "is_disabled": 0, "lon": -77.02496016666667, "is_reserved": 0, "fusion_lat": 0.0, "type": "electric_scooter"}, {"fusion_lon": 0.0, "name": "85a39d1d76b7c249b09c5b00b6fd7508", "rental_uris": {"android": "https://dc.lft.to/lastmile_qr_scan", "ios": "https://dc.lft.to/lastmile_qr_scan"}, "lat": 38.931036166666665, "bike_id": "85a39d1d76b7c249b09c5b00b6fd7508", "is_disabled": 0, "lon": -77.02475683333333, "is_reserved": 0, "fusion_lat": 0.0, "type": "electric_scooter"}, {"fusion_lon": 0.0, "name": "d81aca1ab5ece273fd168f360d629413", "rental_uris": {"android": "https://dc.lft.to/lastmile_qr_scan", "ios": "https://dc.lft.to/lastmile_qr_scan"}, "lat": 38.915524166666664, "bike_id": "d81aca1ab5ece273fd168f360d629413", "is_disabled": 0, "lon": -77.03512166666667, "is_reserved": 0, "fusion_lat": 0.0, "type": "electric_scooter"}, {"fusion_lon": 0.0, "name": "3c3990738306aa345bb941edfb6a8c03", "rental_uris": {"android": "https://dc.lft.to/lastmile_qr_scan", "ios": "https://dc.lft.to/lastmile_qr_scan"}, "lat": 38.925031833333335, "bike_id": "3c3990738306aa345bb941edfb6a8c03", "is_disabled": 0, "lon": -77.076471, "is_reserved": 0, "fusion_lat": 0.0, "type": "electric_scooter"}, {"fusion_lon": 0.0, "name": "86e67de401b9803a63afa52b8d66264a", "rental_uris": {"android": "https://dc.lft.to/lastmile_qr_scan", "ios": "https://dc.lft.to/lastmile_qr_scan"}, "lat": 38.886236, "bike_id": "86e67de401b9803a63afa52b8d66264a", "is_disabled": 0, "lon": -77.032146, "is_reserved": 0, "fusion_lat": 0.0, "type": "electric_scooter"}, {"fusion_lon": 0.0, "name": "353e276fcb269ba31063315d9bb96da9", "rental_uris": {"android": "https://dc.lft.to/lastmile_qr_scan", "ios": "https://dc.lft.to/lastmile_qr_scan"}, "lat": 38.956029666666666, "bike_id": "353e276fcb269ba31063315d9bb96da9", "is_disabled": 0, "lon": -76.96476083333333, "is_reserved": 0, "fusion_lat": 0.0, "type": "electric_bike"}, {"fusion_lon": 0.0, "name": "3805d094328af5ae0de14b914726f20a", "rental_uris": {"android": "https://dc.lft.to/lastmile_qr_scan", "ios": "https://dc.lft.to/lastmile_qr_scan"}, "lat": 38.9141535, "bike_id": "3805d094328af5ae0de14b914726f20a", "is_disabled": 0, "lon": -77.04073183333334, "is_reserved": 0, "fusion_lat": 0.0, "type": "electric_scooter"}, {"fusion_lon": 0.0, "name": "977d83b75a91d13d2185af203c2b6983", "rental_uris": {"android": "https://dc.lft.to/lastmile_qr_scan", "ios": "https://dc.lft.to/lastmile_qr_scan"}, "lat": 38.93910066666667, "bike_id": "977d83b75a91d13d2185af203c2b6983", "is_disabled": 0, "lon": -77.06041316666666, "is_reserved": 0, "fusion_lat": 0.0, "type": "electric_scooter"}, {"fusion_lon": 0.0, "name": "b5721e3f08fdfde6d3e4294693505c4f", "rental_uris": {"android": "https://dc.lft.to/lastmile_qr_scan", "ios": "https://dc.lft.to/lastmile_qr_scan"}, "lat": 38.915541833333336, "bike_id": "b5721e3f08fdfde6d3e4294693505c4f", "is_disabled": 0, "lon": -77.00721766666666, "is_reserved": 0, "fusion_lat": 0.0, "type": "electric_scooter"}, {"fusion_lon": 0.0, "name": "54e87fd0e539c76fdfe807e3d76e2029", "rental_uris": {"android": "https://dc.lft.to/lastmile_qr_scan", "ios": "https://dc.lft.to/lastmile_qr_scan"}, "lat": 38.941088, "bike_id": "54e87fd0e539c76fdfe807e3d76e2029", "is_disabled": 0, "lon": -77.06137183333334, "is_reserved": 0, "fusion_lat": 0.0, "type": "electric_scooter"}, {"fusion_lon": 0.0, "name": "e33d3419c3947dcf6019b7f770fa58d6", "rental_uris": {"android": "https://dc.lft.to/lastmile_qr_scan", "ios": "https://dc.lft.to/lastmile_qr_scan"}, "lat": 38.90894933333333, "bike_id": "e33d3419c3947dcf6019b7f770fa58d6", "is_disabled": 0, "lon": -77.07257766666666, "is_reserved": 0, "fusion_lat": 0.0, "type": "electric_scooter"}, {"fusion_lon": 0.0, "name": "b2a38d3e40ee38e5e198886b42bc37af", "rental_uris": {"android": "https://dc.lft.to/lastmile_qr_scan", "ios": "https://dc.lft.to/lastmile_qr_scan"}, "lat": 38.92850083333333, "bike_id": "b2a38d3e40ee38e5e198886b42bc37af", "is_disabled": 0, "lon": -77.054318, "is_reserved": 0, "fusion_lat": 0.0, "type": "electric_scooter"}, {"fusion_lon": 0.0, "name": "2ab5a52db90d2e267867c5725ec1b2c1", "rental_uris": {"android": "https://dc.lft.to/lastmile_qr_scan", "ios": "https://dc.lft.to/lastmile_qr_scan"}, "lat": 38.92790566666667, "bike_id": "2ab5a52db90d2e267867c5725ec1b2c1", "is_disabled": 0, "lon": -77.03083266666667, "is_reserved": 0, "fusion_lat": 0.0, "type": "electric_scooter"}, {"fusion_lon": 0.0, "name": "85d51b875fe1c6e076e974e681bff664", "rental_uris": {"android": "https://dc.lft.to/lastmile_qr_scan", "ios": "https://dc.lft.to/lastmile_qr_scan"}, "lat": 38.93373833333333, "bike_id": "85d51b875fe1c6e076e974e681bff664", "is_disabled": 0, "lon": -77.0274045, "is_reserved": 0, "fusion_lat": 0.0, "type": "electric_scooter"}, {"fusion_lon": 0.0, "name": "2024761cf93bad60c7a7e33fb74b9bd0", "rental_uris": {"android": "https://dc.lft.to/lastmile_qr_scan", "ios": "https://dc.lft.to/lastmile_qr_scan"}, "lat": 38.9276495, "bike_id": "2024761cf93bad60c7a7e33fb74b9bd0", "is_disabled": 0, "lon": -77.0279015, "is_reserved": 0, "fusion_lat": 0.0, "type": "electric_scooter"}, {"fusion_lon": 0.0, "name": "9e0eac06740a00795f160ab2071f30af", "rental_uris": {"android": "https://dc.lft.to/lastmile_qr_scan", "ios": "https://dc.lft.to/lastmile_qr_scan"}, "lat": 38.90522283333333, "bike_id": "9e0eac06740a00795f160ab2071f30af", "is_disabled": 0, "lon": -77.02976166666667, "is_reserved": 0, "fusion_lat": 0.0, "type": "electric_scooter"}, {"fusion_lon": 0.0, "name": "d953a8e517dd63deb68ad1ffbb307f61", "rental_uris": {"android": "https://dc.lft.to/lastmile_qr_scan", "ios": "https://dc.lft.to/lastmile_qr_scan"}, "lat": 38.912724833333336, "bike_id": "d953a8e517dd63deb68ad1ffbb307f61", "is_disabled": 0, "lon": -77.01610916666667, "is_reserved": 0, "fusion_lat": 0.0, "type": "electric_scooter"}, {"fusion_lon": 0.0, "name": "d6d5ef15ccced8794e4b5ad5d528c960", "rental_uris": {"android": "https://dc.lft.to/lastmile_qr_scan", "ios": "https://dc.lft.to/lastmile_qr_scan"}, "lat": 38.926139166666665, "bike_id": "d6d5ef15ccced8794e4b5ad5d528c960", "is_disabled": 0, "lon": -77.02228716666667, "is_reserved": 0, "fusion_lat": 0.0, "type": "electric_scooter"}, {"fusion_lon": 0.0, "name": "2f45757fb816ab3858ad6a2d916ef8a2", "rental_uris": {"android": "https://dc.lft.to/lastmile_qr_scan", "ios": "https://dc.lft.to/lastmile_qr_scan"}, "lat": 38.99681983333333, "bike_id": "2f45757fb816ab3858ad6a2d916ef8a2", "is_disabled": 0, "lon": -77.03794966666666, "is_reserved": 0, "fusion_lat": 0.0, "type": "electric_bike"}, {"fusion_lon": 0.0, "name": "f61de404f9ef196b1fa941c662e7c01c", "rental_uris": {"android": "https://dc.lft.to/lastmile_qr_scan", "ios": "https://dc.lft.to/lastmile_qr_scan"}, "lat": 38.918048, "bike_id": "f61de404f9ef196b1fa941c662e7c01c", "is_disabled": 0, "lon": -77.03445333333333, "is_reserved": 0, "fusion_lat": 0.0, "type": "electric_scooter"}, {"fusion_lon": 0.0, "name": "caa40623179a658f4c9504a851c91e9f", "rental_uris": {"android": "https://dc.lft.to/lastmile_qr_scan", "ios": "https://dc.lft.to/lastmile_qr_scan"}, "lat": 38.91843516666667, "bike_id": "caa40623179a658f4c9504a851c91e9f", "is_disabled": 0, "lon": -77.03858666666666, "is_reserved": 0, "fusion_lat": 0.0, "type": "electric_scooter"}, {"fusion_lon": 0.0, "name": "55dfc6a43763cbd86262c4075a4af985", "rental_uris": {"android": "https://dc.lft.to/lastmile_qr_scan", "ios": "https://dc.lft.to/lastmile_qr_scan"}, "lat": 38.888130833333335, "bike_id": "55dfc6a43763cbd86262c4075a4af985", "is_disabled": 0, "lon": -76.9396625, "is_reserved": 0, "fusion_lat": 0.0, "type": "electric_scooter"}, {"fusion_lon": 0.0, "name": "788ffd6426e03e138f86ad4cfadf46ee", "rental_uris": {"android": "https://dc.lft.to/lastmile_qr_scan", "ios": "https://dc.lft.to/lastmile_qr_scan"}, "lat": 38.969149333333334, "bike_id": "788ffd6426e03e138f86ad4cfadf46ee", "is_disabled": 0, "lon": -76.99494666666666, "is_reserved": 0, "fusion_lat": 0.0, "type": "electric_bike"}, {"fusion_lon": 0.0, "name": "256852c74641b44659195e7a3ed4b759", "rental_uris": {"android": "https://dc.lft.to/lastmile_qr_scan", "ios": "https://dc.lft.to/lastmile_qr_scan"}, "lat": 38.9265545, "bike_id": "256852c74641b44659195e7a3ed4b759", "is_disabled": 0, "lon": -77.04264283333333, "is_reserved": 0, "fusion_lat": 0.0, "type": "electric_scooter"}, {"fusion_lon": 0.0, "name": "ffa38c09c23b094ec50bb916e3fd873b", "rental_uris": {"android": "https://dc.lft.to/lastmile_qr_scan", "ios": "https://dc.lft.to/lastmile_qr_scan"}, "lat": 38.91877216666666, "bike_id": "ffa38c09c23b094ec50bb916e3fd873b", "is_disabled": 0, "lon": -77.035034, "is_reserved": 0, "fusion_lat": 0.0, "type": "electric_scooter"}, {"fusion_lon": 0.0, "name": "1c856f285f4f83359e386cb4be2a6dba", "rental_uris": {"android": "https://dc.lft.to/lastmile_qr_scan", "ios": "https://dc.lft.to/lastmile_qr_scan"}, "lat": 38.903789, "bike_id": "1c856f285f4f83359e386cb4be2a6dba", "is_disabled": 0, "lon": -77.03215, "is_reserved": 0, "fusion_lat": 0.0, "type": "electric_scooter"}, {"fusion_lon": 0.0, "name": "51920a8a71fe12dafd627a76b8c4a290", "rental_uris": {"android": "https://dc.lft.to/lastmile_qr_scan", "ios": "https://dc.lft.to/lastmile_qr_scan"}, "lat": 38.924451833333336, "bike_id": "51920a8a71fe12dafd627a76b8c4a290", "is_disabled": 0, "lon": -77.0215085, "is_reserved": 0, "fusion_lat": 0.0, "type": "electric_scooter"}, {"fusion_lon": 0.0, "name": "7e1a9f8b4c86bd08f079e5c6981b7c4c", "rental_uris": {"android": "https://dc.lft.to/lastmile_qr_scan", "ios": "https://dc.lft.to/lastmile_qr_scan"}, "lat": 38.921094, "bike_id": "7e1a9f8b4c86bd08f079e5c6981b7c4c", "is_disabled": 0, "lon": -77.04693616666667, "is_reserved": 0, "fusion_lat": 0.0, "type": "electric_scooter"}, {"fusion_lon": 0.0, "name": "f17b54b0eefaf8fbc7c55653bb0d6a73", "rental_uris": {"android": "https://dc.lft.to/lastmile_qr_scan", "ios": "https://dc.lft.to/lastmile_qr_scan"}, "lat": 38.924726666666665, "bike_id": "f17b54b0eefaf8fbc7c55653bb0d6a73", "is_disabled": 0, "lon": -77.022099, "is_reserved": 0, "fusion_lat": 0.0, "type": "electric_scooter"}, {"fusion_lon": 0.0, "name": "5ca19872148287adbcfbd7ea08a49183", "rental_uris": {"android": "https://dc.lft.to/lastmile_qr_scan", "ios": "https://dc.lft.to/lastmile_qr_scan"}, "lat": 38.87856516666667, "bike_id": "5ca19872148287adbcfbd7ea08a49183", "is_disabled": 0, "lon": -77.00505666666666, "is_reserved": 0, "fusion_lat": 0.0, "type": "electric_scooter"}, {"fusion_lon": 0.0, "name": "d5567db90f00007c973da09382f284ab", "rental_uris": {"android": "https://dc.lft.to/lastmile_qr_scan", "ios": "https://dc.lft.to/lastmile_qr_scan"}, "lat": 38.91361116666667, "bike_id": "d5567db90f00007c973da09382f284ab", "is_disabled": 0, "lon": -77.02002566666667, "is_reserved": 0, "fusion_lat": 0.0, "type": "electric_scooter"}, {"fusion_lon": 0.0, "name": "9f9606b6d4fa9a4435d6c0c2c6d17057", "rental_uris": {"android": "https://dc.lft.to/lastmile_qr_scan", "ios": "https://dc.lft.to/lastmile_qr_scan"}, "lat": 38.90429233333333, "bike_id": "9f9606b6d4fa9a4435d6c0c2c6d17057", "is_disabled": 0, "lon": -77.04350666666667, "is_reserved": 0, "fusion_lat": 0.0, "type": "electric_scooter"}, {"fusion_lon": 0.0, "name": "151dffb3e087c18c4e75ccd92d83a5ea", "rental_uris": {"android": "https://dc.lft.to/lastmile_qr_scan", "ios": "https://dc.lft.to/lastmile_qr_scan"}, "lat": 38.91551233333333, "bike_id": "151dffb3e087c18c4e75ccd92d83a5ea", "is_disabled": 0, "lon": -77.06785666666667, "is_reserved": 0, "fusion_lat": 0.0, "type": "electric_scooter"}, {"fusion_lon": 0.0, "name": "be6f2ede56ec0ecaeed349101a2b79dc", "rental_uris": {"android": "https://dc.lft.to/lastmile_qr_scan", "ios": "https://dc.lft.to/lastmile_qr_scan"}, "lat": 38.901616833333335, "bike_id": "be6f2ede56ec0ecaeed349101a2b79dc", "is_disabled": 0, "lon": -77.02176016666667, "is_reserved": 0, "fusion_lat": 0.0, "type": "electric_scooter"}, {"fusion_lon": 0.0, "name": "84bd5fb3c581692f75091b1b11ab4e34", "rental_uris": {"android": "https://dc.lft.to/lastmile_qr_scan", "ios": "https://dc.lft.to/lastmile_qr_scan"}, "lat": 38.9013965, "bike_id": "84bd5fb3c581692f75091b1b11ab4e34", "is_disabled": 0, "lon": -77.04185233333334, "is_reserved": 0, "fusion_lat": 0.0, "type": "electric_scooter"}, {"fusion_lon": 0.0, "name": "6148c9b276d88f798779c1af0180fe34", "rental_uris": {"android": "https://dc.lft.to/lastmile_qr_scan", "ios": "https://dc.lft.to/lastmile_qr_scan"}, "lat": 38.898914, "bike_id": "6148c9b276d88f798779c1af0180fe34", "is_disabled": 0, "lon": -77.02167383333334, "is_reserved": 0, "fusion_lat": 0.0, "type": "electric_scooter"}, {"fusion_lon": 0.0, "name": "e78d61653fc69682eab796f3265507d2", "rental_uris": {"android": "https://dc.lft.to/lastmile_qr_scan", "ios": "https://dc.lft.to/lastmile_qr_scan"}, "lat": 38.876845, "bike_id": "e78d61653fc69682eab796f3265507d2", "is_disabled": 0, "lon": -77.00069383333333, "is_reserved": 0, "fusion_lat": 0.0, "type": "electric_scooter"}, {"fusion_lon": 0.0, "name": "c23ee0e778bca8d6f61ce41f5dfaadd1", "rental_uris": {"android": "https://dc.lft.to/lastmile_qr_scan", "ios": "https://dc.lft.to/lastmile_qr_scan"}, "lat": 38.88964516666667, "bike_id": "c23ee0e778bca8d6f61ce41f5dfaadd1", "is_disabled": 0, "lon": -76.927361, "is_reserved": 0, "fusion_lat": 0.0, "type": "electric_scooter"}, {"fusion_lon": 0.0, "name": "a4d39c8f071e5e075330f4f490045fea", "rental_uris": {"android": "https://dc.lft.to/lastmile_qr_scan", "ios": "https://dc.lft.to/lastmile_qr_scan"}, "lat": 38.91813, "bike_id": "a4d39c8f071e5e075330f4f490045fea", "is_disabled": 0, "lon": -77.03335716666666, "is_reserved": 0, "fusion_lat": 0.0, "type": "electric_scooter"}, {"fusion_lon": 0.0, "name": "91c0834067a2384cf58d01260ef465fe", "rental_uris": {"android": "https://dc.lft.to/lastmile_qr_scan", "ios": "https://dc.lft.to/lastmile_qr_scan"}, "lat": 38.914278833333334, "bike_id": "91c0834067a2384cf58d01260ef465fe", "is_disabled": 0, "lon": -77.0318425, "is_reserved": 0, "fusion_lat": 0.0, "type": "electric_scooter"}, {"fusion_lon": 0.0, "name": "cdff3effab423beef000a6fea5a18789", "rental_uris": {"android": "https://dc.lft.to/lastmile_qr_scan", "ios": "https://dc.lft.to/lastmile_qr_scan"}, "lat": 38.9185465, "bike_id": "cdff3effab423beef000a6fea5a18789", "is_disabled": 0, "lon": -77.04476916666667, "is_reserved": 0, "fusion_lat": 0.0, "type": "electric_scooter"}, {"fusion_lon": 0.0, "name": "5e73583a9b8ee18611a20ff6a768d04d", "rental_uris": {"android": "https://dc.lft.to/lastmile_qr_scan", "ios": "https://dc.lft.to/lastmile_qr_scan"}, "lat": 38.886587666666664, "bike_id": "5e73583a9b8ee18611a20ff6a768d04d", "is_disabled": 0, "lon": -76.93675633333334, "is_reserved": 0, "fusion_lat": 0.0, "type": "electric_scooter"}, {"fusion_lon": 0.0, "name": "1127c15928032fa71d589511ff724fa5", "rental_uris": {"android": "https://dc.lft.to/lastmile_qr_scan", "ios": "https://dc.lft.to/lastmile_qr_scan"}, "lat": 38.91925166666667, "bike_id": "1127c15928032fa71d589511ff724fa5", "is_disabled": 0, "lon": -77.00988083333333, "is_reserved": 0, "fusion_lat": 0.0, "type": "electric_scooter"}, {"fusion_lon": 0.0, "name": "ccf459215fed67646d80b5dc83413c9a", "rental_uris": {"android": "https://dc.lft.to/lastmile_qr_scan", "ios": "https://dc.lft.to/lastmile_qr_scan"}, "lat": 38.91856883333333, "bike_id": "ccf459215fed67646d80b5dc83413c9a", "is_disabled": 0, "lon": -77.02531566666667, "is_reserved": 0, "fusion_lat": 0.0, "type": "electric_scooter"}, {"fusion_lon": 0.0, "name": "b703ec18ea8c500ea78e9b4854f3d007", "rental_uris": {"android": "https://dc.lft.to/lastmile_qr_scan", "ios": "https://dc.lft.to/lastmile_qr_scan"}, "lat": 38.90531716666667, "bike_id": "b703ec18ea8c500ea78e9b4854f3d007", "is_disabled": 0, "lon": -77.06530766666667, "is_reserved": 0, "fusion_lat": 0.0, "type": "electric_scooter"}, {"fusion_lon": 0.0, "name": "8ff9e047387e8c9235c592391f4536cb", "rental_uris": {"android": "https://dc.lft.to/lastmile_qr_scan", "ios": "https://dc.lft.to/lastmile_qr_scan"}, "lat": 38.94537366666667, "bike_id": "8ff9e047387e8c9235c592391f4536cb", "is_disabled": 0, "lon": -77.34461766666666, "is_reserved": 0, "fusion_lat": 0.0, "type": "electric_bike"}, {"fusion_lon": 0.0, "name": "a0fb229dc30a0af6fb760bd37517280c", "rental_uris": {"android": "https://dc.lft.to/lastmile_qr_scan", "ios": "https://dc.lft.to/lastmile_qr_scan"}, "lat": 38.907377833333335, "bike_id": "a0fb229dc30a0af6fb760bd37517280c", "is_disabled": 0, "lon": -77.00735983333334, "is_reserved": 0, "fusion_lat": 0.0, "type": "electric_scooter"}, {"fusion_lon": 0.0, "name": "afa6b3d3b01080eb56bc2fe2b6d64560", "rental_uris": {"android": "https://dc.lft.to/lastmile_qr_scan", "ios": "https://dc.lft.to/lastmile_qr_scan"}, "lat": 38.8922645, "bike_id": "afa6b3d3b01080eb56bc2fe2b6d64560", "is_disabled": 0, "lon": -77.0450085, "is_reserved": 0, "fusion_lat": 0.0, "type": "electric_scooter"}, {"fusion_lon": 0.0, "name": "ef264147754dff2f00eadb9adb84a1ae", "rental_uris": {"android": "https://dc.lft.to/lastmile_qr_scan", "ios": "https://dc.lft.to/lastmile_qr_scan"}, "lat": 38.931244666666665, "bike_id": "ef264147754dff2f00eadb9adb84a1ae", "is_disabled": 0, "lon": -77.036027, "is_reserved": 0, "fusion_lat": 0.0, "type": "electric_scooter"}, {"fusion_lon": 0.0, "name": "e51f12bbf90740e01594f6ac0b97a597", "rental_uris": {"android": "https://dc.lft.to/lastmile_qr_scan", "ios": "https://dc.lft.to/lastmile_qr_scan"}, "lat": 38.89598983333333, "bike_id": "e51f12bbf90740e01594f6ac0b97a597", "is_disabled": 0, "lon": -77.0250595, "is_reserved": 0, "fusion_lat": 0.0, "type": "electric_scooter"}, {"fusion_lon": 0.0, "name": "455d43b00f81010931b6b62b1f9ced08", "rental_uris": {"android": "https://dc.lft.to/lastmile_qr_scan", "ios": "https://dc.lft.to/lastmile_qr_scan"}, "lat": 39.0843305, "bike_id": "455d43b00f81010931b6b62b1f9ced08", "is_disabled": 0, "lon": -76.95143616666667, "is_reserved": 0, "fusion_lat": 0.0, "type": "electric_bike"}, {"fusion_lon": 0.0, "name": "cbcef32684ccea4dd183e6e49acc205a", "rental_uris": {"android": "https://dc.lft.to/lastmile_qr_scan", "ios": "https://dc.lft.to/lastmile_qr_scan"}, "lat": 38.92451533333333, "bike_id": "cbcef32684ccea4dd183e6e49acc205a", "is_disabled": 0, "lon": -77.02160483333333, "is_reserved": 0, "fusion_lat": 0.0, "type": "electric_scooter"}, {"fusion_lon": 0.0, "name": "d0e3911a9c68eb6055afe5f694f4893f", "rental_uris": {"android": "https://dc.lft.to/lastmile_qr_scan", "ios": "https://dc.lft.to/lastmile_qr_scan"}, "lat": 38.90881366666667, "bike_id": "d0e3911a9c68eb6055afe5f694f4893f", "is_disabled": 0, "lon": -77.0432425, "is_reserved": 0, "fusion_lat": 0.0, "type": "electric_scooter"}, {"fusion_lon": 0.0, "name": "753b5834f72a3a14855f19e43f72861c", "rental_uris": {"android": "https://dc.lft.to/lastmile_qr_scan", "ios": "https://dc.lft.to/lastmile_qr_scan"}, "lat": 38.95069216666667, "bike_id": "753b5834f72a3a14855f19e43f72861c", "is_disabled": 0, "lon": -77.0663005, "is_reserved": 0, "fusion_lat": 0.0, "type": "electric_bike"}, {"fusion_lon": 0.0, "name": "ee2975b1377e3f09a9fce9764ad94eb2", "rental_uris": {"android": "https://dc.lft.to/lastmile_qr_scan", "ios": "https://dc.lft.to/lastmile_qr_scan"}, "lat": 38.910237, "bike_id": "ee2975b1377e3f09a9fce9764ad94eb2", "is_disabled": 0, "lon": -77.038687, "is_reserved": 0, "fusion_lat": 0.0, "type": "electric_scooter"}, {"fusion_lon": 0.0, "name": "bc81bf2c6431583bf942752600fa11e6", "rental_uris": {"android": "https://dc.lft.to/lastmile_qr_scan", "ios": "https://dc.lft.to/lastmile_qr_scan"}, "lat": 38.938416, "bike_id": "bc81bf2c6431583bf942752600fa11e6", "is_disabled": 0, "lon": -77.0245045, "is_reserved": 0, "fusion_lat": 0.0, "type": "electric_scooter"}, {"fusion_lon": 0.0, "name": "54d994b10a292fa40de6612492f1a7b3", "rental_uris": {"android": "https://dc.lft.to/lastmile_qr_scan", "ios": "https://dc.lft.to/lastmile_qr_scan"}, "lat": 38.914047333333336, "bike_id": "54d994b10a292fa40de6612492f1a7b3", "is_disabled": 0, "lon": -77.0184505, "is_reserved": 0, "fusion_lat": 0.0, "type": "electric_scooter"}, {"fusion_lon": 0.0, "name": "40ac745eab6dad29cb06fda85c513896", "rental_uris": {"android": "https://dc.lft.to/lastmile_qr_scan", "ios": "https://dc.lft.to/lastmile_qr_scan"}, "lat": 38.896886, "bike_id": "40ac745eab6dad29cb06fda85c513896", "is_disabled": 0, "lon": -77.04344266666666, "is_reserved": 0, "fusion_lat": 0.0, "type": "electric_scooter"}, {"fusion_lon": 0.0, "name": "8f808308dd568b431ee79b942a385f1d", "rental_uris": {"android": "https://dc.lft.to/lastmile_qr_scan", "ios": "https://dc.lft.to/lastmile_qr_scan"}, "lat": 38.914827, "bike_id": "8f808308dd568b431ee79b942a385f1d", "is_disabled": 0, "lon": -77.02190616666667, "is_reserved": 0, "fusion_lat": 0.0, "type": "electric_scooter"}, {"fusion_lon": 0.0, "name": "c0ef8e3bb6279f31a41a7fb08c18b114", "rental_uris": {"android": "https://dc.lft.to/lastmile_qr_scan", "ios": "https://dc.lft.to/lastmile_qr_scan"}, "lat": 38.903476166666664, "bike_id": "c0ef8e3bb6279f31a41a7fb08c18b114", "is_disabled": 0, "lon": -77.061992, "is_reserved": 0, "fusion_lat": 0.0, "type": "electric_scooter"}, {"fusion_lon": 0.0, "name": "5c4fefc83a9eb1ad7f8657f6def8c9ff", "rental_uris": {"android": "https://dc.lft.to/lastmile_qr_scan", "ios": "https://dc.lft.to/lastmile_qr_scan"}, "lat": 38.92372483333333, "bike_id": "5c4fefc83a9eb1ad7f8657f6def8c9ff", "is_disabled": 0, "lon": -77.01915133333334, "is_reserved": 0, "fusion_lat": 0.0, "type": "electric_scooter"}, {"fusion_lon": 0.0, "name": "c7fbeab415cdb317676e60d3e5ca48fe", "rental_uris": {"android": "https://dc.lft.to/lastmile_qr_scan", "ios": "https://dc.lft.to/lastmile_qr_scan"}, "lat": 38.927975, "bike_id": "c7fbeab415cdb317676e60d3e5ca48fe", "is_disabled": 0, "lon": -77.03692783333334, "is_reserved": 0, "fusion_lat": 0.0, "type": "electric_scooter"}, {"fusion_lon": 0.0, "name": "0c63b16b43719c4bd6951ecc3c1689bf", "rental_uris": {"android": "https://dc.lft.to/lastmile_qr_scan", "ios": "https://dc.lft.to/lastmile_qr_scan"}, "lat": 38.93679366666667, "bike_id": "0c63b16b43719c4bd6951ecc3c1689bf", "is_disabled": 0, "lon": -77.01937366666667, "is_reserved": 0, "fusion_lat": 0.0, "type": "electric_scooter"}, {"fusion_lon": 0.0, "name": "b12e671d7574ee9fb6873cfc057e4b42", "rental_uris": {"android": "https://dc.lft.to/lastmile_qr_scan", "ios": "https://dc.lft.to/lastmile_qr_scan"}, "lat": 38.93769066666667, "bike_id": "b12e671d7574ee9fb6873cfc057e4b42", "is_disabled": 0, "lon": -77.02450866666666, "is_reserved": 0, "fusion_lat": 0.0, "type": "electric_scooter"}, {"fusion_lon": 0.0, "name": "f087a99d94701aba490b942607de4814", "rental_uris": {"android": "https://dc.lft.to/lastmile_qr_scan", "ios": "https://dc.lft.to/lastmile_qr_scan"}, "lat": 38.89979366666667, "bike_id": "f087a99d94701aba490b942607de4814", "is_disabled": 0, "lon": -77.04193683333334, "is_reserved": 0, "fusion_lat": 0.0, "type": "electric_scooter"}, {"fusion_lon": 0.0, "name": "c18abcaca201d97baf57ce59dc7f1429", "rental_uris": {"android": "https://dc.lft.to/lastmile_qr_scan", "ios": "https://dc.lft.to/lastmile_qr_scan"}, "lat": 38.902212166666665, "bike_id": "c18abcaca201d97baf57ce59dc7f1429", "is_disabled": 0, "lon": -77.023691, "is_reserved": 0, "fusion_lat": 0.0, "type": "electric_scooter"}, {"fusion_lon": 0.0, "name": "fd34a8f8a4d01ef2e9237219771bf481", "rental_uris": {"android": "https://dc.lft.to/lastmile_qr_scan", "ios": "https://dc.lft.to/lastmile_qr_scan"}, "lat": 38.881335, "bike_id": "fd34a8f8a4d01ef2e9237219771bf481", "is_disabled": 0, "lon": -77.02231616666667, "is_reserved": 0, "fusion_lat": 0.0, "type": "electric_scooter"}, {"fusion_lon": 0.0, "name": "ac9ae6c8798eedc035e216a9136fa80d", "rental_uris": {"android": "https://dc.lft.to/lastmile_qr_scan", "ios": "https://dc.lft.to/lastmile_qr_scan"}, "lat": 38.8921185, "bike_id": "ac9ae6c8798eedc035e216a9136fa80d", "is_disabled": 0, "lon": -76.99573033333333, "is_reserved": 0, "fusion_lat": 0.0, "type": "electric_scooter"}, {"fusion_lon": 0.0, "name": "d1eed717366a1b3103e7ae45875d8351", "rental_uris": {"android": "https://dc.lft.to/lastmile_qr_scan", "ios": "https://dc.lft.to/lastmile_qr_scan"}, "lat": 38.846437333333334, "bike_id": "d1eed717366a1b3103e7ae45875d8351", "is_disabled": 0, "lon": -76.97075233333334, "is_reserved": 0, "fusion_lat": 0.0, "type": "electric_bike"}, {"fusion_lon": 0.0, "name": "4f27b7623315fe6f6004b45224cf6221", "rental_uris": {"android": "https://dc.lft.to/lastmile_qr_scan", "ios": "https://dc.lft.to/lastmile_qr_scan"}, "lat": 38.908517333333336, "bike_id": "4f27b7623315fe6f6004b45224cf6221", "is_disabled": 0, "lon": -77.03440033333334, "is_reserved": 0, "fusion_lat": 0.0, "type": "electric_scooter"}, {"fusion_lon": 0.0, "name": "b62f098c3c96d3f693ef52f311b1b6cd", "rental_uris": {"android": "https://dc.lft.to/lastmile_qr_scan", "ios": "https://dc.lft.to/lastmile_qr_scan"}, "lat": 38.8792455, "bike_id": "b62f098c3c96d3f693ef52f311b1b6cd", "is_disabled": 0, "lon": -77.009941, "is_reserved": 0, "fusion_lat": 0.0, "type": "electric_scooter"}, {"fusion_lon": 0.0, "name": "f9b87e7bd869152f2dc8ac1e8ebce222", "rental_uris": {"android": "https://dc.lft.to/lastmile_qr_scan", "ios": "https://dc.lft.to/lastmile_qr_scan"}, "lat": 38.930605, "bike_id": "f9b87e7bd869152f2dc8ac1e8ebce222", "is_disabled": 0, "lon": -77.027857, "is_reserved": 0, "fusion_lat": 0.0, "type": "electric_scooter"}, {"fusion_lon": 0.0, "name": "dfca77334f91a2824a70c9fb83b16767", "rental_uris": {"android": "https://dc.lft.to/lastmile_qr_scan", "ios": "https://dc.lft.to/lastmile_qr_scan"}, "lat": 38.92253316666667, "bike_id": "dfca77334f91a2824a70c9fb83b16767", "is_disabled": 0, "lon": -77.03073266666667, "is_reserved": 0, "fusion_lat": 0.0, "type": "electric_scooter"}, {"fusion_lon": 0.0, "name": "93596fb122f130c910db9f02314958ae", "rental_uris": {"android": "https://dc.lft.to/lastmile_qr_scan", "ios": "https://dc.lft.to/lastmile_qr_scan"}, "lat": 38.913623333333334, "bike_id": "93596fb122f130c910db9f02314958ae", "is_disabled": 0, "lon": -77.09191116666666, "is_reserved": 0, "fusion_lat": 0.0, "type": "electric_scooter"}, {"fusion_lon": 0.0, "name": "1f93059438dd258e586a12c69290a624", "rental_uris": {"android": "https://dc.lft.to/lastmile_qr_scan", "ios": "https://dc.lft.to/lastmile_qr_scan"}, "lat": 38.89635883333333, "bike_id": "1f93059438dd258e586a12c69290a624", "is_disabled": 0, "lon": -77.0237935, "is_reserved": 0, "fusion_lat": 0.0, "type": "electric_scooter"}, {"fusion_lon": 0.0, "name": "4ad499a2a4a92180b3c47d4a5fd15689", "rental_uris": {"android": "https://dc.lft.to/lastmile_qr_scan", "ios": "https://dc.lft.to/lastmile_qr_scan"}, "lat": 38.9072905, "bike_id": "4ad499a2a4a92180b3c47d4a5fd15689", "is_disabled": 0, "lon": -77.02798083333333, "is_reserved": 0, "fusion_lat": 0.0, "type": "electric_scooter"}, {"fusion_lon": 0.0, "name": "41d51f2241b01dd9dbc51902646fd427", "rental_uris": {"android": "https://dc.lft.to/lastmile_qr_scan", "ios": "https://dc.lft.to/lastmile_qr_scan"}, "lat": 38.90035483333333, "bike_id": "41d51f2241b01dd9dbc51902646fd427", "is_disabled": 0, "lon": -76.98839533333333, "is_reserved": 0, "fusion_lat": 0.0, "type": "electric_scooter"}, {"fusion_lon": 0.0, "name": "1fa7ddbcec65b9c4c98582b80f954a17", "rental_uris": {"android": "https://dc.lft.to/lastmile_qr_scan", "ios": "https://dc.lft.to/lastmile_qr_scan"}, "lat": 38.9017855, "bike_id": "1fa7ddbcec65b9c4c98582b80f954a17", "is_disabled": 0, "lon": -77.02403916666667, "is_reserved": 0, "fusion_lat": 0.0, "type": "electric_scooter"}, {"fusion_lon": 0.0, "name": "e2a3dc9a772beb907c3a4c8f69f4e0b1", "rental_uris": {"android": "https://dc.lft.to/lastmile_qr_scan", "ios": "https://dc.lft.to/lastmile_qr_scan"}, "lat": 38.92248816666667, "bike_id": "e2a3dc9a772beb907c3a4c8f69f4e0b1", "is_disabled": 0, "lon": -77.03082716666667, "is_reserved": 0, "fusion_lat": 0.0, "type": "electric_scooter"}, {"fusion_lon": 0.0, "name": "8eac57c281e0b30e7bcb2e6c743b8fe5", "rental_uris": {"android": "https://dc.lft.to/lastmile_qr_scan", "ios": "https://dc.lft.to/lastmile_qr_scan"}, "lat": 38.89905433333333, "bike_id": "8eac57c281e0b30e7bcb2e6c743b8fe5", "is_disabled": 0, "lon": -77.0329575, "is_reserved": 0, "fusion_lat": 0.0, "type": "electric_scooter"}, {"fusion_lon": 0.0, "name": "da92710c049f22633d6253bb03b08d0f", "rental_uris": {"android": "https://dc.lft.to/lastmile_qr_scan", "ios": "https://dc.lft.to/lastmile_qr_scan"}, "lat": 38.94258166666667, "bike_id": "da92710c049f22633d6253bb03b08d0f", "is_disabled": 0, "lon": -76.99067316666667, "is_reserved": 0, "fusion_lat": 0.0, "type": "electric_bike"}, {"fusion_lon": 0.0, "name": "3f4a3bd1617e3259975985d4a68ef97b", "rental_uris": {"android": "https://dc.lft.to/lastmile_qr_scan", "ios": "https://dc.lft.to/lastmile_qr_scan"}, "lat": 38.9639825, "bike_id": "3f4a3bd1617e3259975985d4a68ef97b", "is_disabled": 0, "lon": -77.02769133333334, "is_reserved": 0, "fusion_lat": 0.0, "type": "electric_scooter"}, {"fusion_lon": 0.0, "name": "c82bc000466194fdef3e7788a2f65179", "rental_uris": {"android": "https://dc.lft.to/lastmile_qr_scan", "ios": "https://dc.lft.to/lastmile_qr_scan"}, "lat": 38.90362583333334, "bike_id": "c82bc000466194fdef3e7788a2f65179", "is_disabled": 0, "lon": -77.0177255, "is_reserved": 0, "fusion_lat": 0.0, "type": "electric_scooter"}, {"fusion_lon": 0.0, "name": "5af0af1477c70baf423c018cf1a1d056", "rental_uris": {"android": "https://dc.lft.to/lastmile_qr_scan", "ios": "https://dc.lft.to/lastmile_qr_scan"}, "lat": 38.9167545, "bike_id": "5af0af1477c70baf423c018cf1a1d056", "is_disabled": 0, "lon": -77.04604866666666, "is_reserved": 0, "fusion_lat": 0.0, "type": "electric_scooter"}, {"fusion_lon": 0.0, "name": "0256e8b32aa6ed439e121c45da200fcb", "rental_uris": {"android": "https://dc.lft.to/lastmile_qr_scan", "ios": "https://dc.lft.to/lastmile_qr_scan"}, "lat": 38.840537166666664, "bike_id": "0256e8b32aa6ed439e121c45da200fcb", "is_disabled": 0, "lon": -76.97666533333333, "is_reserved": 0, "fusion_lat": 0.0, "type": "electric_scooter"}, {"fusion_lon": 0.0, "name": "3161cfc9b1e9a63863b1803342d6062c", "rental_uris": {"android": "https://dc.lft.to/lastmile_qr_scan", "ios": "https://dc.lft.to/lastmile_qr_scan"}, "lat": 38.91697966666667, "bike_id": "3161cfc9b1e9a63863b1803342d6062c", "is_disabled": 0, "lon": -77.042276, "is_reserved": 0, "fusion_lat": 0.0, "type": "electric_scooter"}, {"fusion_lon": 0.0, "name": "b21e323313e8667f87c979c56856ee0a", "rental_uris": {"android": "https://dc.lft.to/lastmile_qr_scan", "ios": "https://dc.lft.to/lastmile_qr_scan"}, "lat": 38.80685116666667, "bike_id": "b21e323313e8667f87c979c56856ee0a", "is_disabled": 0, "lon": -77.13386533333333, "is_reserved": 0, "fusion_lat": 0.0, "type": "electric_bike"}, {"fusion_lon": 0.0, "name": "c78cb89cb4a6f8967bcaae45dbe86b8a", "rental_uris": {"android": "https://dc.lft.to/lastmile_qr_scan", "ios": "https://dc.lft.to/lastmile_qr_scan"}, "lat": 38.854457, "bike_id": "c78cb89cb4a6f8967bcaae45dbe86b8a", "is_disabled": 0, "lon": -76.98608283333333, "is_reserved": 0, "fusion_lat": 0.0, "type": "electric_bike"}, {"fusion_lon": 0.0, "name": "4e2b8ac11989685b2ce7e1367e6317cc", "rental_uris": {"android": "https://dc.lft.to/lastmile_qr_scan", "ios": "https://dc.lft.to/lastmile_qr_scan"}, "lat": 38.92489316666666, "bike_id": "4e2b8ac11989685b2ce7e1367e6317cc", "is_disabled": 0, "lon": -77.02693966666666, "is_reserved": 0, "fusion_lat": 0.0, "type": "electric_scooter"}, {"fusion_lon": 0.0, "name": "522a0a0676cb840dbe8da1ffc69b9902", "rental_uris": {"android": "https://dc.lft.to/lastmile_qr_scan", "ios": "https://dc.lft.to/lastmile_qr_scan"}, "lat": 38.91949133333333, "bike_id": "522a0a0676cb840dbe8da1ffc69b9902", "is_disabled": 0, "lon": -77.01393033333333, "is_reserved": 0, "fusion_lat": 0.0, "type": "electric_scooter"}, {"fusion_lon": 0.0, "name": "daf76f40177f7055003e2454efc7f31e", "rental_uris": {"android": "https://dc.lft.to/lastmile_qr_scan", "ios": "https://dc.lft.to/lastmile_qr_scan"}, "lat": 38.90402383333333, "bike_id": "daf76f40177f7055003e2454efc7f31e", "is_disabled": 0, "lon": -76.97361716666667, "is_reserved": 0, "fusion_lat": 0.0, "type": "electric_scooter"}, {"fusion_lon": 0.0, "name": "4fa67a80e87163b33e854d195492e5b5", "rental_uris": {"android": "https://dc.lft.to/lastmile_qr_scan", "ios": "https://dc.lft.to/lastmile_qr_scan"}, "lat": 38.88430433333333, "bike_id": "4fa67a80e87163b33e854d195492e5b5", "is_disabled": 0, "lon": -77.02321133333334, "is_reserved": 0, "fusion_lat": 0.0, "type": "electric_scooter"}, {"fusion_lon": 0.0, "name": "73cdcb6e3a8286d6f8ddea4acb9c9b5a", "rental_uris": {"android": "https://dc.lft.to/lastmile_qr_scan", "ios": "https://dc.lft.to/lastmile_qr_scan"}, "lat": 38.922662333333335, "bike_id": "73cdcb6e3a8286d6f8ddea4acb9c9b5a", "is_disabled": 0, "lon": -77.04307416666667, "is_reserved": 0, "fusion_lat": 0.0, "type": "electric_scooter"}, {"fusion_lon": 0.0, "name": "28291fe3e366dfafd1603d0064ba44b4", "rental_uris": {"android": "https://dc.lft.to/lastmile_qr_scan", "ios": "https://dc.lft.to/lastmile_qr_scan"}, "lat": 38.909175, "bike_id": "28291fe3e366dfafd1603d0064ba44b4", "is_disabled": 0, "lon": -77.0384695, "is_reserved": 0, "fusion_lat": 0.0, "type": "electric_scooter"}, {"fusion_lon": 0.0, "name": "1f0fcee9715ced4570920ff3cf359ac1", "rental_uris": {"android": "https://dc.lft.to/lastmile_qr_scan", "ios": "https://dc.lft.to/lastmile_qr_scan"}, "lat": 38.8461215, "bike_id": "1f0fcee9715ced4570920ff3cf359ac1", "is_disabled": 0, "lon": -76.96929766666666, "is_reserved": 0, "fusion_lat": 0.0, "type": "electric_bike"}, {"fusion_lon": 0.0, "name": "f075c9a8e67df86c35f2249bdfa9cf53", "rental_uris": {"android": "https://dc.lft.to/lastmile_qr_scan", "ios": "https://dc.lft.to/lastmile_qr_scan"}, "lat": 38.9237415, "bike_id": "f075c9a8e67df86c35f2249bdfa9cf53", "is_disabled": 0, "lon": -77.03540516666666, "is_reserved": 0, "fusion_lat": 0.0, "type": "electric_scooter"}, {"fusion_lon": 0.0, "name": "aca1bb6371f8097969ce87d719f48862", "rental_uris": {"android": "https://dc.lft.to/lastmile_qr_scan", "ios": "https://dc.lft.to/lastmile_qr_scan"}, "lat": 38.89445833333333, "bike_id": "aca1bb6371f8097969ce87d719f48862", "is_disabled": 0, "lon": -77.02669, "is_reserved": 0, "fusion_lat": 0.0, "type": "electric_scooter"}, {"fusion_lon": 0.0, "name": "42249a5d76ae874fa29c7eb215263372", "rental_uris": {"android": "https://dc.lft.to/lastmile_qr_scan", "ios": "https://dc.lft.to/lastmile_qr_scan"}, "lat": 38.943826333333334, "bike_id": "42249a5d76ae874fa29c7eb215263372", "is_disabled": 0, "lon": -77.06098716666666, "is_reserved": 0, "fusion_lat": 0.0, "type": "electric_scooter"}, {"fusion_lon": 0.0, "name": "e8ac4d330396a5cc5325bb5fe419a2f8", "rental_uris": {"android": "https://dc.lft.to/lastmile_qr_scan", "ios": "https://dc.lft.to/lastmile_qr_scan"}, "lat": 38.90127916666667, "bike_id": "e8ac4d330396a5cc5325bb5fe419a2f8", "is_disabled": 0, "lon": -77.00322633333333, "is_reserved": 0, "fusion_lat": 0.0, "type": "electric_scooter"}, {"fusion_lon": 0.0, "name": "0d16ff0ee59046a9f9836d6f138a9cbb", "rental_uris": {"android": "https://dc.lft.to/lastmile_qr_scan", "ios": "https://dc.lft.to/lastmile_qr_scan"}, "lat": 38.878649833333334, "bike_id": "0d16ff0ee59046a9f9836d6f138a9cbb", "is_disabled": 0, "lon": -76.99661616666667, "is_reserved": 0, "fusion_lat": 0.0, "type": "electric_scooter"}, {"fusion_lon": 0.0, "name": "82a7fc51fc544559ad860ab15dade385", "rental_uris": {"android": "https://dc.lft.to/lastmile_qr_scan", "ios": "https://dc.lft.to/lastmile_qr_scan"}, "lat": 38.934567333333334, "bike_id": "82a7fc51fc544559ad860ab15dade385", "is_disabled": 0, "lon": -76.96445183333333, "is_reserved": 0, "fusion_lat": 0.0, "type": "electric_scooter"}, {"fusion_lon": 0.0, "name": "48b4507b217f6c1fb2b6a7ac52fea415", "rental_uris": {"android": "https://dc.lft.to/lastmile_qr_scan", "ios": "https://dc.lft.to/lastmile_qr_scan"}, "lat": 38.90560766666667, "bike_id": "48b4507b217f6c1fb2b6a7ac52fea415", "is_disabled": 0, "lon": -77.002087, "is_reserved": 0, "fusion_lat": 0.0, "type": "electric_scooter"}, {"fusion_lon": 0.0, "name": "1c2768637e902906c618c59bbe4563b0", "rental_uris": {"android": "https://dc.lft.to/lastmile_qr_scan", "ios": "https://dc.lft.to/lastmile_qr_scan"}, "lat": 38.9080535, "bike_id": "1c2768637e902906c618c59bbe4563b0", "is_disabled": 0, "lon": -77.08401083333334, "is_reserved": 0, "fusion_lat": 0.0, "type": "electric_scooter"}, {"fusion_lon": 0.0, "name": "1d1d0abfc67511c2a55e026dff4ab258", "rental_uris": {"android": "https://dc.lft.to/lastmile_qr_scan", "ios": "https://dc.lft.to/lastmile_qr_scan"}, "lat": 38.9726025, "bike_id": "1d1d0abfc67511c2a55e026dff4ab258", "is_disabled": 0, "lon": -76.99279016666667, "is_reserved": 0, "fusion_lat": 0.0, "type": "electric_bike"}, {"fusion_lon": 0.0, "name": "c65e72ba8faa4986b9f1964cc69f26c3", "rental_uris": {"android": "https://dc.lft.to/lastmile_qr_scan", "ios": "https://dc.lft.to/lastmile_qr_scan"}, "lat": 38.92079366666667, "bike_id": "c65e72ba8faa4986b9f1964cc69f26c3", "is_disabled": 0, "lon": -77.0181845, "is_reserved": 0, "fusion_lat": 0.0, "type": "electric_scooter"}, {"fusion_lon": 0.0, "name": "10f2925447928922377ab1b05fa7ea17", "rental_uris": {"android": "https://dc.lft.to/lastmile_qr_scan", "ios": "https://dc.lft.to/lastmile_qr_scan"}, "lat": 38.893875, "bike_id": "10f2925447928922377ab1b05fa7ea17", "is_disabled": 0, "lon": -77.02252866666667, "is_reserved": 0, "fusion_lat": 0.0, "type": "electric_scooter"}, {"fusion_lon": 0.0, "name": "7d91fd85c711bf45b69a4e15e3144895", "rental_uris": {"android": "https://dc.lft.to/lastmile_qr_scan", "ios": "https://dc.lft.to/lastmile_qr_scan"}, "lat": 38.900664, "bike_id": "7d91fd85c711bf45b69a4e15e3144895", "is_disabled": 0, "lon": -77.04909516666666, "is_reserved": 0, "fusion_lat": 0.0, "type": "electric_scooter"}, {"fusion_lon": 0.0, "name": "96dda12920c4f76e88e1db0d9c4c024c", "rental_uris": {"android": "https://dc.lft.to/lastmile_qr_scan", "ios": "https://dc.lft.to/lastmile_qr_scan"}, "lat": 38.90858733333334, "bike_id": "96dda12920c4f76e88e1db0d9c4c024c", "is_disabled": 0, "lon": -77.0807805, "is_reserved": 0, "fusion_lat": 0.0, "type": "electric_bike"}, {"fusion_lon": 0.0, "name": "2c22c4f4a3d38ce1061764ed5cc653ea", "rental_uris": {"android": "https://dc.lft.to/lastmile_qr_scan", "ios": "https://dc.lft.to/lastmile_qr_scan"}, "lat": 38.92503133333334, "bike_id": "2c22c4f4a3d38ce1061764ed5cc653ea", "is_disabled": 0, "lon": -77.02581916666666, "is_reserved": 0, "fusion_lat": 0.0, "type": "electric_scooter"}, {"fusion_lon": 0.0, "name": "91bfd118eaa390c5df9b91c599736d9e", "rental_uris": {"android": "https://dc.lft.to/lastmile_qr_scan", "ios": "https://dc.lft.to/lastmile_qr_scan"}, "lat": 38.9242425, "bike_id": "91bfd118eaa390c5df9b91c599736d9e", "is_disabled": 0, "lon": -77.01963716666667, "is_reserved": 0, "fusion_lat": 0.0, "type": "electric_scooter"}, {"fusion_lon": 0.0, "name": "7ce56216d7ce6b67e27a4149927dd958", "rental_uris": {"android": "https://dc.lft.to/lastmile_qr_scan", "ios": "https://dc.lft.to/lastmile_qr_scan"}, "lat": 38.8972755, "bike_id": "7ce56216d7ce6b67e27a4149927dd958", "is_disabled": 0, "lon": -77.03151816666667, "is_reserved": 0, "fusion_lat": 0.0, "type": "electric_scooter"}, {"fusion_lon": 0.0, "name": "e6c623ea13325ac7c7ee80c9ad0a87a3", "rental_uris": {"android": "https://dc.lft.to/lastmile_qr_scan", "ios": "https://dc.lft.to/lastmile_qr_scan"}, "lat": 38.86333183333333, "bike_id": "e6c623ea13325ac7c7ee80c9ad0a87a3", "is_disabled": 0, "lon": -76.987227, "is_reserved": 0, "fusion_lat": 0.0, "type": "electric_bike"}, {"fusion_lon": 0.0, "name": "78b851b2edc96661341bb0125e245182", "rental_uris": {"android": "https://dc.lft.to/lastmile_qr_scan", "ios": "https://dc.lft.to/lastmile_qr_scan"}, "lat": 38.943141833333335, "bike_id": "78b851b2edc96661341bb0125e245182", "is_disabled": 0, "lon": -77.061498, "is_reserved": 0, "fusion_lat": 0.0, "type": "electric_scooter"}, {"fusion_lon": 0.0, "name": "122774ebba49807e27065bf222cf0714", "rental_uris": {"android": "https://dc.lft.to/lastmile_qr_scan", "ios": "https://dc.lft.to/lastmile_qr_scan"}, "lat": 38.8922325, "bike_id": "122774ebba49807e27065bf222cf0714", "is_disabled": 0, "lon": -77.045047, "is_reserved": 0, "fusion_lat": 0.0, "type": "electric_scooter"}, {"fusion_lon": 0.0, "name": "bfc9f3c8abfc027c44ba03287280a4bf", "rental_uris": {"android": "https://dc.lft.to/lastmile_qr_scan", "ios": "https://dc.lft.to/lastmile_qr_scan"}, "lat": 38.9164655, "bike_id": "bfc9f3c8abfc027c44ba03287280a4bf", "is_disabled": 0, "lon": -77.06946233333333, "is_reserved": 0, "fusion_lat": 0.0, "type": "electric_scooter"}, {"fusion_lon": 0.0, "name": "112766e927bba3899d526346dd57c4ab", "rental_uris": {"android": "https://dc.lft.to/lastmile_qr_scan", "ios": "https://dc.lft.to/lastmile_qr_scan"}, "lat": 38.864861166666664, "bike_id": "112766e927bba3899d526346dd57c4ab", "is_disabled": 0, "lon": -76.97745466666667, "is_reserved": 0, "fusion_lat": 0.0, "type": "electric_bike"}, {"fusion_lon": 0.0, "name": "c2ee739c228d45a3a3bbc18d52714da5", "rental_uris": {"android": "https://dc.lft.to/lastmile_qr_scan", "ios": "https://dc.lft.to/lastmile_qr_scan"}, "lat": 38.91114266666666, "bike_id": "c2ee739c228d45a3a3bbc18d52714da5", "is_disabled": 0, "lon": -77.02134783333334, "is_reserved": 0, "fusion_lat": 0.0, "type": "electric_scooter"}, {"fusion_lon": 0.0, "name": "2d4b7cf7d04708c8df94560d71a2c691", "rental_uris": {"android": "https://dc.lft.to/lastmile_qr_scan", "ios": "https://dc.lft.to/lastmile_qr_scan"}, "lat": 38.898993833333336, "bike_id": "2d4b7cf7d04708c8df94560d71a2c691", "is_disabled": 0, "lon": -76.9800205, "is_reserved": 0, "fusion_lat": 0.0, "type": "electric_scooter"}, {"fusion_lon": 0.0, "name": "216d3ef7bd93647717e7e591dca39108", "rental_uris": {"android": "https://dc.lft.to/lastmile_qr_scan", "ios": "https://dc.lft.to/lastmile_qr_scan"}, "lat": 38.915614, "bike_id": "216d3ef7bd93647717e7e591dca39108", "is_disabled": 0, "lon": -77.02276266666667, "is_reserved": 0, "fusion_lat": 0.0, "type": "electric_scooter"}, {"fusion_lon": 0.0, "name": "64abaffbedb9dd9b1f81c94466372814", "rental_uris": {"android": "https://dc.lft.to/lastmile_qr_scan", "ios": "https://dc.lft.to/lastmile_qr_scan"}, "lat": 38.92149633333333, "bike_id": "64abaffbedb9dd9b1f81c94466372814", "is_disabled": 0, "lon": -77.02108183333333, "is_reserved": 0, "fusion_lat": 0.0, "type": "electric_scooter"}, {"fusion_lon": 0.0, "name": "656b058c5e04852669d6f7ecc8d37896", "rental_uris": {"android": "https://dc.lft.to/lastmile_qr_scan", "ios": "https://dc.lft.to/lastmile_qr_scan"}, "lat": 38.92719916666667, "bike_id": "656b058c5e04852669d6f7ecc8d37896", "is_disabled": 0, "lon": -77.02096883333333, "is_reserved": 0, "fusion_lat": 0.0, "type": "electric_scooter"}, {"fusion_lon": 0.0, "name": "b62b5e9450ecf0b18a635fa48e51d9b3", "rental_uris": {"android": "https://dc.lft.to/lastmile_qr_scan", "ios": "https://dc.lft.to/lastmile_qr_scan"}, "lat": 38.9376435, "bike_id": "b62b5e9450ecf0b18a635fa48e51d9b3", "is_disabled": 0, "lon": -77.03244283333333, "is_reserved": 0, "fusion_lat": 0.0, "type": "electric_scooter"}, {"fusion_lon": 0.0, "name": "875d59d89051837fc71f420b4277ace3", "rental_uris": {"android": "https://dc.lft.to/lastmile_qr_scan", "ios": "https://dc.lft.to/lastmile_qr_scan"}, "lat": 38.907028333333336, "bike_id": "875d59d89051837fc71f420b4277ace3", "is_disabled": 0, "lon": -76.98698866666666, "is_reserved": 0, "fusion_lat": 0.0, "type": "electric_scooter"}, {"fusion_lon": 0.0, "name": "5eca0c85e98bddf5a3f45d1792e2f0a0", "rental_uris": {"android": "https://dc.lft.to/lastmile_qr_scan", "ios": "https://dc.lft.to/lastmile_qr_scan"}, "lat": 38.92270083333333, "bike_id": "5eca0c85e98bddf5a3f45d1792e2f0a0", "is_disabled": 0, "lon": -76.99760016666667, "is_reserved": 0, "fusion_lat": 0.0, "type": "electric_scooter"}, {"fusion_lon": 0.0, "name": "baee6a5fe92eaf9813719411e0f4995b", "rental_uris": {"android": "https://dc.lft.to/lastmile_qr_scan", "ios": "https://dc.lft.to/lastmile_qr_scan"}, "lat": 38.901803, "bike_id": "baee6a5fe92eaf9813719411e0f4995b", "is_disabled": 0, "lon": -77.0240455, "is_reserved": 0, "fusion_lat": 0.0, "type": "electric_scooter"}, {"fusion_lon": 0.0, "name": "41a6afdfae92a3c8bd308880f3c61f71", "rental_uris": {"android": "https://dc.lft.to/lastmile_qr_scan", "ios": "https://dc.lft.to/lastmile_qr_scan"}, "lat": 38.93356583333333, "bike_id": "41a6afdfae92a3c8bd308880f3c61f71", "is_disabled": 0, "lon": -77.0738105, "is_reserved": 0, "fusion_lat": 0.0, "type": "electric_scooter"}, {"fusion_lon": 0.0, "name": "bc047e70303e690cc9aa969f44405106", "rental_uris": {"android": "https://dc.lft.to/lastmile_qr_scan", "ios": "https://dc.lft.to/lastmile_qr_scan"}, "lat": 38.951866, "bike_id": "bc047e70303e690cc9aa969f44405106", "is_disabled": 0, "lon": -76.99174333333333, "is_reserved": 0, "fusion_lat": 0.0, "type": "electric_scooter"}, {"fusion_lon": 0.0, "name": "523a53a5b534b11519411abe83731322", "rental_uris": {"android": "https://dc.lft.to/lastmile_qr_scan", "ios": "https://dc.lft.to/lastmile_qr_scan"}, "lat": 38.920607, "bike_id": "523a53a5b534b11519411abe83731322", "is_disabled": 0, "lon": -77.02311666666667, "is_reserved": 0, "fusion_lat": 0.0, "type": "electric_scooter"}, {"fusion_lon": 0.0, "name": "23123fca3238899c33acf3e95cd713ff", "rental_uris": {"android": "https://dc.lft.to/lastmile_qr_scan", "ios": "https://dc.lft.to/lastmile_qr_scan"}, "lat": 38.92722416666667, "bike_id": "23123fca3238899c33acf3e95cd713ff", "is_disabled": 0, "lon": -77.0355285, "is_reserved": 0, "fusion_lat": 0.0, "type": "electric_scooter"}, {"fusion_lon": 0.0, "name": "b36757f2b51ad29425799e87719dcfd6", "rental_uris": {"android": "https://dc.lft.to/lastmile_qr_scan", "ios": "https://dc.lft.to/lastmile_qr_scan"}, "lat": 38.99894483333333, "bike_id": "b36757f2b51ad29425799e87719dcfd6", "is_disabled": 0, "lon": -76.90857616666666, "is_reserved": 0, "fusion_lat": 0.0, "type": "electric_bike"}, {"fusion_lon": 0.0, "name": "6aaff68c5330a86db7a75831320ca438", "rental_uris": {"android": "https://dc.lft.to/lastmile_qr_scan", "ios": "https://dc.lft.to/lastmile_qr_scan"}, "lat": 38.87037633333333, "bike_id": "6aaff68c5330a86db7a75831320ca438", "is_disabled": 0, "lon": -77.2291265, "is_reserved": 0, "fusion_lat": 0.0, "type": "electric_bike"}, {"fusion_lon": 0.0, "name": "5636b15b623356200295be20e2d0d245", "rental_uris": {"android": "https://dc.lft.to/lastmile_qr_scan", "ios": "https://dc.lft.to/lastmile_qr_scan"}, "lat": 38.9353195, "bike_id": "5636b15b623356200295be20e2d0d245", "is_disabled": 0, "lon": -77.0230635, "is_reserved": 0, "fusion_lat": 0.0, "type": "electric_scooter"}, {"fusion_lon": 0.0, "name": "411f489bd5bea72ad227f74c1ff9989c", "rental_uris": {"android": "https://dc.lft.to/lastmile_qr_scan", "ios": "https://dc.lft.to/lastmile_qr_scan"}, "lat": 38.946787666666665, "bike_id": "411f489bd5bea72ad227f74c1ff9989c", "is_disabled": 0, "lon": -77.03279966666666, "is_reserved": 0, "fusion_lat": 0.0, "type": "electric_scooter"}, {"fusion_lon": 0.0, "name": "e2822df4b7a8ffb68f7e0b62e7ce1fe2", "rental_uris": {"android": "https://dc.lft.to/lastmile_qr_scan", "ios": "https://dc.lft.to/lastmile_qr_scan"}, "lat": 38.9219865, "bike_id": "e2822df4b7a8ffb68f7e0b62e7ce1fe2", "is_disabled": 0, "lon": -77.02979883333333, "is_reserved": 0, "fusion_lat": 0.0, "type": "electric_scooter"}, {"fusion_lon": 0.0, "name": "2dbc686c9e1a6208689d3baea901911c", "rental_uris": {"android": "https://dc.lft.to/lastmile_qr_scan", "ios": "https://dc.lft.to/lastmile_qr_scan"}, "lat": 38.9246925, "bike_id": "2dbc686c9e1a6208689d3baea901911c", "is_disabled": 0, "lon": -77.02271716666667, "is_reserved": 0, "fusion_lat": 0.0, "type": "electric_scooter"}, {"fusion_lon": 0.0, "name": "b5f6d507dee71ffe6bf7e1b207ccc908", "rental_uris": {"android": "https://dc.lft.to/lastmile_qr_scan", "ios": "https://dc.lft.to/lastmile_qr_scan"}, "lat": 38.8543315, "bike_id": "b5f6d507dee71ffe6bf7e1b207ccc908", "is_disabled": 0, "lon": -77.08315983333334, "is_reserved": 0, "fusion_lat": 0.0, "type": "electric_bike"}, {"fusion_lon": 0.0, "name": "a1d238452e4348b85bc1d68f82c7d6cc", "rental_uris": {"android": "https://dc.lft.to/lastmile_qr_scan", "ios": "https://dc.lft.to/lastmile_qr_scan"}, "lat": 38.897103666666666, "bike_id": "a1d238452e4348b85bc1d68f82c7d6cc", "is_disabled": 0, "lon": -76.99119266666666, "is_reserved": 0, "fusion_lat": 0.0, "type": "electric_scooter"}, {"fusion_lon": 0.0, "name": "0e331b86197189ed2fbc14018ac6040f", "rental_uris": {"android": "https://dc.lft.to/lastmile_qr_scan", "ios": "https://dc.lft.to/lastmile_qr_scan"}, "lat": 38.90330933333333, "bike_id": "0e331b86197189ed2fbc14018ac6040f", "is_disabled": 0, "lon": -76.975953, "is_reserved": 0, "fusion_lat": 0.0, "type": "electric_scooter"}, {"fusion_lon": 0.0, "name": "0b185dd50fd7d700a9c574fccea9b278", "rental_uris": {"android": "https://dc.lft.to/lastmile_qr_scan", "ios": "https://dc.lft.to/lastmile_qr_scan"},