{"data": {"bikes": [{"lon": -77.03171966666666, "fusion_lat": 0.0, "type": "electric_scooter", "lat": 38.91550083333333, "is_disabled": 0, "name": "c1b8be9110191c214f91b28fe1715043", "is_reserved": 0, "bike_id": "c1b8be9110191c214f91b28fe1715043", "fusion_lon": 0.0, "rental_uris": {"ios": "https://dc.lft.to/lastmile_qr_scan", "android": "https://dc.lft.to/lastmile_qr_scan"}}, {"lon": -76.993279, "fusion_lat": 0.0, "type": "electric_scooter", "lat": 38.90620666666667, "is_disabled": 0, "name": "6ed7bfe25e01ab91b3f24be13d9984f1", "is_reserved": 0, "bike_id": "6ed7bfe25e01ab91b3f24be13d9984f1", "fusion_lon": 0.0, "rental_uris": {"ios": "https://dc.lft.to/lastmile_qr_scan", "android": "https://dc.lft.to/lastmile_qr_scan"}}, {"lon": -76.997686, "fusion_lat": 0.0, "type": "electric_scooter", "lat": 38.9069695, "is_disabled": 0, "name": "13615e682ee7f85806cd8932a3ed4621", "is_reserved": 0, "bike_id": "13615e682ee7f85806cd8932a3ed4621", "fusion_lon": 0.0, "rental_uris": {"ios": "https://dc.lft.to/lastmile_qr_scan", "android": "https://dc.lft.to/lastmile_qr_scan"}}, {"lon": -77.01710883333334, "fusion_lat": 0.0, "type": "electric_scooter", "lat": 38.9751605, "is_disabled": 0, "name": "b353de5fd6379e7094036ff1f9b5e771", "is_reserved": 0, "bike_id": "b353de5fd6379e7094036ff1f9b5e771", "fusion_lon": 0.0, "rental_uris": {"ios": "https://dc.lft.to/lastmile_qr_scan", "android": "https://dc.lft.to/lastmile_qr_scan"}}, {"lon": -77.03826766666667, "fusion_lat": 0.0, "type": "electric_scooter", "lat": 38.91692716666667, "is_disabled": 0, "name": "a2c71dcb11259db897891d6150aa2f60", "is_reserved": 0, "bike_id": "a2c71dcb11259db897891d6150aa2f60", "fusion_lon": 0.0, "rental_uris": {"ios": "https://dc.lft.to/lastmile_qr_scan", "android": "https://dc.lft.to/lastmile_qr_scan"}}, {"lon": -76.99372816666667, "fusion_lat": 0.0, "type": "electric_scooter", "lat": 38.91017466666667, "is_disabled": 0, "name": "2d8418d454a887d3afed613634b06fe2", "is_reserved": 0, "bike_id": "2d8418d454a887d3afed613634b06fe2", "fusion_lon": 0.0, "rental_uris": {"ios": "https://dc.lft.to/lastmile_qr_scan", "android": "https://dc.lft.to/lastmile_qr_scan"}}, {"lon": -77.031013, "fusion_lat": 0.0, "type": "electric_scooter", "lat": 38.89627216666667, "is_disabled": 0, "name": "a1165318ca85f6f29bddff6737704d44", "is_reserved": 0, "bike_id": "a1165318ca85f6f29bddff6737704d44", "fusion_lon": 0.0, "rental_uris": {"ios": "https://dc.lft.to/lastmile_qr_scan", "android": "https://dc.lft.to/lastmile_qr_scan"}}, {"lon": -77.05804216666667, "fusion_lat": 0.0, "type": "electric_scooter", "lat": 38.90263783333333, "is_disabled": 0, "name": "e8799e2f20aaa3f38749737828bdf17f", "is_reserved": 0, "bike_id": "e8799e2f20aaa3f38749737828bdf17f", "fusion_lon": 0.0, "rental_uris": {"ios": "https://dc.lft.to/lastmile_qr_scan", "android": "https://dc.lft.to/lastmile_qr_scan"}}, {"lon": -76.99519216666667, "fusion_lat": 0.0, "type": "electric_scooter", "lat": 38.883703833333335, "is_disabled": 0, "name": "6d4ec59765485c0c93f042a1190bec80", "is_reserved": 0, "bike_id": "6d4ec59765485c0c93f042a1190bec80", "fusion_lon": 0.0, "rental_uris": {"ios": "https://dc.lft.to/lastmile_qr_scan", "android": "https://dc.lft.to/lastmile_qr_scan"}}, {"lon": -77.02294266666667, "fusion_lat": 0.0, "type": "electric_scooter", "lat": 38.92063183333333, "is_disabled": 0, "name": "b660752d21839c1e4579db1b9fb93f69", "is_reserved": 0, "bike_id": "b660752d21839c1e4579db1b9fb93f69", "fusion_lon": 0.0, "rental_uris": {"ios": "https://dc.lft.to/lastmile_qr_scan", "android": "https://dc.lft.to/lastmile_qr_scan"}}, {"lon": -77.04226833333334, "fusion_lat": 0.0, "type": "electric_scooter", "lat": 38.90126216666667, "is_disabled": 0, "name": "2124bd62cb50ca770791099e427f2ca2", "is_reserved": 0, "bike_id": "2124bd62cb50ca770791099e427f2ca2", "fusion_lon": 0.0, "rental_uris": {"ios": "https://dc.lft.to/lastmile_qr_scan", "android": "https://dc.lft.to/lastmile_qr_scan"}}, {"lon": -77.04777083333333, "fusion_lat": 0.0, "type": "electric_scooter", "lat": 38.91652, "is_disabled": 0, "name": "f7082a00207b57252996c67765379393", "is_reserved": 0, "bike_id": "f7082a00207b57252996c67765379393", "fusion_lon": 0.0, "rental_uris": {"ios": "https://dc.lft.to/lastmile_qr_scan", "android": "https://dc.lft.to/lastmile_qr_scan"}}, {"lon": -77.036611, "fusion_lat": 0.0, "type": "electric_scooter", "lat": 38.91651183333333, "is_disabled": 0, "name": "92f731dfc225baf47c02f5a8baa6624f", "is_reserved": 0, "bike_id": "92f731dfc225baf47c02f5a8baa6624f", "fusion_lon": 0.0, "rental_uris": {"ios": "https://dc.lft.to/lastmile_qr_scan", "android": "https://dc.lft.to/lastmile_qr_scan"}}, {"lon": -76.9899765, "fusion_lat": 0.0, "type": "electric_scooter", "lat": 38.90273216666667, "is_disabled": 0, "name": "f68592fcbea679a92a6b4eec84e18950", "is_reserved": 0, "bike_id": "f68592fcbea679a92a6b4eec84e18950", "fusion_lon": 0.0, "rental_uris": {"ios": "https://dc.lft.to/lastmile_qr_scan", "android": "https://dc.lft.to/lastmile_qr_scan"}}, {"lon": -77.01502383333333, "fusion_lat": 0.0, "type": "electric_scooter", "lat": 38.89350116666667, "is_disabled": 0, "name": "e0874b3a67de5655b57f17d3b2ef6788", "is_reserved": 0, "bike_id": "e0874b3a67de5655b57f17d3b2ef6788", "fusion_lon": 0.0, "rental_uris": {"ios": "https://dc.lft.to/lastmile_qr_scan", "android": "https://dc.lft.to/lastmile_qr_scan"}}, {"lon": -77.0181235, "fusion_lat": 0.0, "type": "electric_scooter", "lat": 38.902405333333334, "is_disabled": 0, "name": "7ecfc4901060d5743e9684a073497dc2", "is_reserved": 0, "bike_id": "7ecfc4901060d5743e9684a073497dc2", "fusion_lon": 0.0, "rental_uris": {"ios": "https://dc.lft.to/lastmile_qr_scan", "android": "https://dc.lft.to/lastmile_qr_scan"}}, {"lon": -77.02599883333333, "fusion_lat": 0.0, "type": "electric_scooter", "lat": 38.917213333333336, "is_disabled": 0, "name": "1470d6d047359aff09c242f6a1578305", "is_reserved": 0, "bike_id": "1470d6d047359aff09c242f6a1578305", "fusion_lon": 0.0, "rental_uris": {"ios": "https://dc.lft.to/lastmile_qr_scan", "android": "https://dc.lft.to/lastmile_qr_scan"}}, {"lon": -77.02089033333333, "fusion_lat": 0.0, "type": "electric_scooter", "lat": 38.932619833333334, "is_disabled": 0, "name": "e7bed900b9acc4476b8b5b9990866700", "is_reserved": 0, "bike_id": "e7bed900b9acc4476b8b5b9990866700", "fusion_lon": 0.0, "rental_uris": {"ios": "https://dc.lft.to/lastmile_qr_scan", "android": "https://dc.lft.to/lastmile_qr_scan"}}, {"lon": -77.03034183333334, "fusion_lat": 0.0, "type": "electric_scooter", "lat": 38.902683, "is_disabled": 0, "name": "1e26e4bad4e18e7ae70d0d813f446ba4", "is_reserved": 0, "bike_id": "1e26e4bad4e18e7ae70d0d813f446ba4", "fusion_lon": 0.0, "rental_uris": {"ios": "https://dc.lft.to/lastmile_qr_scan", "android": "https://dc.lft.to/lastmile_qr_scan"}}, {"lon": -76.94057533333333, "fusion_lat": 0.0, "type": "electric_bike", "lat": 38.89128816666667, "is_disabled": 0, "name": "8b4680d7d64b67c42976fa2bcfea6353", "is_reserved": 0, "bike_id": "8b4680d7d64b67c42976fa2bcfea6353", "fusion_lon": 0.0, "rental_uris": {"ios": "https://dc.lft.to/lastmile_qr_scan", "android": "https://dc.lft.to/lastmile_qr_scan"}}, {"lon": -77.04276716666666, "fusion_lat": 0.0, "type": "electric_scooter", "lat": 38.906433166666666, "is_disabled": 0, "name": "18a162e1d26905930cab3e0a96acf147", "is_reserved": 0, "bike_id": "18a162e1d26905930cab3e0a96acf147", "fusion_lon": 0.0, "rental_uris": {"ios": "https://dc.lft.to/lastmile_qr_scan", "android": "https://dc.lft.to/lastmile_qr_scan"}}, {"lon": -77.03353083333333, "fusion_lat": 0.0, "type": "electric_scooter", "lat": 38.913528666666664, "is_disabled": 0, "name": "c823794596e5dff8fdcdedc16062d65e", "is_reserved": 0, "bike_id": "c823794596e5dff8fdcdedc16062d65e", "fusion_lon": 0.0, "rental_uris": {"ios": "https://dc.lft.to/lastmile_qr_scan", "android": "https://dc.lft.to/lastmile_qr_scan"}}, {"lon": -77.03181283333333, "fusion_lat": 0.0, "type": "electric_scooter", "lat": 38.9087585, "is_disabled": 0, "name": "738b430bfa4a14e17fc5c95024300882", "is_reserved": 0, "bike_id": "738b430bfa4a14e17fc5c95024300882", "fusion_lon": 0.0, "rental_uris": {"ios": "https://dc.lft.to/lastmile_qr_scan", "android": "https://dc.lft.to/lastmile_qr_scan"}}, {"lon": -77.03827266666667, "fusion_lat": 0.0, "type": "electric_scooter", "lat": 38.9247175, "is_disabled": 0, "name": "7ab0c9e6f5bc257d525f20ec716ff7c4", "is_reserved": 0, "bike_id": "7ab0c9e6f5bc257d525f20ec716ff7c4", "fusion_lon": 0.0, "rental_uris": {"ios": "https://dc.lft.to/lastmile_qr_scan", "android": "https://dc.lft.to/lastmile_qr_scan"}}, {"lon": -77.0356055, "fusion_lat": 0.0, "type": "electric_scooter", "lat": 38.9046615, "is_disabled": 0, "name": "7ad68ed3f727cd5f009064ca9380ce73", "is_reserved": 0, "bike_id": "7ad68ed3f727cd5f009064ca9380ce73", "fusion_lon": 0.0, "rental_uris": {"ios": "https://dc.lft.to/lastmile_qr_scan", "android": "https://dc.lft.to/lastmile_qr_scan"}}, {"lon": -77.02197783333334, "fusion_lat": 0.0, "type": "electric_scooter", "lat": 38.8946265, "is_disabled": 0, "name": "cc7077beb1dd3cb13e38d0450a741466", "is_reserved": 0, "bike_id": "cc7077beb1dd3cb13e38d0450a741466", "fusion_lon": 0.0, "rental_uris": {"ios": "https://dc.lft.to/lastmile_qr_scan", "android": "https://dc.lft.to/lastmile_qr_scan"}}, {"lon": -77.0320945, "fusion_lat": 0.0, "type": "electric_scooter", "lat": 38.898550666666665, "is_disabled": 0, "name": "2a5df0104905e801309f12686f9628e9", "is_reserved": 0, "bike_id": "2a5df0104905e801309f12686f9628e9", "fusion_lon": 0.0, "rental_uris": {"ios": "https://dc.lft.to/lastmile_qr_scan", "android": "https://dc.lft.to/lastmile_qr_scan"}}, {"lon": -77.01532616666667, "fusion_lat": 0.0, "type": "electric_scooter", "lat": 38.907441, "is_disabled": 0, "name": "c41b18a015e5834059673451cc5d8c78", "is_reserved": 0, "bike_id": "c41b18a015e5834059673451cc5d8c78", "fusion_lon": 0.0, "rental_uris": {"ios": "https://dc.lft.to/lastmile_qr_scan", "android": "https://dc.lft.to/lastmile_qr_scan"}}, {"lon": -77.02166333333334, "fusion_lat": 0.0, "type": "electric_scooter", "lat": 38.90194616666667, "is_disabled": 0, "name": "859819d3a84c0825c84d8c29a6b5fd48", "is_reserved": 0, "bike_id": "859819d3a84c0825c84d8c29a6b5fd48", "fusion_lon": 0.0, "rental_uris": {"ios": "https://dc.lft.to/lastmile_qr_scan", "android": "https://dc.lft.to/lastmile_qr_scan"}}, {"lon": -77.03209283333334, "fusion_lat": 0.0, "type": "electric_scooter", "lat": 38.89060333333333, "is_disabled": 0, "name": "76d4d9ad47565f597d01f0411a92d02e", "is_reserved": 0, "bike_id": "76d4d9ad47565f597d01f0411a92d02e", "fusion_lon": 0.0, "rental_uris": {"ios": "https://dc.lft.to/lastmile_qr_scan", "android": "https://dc.lft.to/lastmile_qr_scan"}}, {"lon": -77.03170466666667, "fusion_lat": 0.0, "type": "electric_scooter", "lat": 38.914202333333336, "is_disabled": 0, "name": "6e295e1793723b47efe48bd1e0d4e7fa", "is_reserved": 0, "bike_id": "6e295e1793723b47efe48bd1e0d4e7fa", "fusion_lon": 0.0, "rental_uris": {"ios": "https://dc.lft.to/lastmile_qr_scan", "android": "https://dc.lft.to/lastmile_qr_scan"}}, {"lon": -77.01792016666667, "fusion_lat": 0.0, "type": "electric_bike", "lat": 38.994135, "is_disabled": 0, "name": "1c2bfdfc28bf90f4999a3f995c167c3b", "is_reserved": 0, "bike_id": "1c2bfdfc28bf90f4999a3f995c167c3b", "fusion_lon": 0.0, "rental_uris": {"ios": "https://dc.lft.to/lastmile_qr_scan", "android": "https://dc.lft.to/lastmile_qr_scan"}}, {"lon": -76.986888, "fusion_lat": 0.0, "type": "electric_bike", "lat": 38.94468833333333, "is_disabled": 0, "name": "c564d96ce4313e9ad4994e3a9f18d294", "is_reserved": 0, "bike_id": "c564d96ce4313e9ad4994e3a9f18d294", "fusion_lon": 0.0, "rental_uris": {"ios": "https://dc.lft.to/lastmile_qr_scan", "android": "https://dc.lft.to/lastmile_qr_scan"}}, {"lon": -77.02400283333333, "fusion_lat": 0.0, "type": "electric_scooter", "lat": 38.92504233333333, "is_disabled": 0, "name": "17710228d94b1a77183af187012a06ec", "is_reserved": 0, "bike_id": "17710228d94b1a77183af187012a06ec", "fusion_lon": 0.0, "rental_uris": {"ios": "https://dc.lft.to/lastmile_qr_scan", "android": "https://dc.lft.to/lastmile_qr_scan"}}, {"lon": -76.994862, "fusion_lat": 0.0, "type": "electric_scooter", "lat": 38.89475383333333, "is_disabled": 0, "name": "c8b6024952fcaf2f482d6bf3aebf890e", "is_reserved": 0, "bike_id": "c8b6024952fcaf2f482d6bf3aebf890e", "fusion_lon": 0.0, "rental_uris": {"ios": "https://dc.lft.to/lastmile_qr_scan", "android": "https://dc.lft.to/lastmile_qr_scan"}}, {"lon": -77.01267983333334, "fusion_lat": 0.0, "type": "electric_scooter", "lat": 38.89725683333333, "is_disabled": 0, "name": "658e3ba710676f39fcbfa86a2365e630", "is_reserved": 0, "bike_id": "658e3ba710676f39fcbfa86a2365e630", "fusion_lon": 0.0, "rental_uris": {"ios": "https://dc.lft.to/lastmile_qr_scan", "android": "https://dc.lft.to/lastmile_qr_scan"}}, {"lon": -76.99538466666667, "fusion_lat": 0.0, "type": "electric_bike", "lat": 38.838679166666665, "is_disabled": 0, "name": "8d671bc115146d13a873e03cbf767dbe", "is_reserved": 0, "bike_id": "8d671bc115146d13a873e03cbf767dbe", "fusion_lon": 0.0, "rental_uris": {"ios": "https://dc.lft.to/lastmile_qr_scan", "android": "https://dc.lft.to/lastmile_qr_scan"}}, {"lon": -77.032009, "fusion_lat": 0.0, "type": "electric_scooter", "lat": 38.904549333333335, "is_disabled": 0, "name": "4f165f83aecae3578ef72fb09209abc6", "is_reserved": 0, "bike_id": "4f165f83aecae3578ef72fb09209abc6", "fusion_lon": 0.0, "rental_uris": {"ios": "https://dc.lft.to/lastmile_qr_scan", "android": "https://dc.lft.to/lastmile_qr_scan"}}, {"lon": -77.021703, "fusion_lat": 0.0, "type": "electric_scooter", "lat": 38.91495716666667, "is_disabled": 0, "name": "86830cb552b35f898edb32c8a963e87b", "is_reserved": 0, "bike_id": "86830cb552b35f898edb32c8a963e87b", "fusion_lon": 0.0, "rental_uris": {"ios": "https://dc.lft.to/lastmile_qr_scan", "android": "https://dc.lft.to/lastmile_qr_scan"}}, {"lon": -76.97412816666667, "fusion_lat": 0.0, "type": "electric_scooter", "lat": 38.902389, "is_disabled": 0, "name": "d84f770c48510e1fe1a25a5aa142117a", "is_reserved": 0, "bike_id": "d84f770c48510e1fe1a25a5aa142117a", "fusion_lon": 0.0, "rental_uris": {"ios": "https://dc.lft.to/lastmile_qr_scan", "android": "https://dc.lft.to/lastmile_qr_scan"}}, {"lon": -77.038632, "fusion_lat": 0.0, "type": "electric_scooter", "lat": 38.903824166666666, "is_disabled": 0, "name": "fbfb42c5beffec4fb3186e2b63c4a9d6", "is_reserved": 0, "bike_id": "fbfb42c5beffec4fb3186e2b63c4a9d6", "fusion_lon": 0.0, "rental_uris": {"ios": "https://dc.lft.to/lastmile_qr_scan", "android": "https://dc.lft.to/lastmile_qr_scan"}}, {"lon": -77.035995, "fusion_lat": 0.0, "type": "electric_scooter", "lat": 38.9232395, "is_disabled": 0, "name": "5aa22198e6e2d5c9be58078750aca487", "is_reserved": 0, "bike_id": "5aa22198e6e2d5c9be58078750aca487", "fusion_lon": 0.0, "rental_uris": {"ios": "https://dc.lft.to/lastmile_qr_scan", "android": "https://dc.lft.to/lastmile_qr_scan"}}, {"lon": -77.045977, "fusion_lat": 0.0, "type": "electric_scooter", "lat": 38.896066, "is_disabled": 0, "name": "adc0bf35d31b4a5270ffa1bfcc59e8b2", "is_reserved": 0, "bike_id": "adc0bf35d31b4a5270ffa1bfcc59e8b2", "fusion_lon": 0.0, "rental_uris": {"ios": "https://dc.lft.to/lastmile_qr_scan", "android": "https://dc.lft.to/lastmile_qr_scan"}}, {"lon": -77.02502166666666, "fusion_lat": 0.0, "type": "electric_scooter", "lat": 38.92790433333333, "is_disabled": 0, "name": "1476e4de1600886f7eec690da1e903eb", "is_reserved": 0, "bike_id": "1476e4de1600886f7eec690da1e903eb", "fusion_lon": 0.0, "rental_uris": {"ios": "https://dc.lft.to/lastmile_qr_scan", "android": "https://dc.lft.to/lastmile_qr_scan"}}, {"lon": -77.01846066666667, "fusion_lat": 0.0, "type": "electric_scooter", "lat": 38.9097055, "is_disabled": 0, "name": "3ba2ca33c73409485dc330573732ed7d", "is_reserved": 0, "bike_id": "3ba2ca33c73409485dc330573732ed7d", "fusion_lon": 0.0, "rental_uris": {"ios": "https://dc.lft.to/lastmile_qr_scan", "android": "https://dc.lft.to/lastmile_qr_scan"}}, {"lon": -77.04639616666667, "fusion_lat": 0.0, "type": "electric_scooter", "lat": 38.895045, "is_disabled": 0, "name": "0146f83f3468e2047ac2ef85f1f139d3", "is_reserved": 0, "bike_id": "0146f83f3468e2047ac2ef85f1f139d3", "fusion_lon": 0.0, "rental_uris": {"ios": "https://dc.lft.to/lastmile_qr_scan", "android": "https://dc.lft.to/lastmile_qr_scan"}}, {"lon": -77.0397825, "fusion_lat": 0.0, "type": "electric_scooter", "lat": 38.90276, "is_disabled": 0, "name": "5a5d9d7f93ba77f9c657d196d3736cce", "is_reserved": 0, "bike_id": "5a5d9d7f93ba77f9c657d196d3736cce", "fusion_lon": 0.0, "rental_uris": {"ios": "https://dc.lft.to/lastmile_qr_scan", "android": "https://dc.lft.to/lastmile_qr_scan"}}, {"lon": -77.02511133333333, "fusion_lat": 0.0, "type": "electric_scooter", "lat": 38.901791833333334, "is_disabled": 0, "name": "a72ed6c8ee2f444be9a6d417111a7772", "is_reserved": 0, "bike_id": "a72ed6c8ee2f444be9a6d417111a7772", "fusion_lon": 0.0, "rental_uris": {"ios": "https://dc.lft.to/lastmile_qr_scan", "android": "https://dc.lft.to/lastmile_qr_scan"}}, {"lon": -77.0238905, "fusion_lat": 0.0, "type": "electric_scooter", "lat": 38.900354166666666, "is_disabled": 0, "name": "e90de3d3fe554d968e9cbb0186588397", "is_reserved": 0, "bike_id": "e90de3d3fe554d968e9cbb0186588397", "fusion_lon": 0.0, "rental_uris": {"ios": "https://dc.lft.to/lastmile_qr_scan", "android": "https://dc.lft.to/lastmile_qr_scan"}}, {"lon": -76.99770116666667, "fusion_lat": 0.0, "type": "electric_scooter", "lat": 38.89420833333333, "is_disabled": 0, "name": "375612d6af66f18e11f9240a78b40e17", "is_reserved": 0, "bike_id": "375612d6af66f18e11f9240a78b40e17", "fusion_lon": 0.0, "rental_uris": {"ios": "https://dc.lft.to/lastmile_qr_scan", "android": "https://dc.lft.to/lastmile_qr_scan"}}, {"lon": -77.00259816666667, "fusion_lat": 0.0, "type": "electric_scooter", "lat": 38.87659883333333, "is_disabled": 0, "name": "c4e66a3bcfd53cd112c50eb147a889b7", "is_reserved": 0, "bike_id": "c4e66a3bcfd53cd112c50eb147a889b7", "fusion_lon": 0.0, "rental_uris": {"ios": "https://dc.lft.to/lastmile_qr_scan", "android": "https://dc.lft.to/lastmile_qr_scan"}}, {"lon": -76.93921183333333, "fusion_lat": 0.0, "type": "electric_scooter", "lat": 38.8821955, "is_disabled": 0, "name": "540469655f45d3aa4042771c0fec3056", "is_reserved": 0, "bike_id": "540469655f45d3aa4042771c0fec3056", "fusion_lon": 0.0, "rental_uris": {"ios": "https://dc.lft.to/lastmile_qr_scan", "android": "https://dc.lft.to/lastmile_qr_scan"}}, {"lon": -77.04367933333333, "fusion_lat": 0.0, "type": "electric_scooter", "lat": 38.89222616666667, "is_disabled": 0, "name": "07d5a2b1d42eb6d7ebba46936f2c5a3d", "is_reserved": 0, "bike_id": "07d5a2b1d42eb6d7ebba46936f2c5a3d", "fusion_lon": 0.0, "rental_uris": {"ios": "https://dc.lft.to/lastmile_qr_scan", "android": "https://dc.lft.to/lastmile_qr_scan"}}, {"lon": -77.04488766666667, "fusion_lat": 0.0, "type": "electric_scooter", "lat": 38.91492933333333, "is_disabled": 0, "name": "a6a724070ca4efa48d8e4e0c0558a94f", "is_reserved": 0, "bike_id": "a6a724070ca4efa48d8e4e0c0558a94f", "fusion_lon": 0.0, "rental_uris": {"ios": "https://dc.lft.to/lastmile_qr_scan", "android": "https://dc.lft.to/lastmile_qr_scan"}}, {"lon": -77.03461266666666, "fusion_lat": 0.0, "type": "electric_scooter", "lat": 38.943025666666664, "is_disabled": 0, "name": "ac300e9ad85ed923a3cb04e15487a2fc", "is_reserved": 0, "bike_id": "ac300e9ad85ed923a3cb04e15487a2fc", "fusion_lon": 0.0, "rental_uris": {"ios": "https://dc.lft.to/lastmile_qr_scan", "android": "https://dc.lft.to/lastmile_qr_scan"}}, {"lon": -77.035744, "fusion_lat": 0.0, "type": "electric_scooter", "lat": 38.90554766666666, "is_disabled": 0, "name": "d2ecca623e6f5cdb077ccf4a4b8f76b5", "is_reserved": 0, "bike_id": "d2ecca623e6f5cdb077ccf4a4b8f76b5", "fusion_lon": 0.0, "rental_uris": {"ios": "https://dc.lft.to/lastmile_qr_scan", "android": "https://dc.lft.to/lastmile_qr_scan"}}, {"lon": -77.042257, "fusion_lat": 0.0, "type": "electric_bike", "lat": 39.03808683333333, "is_disabled": 0, "name": "c06c648c0191d91b15e9fb4d1d51f6f2", "is_reserved": 0, "bike_id": "c06c648c0191d91b15e9fb4d1d51f6f2", "fusion_lon": 0.0, "rental_uris": {"ios": "https://dc.lft.to/lastmile_qr_scan", "android": "https://dc.lft.to/lastmile_qr_scan"}}, {"lon": -77.01729033333334, "fusion_lat": 0.0, "type": "electric_scooter", "lat": 38.87539266666667, "is_disabled": 0, "name": "850e1009dbe241b434d4eff2331543ae", "is_reserved": 0, "bike_id": "850e1009dbe241b434d4eff2331543ae", "fusion_lon": 0.0, "rental_uris": {"ios": "https://dc.lft.to/lastmile_qr_scan", "android": "https://dc.lft.to/lastmile_qr_scan"}}, {"lon": -76.939702, "fusion_lat": 0.0, "type": "electric_scooter", "lat": 38.89306066666666, "is_disabled": 0, "name": "4d5936fb758488b3c3ca9730da3e7a50", "is_reserved": 0, "bike_id": "4d5936fb758488b3c3ca9730da3e7a50", "fusion_lon": 0.0, "rental_uris": {"ios": "https://dc.lft.to/lastmile_qr_scan", "android": "https://dc.lft.to/lastmile_qr_scan"}}, {"lon": -77.021526, "fusion_lat": 0.0, "type": "electric_scooter", "lat": 38.925999166666664, "is_disabled": 0, "name": "0f1654873a2fcea8f5dea2411d4810df", "is_reserved": 0, "bike_id": "0f1654873a2fcea8f5dea2411d4810df", "fusion_lon": 0.0, "rental_uris": {"ios": "https://dc.lft.to/lastmile_qr_scan", "android": "https://dc.lft.to/lastmile_qr_scan"}}, {"lon": -77.02692316666666, "fusion_lat": 0.0, "type": "electric_scooter", "lat": 38.90681766666667, "is_disabled": 0, "name": "e3ceab73e1ffb5ab111161c6b9c07b5b", "is_reserved": 0, "bike_id": "e3ceab73e1ffb5ab111161c6b9c07b5b", "fusion_lon": 0.0, "rental_uris": {"ios": "https://dc.lft.to/lastmile_qr_scan", "android": "https://dc.lft.to/lastmile_qr_scan"}}, {"lon": -77.041746, "fusion_lat": 0.0, "type": "electric_scooter", "lat": 38.905952166666665, "is_disabled": 0, "name": "1d5e47b1294e1c9ba9b704f9d0e277a7", "is_reserved": 0, "bike_id": "1d5e47b1294e1c9ba9b704f9d0e277a7", "fusion_lon": 0.0, "rental_uris": {"ios": "https://dc.lft.to/lastmile_qr_scan", "android": "https://dc.lft.to/lastmile_qr_scan"}}, {"lon": -76.9951465, "fusion_lat": 0.0, "type": "electric_scooter", "lat": 38.88371933333333, "is_disabled": 0, "name": "9ff081fb4a5668d2f830a6aa35d69b2b", "is_reserved": 0, "bike_id": "9ff081fb4a5668d2f830a6aa35d69b2b", "fusion_lon": 0.0, "rental_uris": {"ios": "https://dc.lft.to/lastmile_qr_scan", "android": "https://dc.lft.to/lastmile_qr_scan"}}, {"lon": -77.0215075, "fusion_lat": 0.0, "type": "electric_scooter", "lat": 38.92443566666667, "is_disabled": 0, "name": "2ebd1bb88a90247d0344de1cbe1d0510", "is_reserved": 0, "bike_id": "2ebd1bb88a90247d0344de1cbe1d0510", "fusion_lon": 0.0, "rental_uris": {"ios": "https://dc.lft.to/lastmile_qr_scan", "android": "https://dc.lft.to/lastmile_qr_scan"}}, {"lon": -77.047514, "fusion_lat": 0.0, "type": "electric_scooter", "lat": 38.917712333333334, "is_disabled": 0, "name": "4d022b87f4612c07905a9e35d7b824d4", "is_reserved": 0, "bike_id": "4d022b87f4612c07905a9e35d7b824d4", "fusion_lon": 0.0, "rental_uris": {"ios": "https://dc.lft.to/lastmile_qr_scan", "android": "https://dc.lft.to/lastmile_qr_scan"}}, {"lon": -77.01217933333334, "fusion_lat": 0.0, "type": "electric_bike", "lat": 38.90024566666666, "is_disabled": 0, "name": "d07cc040f6a19081f34510442d07396e", "is_reserved": 0, "bike_id": "d07cc040f6a19081f34510442d07396e", "fusion_lon": 0.0, "rental_uris": {"ios": "https://dc.lft.to/lastmile_qr_scan", "android": "https://dc.lft.to/lastmile_qr_scan"}}, {"lon": -77.046709, "fusion_lat": 0.0, "type": "electric_scooter", "lat": 38.910644833333336, "is_disabled": 0, "name": "b9607dedf14796fb7f72f1e2f3524bfc", "is_reserved": 0, "bike_id": "b9607dedf14796fb7f72f1e2f3524bfc", "fusion_lon": 0.0, "rental_uris": {"ios": "https://dc.lft.to/lastmile_qr_scan", "android": "https://dc.lft.to/lastmile_qr_scan"}}, {"lon": -77.0537285, "fusion_lat": 0.0, "type": "electric_bike", "lat": 38.84758983333333, "is_disabled": 0, "name": "5026fdf048bc853ce374edfeb4e53a26", "is_reserved": 0, "bike_id": "5026fdf048bc853ce374edfeb4e53a26", "fusion_lon": 0.0, "rental_uris": {"ios": "https://dc.lft.to/lastmile_qr_scan", "android": "https://dc.lft.to/lastmile_qr_scan"}}, {"lon": -77.03422383333333, "fusion_lat": 0.0, "type": "electric_scooter", "lat": 38.928643666666666, "is_disabled": 0, "name": "4aa9121d9cdd4db3582735c3eeb0ff3a", "is_reserved": 0, "bike_id": "4aa9121d9cdd4db3582735c3eeb0ff3a", "fusion_lon": 0.0, "rental_uris": {"ios": "https://dc.lft.to/lastmile_qr_scan", "android": "https://dc.lft.to/lastmile_qr_scan"}}, {"lon": -77.03182433333333, "fusion_lat": 0.0, "type": "electric_scooter", "lat": 38.9016475, "is_disabled": 0, "name": "0d0ff7e0896051b99d39d8b34620c67e", "is_reserved": 0, "bike_id": "0d0ff7e0896051b99d39d8b34620c67e", "fusion_lon": 0.0, "rental_uris": {"ios": "https://dc.lft.to/lastmile_qr_scan", "android": "https://dc.lft.to/lastmile_qr_scan"}}, {"lon": -77.0415215, "fusion_lat": 0.0, "type": "electric_scooter", "lat": 38.923520333333336, "is_disabled": 0, "name": "99cf89bdd287318bcca60862da743c11", "is_reserved": 0, "bike_id": "99cf89bdd287318bcca60862da743c11", "fusion_lon": 0.0, "rental_uris": {"ios": "https://dc.lft.to/lastmile_qr_scan", "android": "https://dc.lft.to/lastmile_qr_scan"}}, {"lon": -77.02230366666667, "fusion_lat": 0.0, "type": "electric_scooter", "lat": 38.87852016666667, "is_disabled": 0, "name": "c0eaedd43d64eda7c6bf58310813c73d", "is_reserved": 0, "bike_id": "c0eaedd43d64eda7c6bf58310813c73d", "fusion_lon": 0.0, "rental_uris": {"ios": "https://dc.lft.to/lastmile_qr_scan", "android": "https://dc.lft.to/lastmile_qr_scan"}}, {"lon": -77.02704816666666, "fusion_lat": 0.0, "type": "electric_scooter", "lat": 38.89775683333333, "is_disabled": 0, "name": "ad0d7b260faa92e6b9fdadc263b6be62", "is_reserved": 0, "bike_id": "ad0d7b260faa92e6b9fdadc263b6be62", "fusion_lon": 0.0, "rental_uris": {"ios": "https://dc.lft.to/lastmile_qr_scan", "android": "https://dc.lft.to/lastmile_qr_scan"}}, {"lon": -77.02960833333333, "fusion_lat": 0.0, "type": "electric_scooter", "lat": 38.8962715, "is_disabled": 0, "name": "45b178c9f887f1efd3cb4f0d5ce5e718", "is_reserved": 0, "bike_id": "45b178c9f887f1efd3cb4f0d5ce5e718", "fusion_lon": 0.0, "rental_uris": {"ios": "https://dc.lft.to/lastmile_qr_scan", "android": "https://dc.lft.to/lastmile_qr_scan"}}, {"lon": -77.04766166666667, "fusion_lat": 0.0, "type": "electric_scooter", "lat": 38.900923666666664, "is_disabled": 0, "name": "98026ba123c6f598f226e166848b1a01", "is_reserved": 0, "bike_id": "98026ba123c6f598f226e166848b1a01", "fusion_lon": 0.0, "rental_uris": {"ios": "https://dc.lft.to/lastmile_qr_scan", "android": "https://dc.lft.to/lastmile_qr_scan"}}, {"lon": -77.05436266666666, "fusion_lat": 0.0, "type": "electric_bike", "lat": 38.78462366666667, "is_disabled": 0, "name": "8e3c1208b4c74e6505829b03d6d00506", "is_reserved": 0, "bike_id": "8e3c1208b4c74e6505829b03d6d00506", "fusion_lon": 0.0, "rental_uris": {"ios": "https://dc.lft.to/lastmile_qr_scan", "android": "https://dc.lft.to/lastmile_qr_scan"}}, {"lon": -77.026296, "fusion_lat": 0.0, "type": "electric_scooter", "lat": 38.8922155, "is_disabled": 0, "name": "c77d1cccd604664ad98c0caedc8d4176", "is_reserved": 0, "bike_id": "c77d1cccd604664ad98c0caedc8d4176", "fusion_lon": 0.0, "rental_uris": {"ios": "https://dc.lft.to/lastmile_qr_scan", "android": "https://dc.lft.to/lastmile_qr_scan"}}, {"lon": -77.0436205, "fusion_lat": 0.0, "type": "electric_scooter", "lat": 38.89222, "is_disabled": 0, "name": "ead283a79fbcf4340de8688ce4802a9c", "is_reserved": 0, "bike_id": "ead283a79fbcf4340de8688ce4802a9c", "fusion_lon": 0.0, "rental_uris": {"ios": "https://dc.lft.to/lastmile_qr_scan", "android": "https://dc.lft.to/lastmile_qr_scan"}}, {"lon": -77.02285083333334, "fusion_lat": 0.0, "type": "electric_scooter", "lat": 38.896511333333336, "is_disabled": 0, "name": "5fbf3526779e914918254cd2a1a178a0", "is_reserved": 0, "bike_id": "5fbf3526779e914918254cd2a1a178a0", "fusion_lon": 0.0, "rental_uris": {"ios": "https://dc.lft.to/lastmile_qr_scan", "android": "https://dc.lft.to/lastmile_qr_scan"}}, {"lon": -77.028309, "fusion_lat": 0.0, "type": "electric_scooter", "lat": 38.903647666666664, "is_disabled": 0, "name": "32d64170f8f9f69c60e31b8c6c2ce7af", "is_reserved": 0, "bike_id": "32d64170f8f9f69c60e31b8c6c2ce7af", "fusion_lon": 0.0, "rental_uris": {"ios": "https://dc.lft.to/lastmile_qr_scan", "android": "https://dc.lft.to/lastmile_qr_scan"}}, {"lon": -77.00218583333333, "fusion_lat": 0.0, "type": "electric_scooter", "lat": 38.885037833333335, "is_disabled": 0, "name": "64a5208caf0b82dd757ae36469553303", "is_reserved": 0, "bike_id": "64a5208caf0b82dd757ae36469553303", "fusion_lon": 0.0, "rental_uris": {"ios": "https://dc.lft.to/lastmile_qr_scan", "android": "https://dc.lft.to/lastmile_qr_scan"}}, {"lon": -77.02154566666667, "fusion_lat": 0.0, "type": "electric_scooter", "lat": 38.92604166666667, "is_disabled": 0, "name": "d4139566bffdcf472989052acede7ccc", "is_reserved": 0, "bike_id": "d4139566bffdcf472989052acede7ccc", "fusion_lon": 0.0, "rental_uris": {"ios": "https://dc.lft.to/lastmile_qr_scan", "android": "https://dc.lft.to/lastmile_qr_scan"}}, {"lon": -77.02330683333334, "fusion_lat": 0.0, "type": "electric_scooter", "lat": 38.911773833333335, "is_disabled": 0, "name": "9dca2ffb675ed63eb6c5fcc0badc40f1", "is_reserved": 0, "bike_id": "9dca2ffb675ed63eb6c5fcc0badc40f1", "fusion_lon": 0.0, "rental_uris": {"ios": "https://dc.lft.to/lastmile_qr_scan", "android": "https://dc.lft.to/lastmile_qr_scan"}}, {"lon": -77.0324425, "fusion_lat": 0.0, "type": "electric_scooter", "lat": 38.914827, "is_disabled": 0, "name": "ef9cee28cdf3c2a3b392e61f8ce02bf7", "is_reserved": 0, "bike_id": "ef9cee28cdf3c2a3b392e61f8ce02bf7", "fusion_lon": 0.0, "rental_uris": {"ios": "https://dc.lft.to/lastmile_qr_scan", "android": "https://dc.lft.to/lastmile_qr_scan"}}, {"lon": -77.03931383333334, "fusion_lat": 0.0, "type": "electric_scooter", "lat": 38.9125805, "is_disabled": 0, "name": "804908e51bf1d00989439ab712eee6c0", "is_reserved": 0, "bike_id": "804908e51bf1d00989439ab712eee6c0", "fusion_lon": 0.0, "rental_uris": {"ios": "https://dc.lft.to/lastmile_qr_scan", "android": "https://dc.lft.to/lastmile_qr_scan"}}, {"lon": -77.05080716666667, "fusion_lat": 0.0, "type": "electric_bike", "lat": 38.81336433333333, "is_disabled": 0, "name": "231156dddeef56b7e493a3705a69c8c2", "is_reserved": 0, "bike_id": "231156dddeef56b7e493a3705a69c8c2", "fusion_lon": 0.0, "rental_uris": {"ios": "https://dc.lft.to/lastmile_qr_scan", "android": "https://dc.lft.to/lastmile_qr_scan"}}, {"lon": -77.04956316666667, "fusion_lat": 0.0, "type": "electric_bike", "lat": 39.010948666666664, "is_disabled": 0, "name": "2a3a0dea667e123095de628d5846559e", "is_reserved": 0, "bike_id": "2a3a0dea667e123095de628d5846559e", "fusion_lon": 0.0, "rental_uris": {"ios": "https://dc.lft.to/lastmile_qr_scan", "android": "https://dc.lft.to/lastmile_qr_scan"}}, {"lon": -77.03781066666667, "fusion_lat": 0.0, "type": "electric_scooter", "lat": 38.925039, "is_disabled": 0, "name": "7f20d587aa6b0c0f03ad59c7da494794", "is_reserved": 0, "bike_id": "7f20d587aa6b0c0f03ad59c7da494794", "fusion_lon": 0.0, "rental_uris": {"ios": "https://dc.lft.to/lastmile_qr_scan", "android": "https://dc.lft.to/lastmile_qr_scan"}}, {"lon": -77.03393066666666, "fusion_lat": 0.0, "type": "electric_scooter", "lat": 38.92265066666667, "is_disabled": 0, "name": "e337ad24441d2d6d8b26e7dfaea47e90", "is_reserved": 0, "bike_id": "e337ad24441d2d6d8b26e7dfaea47e90", "fusion_lon": 0.0, "rental_uris": {"ios": "https://dc.lft.to/lastmile_qr_scan", "android": "https://dc.lft.to/lastmile_qr_scan"}}, {"lon": -77.00729033333333, "fusion_lat": 0.0, "type": "electric_scooter", "lat": 38.95420816666667, "is_disabled": 0, "name": "152238c768df883d099563e9d9f2989d", "is_reserved": 0, "bike_id": "152238c768df883d099563e9d9f2989d", "fusion_lon": 0.0, "rental_uris": {"ios": "https://dc.lft.to/lastmile_qr_scan", "android": "https://dc.lft.to/lastmile_qr_scan"}}, {"lon": -77.061062, "fusion_lat": 0.0, "type": "electric_scooter", "lat": 38.94366016666667, "is_disabled": 0, "name": "0409bf913f13b988c8482dc8f8bd9312", "is_reserved": 0, "bike_id": "0409bf913f13b988c8482dc8f8bd9312", "fusion_lon": 0.0, "rental_uris": {"ios": "https://dc.lft.to/lastmile_qr_scan", "android": "https://dc.lft.to/lastmile_qr_scan"}}, {"lon": -77.0266555, "fusion_lat": 0.0, "type": "electric_scooter", "lat": 38.92176633333333, "is_disabled": 0, "name": "f10a1fcdcd1ce2d169830820a1e5fcc8", "is_reserved": 0, "bike_id": "f10a1fcdcd1ce2d169830820a1e5fcc8", "fusion_lon": 0.0, "rental_uris": {"ios": "https://dc.lft.to/lastmile_qr_scan", "android": "https://dc.lft.to/lastmile_qr_scan"}}, {"lon": -76.9967675, "fusion_lat": 0.0, "type": "electric_scooter", "lat": 38.885124, "is_disabled": 0, "name": "6f0dc46960efacad0c856b5d4dd3e6ea", "is_reserved": 0, "bike_id": "6f0dc46960efacad0c856b5d4dd3e6ea", "fusion_lon": 0.0, "rental_uris": {"ios": "https://dc.lft.to/lastmile_qr_scan", "android": "https://dc.lft.to/lastmile_qr_scan"}}, {"lon": -76.993234, "fusion_lat": 0.0, "type": "electric_scooter", "lat": 38.876617, "is_disabled": 0, "name": "4758e8b97cbeae814c116d430b8534f2", "is_reserved": 0, "bike_id": "4758e8b97cbeae814c116d430b8534f2", "fusion_lon": 0.0, "rental_uris": {"ios": "https://dc.lft.to/lastmile_qr_scan", "android": "https://dc.lft.to/lastmile_qr_scan"}}, {"lon": -77.037784, "fusion_lat": 0.0, "type": "electric_scooter", "lat": 38.92007266666667, "is_disabled": 0, "name": "d1536d9448e91ed0115b25221b5fdd06", "is_reserved": 0, "bike_id": "d1536d9448e91ed0115b25221b5fdd06", "fusion_lon": 0.0, "rental_uris": {"ios": "https://dc.lft.to/lastmile_qr_scan", "android": "https://dc.lft.to/lastmile_qr_scan"}}, {"lon": -77.02497533333333, "fusion_lat": 0.0, "type": "electric_scooter", "lat": 38.91947616666667, "is_disabled": 0, "name": "589796bda7170cb2712ae4a2bca7b6c4", "is_reserved": 0, "bike_id": "589796bda7170cb2712ae4a2bca7b6c4", "fusion_lon": 0.0, "rental_uris": {"ios": "https://dc.lft.to/lastmile_qr_scan", "android": "https://dc.lft.to/lastmile_qr_scan"}}, {"lon": -76.99099583333333, "fusion_lat": 0.0, "type": "electric_bike", "lat": 38.920631666666665, "is_disabled": 0, "name": "0d36bdfde34858e3a3c7675a54c880d5", "is_reserved": 0, "bike_id": "0d36bdfde34858e3a3c7675a54c880d5", "fusion_lon": 0.0, "rental_uris": {"ios": "https://dc.lft.to/lastmile_qr_scan", "android": "https://dc.lft.to/lastmile_qr_scan"}}, {"lon": -77.02384166666667, "fusion_lat": 0.0, "type": "electric_scooter", "lat": 38.89232616666666, "is_disabled": 0, "name": "271980f2ef1532c845592eedc15be73b", "is_reserved": 0, "bike_id": "271980f2ef1532c845592eedc15be73b", "fusion_lon": 0.0, "rental_uris": {"ios": "https://dc.lft.to/lastmile_qr_scan", "android": "https://dc.lft.to/lastmile_qr_scan"}}, {"lon": -77.0237535, "fusion_lat": 0.0, "type": "electric_scooter", "lat": 38.896075833333335, "is_disabled": 0, "name": "6cb71475d3cf17cf653a624480ea54cf", "is_reserved": 0, "bike_id": "6cb71475d3cf17cf653a624480ea54cf", "fusion_lon": 0.0, "rental_uris": {"ios": "https://dc.lft.to/lastmile_qr_scan", "android": "https://dc.lft.to/lastmile_qr_scan"}}, {"lon": -77.00914366666667, "fusion_lat": 0.0, "type": "electric_scooter", "lat": 38.9575935, "is_disabled": 0, "name": "ba435b3ea5f576cca0232e7ee82bc7d9", "is_reserved": 0, "bike_id": "ba435b3ea5f576cca0232e7ee82bc7d9", "fusion_lon": 0.0, "rental_uris": {"ios": "https://dc.lft.to/lastmile_qr_scan", "android": "https://dc.lft.to/lastmile_qr_scan"}}, {"lon": -77.042163, "fusion_lat": 0.0, "type": "electric_scooter", "lat": 38.90709116666667, "is_disabled": 0, "name": "9a42245ff4d49a0513e58ecafa6282fa", "is_reserved": 0, "bike_id": "9a42245ff4d49a0513e58ecafa6282fa", "fusion_lon": 0.0, "rental_uris": {"ios": "https://dc.lft.to/lastmile_qr_scan", "android": "https://dc.lft.to/lastmile_qr_scan"}}, {"lon": -77.0188695, "fusion_lat": 0.0, "type": "electric_scooter", "lat": 38.923536666666664, "is_disabled": 0, "name": "ebd75de7ea77743766afc81100e9d8e3", "is_reserved": 0, "bike_id": "ebd75de7ea77743766afc81100e9d8e3", "fusion_lon": 0.0, "rental_uris": {"ios": "https://dc.lft.to/lastmile_qr_scan", "android": "https://dc.lft.to/lastmile_qr_scan"}}, {"lon": -77.02379716666667, "fusion_lat": 0.0, "type": "electric_scooter", "lat": 38.9321105, "is_disabled": 0, "name": "c12c457e688feef7db0df363f415abb2", "is_reserved": 0, "bike_id": "c12c457e688feef7db0df363f415abb2", "fusion_lon": 0.0, "rental_uris": {"ios": "https://dc.lft.to/lastmile_qr_scan", "android": "https://dc.lft.to/lastmile_qr_scan"}}, {"lon": -76.98827283333334, "fusion_lat": 0.0, "type": "electric_scooter", "lat": 38.89902383333333, "is_disabled": 0, "name": "ca2b255ef4239be5c0af653d54e26516", "is_reserved": 0, "bike_id": "ca2b255ef4239be5c0af653d54e26516", "fusion_lon": 0.0, "rental_uris": {"ios": "https://dc.lft.to/lastmile_qr_scan", "android": "https://dc.lft.to/lastmile_qr_scan"}}, {"lon": -77.04328183333334, "fusion_lat": 0.0, "type": "electric_scooter", "lat": 38.900411166666665, "is_disabled": 0, "name": "4fdd92316d62f3895052c3ba49e81a43", "is_reserved": 0, "bike_id": "4fdd92316d62f3895052c3ba49e81a43", "fusion_lon": 0.0, "rental_uris": {"ios": "https://dc.lft.to/lastmile_qr_scan", "android": "https://dc.lft.to/lastmile_qr_scan"}}, {"lon": -77.01220233333333, "fusion_lat": 0.0, "type": "electric_scooter", "lat": 38.870908666666665, "is_disabled": 0, "name": "3d095bd19014fe76b3fcc3b150456882", "is_reserved": 0, "bike_id": "3d095bd19014fe76b3fcc3b150456882", "fusion_lon": 0.0, "rental_uris": {"ios": "https://dc.lft.to/lastmile_qr_scan", "android": "https://dc.lft.to/lastmile_qr_scan"}}, {"lon": -77.02601533333333, "fusion_lat": 0.0, "type": "electric_scooter", "lat": 38.9238135, "is_disabled": 0, "name": "915374b8f8a019f09e8517db7e3e1e52", "is_reserved": 0, "bike_id": "915374b8f8a019f09e8517db7e3e1e52", "fusion_lon": 0.0, "rental_uris": {"ios": "https://dc.lft.to/lastmile_qr_scan", "android": "https://dc.lft.to/lastmile_qr_scan"}}, {"lon": -77.05178233333334, "fusion_lat": 0.0, "type": "electric_bike", "lat": 38.85046166666667, "is_disabled": 0, "name": "8ce950869a7438c6a26cad6c9888df09", "is_reserved": 0, "bike_id": "8ce950869a7438c6a26cad6c9888df09", "fusion_lon": 0.0, "rental_uris": {"ios": "https://dc.lft.to/lastmile_qr_scan", "android": "https://dc.lft.to/lastmile_qr_scan"}}, {"lon": -77.01771433333333, "fusion_lat": 0.0, "type": "electric_scooter", "lat": 38.9203705, "is_disabled": 0, "name": "382b3549b2eae5966bee07e4d04ec8a5", "is_reserved": 0, "bike_id": "382b3549b2eae5966bee07e4d04ec8a5", "fusion_lon": 0.0, "rental_uris": {"ios": "https://dc.lft.to/lastmile_qr_scan", "android": "https://dc.lft.to/lastmile_qr_scan"}}, {"lon": -77.055991, "fusion_lat": 0.0, "type": "electric_scooter", "lat": 38.9369915, "is_disabled": 0, "name": "fd818ab173319fde8bbb306f240a9c2a", "is_reserved": 0, "bike_id": "fd818ab173319fde8bbb306f240a9c2a", "fusion_lon": 0.0, "rental_uris": {"ios": "https://dc.lft.to/lastmile_qr_scan", "android": "https://dc.lft.to/lastmile_qr_scan"}}, {"lon": -77.03748116666667, "fusion_lat": 0.0, "type": "electric_scooter", "lat": 38.9292035, "is_disabled": 0, "name": "10d168551499df5d20fae95a63b4f8eb", "is_reserved": 0, "bike_id": "10d168551499df5d20fae95a63b4f8eb", "fusion_lon": 0.0, "rental_uris": {"ios": "https://dc.lft.to/lastmile_qr_scan", "android": "https://dc.lft.to/lastmile_qr_scan"}}, {"lon": -77.03083516666666, "fusion_lat": 0.0, "type": "electric_scooter", "lat": 38.927928666666666, "is_disabled": 0, "name": "bf867eb18002b53cf76d33664f0fcd3e", "is_reserved": 0, "bike_id": "bf867eb18002b53cf76d33664f0fcd3e", "fusion_lon": 0.0, "rental_uris": {"ios": "https://dc.lft.to/lastmile_qr_scan", "android": "https://dc.lft.to/lastmile_qr_scan"}}, {"lon": -76.98375966666667, "fusion_lat": 0.0, "type": "electric_scooter", "lat": 38.887254, "is_disabled": 0, "name": "8f88ea1b71654907fea4d0ac51573341", "is_reserved": 0, "bike_id": "8f88ea1b71654907fea4d0ac51573341", "fusion_lon": 0.0, "rental_uris": {"ios": "https://dc.lft.to/lastmile_qr_scan", "android": "https://dc.lft.to/lastmile_qr_scan"}}, {"lon": -76.99276883333333, "fusion_lat": 0.0, "type": "electric_bike", "lat": 38.97255916666667, "is_disabled": 0, "name": "69afa82b3327cd049c9e365f49c6ff8b", "is_reserved": 0, "bike_id": "69afa82b3327cd049c9e365f49c6ff8b", "fusion_lon": 0.0, "rental_uris": {"ios": "https://dc.lft.to/lastmile_qr_scan", "android": "https://dc.lft.to/lastmile_qr_scan"}}, {"lon": -77.02148, "fusion_lat": 0.0, "type": "electric_scooter", "lat": 38.92444016666666, "is_disabled": 0, "name": "6781cb580ac9de5306ab638b49259903", "is_reserved": 0, "bike_id": "6781cb580ac9de5306ab638b49259903", "fusion_lon": 0.0, "rental_uris": {"ios": "https://dc.lft.to/lastmile_qr_scan", "android": "https://dc.lft.to/lastmile_qr_scan"}}, {"lon": -77.02213116666667, "fusion_lat": 0.0, "type": "electric_scooter", "lat": 38.89851816666667, "is_disabled": 0, "name": "fc7bb328dca6395bf6ec854b208b6241", "is_reserved": 0, "bike_id": "fc7bb328dca6395bf6ec854b208b6241", "fusion_lon": 0.0, "rental_uris": {"ios": "https://dc.lft.to/lastmile_qr_scan", "android": "https://dc.lft.to/lastmile_qr_scan"}}, {"lon": -76.987201, "fusion_lat": 0.0, "type": "electric_bike", "lat": 38.863366166666665, "is_disabled": 0, "name": "be7ba2518b9248e8a6ef204b3936c143", "is_reserved": 0, "bike_id": "be7ba2518b9248e8a6ef204b3936c143", "fusion_lon": 0.0, "rental_uris": {"ios": "https://dc.lft.to/lastmile_qr_scan", "android": "https://dc.lft.to/lastmile_qr_scan"}}, {"lon": -77.02137516666667, "fusion_lat": 0.0, "type": "electric_scooter", "lat": 38.923875833333334, "is_disabled": 0, "name": "1daf9be2156212b7114aa0ada06288bb", "is_reserved": 0, "bike_id": "1daf9be2156212b7114aa0ada06288bb", "fusion_lon": 0.0, "rental_uris": {"ios": "https://dc.lft.to/lastmile_qr_scan", "android": "https://dc.lft.to/lastmile_qr_scan"}}, {"lon": -77.01904816666666, "fusion_lat": 0.0, "type": "electric_scooter", "lat": 38.89490583333333, "is_disabled": 0, "name": "078d1292a32a91030368a947bd7b88f2", "is_reserved": 0, "bike_id": "078d1292a32a91030368a947bd7b88f2", "fusion_lon": 0.0, "rental_uris": {"ios": "https://dc.lft.to/lastmile_qr_scan", "android": "https://dc.lft.to/lastmile_qr_scan"}}, {"lon": -77.0491305, "fusion_lat": 0.0, "type": "electric_scooter", "lat": 38.9007895, "is_disabled": 0, "name": "4a19f3792767a7798d5c2f052fd5508d", "is_reserved": 0, "bike_id": "4a19f3792767a7798d5c2f052fd5508d", "fusion_lon": 0.0, "rental_uris": {"ios": "https://dc.lft.to/lastmile_qr_scan", "android": "https://dc.lft.to/lastmile_qr_scan"}}, {"lon": -77.03079016666666, "fusion_lat": 0.0, "type": "electric_scooter", "lat": 38.89965683333333, "is_disabled": 0, "name": "3d2eea9b14df8a8a120758362079eba7", "is_reserved": 0, "bike_id": "3d2eea9b14df8a8a120758362079eba7", "fusion_lon": 0.0, "rental_uris": {"ios": "https://dc.lft.to/lastmile_qr_scan", "android": "https://dc.lft.to/lastmile_qr_scan"}}, {"lon": -77.0117405, "fusion_lat": 0.0, "type": "electric_scooter", "lat": 38.8806385, "is_disabled": 0, "name": "c17ffb73aedfcc2ae43252ec7e47ed16", "is_reserved": 0, "bike_id": "c17ffb73aedfcc2ae43252ec7e47ed16", "fusion_lon": 0.0, "rental_uris": {"ios": "https://dc.lft.to/lastmile_qr_scan", "android": "https://dc.lft.to/lastmile_qr_scan"}}, {"lon": -77.02154316666666, "fusion_lat": 0.0, "type": "electric_scooter", "lat": 38.92489533333333, "is_disabled": 0, "name": "802b9b5f0f9e7a3d70aa277e6a153309", "is_reserved": 0, "bike_id": "802b9b5f0f9e7a3d70aa277e6a153309", "fusion_lon": 0.0, "rental_uris": {"ios": "https://dc.lft.to/lastmile_qr_scan", "android": "https://dc.lft.to/lastmile_qr_scan"}}, {"lon": -77.05914616666666, "fusion_lat": 0.0, "type": "electric_scooter", "lat": 38.90189983333333, "is_disabled": 0, "name": "866461647f6e103a8809ff0b2e76558b", "is_reserved": 0, "bike_id": "866461647f6e103a8809ff0b2e76558b", "fusion_lon": 0.0, "rental_uris": {"ios": "https://dc.lft.to/lastmile_qr_scan", "android": "https://dc.lft.to/lastmile_qr_scan"}}, {"lon": -77.02836416666666, "fusion_lat": 0.0, "type": "electric_scooter", "lat": 38.897192, "is_disabled": 0, "name": "318bb2acbbd14d8316b4d696b11b55d5", "is_reserved": 0, "bike_id": "318bb2acbbd14d8316b4d696b11b55d5", "fusion_lon": 0.0, "rental_uris": {"ios": "https://dc.lft.to/lastmile_qr_scan", "android": "https://dc.lft.to/lastmile_qr_scan"}}, {"lon": -77.04016066666667, "fusion_lat": 0.0, "type": "electric_scooter", "lat": 38.90839533333333, "is_disabled": 0, "name": "41b6d8147b5f5bb08236fe66295025c8", "is_reserved": 0, "bike_id": "41b6d8147b5f5bb08236fe66295025c8", "fusion_lon": 0.0, "rental_uris": {"ios": "https://dc.lft.to/lastmile_qr_scan", "android": "https://dc.lft.to/lastmile_qr_scan"}}, {"lon": -76.99956633333333, "fusion_lat": 0.0, "type": "electric_scooter", "lat": 38.925680666666665, "is_disabled": 0, "name": "b0608cd6ef069079422fdb822e850f7f", "is_reserved": 0, "bike_id": "b0608cd6ef069079422fdb822e850f7f", "fusion_lon": 0.0, "rental_uris": {"ios": "https://dc.lft.to/lastmile_qr_scan", "android": "https://dc.lft.to/lastmile_qr_scan"}}, {"lon": -76.9986785, "fusion_lat": 0.0, "type": "electric_scooter", "lat": 38.86433533333334, "is_disabled": 0, "name": "a255fe011b7b6bdf9af09e19b9d39603", "is_reserved": 0, "bike_id": "a255fe011b7b6bdf9af09e19b9d39603", "fusion_lon": 0.0, "rental_uris": {"ios": "https://dc.lft.to/lastmile_qr_scan", "android": "https://dc.lft.to/lastmile_qr_scan"}}, {"lon": -77.0499055, "fusion_lat": 0.0, "type": "electric_scooter", "lat": 38.901137166666665, "is_disabled": 0, "name": "11b652dbde61d852fa8fcf24b571b6f4", "is_reserved": 0, "bike_id": "11b652dbde61d852fa8fcf24b571b6f4", "fusion_lon": 0.0, "rental_uris": {"ios": "https://dc.lft.to/lastmile_qr_scan", "android": "https://dc.lft.to/lastmile_qr_scan"}}, {"lon": -76.98697166666666, "fusion_lat": 0.0, "type": "electric_scooter", "lat": 38.90053866666667, "is_disabled": 0, "name": "cf560302bd695520b80ac370026c97da", "is_reserved": 0, "bike_id": "cf560302bd695520b80ac370026c97da", "fusion_lon": 0.0, "rental_uris": {"ios": "https://dc.lft.to/lastmile_qr_scan", "android": "https://dc.lft.to/lastmile_qr_scan"}}, {"lon": -77.03794083333334, "fusion_lat": 0.0, "type": "electric_scooter", "lat": 38.924350833333335, "is_disabled": 0, "name": "2c8eb22a67480e9fc9fa96774ef7b2d2", "is_reserved": 0, "bike_id": "2c8eb22a67480e9fc9fa96774ef7b2d2", "fusion_lon": 0.0, "rental_uris": {"ios": "https://dc.lft.to/lastmile_qr_scan", "android": "https://dc.lft.to/lastmile_qr_scan"}}, {"lon": -77.03220866666666, "fusion_lat": 0.0, "type": "electric_scooter", "lat": 38.8965195, "is_disabled": 0, "name": "14538e8d127e32efe58fe5601ec8968a", "is_reserved": 0, "bike_id": "14538e8d127e32efe58fe5601ec8968a", "fusion_lon": 0.0, "rental_uris": {"ios": "https://dc.lft.to/lastmile_qr_scan", "android": "https://dc.lft.to/lastmile_qr_scan"}}, {"lon": -77.01844383333334, "fusion_lat": 0.0, "type": "electric_scooter", "lat": 38.90396666666667, "is_disabled": 0, "name": "e8f075e11dd412fc9385246d3e5a529f", "is_reserved": 0, "bike_id": "e8f075e11dd412fc9385246d3e5a529f", "fusion_lon": 0.0, "rental_uris": {"ios": "https://dc.lft.to/lastmile_qr_scan", "android": "https://dc.lft.to/lastmile_qr_scan"}}, {"lon": -77.128814, "fusion_lat": 0.0, "type": "electric_bike", "lat": 38.906029833333335, "is_disabled": 0, "name": "1ece855098889566e7d20bed5746ecb7", "is_reserved": 0, "bike_id": "1ece855098889566e7d20bed5746ecb7", "fusion_lon": 0.0, "rental_uris": {"ios": "https://dc.lft.to/lastmile_qr_scan", "android": "https://dc.lft.to/lastmile_qr_scan"}}, {"lon": -77.04220516666666, "fusion_lat": 0.0, "type": "electric_scooter", "lat": 38.902852, "is_disabled": 0, "name": "28d00bde90078796f77fe737e66313e4", "is_reserved": 0, "bike_id": "28d00bde90078796f77fe737e66313e4", "fusion_lon": 0.0, "rental_uris": {"ios": "https://dc.lft.to/lastmile_qr_scan", "android": "https://dc.lft.to/lastmile_qr_scan"}}, {"lon": -76.9371065, "fusion_lat": 0.0, "type": "electric_scooter", "lat": 38.89029566666667, "is_disabled": 0, "name": "f110e9528be3f294c58e98a2779a9e04", "is_reserved": 0, "bike_id": "f110e9528be3f294c58e98a2779a9e04", "fusion_lon": 0.0, "rental_uris": {"ios": "https://dc.lft.to/lastmile_qr_scan", "android": "https://dc.lft.to/lastmile_qr_scan"}}, {"lon": -77.02629666666667, "fusion_lat": 0.0, "type": "electric_scooter", "lat": 38.8922065, "is_disabled": 0, "name": "7d4adb68241eed80028206407c78e3b8", "is_reserved": 0, "bike_id": "7d4adb68241eed80028206407c78e3b8", "fusion_lon": 0.0, "rental_uris": {"ios": "https://dc.lft.to/lastmile_qr_scan", "android": "https://dc.lft.to/lastmile_qr_scan"}}, {"lon": -77.02562416666666, "fusion_lat": 0.0, "type": "electric_scooter", "lat": 38.92068966666667, "is_disabled": 0, "name": "0f5088a2a0e9fb681bba8c3c2a1faf40", "is_reserved": 0, "bike_id": "0f5088a2a0e9fb681bba8c3c2a1faf40", "fusion_lon": 0.0, "rental_uris": {"ios": "https://dc.lft.to/lastmile_qr_scan", "android": "https://dc.lft.to/lastmile_qr_scan"}}, {"lon": -76.97914016666667, "fusion_lat": 0.0, "type": "electric_scooter", "lat": 38.8665895, "is_disabled": 0, "name": "8da05821cfd1460a8b39e8bef490853a", "is_reserved": 0, "bike_id": "8da05821cfd1460a8b39e8bef490853a", "fusion_lon": 0.0, "rental_uris": {"ios": "https://dc.lft.to/lastmile_qr_scan", "android": "https://dc.lft.to/lastmile_qr_scan"}}, {"lon": -76.93665333333334, "fusion_lat": 0.0, "type": "electric_scooter", "lat": 38.8968475, "is_disabled": 0, "name": "311a883085bfbb145267cba03ee288ac", "is_reserved": 0, "bike_id": "311a883085bfbb145267cba03ee288ac", "fusion_lon": 0.0, "rental_uris": {"ios": "https://dc.lft.to/lastmile_qr_scan", "android": "https://dc.lft.to/lastmile_qr_scan"}}, {"lon": -76.93717633333333, "fusion_lat": 0.0, "type": "electric_scooter", "lat": 38.890196333333336, "is_disabled": 0, "name": "a4bb365e4e831740609777fb8a7e3235", "is_reserved": 0, "bike_id": "a4bb365e4e831740609777fb8a7e3235", "fusion_lon": 0.0, "rental_uris": {"ios": "https://dc.lft.to/lastmile_qr_scan", "android": "https://dc.lft.to/lastmile_qr_scan"}}, {"lon": -77.03298516666666, "fusion_lat": 0.0, "type": "electric_scooter", "lat": 38.90961033333333, "is_disabled": 0, "name": "738d0b6ba966a512390001831eb533d5", "is_reserved": 0, "bike_id": "738d0b6ba966a512390001831eb533d5", "fusion_lon": 0.0, "rental_uris": {"ios": "https://dc.lft.to/lastmile_qr_scan", "android": "https://dc.lft.to/lastmile_qr_scan"}}, {"lon": -76.98813516666667, "fusion_lat": 0.0, "type": "electric_bike", "lat": 38.8038225, "is_disabled": 0, "name": "0993e05613471ea8b92117d16560f16b", "is_reserved": 0, "bike_id": "0993e05613471ea8b92117d16560f16b", "fusion_lon": 0.0, "rental_uris": {"ios": "https://dc.lft.to/lastmile_qr_scan", "android": "https://dc.lft.to/lastmile_qr_scan"}}, {"lon": -77.03618466666667, "fusion_lat": 0.0, "type": "electric_bike", "lat": 38.927914333333334, "is_disabled": 0, "name": "d0ffe5f24d080db161e018288ddd1ef6", "is_reserved": 0, "bike_id": "d0ffe5f24d080db161e018288ddd1ef6", "fusion_lon": 0.0, "rental_uris": {"ios": "https://dc.lft.to/lastmile_qr_scan", "android": "https://dc.lft.to/lastmile_qr_scan"}}, {"lon": -76.9432085, "fusion_lat": 0.0, "type": "electric_scooter", "lat": 38.88023333333334, "is_disabled": 0, "name": "f1e4dc52f4ac0d2c62fc2f2ce1074256", "is_reserved": 0, "bike_id": "f1e4dc52f4ac0d2c62fc2f2ce1074256", "fusion_lon": 0.0, "rental_uris": {"ios": "https://dc.lft.to/lastmile_qr_scan", "android": "https://dc.lft.to/lastmile_qr_scan"}}, {"lon": -77.02852866666667, "fusion_lat": 0.0, "type": "electric_scooter", "lat": 38.93531466666666, "is_disabled": 0, "name": "6013e9b57219d87b66dabea306f37d17", "is_reserved": 0, "bike_id": "6013e9b57219d87b66dabea306f37d17", "fusion_lon": 0.0, "rental_uris": {"ios": "https://dc.lft.to/lastmile_qr_scan", "android": "https://dc.lft.to/lastmile_qr_scan"}}, {"lon": -77.03476916666666, "fusion_lat": 0.0, "type": "electric_scooter", "lat": 38.905672, "is_disabled": 0, "name": "32189212bd4532e7bf10e7b42b8d1fc9", "is_reserved": 0, "bike_id": "32189212bd4532e7bf10e7b42b8d1fc9", "fusion_lon": 0.0, "rental_uris": {"ios": "https://dc.lft.to/lastmile_qr_scan", "android": "https://dc.lft.to/lastmile_qr_scan"}}, {"lon": -77.02744, "fusion_lat": 0.0, "type": "electric_scooter", "lat": 38.918858166666666, "is_disabled": 0, "name": "59aa7d5eca639b5dec084fb0b4d43484", "is_reserved": 0, "bike_id": "59aa7d5eca639b5dec084fb0b4d43484", "fusion_lon": 0.0, "rental_uris": {"ios": "https://dc.lft.to/lastmile_qr_scan", "android": "https://dc.lft.to/lastmile_qr_scan"}}, {"lon": -77.03052433333333, "fusion_lat": 0.0, "type": "electric_scooter", "lat": 38.923716, "is_disabled": 0, "name": "be923b6af19881faaa3bcde99b5c96ea", "is_reserved": 0, "bike_id": "be923b6af19881faaa3bcde99b5c96ea", "fusion_lon": 0.0, "rental_uris": {"ios": "https://dc.lft.to/lastmile_qr_scan", "android": "https://dc.lft.to/lastmile_qr_scan"}}, {"lon": -77.01122516666666, "fusion_lat": 0.0, "type": "electric_scooter", "lat": 38.89576983333333, "is_disabled": 0, "name": "a24ef660ec17fdcbc1dcd957981612a6", "is_reserved": 0, "bike_id": "a24ef660ec17fdcbc1dcd957981612a6", "fusion_lon": 0.0, "rental_uris": {"ios": "https://dc.lft.to/lastmile_qr_scan", "android": "https://dc.lft.to/lastmile_qr_scan"}}, {"lon": -77.01657966666667, "fusion_lat": 0.0, "type": "electric_scooter", "lat": 38.87633316666667, "is_disabled": 0, "name": "e9e9287d0455c45756888077a1603b4e", "is_reserved": 0, "bike_id": "e9e9287d0455c45756888077a1603b4e", "fusion_lon": 0.0, "rental_uris": {"ios": "https://dc.lft.to/lastmile_qr_scan", "android": "https://dc.lft.to/lastmile_qr_scan"}}, {"lon": -76.99161016666666, "fusion_lat": 0.0, "type": "electric_scooter", "lat": 38.878626833333335, "is_disabled": 0, "name": "fe95eb930adf9987ec9eca6fd9e41c2d", "is_reserved": 0, "bike_id": "fe95eb930adf9987ec9eca6fd9e41c2d", "fusion_lon": 0.0, "rental_uris": {"ios": "https://dc.lft.to/lastmile_qr_scan", "android": "https://dc.lft.to/lastmile_qr_scan"}}, {"lon": -76.927425, "fusion_lat": 0.0, "type": "electric_scooter", "lat": 38.90066983333333, "is_disabled": 0, "name": "d2a1b6b41dd917fecb4cfa5bc31dbdc7", "is_reserved": 0, "bike_id": "d2a1b6b41dd917fecb4cfa5bc31dbdc7", "fusion_lon": 0.0, "rental_uris": {"ios": "https://dc.lft.to/lastmile_qr_scan", "android": "https://dc.lft.to/lastmile_qr_scan"}}, {"lon": -77.07141066666667, "fusion_lat": 0.0, "type": "electric_scooter", "lat": 38.920275833333335, "is_disabled": 0, "name": "f4e3f1c6c65525ec7a923259964ab579", "is_reserved": 0, "bike_id": "f4e3f1c6c65525ec7a923259964ab579", "fusion_lon": 0.0, "rental_uris": {"ios": "https://dc.lft.to/lastmile_qr_scan", "android": "https://dc.lft.to/lastmile_qr_scan"}}, {"lon": -77.03285166666667, "fusion_lat": 0.0, "type": "electric_scooter", "lat": 38.898934, "is_disabled": 0, "name": "1bafe6e785e5c391c073626f5e0d5b37", "is_reserved": 0, "bike_id": "1bafe6e785e5c391c073626f5e0d5b37", "fusion_lon": 0.0, "rental_uris": {"ios": "https://dc.lft.to/lastmile_qr_scan", "android": "https://dc.lft.to/lastmile_qr_scan"}}, {"lon": -77.0284505, "fusion_lat": 0.0, "type": "electric_scooter", "lat": 38.935224, "is_disabled": 0, "name": "3823007b7752a53e097dab719fe441b5", "is_reserved": 0, "bike_id": "3823007b7752a53e097dab719fe441b5", "fusion_lon": 0.0, "rental_uris": {"ios": "https://dc.lft.to/lastmile_qr_scan", "android": "https://dc.lft.to/lastmile_qr_scan"}}, {"lon": -77.02539483333334, "fusion_lat": 0.0, "type": "electric_scooter", "lat": 38.947184666666665, "is_disabled": 0, "name": "a661d34510688c7569bb498d103ef562", "is_reserved": 0, "bike_id": "a661d34510688c7569bb498d103ef562", "fusion_lon": 0.0, "rental_uris": {"ios": "https://dc.lft.to/lastmile_qr_scan", "android": "https://dc.lft.to/lastmile_qr_scan"}}, {"lon": -76.991953, "fusion_lat": 0.0, "type": "electric_scooter", "lat": 38.882658166666666, "is_disabled": 0, "name": "f916c3f4af759d65f701c6bc262fa79a", "is_reserved": 0, "bike_id": "f916c3f4af759d65f701c6bc262fa79a", "fusion_lon": 0.0, "rental_uris": {"ios": "https://dc.lft.to/lastmile_qr_scan", "android": "https://dc.lft.to/lastmile_qr_scan"}}, {"lon": -77.03451566666666, "fusion_lat": 0.0, "type": "electric_scooter", "lat": 38.90556983333333, "is_disabled": 0, "name": "94fd8ce547d7d1ac9b36eb279553c07d", "is_reserved": 0, "bike_id": "94fd8ce547d7d1ac9b36eb279553c07d", "fusion_lon": 0.0, "rental_uris": {"ios": "https://dc.lft.to/lastmile_qr_scan", "android": "https://dc.lft.to/lastmile_qr_scan"}}, {"lon": -77.0183605, "fusion_lat": 0.0, "type": "electric_scooter", "lat": 38.92199166666666, "is_disabled": 0, "name": "17c98e5050423ec954370b14eebf0ea7", "is_reserved": 0, "bike_id": "17c98e5050423ec954370b14eebf0ea7", "fusion_lon": 0.0, "rental_uris": {"ios": "https://dc.lft.to/lastmile_qr_scan", "android": "https://dc.lft.to/lastmile_qr_scan"}}, {"lon": -77.02458333333334, "fusion_lat": 0.0, "type": "electric_scooter", "lat": 38.93712516666667, "is_disabled": 0, "name": "aca713fbecab74cbcf548c83d3b5997d", "is_reserved": 0, "bike_id": "aca713fbecab74cbcf548c83d3b5997d", "fusion_lon": 0.0, "rental_uris": {"ios": "https://dc.lft.to/lastmile_qr_scan", "android": "https://dc.lft.to/lastmile_qr_scan"}}, {"lon": -77.01167983333333, "fusion_lat": 0.0, "type": "electric_scooter", "lat": 38.89619016666666, "is_disabled": 0, "name": "a0f7577db4e8ca8f084ebf3fdda2b6c0", "is_reserved": 0, "bike_id": "a0f7577db4e8ca8f084ebf3fdda2b6c0", "fusion_lon": 0.0, "rental_uris": {"ios": "https://dc.lft.to/lastmile_qr_scan", "android": "https://dc.lft.to/lastmile_qr_scan"}}, {"lon": -77.04065533333333, "fusion_lat": 0.0, "type": "electric_scooter", "lat": 38.90870733333333, "is_disabled": 0, "name": "35370ed0e7d1632ebc621dae5741ea7a", "is_reserved": 0, "bike_id": "35370ed0e7d1632ebc621dae5741ea7a", "fusion_lon": 0.0, "rental_uris": {"ios": "https://dc.lft.to/lastmile_qr_scan", "android": "https://dc.lft.to/lastmile_qr_scan"}}, {"lon": -77.0215205, "fusion_lat": 0.0, "type": "electric_scooter", "lat": 38.926021, "is_disabled": 0, "name": "e5b6bf9d24800fd50dbb907fe7a3551d", "is_reserved": 0, "bike_id": "e5b6bf9d24800fd50dbb907fe7a3551d", "fusion_lon": 0.0, "rental_uris": {"ios": "https://dc.lft.to/lastmile_qr_scan", "android": "https://dc.lft.to/lastmile_qr_scan"}}, {"lon": -76.980053, "fusion_lat": 0.0, "type": "electric_scooter", "lat": 38.901047, "is_disabled": 0, "name": "076f2d7eb0d5814c799c6a22fe7059c9", "is_reserved": 0, "bike_id": "076f2d7eb0d5814c799c6a22fe7059c9", "fusion_lon": 0.0, "rental_uris": {"ios": "https://dc.lft.to/lastmile_qr_scan", "android": "https://dc.lft.to/lastmile_qr_scan"}}, {"lon": -77.02211433333333, "fusion_lat": 0.0, "type": "electric_scooter", "lat": 38.886360333333336, "is_disabled": 0, "name": "07c9e59f1d34fa52f05333d57160e0a0", "is_reserved": 0, "bike_id": "07c9e59f1d34fa52f05333d57160e0a0", "fusion_lon": 0.0, "rental_uris": {"ios": "https://dc.lft.to/lastmile_qr_scan", "android": "https://dc.lft.to/lastmile_qr_scan"}}, {"lon": -77.04356833333334, "fusion_lat": 0.0, "type": "electric_scooter", "lat": 38.908488, "is_disabled": 0, "name": "797d451e2598026599e548944c7da2ed", "is_reserved": 0, "bike_id": "797d451e2598026599e548944c7da2ed", "fusion_lon": 0.0, "rental_uris": {"ios": "https://dc.lft.to/lastmile_qr_scan", "android": "https://dc.lft.to/lastmile_qr_scan"}}, {"lon": -77.01593683333333, "fusion_lat": 0.0, "type": "electric_scooter", "lat": 38.898022, "is_disabled": 0, "name": "6ad4bec66bc1ebf03c5a2688714faaa8", "is_reserved": 0, "bike_id": "6ad4bec66bc1ebf03c5a2688714faaa8", "fusion_lon": 0.0, "rental_uris": {"ios": "https://dc.lft.to/lastmile_qr_scan", "android": "https://dc.lft.to/lastmile_qr_scan"}}, {"lon": -77.00218883333334, "fusion_lat": 0.0, "type": "electric_scooter", "lat": 38.9082735, "is_disabled": 0, "name": "62cc6012a49d466779454d244d26e1dd", "is_reserved": 0, "bike_id": "62cc6012a49d466779454d244d26e1dd", "fusion_lon": 0.0, "rental_uris": {"ios": "https://dc.lft.to/lastmile_qr_scan", "android": "https://dc.lft.to/lastmile_qr_scan"}}, {"lon": -76.99350666666666, "fusion_lat": 0.0, "type": "electric_bike", "lat": 38.845074333333336, "is_disabled": 0, "name": "23f3a556b551edefe865cc6b47f07d85", "is_reserved": 0, "bike_id": "23f3a556b551edefe865cc6b47f07d85", "fusion_lon": 0.0, "rental_uris": {"ios": "https://dc.lft.to/lastmile_qr_scan", "android": "https://dc.lft.to/lastmile_qr_scan"}}, {"lon": -77.02191833333333, "fusion_lat": 0.0, "type": "electric_scooter", "lat": 38.910557833333336, "is_disabled": 0, "name": "f3681040e9047067e3316347281f028f", "is_reserved": 0, "bike_id": "f3681040e9047067e3316347281f028f", "fusion_lon": 0.0, "rental_uris": {"ios": "https://dc.lft.to/lastmile_qr_scan", "android": "https://dc.lft.to/lastmile_qr_scan"}}, {"lon": -77.04611283333334, "fusion_lat": 0.0, "type": "electric_scooter", "lat": 38.898052166666666, "is_disabled": 0, "name": "77c06893ed638f8877daeccdc0ea08f8", "is_reserved": 0, "bike_id": "77c06893ed638f8877daeccdc0ea08f8", "fusion_lon": 0.0, "rental_uris": {"ios": "https://dc.lft.to/lastmile_qr_scan", "android": "https://dc.lft.to/lastmile_qr_scan"}}, {"lon": -77.06024266666667, "fusion_lat": 0.0, "type": "electric_scooter", "lat": 38.94386, "is_disabled": 0, "name": "339934ddf0a0906afb7a2356c0b89761", "is_reserved": 0, "bike_id": "339934ddf0a0906afb7a2356c0b89761", "fusion_lon": 0.0, "rental_uris": {"ios": "https://dc.lft.to/lastmile_qr_scan", "android": "https://dc.lft.to/lastmile_qr_scan"}}, {"lon": -77.04519516666667, "fusion_lat": 0.0, "type": "electric_scooter", "lat": 38.9026535, "is_disabled": 0, "name": "3a6f6997d49dc288c1bc8ff26ff93313", "is_reserved": 0, "bike_id": "3a6f6997d49dc288c1bc8ff26ff93313", "fusion_lon": 0.0, "rental_uris": {"ios": "https://dc.lft.to/lastmile_qr_scan", "android": "https://dc.lft.to/lastmile_qr_scan"}}, {"lon": -77.0319365, "fusion_lat": 0.0, "type": "electric_scooter", "lat": 38.89218316666667, "is_disabled": 0, "name": "b59182d8960bf18ed251049cce89e1f0", "is_reserved": 0, "bike_id": "b59182d8960bf18ed251049cce89e1f0", "fusion_lon": 0.0, "rental_uris": {"ios": "https://dc.lft.to/lastmile_qr_scan", "android": "https://dc.lft.to/lastmile_qr_scan"}}, {"lon": -77.03132233333334, "fusion_lat": 0.0, "type": "electric_scooter", "lat": 38.917057166666666, "is_disabled": 0, "name": "c070b2216b6fcd3376651722239e127d", "is_reserved": 0, "bike_id": "c070b2216b6fcd3376651722239e127d", "fusion_lon": 0.0, "rental_uris": {"ios": "https://dc.lft.to/lastmile_qr_scan", "android": "https://dc.lft.to/lastmile_qr_scan"}}, {"lon": -77.0335335, "fusion_lat": 0.0, "type": "electric_scooter", "lat": 38.928699, "is_disabled": 0, "name": "9e20c981234563242c5aed014dde9176", "is_reserved": 0, "bike_id": "9e20c981234563242c5aed014dde9176", "fusion_lon": 0.0, "rental_uris": {"ios": "https://dc.lft.to/lastmile_qr_scan", "android": "https://dc.lft.to/lastmile_qr_scan"}}, {"lon": -77.03174, "fusion_lat": 0.0, "type": "electric_scooter", "lat": 38.916268333333335, "is_disabled": 0, "name": "5b78e64decebe503b1614898cb5aac13", "is_reserved": 0, "bike_id": "5b78e64decebe503b1614898cb5aac13", "fusion_lon": 0.0, "rental_uris": {"ios": "https://dc.lft.to/lastmile_qr_scan", "android": "https://dc.lft.to/lastmile_qr_scan"}}, {"lon": -77.0376285, "fusion_lat": 0.0, "type": "electric_scooter", "lat": 38.9077905, "is_disabled": 0, "name": "054881a4a64c8e896f893f935020ac7c", "is_reserved": 0, "bike_id": "054881a4a64c8e896f893f935020ac7c", "fusion_lon": 0.0, "rental_uris": {"ios": "https://dc.lft.to/lastmile_qr_scan", "android": "https://dc.lft.to/lastmile_qr_scan"}}, {"lon": -77.021936, "fusion_lat": 0.0, "type": "electric_scooter", "lat": 38.887196, "is_disabled": 0, "name": "6937d01a55581dda5838552e1b6bd72c", "is_reserved": 0, "bike_id": "6937d01a55581dda5838552e1b6bd72c", "fusion_lon": 0.0, "rental_uris": {"ios": "https://dc.lft.to/lastmile_qr_scan", "android": "https://dc.lft.to/lastmile_qr_scan"}}, {"lon": -77.02018316666667, "fusion_lat": 0.0, "type": "electric_scooter", "lat": 38.929295833333335, "is_disabled": 0, "name": "6162be711186cd852a8d80a16c07ca5e", "is_reserved": 0, "bike_id": "6162be711186cd852a8d80a16c07ca5e", "fusion_lon": 0.0, "rental_uris": {"ios": "https://dc.lft.to/lastmile_qr_scan", "android": "https://dc.lft.to/lastmile_qr_scan"}}, {"lon": -77.03259966666667, "fusion_lat": 0.0, "type": "electric_scooter", "lat": 38.90246883333333, "is_disabled": 0, "name": "f5e34b2ea99480861722fa420a9f4e24", "is_reserved": 0, "bike_id": "f5e34b2ea99480861722fa420a9f4e24", "fusion_lon": 0.0, "rental_uris": {"ios": "https://dc.lft.to/lastmile_qr_scan", "android": "https://dc.lft.to/lastmile_qr_scan"}}, {"lon": -77.06105933333333, "fusion_lat": 0.0, "type": "electric_scooter", "lat": 38.94369366666667, "is_disabled": 0, "name": "204a28fc591ec7e42e9724fcbd5fffcd", "is_reserved": 0, "bike_id": "204a28fc591ec7e42e9724fcbd5fffcd", "fusion_lon": 0.0, "rental_uris": {"ios": "https://dc.lft.to/lastmile_qr_scan", "android": "https://dc.lft.to/lastmile_qr_scan"}}, {"lon": -77.02601083333333, "fusion_lat": 0.0, "type": "electric_scooter", "lat": 38.89625083333333, "is_disabled": 0, "name": "786802e17bcaa162fd207c93009cd2f5", "is_reserved": 0, "bike_id": "786802e17bcaa162fd207c93009cd2f5", "fusion_lon": 0.0, "rental_uris": {"ios": "https://dc.lft.to/lastmile_qr_scan", "android": "https://dc.lft.to/lastmile_qr_scan"}}, {"lon": -77.02556916666667, "fusion_lat": 0.0, "type": "electric_scooter", "lat": 38.89744683333333, "is_disabled": 0, "name": "f84860e805f512f77fc5468271eb87a9", "is_reserved": 0, "bike_id": "f84860e805f512f77fc5468271eb87a9", "fusion_lon": 0.0, "rental_uris": {"ios": "https://dc.lft.to/lastmile_qr_scan", "android": "https://dc.lft.to/lastmile_qr_scan"}}, {"lon": -77.030266, "fusion_lat": 0.0, "type": "electric_scooter", "lat": 38.931193, "is_disabled": 0, "name": "6110d08a3b1cc06e210c73430f02dc50", "is_reserved": 0, "bike_id": "6110d08a3b1cc06e210c73430f02dc50", "fusion_lon": 0.0, "rental_uris": {"ios": "https://dc.lft.to/lastmile_qr_scan", "android": "https://dc.lft.to/lastmile_qr_scan"}}, {"lon": -77.02661016666667, "fusion_lat": 0.0, "type": "electric_scooter", "lat": 38.894552166666664, "is_disabled": 0, "name": "38c1bd8069e84b9671715fa0468ec49a", "is_reserved": 0, "bike_id": "38c1bd8069e84b9671715fa0468ec49a", "fusion_lon": 0.0, "rental_uris": {"ios": "https://dc.lft.to/lastmile_qr_scan", "android": "https://dc.lft.to/lastmile_qr_scan"}}, {"lon": -76.98655883333333, "fusion_lat": 0.0, "type": "electric_scooter", "lat": 38.912453666666664, "is_disabled": 0, "name": "ac5ae87ecea02b086990b84715f0d922", "is_reserved": 0, "bike_id": "ac5ae87ecea02b086990b84715f0d922", "fusion_lon": 0.0, "rental_uris": {"ios": "https://dc.lft.to/lastmile_qr_scan", "android": "https://dc.lft.to/lastmile_qr_scan"}}, {"lon": -77.0487665, "fusion_lat": 0.0, "type": "electric_scooter", "lat": 38.89858233333333, "is_disabled": 0, "name": "c8d85afa40c3a4b401f05c9f432cbaf4", "is_reserved": 0, "bike_id": "c8d85afa40c3a4b401f05c9f432cbaf4", "fusion_lon": 0.0, "rental_uris": {"ios": "https://dc.lft.to/lastmile_qr_scan", "android": "https://dc.lft.to/lastmile_qr_scan"}}, {"lon": -77.055747, "fusion_lat": 0.0, "type": "electric_scooter", "lat": 38.930616, "is_disabled": 0, "name": "6b68d0dfb481c62cb276ce411715ffef", "is_reserved": 0, "bike_id": "6b68d0dfb481c62cb276ce411715ffef", "fusion_lon": 0.0, "rental_uris": {"ios": "https://dc.lft.to/lastmile_qr_scan", "android": "https://dc.lft.to/lastmile_qr_scan"}}, {"lon": -77.02001466666667, "fusion_lat": 0.0, "type": "electric_scooter", "lat": 38.89247866666667, "is_disabled": 0, "name": "d747b2cb0e07a4475d00be7f6a023955", "is_reserved": 0, "bike_id": "d747b2cb0e07a4475d00be7f6a023955", "fusion_lon": 0.0, "rental_uris": {"ios": "https://dc.lft.to/lastmile_qr_scan", "android": "https://dc.lft.to/lastmile_qr_scan"}}, {"lon": -77.02426783333334, "fusion_lat": 0.0, "type": "electric_scooter", "lat": 38.96025316666667, "is_disabled": 0, "name": "dab5051bca12f85b2878a4cc84609ef1", "is_reserved": 0, "bike_id": "dab5051bca12f85b2878a4cc84609ef1", "fusion_lon": 0.0, "rental_uris": {"ios": "https://dc.lft.to/lastmile_qr_scan", "android": "https://dc.lft.to/lastmile_qr_scan"}}, {"lon": -77.02816733333333, "fusion_lat": 0.0, "type": "electric_scooter", "lat": 38.90242333333333, "is_disabled": 0, "name": "cdd21d8c031affd806fc257b1f27050f", "is_reserved": 0, "bike_id": "cdd21d8c031affd806fc257b1f27050f", "fusion_lon": 0.0, "rental_uris": {"ios": "https://dc.lft.to/lastmile_qr_scan", "android": "https://dc.lft.to/lastmile_qr_scan"}}, {"lon": -76.977036, "fusion_lat": 0.0, "type": "electric_scooter", "lat": 38.888203, "is_disabled": 0, "name": "6acd1c117ad4a388a7ffa7b8fe713af8", "is_reserved": 0, "bike_id": "6acd1c117ad4a388a7ffa7b8fe713af8", "fusion_lon": 0.0, "rental_uris": {"ios": "https://dc.lft.to/lastmile_qr_scan", "android": "https://dc.lft.to/lastmile_qr_scan"}}, {"lon": -77.02202666666666, "fusion_lat": 0.0, "type": "electric_scooter", "lat": 38.9247335, "is_disabled": 0, "name": "d58c24558b230e69d27b79eb73f3d6fe", "is_reserved": 0, "bike_id": "d58c24558b230e69d27b79eb73f3d6fe", "fusion_lon": 0.0, "rental_uris": {"ios": "https://dc.lft.to/lastmile_qr_scan", "android": "https://dc.lft.to/lastmile_qr_scan"}}, {"lon": -77.0059125, "fusion_lat": 0.0, "type": "electric_scooter", "lat": 38.8772525, "is_disabled": 0, "name": "260fabe2078039a1ebabf59e3d8fd805", "is_reserved": 0, "bike_id": "260fabe2078039a1ebabf59e3d8fd805", "fusion_lon": 0.0, "rental_uris": {"ios": "https://dc.lft.to/lastmile_qr_scan", "android": "https://dc.lft.to/lastmile_qr_scan"}}, {"lon": -77.0875955, "fusion_lat": 0.0, "type": "electric_bike", "lat": 38.80654766666667, "is_disabled": 0, "name": "7518a5f6508887fff874b5da5e2e4a8c", "is_reserved": 0, "bike_id": "7518a5f6508887fff874b5da5e2e4a8c", "fusion_lon": 0.0, "rental_uris": {"ios": "https://dc.lft.to/lastmile_qr_scan", "android": "https://dc.lft.to/lastmile_qr_scan"}}, {"lon": -77.02389433333333, "fusion_lat": 0.0, "type": "electric_scooter", "lat": 38.8964305, "is_disabled": 0, "name": "9d76af6d64348a0714d64683175734b3", "is_reserved": 0, "bike_id": "9d76af6d64348a0714d64683175734b3", "fusion_lon": 0.0, "rental_uris": {"ios": "https://dc.lft.to/lastmile_qr_scan", "android": "https://dc.lft.to/lastmile_qr_scan"}}, {"lon": -77.01763616666666, "fusion_lat": 0.0, "type": "electric_scooter", "lat": 38.938942833333336, "is_disabled": 0, "name": "a6656499aea1a046a308b8ab020935da", "is_reserved": 0, "bike_id": "a6656499aea1a046a308b8ab020935da", "fusion_lon": 0.0, "rental_uris": {"ios": "https://dc.lft.to/lastmile_qr_scan", "android": "https://dc.lft.to/lastmile_qr_scan"}}, {"lon": -77.0433655, "fusion_lat": 0.0, "type": "electric_scooter", "lat": 38.900378, "is_disabled": 0, "name": "0895fe75562028d0340cd91f592864e1", "is_reserved": 0, "bike_id": "0895fe75562028d0340cd91f592864e1", "fusion_lon": 0.0, "rental_uris": {"ios": "https://dc.lft.to/lastmile_qr_scan", "android": "https://dc.lft.to/lastmile_qr_scan"}}, {"lon": -77.03547633333334, "fusion_lat": 0.0, "type": "electric_scooter", "lat": 38.90357866666667, "is_disabled": 0, "name": "3b5b2e18b84150fde5c3a2bffb085ae0", "is_reserved": 0, "bike_id": "3b5b2e18b84150fde5c3a2bffb085ae0", "fusion_lon": 0.0, "rental_uris": {"ios": "https://dc.lft.to/lastmile_qr_scan", "android": "https://dc.lft.to/lastmile_qr_scan"}}, {"lon": -76.9745405, "fusion_lat": 0.0, "type": "electric_bike", "lat": 38.855965166666664, "is_disabled": 0, "name": "6e9d12971d481791403ec44f1a51e575", "is_reserved": 0, "bike_id": "6e9d12971d481791403ec44f1a51e575", "fusion_lon": 0.0, "rental_uris": {"ios": "https://dc.lft.to/lastmile_qr_scan", "android": "https://dc.lft.to/lastmile_qr_scan"}}, {"lon": -77.03448733333333, "fusion_lat": 0.0, "type": "electric_scooter", "lat": 38.92869683333333, "is_disabled": 0, "name": "d030855c6a7a455a13ef4f7691112319", "is_reserved": 0, "bike_id": "d030855c6a7a455a13ef4f7691112319", "fusion_lon": 0.0, "rental_uris": {"ios": "https://dc.lft.to/lastmile_qr_scan", "android": "https://dc.lft.to/lastmile_qr_scan"}}, {"lon": -77.0404115, "fusion_lat": 0.0, "type": "electric_scooter", "lat": 38.905908833333335, "is_disabled": 0, "name": "0412288fa4bdfd053ef2d271d59a1657", "is_reserved": 0, "bike_id": "0412288fa4bdfd053ef2d271d59a1657", "fusion_lon": 0.0, "rental_uris": {"ios": "https://dc.lft.to/lastmile_qr_scan", "android": "https://dc.lft.to/lastmile_qr_scan"}}, {"lon": -76.9901435, "fusion_lat": 0.0, "type": "electric_bike", "lat": 38.94314033333333, "is_disabled": 0, "name": "040a9cb386c7ebf0360a812e8032f37c", "is_reserved": 0, "bike_id": "040a9cb386c7ebf0360a812e8032f37c", "fusion_lon": 0.0, "rental_uris": {"ios": "https://dc.lft.to/lastmile_qr_scan", "android": "https://dc.lft.to/lastmile_qr_scan"}}, {"lon": -77.056945, "fusion_lat": 0.0, "type": "electric_scooter", "lat": 38.931414, "is_disabled": 0, "name": "7928ef8d54574a6039d92f61161647b4", "is_reserved": 0, "bike_id": "7928ef8d54574a6039d92f61161647b4", "fusion_lon": 0.0, "rental_uris": {"ios": "https://dc.lft.to/lastmile_qr_scan", "android": "https://dc.lft.to/lastmile_qr_scan"}}, {"lon": -77.03721266666666, "fusion_lat": 0.0, "type": "electric_scooter", "lat": 38.880751, "is_disabled": 0, "name": "d15b303524d751a2e054fb7ee1044d91", "is_reserved": 0, "bike_id": "d15b303524d751a2e054fb7ee1044d91", "fusion_lon": 0.0, "rental_uris": {"ios": "https://dc.lft.to/lastmile_qr_scan", "android": "https://dc.lft.to/lastmile_qr_scan"}}, {"lon": -77.0365545, "fusion_lat": 0.0, "type": "electric_scooter", "lat": 38.9156265, "is_disabled": 0, "name": "50cd5f5a0a6b6aae06692e91967165ba", "is_reserved": 0, "bike_id": "50cd5f5a0a6b6aae06692e91967165ba", "fusion_lon": 0.0, "rental_uris": {"ios": "https://dc.lft.to/lastmile_qr_scan", "android": "https://dc.lft.to/lastmile_qr_scan"}}, {"lon": -77.02952183333333, "fusion_lat": 0.0, "type": "electric_scooter", "lat": 38.956287333333336, "is_disabled": 0, "name": "fdedf7a2e0778533fe372e414dd3d61e", "is_reserved": 0, "bike_id": "fdedf7a2e0778533fe372e414dd3d61e", "fusion_lon": 0.0, "rental_uris": {"ios": "https://dc.lft.to/lastmile_qr_scan", "android": "https://dc.lft.to/lastmile_qr_scan"}}, {"lon": -77.00193516666667, "fusion_lat": 0.0, "type": "electric_bike", "lat": 38.941543333333335, "is_disabled": 0, "name": "b32fdb3284a4295ca4e37b3fd5e2761a", "is_reserved": 0, "bike_id": "b32fdb3284a4295ca4e37b3fd5e2761a", "fusion_lon": 0.0, "rental_uris": {"ios": "https://dc.lft.to/lastmile_qr_scan", "android": "https://dc.lft.to/lastmile_qr_scan"}}, {"lon": -77.019379, "fusion_lat": 0.0, "type": "electric_scooter", "lat": 38.88385266666667, "is_disabled": 0, "name": "5c44cd46db3df36f02449e2f4b1b2dc3", "is_reserved": 0, "bike_id": "5c44cd46db3df36f02449e2f4b1b2dc3", "fusion_lon": 0.0, "rental_uris": {"ios": "https://dc.lft.to/lastmile_qr_scan", "android": "https://dc.lft.to/lastmile_qr_scan"}}, {"lon": -77.028124, "fusion_lat": 0.0, "type": "electric_scooter", "lat": 38.9025715, "is_disabled": 0, "name": "7956bca7a61f8f1d97bd7ae658988700", "is_reserved": 0, "bike_id": "7956bca7a61f8f1d97bd7ae658988700", "fusion_lon": 0.0, "rental_uris": {"ios": "https://dc.lft.to/lastmile_qr_scan", "android": "https://dc.lft.to/lastmile_qr_scan"}}, {"lon": -76.9846305, "fusion_lat": 0.0, "type": "electric_scooter", "lat": 38.893657166666664, "is_disabled": 0, "name": "d0b1ec2342343a7e7252f2c9d6f47c44", "is_reserved": 0, "bike_id": "d0b1ec2342343a7e7252f2c9d6f47c44", "fusion_lon": 0.0, "rental_uris": {"ios": "https://dc.lft.to/lastmile_qr_scan", "android": "https://dc.lft.to/lastmile_qr_scan"}}, {"lon": -76.95915916666667, "fusion_lat": 0.0, "type": "electric_bike", "lat": 38.94923583333333, "is_disabled": 0, "name": "424da252d5c2253752e8c4e381537a5a", "is_reserved": 0, "bike_id": "424da252d5c2253752e8c4e381537a5a", "fusion_lon": 0.0, "rental_uris": {"ios": "https://dc.lft.to/lastmile_qr_scan", "android": "https://dc.lft.to/lastmile_qr_scan"}}, {"lon": -77.01390666666667, "fusion_lat": 0.0, "type": "electric_scooter", "lat": 38.87313016666667, "is_disabled": 0, "name": "a06808cf0def6f8d9d057d69c6ba94bd", "is_reserved": 0, "bike_id": "a06808cf0def6f8d9d057d69c6ba94bd", "fusion_lon": 0.0, "rental_uris": {"ios": "https://dc.lft.to/lastmile_qr_scan", "android": "https://dc.lft.to/lastmile_qr_scan"}}, {"lon": -77.00950283333333, "fusion_lat": 0.0, "type": "electric_scooter", "lat": 38.907883166666664, "is_disabled": 0, "name": "739949ceec133d7a573231436c7430de", "is_reserved": 0, "bike_id": "739949ceec133d7a573231436c7430de", "fusion_lon": 0.0, "rental_uris": {"ios": "https://dc.lft.to/lastmile_qr_scan", "android": "https://dc.lft.to/lastmile_qr_scan"}}, {"lon": -77.03186066666666, "fusion_lat": 0.0, "type": "electric_scooter", "lat": 38.91600066666667, "is_disabled": 0, "name": "e000d435b209eaf79f9aa8af908a1332", "is_reserved": 0, "bike_id": "e000d435b209eaf79f9aa8af908a1332", "fusion_lon": 0.0, "rental_uris": {"ios": "https://dc.lft.to/lastmile_qr_scan", "android": "https://dc.lft.to/lastmile_qr_scan"}}, {"lon": -77.0435565, "fusion_lat": 0.0, "type": "electric_scooter", "lat": 38.90000366666666, "is_disabled": 0, "name": "0cc39b86f48b622fd1fc11347b5b97f7", "is_reserved": 0, "bike_id": "0cc39b86f48b622fd1fc11347b5b97f7", "fusion_lon": 0.0, "rental_uris": {"ios": "https://dc.lft.to/lastmile_qr_scan", "android": "https://dc.lft.to/lastmile_qr_scan"}}, {"lon": -76.9297735, "fusion_lat": 0.0, "type": "electric_scooter", "lat": 38.896175666666664, "is_disabled": 0, "name": "b41ceeb7d478d4497f18ab3494185a75", "is_reserved": 0, "bike_id": "b41ceeb7d478d4497f18ab3494185a75", "fusion_lon": 0.0, "rental_uris": {"ios": "https://dc.lft.to/lastmile_qr_scan", "android": "https://dc.lft.to/lastmile_qr_scan"}}, {"lon": -77.03855566666667, "fusion_lat": 0.0, "type": "electric_scooter", "lat": 38.90357866666667, "is_disabled": 0, "name": "671b02531a0c08b8d71c65ff6ea237ba", "is_reserved": 0, "bike_id": "671b02531a0c08b8d71c65ff6ea237ba", "fusion_lon": 0.0, "rental_uris": {"ios": "https://dc.lft.to/lastmile_qr_scan", "android": "https://dc.lft.to/lastmile_qr_scan"}}, {"lon": -77.03443733333333, "fusion_lat": 0.0, "type": "electric_scooter", "lat": 38.91822766666667, "is_disabled": 0, "name": "01372af207f9e5aeb7d9d3ef85cb8e64", "is_reserved": 0, "bike_id": "01372af207f9e5aeb7d9d3ef85cb8e64", "fusion_lon": 0.0, "rental_uris": {"ios": "https://dc.lft.to/lastmile_qr_scan", "android": "https://dc.lft.to/lastmile_qr_scan"}}, {"lon": -77.03319216666667, "fusion_lat": 0.0, "type": "electric_scooter", "lat": 38.9389, "is_disabled": 0, "name": "57bd4aea1bb7ad58b3da245d3793616f", "is_reserved": 0, "bike_id": "57bd4aea1bb7ad58b3da245d3793616f", "fusion_lon": 0.0, "rental_uris": {"ios": "https://dc.lft.to/lastmile_qr_scan", "android": "https://dc.lft.to/lastmile_qr_scan"}}, {"lon": -77.00206633333333, "fusion_lat": 0.0, "type": "electric_scooter", "lat": 38.893933833333335, "is_disabled": 0, "name": "308828f954ff8ebbc52a803191396458", "is_reserved": 0, "bike_id": "308828f954ff8ebbc52a803191396458", "fusion_lon": 0.0, "rental_uris": {"ios": "https://dc.lft.to/lastmile_qr_scan", "android": "https://dc.lft.to/lastmile_qr_scan"}}, {"lon": -77.00973883333333, "fusion_lat": 0.0, "type": "electric_scooter", "lat": 38.91928083333333, "is_disabled": 0, "name": "dc484e321e1d0a8836ab369165ef85c3", "is_reserved": 0, "bike_id": "dc484e321e1d0a8836ab369165ef85c3", "fusion_lon": 0.0, "rental_uris": {"ios": "https://dc.lft.to/lastmile_qr_scan", "android": "https://dc.lft.to/lastmile_qr_scan"}}, {"lon": -77.01113883333333, "fusion_lat": 0.0, "type": "electric_scooter", "lat": 38.885120666666666, "is_disabled": 0, "name": "4ef9d96528bd00df28a707af526019ba", "is_reserved": 0, "bike_id": "4ef9d96528bd00df28a707af526019ba", "fusion_lon": 0.0, "rental_uris": {"ios": "https://dc.lft.to/lastmile_qr_scan", "android": "https://dc.lft.to/lastmile_qr_scan"}}, {"lon": -77.01521, "fusion_lat": 0.0, "type": "electric_scooter", "lat": 38.886371833333335, "is_disabled": 0, "name": "95cb3c8fa0940ea807556ee4cee1ca25", "is_reserved": 0, "bike_id": "95cb3c8fa0940ea807556ee4cee1ca25", "fusion_lon": 0.0, "rental_uris": {"ios": "https://dc.lft.to/lastmile_qr_scan", "android": "https://dc.lft.to/lastmile_qr_scan"}}, {"lon": -77.07272816666666, "fusion_lat": 0.0, "type": "electric_scooter", "lat": 38.909130833333336, "is_disabled": 0, "name": "85cb98f9fea0ca40993be60377a82aa9", "is_reserved": 0, "bike_id": "85cb98f9fea0ca40993be60377a82aa9", "fusion_lon": 0.0, "rental_uris": {"ios": "https://dc.lft.to/lastmile_qr_scan", "android": "https://dc.lft.to/lastmile_qr_scan"}}, {"lon": -77.051474, "fusion_lat": 0.0, "type": "electric_scooter", "lat": 38.904433833333336, "is_disabled": 0, "name": "6fdb1f9b9ab9f85c70e81dfe0a0e8e86", "is_reserved": 0, "bike_id": "6fdb1f9b9ab9f85c70e81dfe0a0e8e86", "fusion_lon": 0.0, "rental_uris": {"ios": "https://dc.lft.to/lastmile_qr_scan", "android": "https://dc.lft.to/lastmile_qr_scan"}}, {"lon": -77.02611166666667, "fusion_lat": 0.0, "type": "electric_scooter", "lat": 38.903531666666666, "is_disabled": 0, "name": "6d80990df32888a6570f84840238b558", "is_reserved": 0, "bike_id": "6d80990df32888a6570f84840238b558", "fusion_lon": 0.0, "rental_uris": {"ios": "https://dc.lft.to/lastmile_qr_scan", "android": "https://dc.lft.to/lastmile_qr_scan"}}, {"lon": -77.02302016666667, "fusion_lat": 0.0, "type": "electric_scooter", "lat": 38.920928, "is_disabled": 0, "name": "4040ee21917559d3393dcd4e06f8f15b", "is_reserved": 0, "bike_id": "4040ee21917559d3393dcd4e06f8f15b", "fusion_lon": 0.0, "rental_uris": {"ios": "https://dc.lft.to/lastmile_qr_scan", "android": "https://dc.lft.to/lastmile_qr_scan"}}, {"lon": -76.95010616666667, "fusion_lat": 0.0, "type": "electric_scooter", "lat": 38.90615966666667, "is_disabled": 0, "name": "67fc3c1540869277142291d811754080", "is_reserved": 0, "bike_id": "67fc3c1540869277142291d811754080", "fusion_lon": 0.0, "rental_uris": {"ios": "https://dc.lft.to/lastmile_qr_scan", "android": "https://dc.lft.to/lastmile_qr_scan"}}, {"lon": -77.02299866666667, "fusion_lat": 0.0, "type": "electric_scooter", "lat": 38.9209315, "is_disabled": 0, "name": "d01c4861a805b9cb0da3d690cabbc6d2", "is_reserved": 0, "bike_id": "d01c4861a805b9cb0da3d690cabbc6d2", "fusion_lon": 0.0, "rental_uris": {"ios": "https://dc.lft.to/lastmile_qr_scan", "android": "https://dc.lft.to/lastmile_qr_scan"}}, {"lon": -77.03759566666666, "fusion_lat": 0.0, "type": "electric_scooter", "lat": 38.90360033333333, "is_disabled": 0, "name": "46ec71b4799a7b465f07f844400b7ed1", "is_reserved": 0, "bike_id": "46ec71b4799a7b465f07f844400b7ed1", "fusion_lon": 0.0, "rental_uris": {"ios": "https://dc.lft.to/lastmile_qr_scan", "android": "https://dc.lft.to/lastmile_qr_scan"}}, {"lon": -77.069374, "fusion_lat": 0.0, "type": "electric_bike", "lat": 38.95546483333333, "is_disabled": 0, "name": "c25fc0d1ecb77e09be7a86174b18043d", "is_reserved": 0, "bike_id": "c25fc0d1ecb77e09be7a86174b18043d", "fusion_lon": 0.0, "rental_uris": {"ios": "https://dc.lft.to/lastmile_qr_scan", "android": "https://dc.lft.to/lastmile_qr_scan"}}, {"lon": -76.99318016666666, "fusion_lat": 0.0, "type": "electric_scooter", "lat": 38.8765925, "is_disabled": 0, "name": "c79cfbb0eb858bab1341371cd525a27a", "is_reserved": 0, "bike_id": "c79cfbb0eb858bab1341371cd525a27a", "fusion_lon": 0.0, "rental_uris": {"ios": "https://dc.lft.to/lastmile_qr_scan", "android": "https://dc.lft.to/lastmile_qr_scan"}}, {"lon": -76.97328666666667, "fusion_lat": 0.0, "type": "electric_scooter", "lat": 38.90410716666667, "is_disabled": 0, "name": "18c8e56a52fe3fc1bf1b4378142211f4", "is_reserved": 0, "bike_id": "18c8e56a52fe3fc1bf1b4378142211f4", "fusion_lon": 0.0, "rental_uris": {"ios": "https://dc.lft.to/lastmile_qr_scan", "android": "https://dc.lft.to/lastmile_qr_scan"}}, {"lon": -77.04902833333334, "fusion_lat": 0.0, "type": "electric_scooter", "lat": 38.89831216666666, "is_disabled": 0, "name": "ecfd884a0ef9eaaceee979d05514488e", "is_reserved": 0, "bike_id": "ecfd884a0ef9eaaceee979d05514488e", "fusion_lon": 0.0, "rental_uris": {"ios": "https://dc.lft.to/lastmile_qr_scan", "android": "https://dc.lft.to/lastmile_qr_scan"}}, {"lon": -77.03561633333334, "fusion_lat": 0.0, "type": "electric_scooter", "lat": 38.9208275, "is_disabled": 0, "name": "05f20efdeea684c3915eee87b5134f6b", "is_reserved": 0, "bike_id": "05f20efdeea684c3915eee87b5134f6b", "fusion_lon": 0.0, "rental_uris": {"ios": "https://dc.lft.to/lastmile_qr_scan", "android": "https://dc.lft.to/lastmile_qr_scan"}}, {"lon": -77.04807833333334, "fusion_lat": 0.0, "type": "electric_scooter", "lat": 38.916223, "is_disabled": 0, "name": "3a34401ea7c7357fb52b8d757cd978e4", "is_reserved": 0, "bike_id": "3a34401ea7c7357fb52b8d757cd978e4", "fusion_lon": 0.0, "rental_uris": {"ios": "https://dc.lft.to/lastmile_qr_scan", "android": "https://dc.lft.to/lastmile_qr_scan"}}, {"lon": -77.01756116666667, "fusion_lat": 0.0, "type": "electric_scooter", "lat": 38.902686833333334, "is_disabled": 0, "name": "83fce6313c8d0bd5b43e85c641097276", "is_reserved": 0, "bike_id": "83fce6313c8d0bd5b43e85c641097276", "fusion_lon": 0.0, "rental_uris": {"ios": "https://dc.lft.to/lastmile_qr_scan", "android": "https://dc.lft.to/lastmile_qr_scan"}}, {"lon": -77.02692216666667, "fusion_lat": 0.0, "type": "electric_scooter", "lat": 38.906797833333336, "is_disabled": 0, "name": "5ce8e13a38ac5b89e94fc19bcfd8cdd6", "is_reserved": 0, "bike_id": "5ce8e13a38ac5b89e94fc19bcfd8cdd6", "fusion_lon": 0.0, "rental_uris": {"ios": "https://dc.lft.to/lastmile_qr_scan", "android": "https://dc.lft.to/lastmile_qr_scan"}}, {"lon": -76.95834683333334, "fusion_lat": 0.0, "type": "electric_scooter", "lat": 38.930477333333336, "is_disabled": 0, "name": "64a384e76412d7b132ab3081b6943e9f", "is_reserved": 0, "bike_id": "64a384e76412d7b132ab3081b6943e9f", "fusion_lon": 0.0, "rental_uris": {"ios": "https://dc.lft.to/lastmile_qr_scan", "android": "https://dc.lft.to/lastmile_qr_scan"}}, {"lon": -77.03203066666667, "fusion_lat": 0.0, "type": "electric_scooter", "lat": 38.929733, "is_disabled": 0, "name": "a2fa32aab02ae55a0f99476ef7a75054", "is_reserved": 0, "bike_id": "a2fa32aab02ae55a0f99476ef7a75054", "fusion_lon": 0.0, "rental_uris": {"ios": "https://dc.lft.to/lastmile_qr_scan", "android": "https://dc.lft.to/lastmile_qr_scan"}}, {"lon": -77.00359466666667, "fusion_lat": 0.0, "type": "electric_scooter", "lat": 38.889983666666666, "is_disabled": 0, "name": "9faac1656a0feb021ab95b21e27b3524", "is_reserved": 0, "bike_id": "9faac1656a0feb021ab95b21e27b3524", "fusion_lon": 0.0, "rental_uris": {"ios": "https://dc.lft.to/lastmile_qr_scan", "android": "https://dc.lft.to/lastmile_qr_scan"}}, {"lon": -76.9957435, "fusion_lat": 0.0, "type": "electric_scooter", "lat": 38.894808833333336, "is_disabled": 0, "name": "a6f1d5b4cde47e21cc71ab3e85003c7f", "is_reserved": 0, "bike_id": "a6f1d5b4cde47e21cc71ab3e85003c7f", "fusion_lon": 0.0, "rental_uris": {"ios": "https://dc.lft.to/lastmile_qr_scan", "android": "https://dc.lft.to/lastmile_qr_scan"}}, {"lon": -76.9425365, "fusion_lat": 0.0, "type": "electric_scooter", "lat": 38.891754, "is_disabled": 0, "name": "2ac8b58d78813e97101d04cdcc731b42", "is_reserved": 0, "bike_id": "2ac8b58d78813e97101d04cdcc731b42", "fusion_lon": 0.0, "rental_uris": {"ios": "https://dc.lft.to/lastmile_qr_scan", "android": "https://dc.lft.to/lastmile_qr_scan"}}, {"lon": -77.0195515, "fusion_lat": 0.0, "type": "electric_scooter", "lat": 38.92373766666667, "is_disabled": 0, "name": "80af0790cfa300172335c395072d11e3", "is_reserved": 0, "bike_id": "80af0790cfa300172335c395072d11e3", "fusion_lon": 0.0, "rental_uris": {"ios": "https://dc.lft.to/lastmile_qr_scan", "android": "https://dc.lft.to/lastmile_qr_scan"}}, {"lon": -77.023024, "fusion_lat": 0.0, "type": "electric_scooter", "lat": 38.920915666666666, "is_disabled": 0, "name": "959a9c06de793d818e87dddd47123e61", "is_reserved": 0, "bike_id": "959a9c06de793d818e87dddd47123e61", "fusion_lon": 0.0, "rental_uris": {"ios": "https://dc.lft.to/lastmile_qr_scan", "android": "https://dc.lft.to/lastmile_qr_scan"}}, {"lon": -76.97487916666667, "fusion_lat": 0.0, "type": "electric_scooter", "lat": 38.86430716666667, "is_disabled": 0, "name": "0d379364417e5d9e123ac02a6108ee48", "is_reserved": 0, "bike_id": "0d379364417e5d9e123ac02a6108ee48", "fusion_lon": 0.0, "rental_uris": {"ios": "https://dc.lft.to/lastmile_qr_scan", "android": "https://dc.lft.to/lastmile_qr_scan"}}, {"lon": -77.02646783333333, "fusion_lat": 0.0, "type": "electric_scooter", "lat": 38.89729916666667, "is_disabled": 0, "name": "0e88d67f37497f3bbda7e1acfe197855", "is_reserved": 0, "bike_id": "0e88d67f37497f3bbda7e1acfe197855", "fusion_lon": 0.0, "rental_uris": {"ios": "https://dc.lft.to/lastmile_qr_scan", "android": "https://dc.lft.to/lastmile_qr_scan"}}, {"lon": -77.03257583333334, "fusion_lat": 0.0, "type": "electric_scooter", "lat": 38.935256, "is_disabled": 0, "name": "5818d7727859bba338fe474625e51d09", "is_reserved": 0, "bike_id": "5818d7727859bba338fe474625e51d09", "fusion_lon": 0.0, "rental_uris": {"ios": "https://dc.lft.to/lastmile_qr_scan", "android": "https://dc.lft.to/lastmile_qr_scan"}}, {"lon": -77.03658266666666, "fusion_lat": 0.0, "type": "electric_scooter", "lat": 38.90233383333333, "is_disabled": 0, "name": "005987c0f83ac2bacdbad04c51059951", "is_reserved": 0, "bike_id": "005987c0f83ac2bacdbad04c51059951", "fusion_lon": 0.0, "rental_uris": {"ios": "https://dc.lft.to/lastmile_qr_scan", "android": "https://dc.lft.to/lastmile_qr_scan"}}, {"lon": -77.01743116666667, "fusion_lat": 0.0, "type": "electric_scooter", "lat": 38.89353333333333, "is_disabled": 0, "name": "fef20752f5cbfc64f58a4c9e5efc3bd7", "is_reserved": 0, "bike_id": "fef20752f5cbfc64f58a4c9e5efc3bd7", "fusion_lon": 0.0, "rental_uris": {"ios": "https://dc.lft.to/lastmile_qr_scan", "android": "https://dc.lft.to/lastmile_qr_scan"}}, {"lon": -77.0131265, "fusion_lat": 0.0, "type": "electric_scooter", "lat": 38.951111166666664, "is_disabled": 0, "name": "205431d4a277aea7467ba9938a2e4b5b", "is_reserved": 0, "bike_id": "205431d4a277aea7467ba9938a2e4b5b", "fusion_lon": 0.0, "rental_uris": {"ios": "https://dc.lft.to/lastmile_qr_scan", "android": "https://dc.lft.to/lastmile_qr_scan"}}, {"lon": -77.04149383333333, "fusion_lat": 0.0, "type": "electric_scooter", "lat": 38.90755516666667, "is_disabled": 0, "name": "e340bb279393d321423edbbfa54c1181", "is_reserved": 0, "bike_id": "e340bb279393d321423edbbfa54c1181", "fusion_lon": 0.0, "rental_uris": {"ios": "https://dc.lft.to/lastmile_qr_scan", "android": "https://dc.lft.to/lastmile_qr_scan"}}, {"lon": -77.0296615, "fusion_lat": 0.0, "type": "electric_scooter", "lat": 38.897418, "is_disabled": 0, "name": "914a685b94985bfcf19d917c4586b62e", "is_reserved": 0, "bike_id": "914a685b94985bfcf19d917c4586b62e", "fusion_lon": 0.0, "rental_uris": {"ios": "https://dc.lft.to/lastmile_qr_scan", "android": "https://dc.lft.to/lastmile_qr_scan"}}, {"lon": -77.03215583333333, "fusion_lat": 0.0, "type": "electric_scooter", "lat": 38.919107, "is_disabled": 0, "name": "32d60b487aefbef7226c3a1c66c9ba91", "is_reserved": 0, "bike_id": "32d60b487aefbef7226c3a1c66c9ba91", "fusion_lon": 0.0, "rental_uris": {"ios": "https://dc.lft.to/lastmile_qr_scan", "android": "https://dc.lft.to/lastmile_qr_scan"}}, {"lon": -77.032259, "fusion_lat": 0.0, "type": "electric_scooter", "lat": 38.9297485, "is_disabled": 0, "name": "01cef3d85f4f5475c64f679f156a21f7", "is_reserved": 0, "bike_id": "01cef3d85f4f5475c64f679f156a21f7", "fusion_lon": 0.0, "rental_uris": {"ios": "https://dc.lft.to/lastmile_qr_scan", "android": "https://dc.lft.to/lastmile_qr_scan"}}, {"lon": -77.0501005, "fusion_lat": 0.0, "type": "electric_scooter", "lat": 38.906773, "is_disabled": 0, "name": "37d73074610422d8772a781fde5f8460", "is_reserved": 0, "bike_id": "37d73074610422d8772a781fde5f8460", "fusion_lon": 0.0, "rental_uris": {"ios": "https://dc.lft.to/lastmile_qr_scan", "android": "https://dc.lft.to/lastmile_qr_scan"}}, {"lon": -77.01726783333334, "fusion_lat": 0.0, "type": "electric_scooter", "lat": 38.94316533333333, "is_disabled": 0, "name": "828def556d075a1aa37450ed04915710", "is_reserved": 0, "bike_id": "828def556d075a1aa37450ed04915710", "fusion_lon": 0.0, "rental_uris": {"ios": "https://dc.lft.to/lastmile_qr_scan", "android": "https://dc.lft.to/lastmile_qr_scan"}}, {"lon": -77.006015, "fusion_lat": 0.0, "type": "electric_scooter", "lat": 38.87562366666667, "is_disabled": 0, "name": "5fc692141225b04e3296ec74ffa9d681", "is_reserved": 0, "bike_id": "5fc692141225b04e3296ec74ffa9d681", "fusion_lon": 0.0, "rental_uris": {"ios": "https://dc.lft.to/lastmile_qr_scan", "android": "https://dc.lft.to/lastmile_qr_scan"}}, {"lon": -77.0081175, "fusion_lat": 0.0, "type": "electric_scooter", "lat": 38.8766265, "is_disabled": 0, "name": "a80ae01658d18e48dc7a36372d76cf50", "is_reserved": 0, "bike_id": "a80ae01658d18e48dc7a36372d76cf50", "fusion_lon": 0.0, "rental_uris": {"ios": "https://dc.lft.to/lastmile_qr_scan", "android": "https://dc.lft.to/lastmile_qr_scan"}}, {"lon": -77.02587416666667, "fusion_lat": 0.0, "type": "electric_scooter", "lat": 38.899975833333336, "is_disabled": 0, "name": "65532688713162a176662fc4f769fdab", "is_reserved": 0, "bike_id": "65532688713162a176662fc4f769fdab", "fusion_lon": 0.0, "rental_uris": {"ios": "https://dc.lft.to/lastmile_qr_scan", "android": "https://dc.lft.to/lastmile_qr_scan"}}, {"lon": -77.036474, "fusion_lat": 0.0, "type": "electric_scooter", "lat": 38.90684983333333, "is_disabled": 0, "name": "5eec71d8836f36b69174f3bc79e1b07f", "is_reserved": 0, "bike_id": "5eec71d8836f36b69174f3bc79e1b07f", "fusion_lon": 0.0, "rental_uris": {"ios": "https://dc.lft.to/lastmile_qr_scan", "android": "https://dc.lft.to/lastmile_qr_scan"}}, {"lon": -77.03658016666667, "fusion_lat": 0.0, "type": "electric_scooter", "lat": 38.92222366666667, "is_disabled": 0, "name": "99bfa46de79bbb967cd8e82bca0e7e46", "is_reserved": 0, "bike_id": "99bfa46de79bbb967cd8e82bca0e7e46", "fusion_lon": 0.0, "rental_uris": {"ios": "https://dc.lft.to/lastmile_qr_scan", "android": "https://dc.lft.to/lastmile_qr_scan"}}, {"lon": -77.0831955, "fusion_lat": 0.0, "type": "electric_bike", "lat": 38.85433716666667, "is_disabled": 0, "name": "1405d2767116ee9cb2d839b17b92c148", "is_reserved": 0, "bike_id": "1405d2767116ee9cb2d839b17b92c148", "fusion_lon": 0.0, "rental_uris": {"ios": "https://dc.lft.to/lastmile_qr_scan", "android": "https://dc.lft.to/lastmile_qr_scan"}}, {"lon": -77.00599566666666, "fusion_lat": 0.0, "type": "electric_scooter", "lat": 38.906302333333336, "is_disabled": 0, "name": "7be5c82eb7fa9ed2e4837d250dd4b7fb", "is_reserved": 0, "bike_id": "7be5c82eb7fa9ed2e4837d250dd4b7fb", "fusion_lon": 0.0, "rental_uris": {"ios": "https://dc.lft.to/lastmile_qr_scan", "android": "https://dc.lft.to/lastmile_qr_scan"}}, {"lon": -77.0298505, "fusion_lat": 0.0, "type": "electric_scooter", "lat": 38.950745166666664, "is_disabled": 0, "name": "7ebf549f4bfb09e7e6a0c1f5624f440e", "is_reserved": 0, "bike_id": "7ebf549f4bfb09e7e6a0c1f5624f440e", "fusion_lon": 0.0, "rental_uris": {"ios": "https://dc.lft.to/lastmile_qr_scan", "android": "https://dc.lft.to/lastmile_qr_scan"}}, {"lon": -77.02026266666667, "fusion_lat": 0.0, "type": "electric_scooter", "lat": 38.92439, "is_disabled": 0, "name": "ce3bb5010815f34e9231479c12b18184", "is_reserved": 0, "bike_id": "ce3bb5010815f34e9231479c12b18184", "fusion_lon": 0.0, "rental_uris": {"ios": "https://dc.lft.to/lastmile_qr_scan", "android": "https://dc.lft.to/lastmile_qr_scan"}}, {"lon": -77.02156466666666, "fusion_lat": 0.0, "type": "electric_scooter", "lat": 38.92614483333333, "is_disabled": 0, "name": "23f5c17696ae8226073de9a5a4c4631c", "is_reserved": 0, "bike_id": "23f5c17696ae8226073de9a5a4c4631c", "fusion_lon": 0.0, "rental_uris": {"ios": "https://dc.lft.to/lastmile_qr_scan", "android": "https://dc.lft.to/lastmile_qr_scan"}}, {"lon": -76.99118716666666, "fusion_lat": 0.0, "type": "electric_scooter", "lat": 38.897092, "is_disabled": 0, "name": "1eb92788d7ce61a2881d78b9eafeb0df", "is_reserved": 0, "bike_id": "1eb92788d7ce61a2881d78b9eafeb0df", "fusion_lon": 0.0, "rental_uris": {"ios": "https://dc.lft.to/lastmile_qr_scan", "android": "https://dc.lft.to/lastmile_qr_scan"}}, {"lon": -77.004262, "fusion_lat": 0.0, "type": "electric_scooter", "lat": 38.903956666666666, "is_disabled": 0, "name": "d8684b11b5b048fdfc251e8102d466df", "is_reserved": 0, "bike_id": "d8684b11b5b048fdfc251e8102d466df", "fusion_lon": 0.0, "rental_uris": {"ios": "https://dc.lft.to/lastmile_qr_scan", "android": "https://dc.lft.to/lastmile_qr_scan"}}, {"lon": -77.0194835, "fusion_lat": 0.0, "type": "electric_scooter", "lat": 38.923276, "is_disabled": 0, "name": "9f5a9dfc83754741233c52e6292acd82", "is_reserved": 0, "bike_id": "9f5a9dfc83754741233c52e6292acd82", "fusion_lon": 0.0, "rental_uris": {"ios": "https://dc.lft.to/lastmile_qr_scan", "android": "https://dc.lft.to/lastmile_qr_scan"}}, {"lon": -77.0317075, "fusion_lat": 0.0, "type": "electric_scooter", "lat": 38.91417916666666, "is_disabled": 0, "name": "03823011406174d61a2c2c2777c7e503", "is_reserved": 0, "bike_id": "03823011406174d61a2c2c2777c7e503", "fusion_lon": 0.0, "rental_uris": {"ios": "https://dc.lft.to/lastmile_qr_scan", "android": "https://dc.lft.to/lastmile_qr_scan"}}, {"lon": -76.99550683333334, "fusion_lat": 0.0, "type": "electric_scooter", "lat": 38.926663833333336, "is_disabled": 0, "name": "7ff6e3e5ec1dc41fbf9bf708df7cb776", "is_reserved": 0, "bike_id": "7ff6e3e5ec1dc41fbf9bf708df7cb776", "fusion_lon": 0.0, "rental_uris": {"ios": "https://dc.lft.to/lastmile_qr_scan", "android": "https://dc.lft.to/lastmile_qr_scan"}}, {"lon": -77.00194983333333, "fusion_lat": 0.0, "type": "electric_scooter", "lat": 38.90529266666667, "is_disabled": 0, "name": "a42952b992892d12eb6f1b48ceffb24d", "is_reserved": 0, "bike_id": "a42952b992892d12eb6f1b48ceffb24d", "fusion_lon": 0.0, "rental_uris": {"ios": "https://dc.lft.to/lastmile_qr_scan", "android": "https://dc.lft.to/lastmile_qr_scan"}}, {"lon": -76.993255, "fusion_lat": 0.0, "type": "electric_bike", "lat": 38.94679, "is_disabled": 0, "name": "55c7c85a0dcf8f3399073011e0122d4b", "is_reserved": 0, "bike_id": "55c7c85a0dcf8f3399073011e0122d4b", "fusion_lon": 0.0, "rental_uris": {"ios": "https://dc.lft.to/lastmile_qr_scan", "android": "https://dc.lft.to/lastmile_qr_scan"}}, {"lon": -77.0393015, "fusion_lat": 0.0, "type": "electric_scooter", "lat": 38.912585666666665, "is_disabled": 0, "name": "43c4c38b5abcd27a6e314723e3a40bfd", "is_reserved": 0, "bike_id": "43c4c38b5abcd27a6e314723e3a40bfd", "fusion_lon": 0.0, "rental_uris": {"ios": "https://dc.lft.to/lastmile_qr_scan", "android": "https://dc.lft.to/lastmile_qr_scan"}}, {"lon": -76.97592683333333, "fusion_lat": 0.0, "type": "electric_scooter", "lat": 38.9033185, "is_disabled": 0, "name": "8d9602c0da2b528a177f4ce7984f6b46", "is_reserved": 0, "bike_id": "8d9602c0da2b528a177f4ce7984f6b46", "fusion_lon": 0.0, "rental_uris": {"ios": "https://dc.lft.to/lastmile_qr_scan", "android": "https://dc.lft.to/lastmile_qr_scan"}}, {"lon": -77.0393785, "fusion_lat": 0.0, "type": "electric_scooter", "lat": 38.93060466666667, "is_disabled": 0, "name": "c502de2232a79eddbcdc393c33ace338", "is_reserved": 0, "bike_id": "c502de2232a79eddbcdc393c33ace338", "fusion_lon": 0.0, "rental_uris": {"ios": "https://dc.lft.to/lastmile_qr_scan", "android": "https://dc.lft.to/lastmile_qr_scan"}}, {"lon": -77.04151833333333, "fusion_lat": 0.0, "type": "electric_scooter", "lat": 38.899424333333336, "is_disabled": 0, "name": "bb61c53987c557ada4480ef7dd07ea01", "is_reserved": 0, "bike_id": "bb61c53987c557ada4480ef7dd07ea01", "fusion_lon": 0.0, "rental_uris": {"ios": "https://dc.lft.to/lastmile_qr_scan", "android": "https://dc.lft.to/lastmile_qr_scan"}}, {"lon": -77.04469633333333, "fusion_lat": 0.0, "type": "electric_scooter", "lat": 38.89529516666666, "is_disabled": 0, "name": "05345a68f2fd89a96278c2016ce249fe", "is_reserved": 0, "bike_id": "05345a68f2fd89a96278c2016ce249fe", "fusion_lon": 0.0, "rental_uris": {"ios": "https://dc.lft.to/lastmile_qr_scan", "android": "https://dc.lft.to/lastmile_qr_scan"}},