{"data": {"bikes": [{"lon": -77.03208316666667, "lat": 38.907167, "rental_uris": {"ios": "https://dc.lft.to/lastmile_qr_scan", "android": "https://dc.lft.to/lastmile_qr_scan"}, "bike_id": "29b18e2334912ffbf12ed687131e20a7", "type": "electric_scooter", "is_disabled": 0, "fusion_lat": 0.0, "fusion_lon": 0.0, "is_reserved": 0, "name": "29b18e2334912ffbf12ed687131e20a7"}, {"lon": -77.0343045, "lat": 38.91932466666667, "rental_uris": {"ios": "https://dc.lft.to/lastmile_qr_scan", "android": "https://dc.lft.to/lastmile_qr_scan"}, "bike_id": "c9f5d51eb6509927dbe7313ecb9ce508", "type": "electric_scooter", "is_disabled": 0, "fusion_lat": 0.0, "fusion_lon": 0.0, "is_reserved": 0, "name": "c9f5d51eb6509927dbe7313ecb9ce508"}, {"lon": -77.04336433333333, "lat": 38.8923085, "rental_uris": {"ios": "https://dc.lft.to/lastmile_qr_scan", "android": "https://dc.lft.to/lastmile_qr_scan"}, "bike_id": "b8235e1e0d7d0b1613a9b5ffc511c8d8", "type": "electric_scooter", "is_disabled": 0, "fusion_lat": 0.0, "fusion_lon": 0.0, "is_reserved": 0, "name": "b8235e1e0d7d0b1613a9b5ffc511c8d8"}, {"lon": -77.00353316666667, "lat": 38.89921233333333, "rental_uris": {"ios": "https://dc.lft.to/lastmile_qr_scan", "android": "https://dc.lft.to/lastmile_qr_scan"}, "bike_id": "76460d17a8ee061fa07af3761ded413a", "type": "electric_scooter", "is_disabled": 0, "fusion_lat": 0.0, "fusion_lon": 0.0, "is_reserved": 0, "name": "76460d17a8ee061fa07af3761ded413a"}, {"lon": -77.0223055, "lat": 38.89223533333333, "rental_uris": {"ios": "https://dc.lft.to/lastmile_qr_scan", "android": "https://dc.lft.to/lastmile_qr_scan"}, "bike_id": "061e6ed08a564047d476141c567e8b8c", "type": "electric_scooter", "is_disabled": 0, "fusion_lat": 0.0, "fusion_lon": 0.0, "is_reserved": 0, "name": "061e6ed08a564047d476141c567e8b8c"}, {"lon": -77.0237225, "lat": 38.90195466666667, "rental_uris": {"ios": "https://dc.lft.to/lastmile_qr_scan", "android": "https://dc.lft.to/lastmile_qr_scan"}, "bike_id": "8507cec9f7fc9f4cdf8ed926b291b361", "type": "electric_scooter", "is_disabled": 0, "fusion_lat": 0.0, "fusion_lon": 0.0, "is_reserved": 0, "name": "8507cec9f7fc9f4cdf8ed926b291b361"}, {"lon": -77.04468966666667, "lat": 38.910215666666666, "rental_uris": {"ios": "https://dc.lft.to/lastmile_qr_scan", "android": "https://dc.lft.to/lastmile_qr_scan"}, "bike_id": "ee453e7f3c09b6cf747a0c24b5b89aa6", "type": "electric_scooter", "is_disabled": 0, "fusion_lat": 0.0, "fusion_lon": 0.0, "is_reserved": 0, "name": "ee453e7f3c09b6cf747a0c24b5b89aa6"}, {"lon": -77.02722483333334, "lat": 38.932536166666665, "rental_uris": {"ios": "https://dc.lft.to/lastmile_qr_scan", "android": "https://dc.lft.to/lastmile_qr_scan"}, "bike_id": "40b0950436414ad6c3a12b705881c518", "type": "electric_scooter", "is_disabled": 0, "fusion_lat": 0.0, "fusion_lon": 0.0, "is_reserved": 0, "name": "40b0950436414ad6c3a12b705881c518"}, {"lon": -77.02620016666667, "lat": 38.89427233333333, "rental_uris": {"ios": "https://dc.lft.to/lastmile_qr_scan", "android": "https://dc.lft.to/lastmile_qr_scan"}, "bike_id": "25e5c28f3b9de91cdd3b7d469161a1c0", "type": "electric_scooter", "is_disabled": 0, "fusion_lat": 0.0, "fusion_lon": 0.0, "is_reserved": 0, "name": "25e5c28f3b9de91cdd3b7d469161a1c0"}, {"lon": -76.97615783333333, "lat": 38.91294283333333, "rental_uris": {"ios": "https://dc.lft.to/lastmile_qr_scan", "android": "https://dc.lft.to/lastmile_qr_scan"}, "bike_id": "e308fce3e999a3f99bbd72d15dfe6da0", "type": "electric_scooter", "is_disabled": 0, "fusion_lat": 0.0, "fusion_lon": 0.0, "is_reserved": 0, "name": "e308fce3e999a3f99bbd72d15dfe6da0"}, {"lon": -77.04185516666666, "lat": 38.906658, "rental_uris": {"ios": "https://dc.lft.to/lastmile_qr_scan", "android": "https://dc.lft.to/lastmile_qr_scan"}, "bike_id": "98a6a5979e65a54ba0808e69c8376c93", "type": "electric_scooter", "is_disabled": 0, "fusion_lat": 0.0, "fusion_lon": 0.0, "is_reserved": 0, "name": "98a6a5979e65a54ba0808e69c8376c93"}, {"lon": -77.02058466666666, "lat": 38.92197133333333, "rental_uris": {"ios": "https://dc.lft.to/lastmile_qr_scan", "android": "https://dc.lft.to/lastmile_qr_scan"}, "bike_id": "3d16422f0dd586049a8d69fdd82877b1", "type": "electric_scooter", "is_disabled": 0, "fusion_lat": 0.0, "fusion_lon": 0.0, "is_reserved": 0, "name": "3d16422f0dd586049a8d69fdd82877b1"}, {"lon": -77.078207, "lat": 38.93638083333333, "rental_uris": {"ios": "https://dc.lft.to/lastmile_qr_scan", "android": "https://dc.lft.to/lastmile_qr_scan"}, "bike_id": "5e794c6f403a088e31446cf3afc8f458", "type": "electric_bike", "is_disabled": 0, "fusion_lat": 0.0, "fusion_lon": 0.0, "is_reserved": 0, "name": "5e794c6f403a088e31446cf3afc8f458"}, {"lon": -76.99409016666667, "lat": 38.921010833333334, "rental_uris": {"ios": "https://dc.lft.to/lastmile_qr_scan", "android": "https://dc.lft.to/lastmile_qr_scan"}, "bike_id": "048c3166c38a1718cae5a33c9287cf9f", "type": "electric_scooter", "is_disabled": 0, "fusion_lat": 0.0, "fusion_lon": 0.0, "is_reserved": 0, "name": "048c3166c38a1718cae5a33c9287cf9f"}, {"lon": -77.01527116666666, "lat": 38.9024605, "rental_uris": {"ios": "https://dc.lft.to/lastmile_qr_scan", "android": "https://dc.lft.to/lastmile_qr_scan"}, "bike_id": "39246741be1aa8890a7995e104d6d9a1", "type": "electric_scooter", "is_disabled": 0, "fusion_lat": 0.0, "fusion_lon": 0.0, "is_reserved": 0, "name": "39246741be1aa8890a7995e104d6d9a1"}, {"lon": -76.98845466666667, "lat": 38.84277866666667, "rental_uris": {"ios": "https://dc.lft.to/lastmile_qr_scan", "android": "https://dc.lft.to/lastmile_qr_scan"}, "bike_id": "97f87de7ad3ac6f2356107c3b0562dee", "type": "electric_bike", "is_disabled": 0, "fusion_lat": 0.0, "fusion_lon": 0.0, "is_reserved": 0, "name": "97f87de7ad3ac6f2356107c3b0562dee"}, {"lon": -77.03454233333333, "lat": 38.90453616666667, "rental_uris": {"ios": "https://dc.lft.to/lastmile_qr_scan", "android": "https://dc.lft.to/lastmile_qr_scan"}, "bike_id": "6bba68e3ee145f305c710a6f67950f85", "type": "electric_scooter", "is_disabled": 0, "fusion_lat": 0.0, "fusion_lon": 0.0, "is_reserved": 0, "name": "6bba68e3ee145f305c710a6f67950f85"}, {"lon": -77.00565316666666, "lat": 38.90037916666667, "rental_uris": {"ios": "https://dc.lft.to/lastmile_qr_scan", "android": "https://dc.lft.to/lastmile_qr_scan"}, "bike_id": "a008e376001b0d3f1e7d9340533516ee", "type": "electric_scooter", "is_disabled": 0, "fusion_lat": 0.0, "fusion_lon": 0.0, "is_reserved": 0, "name": "a008e376001b0d3f1e7d9340533516ee"}, {"lon": -77.04752966666666, "lat": 38.92315683333333, "rental_uris": {"ios": "https://dc.lft.to/lastmile_qr_scan", "android": "https://dc.lft.to/lastmile_qr_scan"}, "bike_id": "54343537862d91ce2453379d519ce760", "type": "electric_scooter", "is_disabled": 0, "fusion_lat": 0.0, "fusion_lon": 0.0, "is_reserved": 0, "name": "54343537862d91ce2453379d519ce760"}, {"lon": -76.98105233333334, "lat": 38.877310666666666, "rental_uris": {"ios": "https://dc.lft.to/lastmile_qr_scan", "android": "https://dc.lft.to/lastmile_qr_scan"}, "bike_id": "ed3a4d9e6efaebd6642e1fdf6dc220a4", "type": "electric_bike", "is_disabled": 0, "fusion_lat": 0.0, "fusion_lon": 0.0, "is_reserved": 0, "name": "ed3a4d9e6efaebd6642e1fdf6dc220a4"}, {"lon": -77.0434865, "lat": 38.90594383333333, "rental_uris": {"ios": "https://dc.lft.to/lastmile_qr_scan", "android": "https://dc.lft.to/lastmile_qr_scan"}, "bike_id": "1876998c57fa2a771bc8fdd8702f1f9a", "type": "electric_scooter", "is_disabled": 0, "fusion_lat": 0.0, "fusion_lon": 0.0, "is_reserved": 0, "name": "1876998c57fa2a771bc8fdd8702f1f9a"}, {"lon": -77.03641233333333, "lat": 38.922664833333336, "rental_uris": {"ios": "https://dc.lft.to/lastmile_qr_scan", "android": "https://dc.lft.to/lastmile_qr_scan"}, "bike_id": "209a0dee97ff66d0c00528760725d14a", "type": "electric_scooter", "is_disabled": 0, "fusion_lat": 0.0, "fusion_lon": 0.0, "is_reserved": 0, "name": "209a0dee97ff66d0c00528760725d14a"}, {"lon": -77.03216366666666, "lat": 38.920006, "rental_uris": {"ios": "https://dc.lft.to/lastmile_qr_scan", "android": "https://dc.lft.to/lastmile_qr_scan"}, "bike_id": "71dbdb0042fa94a57ddefed3ddd08aa9", "type": "electric_scooter", "is_disabled": 0, "fusion_lat": 0.0, "fusion_lon": 0.0, "is_reserved": 0, "name": "71dbdb0042fa94a57ddefed3ddd08aa9"}, {"lon": -77.03853016666666, "lat": 38.903946, "rental_uris": {"ios": "https://dc.lft.to/lastmile_qr_scan", "android": "https://dc.lft.to/lastmile_qr_scan"}, "bike_id": "3e74979938c32e71fb5cb85ccc625aa8", "type": "electric_scooter", "is_disabled": 0, "fusion_lat": 0.0, "fusion_lon": 0.0, "is_reserved": 0, "name": "3e74979938c32e71fb5cb85ccc625aa8"}, {"lon": -77.02696383333334, "lat": 38.90935433333333, "rental_uris": {"ios": "https://dc.lft.to/lastmile_qr_scan", "android": "https://dc.lft.to/lastmile_qr_scan"}, "bike_id": "f7f27cdf77f76501236c6b6ccd4ee686", "type": "electric_scooter", "is_disabled": 0, "fusion_lat": 0.0, "fusion_lon": 0.0, "is_reserved": 0, "name": "f7f27cdf77f76501236c6b6ccd4ee686"}, {"lon": -76.98316166666666, "lat": 38.86887183333333, "rental_uris": {"ios": "https://dc.lft.to/lastmile_qr_scan", "android": "https://dc.lft.to/lastmile_qr_scan"}, "bike_id": "d75aabe1ddb0592e2f0c1d547b901aa0", "type": "electric_scooter", "is_disabled": 0, "fusion_lat": 0.0, "fusion_lon": 0.0, "is_reserved": 0, "name": "d75aabe1ddb0592e2f0c1d547b901aa0"}, {"lon": -76.9964335, "lat": 38.88720883333333, "rental_uris": {"ios": "https://dc.lft.to/lastmile_qr_scan", "android": "https://dc.lft.to/lastmile_qr_scan"}, "bike_id": "4e19b820f09c4d6e3373b26bb0acf153", "type": "electric_scooter", "is_disabled": 0, "fusion_lat": 0.0, "fusion_lon": 0.0, "is_reserved": 0, "name": "4e19b820f09c4d6e3373b26bb0acf153"}, {"lon": -76.9950475, "lat": 38.909795, "rental_uris": {"ios": "https://dc.lft.to/lastmile_qr_scan", "android": "https://dc.lft.to/lastmile_qr_scan"}, "bike_id": "be5db81631babc681707104fedd64acb", "type": "electric_scooter", "is_disabled": 0, "fusion_lat": 0.0, "fusion_lon": 0.0, "is_reserved": 0, "name": "be5db81631babc681707104fedd64acb"}, {"lon": -76.99789116666666, "lat": 38.890911333333335, "rental_uris": {"ios": "https://dc.lft.to/lastmile_qr_scan", "android": "https://dc.lft.to/lastmile_qr_scan"}, "bike_id": "d224a0705e9db6e6b6f4a14c452b42f3", "type": "electric_scooter", "is_disabled": 0, "fusion_lat": 0.0, "fusion_lon": 0.0, "is_reserved": 0, "name": "d224a0705e9db6e6b6f4a14c452b42f3"}, {"lon": -77.0239995, "lat": 38.898235, "rental_uris": {"ios": "https://dc.lft.to/lastmile_qr_scan", "android": "https://dc.lft.to/lastmile_qr_scan"}, "bike_id": "337804ccec6891a17a5bf30de5475b58", "type": "electric_scooter", "is_disabled": 0, "fusion_lat": 0.0, "fusion_lon": 0.0, "is_reserved": 0, "name": "337804ccec6891a17a5bf30de5475b58"}, {"lon": -77.01590083333333, "lat": 38.9494075, "rental_uris": {"ios": "https://dc.lft.to/lastmile_qr_scan", "android": "https://dc.lft.to/lastmile_qr_scan"}, "bike_id": "7d9962f9a4ca260cb6c62e1e8405ebac", "type": "electric_scooter", "is_disabled": 0, "fusion_lat": 0.0, "fusion_lon": 0.0, "is_reserved": 0, "name": "7d9962f9a4ca260cb6c62e1e8405ebac"}, {"lon": -77.00057333333334, "lat": 38.89158833333333, "rental_uris": {"ios": "https://dc.lft.to/lastmile_qr_scan", "android": "https://dc.lft.to/lastmile_qr_scan"}, "bike_id": "e64634786b65ad2a75bde298faf13ba7", "type": "electric_scooter", "is_disabled": 0, "fusion_lat": 0.0, "fusion_lon": 0.0, "is_reserved": 0, "name": "e64634786b65ad2a75bde298faf13ba7"}, {"lon": -77.02095216666666, "lat": 38.921544, "rental_uris": {"ios": "https://dc.lft.to/lastmile_qr_scan", "android": "https://dc.lft.to/lastmile_qr_scan"}, "bike_id": "988f4738e43e2b2780305e393211bb78", "type": "electric_scooter", "is_disabled": 0, "fusion_lat": 0.0, "fusion_lon": 0.0, "is_reserved": 0, "name": "988f4738e43e2b2780305e393211bb78"}, {"lon": -76.98552166666667, "lat": 38.91032166666667, "rental_uris": {"ios": "https://dc.lft.to/lastmile_qr_scan", "android": "https://dc.lft.to/lastmile_qr_scan"}, "bike_id": "59ae6f1d6893ad7fab87d1113aea6f83", "type": "electric_scooter", "is_disabled": 0, "fusion_lat": 0.0, "fusion_lon": 0.0, "is_reserved": 0, "name": "59ae6f1d6893ad7fab87d1113aea6f83"}, {"lon": -77.02715566666667, "lat": 38.92467366666666, "rental_uris": {"ios": "https://dc.lft.to/lastmile_qr_scan", "android": "https://dc.lft.to/lastmile_qr_scan"}, "bike_id": "4d0dc4cf5995f22cc895f20e2caf6450", "type": "electric_scooter", "is_disabled": 0, "fusion_lat": 0.0, "fusion_lon": 0.0, "is_reserved": 0, "name": "4d0dc4cf5995f22cc895f20e2caf6450"}, {"lon": -77.05251333333334, "lat": 38.923786666666665, "rental_uris": {"ios": "https://dc.lft.to/lastmile_qr_scan", "android": "https://dc.lft.to/lastmile_qr_scan"}, "bike_id": "92c2efb7d72a8a91bbcf7dc9b8c42d85", "type": "electric_scooter", "is_disabled": 0, "fusion_lat": 0.0, "fusion_lon": 0.0, "is_reserved": 0, "name": "92c2efb7d72a8a91bbcf7dc9b8c42d85"}, {"lon": -77.03368966666666, "lat": 38.909751666666665, "rental_uris": {"ios": "https://dc.lft.to/lastmile_qr_scan", "android": "https://dc.lft.to/lastmile_qr_scan"}, "bike_id": "42ffa53b884ecfcb05bf901ecc2871d3", "type": "electric_scooter", "is_disabled": 0, "fusion_lat": 0.0, "fusion_lon": 0.0, "is_reserved": 0, "name": "42ffa53b884ecfcb05bf901ecc2871d3"}, {"lon": -76.98617716666666, "lat": 38.9058505, "rental_uris": {"ios": "https://dc.lft.to/lastmile_qr_scan", "android": "https://dc.lft.to/lastmile_qr_scan"}, "bike_id": "af960c374c6e16b10035f74a0110c12d", "type": "electric_scooter", "is_disabled": 0, "fusion_lat": 0.0, "fusion_lon": 0.0, "is_reserved": 0, "name": "af960c374c6e16b10035f74a0110c12d"}, {"lon": -77.0221185, "lat": 38.91358733333333, "rental_uris": {"ios": "https://dc.lft.to/lastmile_qr_scan", "android": "https://dc.lft.to/lastmile_qr_scan"}, "bike_id": "0b128f80b52c6687898ca14c401149b8", "type": "electric_scooter", "is_disabled": 0, "fusion_lat": 0.0, "fusion_lon": 0.0, "is_reserved": 0, "name": "0b128f80b52c6687898ca14c401149b8"}, {"lon": -77.02679733333333, "lat": 38.92771166666667, "rental_uris": {"ios": "https://dc.lft.to/lastmile_qr_scan", "android": "https://dc.lft.to/lastmile_qr_scan"}, "bike_id": "ef9383e0cfd963079b6166f92192a299", "type": "electric_scooter", "is_disabled": 0, "fusion_lat": 0.0, "fusion_lon": 0.0, "is_reserved": 0, "name": "ef9383e0cfd963079b6166f92192a299"}, {"lon": -77.01544383333334, "lat": 38.88317583333333, "rental_uris": {"ios": "https://dc.lft.to/lastmile_qr_scan", "android": "https://dc.lft.to/lastmile_qr_scan"}, "bike_id": "22d58b0b71e50eb89f0b92111a095601", "type": "electric_scooter", "is_disabled": 0, "fusion_lat": 0.0, "fusion_lon": 0.0, "is_reserved": 0, "name": "22d58b0b71e50eb89f0b92111a095601"}, {"lon": -77.0181775, "lat": 38.89307383333333, "rental_uris": {"ios": "https://dc.lft.to/lastmile_qr_scan", "android": "https://dc.lft.to/lastmile_qr_scan"}, "bike_id": "84d49eb2f3006b64bdbe4f0e8f589a8e", "type": "electric_scooter", "is_disabled": 0, "fusion_lat": 0.0, "fusion_lon": 0.0, "is_reserved": 0, "name": "84d49eb2f3006b64bdbe4f0e8f589a8e"}, {"lon": -77.0060215, "lat": 38.89784483333333, "rental_uris": {"ios": "https://dc.lft.to/lastmile_qr_scan", "android": "https://dc.lft.to/lastmile_qr_scan"}, "bike_id": "490a053e8a1a5a95452c7e31d6bb818a", "type": "electric_bike", "is_disabled": 0, "fusion_lat": 0.0, "fusion_lon": 0.0, "is_reserved": 0, "name": "490a053e8a1a5a95452c7e31d6bb818a"}, {"lon": -77.02681066666666, "lat": 38.984880833333335, "rental_uris": {"ios": "https://dc.lft.to/lastmile_qr_scan", "android": "https://dc.lft.to/lastmile_qr_scan"}, "bike_id": "ed671acf2e62d224d67761d916af63ca", "type": "electric_scooter", "is_disabled": 0, "fusion_lat": 0.0, "fusion_lon": 0.0, "is_reserved": 0, "name": "ed671acf2e62d224d67761d916af63ca"}, {"lon": -77.07326016666667, "lat": 38.92258416666667, "rental_uris": {"ios": "https://dc.lft.to/lastmile_qr_scan", "android": "https://dc.lft.to/lastmile_qr_scan"}, "bike_id": "ca455720fc402356133eae0e32951420", "type": "electric_scooter", "is_disabled": 0, "fusion_lat": 0.0, "fusion_lon": 0.0, "is_reserved": 0, "name": "ca455720fc402356133eae0e32951420"}, {"lon": -77.03923566666667, "lat": 38.915529, "rental_uris": {"ios": "https://dc.lft.to/lastmile_qr_scan", "android": "https://dc.lft.to/lastmile_qr_scan"}, "bike_id": "a2f4deeb6c3f49ae128f9cb602da32b8", "type": "electric_scooter", "is_disabled": 0, "fusion_lat": 0.0, "fusion_lon": 0.0, "is_reserved": 0, "name": "a2f4deeb6c3f49ae128f9cb602da32b8"}, {"lon": -77.031584, "lat": 38.884150166666664, "rental_uris": {"ios": "https://dc.lft.to/lastmile_qr_scan", "android": "https://dc.lft.to/lastmile_qr_scan"}, "bike_id": "efd3ac2ea9072937251f1aedd121b608", "type": "electric_scooter", "is_disabled": 0, "fusion_lat": 0.0, "fusion_lon": 0.0, "is_reserved": 0, "name": "efd3ac2ea9072937251f1aedd121b608"}, {"lon": -77.02693983333333, "lat": 38.948856666666664, "rental_uris": {"ios": "https://dc.lft.to/lastmile_qr_scan", "android": "https://dc.lft.to/lastmile_qr_scan"}, "bike_id": "a6285d5c0c61ee1c57b5fc2cce3444e2", "type": "electric_scooter", "is_disabled": 0, "fusion_lat": 0.0, "fusion_lon": 0.0, "is_reserved": 0, "name": "a6285d5c0c61ee1c57b5fc2cce3444e2"}, {"lon": -77.0233795, "lat": 38.91969516666666, "rental_uris": {"ios": "https://dc.lft.to/lastmile_qr_scan", "android": "https://dc.lft.to/lastmile_qr_scan"}, "bike_id": "3686a55116d30014adaf5ae434b5efc6", "type": "electric_scooter", "is_disabled": 0, "fusion_lat": 0.0, "fusion_lon": 0.0, "is_reserved": 0, "name": "3686a55116d30014adaf5ae434b5efc6"}, {"lon": -77.0541835, "lat": 38.905316666666664, "rental_uris": {"ios": "https://dc.lft.to/lastmile_qr_scan", "android": "https://dc.lft.to/lastmile_qr_scan"}, "bike_id": "0324665ce085e863cd129eca4f9556fd", "type": "electric_scooter", "is_disabled": 0, "fusion_lat": 0.0, "fusion_lon": 0.0, "is_reserved": 0, "name": "0324665ce085e863cd129eca4f9556fd"}, {"lon": -77.001363, "lat": 38.842849, "rental_uris": {"ios": "https://dc.lft.to/lastmile_qr_scan", "android": "https://dc.lft.to/lastmile_qr_scan"}, "bike_id": "16431396bfee88a74dd65948f5f342a8", "type": "electric_scooter", "is_disabled": 0, "fusion_lat": 0.0, "fusion_lon": 0.0, "is_reserved": 0, "name": "16431396bfee88a74dd65948f5f342a8"}, {"lon": -77.00499033333334, "lat": 38.896922, "rental_uris": {"ios": "https://dc.lft.to/lastmile_qr_scan", "android": "https://dc.lft.to/lastmile_qr_scan"}, "bike_id": "daf92d71a642a29448b47b585880b1a5", "type": "electric_scooter", "is_disabled": 0, "fusion_lat": 0.0, "fusion_lon": 0.0, "is_reserved": 0, "name": "daf92d71a642a29448b47b585880b1a5"}, {"lon": -76.95016833333334, "lat": 38.8938765, "rental_uris": {"ios": "https://dc.lft.to/lastmile_qr_scan", "android": "https://dc.lft.to/lastmile_qr_scan"}, "bike_id": "6332e28ada4553444552f88584e962da", "type": "electric_scooter", "is_disabled": 0, "fusion_lat": 0.0, "fusion_lon": 0.0, "is_reserved": 0, "name": "6332e28ada4553444552f88584e962da"}, {"lon": -77.03755966666667, "lat": 38.9155215, "rental_uris": {"ios": "https://dc.lft.to/lastmile_qr_scan", "android": "https://dc.lft.to/lastmile_qr_scan"}, "bike_id": "7d218f5f2cd37d79aca2e9e28af3119f", "type": "electric_scooter", "is_disabled": 0, "fusion_lat": 0.0, "fusion_lon": 0.0, "is_reserved": 0, "name": "7d218f5f2cd37d79aca2e9e28af3119f"}, {"lon": -76.964669, "lat": 38.9344645, "rental_uris": {"ios": "https://dc.lft.to/lastmile_qr_scan", "android": "https://dc.lft.to/lastmile_qr_scan"}, "bike_id": "a55a10c81de69ea15cbb4e130ded2404", "type": "electric_scooter", "is_disabled": 0, "fusion_lat": 0.0, "fusion_lon": 0.0, "is_reserved": 0, "name": "a55a10c81de69ea15cbb4e130ded2404"}, {"lon": -76.98534866666667, "lat": 38.910232666666666, "rental_uris": {"ios": "https://dc.lft.to/lastmile_qr_scan", "android": "https://dc.lft.to/lastmile_qr_scan"}, "bike_id": "e5628c2d8da4d5baa15fc7fd303be385", "type": "electric_scooter", "is_disabled": 0, "fusion_lat": 0.0, "fusion_lon": 0.0, "is_reserved": 0, "name": "e5628c2d8da4d5baa15fc7fd303be385"}, {"lon": -77.0433645, "lat": 38.907376, "rental_uris": {"ios": "https://dc.lft.to/lastmile_qr_scan", "android": "https://dc.lft.to/lastmile_qr_scan"}, "bike_id": "479d70e8c64fba556641b1c9fe48ec85", "type": "electric_scooter", "is_disabled": 0, "fusion_lat": 0.0, "fusion_lon": 0.0, "is_reserved": 0, "name": "479d70e8c64fba556641b1c9fe48ec85"}, {"lon": -77.023974, "lat": 38.95710416666667, "rental_uris": {"ios": "https://dc.lft.to/lastmile_qr_scan", "android": "https://dc.lft.to/lastmile_qr_scan"}, "bike_id": "1cf7515332a7548fc83d6170ffb75268", "type": "electric_scooter", "is_disabled": 0, "fusion_lat": 0.0, "fusion_lon": 0.0, "is_reserved": 0, "name": "1cf7515332a7548fc83d6170ffb75268"}, {"lon": -76.99831683333333, "lat": 38.90856016666667, "rental_uris": {"ios": "https://dc.lft.to/lastmile_qr_scan", "android": "https://dc.lft.to/lastmile_qr_scan"}, "bike_id": "5e4a8ccdeb0d4e4b925e0797c7a64cec", "type": "electric_scooter", "is_disabled": 0, "fusion_lat": 0.0, "fusion_lon": 0.0, "is_reserved": 0, "name": "5e4a8ccdeb0d4e4b925e0797c7a64cec"}, {"lon": -77.030748, "lat": 38.91755166666667, "rental_uris": {"ios": "https://dc.lft.to/lastmile_qr_scan", "android": "https://dc.lft.to/lastmile_qr_scan"}, "bike_id": "947eed11a8174b42e9bffc456ef70bfe", "type": "electric_scooter", "is_disabled": 0, "fusion_lat": 0.0, "fusion_lon": 0.0, "is_reserved": 0, "name": "947eed11a8174b42e9bffc456ef70bfe"}, {"lon": -77.05033733333333, "lat": 38.923779833333334, "rental_uris": {"ios": "https://dc.lft.to/lastmile_qr_scan", "android": "https://dc.lft.to/lastmile_qr_scan"}, "bike_id": "197722bfc344495acf90fb9e76716d5d", "type": "electric_scooter", "is_disabled": 0, "fusion_lat": 0.0, "fusion_lon": 0.0, "is_reserved": 0, "name": "197722bfc344495acf90fb9e76716d5d"}, {"lon": -77.0078635, "lat": 38.90642183333333, "rental_uris": {"ios": "https://dc.lft.to/lastmile_qr_scan", "android": "https://dc.lft.to/lastmile_qr_scan"}, "bike_id": "e01ba5f60cc43135975939fa33ad5a57", "type": "electric_scooter", "is_disabled": 0, "fusion_lat": 0.0, "fusion_lon": 0.0, "is_reserved": 0, "name": "e01ba5f60cc43135975939fa33ad5a57"}, {"lon": -76.99389883333333, "lat": 38.897297, "rental_uris": {"ios": "https://dc.lft.to/lastmile_qr_scan", "android": "https://dc.lft.to/lastmile_qr_scan"}, "bike_id": "4c89251fcc6ddbc9fc1c16d94a54d4ff", "type": "electric_scooter", "is_disabled": 0, "fusion_lat": 0.0, "fusion_lon": 0.0, "is_reserved": 0, "name": "4c89251fcc6ddbc9fc1c16d94a54d4ff"}, {"lon": -76.999491, "lat": 38.908629833333336, "rental_uris": {"ios": "https://dc.lft.to/lastmile_qr_scan", "android": "https://dc.lft.to/lastmile_qr_scan"}, "bike_id": "51a5d95bcc57aa03cfcdb6986344159b", "type": "electric_scooter", "is_disabled": 0, "fusion_lat": 0.0, "fusion_lon": 0.0, "is_reserved": 0, "name": "51a5d95bcc57aa03cfcdb6986344159b"}, {"lon": -76.9275495, "lat": 38.8806195, "rental_uris": {"ios": "https://dc.lft.to/lastmile_qr_scan", "android": "https://dc.lft.to/lastmile_qr_scan"}, "bike_id": "76e99ebba6601e9cd1b8a20ef64f79b5", "type": "electric_scooter", "is_disabled": 0, "fusion_lat": 0.0, "fusion_lon": 0.0, "is_reserved": 0, "name": "76e99ebba6601e9cd1b8a20ef64f79b5"}, {"lon": -77.00388516666666, "lat": 38.90571333333333, "rental_uris": {"ios": "https://dc.lft.to/lastmile_qr_scan", "android": "https://dc.lft.to/lastmile_qr_scan"}, "bike_id": "f303a47a5886d324f08cb59da2d406a6", "type": "electric_scooter", "is_disabled": 0, "fusion_lat": 0.0, "fusion_lon": 0.0, "is_reserved": 0, "name": "f303a47a5886d324f08cb59da2d406a6"}, {"lon": -77.03480483333334, "lat": 38.924814833333336, "rental_uris": {"ios": "https://dc.lft.to/lastmile_qr_scan", "android": "https://dc.lft.to/lastmile_qr_scan"}, "bike_id": "2cb70d2f6b597f2508e3657f2f7e24ab", "type": "electric_scooter", "is_disabled": 0, "fusion_lat": 0.0, "fusion_lon": 0.0, "is_reserved": 0, "name": "2cb70d2f6b597f2508e3657f2f7e24ab"}, {"lon": -77.02387166666666, "lat": 38.907468, "rental_uris": {"ios": "https://dc.lft.to/lastmile_qr_scan", "android": "https://dc.lft.to/lastmile_qr_scan"}, "bike_id": "7086f98c807a966247919eba5721fb18", "type": "electric_scooter", "is_disabled": 0, "fusion_lat": 0.0, "fusion_lon": 0.0, "is_reserved": 0, "name": "7086f98c807a966247919eba5721fb18"}, {"lon": -77.00747766666667, "lat": 38.89836316666667, "rental_uris": {"ios": "https://dc.lft.to/lastmile_qr_scan", "android": "https://dc.lft.to/lastmile_qr_scan"}, "bike_id": "8714ae4c610b09b01e2b626d280b292e", "type": "electric_scooter", "is_disabled": 0, "fusion_lat": 0.0, "fusion_lon": 0.0, "is_reserved": 0, "name": "8714ae4c610b09b01e2b626d280b292e"}, {"lon": -77.04384116666667, "lat": 38.909010333333335, "rental_uris": {"ios": "https://dc.lft.to/lastmile_qr_scan", "android": "https://dc.lft.to/lastmile_qr_scan"}, "bike_id": "6d5d2f051bccadfbba061817fd90ca1f", "type": "electric_scooter", "is_disabled": 0, "fusion_lat": 0.0, "fusion_lon": 0.0, "is_reserved": 0, "name": "6d5d2f051bccadfbba061817fd90ca1f"}, {"lon": -77.02213, "lat": 38.915648833333336, "rental_uris": {"ios": "https://dc.lft.to/lastmile_qr_scan", "android": "https://dc.lft.to/lastmile_qr_scan"}, "bike_id": "1f6b4b5b22778d1dc21a7e4903c0280b", "type": "electric_scooter", "is_disabled": 0, "fusion_lat": 0.0, "fusion_lon": 0.0, "is_reserved": 0, "name": "1f6b4b5b22778d1dc21a7e4903c0280b"}, {"lon": -77.02385166666667, "lat": 38.91995583333333, "rental_uris": {"ios": "https://dc.lft.to/lastmile_qr_scan", "android": "https://dc.lft.to/lastmile_qr_scan"}, "bike_id": "a955fb3547a67100fbaedb86d467501a", "type": "electric_scooter", "is_disabled": 0, "fusion_lat": 0.0, "fusion_lon": 0.0, "is_reserved": 0, "name": "a955fb3547a67100fbaedb86d467501a"}, {"lon": -77.03417816666666, "lat": 38.92309866666667, "rental_uris": {"ios": "https://dc.lft.to/lastmile_qr_scan", "android": "https://dc.lft.to/lastmile_qr_scan"}, "bike_id": "dfd1696ded3813cdee42021286d06ff6", "type": "electric_scooter", "is_disabled": 0, "fusion_lat": 0.0, "fusion_lon": 0.0, "is_reserved": 0, "name": "dfd1696ded3813cdee42021286d06ff6"}, {"lon": -77.10331333333333, "lat": 38.87416, "rental_uris": {"ios": "https://dc.lft.to/lastmile_qr_scan", "android": "https://dc.lft.to/lastmile_qr_scan"}, "bike_id": "e3819e96514896a575d539426ec568c8", "type": "electric_bike", "is_disabled": 0, "fusion_lat": 0.0, "fusion_lon": 0.0, "is_reserved": 0, "name": "e3819e96514896a575d539426ec568c8"}, {"lon": -76.99085116666667, "lat": 38.842904833333336, "rental_uris": {"ios": "https://dc.lft.to/lastmile_qr_scan", "android": "https://dc.lft.to/lastmile_qr_scan"}, "bike_id": "0aa706bf539d5ea3cdc73a775f950ea3", "type": "electric_scooter", "is_disabled": 0, "fusion_lat": 0.0, "fusion_lon": 0.0, "is_reserved": 0, "name": "0aa706bf539d5ea3cdc73a775f950ea3"}, {"lon": -77.0213265, "lat": 38.924178833333336, "rental_uris": {"ios": "https://dc.lft.to/lastmile_qr_scan", "android": "https://dc.lft.to/lastmile_qr_scan"}, "bike_id": "7a6755f7dd6386d4f5bd3deed9f145e5", "type": "electric_scooter", "is_disabled": 0, "fusion_lat": 0.0, "fusion_lon": 0.0, "is_reserved": 0, "name": "7a6755f7dd6386d4f5bd3deed9f145e5"}, {"lon": -77.02976083333333, "lat": 38.916821166666665, "rental_uris": {"ios": "https://dc.lft.to/lastmile_qr_scan", "android": "https://dc.lft.to/lastmile_qr_scan"}, "bike_id": "477f313543f74c291ccf2e38b9b1c882", "type": "electric_scooter", "is_disabled": 0, "fusion_lat": 0.0, "fusion_lon": 0.0, "is_reserved": 0, "name": "477f313543f74c291ccf2e38b9b1c882"}, {"lon": -77.00591016666667, "lat": 38.90573783333333, "rental_uris": {"ios": "https://dc.lft.to/lastmile_qr_scan", "android": "https://dc.lft.to/lastmile_qr_scan"}, "bike_id": "e4e804c9f223d3e7c37b8c593a0b844e", "type": "electric_scooter", "is_disabled": 0, "fusion_lat": 0.0, "fusion_lon": 0.0, "is_reserved": 0, "name": "e4e804c9f223d3e7c37b8c593a0b844e"}, {"lon": -77.04502483333333, "lat": 38.905605666666666, "rental_uris": {"ios": "https://dc.lft.to/lastmile_qr_scan", "android": "https://dc.lft.to/lastmile_qr_scan"}, "bike_id": "b26d1427bdf6ec97c6082f1b48114528", "type": "electric_scooter", "is_disabled": 0, "fusion_lat": 0.0, "fusion_lon": 0.0, "is_reserved": 0, "name": "b26d1427bdf6ec97c6082f1b48114528"}, {"lon": -77.02724166666667, "lat": 38.89749366666667, "rental_uris": {"ios": "https://dc.lft.to/lastmile_qr_scan", "android": "https://dc.lft.to/lastmile_qr_scan"}, "bike_id": "03f09b59215c94df256a3a9c86465271", "type": "electric_scooter", "is_disabled": 0, "fusion_lat": 0.0, "fusion_lon": 0.0, "is_reserved": 0, "name": "03f09b59215c94df256a3a9c86465271"}, {"lon": -77.03758166666667, "lat": 38.9362125, "rental_uris": {"ios": "https://dc.lft.to/lastmile_qr_scan", "android": "https://dc.lft.to/lastmile_qr_scan"}, "bike_id": "9d1d27045b75ae1cccd8f335fdd0be79", "type": "electric_scooter", "is_disabled": 0, "fusion_lat": 0.0, "fusion_lon": 0.0, "is_reserved": 0, "name": "9d1d27045b75ae1cccd8f335fdd0be79"}, {"lon": -77.00930983333333, "lat": 38.895591, "rental_uris": {"ios": "https://dc.lft.to/lastmile_qr_scan", "android": "https://dc.lft.to/lastmile_qr_scan"}, "bike_id": "65a87565820236188ba20e347fd6d39b", "type": "electric_scooter", "is_disabled": 0, "fusion_lat": 0.0, "fusion_lon": 0.0, "is_reserved": 0, "name": "65a87565820236188ba20e347fd6d39b"}, {"lon": -77.34410533333333, "lat": 38.94592466666667, "rental_uris": {"ios": "https://dc.lft.to/lastmile_qr_scan", "android": "https://dc.lft.to/lastmile_qr_scan"}, "bike_id": "a395f5e6ce497d8124cd5962318f4aaf", "type": "electric_bike", "is_disabled": 0, "fusion_lat": 0.0, "fusion_lon": 0.0, "is_reserved": 0, "name": "a395f5e6ce497d8124cd5962318f4aaf"}, {"lon": -77.03369633333334, "lat": 38.902733166666664, "rental_uris": {"ios": "https://dc.lft.to/lastmile_qr_scan", "android": "https://dc.lft.to/lastmile_qr_scan"}, "bike_id": "d06830ea6f75f81da3b58aede1b0f106", "type": "electric_scooter", "is_disabled": 0, "fusion_lat": 0.0, "fusion_lon": 0.0, "is_reserved": 0, "name": "d06830ea6f75f81da3b58aede1b0f106"}, {"lon": -76.995808, "lat": 38.85293933333333, "rental_uris": {"ios": "https://dc.lft.to/lastmile_qr_scan", "android": "https://dc.lft.to/lastmile_qr_scan"}, "bike_id": "962e466f414d8275f432f661d8709d2c", "type": "electric_bike", "is_disabled": 0, "fusion_lat": 0.0, "fusion_lon": 0.0, "is_reserved": 0, "name": "962e466f414d8275f432f661d8709d2c"}, {"lon": -77.04107216666667, "lat": 38.928013166666666, "rental_uris": {"ios": "https://dc.lft.to/lastmile_qr_scan", "android": "https://dc.lft.to/lastmile_qr_scan"}, "bike_id": "282c99f6350a9c167ae35cb98975cc62", "type": "electric_scooter", "is_disabled": 0, "fusion_lat": 0.0, "fusion_lon": 0.0, "is_reserved": 0, "name": "282c99f6350a9c167ae35cb98975cc62"}, {"lon": -77.02467916666667, "lat": 38.932980666666666, "rental_uris": {"ios": "https://dc.lft.to/lastmile_qr_scan", "android": "https://dc.lft.to/lastmile_qr_scan"}, "bike_id": "9ef709157ccbe13e74c1069e17d505ca", "type": "electric_scooter", "is_disabled": 0, "fusion_lat": 0.0, "fusion_lon": 0.0, "is_reserved": 0, "name": "9ef709157ccbe13e74c1069e17d505ca"}, {"lon": -77.03349666666666, "lat": 38.899006166666666, "rental_uris": {"ios": "https://dc.lft.to/lastmile_qr_scan", "android": "https://dc.lft.to/lastmile_qr_scan"}, "bike_id": "8d029fac79f05962acd455962eb22e1b", "type": "electric_scooter", "is_disabled": 0, "fusion_lat": 0.0, "fusion_lon": 0.0, "is_reserved": 0, "name": "8d029fac79f05962acd455962eb22e1b"}, {"lon": -77.03200416666667, "lat": 38.91639466666667, "rental_uris": {"ios": "https://dc.lft.to/lastmile_qr_scan", "android": "https://dc.lft.to/lastmile_qr_scan"}, "bike_id": "3ee589bbb83311b9ed5c19e98062e678", "type": "electric_scooter", "is_disabled": 0, "fusion_lat": 0.0, "fusion_lon": 0.0, "is_reserved": 0, "name": "3ee589bbb83311b9ed5c19e98062e678"}, {"lon": -77.04811183333334, "lat": 38.91914383333334, "rental_uris": {"ios": "https://dc.lft.to/lastmile_qr_scan", "android": "https://dc.lft.to/lastmile_qr_scan"}, "bike_id": "b05a8d196b3eceac10233c5a540029c3", "type": "electric_scooter", "is_disabled": 0, "fusion_lat": 0.0, "fusion_lon": 0.0, "is_reserved": 0, "name": "b05a8d196b3eceac10233c5a540029c3"}, {"lon": -77.02387083333333, "lat": 38.916118, "rental_uris": {"ios": "https://dc.lft.to/lastmile_qr_scan", "android": "https://dc.lft.to/lastmile_qr_scan"}, "bike_id": "05db6afead2ebb3b9c2b09036dfe0c60", "type": "electric_scooter", "is_disabled": 0, "fusion_lat": 0.0, "fusion_lon": 0.0, "is_reserved": 0, "name": "05db6afead2ebb3b9c2b09036dfe0c60"}, {"lon": -77.0208805, "lat": 38.876736333333334, "rental_uris": {"ios": "https://dc.lft.to/lastmile_qr_scan", "android": "https://dc.lft.to/lastmile_qr_scan"}, "bike_id": "ad41a8566af75b814103813b9d99e676", "type": "electric_bike", "is_disabled": 0, "fusion_lat": 0.0, "fusion_lon": 0.0, "is_reserved": 0, "name": "ad41a8566af75b814103813b9d99e676"}, {"lon": -77.03164933333333, "lat": 38.9035215, "rental_uris": {"ios": "https://dc.lft.to/lastmile_qr_scan", "android": "https://dc.lft.to/lastmile_qr_scan"}, "bike_id": "400688b92a2fb95e9214ca75ce728411", "type": "electric_scooter", "is_disabled": 0, "fusion_lat": 0.0, "fusion_lon": 0.0, "is_reserved": 0, "name": "400688b92a2fb95e9214ca75ce728411"}, {"lon": -77.00702483333333, "lat": 38.905691, "rental_uris": {"ios": "https://dc.lft.to/lastmile_qr_scan", "android": "https://dc.lft.to/lastmile_qr_scan"}, "bike_id": "8dace23af26f496b36cf3b4bd66f14df", "type": "electric_scooter", "is_disabled": 0, "fusion_lat": 0.0, "fusion_lon": 0.0, "is_reserved": 0, "name": "8dace23af26f496b36cf3b4bd66f14df"}, {"lon": -76.938753, "lat": 38.956261166666664, "rental_uris": {"ios": "https://dc.lft.to/lastmile_qr_scan", "android": "https://dc.lft.to/lastmile_qr_scan"}, "bike_id": "67c5f71d0c81d4cbfbb80c5b9c4eb68c", "type": "electric_bike", "is_disabled": 0, "fusion_lat": 0.0, "fusion_lon": 0.0, "is_reserved": 0, "name": "67c5f71d0c81d4cbfbb80c5b9c4eb68c"}, {"lon": -77.0358195, "lat": 38.907570666666665, "rental_uris": {"ios": "https://dc.lft.to/lastmile_qr_scan", "android": "https://dc.lft.to/lastmile_qr_scan"}, "bike_id": "1e29f6aee076888993ba4b3eae602f16", "type": "electric_scooter", "is_disabled": 0, "fusion_lat": 0.0, "fusion_lon": 0.0, "is_reserved": 0, "name": "1e29f6aee076888993ba4b3eae602f16"}, {"lon": -77.00353933333334, "lat": 38.8973795, "rental_uris": {"ios": "https://dc.lft.to/lastmile_qr_scan", "android": "https://dc.lft.to/lastmile_qr_scan"}, "bike_id": "f05a84fdddc267482c637301fead5bcb", "type": "electric_scooter", "is_disabled": 0, "fusion_lat": 0.0, "fusion_lon": 0.0, "is_reserved": 0, "name": "f05a84fdddc267482c637301fead5bcb"}, {"lon": -77.018149, "lat": 38.9096745, "rental_uris": {"ios": "https://dc.lft.to/lastmile_qr_scan", "android": "https://dc.lft.to/lastmile_qr_scan"}, "bike_id": "4e970385d7a9e76c8d9fd53d80d14fc9", "type": "electric_scooter", "is_disabled": 0, "fusion_lat": 0.0, "fusion_lon": 0.0, "is_reserved": 0, "name": "4e970385d7a9e76c8d9fd53d80d14fc9"}, {"lon": -76.999521, "lat": 38.90862416666667, "rental_uris": {"ios": "https://dc.lft.to/lastmile_qr_scan", "android": "https://dc.lft.to/lastmile_qr_scan"}, "bike_id": "ab9769fc0c2448f7414d56e9cf35b51d", "type": "electric_bike", "is_disabled": 0, "fusion_lat": 0.0, "fusion_lon": 0.0, "is_reserved": 0, "name": "ab9769fc0c2448f7414d56e9cf35b51d"}, {"lon": -77.00987483333333, "lat": 38.87285516666667, "rental_uris": {"ios": "https://dc.lft.to/lastmile_qr_scan", "android": "https://dc.lft.to/lastmile_qr_scan"}, "bike_id": "d934ebf9a1b0275b93a32312f1fb9173", "type": "electric_scooter", "is_disabled": 0, "fusion_lat": 0.0, "fusion_lon": 0.0, "is_reserved": 0, "name": "d934ebf9a1b0275b93a32312f1fb9173"}, {"lon": -77.01135816666667, "lat": 38.8804045, "rental_uris": {"ios": "https://dc.lft.to/lastmile_qr_scan", "android": "https://dc.lft.to/lastmile_qr_scan"}, "bike_id": "dd55c030a8512b29ac7b5477bdd9a3dd", "type": "electric_scooter", "is_disabled": 0, "fusion_lat": 0.0, "fusion_lon": 0.0, "is_reserved": 0, "name": "dd55c030a8512b29ac7b5477bdd9a3dd"}, {"lon": -77.04521616666666, "lat": 38.90969333333334, "rental_uris": {"ios": "https://dc.lft.to/lastmile_qr_scan", "android": "https://dc.lft.to/lastmile_qr_scan"}, "bike_id": "093b60538772ed5e297fd31002697e59", "type": "electric_scooter", "is_disabled": 0, "fusion_lat": 0.0, "fusion_lon": 0.0, "is_reserved": 0, "name": "093b60538772ed5e297fd31002697e59"}, {"lon": -77.0264, "lat": 38.898155333333335, "rental_uris": {"ios": "https://dc.lft.to/lastmile_qr_scan", "android": "https://dc.lft.to/lastmile_qr_scan"}, "bike_id": "7de1799174eb92923c7f9926cb25476f", "type": "electric_scooter", "is_disabled": 0, "fusion_lat": 0.0, "fusion_lon": 0.0, "is_reserved": 0, "name": "7de1799174eb92923c7f9926cb25476f"}, {"lon": -77.03347883333333, "lat": 38.898444, "rental_uris": {"ios": "https://dc.lft.to/lastmile_qr_scan", "android": "https://dc.lft.to/lastmile_qr_scan"}, "bike_id": "7e4546bd85ade7c4efe9ecb3ec08cf90", "type": "electric_scooter", "is_disabled": 0, "fusion_lat": 0.0, "fusion_lon": 0.0, "is_reserved": 0, "name": "7e4546bd85ade7c4efe9ecb3ec08cf90"}, {"lon": -77.03498083333334, "lat": 38.923454166666666, "rental_uris": {"ios": "https://dc.lft.to/lastmile_qr_scan", "android": "https://dc.lft.to/lastmile_qr_scan"}, "bike_id": "a04c5153bd2c17886befdda9a5a53685", "type": "electric_scooter", "is_disabled": 0, "fusion_lat": 0.0, "fusion_lon": 0.0, "is_reserved": 0, "name": "a04c5153bd2c17886befdda9a5a53685"}, {"lon": -76.988434, "lat": 38.900438666666666, "rental_uris": {"ios": "https://dc.lft.to/lastmile_qr_scan", "android": "https://dc.lft.to/lastmile_qr_scan"}, "bike_id": "25958050f0c203a586297a07dbaa6338", "type": "electric_scooter", "is_disabled": 0, "fusion_lat": 0.0, "fusion_lon": 0.0, "is_reserved": 0, "name": "25958050f0c203a586297a07dbaa6338"}, {"lon": -76.97753516666667, "lat": 38.864614, "rental_uris": {"ios": "https://dc.lft.to/lastmile_qr_scan", "android": "https://dc.lft.to/lastmile_qr_scan"}, "bike_id": "129c30b4919117be65ae704fceaec7d6", "type": "electric_bike", "is_disabled": 0, "fusion_lat": 0.0, "fusion_lon": 0.0, "is_reserved": 0, "name": "129c30b4919117be65ae704fceaec7d6"}, {"lon": -77.03263416666667, "lat": 38.93892183333333, "rental_uris": {"ios": "https://dc.lft.to/lastmile_qr_scan", "android": "https://dc.lft.to/lastmile_qr_scan"}, "bike_id": "0391f0882d70f436d5ac2a1d8aff3db2", "type": "electric_scooter", "is_disabled": 0, "fusion_lat": 0.0, "fusion_lon": 0.0, "is_reserved": 0, "name": "0391f0882d70f436d5ac2a1d8aff3db2"}, {"lon": -77.02989283333334, "lat": 38.97439933333333, "rental_uris": {"ios": "https://dc.lft.to/lastmile_qr_scan", "android": "https://dc.lft.to/lastmile_qr_scan"}, "bike_id": "1a774e203c7722999655ce6d7b5905a2", "type": "electric_bike", "is_disabled": 0, "fusion_lat": 0.0, "fusion_lon": 0.0, "is_reserved": 0, "name": "1a774e203c7722999655ce6d7b5905a2"}, {"lon": -77.04732233333333, "lat": 38.90955316666667, "rental_uris": {"ios": "https://dc.lft.to/lastmile_qr_scan", "android": "https://dc.lft.to/lastmile_qr_scan"}, "bike_id": "14469dbdf376b06d5914a23cee5e8005", "type": "electric_scooter", "is_disabled": 0, "fusion_lat": 0.0, "fusion_lon": 0.0, "is_reserved": 0, "name": "14469dbdf376b06d5914a23cee5e8005"}, {"lon": -77.022308, "lat": 38.89220316666667, "rental_uris": {"ios": "https://dc.lft.to/lastmile_qr_scan", "android": "https://dc.lft.to/lastmile_qr_scan"}, "bike_id": "57f7f0a0bc53b253e43f0f833e67df86", "type": "electric_scooter", "is_disabled": 0, "fusion_lat": 0.0, "fusion_lon": 0.0, "is_reserved": 0, "name": "57f7f0a0bc53b253e43f0f833e67df86"}, {"lon": -77.0435375, "lat": 38.90385033333333, "rental_uris": {"ios": "https://dc.lft.to/lastmile_qr_scan", "android": "https://dc.lft.to/lastmile_qr_scan"}, "bike_id": "12eab1f5568fa63bae7152460ed8c268", "type": "electric_scooter", "is_disabled": 0, "fusion_lat": 0.0, "fusion_lon": 0.0, "is_reserved": 0, "name": "12eab1f5568fa63bae7152460ed8c268"}, {"lon": -76.997726, "lat": 38.924497333333335, "rental_uris": {"ios": "https://dc.lft.to/lastmile_qr_scan", "android": "https://dc.lft.to/lastmile_qr_scan"}, "bike_id": "2727448aea5387d17a58256391e953a0", "type": "electric_scooter", "is_disabled": 0, "fusion_lat": 0.0, "fusion_lon": 0.0, "is_reserved": 0, "name": "2727448aea5387d17a58256391e953a0"}, {"lon": -77.01988516666667, "lat": 38.915715, "rental_uris": {"ios": "https://dc.lft.to/lastmile_qr_scan", "android": "https://dc.lft.to/lastmile_qr_scan"}, "bike_id": "154285309b8463afd4b07a383561da85", "type": "electric_scooter", "is_disabled": 0, "fusion_lat": 0.0, "fusion_lon": 0.0, "is_reserved": 0, "name": "154285309b8463afd4b07a383561da85"}, {"lon": -77.03132816666667, "lat": 38.923737833333334, "rental_uris": {"ios": "https://dc.lft.to/lastmile_qr_scan", "android": "https://dc.lft.to/lastmile_qr_scan"}, "bike_id": "0b12ac8381c163b2a2c98db6322ed1b8", "type": "electric_scooter", "is_disabled": 0, "fusion_lat": 0.0, "fusion_lon": 0.0, "is_reserved": 0, "name": "0b12ac8381c163b2a2c98db6322ed1b8"}, {"lon": -77.03863983333333, "lat": 38.89194616666666, "rental_uris": {"ios": "https://dc.lft.to/lastmile_qr_scan", "android": "https://dc.lft.to/lastmile_qr_scan"}, "bike_id": "c14624580fc825dde1ab0a4c84cb5c4f", "type": "electric_scooter", "is_disabled": 0, "fusion_lat": 0.0, "fusion_lon": 0.0, "is_reserved": 0, "name": "c14624580fc825dde1ab0a4c84cb5c4f"}, {"lon": -77.00341216666666, "lat": 38.89527666666667, "rental_uris": {"ios": "https://dc.lft.to/lastmile_qr_scan", "android": "https://dc.lft.to/lastmile_qr_scan"}, "bike_id": "75216bee71cb5dbafad9b28d405b32b0", "type": "electric_scooter", "is_disabled": 0, "fusion_lat": 0.0, "fusion_lon": 0.0, "is_reserved": 0, "name": "75216bee71cb5dbafad9b28d405b32b0"}, {"lon": -77.02907133333333, "lat": 38.92815733333333, "rental_uris": {"ios": "https://dc.lft.to/lastmile_qr_scan", "android": "https://dc.lft.to/lastmile_qr_scan"}, "bike_id": "e27f4e2e5ee71974e86bc825d3640409", "type": "electric_scooter", "is_disabled": 0, "fusion_lat": 0.0, "fusion_lon": 0.0, "is_reserved": 0, "name": "e27f4e2e5ee71974e86bc825d3640409"}, {"lon": -76.99877983333333, "lat": 38.9012735, "rental_uris": {"ios": "https://dc.lft.to/lastmile_qr_scan", "android": "https://dc.lft.to/lastmile_qr_scan"}, "bike_id": "00ed004695b4445d10da464124b48346", "type": "electric_scooter", "is_disabled": 0, "fusion_lat": 0.0, "fusion_lon": 0.0, "is_reserved": 0, "name": "00ed004695b4445d10da464124b48346"}, {"lon": -77.08037916666666, "lat": 38.92386966666667, "rental_uris": {"ios": "https://dc.lft.to/lastmile_qr_scan", "android": "https://dc.lft.to/lastmile_qr_scan"}, "bike_id": "aa7a848c246398b1ca1f5aa0d8ac349a", "type": "electric_scooter", "is_disabled": 0, "fusion_lat": 0.0, "fusion_lon": 0.0, "is_reserved": 0, "name": "aa7a848c246398b1ca1f5aa0d8ac349a"}, {"lon": -77.02203566666667, "lat": 38.92591066666667, "rental_uris": {"ios": "https://dc.lft.to/lastmile_qr_scan", "android": "https://dc.lft.to/lastmile_qr_scan"}, "bike_id": "58f1cdda29558e07fbb5ecadb77c08d2", "type": "electric_scooter", "is_disabled": 0, "fusion_lat": 0.0, "fusion_lon": 0.0, "is_reserved": 0, "name": "58f1cdda29558e07fbb5ecadb77c08d2"}, {"lon": -76.98022466666667, "lat": 38.902925833333335, "rental_uris": {"ios": "https://dc.lft.to/lastmile_qr_scan", "android": "https://dc.lft.to/lastmile_qr_scan"}, "bike_id": "ae5b3e8d2420c70ab0133cfb3ffcad0c", "type": "electric_scooter", "is_disabled": 0, "fusion_lat": 0.0, "fusion_lon": 0.0, "is_reserved": 0, "name": "ae5b3e8d2420c70ab0133cfb3ffcad0c"}, {"lon": -77.001985, "lat": 38.902406, "rental_uris": {"ios": "https://dc.lft.to/lastmile_qr_scan", "android": "https://dc.lft.to/lastmile_qr_scan"}, "bike_id": "c337cc699be82422f258b8f07b65a9ff", "type": "electric_scooter", "is_disabled": 0, "fusion_lat": 0.0, "fusion_lon": 0.0, "is_reserved": 0, "name": "c337cc699be82422f258b8f07b65a9ff"}, {"lon": -77.04658966666666, "lat": 38.90008316666667, "rental_uris": {"ios": "https://dc.lft.to/lastmile_qr_scan", "android": "https://dc.lft.to/lastmile_qr_scan"}, "bike_id": "7f8e60b52696e116e8832e18caeffd14", "type": "electric_scooter", "is_disabled": 0, "fusion_lat": 0.0, "fusion_lon": 0.0, "is_reserved": 0, "name": "7f8e60b52696e116e8832e18caeffd14"}, {"lon": -77.04503516666666, "lat": 38.9050555, "rental_uris": {"ios": "https://dc.lft.to/lastmile_qr_scan", "android": "https://dc.lft.to/lastmile_qr_scan"}, "bike_id": "f34b80fb04b2f1d3963fde47f6113f1f", "type": "electric_scooter", "is_disabled": 0, "fusion_lat": 0.0, "fusion_lon": 0.0, "is_reserved": 0, "name": "f34b80fb04b2f1d3963fde47f6113f1f"}, {"lon": -77.04230033333333, "lat": 38.921579, "rental_uris": {"ios": "https://dc.lft.to/lastmile_qr_scan", "android": "https://dc.lft.to/lastmile_qr_scan"}, "bike_id": "cf9b8c156175110ff36235fad56c71e1", "type": "electric_scooter", "is_disabled": 0, "fusion_lat": 0.0, "fusion_lon": 0.0, "is_reserved": 0, "name": "cf9b8c156175110ff36235fad56c71e1"}, {"lon": -77.07592783333334, "lat": 38.91216933333333, "rental_uris": {"ios": "https://dc.lft.to/lastmile_qr_scan", "android": "https://dc.lft.to/lastmile_qr_scan"}, "bike_id": "8aa88ba699d5e621110cad29eed5dea2", "type": "electric_scooter", "is_disabled": 0, "fusion_lat": 0.0, "fusion_lon": 0.0, "is_reserved": 0, "name": "8aa88ba699d5e621110cad29eed5dea2"}, {"lon": -77.03285283333334, "lat": 38.89900816666667, "rental_uris": {"ios": "https://dc.lft.to/lastmile_qr_scan", "android": "https://dc.lft.to/lastmile_qr_scan"}, "bike_id": "71e9796b833f0a695502ebce1cc7955f", "type": "electric_scooter", "is_disabled": 0, "fusion_lat": 0.0, "fusion_lon": 0.0, "is_reserved": 0, "name": "71e9796b833f0a695502ebce1cc7955f"}, {"lon": -77.03258666666666, "lat": 38.929268666666665, "rental_uris": {"ios": "https://dc.lft.to/lastmile_qr_scan", "android": "https://dc.lft.to/lastmile_qr_scan"}, "bike_id": "0021542c1bb8073193201ea85fc8bc72", "type": "electric_scooter", "is_disabled": 0, "fusion_lat": 0.0, "fusion_lon": 0.0, "is_reserved": 0, "name": "0021542c1bb8073193201ea85fc8bc72"}, {"lon": -77.01878716666667, "lat": 38.914148, "rental_uris": {"ios": "https://dc.lft.to/lastmile_qr_scan", "android": "https://dc.lft.to/lastmile_qr_scan"}, "bike_id": "6a06b5e6d3516d0aac6e0a72cffec6c2", "type": "electric_scooter", "is_disabled": 0, "fusion_lat": 0.0, "fusion_lon": 0.0, "is_reserved": 0, "name": "6a06b5e6d3516d0aac6e0a72cffec6c2"}, {"lon": -77.03169816666667, "lat": 38.921140333333334, "rental_uris": {"ios": "https://dc.lft.to/lastmile_qr_scan", "android": "https://dc.lft.to/lastmile_qr_scan"}, "bike_id": "f4285a4f7cc1b8b64d114165a8fa0b14", "type": "electric_bike", "is_disabled": 0, "fusion_lat": 0.0, "fusion_lon": 0.0, "is_reserved": 0, "name": "f4285a4f7cc1b8b64d114165a8fa0b14"}, {"lon": -77.03175566666667, "lat": 38.93604066666666, "rental_uris": {"ios": "https://dc.lft.to/lastmile_qr_scan", "android": "https://dc.lft.to/lastmile_qr_scan"}, "bike_id": "36aa0e18fc7cc43b0e9647d8675c8a64", "type": "electric_scooter", "is_disabled": 0, "fusion_lat": 0.0, "fusion_lon": 0.0, "is_reserved": 0, "name": "36aa0e18fc7cc43b0e9647d8675c8a64"}, {"lon": -77.01780866666667, "lat": 38.919587666666665, "rental_uris": {"ios": "https://dc.lft.to/lastmile_qr_scan", "android": "https://dc.lft.to/lastmile_qr_scan"}, "bike_id": "2ee8d56ff780ef1bc45d3399ba1e8a26", "type": "electric_scooter", "is_disabled": 0, "fusion_lat": 0.0, "fusion_lon": 0.0, "is_reserved": 0, "name": "2ee8d56ff780ef1bc45d3399ba1e8a26"}, {"lon": -77.0468765, "lat": 38.90359633333333, "rental_uris": {"ios": "https://dc.lft.to/lastmile_qr_scan", "android": "https://dc.lft.to/lastmile_qr_scan"}, "bike_id": "9ee3f2f4248f5ce9e8d89da587c373b1", "type": "electric_scooter", "is_disabled": 0, "fusion_lat": 0.0, "fusion_lon": 0.0, "is_reserved": 0, "name": "9ee3f2f4248f5ce9e8d89da587c373b1"}, {"lon": -77.04819833333333, "lat": 38.905266, "rental_uris": {"ios": "https://dc.lft.to/lastmile_qr_scan", "android": "https://dc.lft.to/lastmile_qr_scan"}, "bike_id": "d1328228555a11f097c16f21ab88f553", "type": "electric_scooter", "is_disabled": 0, "fusion_lat": 0.0, "fusion_lon": 0.0, "is_reserved": 0, "name": "d1328228555a11f097c16f21ab88f553"}, {"lon": -77.10917583333334, "lat": 39.05198033333333, "rental_uris": {"ios": "https://dc.lft.to/lastmile_qr_scan", "android": "https://dc.lft.to/lastmile_qr_scan"}, "bike_id": "ac4ec1bb1adba5cb0c0b7230fa870c11", "type": "electric_bike", "is_disabled": 0, "fusion_lat": 0.0, "fusion_lon": 0.0, "is_reserved": 0, "name": "ac4ec1bb1adba5cb0c0b7230fa870c11"}, {"lon": -77.03828133333333, "lat": 38.906727833333335, "rental_uris": {"ios": "https://dc.lft.to/lastmile_qr_scan", "android": "https://dc.lft.to/lastmile_qr_scan"}, "bike_id": "7cfc7baa8bf6ee52a18d4baec29233d2", "type": "electric_scooter", "is_disabled": 0, "fusion_lat": 0.0, "fusion_lon": 0.0, "is_reserved": 0, "name": "7cfc7baa8bf6ee52a18d4baec29233d2"}, {"lon": -77.04390133333334, "lat": 38.909018333333336, "rental_uris": {"ios": "https://dc.lft.to/lastmile_qr_scan", "android": "https://dc.lft.to/lastmile_qr_scan"}, "bike_id": "1c87165b9cab41a913a50162533f4f60", "type": "electric_scooter", "is_disabled": 0, "fusion_lat": 0.0, "fusion_lon": 0.0, "is_reserved": 0, "name": "1c87165b9cab41a913a50162533f4f60"}, {"lon": -77.02504566666667, "lat": 38.93291333333333, "rental_uris": {"ios": "https://dc.lft.to/lastmile_qr_scan", "android": "https://dc.lft.to/lastmile_qr_scan"}, "bike_id": "38fc0198c571198e3b19e9239b05afd4", "type": "electric_bike", "is_disabled": 0, "fusion_lat": 0.0, "fusion_lon": 0.0, "is_reserved": 0, "name": "38fc0198c571198e3b19e9239b05afd4"}, {"lon": -77.014199, "lat": 38.92853816666667, "rental_uris": {"ios": "https://dc.lft.to/lastmile_qr_scan", "android": "https://dc.lft.to/lastmile_qr_scan"}, "bike_id": "44dbcedf0505f8d43fc411b31b9ea565", "type": "electric_scooter", "is_disabled": 0, "fusion_lat": 0.0, "fusion_lon": 0.0, "is_reserved": 0, "name": "44dbcedf0505f8d43fc411b31b9ea565"}, {"lon": -77.011183, "lat": 38.885452666666666, "rental_uris": {"ios": "https://dc.lft.to/lastmile_qr_scan", "android": "https://dc.lft.to/lastmile_qr_scan"}, "bike_id": "c45ad6bf7af36ab04ca3f86225d07eee", "type": "electric_scooter", "is_disabled": 0, "fusion_lat": 0.0, "fusion_lon": 0.0, "is_reserved": 0, "name": "c45ad6bf7af36ab04ca3f86225d07eee"}, {"lon": -77.02837266666667, "lat": 38.924718, "rental_uris": {"ios": "https://dc.lft.to/lastmile_qr_scan", "android": "https://dc.lft.to/lastmile_qr_scan"}, "bike_id": "2fe5596ad8c58aa99279830b7b687c98", "type": "electric_scooter", "is_disabled": 0, "fusion_lat": 0.0, "fusion_lon": 0.0, "is_reserved": 0, "name": "2fe5596ad8c58aa99279830b7b687c98"}, {"lon": -77.02488866666667, "lat": 38.9386555, "rental_uris": {"ios": "https://dc.lft.to/lastmile_qr_scan", "android": "https://dc.lft.to/lastmile_qr_scan"}, "bike_id": "6974956dcdb077aa8ec70d2eda6c56d7", "type": "electric_scooter", "is_disabled": 0, "fusion_lat": 0.0, "fusion_lon": 0.0, "is_reserved": 0, "name": "6974956dcdb077aa8ec70d2eda6c56d7"}, {"lon": -77.0278155, "lat": 38.9278115, "rental_uris": {"ios": "https://dc.lft.to/lastmile_qr_scan", "android": "https://dc.lft.to/lastmile_qr_scan"}, "bike_id": "de05588d0524063784ce8b236a16a478", "type": "electric_scooter", "is_disabled": 0, "fusion_lat": 0.0, "fusion_lon": 0.0, "is_reserved": 0, "name": "de05588d0524063784ce8b236a16a478"}, {"lon": -77.0219995, "lat": 38.911799333333335, "rental_uris": {"ios": "https://dc.lft.to/lastmile_qr_scan", "android": "https://dc.lft.to/lastmile_qr_scan"}, "bike_id": "a71b6fb517ff6cacfc5eb28b08123dc8", "type": "electric_scooter", "is_disabled": 0, "fusion_lat": 0.0, "fusion_lon": 0.0, "is_reserved": 0, "name": "a71b6fb517ff6cacfc5eb28b08123dc8"}, {"lon": -76.99707033333334, "lat": 38.91104083333333, "rental_uris": {"ios": "https://dc.lft.to/lastmile_qr_scan", "android": "https://dc.lft.to/lastmile_qr_scan"}, "bike_id": "5fded4f45c94d5db0456b209e59d97e1", "type": "electric_scooter", "is_disabled": 0, "fusion_lat": 0.0, "fusion_lon": 0.0, "is_reserved": 0, "name": "5fded4f45c94d5db0456b209e59d97e1"}, {"lon": -77.02716716666667, "lat": 38.898120166666665, "rental_uris": {"ios": "https://dc.lft.to/lastmile_qr_scan", "android": "https://dc.lft.to/lastmile_qr_scan"}, "bike_id": "83ea5818b60922535501efd380c46dd1", "type": "electric_scooter", "is_disabled": 0, "fusion_lat": 0.0, "fusion_lon": 0.0, "is_reserved": 0, "name": "83ea5818b60922535501efd380c46dd1"}, {"lon": -77.00831883333333, "lat": 38.913069166666666, "rental_uris": {"ios": "https://dc.lft.to/lastmile_qr_scan", "android": "https://dc.lft.to/lastmile_qr_scan"}, "bike_id": "22ad948785029b78cbc27cd9c1e996af", "type": "electric_scooter", "is_disabled": 0, "fusion_lat": 0.0, "fusion_lon": 0.0, "is_reserved": 0, "name": "22ad948785029b78cbc27cd9c1e996af"}, {"lon": -77.045588, "lat": 38.923331833333336, "rental_uris": {"ios": "https://dc.lft.to/lastmile_qr_scan", "android": "https://dc.lft.to/lastmile_qr_scan"}, "bike_id": "4f94c688cfd96bf246d79d07ffe098cd", "type": "electric_scooter", "is_disabled": 0, "fusion_lat": 0.0, "fusion_lon": 0.0, "is_reserved": 0, "name": "4f94c688cfd96bf246d79d07ffe098cd"}, {"lon": -76.92996533333333, "lat": 38.901861, "rental_uris": {"ios": "https://dc.lft.to/lastmile_qr_scan", "android": "https://dc.lft.to/lastmile_qr_scan"}, "bike_id": "7a858cd0fdf74d2d92f7cbe270740505", "type": "electric_scooter", "is_disabled": 0, "fusion_lat": 0.0, "fusion_lon": 0.0, "is_reserved": 0, "name": "7a858cd0fdf74d2d92f7cbe270740505"}, {"lon": -77.05956966666666, "lat": 38.9053815, "rental_uris": {"ios": "https://dc.lft.to/lastmile_qr_scan", "android": "https://dc.lft.to/lastmile_qr_scan"}, "bike_id": "077f9eb60ab7838ff7a5aad808c475e0", "type": "electric_scooter", "is_disabled": 0, "fusion_lat": 0.0, "fusion_lon": 0.0, "is_reserved": 0, "name": "077f9eb60ab7838ff7a5aad808c475e0"}, {"lon": -77.05837016666666, "lat": 38.935131, "rental_uris": {"ios": "https://dc.lft.to/lastmile_qr_scan", "android": "https://dc.lft.to/lastmile_qr_scan"}, "bike_id": "49c506f0c91c03eae1f0ee5c629dda54", "type": "electric_scooter", "is_disabled": 0, "fusion_lat": 0.0, "fusion_lon": 0.0, "is_reserved": 0, "name": "49c506f0c91c03eae1f0ee5c629dda54"}, {"lon": -77.0415895, "lat": 38.918905333333335, "rental_uris": {"ios": "https://dc.lft.to/lastmile_qr_scan", "android": "https://dc.lft.to/lastmile_qr_scan"}, "bike_id": "8abf90f0dfd647bf242d515e0ca48fdb", "type": "electric_scooter", "is_disabled": 0, "fusion_lat": 0.0, "fusion_lon": 0.0, "is_reserved": 0, "name": "8abf90f0dfd647bf242d515e0ca48fdb"}, {"lon": -77.06449916666666, "lat": 38.90525783333333, "rental_uris": {"ios": "https://dc.lft.to/lastmile_qr_scan", "android": "https://dc.lft.to/lastmile_qr_scan"}, "bike_id": "67555824bdf3e9a5246c5d7a228df1d5", "type": "electric_scooter", "is_disabled": 0, "fusion_lat": 0.0, "fusion_lon": 0.0, "is_reserved": 0, "name": "67555824bdf3e9a5246c5d7a228df1d5"}, {"lon": -77.03193733333333, "lat": 38.91745733333333, "rental_uris": {"ios": "https://dc.lft.to/lastmile_qr_scan", "android": "https://dc.lft.to/lastmile_qr_scan"}, "bike_id": "ccb4fef919df8a0ba050330fca9811c7", "type": "electric_scooter", "is_disabled": 0, "fusion_lat": 0.0, "fusion_lon": 0.0, "is_reserved": 0, "name": "ccb4fef919df8a0ba050330fca9811c7"}, {"lon": -77.0120895, "lat": 38.91834766666667, "rental_uris": {"ios": "https://dc.lft.to/lastmile_qr_scan", "android": "https://dc.lft.to/lastmile_qr_scan"}, "bike_id": "bedbf4c1943d7be677a77cc8e12fb5da", "type": "electric_scooter", "is_disabled": 0, "fusion_lat": 0.0, "fusion_lon": 0.0, "is_reserved": 0, "name": "bedbf4c1943d7be677a77cc8e12fb5da"}, {"lon": -76.96239216666666, "lat": 38.87766516666667, "rental_uris": {"ios": "https://dc.lft.to/lastmile_qr_scan", "android": "https://dc.lft.to/lastmile_qr_scan"}, "bike_id": "6ee087d3f6bb2ed110ae99126e57843b", "type": "electric_scooter", "is_disabled": 0, "fusion_lat": 0.0, "fusion_lon": 0.0, "is_reserved": 0, "name": "6ee087d3f6bb2ed110ae99126e57843b"}, {"lon": -77.03846683333333, "lat": 38.90370166666666, "rental_uris": {"ios": "https://dc.lft.to/lastmile_qr_scan", "android": "https://dc.lft.to/lastmile_qr_scan"}, "bike_id": "5368227e8ca24dd0142b8b52a0b0feb4", "type": "electric_scooter", "is_disabled": 0, "fusion_lat": 0.0, "fusion_lon": 0.0, "is_reserved": 0, "name": "5368227e8ca24dd0142b8b52a0b0feb4"}, {"lon": -77.03175583333334, "lat": 38.91552383333333, "rental_uris": {"ios": "https://dc.lft.to/lastmile_qr_scan", "android": "https://dc.lft.to/lastmile_qr_scan"}, "bike_id": "85250b2dfef702462660b39dd37a5fd8", "type": "electric_scooter", "is_disabled": 0, "fusion_lat": 0.0, "fusion_lon": 0.0, "is_reserved": 0, "name": "85250b2dfef702462660b39dd37a5fd8"}, {"lon": -77.07407333333333, "lat": 38.961838, "rental_uris": {"ios": "https://dc.lft.to/lastmile_qr_scan", "android": "https://dc.lft.to/lastmile_qr_scan"}, "bike_id": "4f72331e1d71958e9d1894d8999280e5", "type": "electric_bike", "is_disabled": 0, "fusion_lat": 0.0, "fusion_lon": 0.0, "is_reserved": 0, "name": "4f72331e1d71958e9d1894d8999280e5"}, {"lon": -77.02488733333334, "lat": 38.94183866666667, "rental_uris": {"ios": "https://dc.lft.to/lastmile_qr_scan", "android": "https://dc.lft.to/lastmile_qr_scan"}, "bike_id": "b76b767f0b9e654f4bfc98f042651d1b", "type": "electric_scooter", "is_disabled": 0, "fusion_lat": 0.0, "fusion_lon": 0.0, "is_reserved": 0, "name": "b76b767f0b9e654f4bfc98f042651d1b"}, {"lon": -77.0123115, "lat": 38.928733333333334, "rental_uris": {"ios": "https://dc.lft.to/lastmile_qr_scan", "android": "https://dc.lft.to/lastmile_qr_scan"}, "bike_id": "2556fcd81d4c3d8f92aa295df9630d53", "type": "electric_scooter", "is_disabled": 0, "fusion_lat": 0.0, "fusion_lon": 0.0, "is_reserved": 0, "name": "2556fcd81d4c3d8f92aa295df9630d53"}, {"lon": -77.04548166666666, "lat": 38.93408633333333, "rental_uris": {"ios": "https://dc.lft.to/lastmile_qr_scan", "android": "https://dc.lft.to/lastmile_qr_scan"}, "bike_id": "d41124c4d9e0f00ac72356a71f0002b0", "type": "electric_scooter", "is_disabled": 0, "fusion_lat": 0.0, "fusion_lon": 0.0, "is_reserved": 0, "name": "d41124c4d9e0f00ac72356a71f0002b0"}, {"lon": -77.0393265, "lat": 38.917590833333335, "rental_uris": {"ios": "https://dc.lft.to/lastmile_qr_scan", "android": "https://dc.lft.to/lastmile_qr_scan"}, "bike_id": "3104614ad2170f6527c991d9afb9f081", "type": "electric_scooter", "is_disabled": 0, "fusion_lat": 0.0, "fusion_lon": 0.0, "is_reserved": 0, "name": "3104614ad2170f6527c991d9afb9f081"}, {"lon": -77.037785, "lat": 38.92207416666667, "rental_uris": {"ios": "https://dc.lft.to/lastmile_qr_scan", "android": "https://dc.lft.to/lastmile_qr_scan"}, "bike_id": "aa75b0c7a15ab930d6ce08d9342d02b6", "type": "electric_scooter", "is_disabled": 0, "fusion_lat": 0.0, "fusion_lon": 0.0, "is_reserved": 0, "name": "aa75b0c7a15ab930d6ce08d9342d02b6"}, {"lon": -77.02244466666667, "lat": 38.9228865, "rental_uris": {"ios": "https://dc.lft.to/lastmile_qr_scan", "android": "https://dc.lft.to/lastmile_qr_scan"}, "bike_id": "a86325034b40efed0209c990eaeea2b4", "type": "electric_scooter", "is_disabled": 0, "fusion_lat": 0.0, "fusion_lon": 0.0, "is_reserved": 0, "name": "a86325034b40efed0209c990eaeea2b4"}, {"lon": -77.007286, "lat": 38.884922833333334, "rental_uris": {"ios": "https://dc.lft.to/lastmile_qr_scan", "android": "https://dc.lft.to/lastmile_qr_scan"}, "bike_id": "231f26f962cf4d3d97ee1bcbf3944575", "type": "electric_scooter", "is_disabled": 0, "fusion_lat": 0.0, "fusion_lon": 0.0, "is_reserved": 0, "name": "231f26f962cf4d3d97ee1bcbf3944575"}, {"lon": -77.0450605, "lat": 38.901553166666666, "rental_uris": {"ios": "https://dc.lft.to/lastmile_qr_scan", "android": "https://dc.lft.to/lastmile_qr_scan"}, "bike_id": "bbbc35245d676bdafb3bd17bc1068fe2", "type": "electric_scooter", "is_disabled": 0, "fusion_lat": 0.0, "fusion_lon": 0.0, "is_reserved": 0, "name": "bbbc35245d676bdafb3bd17bc1068fe2"}, {"lon": -77.02429583333333, "lat": 38.894507, "rental_uris": {"ios": "https://dc.lft.to/lastmile_qr_scan", "android": "https://dc.lft.to/lastmile_qr_scan"}, "bike_id": "4b830de762cd9e6540f796ad9271c39f", "type": "electric_scooter", "is_disabled": 0, "fusion_lat": 0.0, "fusion_lon": 0.0, "is_reserved": 0, "name": "4b830de762cd9e6540f796ad9271c39f"}, {"lon": -77.06119683333333, "lat": 38.90197233333333, "rental_uris": {"ios": "https://dc.lft.to/lastmile_qr_scan", "android": "https://dc.lft.to/lastmile_qr_scan"}, "bike_id": "10aa59e89c68c019c50752fabecb24ac", "type": "electric_scooter", "is_disabled": 0, "fusion_lat": 0.0, "fusion_lon": 0.0, "is_reserved": 0, "name": "10aa59e89c68c019c50752fabecb24ac"}, {"lon": -77.0369285, "lat": 38.916751833333336, "rental_uris": {"ios": "https://dc.lft.to/lastmile_qr_scan", "android": "https://dc.lft.to/lastmile_qr_scan"}, "bike_id": "d05587defdd8e4725785bc1cb2c9bd87", "type": "electric_scooter", "is_disabled": 0, "fusion_lat": 0.0, "fusion_lon": 0.0, "is_reserved": 0, "name": "d05587defdd8e4725785bc1cb2c9bd87"}, {"lon": -77.0259565, "lat": 38.91694366666667, "rental_uris": {"ios": "https://dc.lft.to/lastmile_qr_scan", "android": "https://dc.lft.to/lastmile_qr_scan"}, "bike_id": "8d71d5672dcb28a52ffc229abec63cfd", "type": "electric_scooter", "is_disabled": 0, "fusion_lat": 0.0, "fusion_lon": 0.0, "is_reserved": 0, "name": "8d71d5672dcb28a52ffc229abec63cfd"}, {"lon": -76.94876066666667, "lat": 38.895536666666665, "rental_uris": {"ios": "https://dc.lft.to/lastmile_qr_scan", "android": "https://dc.lft.to/lastmile_qr_scan"}, "bike_id": "0c9ef1858b314051f157ff31fdbc436d", "type": "electric_scooter", "is_disabled": 0, "fusion_lat": 0.0, "fusion_lon": 0.0, "is_reserved": 0, "name": "0c9ef1858b314051f157ff31fdbc436d"}, {"lon": -77.02696266666666, "lat": 38.954042333333334, "rental_uris": {"ios": "https://dc.lft.to/lastmile_qr_scan", "android": "https://dc.lft.to/lastmile_qr_scan"}, "bike_id": "ce4aaa67b1d8ec9c73d4d837f21e1257", "type": "electric_scooter", "is_disabled": 0, "fusion_lat": 0.0, "fusion_lon": 0.0, "is_reserved": 0, "name": "ce4aaa67b1d8ec9c73d4d837f21e1257"}, {"lon": -77.02681316666667, "lat": 38.898136, "rental_uris": {"ios": "https://dc.lft.to/lastmile_qr_scan", "android": "https://dc.lft.to/lastmile_qr_scan"}, "bike_id": "2f55639736361f14863a63aff262a196", "type": "electric_scooter", "is_disabled": 0, "fusion_lat": 0.0, "fusion_lon": 0.0, "is_reserved": 0, "name": "2f55639736361f14863a63aff262a196"}, {"lon": -77.050776, "lat": 38.89679566666667, "rental_uris": {"ios": "https://dc.lft.to/lastmile_qr_scan", "android": "https://dc.lft.to/lastmile_qr_scan"}, "bike_id": "bbbf9ac2b2baa297eb91f4c12f0f58b1", "type": "electric_scooter", "is_disabled": 0, "fusion_lat": 0.0, "fusion_lon": 0.0, "is_reserved": 0, "name": "bbbf9ac2b2baa297eb91f4c12f0f58b1"}, {"lon": -76.94630866666667, "lat": 38.8984605, "rental_uris": {"ios": "https://dc.lft.to/lastmile_qr_scan", "android": "https://dc.lft.to/lastmile_qr_scan"}, "bike_id": "e1bae02feb844688c683e308f06b74b3", "type": "electric_scooter", "is_disabled": 0, "fusion_lat": 0.0, "fusion_lon": 0.0, "is_reserved": 0, "name": "e1bae02feb844688c683e308f06b74b3"}, {"lon": -77.03995766666667, "lat": 38.89887066666667, "rental_uris": {"ios": "https://dc.lft.to/lastmile_qr_scan", "android": "https://dc.lft.to/lastmile_qr_scan"}, "bike_id": "4de806320fcbc622d3b28a21988130a6", "type": "electric_scooter", "is_disabled": 0, "fusion_lat": 0.0, "fusion_lon": 0.0, "is_reserved": 0, "name": "4de806320fcbc622d3b28a21988130a6"}, {"lon": -77.04532966666666, "lat": 38.900662, "rental_uris": {"ios": "https://dc.lft.to/lastmile_qr_scan", "android": "https://dc.lft.to/lastmile_qr_scan"}, "bike_id": "68c6a75ae8a8d118c8de9a3a6548c746", "type": "electric_scooter", "is_disabled": 0, "fusion_lat": 0.0, "fusion_lon": 0.0, "is_reserved": 0, "name": "68c6a75ae8a8d118c8de9a3a6548c746"}, {"lon": -76.99525866666667, "lat": 38.877604833333336, "rental_uris": {"ios": "https://dc.lft.to/lastmile_qr_scan", "android": "https://dc.lft.to/lastmile_qr_scan"}, "bike_id": "0a27409c42a4408a8cf20caace77c2a7", "type": "electric_scooter", "is_disabled": 0, "fusion_lat": 0.0, "fusion_lon": 0.0, "is_reserved": 0, "name": "0a27409c42a4408a8cf20caace77c2a7"}, {"lon": -77.03321483333333, "lat": 38.9171105, "rental_uris": {"ios": "https://dc.lft.to/lastmile_qr_scan", "android": "https://dc.lft.to/lastmile_qr_scan"}, "bike_id": "a841f496f6b6486eafe0ffdacdb41cad", "type": "electric_scooter", "is_disabled": 0, "fusion_lat": 0.0, "fusion_lon": 0.0, "is_reserved": 0, "name": "a841f496f6b6486eafe0ffdacdb41cad"}, {"lon": -77.04349233333333, "lat": 38.92140716666667, "rental_uris": {"ios": "https://dc.lft.to/lastmile_qr_scan", "android": "https://dc.lft.to/lastmile_qr_scan"}, "bike_id": "81841bf21e1766d914944b87d25f1c70", "type": "electric_scooter", "is_disabled": 0, "fusion_lat": 0.0, "fusion_lon": 0.0, "is_reserved": 0, "name": "81841bf21e1766d914944b87d25f1c70"}, {"lon": -77.09598783333334, "lat": 39.028900166666666, "rental_uris": {"ios": "https://dc.lft.to/lastmile_qr_scan", "android": "https://dc.lft.to/lastmile_qr_scan"}, "bike_id": "dbc0f25f1ea7c7b1ff525d8957a06f43", "type": "electric_bike", "is_disabled": 0, "fusion_lat": 0.0, "fusion_lon": 0.0, "is_reserved": 0, "name": "dbc0f25f1ea7c7b1ff525d8957a06f43"}, {"lon": -77.05631733333334, "lat": 38.96074133333333, "rental_uris": {"ios": "https://dc.lft.to/lastmile_qr_scan", "android": "https://dc.lft.to/lastmile_qr_scan"}, "bike_id": "a3a7204e03006c50df046e95fba29cc6", "type": "electric_scooter", "is_disabled": 0, "fusion_lat": 0.0, "fusion_lon": 0.0, "is_reserved": 0, "name": "a3a7204e03006c50df046e95fba29cc6"}, {"lon": -77.01118616666666, "lat": 38.8855035, "rental_uris": {"ios": "https://dc.lft.to/lastmile_qr_scan", "android": "https://dc.lft.to/lastmile_qr_scan"}, "bike_id": "c6a7cfca80daa2b3235d514cf184e1ee", "type": "electric_scooter", "is_disabled": 0, "fusion_lat": 0.0, "fusion_lon": 0.0, "is_reserved": 0, "name": "c6a7cfca80daa2b3235d514cf184e1ee"}, {"lon": -77.03285333333334, "lat": 38.92937333333333, "rental_uris": {"ios": "https://dc.lft.to/lastmile_qr_scan", "android": "https://dc.lft.to/lastmile_qr_scan"}, "bike_id": "ec90c8d0ee17c454072bf6f9b8165684", "type": "electric_scooter", "is_disabled": 0, "fusion_lat": 0.0, "fusion_lon": 0.0, "is_reserved": 0, "name": "ec90c8d0ee17c454072bf6f9b8165684"}, {"lon": -77.02682616666667, "lat": 38.948326, "rental_uris": {"ios": "https://dc.lft.to/lastmile_qr_scan", "android": "https://dc.lft.to/lastmile_qr_scan"}, "bike_id": "dbad365d1bad54110085701f3f1175be", "type": "electric_scooter", "is_disabled": 0, "fusion_lat": 0.0, "fusion_lon": 0.0, "is_reserved": 0, "name": "dbad365d1bad54110085701f3f1175be"}, {"lon": -77.06077883333333, "lat": 38.885855166666666, "rental_uris": {"ios": "https://dc.lft.to/lastmile_qr_scan", "android": "https://dc.lft.to/lastmile_qr_scan"}, "bike_id": "5fc6a8eba6e2d281c40f779ccd78df92", "type": "electric_bike", "is_disabled": 0, "fusion_lat": 0.0, "fusion_lon": 0.0, "is_reserved": 0, "name": "5fc6a8eba6e2d281c40f779ccd78df92"}, {"lon": -77.03874066666667, "lat": 38.906584333333335, "rental_uris": {"ios": "https://dc.lft.to/lastmile_qr_scan", "android": "https://dc.lft.to/lastmile_qr_scan"}, "bike_id": "ddbd485d6dc514c4dd42626a9d25057a", "type": "electric_scooter", "is_disabled": 0, "fusion_lat": 0.0, "fusion_lon": 0.0, "is_reserved": 0, "name": "ddbd485d6dc514c4dd42626a9d25057a"}, {"lon": -77.006222, "lat": 38.90821533333333, "rental_uris": {"ios": "https://dc.lft.to/lastmile_qr_scan", "android": "https://dc.lft.to/lastmile_qr_scan"}, "bike_id": "0eb81a43024d6f3144ad2bf91e3e276c", "type": "electric_scooter", "is_disabled": 0, "fusion_lat": 0.0, "fusion_lon": 0.0, "is_reserved": 0, "name": "0eb81a43024d6f3144ad2bf91e3e276c"}, {"lon": -77.0184325, "lat": 38.94993, "rental_uris": {"ios": "https://dc.lft.to/lastmile_qr_scan", "android": "https://dc.lft.to/lastmile_qr_scan"}, "bike_id": "482ec55232c51bda375df36f233c5d40", "type": "electric_scooter", "is_disabled": 0, "fusion_lat": 0.0, "fusion_lon": 0.0, "is_reserved": 0, "name": "482ec55232c51bda375df36f233c5d40"}, {"lon": -77.131014, "lat": 39.02436483333334, "rental_uris": {"ios": "https://dc.lft.to/lastmile_qr_scan", "android": "https://dc.lft.to/lastmile_qr_scan"}, "bike_id": "5f8d39e95a755b1637256ff91246bc83", "type": "electric_bike", "is_disabled": 0, "fusion_lat": 0.0, "fusion_lon": 0.0, "is_reserved": 0, "name": "5f8d39e95a755b1637256ff91246bc83"}, {"lon": -76.98347366666667, "lat": 38.89924766666667, "rental_uris": {"ios": "https://dc.lft.to/lastmile_qr_scan", "android": "https://dc.lft.to/lastmile_qr_scan"}, "bike_id": "5502c1117ed43ffed96c1a712497a0ee", "type": "electric_scooter", "is_disabled": 0, "fusion_lat": 0.0, "fusion_lon": 0.0, "is_reserved": 0, "name": "5502c1117ed43ffed96c1a712497a0ee"}, {"lon": -77.05072983333334, "lat": 38.901981, "rental_uris": {"ios": "https://dc.lft.to/lastmile_qr_scan", "android": "https://dc.lft.to/lastmile_qr_scan"}, "bike_id": "f54bdf8f4f10ec60063b3f064f7b09d6", "type": "electric_scooter", "is_disabled": 0, "fusion_lat": 0.0, "fusion_lon": 0.0, "is_reserved": 0, "name": "f54bdf8f4f10ec60063b3f064f7b09d6"}, {"lon": -77.033258, "lat": 38.917122166666665, "rental_uris": {"ios": "https://dc.lft.to/lastmile_qr_scan", "android": "https://dc.lft.to/lastmile_qr_scan"}, "bike_id": "dd79ec7e59ee5b9f0e10ae12d3932507", "type": "electric_scooter", "is_disabled": 0, "fusion_lat": 0.0, "fusion_lon": 0.0, "is_reserved": 0, "name": "dd79ec7e59ee5b9f0e10ae12d3932507"}, {"lon": -77.04670616666667, "lat": 38.90335783333333, "rental_uris": {"ios": "https://dc.lft.to/lastmile_qr_scan", "android": "https://dc.lft.to/lastmile_qr_scan"}, "bike_id": "cd56227a2f92f21950a1218e27a5420e", "type": "electric_scooter", "is_disabled": 0, "fusion_lat": 0.0, "fusion_lon": 0.0, "is_reserved": 0, "name": "cd56227a2f92f21950a1218e27a5420e"}, {"lon": -77.04817416666667, "lat": 38.913352333333336, "rental_uris": {"ios": "https://dc.lft.to/lastmile_qr_scan", "android": "https://dc.lft.to/lastmile_qr_scan"}, "bike_id": "c51a914f5ce7418ce703963bbe7757c7", "type": "electric_scooter", "is_disabled": 0, "fusion_lat": 0.0, "fusion_lon": 0.0, "is_reserved": 0, "name": "c51a914f5ce7418ce703963bbe7757c7"}, {"lon": -76.98527716666666, "lat": 38.866586833333336, "rental_uris": {"ios": "https://dc.lft.to/lastmile_qr_scan", "android": "https://dc.lft.to/lastmile_qr_scan"}, "bike_id": "873145ee0285b1ae090469f49f0266c9", "type": "electric_scooter", "is_disabled": 0, "fusion_lat": 0.0, "fusion_lon": 0.0, "is_reserved": 0, "name": "873145ee0285b1ae090469f49f0266c9"}, {"lon": -77.02597, "lat": 38.916939, "rental_uris": {"ios": "https://dc.lft.to/lastmile_qr_scan", "android": "https://dc.lft.to/lastmile_qr_scan"}, "bike_id": "e391757c2c2ef00f7f25bc256e2215d4", "type": "electric_scooter", "is_disabled": 0, "fusion_lat": 0.0, "fusion_lon": 0.0, "is_reserved": 0, "name": "e391757c2c2ef00f7f25bc256e2215d4"}, {"lon": -77.03206083333333, "lat": 38.917924166666666, "rental_uris": {"ios": "https://dc.lft.to/lastmile_qr_scan", "android": "https://dc.lft.to/lastmile_qr_scan"}, "bike_id": "d9531b75dac234b0839c53eabe2af744", "type": "electric_scooter", "is_disabled": 0, "fusion_lat": 0.0, "fusion_lon": 0.0, "is_reserved": 0, "name": "d9531b75dac234b0839c53eabe2af744"}, {"lon": -76.99017316666666, "lat": 38.88184483333333, "rental_uris": {"ios": "https://dc.lft.to/lastmile_qr_scan", "android": "https://dc.lft.to/lastmile_qr_scan"}, "bike_id": "761fbe8eb70f1ac6b00af13795916242", "type": "electric_scooter", "is_disabled": 0, "fusion_lat": 0.0, "fusion_lon": 0.0, "is_reserved": 0, "name": "761fbe8eb70f1ac6b00af13795916242"}, {"lon": -77.00067533333333, "lat": 38.899876, "rental_uris": {"ios": "https://dc.lft.to/lastmile_qr_scan", "android": "https://dc.lft.to/lastmile_qr_scan"}, "bike_id": "a65976ee5eee56e0c55ae52a8e05978c", "type": "electric_scooter", "is_disabled": 0, "fusion_lat": 0.0, "fusion_lon": 0.0, "is_reserved": 0, "name": "a65976ee5eee56e0c55ae52a8e05978c"}, {"lon": -77.02500983333333, "lat": 38.939658, "rental_uris": {"ios": "https://dc.lft.to/lastmile_qr_scan", "android": "https://dc.lft.to/lastmile_qr_scan"}, "bike_id": "bac5cc11adbc777edeab008a7c5cb1c5", "type": "electric_scooter", "is_disabled": 0, "fusion_lat": 0.0, "fusion_lon": 0.0, "is_reserved": 0, "name": "bac5cc11adbc777edeab008a7c5cb1c5"}, {"lon": -77.00712383333334, "lat": 38.90571466666667, "rental_uris": {"ios": "https://dc.lft.to/lastmile_qr_scan", "android": "https://dc.lft.to/lastmile_qr_scan"}, "bike_id": "ae56a3caae7bf3386901d2b409cb9e66", "type": "electric_scooter", "is_disabled": 0, "fusion_lat": 0.0, "fusion_lon": 0.0, "is_reserved": 0, "name": "ae56a3caae7bf3386901d2b409cb9e66"}, {"lon": -77.032822, "lat": 38.9283235, "rental_uris": {"ios": "https://dc.lft.to/lastmile_qr_scan", "android": "https://dc.lft.to/lastmile_qr_scan"}, "bike_id": "3ceda2be0a1c12490d6e7ea4b57db22c", "type": "electric_scooter", "is_disabled": 0, "fusion_lat": 0.0, "fusion_lon": 0.0, "is_reserved": 0, "name": "3ceda2be0a1c12490d6e7ea4b57db22c"}, {"lon": -77.044998, "lat": 38.892363333333336, "rental_uris": {"ios": "https://dc.lft.to/lastmile_qr_scan", "android": "https://dc.lft.to/lastmile_qr_scan"}, "bike_id": "fa314b2bed89ec83b818ee9fbf4d63a1", "type": "electric_scooter", "is_disabled": 0, "fusion_lat": 0.0, "fusion_lon": 0.0, "is_reserved": 0, "name": "fa314b2bed89ec83b818ee9fbf4d63a1"}, {"lon": -77.02528066666666, "lat": 38.90084, "rental_uris": {"ios": "https://dc.lft.to/lastmile_qr_scan", "android": "https://dc.lft.to/lastmile_qr_scan"}, "bike_id": "54c842a928136e3aaa4f172df3c894b4", "type": "electric_scooter", "is_disabled": 0, "fusion_lat": 0.0, "fusion_lon": 0.0, "is_reserved": 0, "name": "54c842a928136e3aaa4f172df3c894b4"}, {"lon": -77.038404, "lat": 38.90988016666667, "rental_uris": {"ios": "https://dc.lft.to/lastmile_qr_scan", "android": "https://dc.lft.to/lastmile_qr_scan"}, "bike_id": "a59b08ea2cd049efb241a80d5bcabd1e", "type": "electric_scooter", "is_disabled": 0, "fusion_lat": 0.0, "fusion_lon": 0.0, "is_reserved": 0, "name": "a59b08ea2cd049efb241a80d5bcabd1e"}, {"lon": -77.02801433333333, "lat": 38.909794833333336, "rental_uris": {"ios": "https://dc.lft.to/lastmile_qr_scan", "android": "https://dc.lft.to/lastmile_qr_scan"}, "bike_id": "be9f6858ce9f5ed361f5103a003e5359", "type": "electric_scooter", "is_disabled": 0, "fusion_lat": 0.0, "fusion_lon": 0.0, "is_reserved": 0, "name": "be9f6858ce9f5ed361f5103a003e5359"}, {"lon": -77.048845, "lat": 38.90117933333333, "rental_uris": {"ios": "https://dc.lft.to/lastmile_qr_scan", "android": "https://dc.lft.to/lastmile_qr_scan"}, "bike_id": "d4f9dc5aed5953b2e5439c409066ffb3", "type": "electric_scooter", "is_disabled": 0, "fusion_lat": 0.0, "fusion_lon": 0.0, "is_reserved": 0, "name": "d4f9dc5aed5953b2e5439c409066ffb3"}, {"lon": -77.02140133333333, "lat": 38.92463433333333, "rental_uris": {"ios": "https://dc.lft.to/lastmile_qr_scan", "android": "https://dc.lft.to/lastmile_qr_scan"}, "bike_id": "d524af76c287de15b2ef2c18bfe8eae0", "type": "electric_scooter", "is_disabled": 0, "fusion_lat": 0.0, "fusion_lon": 0.0, "is_reserved": 0, "name": "d524af76c287de15b2ef2c18bfe8eae0"}, {"lon": -77.01744, "lat": 38.88580483333333, "rental_uris": {"ios": "https://dc.lft.to/lastmile_qr_scan", "android": "https://dc.lft.to/lastmile_qr_scan"}, "bike_id": "a07a756037771f2d8a55bf2d5b9d494d", "type": "electric_scooter", "is_disabled": 0, "fusion_lat": 0.0, "fusion_lon": 0.0, "is_reserved": 0, "name": "a07a756037771f2d8a55bf2d5b9d494d"}, {"lon": -77.00334216666667, "lat": 38.889882666666665, "rental_uris": {"ios": "https://dc.lft.to/lastmile_qr_scan", "android": "https://dc.lft.to/lastmile_qr_scan"}, "bike_id": "766072a14cd8ac8ff4b07c83545cc711", "type": "electric_scooter", "is_disabled": 0, "fusion_lat": 0.0, "fusion_lon": 0.0, "is_reserved": 0, "name": "766072a14cd8ac8ff4b07c83545cc711"}, {"lon": -77.04675983333334, "lat": 38.895561666666666, "rental_uris": {"ios": "https://dc.lft.to/lastmile_qr_scan", "android": "https://dc.lft.to/lastmile_qr_scan"}, "bike_id": "8a76eccd9f3306ab8244e47830ffb02c", "type": "electric_scooter", "is_disabled": 0, "fusion_lat": 0.0, "fusion_lon": 0.0, "is_reserved": 0, "name": "8a76eccd9f3306ab8244e47830ffb02c"}, {"lon": -77.04694233333333, "lat": 38.915724166666664, "rental_uris": {"ios": "https://dc.lft.to/lastmile_qr_scan", "android": "https://dc.lft.to/lastmile_qr_scan"}, "bike_id": "0026b204bbe82a34a44c1287b889dd0c", "type": "electric_scooter", "is_disabled": 0, "fusion_lat": 0.0, "fusion_lon": 0.0, "is_reserved": 0, "name": "0026b204bbe82a34a44c1287b889dd0c"}, {"lon": -77.02993033333334, "lat": 38.89748983333333, "rental_uris": {"ios": "https://dc.lft.to/lastmile_qr_scan", "android": "https://dc.lft.to/lastmile_qr_scan"}, "bike_id": "cf98ad8659b1eed73ffbfe4cfdc74f4f", "type": "electric_scooter", "is_disabled": 0, "fusion_lat": 0.0, "fusion_lon": 0.0, "is_reserved": 0, "name": "cf98ad8659b1eed73ffbfe4cfdc74f4f"}, {"lon": -77.02364483333334, "lat": 38.893660833333335, "rental_uris": {"ios": "https://dc.lft.to/lastmile_qr_scan", "android": "https://dc.lft.to/lastmile_qr_scan"}, "bike_id": "da0f06ac94358054d785c410bf7bb086", "type": "electric_scooter", "is_disabled": 0, "fusion_lat": 0.0, "fusion_lon": 0.0, "is_reserved": 0, "name": "da0f06ac94358054d785c410bf7bb086"}, {"lon": -76.94809933333333, "lat": 38.86192066666667, "rental_uris": {"ios": "https://dc.lft.to/lastmile_qr_scan", "android": "https://dc.lft.to/lastmile_qr_scan"}, "bike_id": "fc5866761cb5a8d0c8ad24aa6690cfba", "type": "electric_bike", "is_disabled": 0, "fusion_lat": 0.0, "fusion_lon": 0.0, "is_reserved": 0, "name": "fc5866761cb5a8d0c8ad24aa6690cfba"}, {"lon": -77.02241266666667, "lat": 38.922748, "rental_uris": {"ios": "https://dc.lft.to/lastmile_qr_scan", "android": "https://dc.lft.to/lastmile_qr_scan"}, "bike_id": "57562d0969bce7d542788403e322567c", "type": "electric_scooter", "is_disabled": 0, "fusion_lat": 0.0, "fusion_lon": 0.0, "is_reserved": 0, "name": "57562d0969bce7d542788403e322567c"}, {"lon": -77.00433133333334, "lat": 38.90579183333333, "rental_uris": {"ios": "https://dc.lft.to/lastmile_qr_scan", "android": "https://dc.lft.to/lastmile_qr_scan"}, "bike_id": "bf0b048ef811ff1c5da3620c0e9a6f5c", "type": "electric_scooter", "is_disabled": 0, "fusion_lat": 0.0, "fusion_lon": 0.0, "is_reserved": 0, "name": "bf0b048ef811ff1c5da3620c0e9a6f5c"}, {"lon": -77.03855583333333, "lat": 38.902797666666665, "rental_uris": {"ios": "https://dc.lft.to/lastmile_qr_scan", "android": "https://dc.lft.to/lastmile_qr_scan"}, "bike_id": "65f55dfcd1eb80bed46acee1d9326b71", "type": "electric_scooter", "is_disabled": 0, "fusion_lat": 0.0, "fusion_lon": 0.0, "is_reserved": 0, "name": "65f55dfcd1eb80bed46acee1d9326b71"}, {"lon": -77.03349033333333, "lat": 38.89843883333333, "rental_uris": {"ios": "https://dc.lft.to/lastmile_qr_scan", "android": "https://dc.lft.to/lastmile_qr_scan"}, "bike_id": "53c213a17dd70b93c5bbbf0639e289a0", "type": "electric_scooter", "is_disabled": 0, "fusion_lat": 0.0, "fusion_lon": 0.0, "is_reserved": 0, "name": "53c213a17dd70b93c5bbbf0639e289a0"}, {"lon": -77.03391816666667, "lat": 38.93874983333333, "rental_uris": {"ios": "https://dc.lft.to/lastmile_qr_scan", "android": "https://dc.lft.to/lastmile_qr_scan"}, "bike_id": "ac71c7ebe518cd47bfe0cb220c935f59", "type": "electric_scooter", "is_disabled": 0, "fusion_lat": 0.0, "fusion_lon": 0.0, "is_reserved": 0, "name": "ac71c7ebe518cd47bfe0cb220c935f59"}, {"lon": -76.997763, "lat": 38.844311166666664, "rental_uris": {"ios": "https://dc.lft.to/lastmile_qr_scan", "android": "https://dc.lft.to/lastmile_qr_scan"}, "bike_id": "db97075ff8ba1dc9b088e6d664a8ad41", "type": "electric_scooter", "is_disabled": 0, "fusion_lat": 0.0, "fusion_lon": 0.0, "is_reserved": 0, "name": "db97075ff8ba1dc9b088e6d664a8ad41"}, {"lon": -76.93748116666667, "lat": 38.8904735, "rental_uris": {"ios": "https://dc.lft.to/lastmile_qr_scan", "android": "https://dc.lft.to/lastmile_qr_scan"}, "bike_id": "305b31f3e650b1f2a784ac95bd7efda7", "type": "electric_scooter", "is_disabled": 0, "fusion_lat": 0.0, "fusion_lon": 0.0, "is_reserved": 0, "name": "305b31f3e650b1f2a784ac95bd7efda7"}, {"lon": -77.04351516666667, "lat": 38.904367666666666, "rental_uris": {"ios": "https://dc.lft.to/lastmile_qr_scan", "android": "https://dc.lft.to/lastmile_qr_scan"}, "bike_id": "3fd9c0cdac5ebf4ac1b2ba834d8deb9a", "type": "electric_scooter", "is_disabled": 0, "fusion_lat": 0.0, "fusion_lon": 0.0, "is_reserved": 0, "name": "3fd9c0cdac5ebf4ac1b2ba834d8deb9a"}, {"lon": -77.02412033333333, "lat": 38.90048816666667, "rental_uris": {"ios": "https://dc.lft.to/lastmile_qr_scan", "android": "https://dc.lft.to/lastmile_qr_scan"}, "bike_id": "83473d3cbcf4078464eab958102922ae", "type": "electric_scooter", "is_disabled": 0, "fusion_lat": 0.0, "fusion_lon": 0.0, "is_reserved": 0, "name": "83473d3cbcf4078464eab958102922ae"}, {"lon": -77.02943933333333, "lat": 38.92077116666667, "rental_uris": {"ios": "https://dc.lft.to/lastmile_qr_scan", "android": "https://dc.lft.to/lastmile_qr_scan"}, "bike_id": "1ae9143b25ebdd0f2efdfafe890bd5f0", "type": "electric_scooter", "is_disabled": 0, "fusion_lat": 0.0, "fusion_lon": 0.0, "is_reserved": 0, "name": "1ae9143b25ebdd0f2efdfafe890bd5f0"}, {"lon": -76.99521983333334, "lat": 38.896103333333336, "rental_uris": {"ios": "https://dc.lft.to/lastmile_qr_scan", "android": "https://dc.lft.to/lastmile_qr_scan"}, "bike_id": "0a2dbadd91fd81e2a5e71e421787914c", "type": "electric_scooter", "is_disabled": 0, "fusion_lat": 0.0, "fusion_lon": 0.0, "is_reserved": 0, "name": "0a2dbadd91fd81e2a5e71e421787914c"}, {"lon": -77.04521066666666, "lat": 38.94197883333333, "rental_uris": {"ios": "https://dc.lft.to/lastmile_qr_scan", "android": "https://dc.lft.to/lastmile_qr_scan"}, "bike_id": "75740c831d2de3e841fd02932ee7163d", "type": "electric_bike", "is_disabled": 0, "fusion_lat": 0.0, "fusion_lon": 0.0, "is_reserved": 0, "name": "75740c831d2de3e841fd02932ee7163d"}, {"lon": -77.03171833333333, "lat": 38.92097416666667, "rental_uris": {"ios": "https://dc.lft.to/lastmile_qr_scan", "android": "https://dc.lft.to/lastmile_qr_scan"}, "bike_id": "f589da8f4d26f87d50ed294876d3b033", "type": "electric_scooter", "is_disabled": 0, "fusion_lat": 0.0, "fusion_lon": 0.0, "is_reserved": 0, "name": "f589da8f4d26f87d50ed294876d3b033"}, {"lon": -77.04749783333334, "lat": 38.905297, "rental_uris": {"ios": "https://dc.lft.to/lastmile_qr_scan", "android": "https://dc.lft.to/lastmile_qr_scan"}, "bike_id": "22b16551b2615514367861acca90a550", "type": "electric_scooter", "is_disabled": 0, "fusion_lat": 0.0, "fusion_lon": 0.0, "is_reserved": 0, "name": "22b16551b2615514367861acca90a550"}, {"lon": -77.0215565, "lat": 38.92605916666667, "rental_uris": {"ios": "https://dc.lft.to/lastmile_qr_scan", "android": "https://dc.lft.to/lastmile_qr_scan"}, "bike_id": "bb984448735689a5ebb381f26a99e4a5", "type": "electric_scooter", "is_disabled": 0, "fusion_lat": 0.0, "fusion_lon": 0.0, "is_reserved": 0, "name": "bb984448735689a5ebb381f26a99e4a5"}, {"lon": -77.017769, "lat": 38.88715666666667, "rental_uris": {"ios": "https://dc.lft.to/lastmile_qr_scan", "android": "https://dc.lft.to/lastmile_qr_scan"}, "bike_id": "8c72a4d0aa2fbf5bf0b7a75f591f9b18", "type": "electric_scooter", "is_disabled": 0, "fusion_lat": 0.0, "fusion_lon": 0.0, "is_reserved": 0, "name": "8c72a4d0aa2fbf5bf0b7a75f591f9b18"}, {"lon": -77.0674175, "lat": 38.9068385, "rental_uris": {"ios": "https://dc.lft.to/lastmile_qr_scan", "android": "https://dc.lft.to/lastmile_qr_scan"}, "bike_id": "afb74985bcab778f35211bc540f8eccd", "type": "electric_scooter", "is_disabled": 0, "fusion_lat": 0.0, "fusion_lon": 0.0, "is_reserved": 0, "name": "afb74985bcab778f35211bc540f8eccd"}, {"lon": -77.0076935, "lat": 38.90060183333333, "rental_uris": {"ios": "https://dc.lft.to/lastmile_qr_scan", "android": "https://dc.lft.to/lastmile_qr_scan"}, "bike_id": "631b7d08f2ad8046229d819b1c7d73e9", "type": "electric_scooter", "is_disabled": 0, "fusion_lat": 0.0, "fusion_lon": 0.0, "is_reserved": 0, "name": "631b7d08f2ad8046229d819b1c7d73e9"}, {"lon": -77.03844666666667, "lat": 38.908161666666665, "rental_uris": {"ios": "https://dc.lft.to/lastmile_qr_scan", "android": "https://dc.lft.to/lastmile_qr_scan"}, "bike_id": "c158a8d34d28d1b280c396073661af9b", "type": "electric_scooter", "is_disabled": 0, "fusion_lat": 0.0, "fusion_lon": 0.0, "is_reserved": 0, "name": "c158a8d34d28d1b280c396073661af9b"}, {"lon": -76.99649333333333, "lat": 38.98820933333333, "rental_uris": {"ios": "https://dc.lft.to/lastmile_qr_scan", "android": "https://dc.lft.to/lastmile_qr_scan"}, "bike_id": "f2b8d68413eab866c7fd960bce1fd66d", "type": "electric_bike", "is_disabled": 0, "fusion_lat": 0.0, "fusion_lon": 0.0, "is_reserved": 0, "name": "f2b8d68413eab866c7fd960bce1fd66d"}, {"lon": -77.02975483333333, "lat": 38.90362016666667, "rental_uris": {"ios": "https://dc.lft.to/lastmile_qr_scan", "android": "https://dc.lft.to/lastmile_qr_scan"}, "bike_id": "3c3dad3754825e8870bd1b5d1abd414a", "type": "electric_scooter", "is_disabled": 0, "fusion_lat": 0.0, "fusion_lon": 0.0, "is_reserved": 0, "name": "3c3dad3754825e8870bd1b5d1abd414a"}, {"lon": -77.05326316666667, "lat": 38.9044955, "rental_uris": {"ios": "https://dc.lft.to/lastmile_qr_scan", "android": "https://dc.lft.to/lastmile_qr_scan"}, "bike_id": "05e92e5cfd0464e711ca4ea6f3fe1970", "type": "electric_scooter", "is_disabled": 0, "fusion_lat": 0.0, "fusion_lon": 0.0, "is_reserved": 0, "name": "05e92e5cfd0464e711ca4ea6f3fe1970"}, {"lon": -76.99177616666667, "lat": 38.889908166666665, "rental_uris": {"ios": "https://dc.lft.to/lastmile_qr_scan", "android": "https://dc.lft.to/lastmile_qr_scan"}, "bike_id": "5af9eb5502aead713a5681a97c997300", "type": "electric_scooter", "is_disabled": 0, "fusion_lat": 0.0, "fusion_lon": 0.0, "is_reserved": 0, "name": "5af9eb5502aead713a5681a97c997300"}, {"lon": -77.04832316666666, "lat": 38.904892333333336, "rental_uris": {"ios": "https://dc.lft.to/lastmile_qr_scan", "android": "https://dc.lft.to/lastmile_qr_scan"}, "bike_id": "ca0cb9c1804f2e11f4d4a5fca330f040", "type": "electric_scooter", "is_disabled": 0, "fusion_lat": 0.0, "fusion_lon": 0.0, "is_reserved": 0, "name": "ca0cb9c1804f2e11f4d4a5fca330f040"}, {"lon": -77.021576, "lat": 38.92906, "rental_uris": {"ios": "https://dc.lft.to/lastmile_qr_scan", "android": "https://dc.lft.to/lastmile_qr_scan"}, "bike_id": "22694947087d3c28445d031831ac8519", "type": "electric_scooter", "is_disabled": 0, "fusion_lat": 0.0, "fusion_lon": 0.0, "is_reserved": 0, "name": "22694947087d3c28445d031831ac8519"}, {"lon": -76.9960505, "lat": 38.892252666666664, "rental_uris": {"ios": "https://dc.lft.to/lastmile_qr_scan", "android": "https://dc.lft.to/lastmile_qr_scan"}, "bike_id": "46b15c525e2c56f986edb1996a34ba6f", "type": "electric_scooter", "is_disabled": 0, "fusion_lat": 0.0, "fusion_lon": 0.0, "is_reserved": 0, "name": "46b15c525e2c56f986edb1996a34ba6f"}, {"lon": -76.98371666666667, "lat": 38.91499833333334, "rental_uris": {"ios": "https://dc.lft.to/lastmile_qr_scan", "android": "https://dc.lft.to/lastmile_qr_scan"}, "bike_id": "b8cfa3297ddcd8b0df54d18838e365f6", "type": "electric_scooter", "is_disabled": 0, "fusion_lat": 0.0, "fusion_lon": 0.0, "is_reserved": 0, "name": "b8cfa3297ddcd8b0df54d18838e365f6"}, {"lon": -77.04227566666667, "lat": 38.92176933333333, "rental_uris": {"ios": "https://dc.lft.to/lastmile_qr_scan", "android": "https://dc.lft.to/lastmile_qr_scan"}, "bike_id": "80f1237e8413f19ae08c7f836903884c", "type": "electric_scooter", "is_disabled": 0, "fusion_lat": 0.0, "fusion_lon": 0.0, "is_reserved": 0, "name": "80f1237e8413f19ae08c7f836903884c"}, {"lon": -77.0228855, "lat": 38.927203166666665, "rental_uris": {"ios": "https://dc.lft.to/lastmile_qr_scan", "android": "https://dc.lft.to/lastmile_qr_scan"}, "bike_id": "e657affba25a352db0c5c346865ad89a", "type": "electric_scooter", "is_disabled": 0, "fusion_lat": 0.0, "fusion_lon": 0.0, "is_reserved": 0, "name": "e657affba25a352db0c5c346865ad89a"}, {"lon": -77.02698783333334, "lat": 38.909311, "rental_uris": {"ios": "https://dc.lft.to/lastmile_qr_scan", "android": "https://dc.lft.to/lastmile_qr_scan"}, "bike_id": "2f2d32698bf2b6f3dbc06108baac59a8", "type": "electric_scooter", "is_disabled": 0, "fusion_lat": 0.0, "fusion_lon": 0.0, "is_reserved": 0, "name": "2f2d32698bf2b6f3dbc06108baac59a8"}, {"lon": -77.03370133333334, "lat": 38.93227133333333, "rental_uris": {"ios": "https://dc.lft.to/lastmile_qr_scan", "android": "https://dc.lft.to/lastmile_qr_scan"}, "bike_id": "de8d74ba489e0977af138482b5393097", "type": "electric_scooter", "is_disabled": 0, "fusion_lat": 0.0, "fusion_lon": 0.0, "is_reserved": 0, "name": "de8d74ba489e0977af138482b5393097"}, {"lon": -76.99507933333334, "lat": 38.909794833333336, "rental_uris": {"ios": "https://dc.lft.to/lastmile_qr_scan", "android": "https://dc.lft.to/lastmile_qr_scan"}, "bike_id": "1486f10e3213ec93a2cb0fd1293d0fb2", "type": "electric_scooter", "is_disabled": 0, "fusion_lat": 0.0, "fusion_lon": 0.0, "is_reserved": 0, "name": "1486f10e3213ec93a2cb0fd1293d0fb2"}, {"lon": -77.03421333333333, "lat": 38.90803366666667, "rental_uris": {"ios": "https://dc.lft.to/lastmile_qr_scan", "android": "https://dc.lft.to/lastmile_qr_scan"}, "bike_id": "db55203398bffbcb59a493d80cc95291", "type": "electric_scooter", "is_disabled": 0, "fusion_lat": 0.0, "fusion_lon": 0.0, "is_reserved": 0, "name": "db55203398bffbcb59a493d80cc95291"}, {"lon": -77.0431695, "lat": 38.905677833333336, "rental_uris": {"ios": "https://dc.lft.to/lastmile_qr_scan", "android": "https://dc.lft.to/lastmile_qr_scan"}, "bike_id": "60bb491c947df5041c46540f7a2bdd58", "type": "electric_scooter", "is_disabled": 0, "fusion_lat": 0.0, "fusion_lon": 0.0, "is_reserved": 0, "name": "60bb491c947df5041c46540f7a2bdd58"}, {"lon": -77.04362816666666, "lat": 38.9112085, "rental_uris": {"ios": "https://dc.lft.to/lastmile_qr_scan", "android": "https://dc.lft.to/lastmile_qr_scan"}, "bike_id": "aa833bda1e597002eb3411a0f10a6808", "type": "electric_scooter", "is_disabled": 0, "fusion_lat": 0.0, "fusion_lon": 0.0, "is_reserved": 0, "name": "aa833bda1e597002eb3411a0f10a6808"}, {"lon": -77.0894265, "lat": 38.8410775, "rental_uris": {"ios": "https://dc.lft.to/lastmile_qr_scan", "android": "https://dc.lft.to/lastmile_qr_scan"}, "bike_id": "fdd1cf927c29a846507268e717dfb8bf", "type": "electric_bike", "is_disabled": 0, "fusion_lat": 0.0, "fusion_lon": 0.0, "is_reserved": 0, "name": "fdd1cf927c29a846507268e717dfb8bf"}, {"lon": -77.02555916666667, "lat": 38.92473416666667, "rental_uris": {"ios": "https://dc.lft.to/lastmile_qr_scan", "android": "https://dc.lft.to/lastmile_qr_scan"}, "bike_id": "bc5decc78617cabfd414454d1a631aa0", "type": "electric_scooter", "is_disabled": 0, "fusion_lat": 0.0, "fusion_lon": 0.0, "is_reserved": 0, "name": "bc5decc78617cabfd414454d1a631aa0"}, {"lon": -77.02162933333334, "lat": 38.926137, "rental_uris": {"ios": "https://dc.lft.to/lastmile_qr_scan", "android": "https://dc.lft.to/lastmile_qr_scan"}, "bike_id": "3e750079c2658c382da3a5fc47c3da8f", "type": "electric_scooter", "is_disabled": 0, "fusion_lat": 0.0, "fusion_lon": 0.0, "is_reserved": 0, "name": "3e750079c2658c382da3a5fc47c3da8f"}, {"lon": -76.93368466666666, "lat": 38.899164, "rental_uris": {"ios": "https://dc.lft.to/lastmile_qr_scan", "android": "https://dc.lft.to/lastmile_qr_scan"}, "bike_id": "4dab8e30ed634eb6922299d95b1f926b", "type": "electric_scooter", "is_disabled": 0, "fusion_lat": 0.0, "fusion_lon": 0.0, "is_reserved": 0, "name": "4dab8e30ed634eb6922299d95b1f926b"}, {"lon": -77.04519566666667, "lat": 38.903613666666665, "rental_uris": {"ios": "https://dc.lft.to/lastmile_qr_scan", "android": "https://dc.lft.to/lastmile_qr_scan"}, "bike_id": "fe211b86984c8d98695e348832f1234c", "type": "electric_scooter", "is_disabled": 0, "fusion_lat": 0.0, "fusion_lon": 0.0, "is_reserved": 0, "name": "fe211b86984c8d98695e348832f1234c"}, {"lon": -76.94249933333333, "lat": 38.89670566666667, "rental_uris": {"ios": "https://dc.lft.to/lastmile_qr_scan", "android": "https://dc.lft.to/lastmile_qr_scan"}, "bike_id": "42567d7b18cc8a6c8a073551800fb272", "type": "electric_scooter", "is_disabled": 0, "fusion_lat": 0.0, "fusion_lon": 0.0, "is_reserved": 0, "name": "42567d7b18cc8a6c8a073551800fb272"}, {"lon": -77.03037016666667, "lat": 38.8984225, "rental_uris": {"ios": "https://dc.lft.to/lastmile_qr_scan", "android": "https://dc.lft.to/lastmile_qr_scan"}, "bike_id": "d7fb731f89bd1582dd5a00f270f4ed26", "type": "electric_scooter", "is_disabled": 0, "fusion_lat": 0.0, "fusion_lon": 0.0, "is_reserved": 0, "name": "d7fb731f89bd1582dd5a00f270f4ed26"}, {"lon": -76.9376395, "lat": 38.878607333333335, "rental_uris": {"ios": "https://dc.lft.to/lastmile_qr_scan", "android": "https://dc.lft.to/lastmile_qr_scan"}, "bike_id": "5620b36bef185652916ff915fc6a211c", "type": "electric_scooter", "is_disabled": 0, "fusion_lat": 0.0, "fusion_lon": 0.0, "is_reserved": 0, "name": "5620b36bef185652916ff915fc6a211c"}, {"lon": -77.03015116666667, "lat": 38.91566383333333, "rental_uris": {"ios": "https://dc.lft.to/lastmile_qr_scan", "android": "https://dc.lft.to/lastmile_qr_scan"}, "bike_id": "7586313cd921cdf1ed35782241c16de1", "type": "electric_scooter", "is_disabled": 0, "fusion_lat": 0.0, "fusion_lon": 0.0, "is_reserved": 0, "name": "7586313cd921cdf1ed35782241c16de1"}, {"lon": -76.99857466666667, "lat": 38.8941315, "rental_uris": {"ios": "https://dc.lft.to/lastmile_qr_scan", "android": "https://dc.lft.to/lastmile_qr_scan"}, "bike_id": "39dc7259aab417af73e3dc3ed3a8534c", "type": "electric_scooter", "is_disabled": 0, "fusion_lat": 0.0, "fusion_lon": 0.0, "is_reserved": 0, "name": "39dc7259aab417af73e3dc3ed3a8534c"}, {"lon": -77.00127833333333, "lat": 38.905049, "rental_uris": {"ios": "https://dc.lft.to/lastmile_qr_scan", "android": "https://dc.lft.to/lastmile_qr_scan"}, "bike_id": "8f652acc3a90ba1c8723fc79ef21c43a", "type": "electric_scooter", "is_disabled": 0, "fusion_lat": 0.0, "fusion_lon": 0.0, "is_reserved": 0, "name": "8f652acc3a90ba1c8723fc79ef21c43a"}, {"lon": -76.94508383333333, "lat": 38.8648245, "rental_uris": {"ios": "https://dc.lft.to/lastmile_qr_scan", "android": "https://dc.lft.to/lastmile_qr_scan"}, "bike_id": "f6b0aaca3c48c1f261fe709bb8f77ad3", "type": "electric_bike", "is_disabled": 0, "fusion_lat": 0.0, "fusion_lon": 0.0, "is_reserved": 0, "name": "f6b0aaca3c48c1f261fe709bb8f77ad3"}, {"lon": -77.04979666666667, "lat": 39.06294666666667, "rental_uris": {"ios": "https://dc.lft.to/lastmile_qr_scan", "android": "https://dc.lft.to/lastmile_qr_scan"}, "bike_id": "bb552a58f260e9ec79abb168efff4cc7", "type": "electric_bike", "is_disabled": 0, "fusion_lat": 0.0, "fusion_lon": 0.0, "is_reserved": 0, "name": "bb552a58f260e9ec79abb168efff4cc7"}, {"lon": -77.02438183333334, "lat": 38.897183166666665, "rental_uris": {"ios": "https://dc.lft.to/lastmile_qr_scan", "android": "https://dc.lft.to/lastmile_qr_scan"}, "bike_id": "c0a4d20408ff0299f44fdfd90630266e", "type": "electric_scooter", "is_disabled": 0, "fusion_lat": 0.0, "fusion_lon": 0.0, "is_reserved": 0, "name": "c0a4d20408ff0299f44fdfd90630266e"}, {"lon": -76.99014983333333, "lat": 38.94600366666667, "rental_uris": {"ios": "https://dc.lft.to/lastmile_qr_scan", "android": "https://dc.lft.to/lastmile_qr_scan"}, "bike_id": "1afbd50ebd2b680f356946ddc69f8afb", "type": "electric_scooter", "is_disabled": 0, "fusion_lat": 0.0, "fusion_lon": 0.0, "is_reserved": 0, "name": "1afbd50ebd2b680f356946ddc69f8afb"}, {"lon": -77.03243016666667, "lat": 38.91490916666667, "rental_uris": {"ios": "https://dc.lft.to/lastmile_qr_scan", "android": "https://dc.lft.to/lastmile_qr_scan"}, "bike_id": "6768e3ed11d6a9642fa76aea6cf6019a", "type": "electric_scooter", "is_disabled": 0, "fusion_lat": 0.0, "fusion_lon": 0.0, "is_reserved": 0, "name": "6768e3ed11d6a9642fa76aea6cf6019a"}, {"lon": -77.045927, "lat": 38.89609866666667, "rental_uris": {"ios": "https://dc.lft.to/lastmile_qr_scan", "android": "https://dc.lft.to/lastmile_qr_scan"}, "bike_id": "4c2cca204f51d5371513f25f8ee83eb1", "type": "electric_scooter", "is_disabled": 0, "fusion_lat": 0.0, "fusion_lon": 0.0, "is_reserved": 0, "name": "4c2cca204f51d5371513f25f8ee83eb1"}, {"lon": -77.047273, "lat": 38.912573, "rental_uris": {"ios": "https://dc.lft.to/lastmile_qr_scan", "android": "https://dc.lft.to/lastmile_qr_scan"}, "bike_id": "203892a6570c99e0d15a27652ed9c277", "type": "electric_scooter", "is_disabled": 0, "fusion_lat": 0.0, "fusion_lon": 0.0, "is_reserved": 0, "name": "203892a6570c99e0d15a27652ed9c277"}, {"lon": -76.988848, "lat": 38.866502833333335, "rental_uris": {"ios": "https://dc.lft.to/lastmile_qr_scan", "android": "https://dc.lft.to/lastmile_qr_scan"}, "bike_id": "3484bf8aaaadabafa7f8649283b69d70", "type": "electric_scooter", "is_disabled": 0, "fusion_lat": 0.0, "fusion_lon": 0.0, "is_reserved": 0, "name": "3484bf8aaaadabafa7f8649283b69d70"}, {"lon": -76.98247966666666, "lat": 38.916467833333336, "rental_uris": {"ios": "https://dc.lft.to/lastmile_qr_scan", "android": "https://dc.lft.to/lastmile_qr_scan"}, "bike_id": "4822772d7ddc33e40eedd0d831ac2e37", "type": "electric_scooter", "is_disabled": 0, "fusion_lat": 0.0, "fusion_lon": 0.0, "is_reserved": 0, "name": "4822772d7ddc33e40eedd0d831ac2e37"}, {"lon": -76.93735566666666, "lat": 38.89013383333333, "rental_uris": {"ios": "https://dc.lft.to/lastmile_qr_scan", "android": "https://dc.lft.to/lastmile_qr_scan"}, "bike_id": "a229c1b7caf66cf65721e64cb853e518", "type": "electric_scooter", "is_disabled": 0, "fusion_lat": 0.0, "fusion_lon": 0.0, "is_reserved": 0, "name": "a229c1b7caf66cf65721e64cb853e518"}, {"lon": -76.99961216666667, "lat": 38.896435, "rental_uris": {"ios": "https://dc.lft.to/lastmile_qr_scan", "android": "https://dc.lft.to/lastmile_qr_scan"}, "bike_id": "240c63bef33e1b756fa50b2cab1d1216", "type": "electric_scooter", "is_disabled": 0, "fusion_lat": 0.0, "fusion_lon": 0.0, "is_reserved": 0, "name": "240c63bef33e1b756fa50b2cab1d1216"}, {"lon": -77.021253, "lat": 38.9023215, "rental_uris": {"ios": "https://dc.lft.to/lastmile_qr_scan", "android": "https://dc.lft.to/lastmile_qr_scan"}, "bike_id": "c2d44380176d5fdd902edf622dbce2eb", "type": "electric_scooter", "is_disabled": 0, "fusion_lat": 0.0, "fusion_lon": 0.0, "is_reserved": 0, "name": "c2d44380176d5fdd902edf622dbce2eb"}, {"lon": -77.037836, "lat": 38.925836, "rental_uris": {"ios": "https://dc.lft.to/lastmile_qr_scan", "android": "https://dc.lft.to/lastmile_qr_scan"}, "bike_id": "72eea4240dcc7818773ada6ee2c8a5e0", "type": "electric_scooter", "is_disabled": 0, "fusion_lat": 0.0, "fusion_lon": 0.0, "is_reserved": 0, "name": "72eea4240dcc7818773ada6ee2c8a5e0"}, {"lon": -77.05037933333334, "lat": 38.923714, "rental_uris": {"ios": "https://dc.lft.to/lastmile_qr_scan", "android": "https://dc.lft.to/lastmile_qr_scan"}, "bike_id": "38547e860d8cedd7a6991196fef1fd10", "type": "electric_scooter", "is_disabled": 0, "fusion_lat": 0.0, "fusion_lon": 0.0, "is_reserved": 0, "name": "38547e860d8cedd7a6991196fef1fd10"}, {"lon": -77.03918183333333, "lat": 38.9247175, "rental_uris": {"ios": "https://dc.lft.to/lastmile_qr_scan", "android": "https://dc.lft.to/lastmile_qr_scan"}, "bike_id": "c5a05977ea803a9c0fb71bf9ac69bd7e", "type": "electric_scooter", "is_disabled": 0, "fusion_lat": 0.0, "fusion_lon": 0.0, "is_reserved": 0, "name": "c5a05977ea803a9c0fb71bf9ac69bd7e"}, {"lon": -77.04313316666666, "lat": 38.9265775, "rental_uris": {"ios": "https://dc.lft.to/lastmile_qr_scan", "android": "https://dc.lft.to/lastmile_qr_scan"}, "bike_id": "18b3a298bd29415e59070224b5f69efa", "type": "electric_scooter", "is_disabled": 0, "fusion_lat": 0.0, "fusion_lon": 0.0, "is_reserved": 0, "name": "18b3a298bd29415e59070224b5f69efa"}, {"lon": -77.03629916666667, "lat": 38.90382483333333, "rental_uris": {"ios": "https://dc.lft.to/lastmile_qr_scan", "android": "https://dc.lft.to/lastmile_qr_scan"}, "bike_id": "99cf42c416e916eda39de48cf6013736", "type": "electric_scooter", "is_disabled": 0, "fusion_lat": 0.0, "fusion_lon": 0.0, "is_reserved": 0, "name": "99cf42c416e916eda39de48cf6013736"}, {"lon": -77.01231133333333, "lat": 38.87730583333333, "rental_uris": {"ios": "https://dc.lft.to/lastmile_qr_scan", "android": "https://dc.lft.to/lastmile_qr_scan"},