{"data": {"bikes": [{"type": "electric_scooter", "rental_uris": {"android": "https://dc.lft.to/lastmile_qr_scan", "ios": "https://dc.lft.to/lastmile_qr_scan"}, "fusion_lat": 0.0, "name": "d379ffabba501f9f626656e0e9320ea4", "lon": -77.02053616666667, "is_disabled": 0, "is_reserved": 0, "fusion_lon": 0.0, "bike_id": "d379ffabba501f9f626656e0e9320ea4", "lat": 38.92354916666667}, {"type": "electric_scooter", "rental_uris": {"android": "https://dc.lft.to/lastmile_qr_scan", "ios": "https://dc.lft.to/lastmile_qr_scan"}, "fusion_lat": 0.0, "name": "0b740fe9cb56f1fb3cae17b66f5bceae", "lon": -76.99516066666666, "is_disabled": 0, "is_reserved": 0, "fusion_lon": 0.0, "bike_id": "0b740fe9cb56f1fb3cae17b66f5bceae", "lat": 38.8974085}, {"type": "electric_scooter", "rental_uris": {"android": "https://dc.lft.to/lastmile_qr_scan", "ios": "https://dc.lft.to/lastmile_qr_scan"}, "fusion_lat": 0.0, "name": "4e15e80e50209d0d445dc6a343611732", "lon": -77.03859883333334, "is_disabled": 0, "is_reserved": 0, "fusion_lon": 0.0, "bike_id": "4e15e80e50209d0d445dc6a343611732", "lat": 38.90363033333333}, {"type": "electric_bike", "rental_uris": {"android": "https://dc.lft.to/lastmile_qr_scan", "ios": "https://dc.lft.to/lastmile_qr_scan"}, "fusion_lat": 0.0, "name": "28616ea048579d11d73bc9c06eaf7941", "lon": -76.97670433333333, "is_disabled": 0, "is_reserved": 0, "fusion_lon": 0.0, "bike_id": "28616ea048579d11d73bc9c06eaf7941", "lat": 38.9524585}, {"type": "electric_scooter", "rental_uris": {"android": "https://dc.lft.to/lastmile_qr_scan", "ios": "https://dc.lft.to/lastmile_qr_scan"}, "fusion_lat": 0.0, "name": "96b44b868bbedf12c40ff89d063d7b87", "lon": -77.0248345, "is_disabled": 0, "is_reserved": 0, "fusion_lon": 0.0, "bike_id": "96b44b868bbedf12c40ff89d063d7b87", "lat": 38.9274995}, {"type": "electric_scooter", "rental_uris": {"android": "https://dc.lft.to/lastmile_qr_scan", "ios": "https://dc.lft.to/lastmile_qr_scan"}, "fusion_lat": 0.0, "name": "ceb6943da7345a07e06c8b0726f739b5", "lon": -76.98801466666667, "is_disabled": 0, "is_reserved": 0, "fusion_lon": 0.0, "bike_id": "ceb6943da7345a07e06c8b0726f739b5", "lat": 38.8672975}, {"type": "electric_scooter", "rental_uris": {"android": "https://dc.lft.to/lastmile_qr_scan", "ios": "https://dc.lft.to/lastmile_qr_scan"}, "fusion_lat": 0.0, "name": "f7044367aedaf1ac8a3f6932c4f57f06", "lon": -76.98303533333333, "is_disabled": 0, "is_reserved": 0, "fusion_lon": 0.0, "bike_id": "f7044367aedaf1ac8a3f6932c4f57f06", "lat": 38.90525233333334}, {"type": "electric_scooter", "rental_uris": {"android": "https://dc.lft.to/lastmile_qr_scan", "ios": "https://dc.lft.to/lastmile_qr_scan"}, "fusion_lat": 0.0, "name": "9c39fd43a53d682cf04c8a8510ce5f2e", "lon": -77.05917283333334, "is_disabled": 0, "is_reserved": 0, "fusion_lon": 0.0, "bike_id": "9c39fd43a53d682cf04c8a8510ce5f2e", "lat": 38.9015445}, {"type": "electric_scooter", "rental_uris": {"android": "https://dc.lft.to/lastmile_qr_scan", "ios": "https://dc.lft.to/lastmile_qr_scan"}, "fusion_lat": 0.0, "name": "45d61cea6cbb1d4cd19f7927de89b412", "lon": -77.02268866666667, "is_disabled": 0, "is_reserved": 0, "fusion_lon": 0.0, "bike_id": "45d61cea6cbb1d4cd19f7927de89b412", "lat": 38.878879}, {"type": "electric_scooter", "rental_uris": {"android": "https://dc.lft.to/lastmile_qr_scan", "ios": "https://dc.lft.to/lastmile_qr_scan"}, "fusion_lat": 0.0, "name": "30f25db1ca7593707f6c8d78a71d0cd4", "lon": -77.04055933333333, "is_disabled": 0, "is_reserved": 0, "fusion_lon": 0.0, "bike_id": "30f25db1ca7593707f6c8d78a71d0cd4", "lat": 38.91875266666667}, {"type": "electric_scooter", "rental_uris": {"android": "https://dc.lft.to/lastmile_qr_scan", "ios": "https://dc.lft.to/lastmile_qr_scan"}, "fusion_lat": 0.0, "name": "739daad7fd22d6d422437a126600a3ff", "lon": -77.041252, "is_disabled": 0, "is_reserved": 0, "fusion_lon": 0.0, "bike_id": "739daad7fd22d6d422437a126600a3ff", "lat": 38.917076}, {"type": "electric_scooter", "rental_uris": {"android": "https://dc.lft.to/lastmile_qr_scan", "ios": "https://dc.lft.to/lastmile_qr_scan"}, "fusion_lat": 0.0, "name": "a4ab48101a32c5df8d3ca87ba32f1443", "lon": -77.0254905, "is_disabled": 0, "is_reserved": 0, "fusion_lon": 0.0, "bike_id": "a4ab48101a32c5df8d3ca87ba32f1443", "lat": 38.941383}, {"type": "electric_scooter", "rental_uris": {"android": "https://dc.lft.to/lastmile_qr_scan", "ios": "https://dc.lft.to/lastmile_qr_scan"}, "fusion_lat": 0.0, "name": "d9e2924f9cdc621325e61525c93b7223", "lon": -77.0423685, "is_disabled": 0, "is_reserved": 0, "fusion_lon": 0.0, "bike_id": "d9e2924f9cdc621325e61525c93b7223", "lat": 38.901161333333334}, {"type": "electric_scooter", "rental_uris": {"android": "https://dc.lft.to/lastmile_qr_scan", "ios": "https://dc.lft.to/lastmile_qr_scan"}, "fusion_lat": 0.0, "name": "b63b61d24d7c5278a859e9d9feeac43b", "lon": -77.02498633333333, "is_disabled": 0, "is_reserved": 0, "fusion_lon": 0.0, "bike_id": "b63b61d24d7c5278a859e9d9feeac43b", "lat": 38.94204766666667}, {"type": "electric_scooter", "rental_uris": {"android": "https://dc.lft.to/lastmile_qr_scan", "ios": "https://dc.lft.to/lastmile_qr_scan"}, "fusion_lat": 0.0, "name": "e70a2862a6f20308f5a8d181dea696b2", "lon": -76.98151866666667, "is_disabled": 0, "is_reserved": 0, "fusion_lon": 0.0, "bike_id": "e70a2862a6f20308f5a8d181dea696b2", "lat": 38.903240333333336}, {"type": "electric_scooter", "rental_uris": {"android": "https://dc.lft.to/lastmile_qr_scan", "ios": "https://dc.lft.to/lastmile_qr_scan"}, "fusion_lat": 0.0, "name": "c4542de7a5d8a0d8d4490a92025fa3c8", "lon": -77.053824, "is_disabled": 0, "is_reserved": 0, "fusion_lon": 0.0, "bike_id": "c4542de7a5d8a0d8d4490a92025fa3c8", "lat": 38.89888066666666}, {"type": "electric_scooter", "rental_uris": {"android": "https://dc.lft.to/lastmile_qr_scan", "ios": "https://dc.lft.to/lastmile_qr_scan"}, "fusion_lat": 0.0, "name": "28a4d0e35d0a9f8a033ca0eefc83fee9", "lon": -77.01891383333333, "is_disabled": 0, "is_reserved": 0, "fusion_lon": 0.0, "bike_id": "28a4d0e35d0a9f8a033ca0eefc83fee9", "lat": 38.92375033333333}, {"type": "electric_scooter", "rental_uris": {"android": "https://dc.lft.to/lastmile_qr_scan", "ios": "https://dc.lft.to/lastmile_qr_scan"}, "fusion_lat": 0.0, "name": "c83f65180e6cbaeed679b13dc6448093", "lon": -77.03084416666667, "is_disabled": 0, "is_reserved": 0, "fusion_lon": 0.0, "bike_id": "c83f65180e6cbaeed679b13dc6448093", "lat": 38.927243833333335}, {"type": "electric_scooter", "rental_uris": {"android": "https://dc.lft.to/lastmile_qr_scan", "ios": "https://dc.lft.to/lastmile_qr_scan"}, "fusion_lat": 0.0, "name": "f9a9c9c7a89b69135de70b0fa614abbd", "lon": -77.03598283333334, "is_disabled": 0, "is_reserved": 0, "fusion_lon": 0.0, "bike_id": "f9a9c9c7a89b69135de70b0fa614abbd", "lat": 38.9393755}, {"type": "electric_scooter", "rental_uris": {"android": "https://dc.lft.to/lastmile_qr_scan", "ios": "https://dc.lft.to/lastmile_qr_scan"}, "fusion_lat": 0.0, "name": "6a41ff263f7a914a44e63da9072df08a", "lon": -77.025478, "is_disabled": 0, "is_reserved": 0, "fusion_lon": 0.0, "bike_id": "6a41ff263f7a914a44e63da9072df08a", "lat": 38.9170995}, {"type": "electric_scooter", "rental_uris": {"android": "https://dc.lft.to/lastmile_qr_scan", "ios": "https://dc.lft.to/lastmile_qr_scan"}, "fusion_lat": 0.0, "name": "1a83a6f2a359e77497dd7580f5997d42", "lon": -77.03263433333333, "is_disabled": 0, "is_reserved": 0, "fusion_lon": 0.0, "bike_id": "1a83a6f2a359e77497dd7580f5997d42", "lat": 38.932591333333335}, {"type": "electric_bike", "rental_uris": {"android": "https://dc.lft.to/lastmile_qr_scan", "ios": "https://dc.lft.to/lastmile_qr_scan"}, "fusion_lat": 0.0, "name": "00f7a269d6e9173967168ec4fc1b1376", "lon": -77.0283605, "is_disabled": 0, "is_reserved": 0, "fusion_lon": 0.0, "bike_id": "00f7a269d6e9173967168ec4fc1b1376", "lat": 38.92138516666667}, {"type": "electric_scooter", "rental_uris": {"android": "https://dc.lft.to/lastmile_qr_scan", "ios": "https://dc.lft.to/lastmile_qr_scan"}, "fusion_lat": 0.0, "name": "048d4322dcd5755b288acc47e02dfc3c", "lon": -77.07936833333333, "is_disabled": 0, "is_reserved": 0, "fusion_lon": 0.0, "bike_id": "048d4322dcd5755b288acc47e02dfc3c", "lat": 38.93116916666666}, {"type": "electric_scooter", "rental_uris": {"android": "https://dc.lft.to/lastmile_qr_scan", "ios": "https://dc.lft.to/lastmile_qr_scan"}, "fusion_lat": 0.0, "name": "4329aed1d3a2d405e0232268eac40373", "lon": -77.0326725, "is_disabled": 0, "is_reserved": 0, "fusion_lon": 0.0, "bike_id": "4329aed1d3a2d405e0232268eac40373", "lat": 38.919293}, {"type": "electric_scooter", "rental_uris": {"android": "https://dc.lft.to/lastmile_qr_scan", "ios": "https://dc.lft.to/lastmile_qr_scan"}, "fusion_lat": 0.0, "name": "d0c20470e3538d638ca767311929be9b", "lon": -77.07073683333333, "is_disabled": 0, "is_reserved": 0, "fusion_lon": 0.0, "bike_id": "d0c20470e3538d638ca767311929be9b", "lat": 38.9317385}, {"type": "electric_scooter", "rental_uris": {"android": "https://dc.lft.to/lastmile_qr_scan", "ios": "https://dc.lft.to/lastmile_qr_scan"}, "fusion_lat": 0.0, "name": "99b1b0eff26c033a50fd723a1cd98e51", "lon": -76.93766133333334, "is_disabled": 0, "is_reserved": 0, "fusion_lon": 0.0, "bike_id": "99b1b0eff26c033a50fd723a1cd98e51", "lat": 38.8904875}, {"type": "electric_scooter", "rental_uris": {"android": "https://dc.lft.to/lastmile_qr_scan", "ios": "https://dc.lft.to/lastmile_qr_scan"}, "fusion_lat": 0.0, "name": "e229ec0e0020fda18bae47fb034e8a6a", "lon": -77.02397683333334, "is_disabled": 0, "is_reserved": 0, "fusion_lon": 0.0, "bike_id": "e229ec0e0020fda18bae47fb034e8a6a", "lat": 38.914178666666665}, {"type": "electric_scooter", "rental_uris": {"android": "https://dc.lft.to/lastmile_qr_scan", "ios": "https://dc.lft.to/lastmile_qr_scan"}, "fusion_lat": 0.0, "name": "837f9bb96d0be1b749abe73a9e73f708", "lon": -77.03873816666666, "is_disabled": 0, "is_reserved": 0, "fusion_lon": 0.0, "bike_id": "837f9bb96d0be1b749abe73a9e73f708", "lat": 38.9170015}, {"type": "electric_scooter", "rental_uris": {"android": "https://dc.lft.to/lastmile_qr_scan", "ios": "https://dc.lft.to/lastmile_qr_scan"}, "fusion_lat": 0.0, "name": "8d9f10896878cc35428379ad0f1d4f4e", "lon": -77.02707883333333, "is_disabled": 0, "is_reserved": 0, "fusion_lon": 0.0, "bike_id": "8d9f10896878cc35428379ad0f1d4f4e", "lat": 38.906678166666666}, {"type": "electric_scooter", "rental_uris": {"android": "https://dc.lft.to/lastmile_qr_scan", "ios": "https://dc.lft.to/lastmile_qr_scan"}, "fusion_lat": 0.0, "name": "9b1925d84088c0edc537757084d216f8", "lon": -77.00973783333333, "is_disabled": 0, "is_reserved": 0, "fusion_lon": 0.0, "bike_id": "9b1925d84088c0edc537757084d216f8", "lat": 38.91406633333333}, {"type": "electric_scooter", "rental_uris": {"android": "https://dc.lft.to/lastmile_qr_scan", "ios": "https://dc.lft.to/lastmile_qr_scan"}, "fusion_lat": 0.0, "name": "afbf704234a7c6ea949aa8260c8f0b02", "lon": -77.02158766666666, "is_disabled": 0, "is_reserved": 0, "fusion_lon": 0.0, "bike_id": "afbf704234a7c6ea949aa8260c8f0b02", "lat": 38.89980166666667}, {"type": "electric_scooter", "rental_uris": {"android": "https://dc.lft.to/lastmile_qr_scan", "ios": "https://dc.lft.to/lastmile_qr_scan"}, "fusion_lat": 0.0, "name": "494302f9b70a5f9a846d784ddeb81051", "lon": -77.03220433333334, "is_disabled": 0, "is_reserved": 0, "fusion_lon": 0.0, "bike_id": "494302f9b70a5f9a846d784ddeb81051", "lat": 38.91636033333333}, {"type": "electric_scooter", "rental_uris": {"android": "https://dc.lft.to/lastmile_qr_scan", "ios": "https://dc.lft.to/lastmile_qr_scan"}, "fusion_lat": 0.0, "name": "251675e9cfef2cadae6a024bd4aa48b3", "lon": -77.02817, "is_disabled": 0, "is_reserved": 0, "fusion_lon": 0.0, "bike_id": "251675e9cfef2cadae6a024bd4aa48b3", "lat": 38.916869166666665}, {"type": "electric_scooter", "rental_uris": {"android": "https://dc.lft.to/lastmile_qr_scan", "ios": "https://dc.lft.to/lastmile_qr_scan"}, "fusion_lat": 0.0, "name": "a8d46039dd8ccc416df4e533611742a3", "lon": -77.04484333333333, "is_disabled": 0, "is_reserved": 0, "fusion_lon": 0.0, "bike_id": "a8d46039dd8ccc416df4e533611742a3", "lat": 38.92425333333333}, {"type": "electric_scooter", "rental_uris": {"android": "https://dc.lft.to/lastmile_qr_scan", "ios": "https://dc.lft.to/lastmile_qr_scan"}, "fusion_lat": 0.0, "name": "a399edef1d3cf79789aa935b068197c7", "lon": -76.985311, "is_disabled": 0, "is_reserved": 0, "fusion_lon": 0.0, "bike_id": "a399edef1d3cf79789aa935b068197c7", "lat": 38.85361183333333}, {"type": "electric_bike", "rental_uris": {"android": "https://dc.lft.to/lastmile_qr_scan", "ios": "https://dc.lft.to/lastmile_qr_scan"}, "fusion_lat": 0.0, "name": "93a5684ae9c912e36083835f080f5a2f", "lon": -77.23327433333333, "is_disabled": 0, "is_reserved": 0, "fusion_lon": 0.0, "bike_id": "93a5684ae9c912e36083835f080f5a2f", "lat": 38.872812}, {"type": "electric_scooter", "rental_uris": {"android": "https://dc.lft.to/lastmile_qr_scan", "ios": "https://dc.lft.to/lastmile_qr_scan"}, "fusion_lat": 0.0, "name": "fe044d9e3ece423628d554e3f1643501", "lon": -77.043139, "is_disabled": 0, "is_reserved": 0, "fusion_lon": 0.0, "bike_id": "fe044d9e3ece423628d554e3f1643501", "lat": 38.91880233333333}, {"type": "electric_scooter", "rental_uris": {"android": "https://dc.lft.to/lastmile_qr_scan", "ios": "https://dc.lft.to/lastmile_qr_scan"}, "fusion_lat": 0.0, "name": "485ab5c93942742125e52f51d0d74eeb", "lon": -77.0485785, "is_disabled": 0, "is_reserved": 0, "fusion_lon": 0.0, "bike_id": "485ab5c93942742125e52f51d0d74eeb", "lat": 38.90555833333333}, {"type": "electric_scooter", "rental_uris": {"android": "https://dc.lft.to/lastmile_qr_scan", "ios": "https://dc.lft.to/lastmile_qr_scan"}, "fusion_lat": 0.0, "name": "fd6a4b7a916cd7308572df64ca3e7235", "lon": -76.93754466666667, "is_disabled": 0, "is_reserved": 0, "fusion_lon": 0.0, "bike_id": "fd6a4b7a916cd7308572df64ca3e7235", "lat": 38.890471833333336}, {"type": "electric_scooter", "rental_uris": {"android": "https://dc.lft.to/lastmile_qr_scan", "ios": "https://dc.lft.to/lastmile_qr_scan"}, "fusion_lat": 0.0, "name": "5baac67a6d9792a75e84d9e5efd67cfb", "lon": -77.02882566666666, "is_disabled": 0, "is_reserved": 0, "fusion_lon": 0.0, "bike_id": "5baac67a6d9792a75e84d9e5efd67cfb", "lat": 38.904267}, {"type": "electric_scooter", "rental_uris": {"android": "https://dc.lft.to/lastmile_qr_scan", "ios": "https://dc.lft.to/lastmile_qr_scan"}, "fusion_lat": 0.0, "name": "01ae20d47f32c06e3773321e2ae32a37", "lon": -77.04623766666667, "is_disabled": 0, "is_reserved": 0, "fusion_lon": 0.0, "bike_id": "01ae20d47f32c06e3773321e2ae32a37", "lat": 38.9231665}, {"type": "electric_scooter", "rental_uris": {"android": "https://dc.lft.to/lastmile_qr_scan", "ios": "https://dc.lft.to/lastmile_qr_scan"}, "fusion_lat": 0.0, "name": "22ef7f32afadc3906aab3b12c98361ce", "lon": -77.02611833333333, "is_disabled": 0, "is_reserved": 0, "fusion_lon": 0.0, "bike_id": "22ef7f32afadc3906aab3b12c98361ce", "lat": 38.91413466666667}, {"type": "electric_scooter", "rental_uris": {"android": "https://dc.lft.to/lastmile_qr_scan", "ios": "https://dc.lft.to/lastmile_qr_scan"}, "fusion_lat": 0.0, "name": "a2059b0194b5b382deb87a115bd0f473", "lon": -77.0089455, "is_disabled": 0, "is_reserved": 0, "fusion_lon": 0.0, "bike_id": "a2059b0194b5b382deb87a115bd0f473", "lat": 38.922790166666665}, {"type": "electric_scooter", "rental_uris": {"android": "https://dc.lft.to/lastmile_qr_scan", "ios": "https://dc.lft.to/lastmile_qr_scan"}, "fusion_lat": 0.0, "name": "63ba1af71a94e23e476e235ceef0020e", "lon": -77.02132316666666, "is_disabled": 0, "is_reserved": 0, "fusion_lon": 0.0, "bike_id": "63ba1af71a94e23e476e235ceef0020e", "lat": 38.9241625}, {"type": "electric_scooter", "rental_uris": {"android": "https://dc.lft.to/lastmile_qr_scan", "ios": "https://dc.lft.to/lastmile_qr_scan"}, "fusion_lat": 0.0, "name": "75e4cf413bb2c6855ff5e725624bbe4e", "lon": -77.031883, "is_disabled": 0, "is_reserved": 0, "fusion_lon": 0.0, "bike_id": "75e4cf413bb2c6855ff5e725624bbe4e", "lat": 38.903506}, {"type": "electric_bike", "rental_uris": {"android": "https://dc.lft.to/lastmile_qr_scan", "ios": "https://dc.lft.to/lastmile_qr_scan"}, "fusion_lat": 0.0, "name": "39aa056850ee2481c6e068819b0c5738", "lon": -77.23318683333333, "is_disabled": 0, "is_reserved": 0, "fusion_lon": 0.0, "bike_id": "39aa056850ee2481c6e068819b0c5738", "lat": 38.872856166666665}, {"type": "electric_bike", "rental_uris": {"android": "https://dc.lft.to/lastmile_qr_scan", "ios": "https://dc.lft.to/lastmile_qr_scan"}, "fusion_lat": 0.0, "name": "ddf3d9fe1fb63a9defaff623b44e1c69", "lon": -76.97301066666667, "is_disabled": 0, "is_reserved": 0, "fusion_lon": 0.0, "bike_id": "ddf3d9fe1fb63a9defaff623b44e1c69", "lat": 38.91647416666667}, {"type": "electric_scooter", "rental_uris": {"android": "https://dc.lft.to/lastmile_qr_scan", "ios": "https://dc.lft.to/lastmile_qr_scan"}, "fusion_lat": 0.0, "name": "43399a39ef380f3b90dbdf9076a03259", "lon": -77.027043, "is_disabled": 0, "is_reserved": 0, "fusion_lon": 0.0, "bike_id": "43399a39ef380f3b90dbdf9076a03259", "lat": 38.92778066666666}, {"type": "electric_scooter", "rental_uris": {"android": "https://dc.lft.to/lastmile_qr_scan", "ios": "https://dc.lft.to/lastmile_qr_scan"}, "fusion_lat": 0.0, "name": "b777a9edd305ba901b986648c4b0b9cf", "lon": -77.046149, "is_disabled": 0, "is_reserved": 0, "fusion_lon": 0.0, "bike_id": "b777a9edd305ba901b986648c4b0b9cf", "lat": 38.8974365}, {"type": "electric_bike", "rental_uris": {"android": "https://dc.lft.to/lastmile_qr_scan", "ios": "https://dc.lft.to/lastmile_qr_scan"}, "fusion_lat": 0.0, "name": "133d2b81509d4548bab4cf5b64184567", "lon": -76.90612183333333, "is_disabled": 0, "is_reserved": 0, "fusion_lon": 0.0, "bike_id": "133d2b81509d4548bab4cf5b64184567", "lat": 39.00461}, {"type": "electric_scooter", "rental_uris": {"android": "https://dc.lft.to/lastmile_qr_scan", "ios": "https://dc.lft.to/lastmile_qr_scan"}, "fusion_lat": 0.0, "name": "6e1bbfa68bc212cacc15afd143fc5689", "lon": -77.0059485, "is_disabled": 0, "is_reserved": 0, "fusion_lon": 0.0, "bike_id": "6e1bbfa68bc212cacc15afd143fc5689", "lat": 38.885235}, {"type": "electric_scooter", "rental_uris": {"android": "https://dc.lft.to/lastmile_qr_scan", "ios": "https://dc.lft.to/lastmile_qr_scan"}, "fusion_lat": 0.0, "name": "e1b2d6c9de73cfe67b76472d0e413829", "lon": -77.036362, "is_disabled": 0, "is_reserved": 0, "fusion_lon": 0.0, "bike_id": "e1b2d6c9de73cfe67b76472d0e413829", "lat": 38.90379633333333}, {"type": "electric_scooter", "rental_uris": {"android": "https://dc.lft.to/lastmile_qr_scan", "ios": "https://dc.lft.to/lastmile_qr_scan"}, "fusion_lat": 0.0, "name": "4757eabcf1a79d8a3f4c4342b28ba4a9", "lon": -77.041839, "is_disabled": 0, "is_reserved": 0, "fusion_lon": 0.0, "bike_id": "4757eabcf1a79d8a3f4c4342b28ba4a9", "lat": 38.916540166666664}, {"type": "electric_bike", "rental_uris": {"android": "https://dc.lft.to/lastmile_qr_scan", "ios": "https://dc.lft.to/lastmile_qr_scan"}, "fusion_lat": 0.0, "name": "0106f3ae4e2e08c1b5b2bedf9cb79472", "lon": -77.36088883333333, "is_disabled": 0, "is_reserved": 0, "fusion_lon": 0.0, "bike_id": "0106f3ae4e2e08c1b5b2bedf9cb79472", "lat": 38.9395345}, {"type": "electric_scooter", "rental_uris": {"android": "https://dc.lft.to/lastmile_qr_scan", "ios": "https://dc.lft.to/lastmile_qr_scan"}, "fusion_lat": 0.0, "name": "1430737d3992c3e9d76d242fd6056b9c", "lon": -77.00211516666667, "is_disabled": 0, "is_reserved": 0, "fusion_lon": 0.0, "bike_id": "1430737d3992c3e9d76d242fd6056b9c", "lat": 38.8812945}, {"type": "electric_scooter", "rental_uris": {"android": "https://dc.lft.to/lastmile_qr_scan", "ios": "https://dc.lft.to/lastmile_qr_scan"}, "fusion_lat": 0.0, "name": "7844813f73fad6de388dbade967aa22b", "lon": -77.03879966666666, "is_disabled": 0, "is_reserved": 0, "fusion_lon": 0.0, "bike_id": "7844813f73fad6de388dbade967aa22b", "lat": 38.902776833333334}, {"type": "electric_scooter", "rental_uris": {"android": "https://dc.lft.to/lastmile_qr_scan", "ios": "https://dc.lft.to/lastmile_qr_scan"}, "fusion_lat": 0.0, "name": "457e25ed629d27a952d689f23f238b2d", "lon": -77.02392933333333, "is_disabled": 0, "is_reserved": 0, "fusion_lon": 0.0, "bike_id": "457e25ed629d27a952d689f23f238b2d", "lat": 38.9058065}, {"type": "electric_scooter", "rental_uris": {"android": "https://dc.lft.to/lastmile_qr_scan", "ios": "https://dc.lft.to/lastmile_qr_scan"}, "fusion_lat": 0.0, "name": "2045f75ced3d01148df4348b1c540b1d", "lon": -77.03152016666667, "is_disabled": 0, "is_reserved": 0, "fusion_lon": 0.0, "bike_id": "2045f75ced3d01148df4348b1c540b1d", "lat": 38.88745683333333}, {"type": "electric_scooter", "rental_uris": {"android": "https://dc.lft.to/lastmile_qr_scan", "ios": "https://dc.lft.to/lastmile_qr_scan"}, "fusion_lat": 0.0, "name": "cad7909fe084ee8ab27b41e8f106d2cf", "lon": -76.986161, "is_disabled": 0, "is_reserved": 0, "fusion_lon": 0.0, "bike_id": "cad7909fe084ee8ab27b41e8f106d2cf", "lat": 38.9383085}, {"type": "electric_bike", "rental_uris": {"android": "https://dc.lft.to/lastmile_qr_scan", "ios": "https://dc.lft.to/lastmile_qr_scan"}, "fusion_lat": 0.0, "name": "4703635d56428fb1b1b6645613465a61", "lon": -76.97702883333334, "is_disabled": 0, "is_reserved": 0, "fusion_lon": 0.0, "bike_id": "4703635d56428fb1b1b6645613465a61", "lat": 38.949144}, {"type": "electric_scooter", "rental_uris": {"android": "https://dc.lft.to/lastmile_qr_scan", "ios": "https://dc.lft.to/lastmile_qr_scan"}, "fusion_lat": 0.0, "name": "1f92ad1af82e7c688b0565ea829fe15d", "lon": -77.01673933333333, "is_disabled": 0, "is_reserved": 0, "fusion_lon": 0.0, "bike_id": "1f92ad1af82e7c688b0565ea829fe15d", "lat": 38.90117516666667}, {"type": "electric_scooter", "rental_uris": {"android": "https://dc.lft.to/lastmile_qr_scan", "ios": "https://dc.lft.to/lastmile_qr_scan"}, "fusion_lat": 0.0, "name": "fed796dc284815ef6da961f3e00248bd", "lon": -77.02407133333334, "is_disabled": 0, "is_reserved": 0, "fusion_lon": 0.0, "bike_id": "fed796dc284815ef6da961f3e00248bd", "lat": 38.9142235}, {"type": "electric_scooter", "rental_uris": {"android": "https://dc.lft.to/lastmile_qr_scan", "ios": "https://dc.lft.to/lastmile_qr_scan"}, "fusion_lat": 0.0, "name": "fc94182e71ebc598ed74f3400d0a54ed", "lon": -77.05032133333333, "is_disabled": 0, "is_reserved": 0, "fusion_lon": 0.0, "bike_id": "fc94182e71ebc598ed74f3400d0a54ed", "lat": 38.92388416666667}, {"type": "electric_scooter", "rental_uris": {"android": "https://dc.lft.to/lastmile_qr_scan", "ios": "https://dc.lft.to/lastmile_qr_scan"}, "fusion_lat": 0.0, "name": "16c77e1af75ad367283c0bc84fd4cee3", "lon": -77.03456833333334, "is_disabled": 0, "is_reserved": 0, "fusion_lon": 0.0, "bike_id": "16c77e1af75ad367283c0bc84fd4cee3", "lat": 38.9080345}, {"type": "electric_bike", "rental_uris": {"android": "https://dc.lft.to/lastmile_qr_scan", "ios": "https://dc.lft.to/lastmile_qr_scan"}, "fusion_lat": 0.0, "name": "06fcd4511d5b41a2f76d98ef270093f2", "lon": -76.9353925, "is_disabled": 0, "is_reserved": 0, "fusion_lon": 0.0, "bike_id": "06fcd4511d5b41a2f76d98ef270093f2", "lat": 38.9555425}, {"type": "electric_scooter", "rental_uris": {"android": "https://dc.lft.to/lastmile_qr_scan", "ios": "https://dc.lft.to/lastmile_qr_scan"}, "fusion_lat": 0.0, "name": "be052b315b49fe422ebc0c2103327ab3", "lon": -77.02889483333334, "is_disabled": 0, "is_reserved": 0, "fusion_lon": 0.0, "bike_id": "be052b315b49fe422ebc0c2103327ab3", "lat": 38.89726}, {"type": "electric_scooter", "rental_uris": {"android": "https://dc.lft.to/lastmile_qr_scan", "ios": "https://dc.lft.to/lastmile_qr_scan"}, "fusion_lat": 0.0, "name": "b858c10858560ef5b8ec0f21ca1b4a70", "lon": -76.98518033333333, "is_disabled": 0, "is_reserved": 0, "fusion_lon": 0.0, "bike_id": "b858c10858560ef5b8ec0f21ca1b4a70", "lat": 38.86649466666667}, {"type": "electric_scooter", "rental_uris": {"android": "https://dc.lft.to/lastmile_qr_scan", "ios": "https://dc.lft.to/lastmile_qr_scan"}, "fusion_lat": 0.0, "name": "91d3a0dfc4aa526a5090a4b826d2dee6", "lon": -76.98557216666667, "is_disabled": 0, "is_reserved": 0, "fusion_lon": 0.0, "bike_id": "91d3a0dfc4aa526a5090a4b826d2dee6", "lat": 38.910371166666664}, {"type": "electric_scooter", "rental_uris": {"android": "https://dc.lft.to/lastmile_qr_scan", "ios": "https://dc.lft.to/lastmile_qr_scan"}, "fusion_lat": 0.0, "name": "c8ab5b89068f3760504930411b4b9332", "lon": -76.93027283333333, "is_disabled": 0, "is_reserved": 0, "fusion_lon": 0.0, "bike_id": "c8ab5b89068f3760504930411b4b9332", "lat": 38.9016735}, {"type": "electric_scooter", "rental_uris": {"android": "https://dc.lft.to/lastmile_qr_scan", "ios": "https://dc.lft.to/lastmile_qr_scan"}, "fusion_lat": 0.0, "name": "76c330a5f7cc3caeb0336293b9825fbb", "lon": -77.03962533333333, "is_disabled": 0, "is_reserved": 0, "fusion_lon": 0.0, "bike_id": "76c330a5f7cc3caeb0336293b9825fbb", "lat": 38.897224333333334}, {"type": "electric_scooter", "rental_uris": {"android": "https://dc.lft.to/lastmile_qr_scan", "ios": "https://dc.lft.to/lastmile_qr_scan"}, "fusion_lat": 0.0, "name": "b0ad8b15a89707ae63ba58d5c3ab6e6c", "lon": -77.02962466666666, "is_disabled": 0, "is_reserved": 0, "fusion_lon": 0.0, "bike_id": "b0ad8b15a89707ae63ba58d5c3ab6e6c", "lat": 38.923192666666665}, {"type": "electric_scooter", "rental_uris": {"android": "https://dc.lft.to/lastmile_qr_scan", "ios": "https://dc.lft.to/lastmile_qr_scan"}, "fusion_lat": 0.0, "name": "6015974b8239e27c71a913bf0fec1ddb", "lon": -77.0058465, "is_disabled": 0, "is_reserved": 0, "fusion_lon": 0.0, "bike_id": "6015974b8239e27c71a913bf0fec1ddb", "lat": 38.909266}, {"type": "electric_scooter", "rental_uris": {"android": "https://dc.lft.to/lastmile_qr_scan", "ios": "https://dc.lft.to/lastmile_qr_scan"}, "fusion_lat": 0.0, "name": "974abf0cabc40ea19ddb18c356c6b5a9", "lon": -77.02890333333333, "is_disabled": 0, "is_reserved": 0, "fusion_lon": 0.0, "bike_id": "974abf0cabc40ea19ddb18c356c6b5a9", "lat": 38.917063666666664}, {"type": "electric_scooter", "rental_uris": {"android": "https://dc.lft.to/lastmile_qr_scan", "ios": "https://dc.lft.to/lastmile_qr_scan"}, "fusion_lat": 0.0, "name": "0e6124c65ae61d5c7cb3434a7e0f13d6", "lon": -77.05150066666667, "is_disabled": 0, "is_reserved": 0, "fusion_lon": 0.0, "bike_id": "0e6124c65ae61d5c7cb3434a7e0f13d6", "lat": 38.90512366666667}, {"type": "electric_scooter", "rental_uris": {"android": "https://dc.lft.to/lastmile_qr_scan", "ios": "https://dc.lft.to/lastmile_qr_scan"}, "fusion_lat": 0.0, "name": "4b2d21a2f83cd667e02ac78aa7031aa9", "lon": -77.04326166666667, "is_disabled": 0, "is_reserved": 0, "fusion_lon": 0.0, "bike_id": "4b2d21a2f83cd667e02ac78aa7031aa9", "lat": 38.8922515}, {"type": "electric_scooter", "rental_uris": {"android": "https://dc.lft.to/lastmile_qr_scan", "ios": "https://dc.lft.to/lastmile_qr_scan"}, "fusion_lat": 0.0, "name": "f717b755a47775b828100424ba7f1fb6", "lon": -76.99793, "is_disabled": 0, "is_reserved": 0, "fusion_lon": 0.0, "bike_id": "f717b755a47775b828100424ba7f1fb6", "lat": 38.92179683333333}, {"type": "electric_scooter", "rental_uris": {"android": "https://dc.lft.to/lastmile_qr_scan", "ios": "https://dc.lft.to/lastmile_qr_scan"}, "fusion_lat": 0.0, "name": "ab6dd69c1e9579c9fbeb5e4bfb7102e2", "lon": -76.9552975, "is_disabled": 0, "is_reserved": 0, "fusion_lon": 0.0, "bike_id": "ab6dd69c1e9579c9fbeb5e4bfb7102e2", "lat": 38.88772766666666}, {"type": "electric_scooter", "rental_uris": {"android": "https://dc.lft.to/lastmile_qr_scan", "ios": "https://dc.lft.to/lastmile_qr_scan"}, "fusion_lat": 0.0, "name": "cd8c77d6cd9b5cac4e03f9e910096882", "lon": -77.00483016666666, "is_disabled": 0, "is_reserved": 0, "fusion_lon": 0.0, "bike_id": "cd8c77d6cd9b5cac4e03f9e910096882", "lat": 38.8747535}, {"type": "electric_bike", "rental_uris": {"android": "https://dc.lft.to/lastmile_qr_scan", "ios": "https://dc.lft.to/lastmile_qr_scan"}, "fusion_lat": 0.0, "name": "c09e38ad6e9ad0866c18f5a92fc2e7be", "lon": -76.99794866666667, "is_disabled": 0, "is_reserved": 0, "fusion_lon": 0.0, "bike_id": "c09e38ad6e9ad0866c18f5a92fc2e7be", "lat": 38.95643883333334}, {"type": "electric_scooter", "rental_uris": {"android": "https://dc.lft.to/lastmile_qr_scan", "ios": "https://dc.lft.to/lastmile_qr_scan"}, "fusion_lat": 0.0, "name": "53d19b7d46f884b111315ce5f41d5115", "lon": -77.03465783333333, "is_disabled": 0, "is_reserved": 0, "fusion_lon": 0.0, "bike_id": "53d19b7d46f884b111315ce5f41d5115", "lat": 38.918715666666664}, {"type": "electric_bike", "rental_uris": {"android": "https://dc.lft.to/lastmile_qr_scan", "ios": "https://dc.lft.to/lastmile_qr_scan"}, "fusion_lat": 0.0, "name": "a86036179de92d800f721b027ff45795", "lon": -76.9809255, "is_disabled": 0, "is_reserved": 0, "fusion_lon": 0.0, "bike_id": "a86036179de92d800f721b027ff45795", "lat": 38.92111766666667}, {"type": "electric_scooter", "rental_uris": {"android": "https://dc.lft.to/lastmile_qr_scan", "ios": "https://dc.lft.to/lastmile_qr_scan"}, "fusion_lat": 0.0, "name": "68604d7c8aefe4fe8520199a2866f66d", "lon": -77.0019045, "is_disabled": 0, "is_reserved": 0, "fusion_lon": 0.0, "bike_id": "68604d7c8aefe4fe8520199a2866f66d", "lat": 38.89477216666667}, {"type": "electric_scooter", "rental_uris": {"android": "https://dc.lft.to/lastmile_qr_scan", "ios": "https://dc.lft.to/lastmile_qr_scan"}, "fusion_lat": 0.0, "name": "6bae2a58647fc9bbd86069ddb835cc62", "lon": -77.00348216666667, "is_disabled": 0, "is_reserved": 0, "fusion_lon": 0.0, "bike_id": "6bae2a58647fc9bbd86069ddb835cc62", "lat": 38.886161}, {"type": "electric_bike", "rental_uris": {"android": "https://dc.lft.to/lastmile_qr_scan", "ios": "https://dc.lft.to/lastmile_qr_scan"}, "fusion_lat": 0.0, "name": "f5ee0ca337bd82b98fe873f15036ceae", "lon": -77.16625433333333, "is_disabled": 0, "is_reserved": 0, "fusion_lon": 0.0, "bike_id": "f5ee0ca337bd82b98fe873f15036ceae", "lat": 38.88842233333333}, {"type": "electric_scooter", "rental_uris": {"android": "https://dc.lft.to/lastmile_qr_scan", "ios": "https://dc.lft.to/lastmile_qr_scan"}, "fusion_lat": 0.0, "name": "436bd6a75133e31672ba32235bd7aeda", "lon": -77.028677, "is_disabled": 0, "is_reserved": 0, "fusion_lon": 0.0, "bike_id": "436bd6a75133e31672ba32235bd7aeda", "lat": 38.887403666666664}, {"type": "electric_scooter", "rental_uris": {"android": "https://dc.lft.to/lastmile_qr_scan", "ios": "https://dc.lft.to/lastmile_qr_scan"}, "fusion_lat": 0.0, "name": "f15125f3de68059e6ebf6baf60b1fcd0", "lon": -77.03182333333334, "is_disabled": 0, "is_reserved": 0, "fusion_lon": 0.0, "bike_id": "f15125f3de68059e6ebf6baf60b1fcd0", "lat": 38.91743966666667}, {"type": "electric_bike", "rental_uris": {"android": "https://dc.lft.to/lastmile_qr_scan", "ios": "https://dc.lft.to/lastmile_qr_scan"}, "fusion_lat": 0.0, "name": "03afa00ef63d999cd04ecbb8315371e1", "lon": -77.04688533333334, "is_disabled": 0, "is_reserved": 0, "fusion_lon": 0.0, "bike_id": "03afa00ef63d999cd04ecbb8315371e1", "lat": 39.02395666666666}, {"type": "electric_bike", "rental_uris": {"android": "https://dc.lft.to/lastmile_qr_scan", "ios": "https://dc.lft.to/lastmile_qr_scan"}, "fusion_lat": 0.0, "name": "fdf8b6f3793e9d5560066ae21e981615", "lon": -77.1116295, "is_disabled": 0, "is_reserved": 0, "fusion_lon": 0.0, "bike_id": "fdf8b6f3793e9d5560066ae21e981615", "lat": 38.8551045}, {"type": "electric_scooter", "rental_uris": {"android": "https://dc.lft.to/lastmile_qr_scan", "ios": "https://dc.lft.to/lastmile_qr_scan"}, "fusion_lat": 0.0, "name": "f07a6d9d5deebe42cc2d4be329761cf6", "lon": -77.04497866666667, "is_disabled": 0, "is_reserved": 0, "fusion_lon": 0.0, "bike_id": "f07a6d9d5deebe42cc2d4be329761cf6", "lat": 38.9184865}, {"type": "electric_bike", "rental_uris": {"android": "https://dc.lft.to/lastmile_qr_scan", "ios": "https://dc.lft.to/lastmile_qr_scan"}, "fusion_lat": 0.0, "name": "c1ced36dc56d08914bf07f1f85757ad8", "lon": -77.002232, "is_disabled": 0, "is_reserved": 0, "fusion_lon": 0.0, "bike_id": "c1ced36dc56d08914bf07f1f85757ad8", "lat": 38.8237425}, {"type": "electric_scooter", "rental_uris": {"android": "https://dc.lft.to/lastmile_qr_scan", "ios": "https://dc.lft.to/lastmile_qr_scan"}, "fusion_lat": 0.0, "name": "7691eb734bde8702e0b5fb415eb43d6d", "lon": -77.04261916666667, "is_disabled": 0, "is_reserved": 0, "fusion_lon": 0.0, "bike_id": "7691eb734bde8702e0b5fb415eb43d6d", "lat": 38.916973166666665}, {"type": "electric_scooter", "rental_uris": {"android": "https://dc.lft.to/lastmile_qr_scan", "ios": "https://dc.lft.to/lastmile_qr_scan"}, "fusion_lat": 0.0, "name": "775ea8ff9d8d0f85b2f72d7a4e19fb8f", "lon": -77.0122735, "is_disabled": 0, "is_reserved": 0, "fusion_lon": 0.0, "bike_id": "775ea8ff9d8d0f85b2f72d7a4e19fb8f", "lat": 38.871895}, {"type": "electric_scooter", "rental_uris": {"android": "https://dc.lft.to/lastmile_qr_scan", "ios": "https://dc.lft.to/lastmile_qr_scan"}, "fusion_lat": 0.0, "name": "240733daef2bce85a4d49190fd4aa2cd", "lon": -77.06462233333333, "is_disabled": 0, "is_reserved": 0, "fusion_lon": 0.0, "bike_id": "240733daef2bce85a4d49190fd4aa2cd", "lat": 38.92749083333333}, {"type": "electric_scooter", "rental_uris": {"android": "https://dc.lft.to/lastmile_qr_scan", "ios": "https://dc.lft.to/lastmile_qr_scan"}, "fusion_lat": 0.0, "name": "45b42fcf38db69d7a7f7265d6ae0f568", "lon": -77.04266516666667, "is_disabled": 0, "is_reserved": 0, "fusion_lon": 0.0, "bike_id": "45b42fcf38db69d7a7f7265d6ae0f568", "lat": 38.92309733333333}, {"type": "electric_scooter", "rental_uris": {"android": "https://dc.lft.to/lastmile_qr_scan", "ios": "https://dc.lft.to/lastmile_qr_scan"}, "fusion_lat": 0.0, "name": "7f6a9cd85fdfb5999403013eefd45f6c", "lon": -77.031923, "is_disabled": 0, "is_reserved": 0, "fusion_lon": 0.0, "bike_id": "7f6a9cd85fdfb5999403013eefd45f6c", "lat": 38.917437666666665}, {"type": "electric_scooter", "rental_uris": {"android": "https://dc.lft.to/lastmile_qr_scan", "ios": "https://dc.lft.to/lastmile_qr_scan"}, "fusion_lat": 0.0, "name": "3c678ba05d505394165dcf7cd5138ea2", "lon": -76.9736585, "is_disabled": 0, "is_reserved": 0, "fusion_lon": 0.0, "bike_id": "3c678ba05d505394165dcf7cd5138ea2", "lat": 38.865522166666665}, {"type": "electric_scooter", "rental_uris": {"android": "https://dc.lft.to/lastmile_qr_scan", "ios": "https://dc.lft.to/lastmile_qr_scan"}, "fusion_lat": 0.0, "name": "7c33ffc06226640344adc9e949712025", "lon": -76.9823085, "is_disabled": 0, "is_reserved": 0, "fusion_lon": 0.0, "bike_id": "7c33ffc06226640344adc9e949712025", "lat": 38.88646683333333}, {"type": "electric_scooter", "rental_uris": {"android": "https://dc.lft.to/lastmile_qr_scan", "ios": "https://dc.lft.to/lastmile_qr_scan"}, "fusion_lat": 0.0, "name": "53b436a2833b3c03fdb45453493beeb7", "lon": -77.04552666666666, "is_disabled": 0, "is_reserved": 0, "fusion_lon": 0.0, "bike_id": "53b436a2833b3c03fdb45453493beeb7", "lat": 38.912717}, {"type": "electric_scooter", "rental_uris": {"android": "https://dc.lft.to/lastmile_qr_scan", "ios": "https://dc.lft.to/lastmile_qr_scan"}, "fusion_lat": 0.0, "name": "b8b3eea992e14d091d8324560049b9e6", "lon": -77.000564, "is_disabled": 0, "is_reserved": 0, "fusion_lon": 0.0, "bike_id": "b8b3eea992e14d091d8324560049b9e6", "lat": 38.876703}, {"type": "electric_scooter", "rental_uris": {"android": "https://dc.lft.to/lastmile_qr_scan", "ios": "https://dc.lft.to/lastmile_qr_scan"}, "fusion_lat": 0.0, "name": "674ec5b7517e3d374a9b5b9ee77a5833", "lon": -77.03490883333333, "is_disabled": 0, "is_reserved": 0, "fusion_lon": 0.0, "bike_id": "674ec5b7517e3d374a9b5b9ee77a5833", "lat": 38.9248335}, {"type": "electric_scooter", "rental_uris": {"android": "https://dc.lft.to/lastmile_qr_scan", "ios": "https://dc.lft.to/lastmile_qr_scan"}, "fusion_lat": 0.0, "name": "3650973d2000e2a2f639768f91c5c5d8", "lon": -77.0344095, "is_disabled": 0, "is_reserved": 0, "fusion_lon": 0.0, "bike_id": "3650973d2000e2a2f639768f91c5c5d8", "lat": 38.91808483333333}, {"type": "electric_scooter", "rental_uris": {"android": "https://dc.lft.to/lastmile_qr_scan", "ios": "https://dc.lft.to/lastmile_qr_scan"}, "fusion_lat": 0.0, "name": "96f63946f60ec19f1b67d2880c30b2de", "lon": -76.9835855, "is_disabled": 0, "is_reserved": 0, "fusion_lon": 0.0, "bike_id": "96f63946f60ec19f1b67d2880c30b2de", "lat": 38.9149685}, {"type": "electric_scooter", "rental_uris": {"android": "https://dc.lft.to/lastmile_qr_scan", "ios": "https://dc.lft.to/lastmile_qr_scan"}, "fusion_lat": 0.0, "name": "1bf57f7f75780d7f0a9ca55ac9a9641e", "lon": -77.0158415, "is_disabled": 0, "is_reserved": 0, "fusion_lon": 0.0, "bike_id": "1bf57f7f75780d7f0a9ca55ac9a9641e", "lat": 38.88614316666666}, {"type": "electric_scooter", "rental_uris": {"android": "https://dc.lft.to/lastmile_qr_scan", "ios": "https://dc.lft.to/lastmile_qr_scan"}, "fusion_lat": 0.0, "name": "9f7fcfb64f116be94c7762846ac713f1", "lon": -77.00201883333334, "is_disabled": 0, "is_reserved": 0, "fusion_lon": 0.0, "bike_id": "9f7fcfb64f116be94c7762846ac713f1", "lat": 38.9023695}, {"type": "electric_scooter", "rental_uris": {"android": "https://dc.lft.to/lastmile_qr_scan", "ios": "https://dc.lft.to/lastmile_qr_scan"}, "fusion_lat": 0.0, "name": "b940ef9908a27bce30bdff7a44a31e8f", "lon": -77.03353016666667, "is_disabled": 0, "is_reserved": 0, "fusion_lon": 0.0, "bike_id": "b940ef9908a27bce30bdff7a44a31e8f", "lat": 38.9026805}, {"type": "electric_bike", "rental_uris": {"android": "https://dc.lft.to/lastmile_qr_scan", "ios": "https://dc.lft.to/lastmile_qr_scan"}, "fusion_lat": 0.0, "name": "705e83d9bf6a7e34f69e1c4f07229362", "lon": -76.995768, "is_disabled": 0, "is_reserved": 0, "fusion_lon": 0.0, "bike_id": "705e83d9bf6a7e34f69e1c4f07229362", "lat": 38.852928}, {"type": "electric_scooter", "rental_uris": {"android": "https://dc.lft.to/lastmile_qr_scan", "ios": "https://dc.lft.to/lastmile_qr_scan"}, "fusion_lat": 0.0, "name": "a5f90dcb130e6f006e76dcb22bc5c47a", "lon": -77.04148583333334, "is_disabled": 0, "is_reserved": 0, "fusion_lon": 0.0, "bike_id": "a5f90dcb130e6f006e76dcb22bc5c47a", "lat": 38.92352783333333}, {"type": "electric_scooter", "rental_uris": {"android": "https://dc.lft.to/lastmile_qr_scan", "ios": "https://dc.lft.to/lastmile_qr_scan"}, "fusion_lat": 0.0, "name": "3b4d25ac8ca6c8be747904fc52c2809a", "lon": -76.998365, "is_disabled": 0, "is_reserved": 0, "fusion_lon": 0.0, "bike_id": "3b4d25ac8ca6c8be747904fc52c2809a", "lat": 38.900022166666666}, {"type": "electric_scooter", "rental_uris": {"android": "https://dc.lft.to/lastmile_qr_scan", "ios": "https://dc.lft.to/lastmile_qr_scan"}, "fusion_lat": 0.0, "name": "884522e1a25554718160cfa207a80036", "lon": -77.02971483333333, "is_disabled": 0, "is_reserved": 0, "fusion_lon": 0.0, "bike_id": "884522e1a25554718160cfa207a80036", "lat": 38.91682733333333}, {"type": "electric_scooter", "rental_uris": {"android": "https://dc.lft.to/lastmile_qr_scan", "ios": "https://dc.lft.to/lastmile_qr_scan"}, "fusion_lat": 0.0, "name": "ae3b1426243395ee83e5f6d1bc95ae55", "lon": -77.0093515, "is_disabled": 0, "is_reserved": 0, "fusion_lon": 0.0, "bike_id": "ae3b1426243395ee83e5f6d1bc95ae55", "lat": 38.883123166666664}, {"type": "electric_scooter", "rental_uris": {"android": "https://dc.lft.to/lastmile_qr_scan", "ios": "https://dc.lft.to/lastmile_qr_scan"}, "fusion_lat": 0.0, "name": "1b455478b954d498a8c8d5e51b770ebc", "lon": -77.0246895, "is_disabled": 0, "is_reserved": 0, "fusion_lon": 0.0, "bike_id": "1b455478b954d498a8c8d5e51b770ebc", "lat": 38.93300416666666}, {"type": "electric_scooter", "rental_uris": {"android": "https://dc.lft.to/lastmile_qr_scan", "ios": "https://dc.lft.to/lastmile_qr_scan"}, "fusion_lat": 0.0, "name": "9e613470cfb35bc62d66e0629e7360f7", "lon": -77.00917783333334, "is_disabled": 0, "is_reserved": 0, "fusion_lon": 0.0, "bike_id": "9e613470cfb35bc62d66e0629e7360f7", "lat": 38.8956915}, {"type": "electric_scooter", "rental_uris": {"android": "https://dc.lft.to/lastmile_qr_scan", "ios": "https://dc.lft.to/lastmile_qr_scan"}, "fusion_lat": 0.0, "name": "8fbaeba0a48ccd16f2d0a6087a909a40", "lon": -77.04111333333333, "is_disabled": 0, "is_reserved": 0, "fusion_lon": 0.0, "bike_id": "8fbaeba0a48ccd16f2d0a6087a909a40", "lat": 38.92801016666667}, {"type": "electric_scooter", "rental_uris": {"android": "https://dc.lft.to/lastmile_qr_scan", "ios": "https://dc.lft.to/lastmile_qr_scan"}, "fusion_lat": 0.0, "name": "1c04ac86a50e06b882259811471504c4", "lon": -77.02187333333333, "is_disabled": 0, "is_reserved": 0, "fusion_lon": 0.0, "bike_id": "1c04ac86a50e06b882259811471504c4", "lat": 38.91707366666667}, {"type": "electric_scooter", "rental_uris": {"android": "https://dc.lft.to/lastmile_qr_scan", "ios": "https://dc.lft.to/lastmile_qr_scan"}, "fusion_lat": 0.0, "name": "9f3d58933b76cd601198c7c7a1b21b3a", "lon": -77.0273225, "is_disabled": 0, "is_reserved": 0, "fusion_lon": 0.0, "bike_id": "9f3d58933b76cd601198c7c7a1b21b3a", "lat": 38.897397833333336}, {"type": "electric_scooter", "rental_uris": {"android": "https://dc.lft.to/lastmile_qr_scan", "ios": "https://dc.lft.to/lastmile_qr_scan"}, "fusion_lat": 0.0, "name": "4921ba84f301765df177c0296e05df86", "lon": -77.04014416666666, "is_disabled": 0, "is_reserved": 0, "fusion_lon": 0.0, "bike_id": "4921ba84f301765df177c0296e05df86", "lat": 38.918382333333334}, {"type": "electric_bike", "rental_uris": {"android": "https://dc.lft.to/lastmile_qr_scan", "ios": "https://dc.lft.to/lastmile_qr_scan"}, "fusion_lat": 0.0, "name": "1dd489d0160bb3629621a320f142d6f0", "lon": -77.1170935, "is_disabled": 0, "is_reserved": 0, "fusion_lon": 0.0, "bike_id": "1dd489d0160bb3629621a320f142d6f0", "lat": 38.86747166666667}, {"type": "electric_scooter", "rental_uris": {"android": "https://dc.lft.to/lastmile_qr_scan", "ios": "https://dc.lft.to/lastmile_qr_scan"}, "fusion_lat": 0.0, "name": "1b403f51ac49658c847cba73a4695def", "lon": -77.0074125, "is_disabled": 0, "is_reserved": 0, "fusion_lon": 0.0, "bike_id": "1b403f51ac49658c847cba73a4695def", "lat": 38.89818666666667}, {"type": "electric_scooter", "rental_uris": {"android": "https://dc.lft.to/lastmile_qr_scan", "ios": "https://dc.lft.to/lastmile_qr_scan"}, "fusion_lat": 0.0, "name": "c17455b4f4dd9ab9dfd142adac64ec3b", "lon": -77.02414083333333, "is_disabled": 0, "is_reserved": 0, "fusion_lon": 0.0, "bike_id": "c17455b4f4dd9ab9dfd142adac64ec3b", "lat": 38.917057166666666}, {"type": "electric_scooter", "rental_uris": {"android": "https://dc.lft.to/lastmile_qr_scan", "ios": "https://dc.lft.to/lastmile_qr_scan"}, "fusion_lat": 0.0, "name": "bf797f6980c0ca40ad536e47657fb50b", "lon": -77.026156, "is_disabled": 0, "is_reserved": 0, "fusion_lon": 0.0, "bike_id": "bf797f6980c0ca40ad536e47657fb50b", "lat": 38.89863366666667}, {"type": "electric_scooter", "rental_uris": {"android": "https://dc.lft.to/lastmile_qr_scan", "ios": "https://dc.lft.to/lastmile_qr_scan"}, "fusion_lat": 0.0, "name": "230438beb19b9c9617531b847d95336c", "lon": -77.02004866666667, "is_disabled": 0, "is_reserved": 0, "fusion_lon": 0.0, "bike_id": "230438beb19b9c9617531b847d95336c", "lat": 38.894394166666665}, {"type": "electric_scooter", "rental_uris": {"android": "https://dc.lft.to/lastmile_qr_scan", "ios": "https://dc.lft.to/lastmile_qr_scan"}, "fusion_lat": 0.0, "name": "b6c66863e42793d3de632e5f5df8b701", "lon": -77.03862083333334, "is_disabled": 0, "is_reserved": 0, "fusion_lon": 0.0, "bike_id": "b6c66863e42793d3de632e5f5df8b701", "lat": 38.903686666666665}, {"type": "electric_scooter", "rental_uris": {"android": "https://dc.lft.to/lastmile_qr_scan", "ios": "https://dc.lft.to/lastmile_qr_scan"}, "fusion_lat": 0.0, "name": "a0083c569b9056ccf9ff8b65df0de603", "lon": -77.04490333333334, "is_disabled": 0, "is_reserved": 0, "fusion_lon": 0.0, "bike_id": "a0083c569b9056ccf9ff8b65df0de603", "lat": 38.91313866666667}, {"type": "electric_scooter", "rental_uris": {"android": "https://dc.lft.to/lastmile_qr_scan", "ios": "https://dc.lft.to/lastmile_qr_scan"}, "fusion_lat": 0.0, "name": "77d031f57b2a94d434a1e19bc0a1443d", "lon": -77.00114816666667, "is_disabled": 0, "is_reserved": 0, "fusion_lon": 0.0, "bike_id": "77d031f57b2a94d434a1e19bc0a1443d", "lat": 38.875032833333336}, {"type": "electric_scooter", "rental_uris": {"android": "https://dc.lft.to/lastmile_qr_scan", "ios": "https://dc.lft.to/lastmile_qr_scan"}, "fusion_lat": 0.0, "name": "e308814251d57ae493e0782d672b7e0e", "lon": -77.0617485, "is_disabled": 0, "is_reserved": 0, "fusion_lon": 0.0, "bike_id": "e308814251d57ae493e0782d672b7e0e", "lat": 38.90258933333333}, {"type": "electric_bike", "rental_uris": {"android": "https://dc.lft.to/lastmile_qr_scan", "ios": "https://dc.lft.to/lastmile_qr_scan"}, "fusion_lat": 0.0, "name": "90be29f8c4f1cfcab41b931070e2aefc", "lon": -77.01535566666666, "is_disabled": 0, "is_reserved": 0, "fusion_lon": 0.0, "bike_id": "90be29f8c4f1cfcab41b931070e2aefc", "lat": 38.884832333333335}, {"type": "electric_bike", "rental_uris": {"android": "https://dc.lft.to/lastmile_qr_scan", "ios": "https://dc.lft.to/lastmile_qr_scan"}, "fusion_lat": 0.0, "name": "38f44e51c7272ba6a0b6cea652a0ccc5", "lon": -77.11261333333333, "is_disabled": 0, "is_reserved": 0, "fusion_lon": 0.0, "bike_id": "38f44e51c7272ba6a0b6cea652a0ccc5", "lat": 38.85646233333333}, {"type": "electric_scooter", "rental_uris": {"android": "https://dc.lft.to/lastmile_qr_scan", "ios": "https://dc.lft.to/lastmile_qr_scan"}, "fusion_lat": 0.0, "name": "1a18e6b71e33bd36a477a01f974b6d09", "lon": -77.03283066666667, "is_disabled": 0, "is_reserved": 0, "fusion_lon": 0.0, "bike_id": "1a18e6b71e33bd36a477a01f974b6d09", "lat": 38.9284275}, {"type": "electric_scooter", "rental_uris": {"android": "https://dc.lft.to/lastmile_qr_scan", "ios": "https://dc.lft.to/lastmile_qr_scan"}, "fusion_lat": 0.0, "name": "fce2ea5c856d20a3e933d31580bb83ca", "lon": -77.02018166666667, "is_disabled": 0, "is_reserved": 0, "fusion_lon": 0.0, "bike_id": "fce2ea5c856d20a3e933d31580bb83ca", "lat": 38.9019045}, {"type": "electric_scooter", "rental_uris": {"android": "https://dc.lft.to/lastmile_qr_scan", "ios": "https://dc.lft.to/lastmile_qr_scan"}, "fusion_lat": 0.0, "name": "b0c9bbe4b56c5ad834c977f8f70511a4", "lon": -77.061812, "is_disabled": 0, "is_reserved": 0, "fusion_lon": 0.0, "bike_id": "b0c9bbe4b56c5ad834c977f8f70511a4", "lat": 38.94324133333333}, {"type": "electric_scooter", "rental_uris": {"android": "https://dc.lft.to/lastmile_qr_scan", "ios": "https://dc.lft.to/lastmile_qr_scan"}, "fusion_lat": 0.0, "name": "b6f317509b5ec46c86dbe2f59985d375", "lon": -76.98816716666667, "is_disabled": 0, "is_reserved": 0, "fusion_lon": 0.0, "bike_id": "b6f317509b5ec46c86dbe2f59985d375", "lat": 38.900402666666665}, {"type": "electric_scooter", "rental_uris": {"android": "https://dc.lft.to/lastmile_qr_scan", "ios": "https://dc.lft.to/lastmile_qr_scan"}, "fusion_lat": 0.0, "name": "fe53a87511d9407982d6fa5b472df437", "lon": -77.03285816666667, "is_disabled": 0, "is_reserved": 0, "fusion_lon": 0.0, "bike_id": "fe53a87511d9407982d6fa5b472df437", "lat": 38.928385}, {"type": "electric_scooter", "rental_uris": {"android": "https://dc.lft.to/lastmile_qr_scan", "ios": "https://dc.lft.to/lastmile_qr_scan"}, "fusion_lat": 0.0, "name": "0069ecca64358c9591d96a3f8fa4df13", "lon": -77.01766666666667, "is_disabled": 0, "is_reserved": 0, "fusion_lon": 0.0, "bike_id": "0069ecca64358c9591d96a3f8fa4df13", "lat": 38.876924333333335}, {"type": "electric_scooter", "rental_uris": {"android": "https://dc.lft.to/lastmile_qr_scan", "ios": "https://dc.lft.to/lastmile_qr_scan"}, "fusion_lat": 0.0, "name": "42bf66621976faac046117cf5e210edf", "lon": -77.04243366666667, "is_disabled": 0, "is_reserved": 0, "fusion_lon": 0.0, "bike_id": "42bf66621976faac046117cf5e210edf", "lat": 38.921603166666664}, {"type": "electric_scooter", "rental_uris": {"android": "https://dc.lft.to/lastmile_qr_scan", "ios": "https://dc.lft.to/lastmile_qr_scan"}, "fusion_lat": 0.0, "name": "45b639321b8d0e8cff490be3d2ddfe3d", "lon": -77.02242816666667, "is_disabled": 0, "is_reserved": 0, "fusion_lon": 0.0, "bike_id": "45b639321b8d0e8cff490be3d2ddfe3d", "lat": 38.922821}, {"type": "electric_scooter", "rental_uris": {"android": "https://dc.lft.to/lastmile_qr_scan", "ios": "https://dc.lft.to/lastmile_qr_scan"}, "fusion_lat": 0.0, "name": "772ffbb5d11a647d7fd3526c9c6b60d4", "lon": -77.04486316666667, "is_disabled": 0, "is_reserved": 0, "fusion_lon": 0.0, "bike_id": "772ffbb5d11a647d7fd3526c9c6b60d4", "lat": 38.91099416666667}, {"type": "electric_bike", "rental_uris": {"android": "https://dc.lft.to/lastmile_qr_scan", "ios": "https://dc.lft.to/lastmile_qr_scan"}, "fusion_lat": 0.0, "name": "8efcb30c3b469bdd248ec71503b8349b", "lon": -76.99793966666667, "is_disabled": 0, "is_reserved": 0, "fusion_lon": 0.0, "bike_id": "8efcb30c3b469bdd248ec71503b8349b", "lat": 38.950918333333334}, {"type": "electric_scooter", "rental_uris": {"android": "https://dc.lft.to/lastmile_qr_scan", "ios": "https://dc.lft.to/lastmile_qr_scan"}, "fusion_lat": 0.0, "name": "5605656a01f53f85343cc9d65f3b96bc", "lon": -77.0316155, "is_disabled": 0, "is_reserved": 0, "fusion_lon": 0.0, "bike_id": "5605656a01f53f85343cc9d65f3b96bc", "lat": 38.92089633333333}, {"type": "electric_scooter", "rental_uris": {"android": "https://dc.lft.to/lastmile_qr_scan", "ios": "https://dc.lft.to/lastmile_qr_scan"}, "fusion_lat": 0.0, "name": "06515ec1068844dc72f7c6187803019f", "lon": -77.04383866666667, "is_disabled": 0, "is_reserved": 0, "fusion_lon": 0.0, "bike_id": "06515ec1068844dc72f7c6187803019f", "lat": 38.91667016666667}, {"type": "electric_scooter", "rental_uris": {"android": "https://dc.lft.to/lastmile_qr_scan", "ios": "https://dc.lft.to/lastmile_qr_scan"}, "fusion_lat": 0.0, "name": "985aaec70597e1c7556a6df7042112a6", "lon": -77.01543983333333, "is_disabled": 0, "is_reserved": 0, "fusion_lon": 0.0, "bike_id": "985aaec70597e1c7556a6df7042112a6", "lat": 38.89237583333333}, {"type": "electric_scooter", "rental_uris": {"android": "https://dc.lft.to/lastmile_qr_scan", "ios": "https://dc.lft.to/lastmile_qr_scan"}, "fusion_lat": 0.0, "name": "db02b4f0be28a1dbbb48e5e34ddfbdee", "lon": -77.04386566666666, "is_disabled": 0, "is_reserved": 0, "fusion_lon": 0.0, "bike_id": "db02b4f0be28a1dbbb48e5e34ddfbdee", "lat": 38.921155666666664}, {"type": "electric_scooter", "rental_uris": {"android": "https://dc.lft.to/lastmile_qr_scan", "ios": "https://dc.lft.to/lastmile_qr_scan"}, "fusion_lat": 0.0, "name": "ec59552ab7c488bc172b2684ea22e889", "lon": -77.06587533333334, "is_disabled": 0, "is_reserved": 0, "fusion_lon": 0.0, "bike_id": "ec59552ab7c488bc172b2684ea22e889", "lat": 38.90354133333334}, {"type": "electric_scooter", "rental_uris": {"android": "https://dc.lft.to/lastmile_qr_scan", "ios": "https://dc.lft.to/lastmile_qr_scan"}, "fusion_lat": 0.0, "name": "e04282a3ef405edea65e7dcef1bf9ded", "lon": -77.01764966666667, "is_disabled": 0, "is_reserved": 0, "fusion_lon": 0.0, "bike_id": "e04282a3ef405edea65e7dcef1bf9ded", "lat": 38.88591666666667}, {"type": "electric_scooter", "rental_uris": {"android": "https://dc.lft.to/lastmile_qr_scan", "ios": "https://dc.lft.to/lastmile_qr_scan"}, "fusion_lat": 0.0, "name": "1f294cdbedb764249047cc47fdba3b39", "lon": -77.01534533333333, "is_disabled": 0, "is_reserved": 0, "fusion_lon": 0.0, "bike_id": "1f294cdbedb764249047cc47fdba3b39", "lat": 38.88736183333333}, {"type": "electric_scooter", "rental_uris": {"android": "https://dc.lft.to/lastmile_qr_scan", "ios": "https://dc.lft.to/lastmile_qr_scan"}, "fusion_lat": 0.0, "name": "e1c85dd78b00d834a75de4396b928e88", "lon": -77.0059865, "is_disabled": 0, "is_reserved": 0, "fusion_lon": 0.0, "bike_id": "e1c85dd78b00d834a75de4396b928e88", "lat": 38.88518933333334}, {"type": "electric_scooter", "rental_uris": {"android": "https://dc.lft.to/lastmile_qr_scan", "ios": "https://dc.lft.to/lastmile_qr_scan"}, "fusion_lat": 0.0, "name": "47c78e7db2ad6c9ff99445c8038e7cae", "lon": -77.024919, "is_disabled": 0, "is_reserved": 0, "fusion_lon": 0.0, "bike_id": "47c78e7db2ad6c9ff99445c8038e7cae", "lat": 38.94183266666667}, {"type": "electric_scooter", "rental_uris": {"android": "https://dc.lft.to/lastmile_qr_scan", "ios": "https://dc.lft.to/lastmile_qr_scan"}, "fusion_lat": 0.0, "name": "e68c6c4b531df5ac8e8abf5105d4373c", "lon": -77.02876183333333, "is_disabled": 0, "is_reserved": 0, "fusion_lon": 0.0, "bike_id": "e68c6c4b531df5ac8e8abf5105d4373c", "lat": 38.92819316666667}, {"type": "electric_bike", "rental_uris": {"android": "https://dc.lft.to/lastmile_qr_scan", "ios": "https://dc.lft.to/lastmile_qr_scan"}, "fusion_lat": 0.0, "name": "4d793d28e6fd8c94586f4fa3fb92e301", "lon": -77.00766966666667, "is_disabled": 0, "is_reserved": 0, "fusion_lon": 0.0, "bike_id": "4d793d28e6fd8c94586f4fa3fb92e301", "lat": 38.98391933333333}, {"type": "electric_scooter", "rental_uris": {"android": "https://dc.lft.to/lastmile_qr_scan", "ios": "https://dc.lft.to/lastmile_qr_scan"}, "fusion_lat": 0.0, "name": "1ae12bac8843b43bd0ac6abac4d053f9", "lon": -77.02697183333333, "is_disabled": 0, "is_reserved": 0, "fusion_lon": 0.0, "bike_id": "1ae12bac8843b43bd0ac6abac4d053f9", "lat": 38.92662983333334}, {"type": "electric_scooter", "rental_uris": {"android": "https://dc.lft.to/lastmile_qr_scan", "ios": "https://dc.lft.to/lastmile_qr_scan"}, "fusion_lat": 0.0, "name": "cca42f7622e681abf88e66e3ece32f4f", "lon": -77.03966, "is_disabled": 0, "is_reserved": 0, "fusion_lon": 0.0, "bike_id": "cca42f7622e681abf88e66e3ece32f4f", "lat": 38.90267633333333}, {"type": "electric_scooter", "rental_uris": {"android": "https://dc.lft.to/lastmile_qr_scan", "ios": "https://dc.lft.to/lastmile_qr_scan"}, "fusion_lat": 0.0, "name": "1ba63fc97d9a14d6ae126af92e8b440e", "lon": -77.00919383333333, "is_disabled": 0, "is_reserved": 0, "fusion_lon": 0.0, "bike_id": "1ba63fc97d9a14d6ae126af92e8b440e", "lat": 38.89613083333333}, {"type": "electric_scooter", "rental_uris": {"android": "https://dc.lft.to/lastmile_qr_scan", "ios": "https://dc.lft.to/lastmile_qr_scan"}, "fusion_lat": 0.0, "name": "3716144beca331c91626dfa8338ac707", "lon": -77.03282766666666, "is_disabled": 0, "is_reserved": 0, "fusion_lon": 0.0, "bike_id": "3716144beca331c91626dfa8338ac707", "lat": 38.93646583333334}, {"type": "electric_scooter", "rental_uris": {"android": "https://dc.lft.to/lastmile_qr_scan", "ios": "https://dc.lft.to/lastmile_qr_scan"}, "fusion_lat": 0.0, "name": "5348a7ddb1ccf4595bf59093d57c4b6a", "lon": -77.02815166666667, "is_disabled": 0, "is_reserved": 0, "fusion_lon": 0.0, "bike_id": "5348a7ddb1ccf4595bf59093d57c4b6a", "lat": 38.916919666666665}, {"type": "electric_scooter", "rental_uris": {"android": "https://dc.lft.to/lastmile_qr_scan", "ios": "https://dc.lft.to/lastmile_qr_scan"}, "fusion_lat": 0.0, "name": "4140e525e87c8ba012bfc07c0dd57021", "lon": -77.01070016666667, "is_disabled": 0, "is_reserved": 0, "fusion_lon": 0.0, "bike_id": "4140e525e87c8ba012bfc07c0dd57021", "lat": 38.912618}, {"type": "electric_scooter", "rental_uris": {"android": "https://dc.lft.to/lastmile_qr_scan", "ios": "https://dc.lft.to/lastmile_qr_scan"}, "fusion_lat": 0.0, "name": "0b92b027e97d86e0a4c5149e88af969b", "lon": -76.99457933333333, "is_disabled": 0, "is_reserved": 0, "fusion_lon": 0.0, "bike_id": "0b92b027e97d86e0a4c5149e88af969b", "lat": 38.86218216666666}, {"type": "electric_scooter", "rental_uris": {"android": "https://dc.lft.to/lastmile_qr_scan", "ios": "https://dc.lft.to/lastmile_qr_scan"}, "fusion_lat": 0.0, "name": "aa9f34a18e0ca9a12010894c7bffb8f7", "lon": -77.0456345, "is_disabled": 0, "is_reserved": 0, "fusion_lon": 0.0, "bike_id": "aa9f34a18e0ca9a12010894c7bffb8f7", "lat": 38.89610583333334}, {"type": "electric_scooter", "rental_uris": {"android": "https://dc.lft.to/lastmile_qr_scan", "ios": "https://dc.lft.to/lastmile_qr_scan"}, "fusion_lat": 0.0, "name": "e69f3bc738735d5a621dc12e189b36e3", "lon": -77.038717, "is_disabled": 0, "is_reserved": 0, "fusion_lon": 0.0, "bike_id": "e69f3bc738735d5a621dc12e189b36e3", "lat": 38.9232095}, {"type": "electric_scooter", "rental_uris": {"android": "https://dc.lft.to/lastmile_qr_scan", "ios": "https://dc.lft.to/lastmile_qr_scan"}, "fusion_lat": 0.0, "name": "1456cc948db2f478a1dd3718a23081c0", "lon": -77.028571, "is_disabled": 0, "is_reserved": 0, "fusion_lon": 0.0, "bike_id": "1456cc948db2f478a1dd3718a23081c0", "lat": 38.933455}, {"type": "electric_scooter", "rental_uris": {"android": "https://dc.lft.to/lastmile_qr_scan", "ios": "https://dc.lft.to/lastmile_qr_scan"}, "fusion_lat": 0.0, "name": "276f8348db821d7a612f0a814f6cdcca", "lon": -76.99532533333333, "is_disabled": 0, "is_reserved": 0, "fusion_lon": 0.0, "bike_id": "276f8348db821d7a612f0a814f6cdcca", "lat": 38.88369616666667}, {"type": "electric_scooter", "rental_uris": {"android": "https://dc.lft.to/lastmile_qr_scan", "ios": "https://dc.lft.to/lastmile_qr_scan"}, "fusion_lat": 0.0, "name": "62637cd942b63e0232d3175058fbf73e", "lon": -77.01106466666667, "is_disabled": 0, "is_reserved": 0, "fusion_lon": 0.0, "bike_id": "62637cd942b63e0232d3175058fbf73e", "lat": 38.90359466666666}, {"type": "electric_scooter", "rental_uris": {"android": "https://dc.lft.to/lastmile_qr_scan", "ios": "https://dc.lft.to/lastmile_qr_scan"}, "fusion_lat": 0.0, "name": "68a4a2d3b5fa927975ace5d710fb5022", "lon": -77.013031, "is_disabled": 0, "is_reserved": 0, "fusion_lon": 0.0, "bike_id": "68a4a2d3b5fa927975ace5d710fb5022", "lat": 38.9300135}, {"type": "electric_scooter", "rental_uris": {"android": "https://dc.lft.to/lastmile_qr_scan", "ios": "https://dc.lft.to/lastmile_qr_scan"}, "fusion_lat": 0.0, "name": "0b50cefba13949072fcf2f64655a8715", "lon": -77.03592833333333, "is_disabled": 0, "is_reserved": 0, "fusion_lon": 0.0, "bike_id": "0b50cefba13949072fcf2f64655a8715", "lat": 38.917107666666666}, {"type": "electric_scooter", "rental_uris": {"android": "https://dc.lft.to/lastmile_qr_scan", "ios": "https://dc.lft.to/lastmile_qr_scan"}, "fusion_lat": 0.0, "name": "07fd456f47cd152b1b410f403d2e4f56", "lon": -77.02242333333334, "is_disabled": 0, "is_reserved": 0, "fusion_lon": 0.0, "bike_id": "07fd456f47cd152b1b410f403d2e4f56", "lat": 38.91274}, {"type": "electric_scooter", "rental_uris": {"android": "https://dc.lft.to/lastmile_qr_scan", "ios": "https://dc.lft.to/lastmile_qr_scan"}, "fusion_lat": 0.0, "name": "c81ae5ae05446758014c46ce1efbe150", "lon": -77.0466755, "is_disabled": 0, "is_reserved": 0, "fusion_lon": 0.0, "bike_id": "c81ae5ae05446758014c46ce1efbe150", "lat": 38.90427566666666}, {"type": "electric_scooter", "rental_uris": {"android": "https://dc.lft.to/lastmile_qr_scan", "ios": "https://dc.lft.to/lastmile_qr_scan"}, "fusion_lat": 0.0, "name": "3d3d61e216458e265d63970827c22a42", "lon": -77.00635783333334, "is_disabled": 0, "is_reserved": 0, "fusion_lon": 0.0, "bike_id": "3d3d61e216458e265d63970827c22a42", "lat": 38.95600066666667}, {"type": "electric_scooter", "rental_uris": {"android": "https://dc.lft.to/lastmile_qr_scan", "ios": "https://dc.lft.to/lastmile_qr_scan"}, "fusion_lat": 0.0, "name": "19d10317a5a2680861e8d58adb8c7da9", "lon": -77.02777933333333, "is_disabled": 0, "is_reserved": 0, "fusion_lon": 0.0, "bike_id": "19d10317a5a2680861e8d58adb8c7da9", "lat": 38.89750216666667}, {"type": "electric_scooter", "rental_uris": {"android": "https://dc.lft.to/lastmile_qr_scan", "ios": "https://dc.lft.to/lastmile_qr_scan"}, "fusion_lat": 0.0, "name": "5201ed0e2776e917837ddb8d216e67dc", "lon": -77.0440255, "is_disabled": 0, "is_reserved": 0, "fusion_lon": 0.0, "bike_id": "5201ed0e2776e917837ddb8d216e67dc", "lat": 38.89538616666667}, {"type": "electric_scooter", "rental_uris": {"android": "https://dc.lft.to/lastmile_qr_scan", "ios": "https://dc.lft.to/lastmile_qr_scan"}, "fusion_lat": 0.0, "name": "30b9ca0014d0c2d9a1d179044dbf0142", "lon": -77.03863016666666, "is_disabled": 0, "is_reserved": 0, "fusion_lon": 0.0, "bike_id": "30b9ca0014d0c2d9a1d179044dbf0142", "lat": 38.903628833333336}, {"type": "electric_scooter", "rental_uris": {"android": "https://dc.lft.to/lastmile_qr_scan", "ios": "https://dc.lft.to/lastmile_qr_scan"}, "fusion_lat": 0.0, "name": "563709b640ea2b610a524bdb10d965d8", "lon": -77.03153116666667, "is_disabled": 0, "is_reserved": 0, "fusion_lon": 0.0, "bike_id": "563709b640ea2b610a524bdb10d965d8", "lat": 38.906247}, {"type": "electric_scooter", "rental_uris": {"android": "https://dc.lft.to/lastmile_qr_scan", "ios": "https://dc.lft.to/lastmile_qr_scan"}, "fusion_lat": 0.0, "name": "66023c0c0bbdc85581e579dd2c302e75", "lon": -76.98692533333333, "is_disabled": 0, "is_reserved": 0, "fusion_lon": 0.0, "bike_id": "66023c0c0bbdc85581e579dd2c302e75", "lat": 38.862530166666666}, {"type": "electric_scooter", "rental_uris": {"android": "https://dc.lft.to/lastmile_qr_scan", "ios": "https://dc.lft.to/lastmile_qr_scan"}, "fusion_lat": 0.0, "name": "b4ee39d0f43c7ec64a48764c0849cd02", "lon": -77.02205016666667, "is_disabled": 0, "is_reserved": 0, "fusion_lon": 0.0, "bike_id": "b4ee39d0f43c7ec64a48764c0849cd02", "lat": 38.912996166666666}, {"type": "electric_scooter", "rental_uris": {"android": "https://dc.lft.to/lastmile_qr_scan", "ios": "https://dc.lft.to/lastmile_qr_scan"}, "fusion_lat": 0.0, "name": "4f108eae51d178066b0792bb0d8720ba", "lon": -77.02850583333333, "is_disabled": 0, "is_reserved": 0, "fusion_lon": 0.0, "bike_id": "4f108eae51d178066b0792bb0d8720ba", "lat": 38.8874575}, {"type": "electric_scooter", "rental_uris": {"android": "https://dc.lft.to/lastmile_qr_scan", "ios": "https://dc.lft.to/lastmile_qr_scan"}, "fusion_lat": 0.0, "name": "0235cc7a29c48c9db08e0c613bc7510f", "lon": -77.00757233333333, "is_disabled": 0, "is_reserved": 0, "fusion_lon": 0.0, "bike_id": "0235cc7a29c48c9db08e0c613bc7510f", "lat": 38.92681733333333}, {"type": "electric_scooter", "rental_uris": {"android": "https://dc.lft.to/lastmile_qr_scan", "ios": "https://dc.lft.to/lastmile_qr_scan"}, "fusion_lat": 0.0, "name": "0ad085090d92f3d5c5ddc7eb6ea424f3", "lon": -77.03774266666667, "is_disabled": 0, "is_reserved": 0, "fusion_lon": 0.0, "bike_id": "0ad085090d92f3d5c5ddc7eb6ea424f3", "lat": 38.9169105}, {"type": "electric_scooter", "rental_uris": {"android": "https://dc.lft.to/lastmile_qr_scan", "ios": "https://dc.lft.to/lastmile_qr_scan"}, "fusion_lat": 0.0, "name": "b82ffb9d7a212cae96e21605a585b7a7", "lon": -77.00040983333334, "is_disabled": 0, "is_reserved": 0, "fusion_lon": 0.0, "bike_id": "b82ffb9d7a212cae96e21605a585b7a7", "lat": 38.90017116666667}, {"type": "electric_scooter", "rental_uris": {"android": "https://dc.lft.to/lastmile_qr_scan", "ios": "https://dc.lft.to/lastmile_qr_scan"}, "fusion_lat": 0.0, "name": "01ccdecb7c2d74aad920203fc41a32b3", "lon": -77.00298516666666, "is_disabled": 0, "is_reserved": 0, "fusion_lon": 0.0, "bike_id": "01ccdecb7c2d74aad920203fc41a32b3", "lat": 38.894912166666664}, {"type": "electric_scooter", "rental_uris": {"android": "https://dc.lft.to/lastmile_qr_scan", "ios": "https://dc.lft.to/lastmile_qr_scan"}, "fusion_lat": 0.0, "name": "3cb5e121b01c1a034b7984929b48885d", "lon": -77.043285, "is_disabled": 0, "is_reserved": 0, "fusion_lon": 0.0, "bike_id": "3cb5e121b01c1a034b7984929b48885d", "lat": 38.892239833333335}, {"type": "electric_scooter", "rental_uris": {"android": "https://dc.lft.to/lastmile_qr_scan", "ios": "https://dc.lft.to/lastmile_qr_scan"}, "fusion_lat": 0.0, "name": "d0805b9e5c5fa60cf3f9231e0410b594", "lon": -77.00752666666666, "is_disabled": 0, "is_reserved": 0, "fusion_lon": 0.0, "bike_id": "d0805b9e5c5fa60cf3f9231e0410b594", "lat": 38.8973425}, {"type": "electric_scooter", "rental_uris": {"android": "https://dc.lft.to/lastmile_qr_scan", "ios": "https://dc.lft.to/lastmile_qr_scan"}, "fusion_lat": 0.0, "name": "10ee2e50e71758d41f9ec86baea03617", "lon": -77.002093, "is_disabled": 0, "is_reserved": 0, "fusion_lon": 0.0, "bike_id": "10ee2e50e71758d41f9ec86baea03617", "lat": 38.907916666666665}, {"type": "electric_scooter", "rental_uris": {"android": "https://dc.lft.to/lastmile_qr_scan", "ios": "https://dc.lft.to/lastmile_qr_scan"}, "fusion_lat": 0.0, "name": "e59f5b6c624b56ddfbc8185fcb457406", "lon": -77.0326815, "is_disabled": 0, "is_reserved": 0, "fusion_lon": 0.0, "bike_id": "e59f5b6c624b56ddfbc8185fcb457406", "lat": 38.9027915}, {"type": "electric_scooter", "rental_uris": {"android": "https://dc.lft.to/lastmile_qr_scan", "ios": "https://dc.lft.to/lastmile_qr_scan"}, "fusion_lat": 0.0, "name": "06f798ad5cb6323a62bd41f44ef18cdd", "lon": -77.0465055, "is_disabled": 0, "is_reserved": 0, "fusion_lon": 0.0, "bike_id": "06f798ad5cb6323a62bd41f44ef18cdd", "lat": 38.909683333333334}, {"type": "electric_scooter", "rental_uris": {"android": "https://dc.lft.to/lastmile_qr_scan", "ios": "https://dc.lft.to/lastmile_qr_scan"}, "fusion_lat": 0.0, "name": "a4fbb9e470c1c64cc399361e400224b7", "lon": -77.03877216666666, "is_disabled": 0, "is_reserved": 0, "fusion_lon": 0.0, "bike_id": "a4fbb9e470c1c64cc399361e400224b7", "lat": 38.906206833333336}, {"type": "electric_scooter", "rental_uris": {"android": "https://dc.lft.to/lastmile_qr_scan", "ios": "https://dc.lft.to/lastmile_qr_scan"}, "fusion_lat": 0.0, "name": "2e6813b3f616940e1f0f43101b49c0dd", "lon": -77.05884833333333, "is_disabled": 0, "is_reserved": 0, "fusion_lon": 0.0, "bike_id": "2e6813b3f616940e1f0f43101b49c0dd", "lat": 38.936412833333335}, {"type": "electric_scooter", "rental_uris": {"android": "https://dc.lft.to/lastmile_qr_scan", "ios": "https://dc.lft.to/lastmile_qr_scan"}, "fusion_lat": 0.0, "name": "14406b44953876cf64aa95bc45256cfe", "lon": -77.00204016666666, "is_disabled": 0, "is_reserved": 0, "fusion_lon": 0.0, "bike_id": "14406b44953876cf64aa95bc45256cfe", "lat": 38.8954235}, {"type": "electric_scooter", "rental_uris": {"android": "https://dc.lft.to/lastmile_qr_scan", "ios": "https://dc.lft.to/lastmile_qr_scan"}, "fusion_lat": 0.0, "name": "abda393526f01c2d168b1a4a835fe49d", "lon": -76.99367183333334, "is_disabled": 0, "is_reserved": 0, "fusion_lon": 0.0, "bike_id": "abda393526f01c2d168b1a4a835fe49d", "lat": 38.928384666666666}, {"type": "electric_scooter", "rental_uris": {"android": "https://dc.lft.to/lastmile_qr_scan", "ios": "https://dc.lft.to/lastmile_qr_scan"}, "fusion_lat": 0.0, "name": "af0ad35154c5abc690617fffd00cf7ac", "lon": -77.02542216666667, "is_disabled": 0, "is_reserved": 0, "fusion_lon": 0.0, "bike_id": "af0ad35154c5abc690617fffd00cf7ac", "lat": 38.91488533333333}, {"type": "electric_scooter", "rental_uris": {"android": "https://dc.lft.to/lastmile_qr_scan", "ios": "https://dc.lft.to/lastmile_qr_scan"}, "fusion_lat": 0.0, "name": "2c1eee4be7e55bf5e22b38117a9c260d", "lon": -77.04334016666667, "is_disabled": 0, "is_reserved": 0, "fusion_lon": 0.0, "bike_id": "2c1eee4be7e55bf5e22b38117a9c260d", "lat": 38.9069925}, {"type": "electric_scooter", "rental_uris": {"android": "https://dc.lft.to/lastmile_qr_scan", "ios": "https://dc.lft.to/lastmile_qr_scan"}, "fusion_lat": 0.0, "name": "9797ed9b93551564666ec47e660bbb43", "lon": -76.97840266666667, "is_disabled": 0, "is_reserved": 0, "fusion_lon": 0.0, "bike_id": "9797ed9b93551564666ec47e660bbb43", "lat": 38.89915033333333}, {"type": "electric_scooter", "rental_uris": {"android": "https://dc.lft.to/lastmile_qr_scan", "ios": "https://dc.lft.to/lastmile_qr_scan"}, "fusion_lat": 0.0, "name": "8ec6f0a13de25704caf6a25d9c5e9d43", "lon": -77.03265583333334, "is_disabled": 0, "is_reserved": 0, "fusion_lon": 0.0, "bike_id": "8ec6f0a13de25704caf6a25d9c5e9d43", "lat": 38.93725516666667}, {"type": "electric_scooter", "rental_uris": {"android": "https://dc.lft.to/lastmile_qr_scan", "ios": "https://dc.lft.to/lastmile_qr_scan"}, "fusion_lat": 0.0, "name": "60e0cd1ffc70eae8294ea67c21bffc53", "lon": -77.0727155, "is_disabled": 0, "is_reserved": 0, "fusion_lon": 0.0, "bike_id": "60e0cd1ffc70eae8294ea67c21bffc53", "lat": 38.9115795}, {"type": "electric_scooter", "rental_uris": {"android": "https://dc.lft.to/lastmile_qr_scan", "ios": "https://dc.lft.to/lastmile_qr_scan"}, "fusion_lat": 0.0, "name": "2d2f8510acd489dfb6939b736997a477", "lon": -77.02152383333333, "is_disabled": 0, "is_reserved": 0, "fusion_lon": 0.0, "bike_id": "2d2f8510acd489dfb6939b736997a477", "lat": 38.926085666666665}, {"type": "electric_scooter", "rental_uris": {"android": "https://dc.lft.to/lastmile_qr_scan", "ios": "https://dc.lft.to/lastmile_qr_scan"}, "fusion_lat": 0.0, "name": "4c3ff5d282d4665ca95cd2729b848c7a", "lon": -77.022778, "is_disabled": 0, "is_reserved": 0, "fusion_lon": 0.0, "bike_id": "4c3ff5d282d4665ca95cd2729b848c7a", "lat": 38.9014445}, {"type": "electric_bike", "rental_uris": {"android": "https://dc.lft.to/lastmile_qr_scan", "ios": "https://dc.lft.to/lastmile_qr_scan"}, "fusion_lat": 0.0, "name": "7bcc22d511ea1e106d42bfdc24ef4f49", "lon": -76.97103983333334, "is_disabled": 0, "is_reserved": 0, "fusion_lon": 0.0, "bike_id": "7bcc22d511ea1e106d42bfdc24ef4f49", "lat": 38.9181115}, {"type": "electric_scooter", "rental_uris": {"android": "https://dc.lft.to/lastmile_qr_scan", "ios": "https://dc.lft.to/lastmile_qr_scan"}, "fusion_lat": 0.0, "name": "18113a7939e4d4b99d95d18dfa4887dd", "lon": -77.0320595, "is_disabled": 0, "is_reserved": 0, "fusion_lon": 0.0, "bike_id": "18113a7939e4d4b99d95d18dfa4887dd", "lat": 38.9071195}, {"type": "electric_scooter", "rental_uris": {"android": "https://dc.lft.to/lastmile_qr_scan", "ios": "https://dc.lft.to/lastmile_qr_scan"}, "fusion_lat": 0.0, "name": "c92f567caceac8831e12220e74d1f0d4", "lon": -77.02008916666666, "is_disabled": 0, "is_reserved": 0, "fusion_lon": 0.0, "bike_id": "c92f567caceac8831e12220e74d1f0d4", "lat": 38.93891216666667}, {"type": "electric_scooter", "rental_uris": {"android": "https://dc.lft.to/lastmile_qr_scan", "ios": "https://dc.lft.to/lastmile_qr_scan"}, "fusion_lat": 0.0, "name": "b44158c225ca0fd35bd3bd6bca2d5017", "lon": -77.0355705, "is_disabled": 0, "is_reserved": 0, "fusion_lon": 0.0, "bike_id": "b44158c225ca0fd35bd3bd6bca2d5017", "lat": 38.91712666666667}, {"type": "electric_scooter", "rental_uris": {"android": "https://dc.lft.to/lastmile_qr_scan", "ios": "https://dc.lft.to/lastmile_qr_scan"}, "fusion_lat": 0.0, "name": "71768056b5917ba673507d631af7450d", "lon": -77.0240295, "is_disabled": 0, "is_reserved": 0, "fusion_lon": 0.0, "bike_id": "71768056b5917ba673507d631af7450d", "lat": 38.91420883333333}, {"type": "electric_scooter", "rental_uris": {"android": "https://dc.lft.to/lastmile_qr_scan", "ios": "https://dc.lft.to/lastmile_qr_scan"}, "fusion_lat": 0.0, "name": "aff8c7e1763e72dcf1b90e905292f1aa", "lon": -76.99473066666667, "is_disabled": 0, "is_reserved": 0, "fusion_lon": 0.0, "bike_id": "aff8c7e1763e72dcf1b90e905292f1aa", "lat": 38.88431533333333}, {"type": "electric_scooter", "rental_uris": {"android": "https://dc.lft.to/lastmile_qr_scan", "ios": "https://dc.lft.to/lastmile_qr_scan"}, "fusion_lat": 0.0, "name": "686393ecef8121479a9933e01881a7bc", "lon": -77.06138216666666, "is_disabled": 0, "is_reserved": 0, "fusion_lon": 0.0, "bike_id": "686393ecef8121479a9933e01881a7bc", "lat": 38.90528183333333}, {"type": "electric_scooter", "rental_uris": {"android": "https://dc.lft.to/lastmile_qr_scan", "ios": "https://dc.lft.to/lastmile_qr_scan"}, "fusion_lat": 0.0, "name": "1e5d058a3a91de8b3b9775096259c858", "lon": -77.02330433333333, "is_disabled": 0, "is_reserved": 0, "fusion_lon": 0.0, "bike_id": "1e5d058a3a91de8b3b9775096259c858", "lat": 38.92709266666667}, {"type": "electric_scooter", "rental_uris": {"android": "https://dc.lft.to/lastmile_qr_scan", "ios": "https://dc.lft.to/lastmile_qr_scan"}, "fusion_lat": 0.0, "name": "3a4d03e999fc09cbd65768087b0511d8", "lon": -77.05136083333333, "is_disabled": 0, "is_reserved": 0, "fusion_lon": 0.0, "bike_id": "3a4d03e999fc09cbd65768087b0511d8", "lat": 38.9053325}, {"type": "electric_scooter", "rental_uris": {"android": "https://dc.lft.to/lastmile_qr_scan", "ios": "https://dc.lft.to/lastmile_qr_scan"}, "fusion_lat": 0.0, "name": "6aab9c025dc110a884c4669aa3b4ab93", "lon": -77.031812, "is_disabled": 0, "is_reserved": 0, "fusion_lon": 0.0, "bike_id": "6aab9c025dc110a884c4669aa3b4ab93", "lat": 38.91538166666667}, {"type": "electric_scooter", "rental_uris": {"android": "https://dc.lft.to/lastmile_qr_scan", "ios": "https://dc.lft.to/lastmile_qr_scan"}, "fusion_lat": 0.0, "name": "9eba2bea398ecca72c8f74f5f0fbe564", "lon": -77.02717716666666, "is_disabled": 0, "is_reserved": 0, "fusion_lon": 0.0, "bike_id": "9eba2bea398ecca72c8f74f5f0fbe564", "lat": 38.9096935}, {"type": "electric_scooter", "rental_uris": {"android": "https://dc.lft.to/lastmile_qr_scan", "ios": "https://dc.lft.to/lastmile_qr_scan"}, "fusion_lat": 0.0, "name": "770cbc043b6438de77e2a96e4e2a5f45", "lon": -77.05713633333333, "is_disabled": 0, "is_reserved": 0, "fusion_lon": 0.0, "bike_id": "770cbc043b6438de77e2a96e4e2a5f45", "lat": 38.90616983333334}, {"type": "electric_scooter", "rental_uris": {"android": "https://dc.lft.to/lastmile_qr_scan", "ios": "https://dc.lft.to/lastmile_qr_scan"}, "fusion_lat": 0.0, "name": "f3c656ec7d0f0c8d87561b8e3465d136", "lon": -77.04159883333334, "is_disabled": 0, "is_reserved": 0, "fusion_lon": 0.0, "bike_id": "f3c656ec7d0f0c8d87561b8e3465d136", "lat": 38.9148775}, {"type": "electric_scooter", "rental_uris": {"android": "https://dc.lft.to/lastmile_qr_scan", "ios": "https://dc.lft.to/lastmile_qr_scan"}, "fusion_lat": 0.0, "name": "c0d645bbece427844037da3449618b0a", "lon": -77.02684166666667, "is_disabled": 0, "is_reserved": 0, "fusion_lon": 0.0, "bike_id": "c0d645bbece427844037da3449618b0a", "lat": 38.902392166666665}, {"type": "electric_scooter", "rental_uris": {"android": "https://dc.lft.to/lastmile_qr_scan", "ios": "https://dc.lft.to/lastmile_qr_scan"}, "fusion_lat": 0.0, "name": "2d657aba1e6fb74fa52adea62f14dd9a", "lon": -77.02980216666667, "is_disabled": 0, "is_reserved": 0, "fusion_lon": 0.0, "bike_id": "2d657aba1e6fb74fa52adea62f14dd9a", "lat": 38.9008145}, {"type": "electric_scooter", "rental_uris": {"android": "https://dc.lft.to/lastmile_qr_scan", "ios": "https://dc.lft.to/lastmile_qr_scan"}, "fusion_lat": 0.0, "name": "6be1305b5c2113477c9eb3cb71175a17", "lon": -77.00563133333333, "is_disabled": 0, "is_reserved": 0, "fusion_lon": 0.0, "bike_id": "6be1305b5c2113477c9eb3cb71175a17", "lat": 38.88044633333333}, {"type": "electric_bike", "rental_uris": {"android": "https://dc.lft.to/lastmile_qr_scan", "ios": "https://dc.lft.to/lastmile_qr_scan"}, "fusion_lat": 0.0, "name": "83a81eae4d3739c5d6dd7c96e9417c3f", "lon": -76.89541583333333, "is_disabled": 0, "is_reserved": 0, "fusion_lon": 0.0, "bike_id": "83a81eae4d3739c5d6dd7c96e9417c3f", "lat": 38.94554016666667}, {"type": "electric_scooter", "rental_uris": {"android": "https://dc.lft.to/lastmile_qr_scan", "ios": "https://dc.lft.to/lastmile_qr_scan"}, "fusion_lat": 0.0, "name": "f0c0c317871186b051c53e56ed9808e4", "lon": -77.01968266666667, "is_disabled": 0, "is_reserved": 0, "fusion_lon": 0.0, "bike_id": "f0c0c317871186b051c53e56ed9808e4", "lat": 38.905591666666666}, {"type": "electric_scooter", "rental_uris": {"android": "https://dc.lft.to/lastmile_qr_scan", "ios": "https://dc.lft.to/lastmile_qr_scan"}, "fusion_lat": 0.0, "name": "ebc49d80a626b07fcb485551f2589beb", "lon": -77.02729866666667, "is_disabled": 0, "is_reserved": 0, "fusion_lon": 0.0, "bike_id": "ebc49d80a626b07fcb485551f2589beb", "lat": 38.94087433333333}, {"type": "electric_scooter", "rental_uris": {"android": "https://dc.lft.to/lastmile_qr_scan", "ios": "https://dc.lft.to/lastmile_qr_scan"}, "fusion_lat": 0.0, "name": "34cc76bf27d44886c79c702e15213ddc", "lon": -76.91759683333333, "is_disabled": 0, "is_reserved": 0, "fusion_lon": 0.0, "bike_id": "34cc76bf27d44886c79c702e15213ddc", "lat": 38.88839483333334}, {"type": "electric_scooter", "rental_uris": {"android": "https://dc.lft.to/lastmile_qr_scan", "ios": "https://dc.lft.to/lastmile_qr_scan"}, "fusion_lat": 0.0, "name": "63714f3ebfc2d5f91e1203f955e119a5", "lon": -77.0465125, "is_disabled": 0, "is_reserved": 0, "fusion_lon": 0.0, "bike_id": "63714f3ebfc2d5f91e1203f955e119a5", "lat": 38.903364833333335}, {"type": "electric_scooter", "rental_uris": {"android": "https://dc.lft.to/lastmile_qr_scan", "ios": "https://dc.lft.to/lastmile_qr_scan"}, "fusion_lat": 0.0, "name": "a601551eac06b5d11fe1bb4ce33a89f1", "lon": -77.07477966666667, "is_disabled": 0, "is_reserved": 0, "fusion_lon": 0.0, "bike_id": "a601551eac06b5d11fe1bb4ce33a89f1", "lat": 38.9631605}, {"type": "electric_bike", "rental_uris": {"android": "https://dc.lft.to/lastmile_qr_scan", "ios": "https://dc.lft.to/lastmile_qr_scan"}, "fusion_lat": 0.0, "name": "285fd3a63d5f071821a9436a329ce9ed", "lon": -76.97424433333333, "is_disabled": 0, "is_reserved": 0, "fusion_lon": 0.0, "bike_id": "285fd3a63d5f071821a9436a329ce9ed", "lat": 38.86421966666666}, {"type": "electric_scooter", "rental_uris": {"android": "https://dc.lft.to/lastmile_qr_scan", "ios": "https://dc.lft.to/lastmile_qr_scan"}, "fusion_lat": 0.0, "name": "e4d1ca6bc2fd6758e282719515ab601b", "lon": -77.0559655, "is_disabled": 0, "is_reserved": 0, "fusion_lon": 0.0, "bike_id": "e4d1ca6bc2fd6758e282719515ab601b", "lat": 38.9161975}, {"type": "electric_scooter", "rental_uris": {"android": "https://dc.lft.to/lastmile_qr_scan", "ios": "https://dc.lft.to/lastmile_qr_scan"}, "fusion_lat": 0.0, "name": "1477cf625d2c519f22f0c62d143df9eb", "lon": -76.93759866666667, "is_disabled": 0, "is_reserved": 0, "fusion_lon": 0.0, "bike_id": "1477cf625d2c519f22f0c62d143df9eb", "lat": 38.89048483333333}, {"type": "electric_scooter", "rental_uris": {"android": "https://dc.lft.to/lastmile_qr_scan", "ios": "https://dc.lft.to/lastmile_qr_scan"}, "fusion_lat": 0.0, "name": "168a029648b567ca99d6c03524a71022", "lon": -77.00745766666667, "is_disabled": 0, "is_reserved": 0, "fusion_lon": 0.0, "bike_id": "168a029648b567ca99d6c03524a71022", "lat": 38.898309}, {"type": "electric_scooter", "rental_uris": {"android": "https://dc.lft.to/lastmile_qr_scan", "ios": "https://dc.lft.to/lastmile_qr_scan"}, "fusion_lat": 0.0, "name": "e31b912d3303cc078960493a4dc02881", "lon": -76.91969666666667, "is_disabled": 0, "is_reserved": 0, "fusion_lon": 0.0, "bike_id": "e31b912d3303cc078960493a4dc02881", "lat": 38.90026533333333}, {"type": "electric_scooter", "rental_uris": {"android": "https://dc.lft.to/lastmile_qr_scan", "ios": "https://dc.lft.to/lastmile_qr_scan"}, "fusion_lat": 0.0, "name": "6c73a2aae0a43f76411c1ca9c8615e3f", "lon": -77.023914, "is_disabled": 0, "is_reserved": 0, "fusion_lon": 0.0, "bike_id": "6c73a2aae0a43f76411c1ca9c8615e3f", "lat": 38.90708016666667}, {"type": "electric_scooter", "rental_uris": {"android": "https://dc.lft.to/lastmile_qr_scan", "ios": "https://dc.lft.to/lastmile_qr_scan"}, "fusion_lat": 0.0, "name": "9e8fac7f72757f61eb0dba3f5475679b", "lon": -77.03891766666666, "is_disabled": 0, "is_reserved": 0, "fusion_lon": 0.0, "bike_id": "9e8fac7f72757f61eb0dba3f5475679b", "lat": 38.92416983333333}, {"type": "electric_scooter", "rental_uris": {"android": "https://dc.lft.to/lastmile_qr_scan", "ios": "https://dc.lft.to/lastmile_qr_scan"}, "fusion_lat": 0.0, "name": "c8b479ee95fed175e557234029dca769", "lon": -77.0282675, "is_disabled": 0, "is_reserved": 0, "fusion_lon": 0.0, "bike_id": "c8b479ee95fed175e557234029dca769", "lat": 38.89842133333333}, {"type": "electric_scooter", "rental_uris": {"android": "https://dc.lft.to/lastmile_qr_scan", "ios": "https://dc.lft.to/lastmile_qr_scan"}, "fusion_lat": 0.0, "name": "49f27fecc4dc6fd14e881b04d9d58e25", "lon": -77.04538016666666, "is_disabled": 0, "is_reserved": 0, "fusion_lon": 0.0, "bike_id": "49f27fecc4dc6fd14e881b04d9d58e25", "lat": 38.90062016666667}, {"type": "electric_scooter", "rental_uris": {"android": "https://dc.lft.to/lastmile_qr_scan", "ios": "https://dc.lft.to/lastmile_qr_scan"}, "fusion_lat": 0.0, "name": "1864ac992951c67ab3392890fdd74a35", "lon": -76.9968235, "is_disabled": 0, "is_reserved": 0, "fusion_lon": 0.0, "bike_id": "1864ac992951c67ab3392890fdd74a35", "lat": 38.88121566666667}, {"type": "electric_scooter", "rental_uris": {"android": "https://dc.lft.to/lastmile_qr_scan", "ios": "https://dc.lft.to/lastmile_qr_scan"}, "fusion_lat": 0.0, "name": "864269fc6e32b6cd2998eb246231c111", "lon": -77.026466, "is_disabled": 0, "is_reserved": 0, "fusion_lon": 0.0, "bike_id": "864269fc6e32b6cd2998eb246231c111", "lat": 38.902507666666665}, {"type": "electric_scooter", "rental_uris": {"android": "https://dc.lft.to/lastmile_qr_scan", "ios": "https://dc.lft.to/lastmile_qr_scan"}, "fusion_lat": 0.0, "name": "942f47f15965461de3e92695d35049d0", "lon": -77.03995333333333, "is_disabled": 0, "is_reserved": 0, "fusion_lon": 0.0, "bike_id": "942f47f15965461de3e92695d35049d0", "lat": 38.88874033333333}, {"type": "electric_scooter", "rental_uris": {"android": "https://dc.lft.to/lastmile_qr_scan", "ios": "https://dc.lft.to/lastmile_qr_scan"}, "fusion_lat": 0.0, "name": "e35eec9f4a4c278d916bc52d8f7ff6a6", "lon": -77.03471533333334, "is_disabled": 0, "is_reserved": 0, "fusion_lon": 0.0, "bike_id": "e35eec9f4a4c278d916bc52d8f7ff6a6", "lat": 38.90673866666667}, {"type": "electric_scooter", "rental_uris": {"android": "https://dc.lft.to/lastmile_qr_scan", "ios": "https://dc.lft.to/lastmile_qr_scan"}, "fusion_lat": 0.0, "name": "27644f31883e8664ddd7834f44c8dd14", "lon": -77.00296316666666, "is_disabled": 0, "is_reserved": 0, "fusion_lon": 0.0, "bike_id": "27644f31883e8664ddd7834f44c8dd14", "lat": 38.894936}, {"type": "electric_scooter", "rental_uris": {"android": "https://dc.lft.to/lastmile_qr_scan", "ios": "https://dc.lft.to/lastmile_qr_scan"}, "fusion_lat": 0.0, "name": "f82cffa0e8057da24f06da3c303c98a8", "lon": -77.037754, "is_disabled": 0, "is_reserved": 0, "fusion_lon": 0.0, "bike_id": "f82cffa0e8057da24f06da3c303c98a8", "lat": 38.916925666666664}, {"type": "electric_scooter", "rental_uris": {"android": "https://dc.lft.to/lastmile_qr_scan", "ios": "https://dc.lft.to/lastmile_qr_scan"}, "fusion_lat": 0.0, "name": "4f3b723f779687634c05cd0355eef2c8", "lon": -77.037222, "is_disabled": 0, "is_reserved": 0, "fusion_lon": 0.0, "bike_id": "4f3b723f779687634c05cd0355eef2c8", "lat": 38.90366083333333}, {"type": "electric_scooter", "rental_uris": {"android": "https://dc.lft.to/lastmile_qr_scan", "ios": "https://dc.lft.to/lastmile_qr_scan"}, "fusion_lat": 0.0, "name": "feef6527679e803095a7c0c7e13d3781", "lon": -77.02148433333333, "is_disabled": 0, "is_reserved": 0, "fusion_lon": 0.0, "bike_id": "feef6527679e803095a7c0c7e13d3781", "lat": 38.92499466666666}, {"type": "electric_scooter", "rental_uris": {"android": "https://dc.lft.to/lastmile_qr_scan", "ios": "https://dc.lft.to/lastmile_qr_scan"}, "fusion_lat": 0.0, "name": "287d451a675b2c8577dda60ce3b9fa40", "lon": -77.02904066666666, "is_disabled": 0, "is_reserved": 0, "fusion_lon": 0.0, "bike_id": "287d451a675b2c8577dda60ce3b9fa40", "lat": 38.9404015}, {"type": "electric_scooter", "rental_uris": {"android": "https://dc.lft.to/lastmile_qr_scan", "ios": "https://dc.lft.to/lastmile_qr_scan"}, "fusion_lat": 0.0, "name": "098d43dd4a40892df06c84284af02e57", "lon": -77.04151016666667, "is_disabled": 0, "is_reserved": 0, "fusion_lon": 0.0, "bike_id": "098d43dd4a40892df06c84284af02e57", "lat": 38.91697583333333}, {"type": "electric_scooter", "rental_uris": {"android": "https://dc.lft.to/lastmile_qr_scan", "ios": "https://dc.lft.to/lastmile_qr_scan"}, "fusion_lat": 0.0, "name": "4ef5d947064d00be5e39aefb6e031373", "lon": -76.98570216666667, "is_disabled": 0, "is_reserved": 0, "fusion_lon": 0.0, "bike_id": "4ef5d947064d00be5e39aefb6e031373", "lat": 38.906403}, {"type": "electric_scooter", "rental_uris": {"android": "https://dc.lft.to/lastmile_qr_scan", "ios": "https://dc.lft.to/lastmile_qr_scan"}, "fusion_lat": 0.0, "name": "89e43a591b72284e45e2e28da85e2131", "lon": -77.04102866666666, "is_disabled": 0, "is_reserved": 0, "fusion_lon": 0.0, "bike_id": "89e43a591b72284e45e2e28da85e2131", "lat": 38.91777783333333}, {"type": "electric_scooter", "rental_uris": {"android": "https://dc.lft.to/lastmile_qr_scan", "ios": "https://dc.lft.to/lastmile_qr_scan"}, "fusion_lat": 0.0, "name": "ac8d0319a3704f91d5475ceebc093f38", "lon": -77.01559233333333, "is_disabled": 0, "is_reserved": 0, "fusion_lon": 0.0, "bike_id": "ac8d0319a3704f91d5475ceebc093f38", "lat": 38.8921915}, {"type": "electric_scooter", "rental_uris": {"android": "https://dc.lft.to/lastmile_qr_scan", "ios": "https://dc.lft.to/lastmile_qr_scan"}, "fusion_lat": 0.0, "name": "7c08ce922f0823d95052f9c3a64a3b74", "lon": -77.02951433333334, "is_disabled": 0, "is_reserved": 0, "fusion_lon": 0.0, "bike_id": "7c08ce922f0823d95052f9c3a64a3b74", "lat": 38.921753833333334}, {"type": "electric_scooter", "rental_uris": {"android": "https://dc.lft.to/lastmile_qr_scan", "ios": "https://dc.lft.to/lastmile_qr_scan"}, "fusion_lat": 0.0, "name": "75bce46ba1bca61db99eabc5286ea9e0", "lon": -77.013559, "is_disabled": 0, "is_reserved": 0, "fusion_lon": 0.0, "bike_id": "75bce46ba1bca61db99eabc5286ea9e0", "lat": 38.89248666666667}, {"type": "electric_scooter", "rental_uris": {"android": "https://dc.lft.to/lastmile_qr_scan", "ios": "https://dc.lft.to/lastmile_qr_scan"}, "fusion_lat": 0.0, "name": "f49ae1a05d7bc227d56239ee115ba432", "lon": -77.03510416666667, "is_disabled": 0, "is_reserved": 0, "fusion_lon": 0.0, "bike_id": "f49ae1a05d7bc227d56239ee115ba432", "lat": 38.91876633333333}, {"type": "electric_scooter", "rental_uris": {"android": "https://dc.lft.to/lastmile_qr_scan", "ios": "https://dc.lft.to/lastmile_qr_scan"}, "fusion_lat": 0.0, "name": "0eae5be3f5d1108fe46f05f272e76d59", "lon": -77.04338866666667, "is_disabled": 0, "is_reserved": 0, "fusion_lon": 0.0, "bike_id": "0eae5be3f5d1108fe46f05f272e76d59", "lat": 38.907673}, {"type": "electric_scooter", "rental_uris": {"android": "https://dc.lft.to/lastmile_qr_scan", "ios": "https://dc.lft.to/lastmile_qr_scan"}, "fusion_lat": 0.0, "name": "eb15aa99a7f82e244b7b954032596ae2", "lon": -76.97867183333334, "is_disabled": 0, "is_reserved": 0, "fusion_lon": 0.0, "bike_id": "eb15aa99a7f82e244b7b954032596ae2", "lat": 38.87070816666667}, {"type": "electric_scooter", "rental_uris": {"android": "https://dc.lft.to/lastmile_qr_scan", "ios": "https://dc.lft.to/lastmile_qr_scan"}, "fusion_lat": 0.0, "name": "f7aceb14e90114c7316225f48fe7e766", "lon": -76.9730575, "is_disabled": 0, "is_reserved": 0, "fusion_lon": 0.0, "bike_id": "f7aceb14e90114c7316225f48fe7e766", "lat": 38.9198805}, {"type": "electric_scooter", "rental_uris": {"android": "https://dc.lft.to/lastmile_qr_scan", "ios": "https://dc.lft.to/lastmile_qr_scan"}, "fusion_lat": 0.0, "name": "9edba6ed44e2110b98d13744e1c78719", "lon": -77.050653, "is_disabled": 0, "is_reserved": 0, "fusion_lon": 0.0, "bike_id": "9edba6ed44e2110b98d13744e1c78719", "lat": 38.924083833333334}, {"type": "electric_bike", "rental_uris": {"android": "https://dc.lft.to/lastmile_qr_scan", "ios": "https://dc.lft.to/lastmile_qr_scan"}, "fusion_lat": 0.0, "name": "a362147db5e5710db3edd930678015f0", "lon": -76.98541116666667, "is_disabled": 0, "is_reserved": 0, "fusion_lon": 0.0, "bike_id": "a362147db5e5710db3edd930678015f0", "lat": 38.8925265}, {"type": "electric_scooter", "rental_uris": {"android": "https://dc.lft.to/lastmile_qr_scan", "ios": "https://dc.lft.to/lastmile_qr_scan"}, "fusion_lat": 0.0, "name": "021c456f02cd5b401b465472886c4ea9", "lon": -77.05307983333333, "is_disabled": 0, "is_reserved": 0, "fusion_lon": 0.0, "bike_id": "021c456f02cd5b401b465472886c4ea9", "lat": 38.8985215}, {"type": "electric_scooter", "rental_uris": {"android": "https://dc.lft.to/lastmile_qr_scan", "ios": "https://dc.lft.to/lastmile_qr_scan"}, "fusion_lat": 0.0, "name": "0c55e616584de68ec74eef69a8cfcddf", "lon": -77.03466216666666, "is_disabled": 0, "is_reserved": 0, "fusion_lon": 0.0, "bike_id": "0c55e616584de68ec74eef69a8cfcddf", "lat": 38.91872216666667}, {"type": "electric_scooter", "rental_uris": {"android": "https://dc.lft.to/lastmile_qr_scan", "ios": "https://dc.lft.to/lastmile_qr_scan"}, "fusion_lat": 0.0, "name": "b72289590ea3053739b4f44dd198ede3", "lon": -77.033677, "is_disabled": 0, "is_reserved": 0, "fusion_lon": 0.0, "bike_id": "b72289590ea3053739b4f44dd198ede3", "lat": 38.908216}, {"type": "electric_scooter", "rental_uris": {"android": "https://dc.lft.to/lastmile_qr_scan", "ios": "https://dc.lft.to/lastmile_qr_scan"}, "fusion_lat": 0.0, "name": "0f5ab2d6aef4e4d48c5a5f1cb8c660d6", "lon": -77.02622033333333, "is_disabled": 0, "is_reserved": 0, "fusion_lon": 0.0, "bike_id": "0f5ab2d6aef4e4d48c5a5f1cb8c660d6", "lat": 38.928259833333335}, {"type": "electric_bike", "rental_uris": {"android": "https://dc.lft.to/lastmile_qr_scan", "ios": "https://dc.lft.to/lastmile_qr_scan"}, "fusion_lat": 0.0, "name": "a4efb6c5bc665e0c27eaafb052ea5b28", "lon": -77.07795483333334, "is_disabled": 0, "is_reserved": 0, "fusion_lon": 0.0, "bike_id": "a4efb6c5bc665e0c27eaafb052ea5b28", "lat": 38.9960345}, {"type": "electric_scooter", "rental_uris": {"android": "https://dc.lft.to/lastmile_qr_scan", "ios": "https://dc.lft.to/lastmile_qr_scan"}, "fusion_lat": 0.0, "name": "e355fe5188132891732f05b9ce37e7e3", "lon": -77.0292905, "is_disabled": 0, "is_reserved": 0, "fusion_lon": 0.0, "bike_id": "e355fe5188132891732f05b9ce37e7e3", "lat": 38.900032}, {"type": "electric_scooter", "rental_uris": {"android": "https://dc.lft.to/lastmile_qr_scan", "ios": "https://dc.lft.to/lastmile_qr_scan"}, "fusion_lat": 0.0, "name": "f7fd9fac89b01754e1f568296d4e2fba", "lon": -77.044364, "is_disabled": 0, "is_reserved": 0, "fusion_lon": 0.0, "bike_id": "f7fd9fac89b01754e1f568296d4e2fba", "lat": 38.921451166666664}, {"type": "electric_scooter", "rental_uris": {"android": "https://dc.lft.to/lastmile_qr_scan", "ios": "https://dc.lft.to/lastmile_qr_scan"}, "fusion_lat": 0.0, "name": "e11b18f17b29c31fe0ea149d9ee45bde", "lon": -77.036229, "is_disabled": 0, "is_reserved": 0, "fusion_lon": 0.0, "bike_id": "e11b18f17b29c31fe0ea149d9ee45bde", "lat": 38.90386316666667}, {"type": "electric_scooter", "rental_uris": {"android": "https://dc.lft.to/lastmile_qr_scan", "ios": "https://dc.lft.to/lastmile_qr_scan"}, "fusion_lat": 0.0, "name": "ca9212b68186bd17e2a3b6937cedf785", "lon": -77.04097483333334, "is_disabled": 0, "is_reserved": 0, "fusion_lon": 0.0, "bike_id": "ca9212b68186bd17e2a3b6937cedf785", "lat": 38.9178165}, {"type": "electric_scooter", "rental_uris": {"android": "https://dc.lft.to/lastmile_qr_scan", "ios": "https://dc.lft.to/lastmile_qr_scan"}, "fusion_lat": 0.0, "name": "49d68b42b97bbea5dd6c418b10b8baa2", "lon": -77.00727566666667, "is_disabled": 0, "is_reserved": 0, "fusion_lon": 0.0, "bike_id": "49d68b42b97bbea5dd6c418b10b8baa2", "lat": 38.884972}, {"type": "electric_scooter", "rental_uris": {"android": "https://dc.lft.to/lastmile_qr_scan", "ios": "https://dc.lft.to/lastmile_qr_scan"}, "fusion_lat": 0.0, "name": "90cafa677df061365d76e97aecb03595", "lon": -76.99768183333333, "is_disabled": 0, "is_reserved": 0, "fusion_lon": 0.0, "bike_id": "90cafa677df061365d76e97aecb03595", "lat": 38.910687833333334}, {"type": "electric_scooter", "rental_uris": {"android": "https://dc.lft.to/lastmile_qr_scan", "ios": "https://dc.lft.to/lastmile_qr_scan"}, "fusion_lat": 0.0, "name": "cfb71b4a6274aacfbe37833f71cc351a", "lon": -76.995623, "is_disabled": 0, "is_reserved": 0, "fusion_lon": 0.0, "bike_id": "cfb71b4a6274aacfbe37833f71cc351a", "lat": 38.86223}, {"type": "electric_scooter", "rental_uris": {"android": "https://dc.lft.to/lastmile_qr_scan", "ios": "https://dc.lft.to/lastmile_qr_scan"}, "fusion_lat": 0.0, "name": "c3d1d2c53bb94861b09754cc09940311", "lon": -77.00105416666666, "is_disabled": 0, "is_reserved": 0, "fusion_lon": 0.0, "bike_id": "c3d1d2c53bb94861b09754cc09940311", "lat": 38.916338333333336}, {"type": "electric_scooter", "rental_uris": {"android": "https://dc.lft.to/lastmile_qr_scan", "ios": "https://dc.lft.to/lastmile_qr_scan"}, "fusion_lat": 0.0, "name": "c23bda903953469c0c1ec9c290e53de4", "lon": -76.937372, "is_disabled": 0, "is_reserved": 0, "fusion_lon": 0.0, "bike_id": "c23bda903953469c0c1ec9c290e53de4", "lat": 38.890168}, {"type": "electric_scooter", "rental_uris": {"android": "https://dc.lft.to/lastmile_qr_scan", "ios": "https://dc.lft.to/lastmile_qr_scan"}, "fusion_lat": 0.0, "name": "afc1a19b623a0127472b9cc6d4b4829a", "lon": -77.00928416666666, "is_disabled": 0, "is_reserved": 0, "fusion_lon": 0.0, "bike_id": "afc1a19b623a0127472b9cc6d4b4829a", "lat": 38.918103}, {"type": "electric_scooter", "rental_uris": {"android": "https://dc.lft.to/lastmile_qr_scan", "ios": "https://dc.lft.to/lastmile_qr_scan"}, "fusion_lat": 0.0, "name": "c26c4daade778c026b0cece551409ba2", "lon": -77.03897283333333, "is_disabled": 0, "is_reserved": 0, "fusion_lon": 0.0, "bike_id": "c26c4daade778c026b0cece551409ba2", "lat": 38.9228185}, {"type": "electric_bike", "rental_uris": {"android": "https://dc.lft.to/lastmile_qr_scan", "ios": "https://dc.lft.to/lastmile_qr_scan"}, "fusion_lat": 0.0, "name": "dd0521d58a207e9082a2f7b1f103dece", "lon": -77.025089, "is_disabled": 0, "is_reserved": 0, "fusion_lon": 0.0, "bike_id": "dd0521d58a207e9082a2f7b1f103dece", "lat": 38.932925}, {"type": "electric_scooter", "rental_uris": {"android": "https://dc.lft.to/lastmile_qr_scan", "ios": "https://dc.lft.to/lastmile_qr_scan"}, "fusion_lat": 0.0, "name": "1192ed39b0476020314d328b2b06a61b", "lon": -77.01202283333333, "is_disabled": 0, "is_reserved": 0, "fusion_lon": 0.0, "bike_id": "1192ed39b0476020314d328b2b06a61b", "lat": 38.893156166666664}, {"type": "electric_scooter", "rental_uris": {"android": "https://dc.lft.to/lastmile_qr_scan", "ios": "https://dc.lft.to/lastmile_qr_scan"}, "fusion_lat": 0.0, "name": "e2c145404854a1a893fd7dee0afc0c0d", "lon": -77.00787033333333, "is_disabled": 0, "is_reserved": 0, "fusion_lon": 0.0, "bike_id": "e2c145404854a1a893fd7dee0afc0c0d", "lat": 38.89670366666667}, {"type": "electric_scooter", "rental_uris": {"android": "https://dc.lft.to/lastmile_qr_scan", "ios": "https://dc.lft.to/lastmile_qr_scan"}, "fusion_lat": 0.0, "name": "f04f9d7071ccbdefcf5c80a21f0d7d06", "lon": -77.05755433333333, "is_disabled": 0, "is_reserved": 0, "fusion_lon": 0.0, "bike_id": "f04f9d7071ccbdefcf5c80a21f0d7d06", "lat": 38.924686666666666}, {"type": "electric_scooter", "rental_uris": {"android": "https://dc.lft.to/lastmile_qr_scan", "ios": "https://dc.lft.to/lastmile_qr_scan"}, "fusion_lat": 0.0, "name": "45af664ec7421de5a1c7f49bb8ea713f", "lon": -77.02531516666667, "is_disabled": 0, "is_reserved": 0, "fusion_lon": 0.0, "bike_id": "45af664ec7421de5a1c7f49bb8ea713f", "lat": 38.927513166666664}, {"type": "electric_scooter", "rental_uris": {"android": "https://dc.lft.to/lastmile_qr_scan", "ios": "https://dc.lft.to/lastmile_qr_scan"}, "fusion_lat": 0.0, "name": "2bcc03e0ebe331fcbfc26eaaf8741fa1", "lon": -76.93377083333333, "is_disabled": 0, "is_reserved": 0, "fusion_lon": 0.0, "bike_id": "2bcc03e0ebe331fcbfc26eaaf8741fa1", "lat": 38.89914516666666}, {"type": "electric_bike", "rental_uris": {"android": "https://dc.lft.to/lastmile_qr_scan", "ios": "https://dc.lft.to/lastmile_qr_scan"}, "fusion_lat": 0.0, "name": "5e60809183b8edb47fed431f5abae511", "lon": -77.10088483333334, "is_disabled": 0, "is_reserved": 0, "fusion_lon": 0.0, "bike_id": "5e60809183b8edb47fed431f5abae511", "lat": 38.95961033333333}, {"type": "electric_scooter", "rental_uris": {"android": "https://dc.lft.to/lastmile_qr_scan", "ios": "https://dc.lft.to/lastmile_qr_scan"}, "fusion_lat": 0.0, "name": "4258a9bb775352162fcce4f268432d65", "lon": -77.02813583333334, "is_disabled": 0, "is_reserved": 0, "fusion_lon": 0.0, "bike_id": "4258a9bb775352162fcce4f268432d65", "lat": 38.91686983333334}, {"type": "electric_bike", "rental_uris": {"android": "https://dc.lft.to/lastmile_qr_scan", "ios": "https://dc.lft.to/lastmile_qr_scan"}, "fusion_lat": 0.0, "name": "2f69027e3dfab65e28ab2306a91e57a9", "lon": -76.99408133333333, "is_disabled": 0, "is_reserved": 0, "fusion_lon": 0.0, "bike_id": "2f69027e3dfab65e28ab2306a91e57a9", "lat": 38.83138733333333}, {"type": "electric_bike", "rental_uris": {"android": "https://dc.lft.to/lastmile_qr_scan", "ios": "https://dc.lft.to/lastmile_qr_scan"}, "fusion_lat": 0.0, "name": "3ace86fc12ada50452611390277fe492", "lon": -76.961368, "is_disabled": 0, "is_reserved": 0, "fusion_lon": 0.0, "bike_id": "3ace86fc12ada50452611390277fe492", "lat": 38.955162}, {"type": "electric_scooter", "rental_uris": {"android": "https://dc.lft.to/lastmile_qr_scan", "ios": "https://dc.lft.to/lastmile_qr_scan"}, "fusion_lat": 0.0, "name": "1046beff2d3fd217dc1c78b48e2b8257", "lon": -77.032022, "is_disabled": 0, "is_reserved": 0, "fusion_lon": 0.0, "bike_id": "1046beff2d3fd217dc1c78b48e2b8257", "lat": 38.915973}, {"type": "electric_scooter", "rental_uris": {"android": "https://dc.lft.to/lastmile_qr_scan", "ios": "https://dc.lft.to/lastmile_qr_scan"}, "fusion_lat": 0.0, "name": "b2e54193bcfe81ed19b139426a81b876", "lon": -77.032512, "is_disabled": 0, "is_reserved": 0, "fusion_lon": 0.0, "bike_id": "b2e54193bcfe81ed19b139426a81b876", "lat": 38.909632333333334}, {"type": "electric_scooter", "rental_uris": {"android": "https://dc.lft.to/lastmile_qr_scan", "ios": "https://dc.lft.to/lastmile_qr_scan"}, "fusion_lat": 0.0, "name": "7f7d3a5fa8c5ab7368bab60899071679", "lon": -77.02209383333333, "is_disabled": 0, "is_reserved": 0, "fusion_lon": 0.0, "bike_id": "7f7d3a5fa8c5ab7368bab60899071679", "lat": 38.910154}, {"type": "electric_bike", "rental_uris": {"android": "https://dc.lft.to/lastmile_qr_scan", "ios": "https://dc.lft.to/lastmile_qr_scan"}, "fusion_lat": 0.0, "name": "27f76f34735b0ed62deff5537eab3fae", "lon": -77.00734016666667, "is_disabled": 0, "is_reserved": 0, "fusion_lon": 0.0, "bike_id": "27f76f34735b0ed62deff5537eab3fae", "lat": 38.897796166666666}, {"type": "electric_scooter", "rental_uris": {"android": "https://dc.lft.to/lastmile_qr_scan", "ios": "https://dc.lft.to/lastmile_qr_scan"}, "fusion_lat": 0.0, "name": "db51f94437b12dd6cdb9166058210fda", "lon": -77.03216583333334, "is_disabled": 0, "is_reserved": 0, "fusion_lon": 0.0, "bike_id": "db51f94437b12dd6cdb9166058210fda", "lat": 38.92040766666667}, {"type": "electric_scooter", "rental_uris": {"android": "https://dc.lft.to/lastmile_qr_scan", "ios": "https://dc.lft.to/lastmile_qr_scan"}, "fusion_lat": 0.0, "name": "46a54dd41be2baffbf0bbc1dce07403b", "lon": -77.000713, "is_disabled": 0, "is_reserved": 0, "fusion_lon": 0.0, "bike_id": "46a54dd41be2baffbf0bbc1dce07403b", "lat": 38.901435666666664}, {"type": "electric_scooter", "rental_uris": {"android": "https://dc.lft.to/lastmile_qr_scan", "ios": "https://dc.lft.to/lastmile_qr_scan"}, "fusion_lat": 0.0, "name": "f602dab137bf5638871ab800ae16cd36", "lon": -77.04251633333334, "is_disabled": 0, "is_reserved": 0, "fusion_lon": 0.0, "bike_id": "f602dab137bf5638871ab800ae16cd36", "lat": 38.9105915}, {"type": "electric_scooter", "rental_uris": {"android": "https://dc.lft.to/lastmile_qr_scan", "ios": "https://dc.lft.to/lastmile_qr_scan"}, "fusion_lat": 0.0, "name": "49843dfa527da05ce37b72bf00bcae86", "lon": -76.9882275, "is_disabled": 0, "is_reserved": 0, "fusion_lon": 0.0, "bike_id": "49843dfa527da05ce37b72bf00bcae86", "lat": 38.91907616666667}, {"type": "electric_scooter", "rental_uris": {"android": "https://dc.lft.to/lastmile_qr_scan", "ios": "https://dc.lft.to/lastmile_qr_scan"}, "fusion_lat": 0.0, "name": "85ab719d145bfca9006e5ca202a83397", "lon": -76.985942, "is_disabled": 0, "is_reserved": 0, "fusion_lon": 0.0, "bike_id": "85ab719d145bfca9006e5ca202a83397", "lat": 38.908128}, {"type": "electric_scooter", "rental_uris": {"android": "https://dc.lft.to/lastmile_qr_scan", "ios": "https://dc.lft.to/lastmile_qr_scan"}, "fusion_lat": 0.0, "name": "73ffe4a4cf0f83e521bb976f573473f1", "lon": -77.03200466666667, "is_disabled": 0, "is_reserved": 0, "fusion_lon": 0.0, "bike_id": "73ffe4a4cf0f83e521bb976f573473f1", "lat": 38.9113385}, {"type": "electric_scooter", "rental_uris": {"android": "https://dc.lft.to/lastmile_qr_scan", "ios": "https://dc.lft.to/lastmile_qr_scan"}, "fusion_lat": 0.0, "name": "2f4fb970408c7d49b0a567235b74a3df", "lon": -77.0412055, "is_disabled": 0, "is_reserved": 0, "fusion_lon": 0.0, "bike_id": "2f4fb970408c7d49b0a567235b74a3df", "lat": 38.92374133333333}, {"type": "electric_scooter", "rental_uris": {"android": "https://dc.lft.to/lastmile_qr_scan", "ios": "https://dc.lft.to/lastmile_qr_scan"}, "fusion_lat": 0.0, "name": "fac6a7f68675195215c4b1dba96857db", "lon": -76.99141916666666, "is_disabled": 0, "is_reserved": 0, "fusion_lon": 0.0, "bike_id": "fac6a7f68675195215c4b1dba96857db", "lat": 38.90125}, {"type": "electric_scooter", "rental_uris": {"android": "https://dc.lft.to/lastmile_qr_scan", "ios": "https://dc.lft.to/lastmile_qr_scan"},