{"data": {"bikes": [{"name": "814486421a3ea14a7584a38dca1c9981", "type": "electric_scooter", "lat": 38.905107, "is_reserved": 0, "lon": -77.063865, "fusion_lon": 0.0, "is_disabled": 0, "fusion_lat": 0.0, "bike_id": "814486421a3ea14a7584a38dca1c9981", "rental_uris": {"ios": "https://dc.lft.to/lastmile_qr_scan", "android": "https://dc.lft.to/lastmile_qr_scan"}}, {"name": "7acbcc70bf52eb2783d35c3f74457695", "type": "electric_scooter", "lat": 38.9055615, "is_reserved": 0, "lon": -77.0057895, "fusion_lon": 0.0, "is_disabled": 0, "fusion_lat": 0.0, "bike_id": "7acbcc70bf52eb2783d35c3f74457695", "rental_uris": {"ios": "https://dc.lft.to/lastmile_qr_scan", "android": "https://dc.lft.to/lastmile_qr_scan"}}, {"name": "b19fb29568d9b4c8ea5594ffa3815617", "type": "electric_bike", "lat": 38.8883225, "is_reserved": 0, "lon": -76.99360833333333, "fusion_lon": 0.0, "is_disabled": 0, "fusion_lat": 0.0, "bike_id": "b19fb29568d9b4c8ea5594ffa3815617", "rental_uris": {"ios": "https://dc.lft.to/lastmile_qr_scan", "android": "https://dc.lft.to/lastmile_qr_scan"}}, {"name": "3b880fad63b32a93f45fe7313bfdb3d0", "type": "electric_scooter", "lat": 38.909668333333336, "is_reserved": 0, "lon": -77.01122066666667, "fusion_lon": 0.0, "is_disabled": 0, "fusion_lat": 0.0, "bike_id": "3b880fad63b32a93f45fe7313bfdb3d0", "rental_uris": {"ios": "https://dc.lft.to/lastmile_qr_scan", "android": "https://dc.lft.to/lastmile_qr_scan"}}, {"name": "6543a2d4cb4181b735c0c8ed5a45d358", "type": "electric_scooter", "lat": 38.9059035, "is_reserved": 0, "lon": -77.06514283333334, "fusion_lon": 0.0, "is_disabled": 0, "fusion_lat": 0.0, "bike_id": "6543a2d4cb4181b735c0c8ed5a45d358", "rental_uris": {"ios": "https://dc.lft.to/lastmile_qr_scan", "android": "https://dc.lft.to/lastmile_qr_scan"}}, {"name": "992bdf7587abe5d4b833acf4ea7e87c7", "type": "electric_scooter", "lat": 38.918550333333336, "is_reserved": 0, "lon": -76.965453, "fusion_lon": 0.0, "is_disabled": 0, "fusion_lat": 0.0, "bike_id": "992bdf7587abe5d4b833acf4ea7e87c7", "rental_uris": {"ios": "https://dc.lft.to/lastmile_qr_scan", "android": "https://dc.lft.to/lastmile_qr_scan"}}, {"name": "0bfc96a03ae7955da6255bca0ca94905", "type": "electric_bike", "lat": 38.955336, "is_reserved": 0, "lon": -77.02290766666667, "fusion_lon": 0.0, "is_disabled": 0, "fusion_lat": 0.0, "bike_id": "0bfc96a03ae7955da6255bca0ca94905", "rental_uris": {"ios": "https://dc.lft.to/lastmile_qr_scan", "android": "https://dc.lft.to/lastmile_qr_scan"}}, {"name": "854ed903835c1ed12fc6d58c1244e084", "type": "electric_scooter", "lat": 38.92054183333333, "is_reserved": 0, "lon": -77.02970816666667, "fusion_lon": 0.0, "is_disabled": 0, "fusion_lat": 0.0, "bike_id": "854ed903835c1ed12fc6d58c1244e084", "rental_uris": {"ios": "https://dc.lft.to/lastmile_qr_scan", "android": "https://dc.lft.to/lastmile_qr_scan"}}, {"name": "24bc18ebbe0127c1e488f4853f44c858", "type": "electric_scooter", "lat": 38.926302666666665, "is_reserved": 0, "lon": -77.03507016666667, "fusion_lon": 0.0, "is_disabled": 0, "fusion_lat": 0.0, "bike_id": "24bc18ebbe0127c1e488f4853f44c858", "rental_uris": {"ios": "https://dc.lft.to/lastmile_qr_scan", "android": "https://dc.lft.to/lastmile_qr_scan"}}, {"name": "fd68b1fed43f0fc9d56917d7c7f7c12e", "type": "electric_scooter", "lat": 38.90583566666667, "is_reserved": 0, "lon": -77.06519966666667, "fusion_lon": 0.0, "is_disabled": 0, "fusion_lat": 0.0, "bike_id": "fd68b1fed43f0fc9d56917d7c7f7c12e", "rental_uris": {"ios": "https://dc.lft.to/lastmile_qr_scan", "android": "https://dc.lft.to/lastmile_qr_scan"}}, {"name": "70be502a165c1b80d96e174a583abae4", "type": "electric_scooter", "lat": 38.909741333333336, "is_reserved": 0, "lon": -77.0171155, "fusion_lon": 0.0, "is_disabled": 0, "fusion_lat": 0.0, "bike_id": "70be502a165c1b80d96e174a583abae4", "rental_uris": {"ios": "https://dc.lft.to/lastmile_qr_scan", "android": "https://dc.lft.to/lastmile_qr_scan"}}, {"name": "0a343cd09ae2db20b0fd3c7469e34da3", "type": "electric_scooter", "lat": 38.9197475, "is_reserved": 0, "lon": -77.00107683333333, "fusion_lon": 0.0, "is_disabled": 0, "fusion_lat": 0.0, "bike_id": "0a343cd09ae2db20b0fd3c7469e34da3", "rental_uris": {"ios": "https://dc.lft.to/lastmile_qr_scan", "android": "https://dc.lft.to/lastmile_qr_scan"}}, {"name": "4c644371440525a5c3ca746c337f7d6a", "type": "electric_scooter", "lat": 38.923443166666665, "is_reserved": 0, "lon": -77.01897383333333, "fusion_lon": 0.0, "is_disabled": 0, "fusion_lat": 0.0, "bike_id": "4c644371440525a5c3ca746c337f7d6a", "rental_uris": {"ios": "https://dc.lft.to/lastmile_qr_scan", "android": "https://dc.lft.to/lastmile_qr_scan"}}, {"name": "00adfeb2fbbf3bde7df533b690dd2a1b", "type": "electric_scooter", "lat": 38.9056455, "is_reserved": 0, "lon": -77.00563766666667, "fusion_lon": 0.0, "is_disabled": 0, "fusion_lat": 0.0, "bike_id": "00adfeb2fbbf3bde7df533b690dd2a1b", "rental_uris": {"ios": "https://dc.lft.to/lastmile_qr_scan", "android": "https://dc.lft.to/lastmile_qr_scan"}}, {"name": "b5b15c4640772380c869d72da8be0764", "type": "electric_scooter", "lat": 38.902684, "is_reserved": 0, "lon": -77.031924, "fusion_lon": 0.0, "is_disabled": 0, "fusion_lat": 0.0, "bike_id": "b5b15c4640772380c869d72da8be0764", "rental_uris": {"ios": "https://dc.lft.to/lastmile_qr_scan", "android": "https://dc.lft.to/lastmile_qr_scan"}}, {"name": "aa3c2e0d588fe6906a3692091928c1d5", "type": "electric_scooter", "lat": 38.92971516666667, "is_reserved": 0, "lon": -77.02328816666666, "fusion_lon": 0.0, "is_disabled": 0, "fusion_lat": 0.0, "bike_id": "aa3c2e0d588fe6906a3692091928c1d5", "rental_uris": {"ios": "https://dc.lft.to/lastmile_qr_scan", "android": "https://dc.lft.to/lastmile_qr_scan"}}, {"name": "f8676dd41fb90843557e462e7f9e8217", "type": "electric_scooter", "lat": 38.907257333333334, "is_reserved": 0, "lon": -77.01134366666666, "fusion_lon": 0.0, "is_disabled": 0, "fusion_lat": 0.0, "bike_id": "f8676dd41fb90843557e462e7f9e8217", "rental_uris": {"ios": "https://dc.lft.to/lastmile_qr_scan", "android": "https://dc.lft.to/lastmile_qr_scan"}}, {"name": "65b9afc8d515077d88317b0b4e31c3e0", "type": "electric_scooter", "lat": 38.92157783333333, "is_reserved": 0, "lon": -77.03380966666667, "fusion_lon": 0.0, "is_disabled": 0, "fusion_lat": 0.0, "bike_id": "65b9afc8d515077d88317b0b4e31c3e0", "rental_uris": {"ios": "https://dc.lft.to/lastmile_qr_scan", "android": "https://dc.lft.to/lastmile_qr_scan"}}, {"name": "e51691ad397e53ef2c17140846763e61", "type": "electric_scooter", "lat": 38.88605883333334, "is_reserved": 0, "lon": -76.99516533333333, "fusion_lon": 0.0, "is_disabled": 0, "fusion_lat": 0.0, "bike_id": "e51691ad397e53ef2c17140846763e61", "rental_uris": {"ios": "https://dc.lft.to/lastmile_qr_scan", "android": "https://dc.lft.to/lastmile_qr_scan"}}, {"name": "3f5313ac06d4e3fd5605b4c52c573ea6", "type": "electric_scooter", "lat": 38.88217933333333, "is_reserved": 0, "lon": -76.94175566666667, "fusion_lon": 0.0, "is_disabled": 0, "fusion_lat": 0.0, "bike_id": "3f5313ac06d4e3fd5605b4c52c573ea6", "rental_uris": {"ios": "https://dc.lft.to/lastmile_qr_scan", "android": "https://dc.lft.to/lastmile_qr_scan"}}, {"name": "358c6abba690eb0725ad7e65e1a1e8cd", "type": "electric_scooter", "lat": 38.90329833333333, "is_reserved": 0, "lon": -76.989724, "fusion_lon": 0.0, "is_disabled": 0, "fusion_lat": 0.0, "bike_id": "358c6abba690eb0725ad7e65e1a1e8cd", "rental_uris": {"ios": "https://dc.lft.to/lastmile_qr_scan", "android": "https://dc.lft.to/lastmile_qr_scan"}}, {"name": "0471384ea0bf3f029cdd28ab2860ff6a", "type": "electric_scooter", "lat": 38.92210333333333, "is_reserved": 0, "lon": -77.042507, "fusion_lon": 0.0, "is_disabled": 0, "fusion_lat": 0.0, "bike_id": "0471384ea0bf3f029cdd28ab2860ff6a", "rental_uris": {"ios": "https://dc.lft.to/lastmile_qr_scan", "android": "https://dc.lft.to/lastmile_qr_scan"}}, {"name": "17935b2847da33b7b0d33565ef828b4e", "type": "electric_scooter", "lat": 38.901687, "is_reserved": 0, "lon": -77.0001005, "fusion_lon": 0.0, "is_disabled": 0, "fusion_lat": 0.0, "bike_id": "17935b2847da33b7b0d33565ef828b4e", "rental_uris": {"ios": "https://dc.lft.to/lastmile_qr_scan", "android": "https://dc.lft.to/lastmile_qr_scan"}}, {"name": "7ef8d0bf71736517207c3ef87e4b1bdd", "type": "electric_scooter", "lat": 38.9054695, "is_reserved": 0, "lon": -77.0467675, "fusion_lon": 0.0, "is_disabled": 0, "fusion_lat": 0.0, "bike_id": "7ef8d0bf71736517207c3ef87e4b1bdd", "rental_uris": {"ios": "https://dc.lft.to/lastmile_qr_scan", "android": "https://dc.lft.to/lastmile_qr_scan"}}, {"name": "40c0b916457d686519ebc4654cbd76bd", "type": "electric_scooter", "lat": 38.90378333333334, "is_reserved": 0, "lon": -77.044877, "fusion_lon": 0.0, "is_disabled": 0, "fusion_lat": 0.0, "bike_id": "40c0b916457d686519ebc4654cbd76bd", "rental_uris": {"ios": "https://dc.lft.to/lastmile_qr_scan", "android": "https://dc.lft.to/lastmile_qr_scan"}}, {"name": "1af0207293aff6880574d538bbe060c2", "type": "electric_scooter", "lat": 38.94126383333333, "is_reserved": 0, "lon": -77.02667416666667, "fusion_lon": 0.0, "is_disabled": 0, "fusion_lat": 0.0, "bike_id": "1af0207293aff6880574d538bbe060c2", "rental_uris": {"ios": "https://dc.lft.to/lastmile_qr_scan", "android": "https://dc.lft.to/lastmile_qr_scan"}}, {"name": "88903092464cae03720f8c053dea5e56", "type": "electric_scooter", "lat": 38.8848925, "is_reserved": 0, "lon": -77.0285985, "fusion_lon": 0.0, "is_disabled": 0, "fusion_lat": 0.0, "bike_id": "88903092464cae03720f8c053dea5e56", "rental_uris": {"ios": "https://dc.lft.to/lastmile_qr_scan", "android": "https://dc.lft.to/lastmile_qr_scan"}}, {"name": "d1dbbbe0e04279807e192cffb71c0b82", "type": "electric_scooter", "lat": 38.90857583333333, "is_reserved": 0, "lon": -76.9861985, "fusion_lon": 0.0, "is_disabled": 0, "fusion_lat": 0.0, "bike_id": "d1dbbbe0e04279807e192cffb71c0b82", "rental_uris": {"ios": "https://dc.lft.to/lastmile_qr_scan", "android": "https://dc.lft.to/lastmile_qr_scan"}}, {"name": "a24539cfc13aa29252b938385718a591", "type": "electric_scooter", "lat": 38.900370833333334, "is_reserved": 0, "lon": -76.988413, "fusion_lon": 0.0, "is_disabled": 0, "fusion_lat": 0.0, "bike_id": "a24539cfc13aa29252b938385718a591", "rental_uris": {"ios": "https://dc.lft.to/lastmile_qr_scan", "android": "https://dc.lft.to/lastmile_qr_scan"}}, {"name": "d56cd7b7e3149b723aade48bd6606bcd", "type": "electric_scooter", "lat": 38.905109, "is_reserved": 0, "lon": -77.06589183333334, "fusion_lon": 0.0, "is_disabled": 0, "fusion_lat": 0.0, "bike_id": "d56cd7b7e3149b723aade48bd6606bcd", "rental_uris": {"ios": "https://dc.lft.to/lastmile_qr_scan", "android": "https://dc.lft.to/lastmile_qr_scan"}}, {"name": "62712e023231c490f156319c9ac1131b", "type": "electric_bike", "lat": 38.9036385, "is_reserved": 0, "lon": -76.9831885, "fusion_lon": 0.0, "is_disabled": 0, "fusion_lat": 0.0, "bike_id": "62712e023231c490f156319c9ac1131b", "rental_uris": {"ios": "https://dc.lft.to/lastmile_qr_scan", "android": "https://dc.lft.to/lastmile_qr_scan"}}, {"name": "11fae9b4ac4c65848015571ddf8aa9e9", "type": "electric_scooter", "lat": 38.863571, "is_reserved": 0, "lon": -76.99068116666666, "fusion_lon": 0.0, "is_disabled": 0, "fusion_lat": 0.0, "bike_id": "11fae9b4ac4c65848015571ddf8aa9e9", "rental_uris": {"ios": "https://dc.lft.to/lastmile_qr_scan", "android": "https://dc.lft.to/lastmile_qr_scan"}}, {"name": "9252cb23af8cc605f91d966e6b121e5f", "type": "electric_scooter", "lat": 38.9148335, "is_reserved": 0, "lon": -77.03918466666667, "fusion_lon": 0.0, "is_disabled": 0, "fusion_lat": 0.0, "bike_id": "9252cb23af8cc605f91d966e6b121e5f", "rental_uris": {"ios": "https://dc.lft.to/lastmile_qr_scan", "android": "https://dc.lft.to/lastmile_qr_scan"}}, {"name": "c74ad3968e42830f05a3d567c791e541", "type": "electric_scooter", "lat": 38.90591083333333, "is_reserved": 0, "lon": -77.01612366666667, "fusion_lon": 0.0, "is_disabled": 0, "fusion_lat": 0.0, "bike_id": "c74ad3968e42830f05a3d567c791e541", "rental_uris": {"ios": "https://dc.lft.to/lastmile_qr_scan", "android": "https://dc.lft.to/lastmile_qr_scan"}}, {"name": "9082cd621a7e61243aa77878f3d4c5c8", "type": "electric_scooter", "lat": 38.9145955, "is_reserved": 0, "lon": -77.038488, "fusion_lon": 0.0, "is_disabled": 0, "fusion_lat": 0.0, "bike_id": "9082cd621a7e61243aa77878f3d4c5c8", "rental_uris": {"ios": "https://dc.lft.to/lastmile_qr_scan", "android": "https://dc.lft.to/lastmile_qr_scan"}}, {"name": "80692c4cd97d30c8a8a84d8b208a1ea8", "type": "electric_scooter", "lat": 38.900240833333335, "is_reserved": 0, "lon": -77.011613, "fusion_lon": 0.0, "is_disabled": 0, "fusion_lat": 0.0, "bike_id": "80692c4cd97d30c8a8a84d8b208a1ea8", "rental_uris": {"ios": "https://dc.lft.to/lastmile_qr_scan", "android": "https://dc.lft.to/lastmile_qr_scan"}}, {"name": "136e563ed63e45ff6e63ffdb126c7933", "type": "electric_bike", "lat": 38.880409666666665, "is_reserved": 0, "lon": -77.0132685, "fusion_lon": 0.0, "is_disabled": 0, "fusion_lat": 0.0, "bike_id": "136e563ed63e45ff6e63ffdb126c7933", "rental_uris": {"ios": "https://dc.lft.to/lastmile_qr_scan", "android": "https://dc.lft.to/lastmile_qr_scan"}}, {"name": "7fcbdfeda9c71228288ab1f81b21c20c", "type": "electric_scooter", "lat": 38.8981055, "is_reserved": 0, "lon": -77.03312483333333, "fusion_lon": 0.0, "is_disabled": 0, "fusion_lat": 0.0, "bike_id": "7fcbdfeda9c71228288ab1f81b21c20c", "rental_uris": {"ios": "https://dc.lft.to/lastmile_qr_scan", "android": "https://dc.lft.to/lastmile_qr_scan"}}, {"name": "252ea39b9982eb605e3fa95c76476877", "type": "electric_bike", "lat": 38.8392875, "is_reserved": 0, "lon": -77.07902983333334, "fusion_lon": 0.0, "is_disabled": 0, "fusion_lat": 0.0, "bike_id": "252ea39b9982eb605e3fa95c76476877", "rental_uris": {"ios": "https://dc.lft.to/lastmile_qr_scan", "android": "https://dc.lft.to/lastmile_qr_scan"}}, {"name": "0aaca4f2777480202cae8b4693f9dc05", "type": "electric_scooter", "lat": 38.91111866666667, "is_reserved": 0, "lon": -77.03481383333333, "fusion_lon": 0.0, "is_disabled": 0, "fusion_lat": 0.0, "bike_id": "0aaca4f2777480202cae8b4693f9dc05", "rental_uris": {"ios": "https://dc.lft.to/lastmile_qr_scan", "android": "https://dc.lft.to/lastmile_qr_scan"}}, {"name": "efc80d0e31410d3a3c5645700578e1cc", "type": "electric_scooter", "lat": 38.90326116666667, "is_reserved": 0, "lon": -77.03347516666666, "fusion_lon": 0.0, "is_disabled": 0, "fusion_lat": 0.0, "bike_id": "efc80d0e31410d3a3c5645700578e1cc", "rental_uris": {"ios": "https://dc.lft.to/lastmile_qr_scan", "android": "https://dc.lft.to/lastmile_qr_scan"}}, {"name": "f17aea0bb4aa89dfa7a19f6121e5ed68", "type": "electric_scooter", "lat": 38.939767333333336, "is_reserved": 0, "lon": -77.02591483333333, "fusion_lon": 0.0, "is_disabled": 0, "fusion_lat": 0.0, "bike_id": "f17aea0bb4aa89dfa7a19f6121e5ed68", "rental_uris": {"ios": "https://dc.lft.to/lastmile_qr_scan", "android": "https://dc.lft.to/lastmile_qr_scan"}}, {"name": "ec3898f3927dac6f017c129ab4e233c1", "type": "electric_bike", "lat": 38.84277216666667, "is_reserved": 0, "lon": -76.98842566666667, "fusion_lon": 0.0, "is_disabled": 0, "fusion_lat": 0.0, "bike_id": "ec3898f3927dac6f017c129ab4e233c1", "rental_uris": {"ios": "https://dc.lft.to/lastmile_qr_scan", "android": "https://dc.lft.to/lastmile_qr_scan"}}, {"name": "3e3d2b8b3c12841e0f2cd1b1754a164c", "type": "electric_scooter", "lat": 38.91574416666667, "is_reserved": 0, "lon": -77.02194716666666, "fusion_lon": 0.0, "is_disabled": 0, "fusion_lat": 0.0, "bike_id": "3e3d2b8b3c12841e0f2cd1b1754a164c", "rental_uris": {"ios": "https://dc.lft.to/lastmile_qr_scan", "android": "https://dc.lft.to/lastmile_qr_scan"}}, {"name": "6e2136cde922b49a0b44d62469bfe09e", "type": "electric_scooter", "lat": 38.92722916666666, "is_reserved": 0, "lon": -77.00555083333333, "fusion_lon": 0.0, "is_disabled": 0, "fusion_lat": 0.0, "bike_id": "6e2136cde922b49a0b44d62469bfe09e", "rental_uris": {"ios": "https://dc.lft.to/lastmile_qr_scan", "android": "https://dc.lft.to/lastmile_qr_scan"}}, {"name": "f824804f85d181576e58274f4920f77d", "type": "electric_bike", "lat": 38.86273116666667, "is_reserved": 0, "lon": -77.0636715, "fusion_lon": 0.0, "is_disabled": 0, "fusion_lat": 0.0, "bike_id": "f824804f85d181576e58274f4920f77d", "rental_uris": {"ios": "https://dc.lft.to/lastmile_qr_scan", "android": "https://dc.lft.to/lastmile_qr_scan"}}, {"name": "dcc85d2eb7d9c4a0971b8f94d1b9c096", "type": "electric_bike", "lat": 38.875269833333334, "is_reserved": 0, "lon": -77.1990635, "fusion_lon": 0.0, "is_disabled": 0, "fusion_lat": 0.0, "bike_id": "dcc85d2eb7d9c4a0971b8f94d1b9c096", "rental_uris": {"ios": "https://dc.lft.to/lastmile_qr_scan", "android": "https://dc.lft.to/lastmile_qr_scan"}}, {"name": "4acebaa20e8bf0cce12effd18ecf675f", "type": "electric_scooter", "lat": 38.9294175, "is_reserved": 0, "lon": -77.055092, "fusion_lon": 0.0, "is_disabled": 0, "fusion_lat": 0.0, "bike_id": "4acebaa20e8bf0cce12effd18ecf675f", "rental_uris": {"ios": "https://dc.lft.to/lastmile_qr_scan", "android": "https://dc.lft.to/lastmile_qr_scan"}}, {"name": "409a05ccacc072d8b2500c6de1a0a888", "type": "electric_bike", "lat": 38.84059383333334, "is_reserved": 0, "lon": -77.06407916666667, "fusion_lon": 0.0, "is_disabled": 0, "fusion_lat": 0.0, "bike_id": "409a05ccacc072d8b2500c6de1a0a888", "rental_uris": {"ios": "https://dc.lft.to/lastmile_qr_scan", "android": "https://dc.lft.to/lastmile_qr_scan"}}, {"name": "34d6a8cb6c171cb9985adb42b419621c", "type": "electric_bike", "lat": 39.09459433333333, "is_reserved": 0, "lon": -77.149951, "fusion_lon": 0.0, "is_disabled": 0, "fusion_lat": 0.0, "bike_id": "34d6a8cb6c171cb9985adb42b419621c", "rental_uris": {"ios": "https://dc.lft.to/lastmile_qr_scan", "android": "https://dc.lft.to/lastmile_qr_scan"}}, {"name": "a49e0693e0583148bccff4fe47bd2c62", "type": "electric_scooter", "lat": 38.8975625, "is_reserved": 0, "lon": -77.01051266666667, "fusion_lon": 0.0, "is_disabled": 0, "fusion_lat": 0.0, "bike_id": "a49e0693e0583148bccff4fe47bd2c62", "rental_uris": {"ios": "https://dc.lft.to/lastmile_qr_scan", "android": "https://dc.lft.to/lastmile_qr_scan"}}, {"name": "015bb66e329ed8739736cc080523f118", "type": "electric_scooter", "lat": 38.898414833333334, "is_reserved": 0, "lon": -76.94478083333334, "fusion_lon": 0.0, "is_disabled": 0, "fusion_lat": 0.0, "bike_id": "015bb66e329ed8739736cc080523f118", "rental_uris": {"ios": "https://dc.lft.to/lastmile_qr_scan", "android": "https://dc.lft.to/lastmile_qr_scan"}}, {"name": "765dd062d0813992cc725fbe7316d76f", "type": "electric_bike", "lat": 38.8278535, "is_reserved": 0, "lon": -77.00900283333333, "fusion_lon": 0.0, "is_disabled": 0, "fusion_lat": 0.0, "bike_id": "765dd062d0813992cc725fbe7316d76f", "rental_uris": {"ios": "https://dc.lft.to/lastmile_qr_scan", "android": "https://dc.lft.to/lastmile_qr_scan"}}, {"name": "8f6d7ac80ae03d6e2ab6b23f4f3de93c", "type": "electric_scooter", "lat": 38.8949445, "is_reserved": 0, "lon": -77.00210316666667, "fusion_lon": 0.0, "is_disabled": 0, "fusion_lat": 0.0, "bike_id": "8f6d7ac80ae03d6e2ab6b23f4f3de93c", "rental_uris": {"ios": "https://dc.lft.to/lastmile_qr_scan", "android": "https://dc.lft.to/lastmile_qr_scan"}}, {"name": "886b0737ee8fa7145e3d7a9c84d835fe", "type": "electric_scooter", "lat": 38.862421166666664, "is_reserved": 0, "lon": -76.994988, "fusion_lon": 0.0, "is_disabled": 0, "fusion_lat": 0.0, "bike_id": "886b0737ee8fa7145e3d7a9c84d835fe", "rental_uris": {"ios": "https://dc.lft.to/lastmile_qr_scan", "android": "https://dc.lft.to/lastmile_qr_scan"}}, {"name": "43ceef4097228d4478de41c06d92c5ac", "type": "electric_bike", "lat": 38.86755316666667, "is_reserved": 0, "lon": -76.94530716666667, "fusion_lon": 0.0, "is_disabled": 0, "fusion_lat": 0.0, "bike_id": "43ceef4097228d4478de41c06d92c5ac", "rental_uris": {"ios": "https://dc.lft.to/lastmile_qr_scan", "android": "https://dc.lft.to/lastmile_qr_scan"}}, {"name": "b4834d0cf348259239f17a1c6f1154e0", "type": "electric_scooter", "lat": 38.8990935, "is_reserved": 0, "lon": -76.93349683333334, "fusion_lon": 0.0, "is_disabled": 0, "fusion_lat": 0.0, "bike_id": "b4834d0cf348259239f17a1c6f1154e0", "rental_uris": {"ios": "https://dc.lft.to/lastmile_qr_scan", "android": "https://dc.lft.to/lastmile_qr_scan"}}, {"name": "44830a039fecfd355f7388b533b82cae", "type": "electric_scooter", "lat": 38.913152, "is_reserved": 0, "lon": -77.044752, "fusion_lon": 0.0, "is_disabled": 0, "fusion_lat": 0.0, "bike_id": "44830a039fecfd355f7388b533b82cae", "rental_uris": {"ios": "https://dc.lft.to/lastmile_qr_scan", "android": "https://dc.lft.to/lastmile_qr_scan"}}, {"name": "bc89a30795d6c64f1ff56e678cb6f4bf", "type": "electric_scooter", "lat": 38.94762383333333, "is_reserved": 0, "lon": -77.065545, "fusion_lon": 0.0, "is_disabled": 0, "fusion_lat": 0.0, "bike_id": "bc89a30795d6c64f1ff56e678cb6f4bf", "rental_uris": {"ios": "https://dc.lft.to/lastmile_qr_scan", "android": "https://dc.lft.to/lastmile_qr_scan"}}, {"name": "4c414c5a149e34d4bf4d8badb21722bf", "type": "electric_scooter", "lat": 38.907267166666664, "is_reserved": 0, "lon": -77.0306145, "fusion_lon": 0.0, "is_disabled": 0, "fusion_lat": 0.0, "bike_id": "4c414c5a149e34d4bf4d8badb21722bf", "rental_uris": {"ios": "https://dc.lft.to/lastmile_qr_scan", "android": "https://dc.lft.to/lastmile_qr_scan"}}, {"name": "131519f5c332e4fd5278589167401c21", "type": "electric_scooter", "lat": 38.91183266666667, "is_reserved": 0, "lon": -77.005597, "fusion_lon": 0.0, "is_disabled": 0, "fusion_lat": 0.0, "bike_id": "131519f5c332e4fd5278589167401c21", "rental_uris": {"ios": "https://dc.lft.to/lastmile_qr_scan", "android": "https://dc.lft.to/lastmile_qr_scan"}}, {"name": "fbdc28e49181229d09c31a14f0a190ae", "type": "electric_scooter", "lat": 38.939653166666666, "is_reserved": 0, "lon": -77.03259666666666, "fusion_lon": 0.0, "is_disabled": 0, "fusion_lat": 0.0, "bike_id": "fbdc28e49181229d09c31a14f0a190ae", "rental_uris": {"ios": "https://dc.lft.to/lastmile_qr_scan", "android": "https://dc.lft.to/lastmile_qr_scan"}}, {"name": "c231fda313d4f332c9d6777cce14bfd1", "type": "electric_scooter", "lat": 38.938263166666665, "is_reserved": 0, "lon": -77.02494233333333, "fusion_lon": 0.0, "is_disabled": 0, "fusion_lat": 0.0, "bike_id": "c231fda313d4f332c9d6777cce14bfd1", "rental_uris": {"ios": "https://dc.lft.to/lastmile_qr_scan", "android": "https://dc.lft.to/lastmile_qr_scan"}}, {"name": "13c351f883630b5968d20c2188522368", "type": "electric_scooter", "lat": 38.8810975, "is_reserved": 0, "lon": -76.99947316666666, "fusion_lon": 0.0, "is_disabled": 0, "fusion_lat": 0.0, "bike_id": "13c351f883630b5968d20c2188522368", "rental_uris": {"ios": "https://dc.lft.to/lastmile_qr_scan", "android": "https://dc.lft.to/lastmile_qr_scan"}}, {"name": "a849fb53838e27e47474ea4bb3cdc550", "type": "electric_scooter", "lat": 38.939452833333334, "is_reserved": 0, "lon": -77.0327025, "fusion_lon": 0.0, "is_disabled": 0, "fusion_lat": 0.0, "bike_id": "a849fb53838e27e47474ea4bb3cdc550", "rental_uris": {"ios": "https://dc.lft.to/lastmile_qr_scan", "android": "https://dc.lft.to/lastmile_qr_scan"}}, {"name": "1c9ab4bbad2d3f2582e58d309db07a77", "type": "electric_scooter", "lat": 38.940753666666666, "is_reserved": 0, "lon": -77.02702533333333, "fusion_lon": 0.0, "is_disabled": 0, "fusion_lat": 0.0, "bike_id": "1c9ab4bbad2d3f2582e58d309db07a77", "rental_uris": {"ios": "https://dc.lft.to/lastmile_qr_scan", "android": "https://dc.lft.to/lastmile_qr_scan"}}, {"name": "5d3de0431122322e6c054593b42df9b3", "type": "electric_scooter", "lat": 38.91795033333333, "is_reserved": 0, "lon": -77.02712833333334, "fusion_lon": 0.0, "is_disabled": 0, "fusion_lat": 0.0, "bike_id": "5d3de0431122322e6c054593b42df9b3", "rental_uris": {"ios": "https://dc.lft.to/lastmile_qr_scan", "android": "https://dc.lft.to/lastmile_qr_scan"}}, {"name": "3d5842a41bb623cb63994cd891e6cb48", "type": "electric_scooter", "lat": 38.929513666666665, "is_reserved": 0, "lon": -77.034653, "fusion_lon": 0.0, "is_disabled": 0, "fusion_lat": 0.0, "bike_id": "3d5842a41bb623cb63994cd891e6cb48", "rental_uris": {"ios": "https://dc.lft.to/lastmile_qr_scan", "android": "https://dc.lft.to/lastmile_qr_scan"}}, {"name": "bc179bdc8abd94f8660e7c54e77646d4", "type": "electric_scooter", "lat": 38.88320133333333, "is_reserved": 0, "lon": -77.01744266666667, "fusion_lon": 0.0, "is_disabled": 0, "fusion_lat": 0.0, "bike_id": "bc179bdc8abd94f8660e7c54e77646d4", "rental_uris": {"ios": "https://dc.lft.to/lastmile_qr_scan", "android": "https://dc.lft.to/lastmile_qr_scan"}}, {"name": "907f9d46bb26b0de6604e067cb764b83", "type": "electric_scooter", "lat": 38.92336683333333, "is_reserved": 0, "lon": -77.03512883333333, "fusion_lon": 0.0, "is_disabled": 0, "fusion_lat": 0.0, "bike_id": "907f9d46bb26b0de6604e067cb764b83", "rental_uris": {"ios": "https://dc.lft.to/lastmile_qr_scan", "android": "https://dc.lft.to/lastmile_qr_scan"}}, {"name": "bfa7d40dc3aa666f6c160b9df4f22a31", "type": "electric_bike", "lat": 38.99067866666667, "is_reserved": 0, "lon": -77.10028066666666, "fusion_lon": 0.0, "is_disabled": 0, "fusion_lat": 0.0, "bike_id": "bfa7d40dc3aa666f6c160b9df4f22a31", "rental_uris": {"ios": "https://dc.lft.to/lastmile_qr_scan", "android": "https://dc.lft.to/lastmile_qr_scan"}}, {"name": "c98fab4325c3c1771709e8027ae3b62a", "type": "electric_scooter", "lat": 38.900067, "is_reserved": 0, "lon": -76.99157416666667, "fusion_lon": 0.0, "is_disabled": 0, "fusion_lat": 0.0, "bike_id": "c98fab4325c3c1771709e8027ae3b62a", "rental_uris": {"ios": "https://dc.lft.to/lastmile_qr_scan", "android": "https://dc.lft.to/lastmile_qr_scan"}}, {"name": "6f6d5e75167b0a0aff67331a6dbc5e71", "type": "electric_scooter", "lat": 38.933856666666664, "is_reserved": 0, "lon": -77.02968583333333, "fusion_lon": 0.0, "is_disabled": 0, "fusion_lat": 0.0, "bike_id": "6f6d5e75167b0a0aff67331a6dbc5e71", "rental_uris": {"ios": "https://dc.lft.to/lastmile_qr_scan", "android": "https://dc.lft.to/lastmile_qr_scan"}}, {"name": "1461b6f097a5242a04bdfc9a311ee949", "type": "electric_scooter", "lat": 38.93988183333333, "is_reserved": 0, "lon": -77.02897283333333, "fusion_lon": 0.0, "is_disabled": 0, "fusion_lat": 0.0, "bike_id": "1461b6f097a5242a04bdfc9a311ee949", "rental_uris": {"ios": "https://dc.lft.to/lastmile_qr_scan", "android": "https://dc.lft.to/lastmile_qr_scan"}}, {"name": "edc905c69024ff8631451d37d55faa9f", "type": "electric_bike", "lat": 38.966227, "is_reserved": 0, "lon": -76.9766905, "fusion_lon": 0.0, "is_disabled": 0, "fusion_lat": 0.0, "bike_id": "edc905c69024ff8631451d37d55faa9f", "rental_uris": {"ios": "https://dc.lft.to/lastmile_qr_scan", "android": "https://dc.lft.to/lastmile_qr_scan"}}, {"name": "285a01329c1edc98c6da4fcf2e043994", "type": "electric_bike", "lat": 38.99937366666666, "is_reserved": 0, "lon": -77.01773083333333, "fusion_lon": 0.0, "is_disabled": 0, "fusion_lat": 0.0, "bike_id": "285a01329c1edc98c6da4fcf2e043994", "rental_uris": {"ios": "https://dc.lft.to/lastmile_qr_scan", "android": "https://dc.lft.to/lastmile_qr_scan"}}, {"name": "434ad66fe6ae385082ab65d81786c709", "type": "electric_scooter", "lat": 38.923622333333334, "is_reserved": 0, "lon": -77.04151366666666, "fusion_lon": 0.0, "is_disabled": 0, "fusion_lat": 0.0, "bike_id": "434ad66fe6ae385082ab65d81786c709", "rental_uris": {"ios": "https://dc.lft.to/lastmile_qr_scan", "android": "https://dc.lft.to/lastmile_qr_scan"}}, {"name": "b158c7477bc9a18555cedc0f44aed84e", "type": "electric_scooter", "lat": 38.921817833333336, "is_reserved": 0, "lon": -77.026666, "fusion_lon": 0.0, "is_disabled": 0, "fusion_lat": 0.0, "bike_id": "b158c7477bc9a18555cedc0f44aed84e", "rental_uris": {"ios": "https://dc.lft.to/lastmile_qr_scan", "android": "https://dc.lft.to/lastmile_qr_scan"}}, {"name": "89f9b4ed43c7ce3f2d03470e3cabc58e", "type": "electric_scooter", "lat": 38.920481833333334, "is_reserved": 0, "lon": -77.03340583333333, "fusion_lon": 0.0, "is_disabled": 0, "fusion_lat": 0.0, "bike_id": "89f9b4ed43c7ce3f2d03470e3cabc58e", "rental_uris": {"ios": "https://dc.lft.to/lastmile_qr_scan", "android": "https://dc.lft.to/lastmile_qr_scan"}}, {"name": "8cb784c33f99f19ac312798e8cb5492d", "type": "electric_scooter", "lat": 38.92057333333333, "is_reserved": 0, "lon": -77.03463483333333, "fusion_lon": 0.0, "is_disabled": 0, "fusion_lat": 0.0, "bike_id": "8cb784c33f99f19ac312798e8cb5492d", "rental_uris": {"ios": "https://dc.lft.to/lastmile_qr_scan", "android": "https://dc.lft.to/lastmile_qr_scan"}}, {"name": "0bfe787858e2037fa50eb9af6eb05955", "type": "electric_bike", "lat": 38.85863116666667, "is_reserved": 0, "lon": -77.09755083333333, "fusion_lon": 0.0, "is_disabled": 0, "fusion_lat": 0.0, "bike_id": "0bfe787858e2037fa50eb9af6eb05955", "rental_uris": {"ios": "https://dc.lft.to/lastmile_qr_scan", "android": "https://dc.lft.to/lastmile_qr_scan"}}, {"name": "2321da4b42a39d12ffb06302e9983a09", "type": "electric_scooter", "lat": 38.8669805, "is_reserved": 0, "lon": -76.98713783333334, "fusion_lon": 0.0, "is_disabled": 0, "fusion_lat": 0.0, "bike_id": "2321da4b42a39d12ffb06302e9983a09", "rental_uris": {"ios": "https://dc.lft.to/lastmile_qr_scan", "android": "https://dc.lft.to/lastmile_qr_scan"}}, {"name": "a966f570caaae805bd63d17d6da99b6d", "type": "electric_scooter", "lat": 38.92511016666667, "is_reserved": 0, "lon": -77.033223, "fusion_lon": 0.0, "is_disabled": 0, "fusion_lat": 0.0, "bike_id": "a966f570caaae805bd63d17d6da99b6d", "rental_uris": {"ios": "https://dc.lft.to/lastmile_qr_scan", "android": "https://dc.lft.to/lastmile_qr_scan"}}, {"name": "82efd14a2ab3f585801b93d9006605b9", "type": "electric_scooter", "lat": 38.9126675, "is_reserved": 0, "lon": -77.03723233333334, "fusion_lon": 0.0, "is_disabled": 0, "fusion_lat": 0.0, "bike_id": "82efd14a2ab3f585801b93d9006605b9", "rental_uris": {"ios": "https://dc.lft.to/lastmile_qr_scan", "android": "https://dc.lft.to/lastmile_qr_scan"}}, {"name": "90f7af296a019f2b1538aa00eb81db5d", "type": "electric_scooter", "lat": 38.927344, "is_reserved": 0, "lon": -77.02265266666667, "fusion_lon": 0.0, "is_disabled": 0, "fusion_lat": 0.0, "bike_id": "90f7af296a019f2b1538aa00eb81db5d", "rental_uris": {"ios": "https://dc.lft.to/lastmile_qr_scan", "android": "https://dc.lft.to/lastmile_qr_scan"}}, {"name": "7f596090317e79bc539448f26ebd5bc9", "type": "electric_scooter", "lat": 38.892237333333334, "is_reserved": 0, "lon": -77.04336933333333, "fusion_lon": 0.0, "is_disabled": 0, "fusion_lat": 0.0, "bike_id": "7f596090317e79bc539448f26ebd5bc9", "rental_uris": {"ios": "https://dc.lft.to/lastmile_qr_scan", "android": "https://dc.lft.to/lastmile_qr_scan"}}, {"name": "c383a8de8b376946f973e859afffa8ec", "type": "electric_scooter", "lat": 38.9061035, "is_reserved": 0, "lon": -77.07487583333334, "fusion_lon": 0.0, "is_disabled": 0, "fusion_lat": 0.0, "bike_id": "c383a8de8b376946f973e859afffa8ec", "rental_uris": {"ios": "https://dc.lft.to/lastmile_qr_scan", "android": "https://dc.lft.to/lastmile_qr_scan"}}, {"name": "78d65e97360ce44ec1f97ba95cddb6b3", "type": "electric_scooter", "lat": 38.86655066666667, "is_reserved": 0, "lon": -76.9888635, "fusion_lon": 0.0, "is_disabled": 0, "fusion_lat": 0.0, "bike_id": "78d65e97360ce44ec1f97ba95cddb6b3", "rental_uris": {"ios": "https://dc.lft.to/lastmile_qr_scan", "android": "https://dc.lft.to/lastmile_qr_scan"}}, {"name": "5b9bf0f64282c9a3a05c1235bead54fa", "type": "electric_scooter", "lat": 38.925096333333336, "is_reserved": 0, "lon": -77.001756, "fusion_lon": 0.0, "is_disabled": 0, "fusion_lat": 0.0, "bike_id": "5b9bf0f64282c9a3a05c1235bead54fa", "rental_uris": {"ios": "https://dc.lft.to/lastmile_qr_scan", "android": "https://dc.lft.to/lastmile_qr_scan"}}, {"name": "8acc1d0523542d68e59059663414004f", "type": "electric_scooter", "lat": 38.92116516666667, "is_reserved": 0, "lon": -77.0366495, "fusion_lon": 0.0, "is_disabled": 0, "fusion_lat": 0.0, "bike_id": "8acc1d0523542d68e59059663414004f", "rental_uris": {"ios": "https://dc.lft.to/lastmile_qr_scan", "android": "https://dc.lft.to/lastmile_qr_scan"}}, {"name": "67487c47367305f7f44bfffd88e7c5b8", "type": "electric_scooter", "lat": 38.88372483333333, "is_reserved": 0, "lon": -76.92371883333334, "fusion_lon": 0.0, "is_disabled": 0, "fusion_lat": 0.0, "bike_id": "67487c47367305f7f44bfffd88e7c5b8", "rental_uris": {"ios": "https://dc.lft.to/lastmile_qr_scan", "android": "https://dc.lft.to/lastmile_qr_scan"}}, {"name": "077264bd29d3589b9e8ba01824fa6f1c", "type": "electric_scooter", "lat": 38.907274, "is_reserved": 0, "lon": -77.03459366666667, "fusion_lon": 0.0, "is_disabled": 0, "fusion_lat": 0.0, "bike_id": "077264bd29d3589b9e8ba01824fa6f1c", "rental_uris": {"ios": "https://dc.lft.to/lastmile_qr_scan", "android": "https://dc.lft.to/lastmile_qr_scan"}}, {"name": "6f86fea30616b28a02b486de4dd0ce48", "type": "electric_scooter", "lat": 38.92360516666667, "is_reserved": 0, "lon": -77.05843216666666, "fusion_lon": 0.0, "is_disabled": 0, "fusion_lat": 0.0, "bike_id": "6f86fea30616b28a02b486de4dd0ce48", "rental_uris": {"ios": "https://dc.lft.to/lastmile_qr_scan", "android": "https://dc.lft.to/lastmile_qr_scan"}}, {"name": "e9857c1fbdaffaad889afab3be82682d", "type": "electric_scooter", "lat": 38.89604716666667, "is_reserved": 0, "lon": -77.00930133333334, "fusion_lon": 0.0, "is_disabled": 0, "fusion_lat": 0.0, "bike_id": "e9857c1fbdaffaad889afab3be82682d", "rental_uris": {"ios": "https://dc.lft.to/lastmile_qr_scan", "android": "https://dc.lft.to/lastmile_qr_scan"}}, {"name": "31490c5dd123a01b82ca48b0122bfcf5", "type": "electric_scooter", "lat": 38.919716, "is_reserved": 0, "lon": -77.0337725, "fusion_lon": 0.0, "is_disabled": 0, "fusion_lat": 0.0, "bike_id": "31490c5dd123a01b82ca48b0122bfcf5", "rental_uris": {"ios": "https://dc.lft.to/lastmile_qr_scan", "android": "https://dc.lft.to/lastmile_qr_scan"}}, {"name": "cf94a5ca2ce4fcc3e1de2fd8d337d564", "type": "electric_bike", "lat": 38.90857466666667, "is_reserved": 0, "lon": -77.08079433333333, "fusion_lon": 0.0, "is_disabled": 0, "fusion_lat": 0.0, "bike_id": "cf94a5ca2ce4fcc3e1de2fd8d337d564", "rental_uris": {"ios": "https://dc.lft.to/lastmile_qr_scan", "android": "https://dc.lft.to/lastmile_qr_scan"}}, {"name": "bc97c5d245367167de8ef97971b6dce0", "type": "electric_scooter", "lat": 38.91338666666667, "is_reserved": 0, "lon": -77.00221966666666, "fusion_lon": 0.0, "is_disabled": 0, "fusion_lat": 0.0, "bike_id": "bc97c5d245367167de8ef97971b6dce0", "rental_uris": {"ios": "https://dc.lft.to/lastmile_qr_scan", "android": "https://dc.lft.to/lastmile_qr_scan"}}, {"name": "5641ce7a9371bc75541a19e814cba9f8", "type": "electric_scooter", "lat": 38.92871916666667, "is_reserved": 0, "lon": -77.04130966666666, "fusion_lon": 0.0, "is_disabled": 0, "fusion_lat": 0.0, "bike_id": "5641ce7a9371bc75541a19e814cba9f8", "rental_uris": {"ios": "https://dc.lft.to/lastmile_qr_scan", "android": "https://dc.lft.to/lastmile_qr_scan"}}, {"name": "def4a68f16a85a825c5cee9a8dbaa641", "type": "electric_scooter", "lat": 38.8635255, "is_reserved": 0, "lon": -76.99063566666666, "fusion_lon": 0.0, "is_disabled": 0, "fusion_lat": 0.0, "bike_id": "def4a68f16a85a825c5cee9a8dbaa641", "rental_uris": {"ios": "https://dc.lft.to/lastmile_qr_scan", "android": "https://dc.lft.to/lastmile_qr_scan"}}, {"name": "164aced17519cac36fd548398ac7c352", "type": "electric_scooter", "lat": 38.92063916666667, "is_reserved": 0, "lon": -77.04246666666667, "fusion_lon": 0.0, "is_disabled": 0, "fusion_lat": 0.0, "bike_id": "164aced17519cac36fd548398ac7c352", "rental_uris": {"ios": "https://dc.lft.to/lastmile_qr_scan", "android": "https://dc.lft.to/lastmile_qr_scan"}}, {"name": "d3d42a41ca26c878a936633064c06255", "type": "electric_scooter", "lat": 38.925974333333336, "is_reserved": 0, "lon": -77.00472183333333, "fusion_lon": 0.0, "is_disabled": 0, "fusion_lat": 0.0, "bike_id": "d3d42a41ca26c878a936633064c06255", "rental_uris": {"ios": "https://dc.lft.to/lastmile_qr_scan", "android": "https://dc.lft.to/lastmile_qr_scan"}}, {"name": "750ec9a71088caa45be6e400963c9e4e", "type": "electric_scooter", "lat": 38.89482816666667, "is_reserved": 0, "lon": -77.0109995, "fusion_lon": 0.0, "is_disabled": 0, "fusion_lat": 0.0, "bike_id": "750ec9a71088caa45be6e400963c9e4e", "rental_uris": {"ios": "https://dc.lft.to/lastmile_qr_scan", "android": "https://dc.lft.to/lastmile_qr_scan"}}, {"name": "a2fe2f737d08fe9dc64cf52cc75e33be", "type": "electric_scooter", "lat": 38.903682, "is_reserved": 0, "lon": -77.06285366666667, "fusion_lon": 0.0, "is_disabled": 0, "fusion_lat": 0.0, "bike_id": "a2fe2f737d08fe9dc64cf52cc75e33be", "rental_uris": {"ios": "https://dc.lft.to/lastmile_qr_scan", "android": "https://dc.lft.to/lastmile_qr_scan"}}, {"name": "c6af779178a77a3eb690043ef5f5f683", "type": "electric_scooter", "lat": 38.8983305, "is_reserved": 0, "lon": -76.94635483333333, "fusion_lon": 0.0, "is_disabled": 0, "fusion_lat": 0.0, "bike_id": "c6af779178a77a3eb690043ef5f5f683", "rental_uris": {"ios": "https://dc.lft.to/lastmile_qr_scan", "android": "https://dc.lft.to/lastmile_qr_scan"}}, {"name": "f49231c43f84bed39bdc87d8d995bd76", "type": "electric_scooter", "lat": 38.924189166666665, "is_reserved": 0, "lon": -77.01946733333334, "fusion_lon": 0.0, "is_disabled": 0, "fusion_lat": 0.0, "bike_id": "f49231c43f84bed39bdc87d8d995bd76", "rental_uris": {"ios": "https://dc.lft.to/lastmile_qr_scan", "android": "https://dc.lft.to/lastmile_qr_scan"}}, {"name": "0f256a0416ed6b4e237516dcb1e53afb", "type": "electric_scooter", "lat": 38.92783516666667, "is_reserved": 0, "lon": -77.02658533333333, "fusion_lon": 0.0, "is_disabled": 0, "fusion_lat": 0.0, "bike_id": "0f256a0416ed6b4e237516dcb1e53afb", "rental_uris": {"ios": "https://dc.lft.to/lastmile_qr_scan", "android": "https://dc.lft.to/lastmile_qr_scan"}}, {"name": "7bb545f21a2ecc98c89f0a584e07cc99", "type": "electric_scooter", "lat": 38.91708783333333, "is_reserved": 0, "lon": -77.02681016666666, "fusion_lon": 0.0, "is_disabled": 0, "fusion_lat": 0.0, "bike_id": "7bb545f21a2ecc98c89f0a584e07cc99", "rental_uris": {"ios": "https://dc.lft.to/lastmile_qr_scan", "android": "https://dc.lft.to/lastmile_qr_scan"}}, {"name": "eec4204628f7bb6ed7d5e96cebd851b9", "type": "electric_scooter", "lat": 38.92029733333333, "is_reserved": 0, "lon": -77.04174766666667, "fusion_lon": 0.0, "is_disabled": 0, "fusion_lat": 0.0, "bike_id": "eec4204628f7bb6ed7d5e96cebd851b9", "rental_uris": {"ios": "https://dc.lft.to/lastmile_qr_scan", "android": "https://dc.lft.to/lastmile_qr_scan"}}, {"name": "77af6a502dbf19e06f8915c832f93bec", "type": "electric_bike", "lat": 38.9548315, "is_reserved": 0, "lon": -77.08241483333333, "fusion_lon": 0.0, "is_disabled": 0, "fusion_lat": 0.0, "bike_id": "77af6a502dbf19e06f8915c832f93bec", "rental_uris": {"ios": "https://dc.lft.to/lastmile_qr_scan", "android": "https://dc.lft.to/lastmile_qr_scan"}}, {"name": "f1f06c10dfeb1b69de08a6e7059c1dbc", "type": "electric_scooter", "lat": 38.905590833333335, "is_reserved": 0, "lon": -77.02816866666667, "fusion_lon": 0.0, "is_disabled": 0, "fusion_lat": 0.0, "bike_id": "f1f06c10dfeb1b69de08a6e7059c1dbc", "rental_uris": {"ios": "https://dc.lft.to/lastmile_qr_scan", "android": "https://dc.lft.to/lastmile_qr_scan"}}, {"name": "71df865478194cc8dc641836eb713b68", "type": "electric_scooter", "lat": 38.924452, "is_reserved": 0, "lon": -76.993323, "fusion_lon": 0.0, "is_disabled": 0, "fusion_lat": 0.0, "bike_id": "71df865478194cc8dc641836eb713b68", "rental_uris": {"ios": "https://dc.lft.to/lastmile_qr_scan", "android": "https://dc.lft.to/lastmile_qr_scan"}}, {"name": "3d024029737a1c1d7a00888a37fed55d", "type": "electric_scooter", "lat": 38.9154115, "is_reserved": 0, "lon": -77.04625183333333, "fusion_lon": 0.0, "is_disabled": 0, "fusion_lat": 0.0, "bike_id": "3d024029737a1c1d7a00888a37fed55d", "rental_uris": {"ios": "https://dc.lft.to/lastmile_qr_scan", "android": "https://dc.lft.to/lastmile_qr_scan"}}, {"name": "544e419c69a471dcef436a1c2894723c", "type": "electric_scooter", "lat": 38.9088545, "is_reserved": 0, "lon": -77.005656, "fusion_lon": 0.0, "is_disabled": 0, "fusion_lat": 0.0, "bike_id": "544e419c69a471dcef436a1c2894723c", "rental_uris": {"ios": "https://dc.lft.to/lastmile_qr_scan", "android": "https://dc.lft.to/lastmile_qr_scan"}}, {"name": "54598ad2b6b8cb89128a5fc36971162a", "type": "electric_bike", "lat": 38.961270999999996, "is_reserved": 0, "lon": -77.03278116666667, "fusion_lon": 0.0, "is_disabled": 0, "fusion_lat": 0.0, "bike_id": "54598ad2b6b8cb89128a5fc36971162a", "rental_uris": {"ios": "https://dc.lft.to/lastmile_qr_scan", "android": "https://dc.lft.to/lastmile_qr_scan"}}, {"name": "91ff60a83cdf5baa43c0c4229b94c4c2", "type": "electric_scooter", "lat": 38.9126655, "is_reserved": 0, "lon": -77.0332615, "fusion_lon": 0.0, "is_disabled": 0, "fusion_lat": 0.0, "bike_id": "91ff60a83cdf5baa43c0c4229b94c4c2", "rental_uris": {"ios": "https://dc.lft.to/lastmile_qr_scan", "android": "https://dc.lft.to/lastmile_qr_scan"}}, {"name": "c6b63a0e9218d95d007ff52eb1ad7e95", "type": "electric_scooter", "lat": 38.89874966666667, "is_reserved": 0, "lon": -76.9315815, "fusion_lon": 0.0, "is_disabled": 0, "fusion_lat": 0.0, "bike_id": "c6b63a0e9218d95d007ff52eb1ad7e95", "rental_uris": {"ios": "https://dc.lft.to/lastmile_qr_scan", "android": "https://dc.lft.to/lastmile_qr_scan"}}, {"name": "536e5635d4c3e851bdbc715ae0ce638d", "type": "electric_scooter", "lat": 38.943974833333336, "is_reserved": 0, "lon": -77.038913, "fusion_lon": 0.0, "is_disabled": 0, "fusion_lat": 0.0, "bike_id": "536e5635d4c3e851bdbc715ae0ce638d", "rental_uris": {"ios": "https://dc.lft.to/lastmile_qr_scan", "android": "https://dc.lft.to/lastmile_qr_scan"}}, {"name": "c6168cc68bac6d7cd58bcc5bc600d6fd", "type": "electric_scooter", "lat": 38.919059833333336, "is_reserved": 0, "lon": -77.04187583333334, "fusion_lon": 0.0, "is_disabled": 0, "fusion_lat": 0.0, "bike_id": "c6168cc68bac6d7cd58bcc5bc600d6fd", "rental_uris": {"ios": "https://dc.lft.to/lastmile_qr_scan", "android": "https://dc.lft.to/lastmile_qr_scan"}}, {"name": "38816be1ab1d97e8bd81be7a0beb0408", "type": "electric_scooter", "lat": 38.92755616666667, "is_reserved": 0, "lon": -77.024142, "fusion_lon": 0.0, "is_disabled": 0, "fusion_lat": 0.0, "bike_id": "38816be1ab1d97e8bd81be7a0beb0408", "rental_uris": {"ios": "https://dc.lft.to/lastmile_qr_scan", "android": "https://dc.lft.to/lastmile_qr_scan"}}, {"name": "6d03ed2b8d33886ce8bd2c036fc52765", "type": "electric_scooter", "lat": 38.91733283333333, "is_reserved": 0, "lon": -77.01024466666667, "fusion_lon": 0.0, "is_disabled": 0, "fusion_lat": 0.0, "bike_id": "6d03ed2b8d33886ce8bd2c036fc52765", "rental_uris": {"ios": "https://dc.lft.to/lastmile_qr_scan", "android": "https://dc.lft.to/lastmile_qr_scan"}}, {"name": "ca9bfd73392a60899d2f2c951a955594", "type": "electric_scooter", "lat": 38.906743666666664, "is_reserved": 0, "lon": -77.038218, "fusion_lon": 0.0, "is_disabled": 0, "fusion_lat": 0.0, "bike_id": "ca9bfd73392a60899d2f2c951a955594", "rental_uris": {"ios": "https://dc.lft.to/lastmile_qr_scan", "android": "https://dc.lft.to/lastmile_qr_scan"}}, {"name": "1e4c2445bb746c07baff52974ba1b661", "type": "electric_scooter", "lat": 38.92525416666667, "is_reserved": 0, "lon": -77.03537483333334, "fusion_lon": 0.0, "is_disabled": 0, "fusion_lat": 0.0, "bike_id": "1e4c2445bb746c07baff52974ba1b661", "rental_uris": {"ios": "https://dc.lft.to/lastmile_qr_scan", "android": "https://dc.lft.to/lastmile_qr_scan"}}, {"name": "d2b2f2327847577a8c0221b4395105bf", "type": "electric_scooter", "lat": 38.921681, "is_reserved": 0, "lon": -77.02680716666667, "fusion_lon": 0.0, "is_disabled": 0, "fusion_lat": 0.0, "bike_id": "d2b2f2327847577a8c0221b4395105bf", "rental_uris": {"ios": "https://dc.lft.to/lastmile_qr_scan", "android": "https://dc.lft.to/lastmile_qr_scan"}}, {"name": "d9b5b01bba836630b9c24b28581b87be", "type": "electric_scooter", "lat": 38.90839166666667, "is_reserved": 0, "lon": -77.02692733333333, "fusion_lon": 0.0, "is_disabled": 0, "fusion_lat": 0.0, "bike_id": "d9b5b01bba836630b9c24b28581b87be", "rental_uris": {"ios": "https://dc.lft.to/lastmile_qr_scan", "android": "https://dc.lft.to/lastmile_qr_scan"}}, {"name": "76ed69f6a316b0649dbcb3ccf2cf1815", "type": "electric_scooter", "lat": 38.912069, "is_reserved": 0, "lon": -77.00658116666666, "fusion_lon": 0.0, "is_disabled": 0, "fusion_lat": 0.0, "bike_id": "76ed69f6a316b0649dbcb3ccf2cf1815", "rental_uris": {"ios": "https://dc.lft.to/lastmile_qr_scan", "android": "https://dc.lft.to/lastmile_qr_scan"}}, {"name": "4bc876bffc34692657938283cda627d4", "type": "electric_scooter", "lat": 38.919622, "is_reserved": 0, "lon": -77.01440816666667, "fusion_lon": 0.0, "is_disabled": 0, "fusion_lat": 0.0, "bike_id": "4bc876bffc34692657938283cda627d4", "rental_uris": {"ios": "https://dc.lft.to/lastmile_qr_scan", "android": "https://dc.lft.to/lastmile_qr_scan"}}, {"name": "e8e3a6e516b4ae727fcf7f5f1e07bd4b", "type": "electric_scooter", "lat": 38.927037166666665, "is_reserved": 0, "lon": -77.02095333333334, "fusion_lon": 0.0, "is_disabled": 0, "fusion_lat": 0.0, "bike_id": "e8e3a6e516b4ae727fcf7f5f1e07bd4b", "rental_uris": {"ios": "https://dc.lft.to/lastmile_qr_scan", "android": "https://dc.lft.to/lastmile_qr_scan"}}, {"name": "d567b416a555540ba0126961c675dfd4", "type": "electric_bike", "lat": 38.93710733333333, "is_reserved": 0, "lon": -77.0210025, "fusion_lon": 0.0, "is_disabled": 0, "fusion_lat": 0.0, "bike_id": "d567b416a555540ba0126961c675dfd4", "rental_uris": {"ios": "https://dc.lft.to/lastmile_qr_scan", "android": "https://dc.lft.to/lastmile_qr_scan"}}, {"name": "4d8cc222bc7fa23d5cb89aadabbb7a92", "type": "electric_bike", "lat": 38.87479183333333, "is_reserved": 0, "lon": -76.96530366666667, "fusion_lon": 0.0, "is_disabled": 0, "fusion_lat": 0.0, "bike_id": "4d8cc222bc7fa23d5cb89aadabbb7a92", "rental_uris": {"ios": "https://dc.lft.to/lastmile_qr_scan", "android": "https://dc.lft.to/lastmile_qr_scan"}}, {"name": "8854b9b0d4cdc8dbc2679d1f27b7aea5", "type": "electric_scooter", "lat": 38.902331, "is_reserved": 0, "lon": -77.05343483333333, "fusion_lon": 0.0, "is_disabled": 0, "fusion_lat": 0.0, "bike_id": "8854b9b0d4cdc8dbc2679d1f27b7aea5", "rental_uris": {"ios": "https://dc.lft.to/lastmile_qr_scan", "android": "https://dc.lft.to/lastmile_qr_scan"}}, {"name": "5b7b35315fe3ed41595bc6c8e1f8e946", "type": "electric_scooter", "lat": 38.905164666666664, "is_reserved": 0, "lon": -77.05128566666667, "fusion_lon": 0.0, "is_disabled": 0, "fusion_lat": 0.0, "bike_id": "5b7b35315fe3ed41595bc6c8e1f8e946", "rental_uris": {"ios": "https://dc.lft.to/lastmile_qr_scan", "android": "https://dc.lft.to/lastmile_qr_scan"}}, {"name": "9da9c2bc144ff8a74b7046175608691f", "type": "electric_scooter", "lat": 38.908629, "is_reserved": 0, "lon": -77.04257016666666, "fusion_lon": 0.0, "is_disabled": 0, "fusion_lat": 0.0, "bike_id": "9da9c2bc144ff8a74b7046175608691f", "rental_uris": {"ios": "https://dc.lft.to/lastmile_qr_scan", "android": "https://dc.lft.to/lastmile_qr_scan"}}, {"name": "06774fee0ca4f2231ffb8bf49c497c7c", "type": "electric_scooter", "lat": 38.8936475, "is_reserved": 0, "lon": -76.94993616666666, "fusion_lon": 0.0, "is_disabled": 0, "fusion_lat": 0.0, "bike_id": "06774fee0ca4f2231ffb8bf49c497c7c", "rental_uris": {"ios": "https://dc.lft.to/lastmile_qr_scan", "android": "https://dc.lft.to/lastmile_qr_scan"}}, {"name": "fedd453c6d25ea1b44907c7ee18cd343", "type": "electric_scooter", "lat": 38.8980045, "is_reserved": 0, "lon": -77.02720183333334, "fusion_lon": 0.0, "is_disabled": 0, "fusion_lat": 0.0, "bike_id": "fedd453c6d25ea1b44907c7ee18cd343", "rental_uris": {"ios": "https://dc.lft.to/lastmile_qr_scan", "android": "https://dc.lft.to/lastmile_qr_scan"}}, {"name": "707fd9807ee4452d185bcc2e31184bc4", "type": "electric_scooter", "lat": 38.88208083333333, "is_reserved": 0, "lon": -77.01448716666667, "fusion_lon": 0.0, "is_disabled": 0, "fusion_lat": 0.0, "bike_id": "707fd9807ee4452d185bcc2e31184bc4", "rental_uris": {"ios": "https://dc.lft.to/lastmile_qr_scan", "android": "https://dc.lft.to/lastmile_qr_scan"}}, {"name": "2f34ffa89237da23d0f0697cf23f6aa4", "type": "electric_scooter", "lat": 38.90060966666667, "is_reserved": 0, "lon": -77.0506925, "fusion_lon": 0.0, "is_disabled": 0, "fusion_lat": 0.0, "bike_id": "2f34ffa89237da23d0f0697cf23f6aa4", "rental_uris": {"ios": "https://dc.lft.to/lastmile_qr_scan", "android": "https://dc.lft.to/lastmile_qr_scan"}}, {"name": "a2741d6a0db61ed09a43658414fdec7d", "type": "electric_scooter", "lat": 38.9358965, "is_reserved": 0, "lon": -77.03756366666667, "fusion_lon": 0.0, "is_disabled": 0, "fusion_lat": 0.0, "bike_id": "a2741d6a0db61ed09a43658414fdec7d", "rental_uris": {"ios": "https://dc.lft.to/lastmile_qr_scan", "android": "https://dc.lft.to/lastmile_qr_scan"}}, {"name": "38151a4e0cc34cb18fb4980fb08058b2", "type": "electric_scooter", "lat": 38.89219333333333, "is_reserved": 0, "lon": -77.04538333333333, "fusion_lon": 0.0, "is_disabled": 0, "fusion_lat": 0.0, "bike_id": "38151a4e0cc34cb18fb4980fb08058b2", "rental_uris": {"ios": "https://dc.lft.to/lastmile_qr_scan", "android": "https://dc.lft.to/lastmile_qr_scan"}}, {"name": "177db9b590590eaadf267b0224a9b54d", "type": "electric_scooter", "lat": 38.92905733333333, "is_reserved": 0, "lon": -77.02161216666667, "fusion_lon": 0.0, "is_disabled": 0, "fusion_lat": 0.0, "bike_id": "177db9b590590eaadf267b0224a9b54d", "rental_uris": {"ios": "https://dc.lft.to/lastmile_qr_scan", "android": "https://dc.lft.to/lastmile_qr_scan"}}, {"name": "9e81c68ffb0b460fe5cb09fa9e9fae07", "type": "electric_scooter", "lat": 38.9349095, "is_reserved": 0, "lon": -77.02841283333333, "fusion_lon": 0.0, "is_disabled": 0, "fusion_lat": 0.0, "bike_id": "9e81c68ffb0b460fe5cb09fa9e9fae07", "rental_uris": {"ios": "https://dc.lft.to/lastmile_qr_scan", "android": "https://dc.lft.to/lastmile_qr_scan"}}, {"name": "e1c222fa0318dbf8085d9ad76c425bf0", "type": "electric_bike", "lat": 38.85431116666667, "is_reserved": 0, "lon": -76.9097185, "fusion_lon": 0.0, "is_disabled": 0, "fusion_lat": 0.0, "bike_id": "e1c222fa0318dbf8085d9ad76c425bf0", "rental_uris": {"ios": "https://dc.lft.to/lastmile_qr_scan", "android": "https://dc.lft.to/lastmile_qr_scan"}}, {"name": "5f0843f9a15e734418ac531256b6cb88", "type": "electric_scooter", "lat": 38.935441, "is_reserved": 0, "lon": -77.034152, "fusion_lon": 0.0, "is_disabled": 0, "fusion_lat": 0.0, "bike_id": "5f0843f9a15e734418ac531256b6cb88", "rental_uris": {"ios": "https://dc.lft.to/lastmile_qr_scan", "android": "https://dc.lft.to/lastmile_qr_scan"}}, {"name": "55cf29761ce44091c9b3ea9da7b714a3", "type": "electric_scooter", "lat": 38.900153333333336, "is_reserved": 0, "lon": -76.98700583333333, "fusion_lon": 0.0, "is_disabled": 0, "fusion_lat": 0.0, "bike_id": "55cf29761ce44091c9b3ea9da7b714a3", "rental_uris": {"ios": "https://dc.lft.to/lastmile_qr_scan", "android": "https://dc.lft.to/lastmile_qr_scan"}}, {"name": "cc3ffe1acb989ef553548af732146457", "type": "electric_bike", "lat": 38.81046883333333, "is_reserved": 0, "lon": -77.08500833333333, "fusion_lon": 0.0, "is_disabled": 0, "fusion_lat": 0.0, "bike_id": "cc3ffe1acb989ef553548af732146457", "rental_uris": {"ios": "https://dc.lft.to/lastmile_qr_scan", "android": "https://dc.lft.to/lastmile_qr_scan"}}, {"name": "df59afad11a4c210e6a67ea77204ec4d", "type": "electric_scooter", "lat": 38.9266605, "is_reserved": 0, "lon": -76.99539, "fusion_lon": 0.0, "is_disabled": 0, "fusion_lat": 0.0, "bike_id": "df59afad11a4c210e6a67ea77204ec4d", "rental_uris": {"ios": "https://dc.lft.to/lastmile_qr_scan", "android": "https://dc.lft.to/lastmile_qr_scan"}}, {"name": "f06f557ac74a4e0d0b6029fdef3029c0", "type": "electric_scooter", "lat": 38.84422466666667, "is_reserved": 0, "lon": -76.99777266666666, "fusion_lon": 0.0, "is_disabled": 0, "fusion_lat": 0.0, "bike_id": "f06f557ac74a4e0d0b6029fdef3029c0", "rental_uris": {"ios": "https://dc.lft.to/lastmile_qr_scan", "android": "https://dc.lft.to/lastmile_qr_scan"}}, {"name": "4d63764995cb7c031b8c6571c06c409f", "type": "electric_bike", "lat": 39.026483, "is_reserved": 0, "lon": -77.1252925, "fusion_lon": 0.0, "is_disabled": 0, "fusion_lat": 0.0, "bike_id": "4d63764995cb7c031b8c6571c06c409f", "rental_uris": {"ios": "https://dc.lft.to/lastmile_qr_scan", "android": "https://dc.lft.to/lastmile_qr_scan"}}, {"name": "829db86a6707951e569d8de2b1956956", "type": "electric_scooter", "lat": 38.89901533333333, "is_reserved": 0, "lon": -77.03301583333334, "fusion_lon": 0.0, "is_disabled": 0, "fusion_lat": 0.0, "bike_id": "829db86a6707951e569d8de2b1956956", "rental_uris": {"ios": "https://dc.lft.to/lastmile_qr_scan", "android": "https://dc.lft.to/lastmile_qr_scan"}}, {"name": "7f4683b78875a5ed41ff0464293bac91", "type": "electric_scooter", "lat": 38.916717166666665, "is_reserved": 0, "lon": -77.024007, "fusion_lon": 0.0, "is_disabled": 0, "fusion_lat": 0.0, "bike_id": "7f4683b78875a5ed41ff0464293bac91", "rental_uris": {"ios": "https://dc.lft.to/lastmile_qr_scan", "android": "https://dc.lft.to/lastmile_qr_scan"}}, {"name": "630c1b545d45cf1dba652bf14e912256", "type": "electric_scooter", "lat": 38.878356333333336, "is_reserved": 0, "lon": -77.00053466666667, "fusion_lon": 0.0, "is_disabled": 0, "fusion_lat": 0.0, "bike_id": "630c1b545d45cf1dba652bf14e912256", "rental_uris": {"ios": "https://dc.lft.to/lastmile_qr_scan", "android": "https://dc.lft.to/lastmile_qr_scan"}}, {"name": "87ff389ea1f147b45057fb90feff2f9b", "type": "electric_scooter", "lat": 38.8851285, "is_reserved": 0, "lon": -77.00570866666666, "fusion_lon": 0.0, "is_disabled": 0, "fusion_lat": 0.0, "bike_id": "87ff389ea1f147b45057fb90feff2f9b", "rental_uris": {"ios": "https://dc.lft.to/lastmile_qr_scan", "android": "https://dc.lft.to/lastmile_qr_scan"}}, {"name": "6ec2550fbc5e70d6b9b089b39e8c98c4", "type": "electric_scooter", "lat": 38.911904666666665, "is_reserved": 0, "lon": -77.06096516666666, "fusion_lon": 0.0, "is_disabled": 0, "fusion_lat": 0.0, "bike_id": "6ec2550fbc5e70d6b9b089b39e8c98c4", "rental_uris": {"ios": "https://dc.lft.to/lastmile_qr_scan", "android": "https://dc.lft.to/lastmile_qr_scan"}}, {"name": "613a479b83044b1260700002045ebbb4", "type": "electric_scooter", "lat": 38.89529816666666, "is_reserved": 0, "lon": -76.94930633333334, "fusion_lon": 0.0, "is_disabled": 0, "fusion_lat": 0.0, "bike_id": "613a479b83044b1260700002045ebbb4", "rental_uris": {"ios": "https://dc.lft.to/lastmile_qr_scan", "android": "https://dc.lft.to/lastmile_qr_scan"}}, {"name": "33f1cb1d89b4edbe6fd95e40036c1c38", "type": "electric_scooter", "lat": 38.932698, "is_reserved": 0, "lon": -77.0349545, "fusion_lon": 0.0, "is_disabled": 0, "fusion_lat": 0.0, "bike_id": "33f1cb1d89b4edbe6fd95e40036c1c38", "rental_uris": {"ios": "https://dc.lft.to/lastmile_qr_scan", "android": "https://dc.lft.to/lastmile_qr_scan"}}, {"name": "004bb2cfab65cad78672c03d3cb12293", "type": "electric_scooter", "lat": 38.909307, "is_reserved": 0, "lon": -76.9997565, "fusion_lon": 0.0, "is_disabled": 0, "fusion_lat": 0.0, "bike_id": "004bb2cfab65cad78672c03d3cb12293", "rental_uris": {"ios": "https://dc.lft.to/lastmile_qr_scan", "android": "https://dc.lft.to/lastmile_qr_scan"}}, {"name": "b3e449997f972f073cd387a0d8f7df7e", "type": "electric_scooter", "lat": 38.944620666666665, "is_reserved": 0, "lon": -77.006589, "fusion_lon": 0.0, "is_disabled": 0, "fusion_lat": 0.0, "bike_id": "b3e449997f972f073cd387a0d8f7df7e", "rental_uris": {"ios": "https://dc.lft.to/lastmile_qr_scan", "android": "https://dc.lft.to/lastmile_qr_scan"}}, {"name": "22992b3191a8e208925f47afcc2366a9", "type": "electric_bike", "lat": 38.81330066666666, "is_reserved": 0, "lon": -77.05109533333334, "fusion_lon": 0.0, "is_disabled": 0, "fusion_lat": 0.0, "bike_id": "22992b3191a8e208925f47afcc2366a9", "rental_uris": {"ios": "https://dc.lft.to/lastmile_qr_scan", "android": "https://dc.lft.to/lastmile_qr_scan"}}, {"name": "b8008a00cae7bbecc20b7ed432f8a8b7", "type": "electric_scooter", "lat": 38.865695, "is_reserved": 0, "lon": -76.9854985, "fusion_lon": 0.0, "is_disabled": 0, "fusion_lat": 0.0, "bike_id": "b8008a00cae7bbecc20b7ed432f8a8b7", "rental_uris": {"ios": "https://dc.lft.to/lastmile_qr_scan", "android": "https://dc.lft.to/lastmile_qr_scan"}}, {"name": "efca3ec57d6132a5f046d7027e7c17f0", "type": "electric_scooter", "lat": 38.9306625, "is_reserved": 0, "lon": -77.03395816666666, "fusion_lon": 0.0, "is_disabled": 0, "fusion_lat": 0.0, "bike_id": "efca3ec57d6132a5f046d7027e7c17f0", "rental_uris": {"ios": "https://dc.lft.to/lastmile_qr_scan", "android": "https://dc.lft.to/lastmile_qr_scan"}}, {"name": "409f3566f7c3c3d71b7467808130d03e", "type": "electric_scooter", "lat": 38.94437466666667, "is_reserved": 0, "lon": -77.06349233333333, "fusion_lon": 0.0, "is_disabled": 0, "fusion_lat": 0.0, "bike_id": "409f3566f7c3c3d71b7467808130d03e", "rental_uris": {"ios": "https://dc.lft.to/lastmile_qr_scan", "android": "https://dc.lft.to/lastmile_qr_scan"}}, {"name": "909aff2224438c23113c8d4fcc12dc4e", "type": "electric_bike", "lat": 38.869899833333335, "is_reserved": 0, "lon": -76.9598815, "fusion_lon": 0.0, "is_disabled": 0, "fusion_lat": 0.0, "bike_id": "909aff2224438c23113c8d4fcc12dc4e", "rental_uris": {"ios": "https://dc.lft.to/lastmile_qr_scan", "android": "https://dc.lft.to/lastmile_qr_scan"}}, {"name": "58246ef11b1ee64bfde78454a69b7131", "type": "electric_scooter", "lat": 38.90062283333334, "is_reserved": 0, "lon": -76.98710483333333, "fusion_lon": 0.0, "is_disabled": 0, "fusion_lat": 0.0, "bike_id": "58246ef11b1ee64bfde78454a69b7131", "rental_uris": {"ios": "https://dc.lft.to/lastmile_qr_scan", "android": "https://dc.lft.to/lastmile_qr_scan"}}, {"name": "2f088c64e5cb38151e05dcf36f9d0eb7", "type": "electric_bike", "lat": 38.98503616666667, "is_reserved": 0, "lon": -76.98216916666667, "fusion_lon": 0.0, "is_disabled": 0, "fusion_lat": 0.0, "bike_id": "2f088c64e5cb38151e05dcf36f9d0eb7", "rental_uris": {"ios": "https://dc.lft.to/lastmile_qr_scan", "android": "https://dc.lft.to/lastmile_qr_scan"}}, {"name": "d3987b491cd14e170124896fe910c791", "type": "electric_scooter", "lat": 38.87335233333334, "is_reserved": 0, "lon": -77.01851633333334, "fusion_lon": 0.0, "is_disabled": 0, "fusion_lat": 0.0, "bike_id": "d3987b491cd14e170124896fe910c791", "rental_uris": {"ios": "https://dc.lft.to/lastmile_qr_scan", "android": "https://dc.lft.to/lastmile_qr_scan"}}, {"name": "c571bb579b25c88bfeb4a503a078072a", "type": "electric_scooter", "lat": 38.862427833333335, "is_reserved": 0, "lon": -76.994929, "fusion_lon": 0.0, "is_disabled": 0, "fusion_lat": 0.0, "bike_id": "c571bb579b25c88bfeb4a503a078072a", "rental_uris": {"ios": "https://dc.lft.to/lastmile_qr_scan", "android": "https://dc.lft.to/lastmile_qr_scan"}}, {"name": "0d0c4469d930bf594337d5b7a3752378", "type": "electric_scooter", "lat": 38.870042166666664, "is_reserved": 0, "lon": -77.0123015, "fusion_lon": 0.0, "is_disabled": 0, "fusion_lat": 0.0, "bike_id": "0d0c4469d930bf594337d5b7a3752378", "rental_uris": {"ios": "https://dc.lft.to/lastmile_qr_scan", "android": "https://dc.lft.to/lastmile_qr_scan"}}, {"name": "4e8ef87ee1b409a018a50dce44071b50", "type": "electric_scooter", "lat": 38.932321, "is_reserved": 0, "lon": -77.03838966666666, "fusion_lon": 0.0, "is_disabled": 0, "fusion_lat": 0.0, "bike_id": "4e8ef87ee1b409a018a50dce44071b50", "rental_uris": {"ios": "https://dc.lft.to/lastmile_qr_scan", "android": "https://dc.lft.to/lastmile_qr_scan"}}, {"name": "29f010a2e975fd07d6c3aa3d5b9a9634", "type": "electric_scooter", "lat": 38.87936366666667, "is_reserved": 0, "lon": -77.00380833333334, "fusion_lon": 0.0, "is_disabled": 0, "fusion_lat": 0.0, "bike_id": "29f010a2e975fd07d6c3aa3d5b9a9634", "rental_uris": {"ios": "https://dc.lft.to/lastmile_qr_scan", "android": "https://dc.lft.to/lastmile_qr_scan"}}, {"name": "498589badc77987b3ed513411474c920", "type": "electric_scooter", "lat": 38.93607166666666, "is_reserved": 0, "lon": -77.0225235, "fusion_lon": 0.0, "is_disabled": 0, "fusion_lat": 0.0, "bike_id": "498589badc77987b3ed513411474c920", "rental_uris": {"ios": "https://dc.lft.to/lastmile_qr_scan", "android": "https://dc.lft.to/lastmile_qr_scan"}}, {"name": "ff9607403d5292e268a9254d3433f55f", "type": "electric_scooter", "lat": 38.9030575, "is_reserved": 0, "lon": -77.03193, "fusion_lon": 0.0, "is_disabled": 0, "fusion_lat": 0.0, "bike_id": "ff9607403d5292e268a9254d3433f55f", "rental_uris": {"ios": "https://dc.lft.to/lastmile_qr_scan", "android": "https://dc.lft.to/lastmile_qr_scan"}}, {"name": "623872e59e53418c06d6d686a5a4f64e", "type": "electric_scooter", "lat": 38.9210675, "is_reserved": 0, "lon": -77.03654966666667, "fusion_lon": 0.0, "is_disabled": 0, "fusion_lat": 0.0, "bike_id": "623872e59e53418c06d6d686a5a4f64e", "rental_uris": {"ios": "https://dc.lft.to/lastmile_qr_scan", "android": "https://dc.lft.to/lastmile_qr_scan"}}, {"name": "6d558eaa2436296bf337661183262336", "type": "electric_scooter", "lat": 38.90095916666667, "is_reserved": 0, "lon": -77.04994183333334, "fusion_lon": 0.0, "is_disabled": 0, "fusion_lat": 0.0, "bike_id": "6d558eaa2436296bf337661183262336", "rental_uris": {"ios": "https://dc.lft.to/lastmile_qr_scan", "android": "https://dc.lft.to/lastmile_qr_scan"}}, {"name": "ae248d4fc9f431cedf4f2cae1560fa9b", "type": "electric_scooter", "lat": 38.89928616666667, "is_reserved": 0, "lon": -77.03010566666667, "fusion_lon": 0.0, "is_disabled": 0, "fusion_lat": 0.0, "bike_id": "ae248d4fc9f431cedf4f2cae1560fa9b", "rental_uris": {"ios": "https://dc.lft.to/lastmile_qr_scan", "android": "https://dc.lft.to/lastmile_qr_scan"}}, {"name": "17b71ade2311aa742102566ef332473d", "type": "electric_scooter", "lat": 38.919129166666664, "is_reserved": 0, "lon": -77.030116, "fusion_lon": 0.0, "is_disabled": 0, "fusion_lat": 0.0, "bike_id": "17b71ade2311aa742102566ef332473d", "rental_uris": {"ios": "https://dc.lft.to/lastmile_qr_scan", "android": "https://dc.lft.to/lastmile_qr_scan"}}, {"name": "497e7ca479103134cfbd1bd52fee19ab", "type": "electric_bike", "lat": 38.852451333333335, "is_reserved": 0, "lon": -77.11432616666667, "fusion_lon": 0.0, "is_disabled": 0, "fusion_lat": 0.0, "bike_id": "497e7ca479103134cfbd1bd52fee19ab", "rental_uris": {"ios": "https://dc.lft.to/lastmile_qr_scan", "android": "https://dc.lft.to/lastmile_qr_scan"}}, {"name": "af12fd376379ffe387d43f3cbedb6735", "type": "electric_scooter", "lat": 38.842934666666665, "is_reserved": 0, "lon": -76.99945283333334, "fusion_lon": 0.0, "is_disabled": 0, "fusion_lat": 0.0, "bike_id": "af12fd376379ffe387d43f3cbedb6735", "rental_uris": {"ios": "https://dc.lft.to/lastmile_qr_scan", "android": "https://dc.lft.to/lastmile_qr_scan"}}, {"name": "65b5299e4a10173c4669943f1b91de25", "type": "electric_scooter", "lat": 38.92740366666666, "is_reserved": 0, "lon": -77.05394416666667, "fusion_lon": 0.0, "is_disabled": 0, "fusion_lat": 0.0, "bike_id": "65b5299e4a10173c4669943f1b91de25", "rental_uris": {"ios": "https://dc.lft.to/lastmile_qr_scan", "android": "https://dc.lft.to/lastmile_qr_scan"}}, {"name": "7742216f6f4f08a02aad8e3476975cac", "type": "electric_scooter", "lat": 38.96724116666667, "is_reserved": 0, "lon": -77.02349066666666, "fusion_lon": 0.0, "is_disabled": 0, "fusion_lat": 0.0, "bike_id": "7742216f6f4f08a02aad8e3476975cac", "rental_uris": {"ios": "https://dc.lft.to/lastmile_qr_scan", "android": "https://dc.lft.to/lastmile_qr_scan"}}, {"name": "c84715b150da084bf942e6508e912dec", "type": "electric_scooter", "lat": 38.887179, "is_reserved": 0, "lon": -77.01774833333333, "fusion_lon": 0.0, "is_disabled": 0, "fusion_lat": 0.0, "bike_id": "c84715b150da084bf942e6508e912dec", "rental_uris": {"ios": "https://dc.lft.to/lastmile_qr_scan", "android": "https://dc.lft.to/lastmile_qr_scan"}}, {"name": "6c9c27a77c48a91b0be5e3f784bafa24", "type": "electric_scooter", "lat": 38.928638166666666, "is_reserved": 0, "lon": -77.02611783333333, "fusion_lon": 0.0, "is_disabled": 0, "fusion_lat": 0.0, "bike_id": "6c9c27a77c48a91b0be5e3f784bafa24", "rental_uris": {"ios": "https://dc.lft.to/lastmile_qr_scan", "android": "https://dc.lft.to/lastmile_qr_scan"}}, {"name": "1ea3f235e7e15b8cbe3b97478ffcfe8e", "type": "electric_scooter", "lat": 38.904725, "is_reserved": 0, "lon": -77.0418195, "fusion_lon": 0.0, "is_disabled": 0, "fusion_lat": 0.0, "bike_id": "1ea3f235e7e15b8cbe3b97478ffcfe8e", "rental_uris": {"ios": "https://dc.lft.to/lastmile_qr_scan", "android": "https://dc.lft.to/lastmile_qr_scan"}}, {"name": "2f1e1ee48675cef44aa349693b675148", "type": "electric_scooter", "lat": 38.935290333333334, "is_reserved": 0, "lon": -77.03310333333333, "fusion_lon": 0.0, "is_disabled": 0, "fusion_lat": 0.0, "bike_id": "2f1e1ee48675cef44aa349693b675148", "rental_uris": {"ios": "https://dc.lft.to/lastmile_qr_scan", "android": "https://dc.lft.to/lastmile_qr_scan"}}, {"name": "f81ade059815a1a11930ab403cd744c1", "type": "electric_scooter", "lat": 38.9026975, "is_reserved": 0, "lon": -77.03849283333334, "fusion_lon": 0.0, "is_disabled": 0, "fusion_lat": 0.0, "bike_id": "f81ade059815a1a11930ab403cd744c1", "rental_uris": {"ios": "https://dc.lft.to/lastmile_qr_scan", "android": "https://dc.lft.to/lastmile_qr_scan"}}, {"name": "74e4a153250c6dae01f5a68bebb9d1a8", "type": "electric_scooter", "lat": 38.9206465, "is_reserved": 0, "lon": -77.02917666666667, "fusion_lon": 0.0, "is_disabled": 0, "fusion_lat": 0.0, "bike_id": "74e4a153250c6dae01f5a68bebb9d1a8", "rental_uris": {"ios": "https://dc.lft.to/lastmile_qr_scan", "android": "https://dc.lft.to/lastmile_qr_scan"}}, {"name": "a34fbc9d638b3e11283c6fa7a6cc720e", "type": "electric_scooter", "lat": 38.88324266666667, "is_reserved": 0, "lon": -77.01752083333334, "fusion_lon": 0.0, "is_disabled": 0, "fusion_lat": 0.0, "bike_id": "a34fbc9d638b3e11283c6fa7a6cc720e", "rental_uris": {"ios": "https://dc.lft.to/lastmile_qr_scan", "android": "https://dc.lft.to/lastmile_qr_scan"}}, {"name": "c8364c19f954e746ba24800bd88ca657", "type": "electric_bike", "lat": 38.85492416666666, "is_reserved": 0, "lon": -77.11523616666666, "fusion_lon": 0.0, "is_disabled": 0, "fusion_lat": 0.0, "bike_id": "c8364c19f954e746ba24800bd88ca657", "rental_uris": {"ios": "https://dc.lft.to/lastmile_qr_scan", "android": "https://dc.lft.to/lastmile_qr_scan"}}, {"name": "f2daead9f658f23da44473c128761cc1", "type": "electric_scooter", "lat": 38.961182, "is_reserved": 0, "lon": -77.0281415, "fusion_lon": 0.0, "is_disabled": 0, "fusion_lat": 0.0, "bike_id": "f2daead9f658f23da44473c128761cc1", "rental_uris": {"ios": "https://dc.lft.to/lastmile_qr_scan", "android": "https://dc.lft.to/lastmile_qr_scan"}}, {"name": "478325fa6d2df794affb8e5913049aa7", "type": "electric_scooter", "lat": 38.91697283333333, "is_reserved": 0, "lon": -77.03110533333333, "fusion_lon": 0.0, "is_disabled": 0, "fusion_lat": 0.0, "bike_id": "478325fa6d2df794affb8e5913049aa7", "rental_uris": {"ios": "https://dc.lft.to/lastmile_qr_scan", "android": "https://dc.lft.to/lastmile_qr_scan"}}, {"name": "1167c9f07bd8a2854e1ba0d430d4b14c", "type": "electric_scooter", "lat": 38.907235166666666, "is_reserved": 0, "lon": -77.00153616666667, "fusion_lon": 0.0, "is_disabled": 0, "fusion_lat": 0.0, "bike_id": "1167c9f07bd8a2854e1ba0d430d4b14c", "rental_uris": {"ios": "https://dc.lft.to/lastmile_qr_scan", "android": "https://dc.lft.to/lastmile_qr_scan"}}, {"name": "8403e31943cca74b682632333c56e33c", "type": "electric_scooter", "lat": 38.91948933333333, "is_reserved": 0, "lon": -77.013554, "fusion_lon": 0.0, "is_disabled": 0, "fusion_lat": 0.0, "bike_id": "8403e31943cca74b682632333c56e33c", "rental_uris": {"ios": "https://dc.lft.to/lastmile_qr_scan", "android": "https://dc.lft.to/lastmile_qr_scan"}}, {"name": "e2e5d208520b0c875a2c59b7931ca838", "type": "electric_scooter", "lat": 38.925676333333335, "is_reserved": 0, "lon": -77.03923416666666, "fusion_lon": 0.0, "is_disabled": 0, "fusion_lat": 0.0, "bike_id": "e2e5d208520b0c875a2c59b7931ca838", "rental_uris": {"ios": "https://dc.lft.to/lastmile_qr_scan", "android": "https://dc.lft.to/lastmile_qr_scan"}}, {"name": "19e0eaefc3868913bd0935b1208b5b24", "type": "electric_scooter", "lat": 38.920540833333334, "is_reserved": 0, "lon": -76.99876383333333, "fusion_lon": 0.0, "is_disabled": 0, "fusion_lat": 0.0, "bike_id": "19e0eaefc3868913bd0935b1208b5b24", "rental_uris": {"ios": "https://dc.lft.to/lastmile_qr_scan", "android": "https://dc.lft.to/lastmile_qr_scan"}}, {"name": "3046f0af60dea685aa895a4afac86982", "type": "electric_scooter", "lat": 38.9135385, "is_reserved": 0, "lon": -77.0155625, "fusion_lon": 0.0, "is_disabled": 0, "fusion_lat": 0.0, "bike_id": "3046f0af60dea685aa895a4afac86982", "rental_uris": {"ios": "https://dc.lft.to/lastmile_qr_scan", "android": "https://dc.lft.to/lastmile_qr_scan"}}, {"name": "0a4cd1fa4ddaf1e473b5296c9d39bdd5", "type": "electric_scooter", "lat": 38.92452516666667, "is_reserved": 0, "lon": -77.00208533333333, "fusion_lon": 0.0, "is_disabled": 0, "fusion_lat": 0.0, "bike_id": "0a4cd1fa4ddaf1e473b5296c9d39bdd5", "rental_uris": {"ios": "https://dc.lft.to/lastmile_qr_scan", "android": "https://dc.lft.to/lastmile_qr_scan"}}, {"name": "d39b166750ae079304be1caed33a9aae", "type": "electric_scooter", "lat": 38.89906716666667, "is_reserved": 0, "lon": -76.9455875, "fusion_lon": 0.0, "is_disabled": 0, "fusion_lat": 0.0, "bike_id": "d39b166750ae079304be1caed33a9aae", "rental_uris": {"ios": "https://dc.lft.to/lastmile_qr_scan", "android": "https://dc.lft.to/lastmile_qr_scan"}}, {"name": "003998f796bdcbd694dad8998deee295", "type": "electric_scooter", "lat": 38.91188983333333, "is_reserved": 0, "lon": -76.99622416666666, "fusion_lon": 0.0, "is_disabled": 0, "fusion_lat": 0.0, "bike_id": "003998f796bdcbd694dad8998deee295", "rental_uris": {"ios": "https://dc.lft.to/lastmile_qr_scan", "android": "https://dc.lft.to/lastmile_qr_scan"}}, {"name": "9971b2d67ea7e12d82ba3fdd65d47bae", "type": "electric_scooter", "lat": 38.89790033333333, "is_reserved": 0, "lon": -77.0298445, "fusion_lon": 0.0, "is_disabled": 0, "fusion_lat": 0.0, "bike_id": "9971b2d67ea7e12d82ba3fdd65d47bae", "rental_uris": {"ios": "https://dc.lft.to/lastmile_qr_scan", "android": "https://dc.lft.to/lastmile_qr_scan"}}, {"name": "75c94b61b90402e0178e3db4425fd143", "type": "electric_scooter", "lat": 38.89220916666667, "is_reserved": 0, "lon": -77.0426185, "fusion_lon": 0.0, "is_disabled": 0, "fusion_lat": 0.0, "bike_id": "75c94b61b90402e0178e3db4425fd143", "rental_uris": {"ios": "https://dc.lft.to/lastmile_qr_scan", "android": "https://dc.lft.to/lastmile_qr_scan"}}, {"name": "302c2082fd92c105fdb3ba56023d40d7", "type": "electric_scooter", "lat": 38.94433166666666, "is_reserved": 0, "lon": -77.063468, "fusion_lon": 0.0, "is_disabled": 0, "fusion_lat": 0.0, "bike_id": "302c2082fd92c105fdb3ba56023d40d7", "rental_uris": {"ios": "https://dc.lft.to/lastmile_qr_scan", "android": "https://dc.lft.to/lastmile_qr_scan"}}, {"name": "72c85293ae31bc462c8ddfd1481c4524", "type": "electric_scooter", "lat": 38.91292383333333, "is_reserved": 0, "lon": -77.06114283333334, "fusion_lon": 0.0, "is_disabled": 0, "fusion_lat": 0.0, "bike_id": "72c85293ae31bc462c8ddfd1481c4524", "rental_uris": {"ios": "https://dc.lft.to/lastmile_qr_scan", "android": "https://dc.lft.to/lastmile_qr_scan"}}, {"name": "1e698811ef05a0723539946ed13c1a97", "type": "electric_scooter", "lat": 38.920957666666666, "is_reserved": 0, "lon": -77.02591216666667, "fusion_lon": 0.0, "is_disabled": 0, "fusion_lat": 0.0, "bike_id": "1e698811ef05a0723539946ed13c1a97", "rental_uris": {"ios": "https://dc.lft.to/lastmile_qr_scan", "android": "https://dc.lft.to/lastmile_qr_scan"}}, {"name": "787dfde2ccd76597eb1704320d3377e9", "type": "electric_scooter", "lat": 38.864344, "is_reserved": 0, "lon": -76.980094, "fusion_lon": 0.0, "is_disabled": 0, "fusion_lat": 0.0, "bike_id": "787dfde2ccd76597eb1704320d3377e9", "rental_uris": {"ios": "https://dc.lft.to/lastmile_qr_scan", "android": "https://dc.lft.to/lastmile_qr_scan"}}, {"name": "efdb16ca7098f19d8d138e3d33220d87", "type": "electric_scooter", "lat": 38.936164833333336, "is_reserved": 0, "lon": -77.03212483333333, "fusion_lon": 0.0, "is_disabled": 0, "fusion_lat": 0.0, "bike_id": "efdb16ca7098f19d8d138e3d33220d87", "rental_uris": {"ios": "https://dc.lft.to/lastmile_qr_scan", "android": "https://dc.lft.to/lastmile_qr_scan"}}, {"name": "c801450c6e1fbdd098ef81a776eeb8ee", "type": "electric_scooter", "lat": 38.919191833333336, "is_reserved": 0, "lon": -77.03420966666667, "fusion_lon": 0.0, "is_disabled": 0, "fusion_lat": 0.0, "bike_id": "c801450c6e1fbdd098ef81a776eeb8ee", "rental_uris": {"ios": "https://dc.lft.to/lastmile_qr_scan", "android": "https://dc.lft.to/lastmile_qr_scan"}}, {"name": "b74e054c6990395f7139c7bae9faa20b", "type": "electric_scooter", "lat": 38.902793833333334, "is_reserved": 0, "lon": -77.04013116666667, "fusion_lon": 0.0, "is_disabled": 0, "fusion_lat": 0.0, "bike_id": "b74e054c6990395f7139c7bae9faa20b", "rental_uris": {"ios": "https://dc.lft.to/lastmile_qr_scan", "android": "https://dc.lft.to/lastmile_qr_scan"}}, {"name": "aa686f88dd6f512ac1d21b49b11fa6e7", "type": "electric_scooter", "lat": 38.933452833333334, "is_reserved": 0, "lon": -77.058672, "fusion_lon": 0.0, "is_disabled": 0, "fusion_lat": 0.0, "bike_id": "aa686f88dd6f512ac1d21b49b11fa6e7", "rental_uris": {"ios": "https://dc.lft.to/lastmile_qr_scan", "android": "https://dc.lft.to/lastmile_qr_scan"}}, {"name": "a4f558b35e43319a1b5a8d8c5661c7cd", "type": "electric_scooter", "lat": 38.91606816666667, "is_reserved": 0, "lon": -77.045996, "fusion_lon": 0.0, "is_disabled": 0, "fusion_lat": 0.0, "bike_id": "a4f558b35e43319a1b5a8d8c5661c7cd", "rental_uris": {"ios": "https://dc.lft.to/lastmile_qr_scan", "android": "https://dc.lft.to/lastmile_qr_scan"}}, {"name": "9738e2691bfd82a40532fcfbe36147ed", "type": "electric_scooter", "lat": 38.90676783333333, "is_reserved": 0, "lon": -77.03826866666667, "fusion_lon": 0.0, "is_disabled": 0, "fusion_lat": 0.0, "bike_id": "9738e2691bfd82a40532fcfbe36147ed", "rental_uris": {"ios": "https://dc.lft.to/lastmile_qr_scan", "android": "https://dc.lft.to/lastmile_qr_scan"}}, {"name": "c70b788b8723fe12662282b813c4bf2d", "type": "electric_scooter", "lat": 38.937151666666665, "is_reserved": 0, "lon": -77.036509, "fusion_lon": 0.0, "is_disabled": 0, "fusion_lat": 0.0, "bike_id": "c70b788b8723fe12662282b813c4bf2d", "rental_uris": {"ios": "https://dc.lft.to/lastmile_qr_scan", "android": "https://dc.lft.to/lastmile_qr_scan"}}, {"name": "2c6909e9912bc8bac8b21c730000dbdf", "type": "electric_scooter", "lat": 38.896707666666664, "is_reserved": 0, "lon": -77.0539955, "fusion_lon": 0.0, "is_disabled": 0, "fusion_lat": 0.0, "bike_id": "2c6909e9912bc8bac8b21c730000dbdf", "rental_uris": {"ios": "https://dc.lft.to/lastmile_qr_scan", "android": "https://dc.lft.to/lastmile_qr_scan"}}, {"name": "df1b877c9db726dfe58661db12dc9feb", "type": "electric_scooter", "lat": 38.922881, "is_reserved": 0, "lon": -77.02073183333333, "fusion_lon": 0.0, "is_disabled": 0, "fusion_lat": 0.0, "bike_id": "df1b877c9db726dfe58661db12dc9feb", "rental_uris": {"ios": "https://dc.lft.to/lastmile_qr_scan", "android": "https://dc.lft.to/lastmile_qr_scan"}}, {"name": "928cc57ea243d3e1f7bb626558ef1e2c", "type": "electric_bike", "lat": 38.990902166666665, "is_reserved": 0, "lon": -76.87496666666667, "fusion_lon": 0.0, "is_disabled": 0, "fusion_lat": 0.0, "bike_id": "928cc57ea243d3e1f7bb626558ef1e2c", "rental_uris": {"ios": "https://dc.lft.to/lastmile_qr_scan", "android": "https://dc.lft.to/lastmile_qr_scan"}}, {"name": "c98962466f2e327f64e258e7fa42aa1d", "type": "electric_scooter", "lat": 38.91325633333334, "is_reserved": 0, "lon": -77.030412, "fusion_lon": 0.0, "is_disabled": 0, "fusion_lat": 0.0, "bike_id": "c98962466f2e327f64e258e7fa42aa1d", "rental_uris": {"ios": "https://dc.lft.to/lastmile_qr_scan", "android": "https://dc.lft.to/lastmile_qr_scan"}}, {"name": "6b967a0483c606c4366265b212d9166f", "type": "electric_scooter", "lat": 38.93097733333333, "is_reserved": 0, "lon": -77.02668716666666, "fusion_lon": 0.0, "is_disabled": 0, "fusion_lat": 0.0, "bike_id": "6b967a0483c606c4366265b212d9166f", "rental_uris": {"ios": "https://dc.lft.to/lastmile_qr_scan", "android": "https://dc.lft.to/lastmile_qr_scan"}}, {"name": "c77a54ade4103cb66c33c0e1773d669b", "type": "electric_scooter", "lat": 38.941525, "is_reserved": 0, "lon": -77.03654716666667, "fusion_lon": 0.0, "is_disabled": 0, "fusion_lat": 0.0, "bike_id": "c77a54ade4103cb66c33c0e1773d669b", "rental_uris": {"ios": "https://dc.lft.to/lastmile_qr_scan", "android": "https://dc.lft.to/lastmile_qr_scan"}}, {"name": "93b6d6acebdb6eb1dced0147e357d0f2", "type": "electric_bike", "lat": 38.90530533333333, "is_reserved": 0, "lon": -76.9980835, "fusion_lon": 0.0, "is_disabled": 0, "fusion_lat": 0.0, "bike_id": "93b6d6acebdb6eb1dced0147e357d0f2", "rental_uris": {"ios": "https://dc.lft.to/lastmile_qr_scan", "android": "https://dc.lft.to/lastmile_qr_scan"}}, {"name": "ac2a0658bcf795b569744fd051d2f13e", "type": "electric_scooter", "lat": 38.899007, "is_reserved": 0, "lon": -77.00703516666667, "fusion_lon": 0.0, "is_disabled": 0, "fusion_lat": 0.0, "bike_id": "ac2a0658bcf795b569744fd051d2f13e", "rental_uris": {"ios": "https://dc.lft.to/lastmile_qr_scan", "android": "https://dc.lft.to/lastmile_qr_scan"}}, {"name": "dfc0ab6d30277591981f4ce1fff77c5e", "type": "electric_scooter", "lat": 38.8982415, "is_reserved": 0, "lon": -76.92640216666666, "fusion_lon": 0.0, "is_disabled": 0, "fusion_lat": 0.0, "bike_id": "dfc0ab6d30277591981f4ce1fff77c5e", "rental_uris": {"ios": "https://dc.lft.to/lastmile_qr_scan", "android": "https://dc.lft.to/lastmile_qr_scan"}}, {"name": "6f9838172cc2cca2f54ddad052942afd", "type": "electric_scooter", "lat": 38.866971, "is_reserved": 0, "lon": -76.987125, "fusion_lon": 0.0, "is_disabled": 0, "fusion_lat": 0.0, "bike_id": "6f9838172cc2cca2f54ddad052942afd", "rental_uris": {"ios": "https://dc.lft.to/lastmile_qr_scan", "android": "https://dc.lft.to/lastmile_qr_scan"}}, {"name": "9ba74ec1c633e992cfcf383cfad37612", "type": "electric_scooter", "lat": 38.91638483333333, "is_reserved": 0, "lon": -77.0462905, "fusion_lon": 0.0, "is_disabled": 0, "fusion_lat": 0.0, "bike_id": "9ba74ec1c633e992cfcf383cfad37612", "rental_uris": {"ios": "https://dc.lft.to/lastmile_qr_scan", "android": "https://dc.lft.to/lastmile_qr_scan"}}, {"name": "23f25907bd18387a4533c4b00ecbdfaa", "type": "electric_scooter", "lat": 38.89391583333333, "is_reserved": 0, "lon": -76.993823, "fusion_lon": 0.0, "is_disabled": 0, "fusion_lat": 0.0, "bike_id": "23f25907bd18387a4533c4b00ecbdfaa", "rental_uris": {"ios": "https://dc.lft.to/lastmile_qr_scan", "android": "https://dc.lft.to/lastmile_qr_scan"}}, {"name": "d9f64dfbad4a567182db56a95d1a6257", "type": "electric_scooter", "lat": 38.905156833333336, "is_reserved": 0, "lon": -77.06629766666667, "fusion_lon": 0.0, "is_disabled": 0, "fusion_lat": 0.0, "bike_id": "d9f64dfbad4a567182db56a95d1a6257", "rental_uris": {"ios": "https://dc.lft.to/lastmile_qr_scan", "android": "https://dc.lft.to/lastmile_qr_scan"}}, {"name": "ab21213646cc0b9d3dd0258eccec4b03", "type": "electric_scooter", "lat": 38.946321166666664, "is_reserved": 0, "lon": -77.019235, "fusion_lon": 0.0, "is_disabled": 0, "fusion_lat": 0.0, "bike_id": "ab21213646cc0b9d3dd0258eccec4b03", "rental_uris": {"ios": "https://dc.lft.to/lastmile_qr_scan", "android": "https://dc.lft.to/lastmile_qr_scan"}}, {"name": "0e80a6a77b91331b6f4828e8771b4593", "type": "electric_scooter", "lat": 38.92732683333333, "is_reserved": 0, "lon": -77.02990966666667, "fusion_lon": 0.0, "is_disabled": 0, "fusion_lat": 0.0, "bike_id": "0e80a6a77b91331b6f4828e8771b4593", "rental_uris": {"ios": "https://dc.lft.to/lastmile_qr_scan", "android": "https://dc.lft.to/lastmile_qr_scan"}}, {"name": "0ad55a4f94ec3e4efaffcc8bec9e092f", "type": "electric_bike", "lat": 38.874787166666664, "is_reserved": 0, "lon": -76.96531183333333, "fusion_lon": 0.0, "is_disabled": 0, "fusion_lat": 0.0, "bike_id": "0ad55a4f94ec3e4efaffcc8bec9e092f", "rental_uris": {"ios": "https://dc.lft.to/lastmile_qr_scan", "android": "https://dc.lft.to/lastmile_qr_scan"}}, {"name": "60a0f8ac91944ab917033fa90dfc68dc", "type": "electric_scooter", "lat": 38.9051965, "is_reserved": 0, "lon": -77.05006466666667, "fusion_lon": 0.0, "is_disabled": 0, "fusion_lat": 0.0, "bike_id": "60a0f8ac91944ab917033fa90dfc68dc", "rental_uris": {"ios": "https://dc.lft.to/lastmile_qr_scan", "android": "https://dc.lft.to/lastmile_qr_scan"}}, {"name": "1f70eba1baf5f0f23151cab177ac1a2b", "type": "electric_bike", "lat": 38.89883833333333, "is_reserved": 0, "lon": -76.98390433333333, "fusion_lon": 0.0, "is_disabled": 0, "fusion_lat": 0.0, "bike_id": "1f70eba1baf5f0f23151cab177ac1a2b", "rental_uris": {"ios": "https://dc.lft.to/lastmile_qr_scan", "android": "https://dc.lft.to/lastmile_qr_scan"}}, {"name": "7f214cf69edcfeafed556a6f7d338f50", "type": "electric_scooter", "lat": 38.910112166666664, "is_reserved": 0, "lon": -76.9938895, "fusion_lon": 0.0, "is_disabled": 0, "fusion_lat": 0.0, "bike_id": "7f214cf69edcfeafed556a6f7d338f50", "rental_uris": {"ios": "https://dc.lft.to/lastmile_qr_scan", "android": "https://dc.lft.to/lastmile_qr_scan"}}, {"name": "4f319fcd0ce7652de80210a6b0d97ff1", "type": "electric_scooter", "lat": 38.90072966666666, "is_reserved": 0, "lon": -77.01312916666667, "fusion_lon": 0.0, "is_disabled": 0, "fusion_lat": 0.0, "bike_id": "4f319fcd0ce7652de80210a6b0d97ff1", "rental_uris": {"ios": "https://dc.lft.to/lastmile_qr_scan", "android": "https://dc.lft.to/lastmile_qr_scan"}}, {"name": "7e2bf41d93298ff82502918299bfbdee", "type": "electric_scooter", "lat": 38.93939483333333, "is_reserved": 0, "lon": -77.01703816666667, "fusion_lon": 0.0, "is_disabled": 0, "fusion_lat": 0.0, "bike_id": "7e2bf41d93298ff82502918299bfbdee", "rental_uris": {"ios": "https://dc.lft.to/lastmile_qr_scan", "android": "https://dc.lft.to/lastmile_qr_scan"}}, {"name": "21830eedd24966322ec982234a5ecb9f", "type": "electric_scooter", "lat": 38.883118833333334, "is_reserved": 0, "lon": -77.00935266666667, "fusion_lon": 0.0, "is_disabled": 0, "fusion_lat": 0.0, "bike_id": "21830eedd24966322ec982234a5ecb9f", "rental_uris": {"ios": "https://dc.lft.to/lastmile_qr_scan", "android": "https://dc.lft.to/lastmile_qr_scan"}}, {"name": "bea623e23a51ba15dd0d8200e0466112", "type": "electric_bike", "lat": 38.9675305, "is_reserved": 0, "lon": -77.02789033333333, "fusion_lon": 0.0, "is_disabled": 0, "fusion_lat": 0.0, "bike_id": "bea623e23a51ba15dd0d8200e0466112", "rental_uris": {"ios": "https://dc.lft.to/lastmile_qr_scan", "android": "https://dc.lft.to/lastmile_qr_scan"}}, {"name": "b09718d07ea1dec5c44ba2561971e246", "type": "electric_scooter", "lat": 38.93451066666667, "is_reserved": 0, "lon": -77.0724575, "fusion_lon": 0.0, "is_disabled": 0, "fusion_lat": 0.0, "bike_id": "b09718d07ea1dec5c44ba2561971e246", "rental_uris": {"ios": "https://dc.lft.to/lastmile_qr_scan", "android": "https://dc.lft.to/lastmile_qr_scan"}}, {"name": "889bc981210290ee08c77ec3396e7c25", "type": "electric_scooter", "lat": 38.88451216666667, "is_reserved": 0, "lon": -77.005793, "fusion_lon": 0.0, "is_disabled": 0, "fusion_lat": 0.0, "bike_id": "889bc981210290ee08c77ec3396e7c25", "rental_uris": {"ios": "https://dc.lft.to/lastmile_qr_scan", "android": "https://dc.lft.to/lastmile_qr_scan"}}, {"name": "0953c349bb54649d82a0f6ee77cb3284", "type": "electric_scooter", "lat": 38.9201435, "is_reserved": 0, "lon": -77.044019, "fusion_lon": 0.0, "is_disabled": 0, "fusion_lat": 0.0, "bike_id": "0953c349bb54649d82a0f6ee77cb3284", "rental_uris": {"ios": "https://dc.lft.to/lastmile_qr_scan", "android": "https://dc.lft.to/lastmile_qr_scan"}}, {"name": "af85900c126059980285c651a0dc5096", "type": "electric_scooter", "lat": 38.896301, "is_reserved": 0, "lon": -77.01013783333333, "fusion_lon": 0.0, "is_disabled": 0, "fusion_lat": 0.0, "bike_id": "af85900c126059980285c651a0dc5096", "rental_uris": {"ios": "https://dc.lft.to/lastmile_qr_scan", "android": "https://dc.lft.to/lastmile_qr_scan"}}, {"name": "31a3ba41174217db462b1a21d7eaba42", "type": "electric_scooter", "lat": 38.866606166666664, "is_reserved": 0, "lon": -76.9888325, "fusion_lon": 0.0, "is_disabled": 0, "fusion_lat": 0.0, "bike_id": "31a3ba41174217db462b1a21d7eaba42", "rental_uris": {"ios": "https://dc.lft.to/lastmile_qr_scan", "android": "https://dc.lft.to/lastmile_qr_scan"}}, {"name": "3ebf564e2e3d0935b3164604b5130fc8", "type": "electric_scooter", "lat": 38.89884466666667, "is_reserved": 0, "lon": -76.93174083333334, "fusion_lon": 0.0, "is_disabled": 0, "fusion_lat": 0.0, "bike_id": "3ebf564e2e3d0935b3164604b5130fc8", "rental_uris": {"ios": "https://dc.lft.to/lastmile_qr_scan", "android": "https://dc.lft.to/lastmile_qr_scan"}}, {"name": "9f5781b781b64236ccb14451444e5eea", "type": "electric_scooter", "lat": 38.928802, "is_reserved": 0, "lon": -77.037332, "fusion_lon": 0.0, "is_disabled": 0, "fusion_lat": 0.0, "bike_id": "9f5781b781b64236ccb14451444e5eea", "rental_uris": {"ios": "https://dc.lft.to/lastmile_qr_scan", "android": "https://dc.lft.to/lastmile_qr_scan"}}, {"name": "844ea91260814b68d8db67eab81a64af", "type": "electric_scooter", "lat": 38.927528333333335, "is_reserved": 0, "lon": -77.0241815, "fusion_lon": 0.0, "is_disabled": 0, "fusion_lat": 0.0, "bike_id": "844ea91260814b68d8db67eab81a64af", "rental_uris": {"ios": "https://dc.lft.to/lastmile_qr_scan", "android": "https://dc.lft.to/lastmile_qr_scan"}}, {"name": "cd0bf46b4d3a1818c0ba8680f3b1d447", "type": "electric_bike", "lat": 38.94269966666667, "is_reserved": 0, "lon": -76.9806945, "fusion_lon": 0.0, "is_disabled": 0, "fusion_lat": 0.0, "bike_id": "cd0bf46b4d3a1818c0ba8680f3b1d447", "rental_uris": {"ios": "https://dc.lft.to/lastmile_qr_scan", "android": "https://dc.lft.to/lastmile_qr_scan"}}, {"name": "4f0f24848ecd18ee99ecb1d728395892", "type": "electric_scooter", "lat": 38.91705816666666, "is_reserved": 0, "lon": -77.00116166666666, "fusion_lon": 0.0, "is_disabled": 0, "fusion_lat": 0.0, "bike_id": "4f0f24848ecd18ee99ecb1d728395892", "rental_uris": {"ios": "https://dc.lft.to/lastmile_qr_scan", "android": "https://dc.lft.to/lastmile_qr_scan"}}, {"name": "9ae448c0f2fff7931356132c5d2b85e9", "type": "electric_scooter", "lat": 38.927051666666664, "is_reserved": 0, "lon": -77.03851216666666, "fusion_lon": 0.0, "is_disabled": 0, "fusion_lat": 0.0, "bike_id": "9ae448c0f2fff7931356132c5d2b85e9", "rental_uris": {"ios": "https://dc.lft.to/lastmile_qr_scan", "android": "https://dc.lft.to/lastmile_qr_scan"}}, {"name": "f40377cf328a0b96caa759107979b588", "type": "electric_scooter", "lat": 38.87262483333333, "is_reserved": 0, "lon": -77.01530283333334, "fusion_lon": 0.0, "is_disabled": 0, "fusion_lat": 0.0, "bike_id": "f40377cf328a0b96caa759107979b588", "rental_uris": {"ios": "https://dc.lft.to/lastmile_qr_scan", "android": "https://dc.lft.to/lastmile_qr_scan"}}, {"name": "ce0460b8e09a1b5120e008affb233d5f", "type": "electric_bike", "lat": 38.95641716666667, "is_reserved": 0, "lon": -76.997476, "fusion_lon": 0.0, "is_disabled": 0, "fusion_lat": 0.0, "bike_id": "ce0460b8e09a1b5120e008affb233d5f", "rental_uris": {"ios": "https://dc.lft.to/lastmile_qr_scan", "android": "https://dc.lft.to/lastmile_qr_scan"}}, {"name": "4a0244d3cd4950c3f4a7135d89ac16f7", "type": "electric_scooter", "lat": 38.883169, "is_reserved": 0, "lon": -77.01762516666666, "fusion_lon": 0.0, "is_disabled": 0, "fusion_lat": 0.0, "bike_id": "4a0244d3cd4950c3f4a7135d89ac16f7", "rental_uris": {"ios": "https://dc.lft.to/lastmile_qr_scan", "android": "https://dc.lft.to/lastmile_qr_scan"}}, {"name": "a9eeb8bfe3ad76c358271366651ce412", "type": "electric_bike", "lat": 38.9518385, "is_reserved": 0, "lon": -76.9354025, "fusion_lon": 0.0, "is_disabled": 0, "fusion_lat": 0.0, "bike_id": "a9eeb8bfe3ad76c358271366651ce412", "rental_uris": {"ios": "https://dc.lft.to/lastmile_qr_scan", "android": "https://dc.lft.to/lastmile_qr_scan"}}, {"name": "a5e1973764f646ea21387795a66c494a", "type": "electric_scooter", "lat": 38.913898333333336, "is_reserved": 0, "lon": -77.03318333333333, "fusion_lon": 0.0, "is_disabled": 0, "fusion_lat": 0.0, "bike_id": "a5e1973764f646ea21387795a66c494a", "rental_uris": {"ios": "https://dc.lft.to/lastmile_qr_scan", "android": "https://dc.lft.to/lastmile_qr_scan"}}, {"name": "3b92e78ec8ae3ac595f9a2b19fc639b9", "type": "electric_scooter", "lat": 38.911177333333335, "is_reserved": 0, "lon": -77.0373, "fusion_lon": 0.0, "is_disabled": 0, "fusion_lat": 0.0, "bike_id": "3b92e78ec8ae3ac595f9a2b19fc639b9", "rental_uris": {"ios": "https://dc.lft.to/lastmile_qr_scan", "android": "https://dc.lft.to/lastmile_qr_scan"}}, {"name": "8fedd91b490feb5b7aadcbc9e989ef1d", "type": "electric_bike", "lat": 38.9690745, "is_reserved": 0, "lon": -76.95666216666666, "fusion_lon": 0.0, "is_disabled": 0, "fusion_lat": 0.0, "bike_id": "8fedd91b490feb5b7aadcbc9e989ef1d", "rental_uris": {"ios": "https://dc.lft.to/lastmile_qr_scan", "android": "https://dc.lft.to/lastmile_qr_scan"}}, {"name": "ca370617557c12987a433b7b54e288f3", "type": "electric_bike", "lat": 38.9220855, "is_reserved": 0, "lon": -76.98839483333333, "fusion_lon": 0.0, "is_disabled": 0, "fusion_lat": 0.0, "bike_id": "ca370617557c12987a433b7b54e288f3", "rental_uris": {"ios": "https://dc.lft.to/lastmile_qr_scan", "android": "https://dc.lft.to/lastmile_qr_scan"}}, {"name": "7c80ba92b053ec201463d3c14f23e38c", "type": "electric_bike", "lat": 38.992301, "is_reserved": 0, "lon": -76.87817633333333, "fusion_lon": 0.0, "is_disabled": 0, "fusion_lat": 0.0, "bike_id": "7c80ba92b053ec201463d3c14f23e38c", "rental_uris": {"ios": "https://dc.lft.to/lastmile_qr_scan", "android": "https://dc.lft.to/lastmile_qr_scan"}}, {"name": "5f609531b94dd8cec5c4e749d2f4e617", "type": "electric_scooter", "lat": 38.84291916666667, "is_reserved": 0, "lon": -76.99951116666666, "fusion_lon": 0.0, "is_disabled": 0, "fusion_lat": 0.0, "bike_id": "5f609531b94dd8cec5c4e749d2f4e617", "rental_uris": {"ios": "https://dc.lft.to/lastmile_qr_scan", "android": "https://dc.lft.to/lastmile_qr_scan"}}, {"name": "237f267747a543776e5b48b6bd7a5d9c", "type": "electric_scooter", "lat": 38.900356, "is_reserved": 0, "lon": -77.02598533333334, "fusion_lon": 0.0, "is_disabled": 0, "fusion_lat": 0.0, "bike_id": "237f267747a543776e5b48b6bd7a5d9c", "rental_uris": {"ios": "https://dc.lft.to/lastmile_qr_scan", "android": "https://dc.lft.to/lastmile_qr_scan"}}, {"name": "e030d0640683c6e2dbbc4e8d188fb7c4", "type": "electric_scooter", "lat": 38.902706333333334, "is_reserved": 0, "lon": -77.06108683333333, "fusion_lon": 0.0, "is_disabled": 0, "fusion_lat": 0.0, "bike_id": "e030d0640683c6e2dbbc4e8d188fb7c4", "rental_uris": {"ios": "https://dc.lft.to/lastmile_qr_scan", "android": "https://dc.lft.to/lastmile_qr_scan"}}, {"name": "5ffd6901acf04de6c298e899b080d6cf", "type": "electric_scooter", "lat": 38.90142983333333, "is_reserved": 0, "lon": -77.011981, "fusion_lon": 0.0, "is_disabled": 0, "fusion_lat": 0.0, "bike_id": "5ffd6901acf04de6c298e899b080d6cf", "rental_uris": {"ios": "https://dc.lft.to/lastmile_qr_scan", "android": "https://dc.lft.to/lastmile_qr_scan"}}, {"name": "345b4243ffe5ffb280b21868f093e156", "type": "electric_bike", "lat": 38.822256833333334, "is_reserved": 0, "lon": -77.104461, "fusion_lon": 0.0, "is_disabled": 0, "fusion_lat": 0.0, "bike_id": "345b4243ffe5ffb280b21868f093e156", "rental_uris": {"ios": "https://dc.lft.to/lastmile_qr_scan", "android": "https://dc.lft.to/lastmile_qr_scan"}}, {"name": "d624139438475d46986c787a13f62682", "type": "electric_scooter", "lat": 38.9109815, "is_reserved": 0, "lon": -77.036633, "fusion_lon": 0.0, "is_disabled": 0, "fusion_lat": 0.0, "bike_id": "d624139438475d46986c787a13f62682", "rental_uris": {"ios": "https://dc.lft.to/lastmile_qr_scan", "android": "https://dc.lft.to/lastmile_qr_scan"}}, {"name": "a41f38053adebeed6c274952ddf3661f", "type": "electric_scooter", "lat": 38.905432166666664, "is_reserved": 0, "lon": -77.02182, "fusion_lon": 0.0, "is_disabled": 0, "fusion_lat": 0.0, "bike_id": "a41f38053adebeed6c274952ddf3661f", "rental_uris": {"ios": "https://dc.lft.to/lastmile_qr_scan", "android": "https://dc.lft.to/lastmile_qr_scan"}}, {"name": "86eee02dc64b8a511933cd1c1a14e304", "type": "electric_scooter", "lat": 38.8665435, "is_reserved": 0, "lon": -76.98889966666667, "fusion_lon": 0.0, "is_disabled": 0, "fusion_lat": 0.0, "bike_id": "86eee02dc64b8a511933cd1c1a14e304", "rental_uris": {"ios": "https://dc.lft.to/lastmile_qr_scan", "android": "https://dc.lft.to/lastmile_qr_scan"}}, {"name": "456a111891ef5604ab364839ac140486", "type": "electric_scooter", "lat": 38.9109135, "is_reserved": 0, "lon": -77.0049775, "fusion_lon": 0.0, "is_disabled": 0, "fusion_lat": 0.0, "bike_id": "456a111891ef5604ab364839ac140486", "rental_uris": {"ios": "https://dc.lft.to/lastmile_qr_scan", "android": "https://dc.lft.to/lastmile_qr_scan"}}, {"name": "5c5de5ec81c49aa4c322ebfbf1f4edf3", "type": "electric_scooter", "lat": 38.89725466666667, "is_reserved": 0, "lon": -77.0433925, "fusion_lon": 0.0, "is_disabled": 0, "fusion_lat": 0.0, "bike_id": "5c5de5ec81c49aa4c322ebfbf1f4edf3", "rental_uris": {"ios": "https://dc.lft.to/lastmile_qr_scan", "android": "https://dc.lft.to/lastmile_qr_scan"}}, {"name": "69a935301efa143b0dba76f89cfd5bdd", "type": "electric_scooter", "lat": 38.9056155, "is_reserved": 0, "lon": -77.0344585, "fusion_lon": 0.0, "is_disabled": 0, "fusion_lat": 0.0, "bike_id": "69a935301efa143b0dba76f89cfd5bdd", "rental_uris": {"ios": "https://dc.lft.to/lastmile_qr_scan", "android": "https://dc.lft.to/lastmile_qr_scan"}}, {"name": "7fa81c7c500db59d8cfc0f861e603205", "type": "electric_scooter", "lat": 38.90630933333333, "is_reserved": 0, "lon": -77.05130916666667, "fusion_lon": 0.0, "is_disabled": 0, "fusion_lat": 0.0, "bike_id": "7fa81c7c500db59d8cfc0f861e603205", "rental_uris": {"ios": "https://dc.lft.to/lastmile_qr_scan", "android": "https://dc.lft.to/lastmile_qr_scan"}}, {"name": "8d7950dd48fea07ad5aef149fea3c997", "type": "electric_scooter", "lat": 38.906494333333335, "is_reserved": 0, "lon": -77.05143466666667, "fusion_lon": 0.0, "is_disabled": 0, "fusion_lat": 0.0, "bike_id": "8d7950dd48fea07ad5aef149fea3c997", "rental_uris": {"ios": "https://dc.lft.to/lastmile_qr_scan", "android": "https://dc.lft.to/lastmile_qr_scan"}}, {"name": "6aedc99c229f3359c98d0104c4c33b31", "type": "electric_scooter", "lat": 38.930016, "is_reserved": 0, "lon": -77.02351016666667, "fusion_lon": 0.0, "is_disabled": 0, "fusion_lat": 0.0, "bike_id": "6aedc99c229f3359c98d0104c4c33b31", "rental_uris": {"ios": "https://dc.lft.to/lastmile_qr_scan", "android": "https://dc.lft.to/lastmile_qr_scan"}}, {"name": "999e36a4021a2d5f6880aa3760ec1431", "type": "electric_scooter", "lat": 38.900231, "is_reserved": 0, "lon": -77.04033416666667, "fusion_lon": 0.0, "is_disabled": 0, "fusion_lat": 0.0, "bike_id": "999e36a4021a2d5f6880aa3760ec1431", "rental_uris": {"ios": "https://dc.lft.to/lastmile_qr_scan", "android": "https://dc.lft.to/lastmile_qr_scan"}}, {"name": "63bbb44a6286b37b3b8d0311fb775e15", "type": "electric_scooter", "lat": 38.923351333333336, "is_reserved": 0, "lon": -77.03511916666666, "fusion_lon": 0.0, "is_disabled": 0, "fusion_lat": 0.0, "bike_id": "63bbb44a6286b37b3b8d0311fb775e15", "rental_uris": {"ios": "https://dc.lft.to/lastmile_qr_scan", "android": "https://dc.lft.to/lastmile_qr_scan"}}, {"name": "ae8801c0b33d21e8a43d7fc4f688c64e", "type": "electric_scooter", "lat": 38.939643833333335, "is_reserved": 0, "lon": -77.0325835, "fusion_lon": 0.0, "is_disabled": 0, "fusion_lat": 0.0, "bike_id": "ae8801c0b33d21e8a43d7fc4f688c64e", "rental_uris": {"ios": "https://dc.lft.to/lastmile_qr_scan", "android": "https://dc.lft.to/lastmile_qr_scan"}}, {"name": "2d6c1be16e62d34d42a3235b4c893ddb", "type": "electric_scooter", "lat": 38.894786833333335, "is_reserved": 0, "lon": -76.94872166666667, "fusion_lon": 0.0, "is_disabled": 0, "fusion_lat": 0.0, "bike_id": "2d6c1be16e62d34d42a3235b4c893ddb", "rental_uris": {"ios": "https://dc.lft.to/lastmile_qr_scan", "android": "https://dc.lft.to/lastmile_qr_scan"}}, {"name": "bf5a4363def9d55fd076771fffb41e28", "type": "electric_scooter", "lat": 38.93727616666666, "is_reserved": 0, "lon": -77.02387516666667, "fusion_lon": 0.0, "is_disabled": 0, "fusion_lat": 0.0, "bike_id": "bf5a4363def9d55fd076771fffb41e28", "rental_uris": {"ios": "https://dc.lft.to/lastmile_qr_scan", "android": "https://dc.lft.to/lastmile_qr_scan"}}, {"name": "9e73cca1076dbf57702d93e4e3108cd3", "type": "electric_scooter", "lat": 38.922787666666665, "is_reserved": 0, "lon": -77.03661316666667, "fusion_lon": 0.0, "is_disabled": 0, "fusion_lat": 0.0, "bike_id": "9e73cca1076dbf57702d93e4e3108cd3", "rental_uris": {"ios": "https://dc.lft.to/lastmile_qr_scan", "android": "https://dc.lft.to/lastmile_qr_scan"}}, {"name": "5c8b19462bb63db85ec902f95cd49338", "type": "electric_scooter", "lat": 38.914188, "is_reserved": 0, "lon": -77.046457, "fusion_lon": 0.0, "is_disabled": 0, "fusion_lat": 0.0, "bike_id": "5c8b19462bb63db85ec902f95cd49338", "rental_uris": {"ios": "https://dc.lft.to/lastmile_qr_scan", "android": "https://dc.lft.to/lastmile_qr_scan"}}, {"name": "8e6316bd3651c4878ca3f7de1ddabfb9", "type": "electric_scooter", "lat": 38.8994085, "is_reserved": 0, "lon": -76.98012466666667, "fusion_lon": 0.0, "is_disabled": 0, "fusion_lat": 0.0, "bike_id": "8e6316bd3651c4878ca3f7de1ddabfb9", "rental_uris": {"ios": "https://dc.lft.to/lastmile_qr_scan", "android": "https://dc.lft.to/lastmile_qr_scan"}}, {"name": "56ecfa2d040330df3087257bc3181877", "type": "electric_scooter", "lat": 38.90023933333333, "is_reserved": 0, "lon": -77.0020295, "fusion_lon": 0.0, "is_disabled": 0, "fusion_lat": 0.0, "bike_id": "56ecfa2d040330df3087257bc3181877", "rental_uris": {"ios": "https://dc.lft.to/lastmile_qr_scan", "android": "https://dc.lft.to/lastmile_qr_scan"}}, {"name": "2557f02beac8240c28f7eefdc46b78ec", "type": "electric_scooter", "lat": 38.93709283333333, "is_reserved": 0, "lon": -77.029352, "fusion_lon": 0.0, "is_disabled": 0, "fusion_lat": 0.0, "bike_id": "2557f02beac8240c28f7eefdc46b78ec", "rental_uris": {"ios": "https://dc.lft.to/lastmile_qr_scan", "android": "https://dc.lft.to/lastmile_qr_scan"}}, {"name": "5bf80abd6473d8aa4bed349bdfb9fa72", "type": "electric_scooter", "lat": 38.88512, "is_reserved": 0, "lon": -77.00571733333334, "fusion_lon": 0.0, "is_disabled": 0, "fusion_lat": 0.0, "bike_id": "5bf80abd6473d8aa4bed349bdfb9fa72", "rental_uris": {"ios": "https://dc.lft.to/lastmile_qr_scan", "android": "https://dc.lft.to/lastmile_qr_scan"}}, {"name": "1bf829f97241b88b66329e4f1220f4f5", "type": "electric_bike", "lat": 38.95068216666667, "is_reserved": 0, "lon": -77.01195666666666, "fusion_lon": 0.0, "is_disabled": 0, "fusion_lat": 0.0, "bike_id": "1bf829f97241b88b66329e4f1220f4f5", "rental_uris": {"ios": "https://dc.lft.to/lastmile_qr_scan", "android": "https://dc.lft.to/lastmile_qr_scan"}}, {"name": "39fe4c92916f36ec8faa2b5771d80286", "type": "electric_scooter", "lat": 38.90393683333333, "is_reserved": 0, "lon": -77.00591366666667, "fusion_lon": 0.0, "is_disabled": 0, "fusion_lat": 0.0, "bike_id": "39fe4c92916f36ec8faa2b5771d80286", "rental_uris": {"ios": "https://dc.lft.to/lastmile_qr_scan", "android": "https://dc.lft.to/lastmile_qr_scan"}}, {"name": "d6a333075c362e3e8c8e243faa3ac36d", "type": "electric_scooter", "lat": 38.89223166666667, "is_reserved": 0, "lon": -77.03090433333334, "fusion_lon": 0.0, "is_disabled": 0, "fusion_lat": 0.0, "bike_id": "d6a333075c362e3e8c8e243faa3ac36d", "rental_uris": {"ios": "https://dc.lft.to/lastmile_qr_scan", "android": "https://dc.lft.to/lastmile_qr_scan"}}, {"name": "a4574967abb2a3c349fdcebe3da915fa", "type": "electric_scooter", "lat": 38.903949, "is_reserved": 0, "lon": -77.0099605, "fusion_lon": 0.0, "is_disabled": 0, "fusion_lat": 0.0, "bike_id": "a4574967abb2a3c349fdcebe3da915fa", "rental_uris": {"ios": "https://dc.lft.to/lastmile_qr_scan", "android": "https://dc.lft.to/lastmile_qr_scan"}}, {"name": "988b785180b16d0f7f6753111a2bc18a", "type": "electric_scooter", "lat": 38.934348666666665, "is_reserved": 0, "lon": -77.04002716666666, "fusion_lon": 0.0, "is_disabled": 0, "fusion_lat": 0.0, "bike_id": "988b785180b16d0f7f6753111a2bc18a", "rental_uris": {"ios": "https://dc.lft.to/lastmile_qr_scan", "android": "https://dc.lft.to/lastmile_qr_scan"}},