{"data": {"bikes": [{"lat": 38.907384, "lon": -77.02799133333333, "is_disabled": 0, "fusion_lon": 0.0, "is_reserved": 0, "name": "f9da3a1f354f7861336ca28761f9fc79", "type": "electric_scooter", "bike_id": "f9da3a1f354f7861336ca28761f9fc79", "rental_uris": {"ios": "https://dc.lft.to/lastmile_qr_scan", "android": "https://dc.lft.to/lastmile_qr_scan"}, "fusion_lat": 0.0}, {"lat": 38.917079333333334, "lon": -77.032465, "is_disabled": 0, "fusion_lon": 0.0, "is_reserved": 0, "name": "002f13f40ad976f475ce36f53198b56c", "type": "electric_scooter", "bike_id": "002f13f40ad976f475ce36f53198b56c", "rental_uris": {"ios": "https://dc.lft.to/lastmile_qr_scan", "android": "https://dc.lft.to/lastmile_qr_scan"}, "fusion_lat": 0.0}, {"lat": 38.9977735, "lon": -77.04714533333333, "is_disabled": 0, "fusion_lon": 0.0, "is_reserved": 0, "name": "6fb11fa7185f76ed3cf56ba5ada41d9f", "type": "electric_bike", "bike_id": "6fb11fa7185f76ed3cf56ba5ada41d9f", "rental_uris": {"ios": "https://dc.lft.to/lastmile_qr_scan", "android": "https://dc.lft.to/lastmile_qr_scan"}, "fusion_lat": 0.0}, {"lat": 38.924384833333335, "lon": -77.04036133333334, "is_disabled": 0, "fusion_lon": 0.0, "is_reserved": 0, "name": "01b55bcfbe30a1676885a5ebba2057aa", "type": "electric_scooter", "bike_id": "01b55bcfbe30a1676885a5ebba2057aa", "rental_uris": {"ios": "https://dc.lft.to/lastmile_qr_scan", "android": "https://dc.lft.to/lastmile_qr_scan"}, "fusion_lat": 0.0}, {"lat": 38.91966383333333, "lon": -77.014918, "is_disabled": 0, "fusion_lon": 0.0, "is_reserved": 0, "name": "512dcdb6f299bf21d06ed50ac64f6fbe", "type": "electric_scooter", "bike_id": "512dcdb6f299bf21d06ed50ac64f6fbe", "rental_uris": {"ios": "https://dc.lft.to/lastmile_qr_scan", "android": "https://dc.lft.to/lastmile_qr_scan"}, "fusion_lat": 0.0}, {"lat": 38.942846833333334, "lon": -77.02934533333334, "is_disabled": 0, "fusion_lon": 0.0, "is_reserved": 0, "name": "2e8c62f4f014ee183060ec1930eaeec2", "type": "electric_scooter", "bike_id": "2e8c62f4f014ee183060ec1930eaeec2", "rental_uris": {"ios": "https://dc.lft.to/lastmile_qr_scan", "android": "https://dc.lft.to/lastmile_qr_scan"}, "fusion_lat": 0.0}, {"lat": 38.89243783333333, "lon": -77.03178816666667, "is_disabled": 0, "fusion_lon": 0.0, "is_reserved": 0, "name": "667d58ef6e0b338c1d8b092931d5ab20", "type": "electric_scooter", "bike_id": "667d58ef6e0b338c1d8b092931d5ab20", "rental_uris": {"ios": "https://dc.lft.to/lastmile_qr_scan", "android": "https://dc.lft.to/lastmile_qr_scan"}, "fusion_lat": 0.0}, {"lat": 38.924033333333334, "lon": -77.0255935, "is_disabled": 0, "fusion_lon": 0.0, "is_reserved": 0, "name": "c12d07e09156f8012930b1e4dc056bd1", "type": "electric_scooter", "bike_id": "c12d07e09156f8012930b1e4dc056bd1", "rental_uris": {"ios": "https://dc.lft.to/lastmile_qr_scan", "android": "https://dc.lft.to/lastmile_qr_scan"}, "fusion_lat": 0.0}, {"lat": 38.92029566666667, "lon": -77.07161083333334, "is_disabled": 0, "fusion_lon": 0.0, "is_reserved": 0, "name": "cb1b146162ba6674bb34dfd644addceb", "type": "electric_scooter", "bike_id": "cb1b146162ba6674bb34dfd644addceb", "rental_uris": {"ios": "https://dc.lft.to/lastmile_qr_scan", "android": "https://dc.lft.to/lastmile_qr_scan"}, "fusion_lat": 0.0}, {"lat": 38.909953333333334, "lon": -77.073561, "is_disabled": 0, "fusion_lon": 0.0, "is_reserved": 0, "name": "82ed261c138054d1ef5ed5277dc86c98", "type": "electric_scooter", "bike_id": "82ed261c138054d1ef5ed5277dc86c98", "rental_uris": {"ios": "https://dc.lft.to/lastmile_qr_scan", "android": "https://dc.lft.to/lastmile_qr_scan"}, "fusion_lat": 0.0}, {"lat": 38.922064, "lon": -77.0820045, "is_disabled": 0, "fusion_lon": 0.0, "is_reserved": 0, "name": "015e2e66b75d9f0ae7cec7fbbf4c101e", "type": "electric_bike", "bike_id": "015e2e66b75d9f0ae7cec7fbbf4c101e", "rental_uris": {"ios": "https://dc.lft.to/lastmile_qr_scan", "android": "https://dc.lft.to/lastmile_qr_scan"}, "fusion_lat": 0.0}, {"lat": 38.92144783333333, "lon": -77.0352755, "is_disabled": 0, "fusion_lon": 0.0, "is_reserved": 0, "name": "7c0852e52e31e8a2948e79f3912b2dd8", "type": "electric_scooter", "bike_id": "7c0852e52e31e8a2948e79f3912b2dd8", "rental_uris": {"ios": "https://dc.lft.to/lastmile_qr_scan", "android": "https://dc.lft.to/lastmile_qr_scan"}, "fusion_lat": 0.0}, {"lat": 38.93973416666667, "lon": -77.03261216666667, "is_disabled": 0, "fusion_lon": 0.0, "is_reserved": 0, "name": "63e550b0fba2c6c52499134d820ffadb", "type": "electric_scooter", "bike_id": "63e550b0fba2c6c52499134d820ffadb", "rental_uris": {"ios": "https://dc.lft.to/lastmile_qr_scan", "android": "https://dc.lft.to/lastmile_qr_scan"}, "fusion_lat": 0.0}, {"lat": 38.90185533333333, "lon": -77.02171616666666, "is_disabled": 0, "fusion_lon": 0.0, "is_reserved": 0, "name": "650e42cdad8b1d7b0cd6dddcfd704049", "type": "electric_scooter", "bike_id": "650e42cdad8b1d7b0cd6dddcfd704049", "rental_uris": {"ios": "https://dc.lft.to/lastmile_qr_scan", "android": "https://dc.lft.to/lastmile_qr_scan"}, "fusion_lat": 0.0}, {"lat": 38.897308, "lon": -77.01763966666667, "is_disabled": 0, "fusion_lon": 0.0, "is_reserved": 0, "name": "cfb9471c049e889133c1ae4dd76cc0fa", "type": "electric_scooter", "bike_id": "cfb9471c049e889133c1ae4dd76cc0fa", "rental_uris": {"ios": "https://dc.lft.to/lastmile_qr_scan", "android": "https://dc.lft.to/lastmile_qr_scan"}, "fusion_lat": 0.0}, {"lat": 38.86001133333333, "lon": -77.05754766666666, "is_disabled": 0, "fusion_lon": 0.0, "is_reserved": 0, "name": "78e7510479655f6de1f6f8b47b080900", "type": "electric_bike", "bike_id": "78e7510479655f6de1f6f8b47b080900", "rental_uris": {"ios": "https://dc.lft.to/lastmile_qr_scan", "android": "https://dc.lft.to/lastmile_qr_scan"}, "fusion_lat": 0.0}, {"lat": 38.8675275, "lon": -76.9453985, "is_disabled": 0, "fusion_lon": 0.0, "is_reserved": 0, "name": "3fea0f551a9f017cbb7e5631228a68f7", "type": "electric_bike", "bike_id": "3fea0f551a9f017cbb7e5631228a68f7", "rental_uris": {"ios": "https://dc.lft.to/lastmile_qr_scan", "android": "https://dc.lft.to/lastmile_qr_scan"}, "fusion_lat": 0.0}, {"lat": 38.90653183333333, "lon": -77.014358, "is_disabled": 0, "fusion_lon": 0.0, "is_reserved": 0, "name": "71a237d97a42c94e09181e5f0860ef82", "type": "electric_scooter", "bike_id": "71a237d97a42c94e09181e5f0860ef82", "rental_uris": {"ios": "https://dc.lft.to/lastmile_qr_scan", "android": "https://dc.lft.to/lastmile_qr_scan"}, "fusion_lat": 0.0}, {"lat": 38.96468866666667, "lon": -77.03567066666666, "is_disabled": 0, "fusion_lon": 0.0, "is_reserved": 0, "name": "287b9b9ed58c9ad057110a5d21ffeb64", "type": "electric_bike", "bike_id": "287b9b9ed58c9ad057110a5d21ffeb64", "rental_uris": {"ios": "https://dc.lft.to/lastmile_qr_scan", "android": "https://dc.lft.to/lastmile_qr_scan"}, "fusion_lat": 0.0}, {"lat": 38.8766595, "lon": -76.99273366666667, "is_disabled": 0, "fusion_lon": 0.0, "is_reserved": 0, "name": "d872f1d115729d0e8585ab5974ae4b51", "type": "electric_scooter", "bike_id": "d872f1d115729d0e8585ab5974ae4b51", "rental_uris": {"ios": "https://dc.lft.to/lastmile_qr_scan", "android": "https://dc.lft.to/lastmile_qr_scan"}, "fusion_lat": 0.0}, {"lat": 38.893882833333336, "lon": -76.92308566666667, "is_disabled": 0, "fusion_lon": 0.0, "is_reserved": 0, "name": "fa99ff61ee736058f780b08df7392f2a", "type": "electric_scooter", "bike_id": "fa99ff61ee736058f780b08df7392f2a", "rental_uris": {"ios": "https://dc.lft.to/lastmile_qr_scan", "android": "https://dc.lft.to/lastmile_qr_scan"}, "fusion_lat": 0.0}, {"lat": 38.904491666666665, "lon": -77.02840583333334, "is_disabled": 0, "fusion_lon": 0.0, "is_reserved": 0, "name": "be6286545bcc7aef986f6d503d9db9c4", "type": "electric_scooter", "bike_id": "be6286545bcc7aef986f6d503d9db9c4", "rental_uris": {"ios": "https://dc.lft.to/lastmile_qr_scan", "android": "https://dc.lft.to/lastmile_qr_scan"}, "fusion_lat": 0.0}, {"lat": 38.900141166666664, "lon": -76.9890685, "is_disabled": 0, "fusion_lon": 0.0, "is_reserved": 0, "name": "4cc27662e8eaf8cd3a12890f7473b80c", "type": "electric_scooter", "bike_id": "4cc27662e8eaf8cd3a12890f7473b80c", "rental_uris": {"ios": "https://dc.lft.to/lastmile_qr_scan", "android": "https://dc.lft.to/lastmile_qr_scan"}, "fusion_lat": 0.0}, {"lat": 38.95363583333334, "lon": -76.98098366666666, "is_disabled": 0, "fusion_lon": 0.0, "is_reserved": 0, "name": "46001b2a24c544667ac9c2776569955a", "type": "electric_bike", "bike_id": "46001b2a24c544667ac9c2776569955a", "rental_uris": {"ios": "https://dc.lft.to/lastmile_qr_scan", "android": "https://dc.lft.to/lastmile_qr_scan"}, "fusion_lat": 0.0}, {"lat": 38.92457566666667, "lon": -77.03961366666667, "is_disabled": 0, "fusion_lon": 0.0, "is_reserved": 0, "name": "bcc89a0d8e0b2e0df88d2d22df9b965c", "type": "electric_scooter", "bike_id": "bcc89a0d8e0b2e0df88d2d22df9b965c", "rental_uris": {"ios": "https://dc.lft.to/lastmile_qr_scan", "android": "https://dc.lft.to/lastmile_qr_scan"}, "fusion_lat": 0.0}, {"lat": 38.943391, "lon": -76.98318866666666, "is_disabled": 0, "fusion_lon": 0.0, "is_reserved": 0, "name": "fe2c57abd9fbb1f5955fd3f981ef1485", "type": "electric_scooter", "bike_id": "fe2c57abd9fbb1f5955fd3f981ef1485", "rental_uris": {"ios": "https://dc.lft.to/lastmile_qr_scan", "android": "https://dc.lft.to/lastmile_qr_scan"}, "fusion_lat": 0.0}, {"lat": 38.933309666666666, "lon": -77.03270666666667, "is_disabled": 0, "fusion_lon": 0.0, "is_reserved": 0, "name": "b92176839b409876ca94f17c0c9d516f", "type": "electric_scooter", "bike_id": "b92176839b409876ca94f17c0c9d516f", "rental_uris": {"ios": "https://dc.lft.to/lastmile_qr_scan", "android": "https://dc.lft.to/lastmile_qr_scan"}, "fusion_lat": 0.0}, {"lat": 38.875481, "lon": -77.0053475, "is_disabled": 0, "fusion_lon": 0.0, "is_reserved": 0, "name": "7d781ebc1704b006e1e20574c42e76b1", "type": "electric_scooter", "bike_id": "7d781ebc1704b006e1e20574c42e76b1", "rental_uris": {"ios": "https://dc.lft.to/lastmile_qr_scan", "android": "https://dc.lft.to/lastmile_qr_scan"}, "fusion_lat": 0.0}, {"lat": 38.919253, "lon": -77.032104, "is_disabled": 0, "fusion_lon": 0.0, "is_reserved": 0, "name": "fb170964b5f300316f4c9f512576b868", "type": "electric_scooter", "bike_id": "fb170964b5f300316f4c9f512576b868", "rental_uris": {"ios": "https://dc.lft.to/lastmile_qr_scan", "android": "https://dc.lft.to/lastmile_qr_scan"}, "fusion_lat": 0.0}, {"lat": 38.9234655, "lon": -77.051825, "is_disabled": 0, "fusion_lon": 0.0, "is_reserved": 0, "name": "4a5a178da45d2d39cd921fee4344e3b5", "type": "electric_scooter", "bike_id": "4a5a178da45d2d39cd921fee4344e3b5", "rental_uris": {"ios": "https://dc.lft.to/lastmile_qr_scan", "android": "https://dc.lft.to/lastmile_qr_scan"}, "fusion_lat": 0.0}, {"lat": 38.9142675, "lon": -77.031863, "is_disabled": 0, "fusion_lon": 0.0, "is_reserved": 0, "name": "a91143dbaf44316354ee93447120426d", "type": "electric_scooter", "bike_id": "a91143dbaf44316354ee93447120426d", "rental_uris": {"ios": "https://dc.lft.to/lastmile_qr_scan", "android": "https://dc.lft.to/lastmile_qr_scan"}, "fusion_lat": 0.0}, {"lat": 38.9661185, "lon": -77.02741766666666, "is_disabled": 0, "fusion_lon": 0.0, "is_reserved": 0, "name": "3f4a54e0fa5b174abcc9fd676d9c8e09", "type": "electric_scooter", "bike_id": "3f4a54e0fa5b174abcc9fd676d9c8e09", "rental_uris": {"ios": "https://dc.lft.to/lastmile_qr_scan", "android": "https://dc.lft.to/lastmile_qr_scan"}, "fusion_lat": 0.0}, {"lat": 38.88521683333333, "lon": -77.01130633333334, "is_disabled": 0, "fusion_lon": 0.0, "is_reserved": 0, "name": "d166e69466f6e05e4efc499cbcd42b20", "type": "electric_scooter", "bike_id": "d166e69466f6e05e4efc499cbcd42b20", "rental_uris": {"ios": "https://dc.lft.to/lastmile_qr_scan", "android": "https://dc.lft.to/lastmile_qr_scan"}, "fusion_lat": 0.0}, {"lat": 38.93583266666667, "lon": -77.03359616666667, "is_disabled": 0, "fusion_lon": 0.0, "is_reserved": 0, "name": "dc51f026a6d7812ced6a6bb3cb203aa2", "type": "electric_scooter", "bike_id": "dc51f026a6d7812ced6a6bb3cb203aa2", "rental_uris": {"ios": "https://dc.lft.to/lastmile_qr_scan", "android": "https://dc.lft.to/lastmile_qr_scan"}, "fusion_lat": 0.0}, {"lat": 38.94401116666667, "lon": -77.0390635, "is_disabled": 0, "fusion_lon": 0.0, "is_reserved": 0, "name": "0767da72f977926d59a9d17c8cbb2021", "type": "electric_scooter", "bike_id": "0767da72f977926d59a9d17c8cbb2021", "rental_uris": {"ios": "https://dc.lft.to/lastmile_qr_scan", "android": "https://dc.lft.to/lastmile_qr_scan"}, "fusion_lat": 0.0}, {"lat": 38.835867, "lon": -77.00110383333333, "is_disabled": 0, "fusion_lon": 0.0, "is_reserved": 0, "name": "6e381c4488c2e22908850bac7c6653dd", "type": "electric_bike", "bike_id": "6e381c4488c2e22908850bac7c6653dd", "rental_uris": {"ios": "https://dc.lft.to/lastmile_qr_scan", "android": "https://dc.lft.to/lastmile_qr_scan"}, "fusion_lat": 0.0}, {"lat": 38.89249066666667, "lon": -77.02787983333333, "is_disabled": 0, "fusion_lon": 0.0, "is_reserved": 0, "name": "a31314fc55bd31ef511567428f7d2f22", "type": "electric_scooter", "bike_id": "a31314fc55bd31ef511567428f7d2f22", "rental_uris": {"ios": "https://dc.lft.to/lastmile_qr_scan", "android": "https://dc.lft.to/lastmile_qr_scan"}, "fusion_lat": 0.0}, {"lat": 38.90968383333333, "lon": -77.039531, "is_disabled": 0, "fusion_lon": 0.0, "is_reserved": 0, "name": "6f53378803e7a7b4a1f728f59af3bcdb", "type": "electric_scooter", "bike_id": "6f53378803e7a7b4a1f728f59af3bcdb", "rental_uris": {"ios": "https://dc.lft.to/lastmile_qr_scan", "android": "https://dc.lft.to/lastmile_qr_scan"}, "fusion_lat": 0.0}, {"lat": 38.961817333333336, "lon": -77.07380266666667, "is_disabled": 0, "fusion_lon": 0.0, "is_reserved": 0, "name": "adc8b47d05d2cd6715b5dbd6e44ae3ed", "type": "electric_bike", "bike_id": "adc8b47d05d2cd6715b5dbd6e44ae3ed", "rental_uris": {"ios": "https://dc.lft.to/lastmile_qr_scan", "android": "https://dc.lft.to/lastmile_qr_scan"}, "fusion_lat": 0.0}, {"lat": 38.90266466666667, "lon": -77.02009666666666, "is_disabled": 0, "fusion_lon": 0.0, "is_reserved": 0, "name": "2e5e0f85eecfa8a53057be2ae7190a15", "type": "electric_scooter", "bike_id": "2e5e0f85eecfa8a53057be2ae7190a15", "rental_uris": {"ios": "https://dc.lft.to/lastmile_qr_scan", "android": "https://dc.lft.to/lastmile_qr_scan"}, "fusion_lat": 0.0}, {"lat": 38.91333216666666, "lon": -77.049629, "is_disabled": 0, "fusion_lon": 0.0, "is_reserved": 0, "name": "0c55447dae4bff65b9087a20eb5cd84c", "type": "electric_scooter", "bike_id": "0c55447dae4bff65b9087a20eb5cd84c", "rental_uris": {"ios": "https://dc.lft.to/lastmile_qr_scan", "android": "https://dc.lft.to/lastmile_qr_scan"}, "fusion_lat": 0.0}, {"lat": 38.9057215, "lon": -77.02210833333334, "is_disabled": 0, "fusion_lon": 0.0, "is_reserved": 0, "name": "8f8b01929da12d1d77f2a9f008a0bdf5", "type": "electric_scooter", "bike_id": "8f8b01929da12d1d77f2a9f008a0bdf5", "rental_uris": {"ios": "https://dc.lft.to/lastmile_qr_scan", "android": "https://dc.lft.to/lastmile_qr_scan"}, "fusion_lat": 0.0}, {"lat": 38.917701, "lon": -77.01496833333333, "is_disabled": 0, "fusion_lon": 0.0, "is_reserved": 0, "name": "497c6f688a09f3cd39a72f6cd95d8d95", "type": "electric_scooter", "bike_id": "497c6f688a09f3cd39a72f6cd95d8d95", "rental_uris": {"ios": "https://dc.lft.to/lastmile_qr_scan", "android": "https://dc.lft.to/lastmile_qr_scan"}, "fusion_lat": 0.0}, {"lat": 38.901467333333336, "lon": -77.019057, "is_disabled": 0, "fusion_lon": 0.0, "is_reserved": 0, "name": "ef17216f65acb362438597c5c19637d6", "type": "electric_scooter", "bike_id": "ef17216f65acb362438597c5c19637d6", "rental_uris": {"ios": "https://dc.lft.to/lastmile_qr_scan", "android": "https://dc.lft.to/lastmile_qr_scan"}, "fusion_lat": 0.0}, {"lat": 38.9504745, "lon": -77.02704333333334, "is_disabled": 0, "fusion_lon": 0.0, "is_reserved": 0, "name": "9b29bf6f1906bb49986080537c20bf8b", "type": "electric_scooter", "bike_id": "9b29bf6f1906bb49986080537c20bf8b", "rental_uris": {"ios": "https://dc.lft.to/lastmile_qr_scan", "android": "https://dc.lft.to/lastmile_qr_scan"}, "fusion_lat": 0.0}, {"lat": 38.914236833333334, "lon": -77.01075783333333, "is_disabled": 0, "fusion_lon": 0.0, "is_reserved": 0, "name": "06b55d0b16e2a07dfce867203f040a18", "type": "electric_scooter", "bike_id": "06b55d0b16e2a07dfce867203f040a18", "rental_uris": {"ios": "https://dc.lft.to/lastmile_qr_scan", "android": "https://dc.lft.to/lastmile_qr_scan"}, "fusion_lat": 0.0}, {"lat": 38.912618333333334, "lon": -77.02806766666667, "is_disabled": 0, "fusion_lon": 0.0, "is_reserved": 0, "name": "e8ca33b09622a60adb1a973a4df64bbf", "type": "electric_scooter", "bike_id": "e8ca33b09622a60adb1a973a4df64bbf", "rental_uris": {"ios": "https://dc.lft.to/lastmile_qr_scan", "android": "https://dc.lft.to/lastmile_qr_scan"}, "fusion_lat": 0.0}, {"lat": 38.910243666666666, "lon": -77.02397283333333, "is_disabled": 0, "fusion_lon": 0.0, "is_reserved": 0, "name": "3c0bac52d2e5684b31ad2abad7a43402", "type": "electric_scooter", "bike_id": "3c0bac52d2e5684b31ad2abad7a43402", "rental_uris": {"ios": "https://dc.lft.to/lastmile_qr_scan", "android": "https://dc.lft.to/lastmile_qr_scan"}, "fusion_lat": 0.0}, {"lat": 38.857688333333336, "lon": -76.97299066666666, "is_disabled": 0, "fusion_lon": 0.0, "is_reserved": 0, "name": "31f18a21b77e39d3199a40cfc3282cc5", "type": "electric_bike", "bike_id": "31f18a21b77e39d3199a40cfc3282cc5", "rental_uris": {"ios": "https://dc.lft.to/lastmile_qr_scan", "android": "https://dc.lft.to/lastmile_qr_scan"}, "fusion_lat": 0.0}, {"lat": 38.919694, "lon": -77.00111916666667, "is_disabled": 0, "fusion_lon": 0.0, "is_reserved": 0, "name": "18d7ee47b08fc3ce3a3e20fd8a5b12aa", "type": "electric_scooter", "bike_id": "18d7ee47b08fc3ce3a3e20fd8a5b12aa", "rental_uris": {"ios": "https://dc.lft.to/lastmile_qr_scan", "android": "https://dc.lft.to/lastmile_qr_scan"}, "fusion_lat": 0.0}, {"lat": 38.92914183333333, "lon": -77.0729835, "is_disabled": 0, "fusion_lon": 0.0, "is_reserved": 0, "name": "767baec8d33dbb501dc769ab1357e375", "type": "electric_scooter", "bike_id": "767baec8d33dbb501dc769ab1357e375", "rental_uris": {"ios": "https://dc.lft.to/lastmile_qr_scan", "android": "https://dc.lft.to/lastmile_qr_scan"}, "fusion_lat": 0.0}, {"lat": 38.910449, "lon": -77.03999683333333, "is_disabled": 0, "fusion_lon": 0.0, "is_reserved": 0, "name": "eadaf3cfdc02c39b2ad769aad11ce939", "type": "electric_scooter", "bike_id": "eadaf3cfdc02c39b2ad769aad11ce939", "rental_uris": {"ios": "https://dc.lft.to/lastmile_qr_scan", "android": "https://dc.lft.to/lastmile_qr_scan"}, "fusion_lat": 0.0}, {"lat": 38.900431833333336, "lon": -77.01278616666667, "is_disabled": 0, "fusion_lon": 0.0, "is_reserved": 0, "name": "bc4ae3ef7982e3651098b446e10af1a3", "type": "electric_scooter", "bike_id": "bc4ae3ef7982e3651098b446e10af1a3", "rental_uris": {"ios": "https://dc.lft.to/lastmile_qr_scan", "android": "https://dc.lft.to/lastmile_qr_scan"}, "fusion_lat": 0.0}, {"lat": 38.904614333333335, "lon": -76.98526516666666, "is_disabled": 0, "fusion_lon": 0.0, "is_reserved": 0, "name": "d5e9850ba9c217fbffc6c8b205753432", "type": "electric_scooter", "bike_id": "d5e9850ba9c217fbffc6c8b205753432", "rental_uris": {"ios": "https://dc.lft.to/lastmile_qr_scan", "android": "https://dc.lft.to/lastmile_qr_scan"}, "fusion_lat": 0.0}, {"lat": 38.8923405, "lon": -77.0487725, "is_disabled": 0, "fusion_lon": 0.0, "is_reserved": 0, "name": "b61abfbefdab8a85444495d8a710bf9e", "type": "electric_scooter", "bike_id": "b61abfbefdab8a85444495d8a710bf9e", "rental_uris": {"ios": "https://dc.lft.to/lastmile_qr_scan", "android": "https://dc.lft.to/lastmile_qr_scan"}, "fusion_lat": 0.0}, {"lat": 38.918007, "lon": -77.02708733333333, "is_disabled": 0, "fusion_lon": 0.0, "is_reserved": 0, "name": "8a845043bb57480a5d840f8c9bdb0fd5", "type": "electric_scooter", "bike_id": "8a845043bb57480a5d840f8c9bdb0fd5", "rental_uris": {"ios": "https://dc.lft.to/lastmile_qr_scan", "android": "https://dc.lft.to/lastmile_qr_scan"}, "fusion_lat": 0.0}, {"lat": 38.961467166666665, "lon": -77.02779116666666, "is_disabled": 0, "fusion_lon": 0.0, "is_reserved": 0, "name": "92fb08ed7d81794ed94b1a2f46a2e2ca", "type": "electric_scooter", "bike_id": "92fb08ed7d81794ed94b1a2f46a2e2ca", "rental_uris": {"ios": "https://dc.lft.to/lastmile_qr_scan", "android": "https://dc.lft.to/lastmile_qr_scan"}, "fusion_lat": 0.0}, {"lat": 38.902574666666666, "lon": -77.006012, "is_disabled": 0, "fusion_lon": 0.0, "is_reserved": 0, "name": "bd40994bd7683912bfdb3adac5ab424a", "type": "electric_scooter", "bike_id": "bd40994bd7683912bfdb3adac5ab424a", "rental_uris": {"ios": "https://dc.lft.to/lastmile_qr_scan", "android": "https://dc.lft.to/lastmile_qr_scan"}, "fusion_lat": 0.0}, {"lat": 38.903834833333335, "lon": -76.97615, "is_disabled": 0, "fusion_lon": 0.0, "is_reserved": 0, "name": "354e9e13038d34ae0a5ed95d621569fb", "type": "electric_scooter", "bike_id": "354e9e13038d34ae0a5ed95d621569fb", "rental_uris": {"ios": "https://dc.lft.to/lastmile_qr_scan", "android": "https://dc.lft.to/lastmile_qr_scan"}, "fusion_lat": 0.0}, {"lat": 38.91893, "lon": -77.0319755, "is_disabled": 0, "fusion_lon": 0.0, "is_reserved": 0, "name": "be7abbe103f05aa27cf5f4a436e44808", "type": "electric_scooter", "bike_id": "be7abbe103f05aa27cf5f4a436e44808", "rental_uris": {"ios": "https://dc.lft.to/lastmile_qr_scan", "android": "https://dc.lft.to/lastmile_qr_scan"}, "fusion_lat": 0.0}, {"lat": 38.94206466666667, "lon": -77.01825916666667, "is_disabled": 0, "fusion_lon": 0.0, "is_reserved": 0, "name": "2ccf16e9fcaa9feddf8abf75ee44a65b", "type": "electric_bike", "bike_id": "2ccf16e9fcaa9feddf8abf75ee44a65b", "rental_uris": {"ios": "https://dc.lft.to/lastmile_qr_scan", "android": "https://dc.lft.to/lastmile_qr_scan"}, "fusion_lat": 0.0}, {"lat": 38.92899166666667, "lon": -77.03251983333334, "is_disabled": 0, "fusion_lon": 0.0, "is_reserved": 0, "name": "440ddbd5cb88540fb7bd0998e44cb02b", "type": "electric_scooter", "bike_id": "440ddbd5cb88540fb7bd0998e44cb02b", "rental_uris": {"ios": "https://dc.lft.to/lastmile_qr_scan", "android": "https://dc.lft.to/lastmile_qr_scan"}, "fusion_lat": 0.0}, {"lat": 38.9214285, "lon": -77.0094245, "is_disabled": 0, "fusion_lon": 0.0, "is_reserved": 0, "name": "150a1efde380b3729ac17c4adbe1aeba", "type": "electric_scooter", "bike_id": "150a1efde380b3729ac17c4adbe1aeba", "rental_uris": {"ios": "https://dc.lft.to/lastmile_qr_scan", "android": "https://dc.lft.to/lastmile_qr_scan"}, "fusion_lat": 0.0}, {"lat": 38.8808085, "lon": -76.98536233333333, "is_disabled": 0, "fusion_lon": 0.0, "is_reserved": 0, "name": "8c582d9a503c8763e8d6420cd60cbfbc", "type": "electric_bike", "bike_id": "8c582d9a503c8763e8d6420cd60cbfbc", "rental_uris": {"ios": "https://dc.lft.to/lastmile_qr_scan", "android": "https://dc.lft.to/lastmile_qr_scan"}, "fusion_lat": 0.0}, {"lat": 38.9116505, "lon": -77.013114, "is_disabled": 0, "fusion_lon": 0.0, "is_reserved": 0, "name": "7ce8bfe5cb0773d6add8f7273742e5ed", "type": "electric_scooter", "bike_id": "7ce8bfe5cb0773d6add8f7273742e5ed", "rental_uris": {"ios": "https://dc.lft.to/lastmile_qr_scan", "android": "https://dc.lft.to/lastmile_qr_scan"}, "fusion_lat": 0.0}, {"lat": 38.9272885, "lon": -77.02059133333333, "is_disabled": 0, "fusion_lon": 0.0, "is_reserved": 0, "name": "de962393743e6dafc452661fa406033c", "type": "electric_scooter", "bike_id": "de962393743e6dafc452661fa406033c", "rental_uris": {"ios": "https://dc.lft.to/lastmile_qr_scan", "android": "https://dc.lft.to/lastmile_qr_scan"}, "fusion_lat": 0.0}, {"lat": 38.930443, "lon": -77.02337433333334, "is_disabled": 0, "fusion_lon": 0.0, "is_reserved": 0, "name": "f44aa07b0ecb9e5691778e3092b8a424", "type": "electric_scooter", "bike_id": "f44aa07b0ecb9e5691778e3092b8a424", "rental_uris": {"ios": "https://dc.lft.to/lastmile_qr_scan", "android": "https://dc.lft.to/lastmile_qr_scan"}, "fusion_lat": 0.0}, {"lat": 38.899863333333336, "lon": -77.02200483333333, "is_disabled": 0, "fusion_lon": 0.0, "is_reserved": 0, "name": "9667d7de42e669e5a417642707d8aeaa", "type": "electric_scooter", "bike_id": "9667d7de42e669e5a417642707d8aeaa", "rental_uris": {"ios": "https://dc.lft.to/lastmile_qr_scan", "android": "https://dc.lft.to/lastmile_qr_scan"}, "fusion_lat": 0.0}, {"lat": 38.9250115, "lon": -77.02125366666667, "is_disabled": 0, "fusion_lon": 0.0, "is_reserved": 0, "name": "607149b5a0ce89e9aaedbfa467cc6691", "type": "electric_bike", "bike_id": "607149b5a0ce89e9aaedbfa467cc6691", "rental_uris": {"ios": "https://dc.lft.to/lastmile_qr_scan", "android": "https://dc.lft.to/lastmile_qr_scan"}, "fusion_lat": 0.0}, {"lat": 38.923017, "lon": -77.042738, "is_disabled": 0, "fusion_lon": 0.0, "is_reserved": 0, "name": "4434e3c4bc8f95555e6a8e7653258e68", "type": "electric_scooter", "bike_id": "4434e3c4bc8f95555e6a8e7653258e68", "rental_uris": {"ios": "https://dc.lft.to/lastmile_qr_scan", "android": "https://dc.lft.to/lastmile_qr_scan"}, "fusion_lat": 0.0}, {"lat": 38.91093083333333, "lon": -77.04484733333334, "is_disabled": 0, "fusion_lon": 0.0, "is_reserved": 0, "name": "bdc71f299b3ccb8924657064e5b9fef5", "type": "electric_scooter", "bike_id": "bdc71f299b3ccb8924657064e5b9fef5", "rental_uris": {"ios": "https://dc.lft.to/lastmile_qr_scan", "android": "https://dc.lft.to/lastmile_qr_scan"}, "fusion_lat": 0.0}, {"lat": 38.901513333333334, "lon": -76.930672, "is_disabled": 0, "fusion_lon": 0.0, "is_reserved": 0, "name": "3eba7cf235f19b8c37713e90dfa28a0e", "type": "electric_scooter", "bike_id": "3eba7cf235f19b8c37713e90dfa28a0e", "rental_uris": {"ios": "https://dc.lft.to/lastmile_qr_scan", "android": "https://dc.lft.to/lastmile_qr_scan"}, "fusion_lat": 0.0}, {"lat": 38.902012166666665, "lon": -77.0237255, "is_disabled": 0, "fusion_lon": 0.0, "is_reserved": 0, "name": "cacfbebdec7997cff2d807d1ed3b51f5", "type": "electric_scooter", "bike_id": "cacfbebdec7997cff2d807d1ed3b51f5", "rental_uris": {"ios": "https://dc.lft.to/lastmile_qr_scan", "android": "https://dc.lft.to/lastmile_qr_scan"}, "fusion_lat": 0.0}, {"lat": 38.91986283333333, "lon": -77.0178765, "is_disabled": 0, "fusion_lon": 0.0, "is_reserved": 0, "name": "8b8c98ad782e691287bb5a769c61833e", "type": "electric_scooter", "bike_id": "8b8c98ad782e691287bb5a769c61833e", "rental_uris": {"ios": "https://dc.lft.to/lastmile_qr_scan", "android": "https://dc.lft.to/lastmile_qr_scan"}, "fusion_lat": 0.0}, {"lat": 38.950591333333335, "lon": -77.08026166666667, "is_disabled": 0, "fusion_lon": 0.0, "is_reserved": 0, "name": "85351a65b810caf9c74942ff6a94c441", "type": "electric_scooter", "bike_id": "85351a65b810caf9c74942ff6a94c441", "rental_uris": {"ios": "https://dc.lft.to/lastmile_qr_scan", "android": "https://dc.lft.to/lastmile_qr_scan"}, "fusion_lat": 0.0}, {"lat": 38.9242975, "lon": -77.0517865, "is_disabled": 0, "fusion_lon": 0.0, "is_reserved": 0, "name": "dbb5ef27eaf31063326f9bc32734355d", "type": "electric_scooter", "bike_id": "dbb5ef27eaf31063326f9bc32734355d", "rental_uris": {"ios": "https://dc.lft.to/lastmile_qr_scan", "android": "https://dc.lft.to/lastmile_qr_scan"}, "fusion_lat": 0.0}, {"lat": 38.875545333333335, "lon": -77.00589466666666, "is_disabled": 0, "fusion_lon": 0.0, "is_reserved": 0, "name": "5bd674d28eae0d44cbc89db6418e0ea8", "type": "electric_scooter", "bike_id": "5bd674d28eae0d44cbc89db6418e0ea8", "rental_uris": {"ios": "https://dc.lft.to/lastmile_qr_scan", "android": "https://dc.lft.to/lastmile_qr_scan"}, "fusion_lat": 0.0}, {"lat": 38.934793166666665, "lon": -77.0362645, "is_disabled": 0, "fusion_lon": 0.0, "is_reserved": 0, "name": "8fe79f13c6e5e29b2a69712cfa276930", "type": "electric_scooter", "bike_id": "8fe79f13c6e5e29b2a69712cfa276930", "rental_uris": {"ios": "https://dc.lft.to/lastmile_qr_scan", "android": "https://dc.lft.to/lastmile_qr_scan"}, "fusion_lat": 0.0}, {"lat": 38.9203515, "lon": -77.02583166666666, "is_disabled": 0, "fusion_lon": 0.0, "is_reserved": 0, "name": "027be9c96b1da3fbbdd299f7790c48e8", "type": "electric_scooter", "bike_id": "027be9c96b1da3fbbdd299f7790c48e8", "rental_uris": {"ios": "https://dc.lft.to/lastmile_qr_scan", "android": "https://dc.lft.to/lastmile_qr_scan"}, "fusion_lat": 0.0}, {"lat": 38.917165, "lon": -77.02402116666667, "is_disabled": 0, "fusion_lon": 0.0, "is_reserved": 0, "name": "44ff18e3af041d8fe483fd1c3e7c0ee0", "type": "electric_scooter", "bike_id": "44ff18e3af041d8fe483fd1c3e7c0ee0", "rental_uris": {"ios": "https://dc.lft.to/lastmile_qr_scan", "android": "https://dc.lft.to/lastmile_qr_scan"}, "fusion_lat": 0.0}, {"lat": 38.901020833333334, "lon": -77.04923216666667, "is_disabled": 0, "fusion_lon": 0.0, "is_reserved": 0, "name": "b55a6784ffa82f9a78761ac1eed86b61", "type": "electric_scooter", "bike_id": "b55a6784ffa82f9a78761ac1eed86b61", "rental_uris": {"ios": "https://dc.lft.to/lastmile_qr_scan", "android": "https://dc.lft.to/lastmile_qr_scan"}, "fusion_lat": 0.0}, {"lat": 38.892458500000004, "lon": -77.04872, "is_disabled": 0, "fusion_lon": 0.0, "is_reserved": 0, "name": "b9564720e65ac31e28b5e83b4820891e", "type": "electric_scooter", "bike_id": "b9564720e65ac31e28b5e83b4820891e", "rental_uris": {"ios": "https://dc.lft.to/lastmile_qr_scan", "android": "https://dc.lft.to/lastmile_qr_scan"}, "fusion_lat": 0.0}, {"lat": 38.897875166666665, "lon": -77.0271735, "is_disabled": 0, "fusion_lon": 0.0, "is_reserved": 0, "name": "fe4fd1a51f30ca8c413cd42606c7ce24", "type": "electric_scooter", "bike_id": "fe4fd1a51f30ca8c413cd42606c7ce24", "rental_uris": {"ios": "https://dc.lft.to/lastmile_qr_scan", "android": "https://dc.lft.to/lastmile_qr_scan"}, "fusion_lat": 0.0}, {"lat": 38.8826355, "lon": -77.00557483333333, "is_disabled": 0, "fusion_lon": 0.0, "is_reserved": 0, "name": "57f5a78a99739247bdeb6ef89d215e1f", "type": "electric_scooter", "bike_id": "57f5a78a99739247bdeb6ef89d215e1f", "rental_uris": {"ios": "https://dc.lft.to/lastmile_qr_scan", "android": "https://dc.lft.to/lastmile_qr_scan"}, "fusion_lat": 0.0}, {"lat": 38.9222835, "lon": -77.01851616666667, "is_disabled": 0, "fusion_lon": 0.0, "is_reserved": 0, "name": "d998ab215c220f1a722bc0a683418f70", "type": "electric_scooter", "bike_id": "d998ab215c220f1a722bc0a683418f70", "rental_uris": {"ios": "https://dc.lft.to/lastmile_qr_scan", "android": "https://dc.lft.to/lastmile_qr_scan"}, "fusion_lat": 0.0}, {"lat": 38.89875383333333, "lon": -77.05006133333333, "is_disabled": 0, "fusion_lon": 0.0, "is_reserved": 0, "name": "310d944508d70c008832c06f2c99dbc1", "type": "electric_scooter", "bike_id": "310d944508d70c008832c06f2c99dbc1", "rental_uris": {"ios": "https://dc.lft.to/lastmile_qr_scan", "android": "https://dc.lft.to/lastmile_qr_scan"}, "fusion_lat": 0.0}, {"lat": 38.872710833333336, "lon": -77.0136135, "is_disabled": 0, "fusion_lon": 0.0, "is_reserved": 0, "name": "0606c4bfebf16ac036457af439160a63", "type": "electric_scooter", "bike_id": "0606c4bfebf16ac036457af439160a63", "rental_uris": {"ios": "https://dc.lft.to/lastmile_qr_scan", "android": "https://dc.lft.to/lastmile_qr_scan"}, "fusion_lat": 0.0}, {"lat": 38.93602533333333, "lon": -77.021176, "is_disabled": 0, "fusion_lon": 0.0, "is_reserved": 0, "name": "f3079a0ac64126cff27d2157db7292bc", "type": "electric_bike", "bike_id": "f3079a0ac64126cff27d2157db7292bc", "rental_uris": {"ios": "https://dc.lft.to/lastmile_qr_scan", "android": "https://dc.lft.to/lastmile_qr_scan"}, "fusion_lat": 0.0}, {"lat": 38.94255183333333, "lon": -77.03629833333333, "is_disabled": 0, "fusion_lon": 0.0, "is_reserved": 0, "name": "40343cd28d7734f13383046bac5efa90", "type": "electric_scooter", "bike_id": "40343cd28d7734f13383046bac5efa90", "rental_uris": {"ios": "https://dc.lft.to/lastmile_qr_scan", "android": "https://dc.lft.to/lastmile_qr_scan"}, "fusion_lat": 0.0}, {"lat": 38.8696585, "lon": -76.97854933333333, "is_disabled": 0, "fusion_lon": 0.0, "is_reserved": 0, "name": "04b4a02b0350d871665222f3688359a8", "type": "electric_scooter", "bike_id": "04b4a02b0350d871665222f3688359a8", "rental_uris": {"ios": "https://dc.lft.to/lastmile_qr_scan", "android": "https://dc.lft.to/lastmile_qr_scan"}, "fusion_lat": 0.0}, {"lat": 38.8738055, "lon": -77.00084216666667, "is_disabled": 0, "fusion_lon": 0.0, "is_reserved": 0, "name": "dc8c8c70e5b2882839d8af81aeefbb78", "type": "electric_scooter", "bike_id": "dc8c8c70e5b2882839d8af81aeefbb78", "rental_uris": {"ios": "https://dc.lft.to/lastmile_qr_scan", "android": "https://dc.lft.to/lastmile_qr_scan"}, "fusion_lat": 0.0}, {"lat": 38.895001, "lon": -77.00357916666667, "is_disabled": 0, "fusion_lon": 0.0, "is_reserved": 0, "name": "a2e98f1848c07f6a67591d8d0b32ff94", "type": "electric_scooter", "bike_id": "a2e98f1848c07f6a67591d8d0b32ff94", "rental_uris": {"ios": "https://dc.lft.to/lastmile_qr_scan", "android": "https://dc.lft.to/lastmile_qr_scan"}, "fusion_lat": 0.0}, {"lat": 38.9073405, "lon": -77.04154983333333, "is_disabled": 0, "fusion_lon": 0.0, "is_reserved": 0, "name": "6f36b31d83a25904e6d685495d8b2f44", "type": "electric_scooter", "bike_id": "6f36b31d83a25904e6d685495d8b2f44", "rental_uris": {"ios": "https://dc.lft.to/lastmile_qr_scan", "android": "https://dc.lft.to/lastmile_qr_scan"}, "fusion_lat": 0.0}, {"lat": 38.88940433333333, "lon": -76.99370416666666, "is_disabled": 0, "fusion_lon": 0.0, "is_reserved": 0, "name": "a052a7ffc934d13aec8d26dc0221fd51", "type": "electric_scooter", "bike_id": "a052a7ffc934d13aec8d26dc0221fd51", "rental_uris": {"ios": "https://dc.lft.to/lastmile_qr_scan", "android": "https://dc.lft.to/lastmile_qr_scan"}, "fusion_lat": 0.0}, {"lat": 38.91803266666667, "lon": -77.02490833333333, "is_disabled": 0, "fusion_lon": 0.0, "is_reserved": 0, "name": "789640918382532c4e65b08119395e93", "type": "electric_scooter", "bike_id": "789640918382532c4e65b08119395e93", "rental_uris": {"ios": "https://dc.lft.to/lastmile_qr_scan", "android": "https://dc.lft.to/lastmile_qr_scan"}, "fusion_lat": 0.0}, {"lat": 38.92361366666667, "lon": -77.076769, "is_disabled": 0, "fusion_lon": 0.0, "is_reserved": 0, "name": "67623e0b3bab0e794f7d68c4125f0a09", "type": "electric_scooter", "bike_id": "67623e0b3bab0e794f7d68c4125f0a09", "rental_uris": {"ios": "https://dc.lft.to/lastmile_qr_scan", "android": "https://dc.lft.to/lastmile_qr_scan"}, "fusion_lat": 0.0}, {"lat": 38.847573833333335, "lon": -76.99500166666667, "is_disabled": 0, "fusion_lon": 0.0, "is_reserved": 0, "name": "43704e927ab7aa223a59a05d3beef03e", "type": "electric_scooter", "bike_id": "43704e927ab7aa223a59a05d3beef03e", "rental_uris": {"ios": "https://dc.lft.to/lastmile_qr_scan", "android": "https://dc.lft.to/lastmile_qr_scan"}, "fusion_lat": 0.0}, {"lat": 38.92374266666667, "lon": -77.0264005, "is_disabled": 0, "fusion_lon": 0.0, "is_reserved": 0, "name": "7443044606aa0a8e7a764d827ff26e17", "type": "electric_scooter", "bike_id": "7443044606aa0a8e7a764d827ff26e17", "rental_uris": {"ios": "https://dc.lft.to/lastmile_qr_scan", "android": "https://dc.lft.to/lastmile_qr_scan"}, "fusion_lat": 0.0}, {"lat": 38.88756216666667, "lon": -76.99607466666667, "is_disabled": 0, "fusion_lon": 0.0, "is_reserved": 0, "name": "70ceb2cc6ac600531cc3f164fa1155c1", "type": "electric_scooter", "bike_id": "70ceb2cc6ac600531cc3f164fa1155c1", "rental_uris": {"ios": "https://dc.lft.to/lastmile_qr_scan", "android": "https://dc.lft.to/lastmile_qr_scan"}, "fusion_lat": 0.0}, {"lat": 38.896995, "lon": -76.96306833333334, "is_disabled": 0, "fusion_lon": 0.0, "is_reserved": 0, "name": "db018182ff5ad90c2bc21653d8393b5f", "type": "electric_bike", "bike_id": "db018182ff5ad90c2bc21653d8393b5f", "rental_uris": {"ios": "https://dc.lft.to/lastmile_qr_scan", "android": "https://dc.lft.to/lastmile_qr_scan"}, "fusion_lat": 0.0}, {"lat": 38.913468, "lon": -77.01739433333333, "is_disabled": 0, "fusion_lon": 0.0, "is_reserved": 0, "name": "e54e05a287cbd3b7b7294d2acc9651d1", "type": "electric_scooter", "bike_id": "e54e05a287cbd3b7b7294d2acc9651d1", "rental_uris": {"ios": "https://dc.lft.to/lastmile_qr_scan", "android": "https://dc.lft.to/lastmile_qr_scan"}, "fusion_lat": 0.0}, {"lat": 38.906485833333335, "lon": -77.01415016666667, "is_disabled": 0, "fusion_lon": 0.0, "is_reserved": 0, "name": "24b11200971b125c6493c24c5ac30694", "type": "electric_scooter", "bike_id": "24b11200971b125c6493c24c5ac30694", "rental_uris": {"ios": "https://dc.lft.to/lastmile_qr_scan", "android": "https://dc.lft.to/lastmile_qr_scan"}, "fusion_lat": 0.0}, {"lat": 38.92387933333333, "lon": -77.03650816666666, "is_disabled": 0, "fusion_lon": 0.0, "is_reserved": 0, "name": "11a0a3839b21b837ad33550ee110aa1e", "type": "electric_scooter", "bike_id": "11a0a3839b21b837ad33550ee110aa1e", "rental_uris": {"ios": "https://dc.lft.to/lastmile_qr_scan", "android": "https://dc.lft.to/lastmile_qr_scan"}, "fusion_lat": 0.0}, {"lat": 38.897267666666664, "lon": -77.04617666666667, "is_disabled": 0, "fusion_lon": 0.0, "is_reserved": 0, "name": "9a0009c6deaa037bae3b1c604bdeb932", "type": "electric_scooter", "bike_id": "9a0009c6deaa037bae3b1c604bdeb932", "rental_uris": {"ios": "https://dc.lft.to/lastmile_qr_scan", "android": "https://dc.lft.to/lastmile_qr_scan"}, "fusion_lat": 0.0}, {"lat": 38.92448016666667, "lon": -76.9898945, "is_disabled": 0, "fusion_lon": 0.0, "is_reserved": 0, "name": "ba8f760cbb97ad9a4de0cc94aa59dbbe", "type": "electric_scooter", "bike_id": "ba8f760cbb97ad9a4de0cc94aa59dbbe", "rental_uris": {"ios": "https://dc.lft.to/lastmile_qr_scan", "android": "https://dc.lft.to/lastmile_qr_scan"}, "fusion_lat": 0.0}, {"lat": 38.93080966666667, "lon": -77.02792083333334, "is_disabled": 0, "fusion_lon": 0.0, "is_reserved": 0, "name": "248992f13520c28f65c4985f9c193935", "type": "electric_scooter", "bike_id": "248992f13520c28f65c4985f9c193935", "rental_uris": {"ios": "https://dc.lft.to/lastmile_qr_scan", "android": "https://dc.lft.to/lastmile_qr_scan"}, "fusion_lat": 0.0}, {"lat": 38.911355, "lon": -77.0417065, "is_disabled": 0, "fusion_lon": 0.0, "is_reserved": 0, "name": "947ae2d29141be657f4913e05f70913c", "type": "electric_scooter", "bike_id": "947ae2d29141be657f4913e05f70913c", "rental_uris": {"ios": "https://dc.lft.to/lastmile_qr_scan", "android": "https://dc.lft.to/lastmile_qr_scan"}, "fusion_lat": 0.0}, {"lat": 38.94182983333334, "lon": -77.0261565, "is_disabled": 0, "fusion_lon": 0.0, "is_reserved": 0, "name": "44acdd0fa2c850b723464d5691a5ec2c", "type": "electric_scooter", "bike_id": "44acdd0fa2c850b723464d5691a5ec2c", "rental_uris": {"ios": "https://dc.lft.to/lastmile_qr_scan", "android": "https://dc.lft.to/lastmile_qr_scan"}, "fusion_lat": 0.0}, {"lat": 38.89854583333333, "lon": -77.01379333333334, "is_disabled": 0, "fusion_lon": 0.0, "is_reserved": 0, "name": "69491a7c2d487218072caf5cd6248b99", "type": "electric_scooter", "bike_id": "69491a7c2d487218072caf5cd6248b99", "rental_uris": {"ios": "https://dc.lft.to/lastmile_qr_scan", "android": "https://dc.lft.to/lastmile_qr_scan"}, "fusion_lat": 0.0}, {"lat": 38.904877666666664, "lon": -76.98881516666667, "is_disabled": 0, "fusion_lon": 0.0, "is_reserved": 0, "name": "52aea3c0cca2a1f33ac74a59ba25c639", "type": "electric_scooter", "bike_id": "52aea3c0cca2a1f33ac74a59ba25c639", "rental_uris": {"ios": "https://dc.lft.to/lastmile_qr_scan", "android": "https://dc.lft.to/lastmile_qr_scan"}, "fusion_lat": 0.0}, {"lat": 38.883479666666666, "lon": -77.03170933333334, "is_disabled": 0, "fusion_lon": 0.0, "is_reserved": 0, "name": "f3f59c31d3085d08f64e885c13bc01ed", "type": "electric_scooter", "bike_id": "f3f59c31d3085d08f64e885c13bc01ed", "rental_uris": {"ios": "https://dc.lft.to/lastmile_qr_scan", "android": "https://dc.lft.to/lastmile_qr_scan"}, "fusion_lat": 0.0}, {"lat": 38.90783316666667, "lon": -77.0451205, "is_disabled": 0, "fusion_lon": 0.0, "is_reserved": 0, "name": "efbd2df7b5c0dd7a3c14cf5a50c89d78", "type": "electric_scooter", "bike_id": "efbd2df7b5c0dd7a3c14cf5a50c89d78", "rental_uris": {"ios": "https://dc.lft.to/lastmile_qr_scan", "android": "https://dc.lft.to/lastmile_qr_scan"}, "fusion_lat": 0.0}, {"lat": 38.9096935, "lon": -77.02416466666666, "is_disabled": 0, "fusion_lon": 0.0, "is_reserved": 0, "name": "f23d89c91a27833383928697dca4b9e5", "type": "electric_scooter", "bike_id": "f23d89c91a27833383928697dca4b9e5", "rental_uris": {"ios": "https://dc.lft.to/lastmile_qr_scan", "android": "https://dc.lft.to/lastmile_qr_scan"}, "fusion_lat": 0.0}, {"lat": 38.9231595, "lon": -77.03976983333334, "is_disabled": 0, "fusion_lon": 0.0, "is_reserved": 0, "name": "fb9ac43f38dd077887ec779a570d00ae", "type": "electric_scooter", "bike_id": "fb9ac43f38dd077887ec779a570d00ae", "rental_uris": {"ios": "https://dc.lft.to/lastmile_qr_scan", "android": "https://dc.lft.to/lastmile_qr_scan"}, "fusion_lat": 0.0}, {"lat": 38.81252033333333, "lon": -77.11778133333334, "is_disabled": 0, "fusion_lon": 0.0, "is_reserved": 0, "name": "c2afd7daa5bd0f992113d65741295293", "type": "electric_bike", "bike_id": "c2afd7daa5bd0f992113d65741295293", "rental_uris": {"ios": "https://dc.lft.to/lastmile_qr_scan", "android": "https://dc.lft.to/lastmile_qr_scan"}, "fusion_lat": 0.0}, {"lat": 38.950437666666666, "lon": -77.0271255, "is_disabled": 0, "fusion_lon": 0.0, "is_reserved": 0, "name": "6f6466935c1098ae5ad80c0d66fb95a9", "type": "electric_scooter", "bike_id": "6f6466935c1098ae5ad80c0d66fb95a9", "rental_uris": {"ios": "https://dc.lft.to/lastmile_qr_scan", "android": "https://dc.lft.to/lastmile_qr_scan"}, "fusion_lat": 0.0}, {"lat": 38.9287925, "lon": -77.03309683333333, "is_disabled": 0, "fusion_lon": 0.0, "is_reserved": 0, "name": "d00016b36e17cbe6eb7e4872bfb336fe", "type": "electric_scooter", "bike_id": "d00016b36e17cbe6eb7e4872bfb336fe", "rental_uris": {"ios": "https://dc.lft.to/lastmile_qr_scan", "android": "https://dc.lft.to/lastmile_qr_scan"}, "fusion_lat": 0.0}, {"lat": 38.900119333333336, "lon": -76.93652316666666, "is_disabled": 0, "fusion_lon": 0.0, "is_reserved": 0, "name": "d6fbf8bb98d80d13d580aa4305b8e865", "type": "electric_scooter", "bike_id": "d6fbf8bb98d80d13d580aa4305b8e865", "rental_uris": {"ios": "https://dc.lft.to/lastmile_qr_scan", "android": "https://dc.lft.to/lastmile_qr_scan"}, "fusion_lat": 0.0}, {"lat": 38.89387033333333, "lon": -76.99367383333333, "is_disabled": 0, "fusion_lon": 0.0, "is_reserved": 0, "name": "8365a5751acd0b68e1c89fb8ac14763b", "type": "electric_bike", "bike_id": "8365a5751acd0b68e1c89fb8ac14763b", "rental_uris": {"ios": "https://dc.lft.to/lastmile_qr_scan", "android": "https://dc.lft.to/lastmile_qr_scan"}, "fusion_lat": 0.0}, {"lat": 38.92852933333333, "lon": -77.03324533333333, "is_disabled": 0, "fusion_lon": 0.0, "is_reserved": 0, "name": "b3b5c818828a13811fd818a50c2923ba", "type": "electric_scooter", "bike_id": "b3b5c818828a13811fd818a50c2923ba", "rental_uris": {"ios": "https://dc.lft.to/lastmile_qr_scan", "android": "https://dc.lft.to/lastmile_qr_scan"}, "fusion_lat": 0.0}, {"lat": 38.932198, "lon": -77.03347066666667, "is_disabled": 0, "fusion_lon": 0.0, "is_reserved": 0, "name": "c9ed803d74f4ab74193dbcba87b6b461", "type": "electric_scooter", "bike_id": "c9ed803d74f4ab74193dbcba87b6b461", "rental_uris": {"ios": "https://dc.lft.to/lastmile_qr_scan", "android": "https://dc.lft.to/lastmile_qr_scan"}, "fusion_lat": 0.0}, {"lat": 38.96144283333334, "lon": -77.0278315, "is_disabled": 0, "fusion_lon": 0.0, "is_reserved": 0, "name": "9f060ba3821ffba50c7d082902011712", "type": "electric_scooter", "bike_id": "9f060ba3821ffba50c7d082902011712", "rental_uris": {"ios": "https://dc.lft.to/lastmile_qr_scan", "android": "https://dc.lft.to/lastmile_qr_scan"}, "fusion_lat": 0.0}, {"lat": 38.873793166666665, "lon": -77.00120533333333, "is_disabled": 0, "fusion_lon": 0.0, "is_reserved": 0, "name": "bfc70675aed26ac66f95adc8901b3310", "type": "electric_scooter", "bike_id": "bfc70675aed26ac66f95adc8901b3310", "rental_uris": {"ios": "https://dc.lft.to/lastmile_qr_scan", "android": "https://dc.lft.to/lastmile_qr_scan"}, "fusion_lat": 0.0}, {"lat": 38.90091, "lon": -77.03341316666666, "is_disabled": 0, "fusion_lon": 0.0, "is_reserved": 0, "name": "53a072844e3f9f494384a878e9f754dc", "type": "electric_scooter", "bike_id": "53a072844e3f9f494384a878e9f754dc", "rental_uris": {"ios": "https://dc.lft.to/lastmile_qr_scan", "android": "https://dc.lft.to/lastmile_qr_scan"}, "fusion_lat": 0.0}, {"lat": 38.90767733333333, "lon": -77.03715966666667, "is_disabled": 0, "fusion_lon": 0.0, "is_reserved": 0, "name": "69ea21798d0a4ff64478d0b442b6d7f5", "type": "electric_scooter", "bike_id": "69ea21798d0a4ff64478d0b442b6d7f5", "rental_uris": {"ios": "https://dc.lft.to/lastmile_qr_scan", "android": "https://dc.lft.to/lastmile_qr_scan"}, "fusion_lat": 0.0}, {"lat": 38.922309166666665, "lon": -77.01814583333334, "is_disabled": 0, "fusion_lon": 0.0, "is_reserved": 0, "name": "57fcb123604a0904db354c3752f7c001", "type": "electric_scooter", "bike_id": "57fcb123604a0904db354c3752f7c001", "rental_uris": {"ios": "https://dc.lft.to/lastmile_qr_scan", "android": "https://dc.lft.to/lastmile_qr_scan"}, "fusion_lat": 0.0}, {"lat": 38.90928533333334, "lon": -76.98555333333333, "is_disabled": 0, "fusion_lon": 0.0, "is_reserved": 0, "name": "5513d5d6b67064d9cb9bf8d370f08ffa", "type": "electric_scooter", "bike_id": "5513d5d6b67064d9cb9bf8d370f08ffa", "rental_uris": {"ios": "https://dc.lft.to/lastmile_qr_scan", "android": "https://dc.lft.to/lastmile_qr_scan"}, "fusion_lat": 0.0}, {"lat": 38.836314, "lon": -77.06957733333333, "is_disabled": 0, "fusion_lon": 0.0, "is_reserved": 0, "name": "aff906c802b424406059d272c853b33c", "type": "electric_bike", "bike_id": "aff906c802b424406059d272c853b33c", "rental_uris": {"ios": "https://dc.lft.to/lastmile_qr_scan", "android": "https://dc.lft.to/lastmile_qr_scan"}, "fusion_lat": 0.0}, {"lat": 38.90828283333333, "lon": -76.93446216666666, "is_disabled": 0, "fusion_lon": 0.0, "is_reserved": 0, "name": "4a940be8548022bebd49163a17ade914", "type": "electric_scooter", "bike_id": "4a940be8548022bebd49163a17ade914", "rental_uris": {"ios": "https://dc.lft.to/lastmile_qr_scan", "android": "https://dc.lft.to/lastmile_qr_scan"}, "fusion_lat": 0.0}, {"lat": 38.90719566666667, "lon": -77.01664283333334, "is_disabled": 0, "fusion_lon": 0.0, "is_reserved": 0, "name": "9279c1e0d313a4300122b4e184928f8e", "type": "electric_scooter", "bike_id": "9279c1e0d313a4300122b4e184928f8e", "rental_uris": {"ios": "https://dc.lft.to/lastmile_qr_scan", "android": "https://dc.lft.to/lastmile_qr_scan"}, "fusion_lat": 0.0}, {"lat": 38.906607, "lon": -77.00966333333334, "is_disabled": 0, "fusion_lon": 0.0, "is_reserved": 0, "name": "0c0ee31182229e98714e8f242ff8f1cf", "type": "electric_scooter", "bike_id": "0c0ee31182229e98714e8f242ff8f1cf", "rental_uris": {"ios": "https://dc.lft.to/lastmile_qr_scan", "android": "https://dc.lft.to/lastmile_qr_scan"}, "fusion_lat": 0.0}, {"lat": 38.92146066666667, "lon": -77.04356483333333, "is_disabled": 0, "fusion_lon": 0.0, "is_reserved": 0, "name": "974117e09fb58779ef5d828fe2fbc615", "type": "electric_scooter", "bike_id": "974117e09fb58779ef5d828fe2fbc615", "rental_uris": {"ios": "https://dc.lft.to/lastmile_qr_scan", "android": "https://dc.lft.to/lastmile_qr_scan"}, "fusion_lat": 0.0}, {"lat": 38.90031283333333, "lon": -77.03728366666667, "is_disabled": 0, "fusion_lon": 0.0, "is_reserved": 0, "name": "10e6416ca55f615aa17837fc4cfebb94", "type": "electric_scooter", "bike_id": "10e6416ca55f615aa17837fc4cfebb94", "rental_uris": {"ios": "https://dc.lft.to/lastmile_qr_scan", "android": "https://dc.lft.to/lastmile_qr_scan"}, "fusion_lat": 0.0}, {"lat": 38.93724066666667, "lon": -77.03260583333333, "is_disabled": 0, "fusion_lon": 0.0, "is_reserved": 0, "name": "940750095be9016c0b369f0bf4fb3c8a", "type": "electric_scooter", "bike_id": "940750095be9016c0b369f0bf4fb3c8a", "rental_uris": {"ios": "https://dc.lft.to/lastmile_qr_scan", "android": "https://dc.lft.to/lastmile_qr_scan"}, "fusion_lat": 0.0}, {"lat": 38.887455, "lon": -77.02566916666666, "is_disabled": 0, "fusion_lon": 0.0, "is_reserved": 0, "name": "a79872e845ee761b39d3b70889de9ec7", "type": "electric_scooter", "bike_id": "a79872e845ee761b39d3b70889de9ec7", "rental_uris": {"ios": "https://dc.lft.to/lastmile_qr_scan", "android": "https://dc.lft.to/lastmile_qr_scan"}, "fusion_lat": 0.0}, {"lat": 38.961568166666666, "lon": -77.02776933333334, "is_disabled": 0, "fusion_lon": 0.0, "is_reserved": 0, "name": "238a5d331ea4903c05f83a0380fd2f0b", "type": "electric_scooter", "bike_id": "238a5d331ea4903c05f83a0380fd2f0b", "rental_uris": {"ios": "https://dc.lft.to/lastmile_qr_scan", "android": "https://dc.lft.to/lastmile_qr_scan"}, "fusion_lat": 0.0}, {"lat": 38.949762666666665, "lon": -77.02447433333333, "is_disabled": 0, "fusion_lon": 0.0, "is_reserved": 0, "name": "2128b55719ce9da284cead47113bb0cc", "type": "electric_scooter", "bike_id": "2128b55719ce9da284cead47113bb0cc", "rental_uris": {"ios": "https://dc.lft.to/lastmile_qr_scan", "android": "https://dc.lft.to/lastmile_qr_scan"}, "fusion_lat": 0.0}, {"lat": 38.91279383333333, "lon": -77.0450995, "is_disabled": 0, "fusion_lon": 0.0, "is_reserved": 0, "name": "e5c4e67d7c9dc6eeb4b183255513ed6e", "type": "electric_scooter", "bike_id": "e5c4e67d7c9dc6eeb4b183255513ed6e", "rental_uris": {"ios": "https://dc.lft.to/lastmile_qr_scan", "android": "https://dc.lft.to/lastmile_qr_scan"}, "fusion_lat": 0.0}, {"lat": 38.928799833333336, "lon": -77.04126683333334, "is_disabled": 0, "fusion_lon": 0.0, "is_reserved": 0, "name": "6143738e76cf42f0404827cd9f6411a6", "type": "electric_scooter", "bike_id": "6143738e76cf42f0404827cd9f6411a6", "rental_uris": {"ios": "https://dc.lft.to/lastmile_qr_scan", "android": "https://dc.lft.to/lastmile_qr_scan"}, "fusion_lat": 0.0}, {"lat": 38.890719, "lon": -76.98834466666666, "is_disabled": 0, "fusion_lon": 0.0, "is_reserved": 0, "name": "d82c4eeca901d32cad42ff625070f72c", "type": "electric_scooter", "bike_id": "d82c4eeca901d32cad42ff625070f72c", "rental_uris": {"ios": "https://dc.lft.to/lastmile_qr_scan", "android": "https://dc.lft.to/lastmile_qr_scan"}, "fusion_lat": 0.0}, {"lat": 38.899337, "lon": -77.012744, "is_disabled": 0, "fusion_lon": 0.0, "is_reserved": 0, "name": "2da63bb482c83bc81a74e11f11e3cbd0", "type": "electric_scooter", "bike_id": "2da63bb482c83bc81a74e11f11e3cbd0", "rental_uris": {"ios": "https://dc.lft.to/lastmile_qr_scan", "android": "https://dc.lft.to/lastmile_qr_scan"}, "fusion_lat": 0.0}, {"lat": 38.9186075, "lon": -76.96087283333334, "is_disabled": 0, "fusion_lon": 0.0, "is_reserved": 0, "name": "3c9e9c784730fa76e5d0c945e5ad6990", "type": "electric_bike", "bike_id": "3c9e9c784730fa76e5d0c945e5ad6990", "rental_uris": {"ios": "https://dc.lft.to/lastmile_qr_scan", "android": "https://dc.lft.to/lastmile_qr_scan"}, "fusion_lat": 0.0}, {"lat": 38.91581333333333, "lon": -77.031828, "is_disabled": 0, "fusion_lon": 0.0, "is_reserved": 0, "name": "81ed00d133fe00b2218de6aded6b5d43", "type": "electric_scooter", "bike_id": "81ed00d133fe00b2218de6aded6b5d43", "rental_uris": {"ios": "https://dc.lft.to/lastmile_qr_scan", "android": "https://dc.lft.to/lastmile_qr_scan"}, "fusion_lat": 0.0}, {"lat": 38.87653316666667, "lon": -77.01485383333333, "is_disabled": 0, "fusion_lon": 0.0, "is_reserved": 0, "name": "339a6e660ad108862d4a90dabe2ac0bd", "type": "electric_scooter", "bike_id": "339a6e660ad108862d4a90dabe2ac0bd", "rental_uris": {"ios": "https://dc.lft.to/lastmile_qr_scan", "android": "https://dc.lft.to/lastmile_qr_scan"}, "fusion_lat": 0.0}, {"lat": 38.923198666666664, "lon": -77.02900816666667, "is_disabled": 0, "fusion_lon": 0.0, "is_reserved": 0, "name": "669bca70220e7d2e1fe795b3fc145ee4", "type": "electric_scooter", "bike_id": "669bca70220e7d2e1fe795b3fc145ee4", "rental_uris": {"ios": "https://dc.lft.to/lastmile_qr_scan", "android": "https://dc.lft.to/lastmile_qr_scan"}, "fusion_lat": 0.0}, {"lat": 38.8774155, "lon": -76.97037933333333, "is_disabled": 0, "fusion_lon": 0.0, "is_reserved": 0, "name": "48f202d08f98540f4671a2de0a8582de", "type": "electric_scooter", "bike_id": "48f202d08f98540f4671a2de0a8582de", "rental_uris": {"ios": "https://dc.lft.to/lastmile_qr_scan", "android": "https://dc.lft.to/lastmile_qr_scan"}, "fusion_lat": 0.0}, {"lat": 38.932362833333336, "lon": -76.97426966666667, "is_disabled": 0, "fusion_lon": 0.0, "is_reserved": 0, "name": "7fbdefebd00193e7cc90e288d4db620a", "type": "electric_bike", "bike_id": "7fbdefebd00193e7cc90e288d4db620a", "rental_uris": {"ios": "https://dc.lft.to/lastmile_qr_scan", "android": "https://dc.lft.to/lastmile_qr_scan"}, "fusion_lat": 0.0}, {"lat": 38.9275165, "lon": -77.03358933333334, "is_disabled": 0, "fusion_lon": 0.0, "is_reserved": 0, "name": "8355e2a393dbc380b57879de510fc587", "type": "electric_scooter", "bike_id": "8355e2a393dbc380b57879de510fc587", "rental_uris": {"ios": "https://dc.lft.to/lastmile_qr_scan", "android": "https://dc.lft.to/lastmile_qr_scan"}, "fusion_lat": 0.0}, {"lat": 38.923654166666665, "lon": -77.02919016666667, "is_disabled": 0, "fusion_lon": 0.0, "is_reserved": 0, "name": "d30e119b9681eaa76ba4a0a7109d1c24", "type": "electric_scooter", "bike_id": "d30e119b9681eaa76ba4a0a7109d1c24", "rental_uris": {"ios": "https://dc.lft.to/lastmile_qr_scan", "android": "https://dc.lft.to/lastmile_qr_scan"}, "fusion_lat": 0.0}, {"lat": 38.927031, "lon": -76.99760583333334, "is_disabled": 0, "fusion_lon": 0.0, "is_reserved": 0, "name": "17a5fbccdb2ca3a49a34d8f54ed16993", "type": "electric_scooter", "bike_id": "17a5fbccdb2ca3a49a34d8f54ed16993", "rental_uris": {"ios": "https://dc.lft.to/lastmile_qr_scan", "android": "https://dc.lft.to/lastmile_qr_scan"}, "fusion_lat": 0.0}, {"lat": 38.91048766666667, "lon": -77.042668, "is_disabled": 0, "fusion_lon": 0.0, "is_reserved": 0, "name": "866401bf6c2eac920a469ae0495ee54a", "type": "electric_scooter", "bike_id": "866401bf6c2eac920a469ae0495ee54a", "rental_uris": {"ios": "https://dc.lft.to/lastmile_qr_scan", "android": "https://dc.lft.to/lastmile_qr_scan"}, "fusion_lat": 0.0}, {"lat": 38.8923615, "lon": -77.04874183333334, "is_disabled": 0, "fusion_lon": 0.0, "is_reserved": 0, "name": "ea56c09a1376a7405f2e442aa952c0d0", "type": "electric_scooter", "bike_id": "ea56c09a1376a7405f2e442aa952c0d0", "rental_uris": {"ios": "https://dc.lft.to/lastmile_qr_scan", "android": "https://dc.lft.to/lastmile_qr_scan"}, "fusion_lat": 0.0}, {"lat": 38.90700666666667, "lon": -77.03594533333333, "is_disabled": 0, "fusion_lon": 0.0, "is_reserved": 0, "name": "bf0594c6e128692965f57afb122abd77", "type": "electric_scooter", "bike_id": "bf0594c6e128692965f57afb122abd77", "rental_uris": {"ios": "https://dc.lft.to/lastmile_qr_scan", "android": "https://dc.lft.to/lastmile_qr_scan"}, "fusion_lat": 0.0}, {"lat": 38.93578, "lon": -77.03653666666666, "is_disabled": 0, "fusion_lon": 0.0, "is_reserved": 0, "name": "dca809ad4d830e74e5a51d7fcde67f29", "type": "electric_bike", "bike_id": "dca809ad4d830e74e5a51d7fcde67f29", "rental_uris": {"ios": "https://dc.lft.to/lastmile_qr_scan", "android": "https://dc.lft.to/lastmile_qr_scan"}, "fusion_lat": 0.0}, {"lat": 38.914232166666665, "lon": -77.02173466666666, "is_disabled": 0, "fusion_lon": 0.0, "is_reserved": 0, "name": "cfc5e243995c5e93ffb7aaaba0d506e1", "type": "electric_scooter", "bike_id": "cfc5e243995c5e93ffb7aaaba0d506e1", "rental_uris": {"ios": "https://dc.lft.to/lastmile_qr_scan", "android": "https://dc.lft.to/lastmile_qr_scan"}, "fusion_lat": 0.0}, {"lat": 38.92605916666667, "lon": -77.0642145, "is_disabled": 0, "fusion_lon": 0.0, "is_reserved": 0, "name": "3e58c509def5b0d15a138ce3e63d111a", "type": "electric_bike", "bike_id": "3e58c509def5b0d15a138ce3e63d111a", "rental_uris": {"ios": "https://dc.lft.to/lastmile_qr_scan", "android": "https://dc.lft.to/lastmile_qr_scan"}, "fusion_lat": 0.0}, {"lat": 38.9465275, "lon": -77.0296585, "is_disabled": 0, "fusion_lon": 0.0, "is_reserved": 0, "name": "be10a9ba353696f3644d2c91b72a294f", "type": "electric_scooter", "bike_id": "be10a9ba353696f3644d2c91b72a294f", "rental_uris": {"ios": "https://dc.lft.to/lastmile_qr_scan", "android": "https://dc.lft.to/lastmile_qr_scan"}, "fusion_lat": 0.0}, {"lat": 38.9314115, "lon": -77.0426805, "is_disabled": 0, "fusion_lon": 0.0, "is_reserved": 0, "name": "3e7a6bcf38247ddb6c0959864aeb41be", "type": "electric_scooter", "bike_id": "3e7a6bcf38247ddb6c0959864aeb41be", "rental_uris": {"ios": "https://dc.lft.to/lastmile_qr_scan", "android": "https://dc.lft.to/lastmile_qr_scan"}, "fusion_lat": 0.0}, {"lat": 38.91272, "lon": -77.0470975, "is_disabled": 0, "fusion_lon": 0.0, "is_reserved": 0, "name": "bb114fbd86c857fc0f3b47134d8e8c68", "type": "electric_scooter", "bike_id": "bb114fbd86c857fc0f3b47134d8e8c68", "rental_uris": {"ios": "https://dc.lft.to/lastmile_qr_scan", "android": "https://dc.lft.to/lastmile_qr_scan"}, "fusion_lat": 0.0}, {"lat": 38.91239483333333, "lon": -77.03840516666666, "is_disabled": 0, "fusion_lon": 0.0, "is_reserved": 0, "name": "a207d90e880e8cd174aae88741ddfd1d", "type": "electric_scooter", "bike_id": "a207d90e880e8cd174aae88741ddfd1d", "rental_uris": {"ios": "https://dc.lft.to/lastmile_qr_scan", "android": "https://dc.lft.to/lastmile_qr_scan"}, "fusion_lat": 0.0}, {"lat": 38.904728, "lon": -77.018931, "is_disabled": 0, "fusion_lon": 0.0, "is_reserved": 0, "name": "aa98998a97221b8b2a8072523571ad6f", "type": "electric_scooter", "bike_id": "aa98998a97221b8b2a8072523571ad6f", "rental_uris": {"ios": "https://dc.lft.to/lastmile_qr_scan", "android": "https://dc.lft.to/lastmile_qr_scan"}, "fusion_lat": 0.0}, {"lat": 38.906777, "lon": -77.03635283333334, "is_disabled": 0, "fusion_lon": 0.0, "is_reserved": 0, "name": "f31c0118ffae9a10e17dfb234b33333a", "type": "electric_scooter", "bike_id": "f31c0118ffae9a10e17dfb234b33333a", "rental_uris": {"ios": "https://dc.lft.to/lastmile_qr_scan", "android": "https://dc.lft.to/lastmile_qr_scan"}, "fusion_lat": 0.0}, {"lat": 38.88383016666667, "lon": -77.019901, "is_disabled": 0, "fusion_lon": 0.0, "is_reserved": 0, "name": "b71582aab047ce291f1a577756055688", "type": "electric_scooter", "bike_id": "b71582aab047ce291f1a577756055688", "rental_uris": {"ios": "https://dc.lft.to/lastmile_qr_scan", "android": "https://dc.lft.to/lastmile_qr_scan"}, "fusion_lat": 0.0}, {"lat": 38.91704516666667, "lon": -77.04024133333333, "is_disabled": 0, "fusion_lon": 0.0, "is_reserved": 0, "name": "079ebbee7e7aebc326a0ccc88136c6c9", "type": "electric_scooter", "bike_id": "079ebbee7e7aebc326a0ccc88136c6c9", "rental_uris": {"ios": "https://dc.lft.to/lastmile_qr_scan", "android": "https://dc.lft.to/lastmile_qr_scan"}, "fusion_lat": 0.0}, {"lat": 38.90781366666667, "lon": -77.04510516666667, "is_disabled": 0, "fusion_lon": 0.0, "is_reserved": 0, "name": "7cec4e18568fc7f9bd638cd1aa83da96", "type": "electric_scooter", "bike_id": "7cec4e18568fc7f9bd638cd1aa83da96", "rental_uris": {"ios": "https://dc.lft.to/lastmile_qr_scan", "android": "https://dc.lft.to/lastmile_qr_scan"}, "fusion_lat": 0.0}, {"lat": 38.8779355, "lon": -76.99937966666667, "is_disabled": 0, "fusion_lon": 0.0, "is_reserved": 0, "name": "89fe6a6fecb45fea6c63b72522a4cacc", "type": "electric_scooter", "bike_id": "89fe6a6fecb45fea6c63b72522a4cacc", "rental_uris": {"ios": "https://dc.lft.to/lastmile_qr_scan", "android": "https://dc.lft.to/lastmile_qr_scan"}, "fusion_lat": 0.0}, {"lat": 38.919282, "lon": -77.0342355, "is_disabled": 0, "fusion_lon": 0.0, "is_reserved": 0, "name": "0ab72404f67aaa711eeebf81a19698db", "type": "electric_scooter", "bike_id": "0ab72404f67aaa711eeebf81a19698db", "rental_uris": {"ios": "https://dc.lft.to/lastmile_qr_scan", "android": "https://dc.lft.to/lastmile_qr_scan"}, "fusion_lat": 0.0}, {"lat": 38.901871, "lon": -77.050614, "is_disabled": 0, "fusion_lon": 0.0, "is_reserved": 0, "name": "714b769a6969a3926964dfb42c946dfe", "type": "electric_scooter", "bike_id": "714b769a6969a3926964dfb42c946dfe", "rental_uris": {"ios": "https://dc.lft.to/lastmile_qr_scan", "android": "https://dc.lft.to/lastmile_qr_scan"}, "fusion_lat": 0.0}, {"lat": 38.92342566666667, "lon": -77.05169566666666, "is_disabled": 0, "fusion_lon": 0.0, "is_reserved": 0, "name": "bd3745bafcdf42a5139095827e64b2a8", "type": "electric_scooter", "bike_id": "bd3745bafcdf42a5139095827e64b2a8", "rental_uris": {"ios": "https://dc.lft.to/lastmile_qr_scan", "android": "https://dc.lft.to/lastmile_qr_scan"}, "fusion_lat": 0.0}, {"lat": 38.930809833333335, "lon": -77.027959, "is_disabled": 0, "fusion_lon": 0.0, "is_reserved": 0, "name": "684725378bcf3c281e3cae834107c48f", "type": "electric_scooter", "bike_id": "684725378bcf3c281e3cae834107c48f", "rental_uris": {"ios": "https://dc.lft.to/lastmile_qr_scan", "android": "https://dc.lft.to/lastmile_qr_scan"}, "fusion_lat": 0.0}, {"lat": 38.837562, "lon": -77.09301483333333, "is_disabled": 0, "fusion_lon": 0.0, "is_reserved": 0, "name": "d8da774077ea7b30559872a41642c51e", "type": "electric_bike", "bike_id": "d8da774077ea7b30559872a41642c51e", "rental_uris": {"ios": "https://dc.lft.to/lastmile_qr_scan", "android": "https://dc.lft.to/lastmile_qr_scan"}, "fusion_lat": 0.0}, {"lat": 38.92050116666667, "lon": -77.02572883333333, "is_disabled": 0, "fusion_lon": 0.0, "is_reserved": 0, "name": "231063bd8fe679cf9cfa0e977e4208c8", "type": "electric_scooter", "bike_id": "231063bd8fe679cf9cfa0e977e4208c8", "rental_uris": {"ios": "https://dc.lft.to/lastmile_qr_scan", "android": "https://dc.lft.to/lastmile_qr_scan"}, "fusion_lat": 0.0}, {"lat": 38.978848666666664, "lon": -77.06033383333333, "is_disabled": 0, "fusion_lon": 0.0, "is_reserved": 0, "name": "eb326cbef81273a5f49a22234ba23ca5", "type": "electric_bike", "bike_id": "eb326cbef81273a5f49a22234ba23ca5", "rental_uris": {"ios": "https://dc.lft.to/lastmile_qr_scan", "android": "https://dc.lft.to/lastmile_qr_scan"}, "fusion_lat": 0.0}, {"lat": 38.91689983333333, "lon": -77.02869833333334, "is_disabled": 0, "fusion_lon": 0.0, "is_reserved": 0, "name": "98e46eea0879a1406d6b0a2bba591324", "type": "electric_scooter", "bike_id": "98e46eea0879a1406d6b0a2bba591324", "rental_uris": {"ios": "https://dc.lft.to/lastmile_qr_scan", "android": "https://dc.lft.to/lastmile_qr_scan"}, "fusion_lat": 0.0}, {"lat": 38.91346166666666, "lon": -77.039845, "is_disabled": 0, "fusion_lon": 0.0, "is_reserved": 0, "name": "3005421ec62c17a4c061daa707c849f9", "type": "electric_scooter", "bike_id": "3005421ec62c17a4c061daa707c849f9", "rental_uris": {"ios": "https://dc.lft.to/lastmile_qr_scan", "android": "https://dc.lft.to/lastmile_qr_scan"}, "fusion_lat": 0.0}, {"lat": 38.923915666666666, "lon": -77.02657583333334, "is_disabled": 0, "fusion_lon": 0.0, "is_reserved": 0, "name": "b57b77ffcc87f4e9398b5218eb117a7f", "type": "electric_scooter", "bike_id": "b57b77ffcc87f4e9398b5218eb117a7f", "rental_uris": {"ios": "https://dc.lft.to/lastmile_qr_scan", "android": "https://dc.lft.to/lastmile_qr_scan"}, "fusion_lat": 0.0}, {"lat": 38.925967166666666, "lon": -77.03230933333333, "is_disabled": 0, "fusion_lon": 0.0, "is_reserved": 0, "name": "d307c8543ae18ff4d4ad1b31fcf4c5c1", "type": "electric_scooter", "bike_id": "d307c8543ae18ff4d4ad1b31fcf4c5c1", "rental_uris": {"ios": "https://dc.lft.to/lastmile_qr_scan", "android": "https://dc.lft.to/lastmile_qr_scan"}, "fusion_lat": 0.0}, {"lat": 38.924835, "lon": -77.0265675, "is_disabled": 0, "fusion_lon": 0.0, "is_reserved": 0, "name": "3d7a88bda9891e61e724d53094794003", "type": "electric_scooter", "bike_id": "3d7a88bda9891e61e724d53094794003", "rental_uris": {"ios": "https://dc.lft.to/lastmile_qr_scan", "android": "https://dc.lft.to/lastmile_qr_scan"}, "fusion_lat": 0.0}, {"lat": 38.924896333333336, "lon": -77.02847016666666, "is_disabled": 0, "fusion_lon": 0.0, "is_reserved": 0, "name": "ed57a7585d2b6a1c47a4285102e8d1e2", "type": "electric_scooter", "bike_id": "ed57a7585d2b6a1c47a4285102e8d1e2", "rental_uris": {"ios": "https://dc.lft.to/lastmile_qr_scan", "android": "https://dc.lft.to/lastmile_qr_scan"}, "fusion_lat": 0.0}, {"lat": 38.9026265, "lon": -77.01769783333333, "is_disabled": 0, "fusion_lon": 0.0, "is_reserved": 0, "name": "5f3370033341a10cf329a2460152b2e0", "type": "electric_scooter", "bike_id": "5f3370033341a10cf329a2460152b2e0", "rental_uris": {"ios": "https://dc.lft.to/lastmile_qr_scan", "android": "https://dc.lft.to/lastmile_qr_scan"}, "fusion_lat": 0.0}, {"lat": 38.911210833333335, "lon": -77.04466966666666, "is_disabled": 0, "fusion_lon": 0.0, "is_reserved": 0, "name": "49d3c78ccccc16d60bdeaf4c2e4df967", "type": "electric_scooter", "bike_id": "49d3c78ccccc16d60bdeaf4c2e4df967", "rental_uris": {"ios": "https://dc.lft.to/lastmile_qr_scan", "android": "https://dc.lft.to/lastmile_qr_scan"}, "fusion_lat": 0.0}, {"lat": 38.912237, "lon": -77.0319095, "is_disabled": 0, "fusion_lon": 0.0, "is_reserved": 0, "name": "9d315d5f10bc526741a524e11da15589", "type": "electric_scooter", "bike_id": "9d315d5f10bc526741a524e11da15589", "rental_uris": {"ios": "https://dc.lft.to/lastmile_qr_scan", "android": "https://dc.lft.to/lastmile_qr_scan"}, "fusion_lat": 0.0}, {"lat": 38.916424, "lon": -77.03195216666667, "is_disabled": 0, "fusion_lon": 0.0, "is_reserved": 0, "name": "b123ca945b261b7d7682b7304f8662fb", "type": "electric_scooter", "bike_id": "b123ca945b261b7d7682b7304f8662fb", "rental_uris": {"ios": "https://dc.lft.to/lastmile_qr_scan", "android": "https://dc.lft.to/lastmile_qr_scan"}, "fusion_lat": 0.0}, {"lat": 38.914115833333334, "lon": -77.03950316666666, "is_disabled": 0, "fusion_lon": 0.0, "is_reserved": 0, "name": "a4054a919dcb9eb0f796f0f758e8dedf", "type": "electric_scooter", "bike_id": "a4054a919dcb9eb0f796f0f758e8dedf", "rental_uris": {"ios": "https://dc.lft.to/lastmile_qr_scan", "android": "https://dc.lft.to/lastmile_qr_scan"}, "fusion_lat": 0.0}, {"lat": 38.887479166666665, "lon": -76.993678, "is_disabled": 0, "fusion_lon": 0.0, "is_reserved": 0, "name": "2f59bf860e66b1288736051d0a1f9aae", "type": "electric_scooter", "bike_id": "2f59bf860e66b1288736051d0a1f9aae", "rental_uris": {"ios": "https://dc.lft.to/lastmile_qr_scan", "android": "https://dc.lft.to/lastmile_qr_scan"}, "fusion_lat": 0.0}, {"lat": 38.93482316666667, "lon": -77.07269966666667, "is_disabled": 0, "fusion_lon": 0.0, "is_reserved": 0, "name": "f3c392cb9673467e518c8c4a97e1c1f2", "type": "electric_scooter", "bike_id": "f3c392cb9673467e518c8c4a97e1c1f2", "rental_uris": {"ios": "https://dc.lft.to/lastmile_qr_scan", "android": "https://dc.lft.to/lastmile_qr_scan"}, "fusion_lat": 0.0}, {"lat": 38.897074833333335, "lon": -77.078752, "is_disabled": 0, "fusion_lon": 0.0, "is_reserved": 0, "name": "ea882a54a6591b55753fc715ac7ad809", "type": "electric_scooter", "bike_id": "ea882a54a6591b55753fc715ac7ad809", "rental_uris": {"ios": "https://dc.lft.to/lastmile_qr_scan", "android": "https://dc.lft.to/lastmile_qr_scan"}, "fusion_lat": 0.0}, {"lat": 38.899386166666666, "lon": -77.01956733333333, "is_disabled": 0, "fusion_lon": 0.0, "is_reserved": 0, "name": "a71dd209c92360aa71c446c848da9a5b", "type": "electric_scooter", "bike_id": "a71dd209c92360aa71c446c848da9a5b", "rental_uris": {"ios": "https://dc.lft.to/lastmile_qr_scan", "android": "https://dc.lft.to/lastmile_qr_scan"}, "fusion_lat": 0.0}, {"lat": 38.9614225, "lon": -77.02785883333334, "is_disabled": 0, "fusion_lon": 0.0, "is_reserved": 0, "name": "5c7cc37622c55af200f044be507b2122", "type": "electric_scooter", "bike_id": "5c7cc37622c55af200f044be507b2122", "rental_uris": {"ios": "https://dc.lft.to/lastmile_qr_scan", "android": "https://dc.lft.to/lastmile_qr_scan"}, "fusion_lat": 0.0}, {"lat": 38.908077666666664, "lon": -77.02210816666667, "is_disabled": 0, "fusion_lon": 0.0, "is_reserved": 0, "name": "12a9ceb16184b7aeef268efc9e171978", "type": "electric_scooter", "bike_id": "12a9ceb16184b7aeef268efc9e171978", "rental_uris": {"ios": "https://dc.lft.to/lastmile_qr_scan", "android": "https://dc.lft.to/lastmile_qr_scan"}, "fusion_lat": 0.0}, {"lat": 38.89985316666667, "lon": -76.99492266666667, "is_disabled": 0, "fusion_lon": 0.0, "is_reserved": 0, "name": "06194f908011dc4afa472c1d063304bd", "type": "electric_scooter", "bike_id": "06194f908011dc4afa472c1d063304bd", "rental_uris": {"ios": "https://dc.lft.to/lastmile_qr_scan", "android": "https://dc.lft.to/lastmile_qr_scan"}, "fusion_lat": 0.0}, {"lat": 38.89224983333333, "lon": -77.03222316666667, "is_disabled": 0, "fusion_lon": 0.0, "is_reserved": 0, "name": "4da5aaa77b4e38e887d26e04dc08fe39", "type": "electric_scooter", "bike_id": "4da5aaa77b4e38e887d26e04dc08fe39", "rental_uris": {"ios": "https://dc.lft.to/lastmile_qr_scan", "android": "https://dc.lft.to/lastmile_qr_scan"}, "fusion_lat": 0.0}, {"lat": 38.89246833333333, "lon": -77.03180983333333, "is_disabled": 0, "fusion_lon": 0.0, "is_reserved": 0, "name": "9f276c121a3775b02c82d078f24fd891", "type": "electric_scooter", "bike_id": "9f276c121a3775b02c82d078f24fd891", "rental_uris": {"ios": "https://dc.lft.to/lastmile_qr_scan", "android": "https://dc.lft.to/lastmile_qr_scan"}, "fusion_lat": 0.0}, {"lat": 38.92485766666667, "lon": -77.02589583333334, "is_disabled": 0, "fusion_lon": 0.0, "is_reserved": 0, "name": "67d1936df039cf76f558216c5ce6637d", "type": "electric_scooter", "bike_id": "67d1936df039cf76f558216c5ce6637d", "rental_uris": {"ios": "https://dc.lft.to/lastmile_qr_scan", "android": "https://dc.lft.to/lastmile_qr_scan"}, "fusion_lat": 0.0}, {"lat": 38.8897745, "lon": -76.99467966666667, "is_disabled": 0, "fusion_lon": 0.0, "is_reserved": 0, "name": "f01fd3847e3be010f2ee7b7f0a610c0b", "type": "electric_scooter", "bike_id": "f01fd3847e3be010f2ee7b7f0a610c0b", "rental_uris": {"ios": "https://dc.lft.to/lastmile_qr_scan", "android": "https://dc.lft.to/lastmile_qr_scan"}, "fusion_lat": 0.0}, {"lat": 38.90378916666667, "lon": -77.05030533333333, "is_disabled": 0, "fusion_lon": 0.0, "is_reserved": 0, "name": "b27ed3cc7efc5e2430ed117c6898ea37", "type": "electric_scooter", "bike_id": "b27ed3cc7efc5e2430ed117c6898ea37", "rental_uris": {"ios": "https://dc.lft.to/lastmile_qr_scan", "android": "https://dc.lft.to/lastmile_qr_scan"}, "fusion_lat": 0.0}, {"lat": 38.927975833333335, "lon": -77.02457, "is_disabled": 0, "fusion_lon": 0.0, "is_reserved": 0, "name": "915d6034102bfbfa512297a48d18b15e", "type": "electric_scooter", "bike_id": "915d6034102bfbfa512297a48d18b15e", "rental_uris": {"ios": "https://dc.lft.to/lastmile_qr_scan", "android": "https://dc.lft.to/lastmile_qr_scan"}, "fusion_lat": 0.0}, {"lat": 38.965652666666664, "lon": -77.02813066666667, "is_disabled": 0, "fusion_lon": 0.0, "is_reserved": 0, "name": "84a284b39116e5b0ce0afe8089bb1b64", "type": "electric_bike", "bike_id": "84a284b39116e5b0ce0afe8089bb1b64", "rental_uris": {"ios": "https://dc.lft.to/lastmile_qr_scan", "android": "https://dc.lft.to/lastmile_qr_scan"}, "fusion_lat": 0.0}, {"lat": 38.887297833333335, "lon": -76.98357666666666, "is_disabled": 0, "fusion_lon": 0.0, "is_reserved": 0, "name": "67454c664f7f9c80aae824cbeb4b66b8", "type": "electric_scooter", "bike_id": "67454c664f7f9c80aae824cbeb4b66b8", "rental_uris": {"ios": "https://dc.lft.to/lastmile_qr_scan", "android": "https://dc.lft.to/lastmile_qr_scan"}, "fusion_lat": 0.0}, {"lat": 38.90730416666667, "lon": -77.03177033333333, "is_disabled": 0, "fusion_lon": 0.0, "is_reserved": 0, "name": "7d5eb6ec6263ad5e9f2d3c90fb6057d6", "type": "electric_scooter", "bike_id": "7d5eb6ec6263ad5e9f2d3c90fb6057d6", "rental_uris": {"ios": "https://dc.lft.to/lastmile_qr_scan", "android": "https://dc.lft.to/lastmile_qr_scan"}, "fusion_lat": 0.0}, {"lat": 38.904258666666664, "lon": -77.05318683333333, "is_disabled": 0, "fusion_lon": 0.0, "is_reserved": 0, "name": "e85322dc9832bf3ebe5cf5f771985402", "type": "electric_scooter", "bike_id": "e85322dc9832bf3ebe5cf5f771985402", "rental_uris": {"ios": "https://dc.lft.to/lastmile_qr_scan", "android": "https://dc.lft.to/lastmile_qr_scan"}, "fusion_lat": 0.0}, {"lat": 38.9155775, "lon": -77.03181716666667, "is_disabled": 0, "fusion_lon": 0.0, "is_reserved": 0, "name": "74da57351e0477539705740f82c848b0", "type": "electric_scooter", "bike_id": "74da57351e0477539705740f82c848b0", "rental_uris": {"ios": "https://dc.lft.to/lastmile_qr_scan", "android": "https://dc.lft.to/lastmile_qr_scan"}, "fusion_lat": 0.0}, {"lat": 38.9750335, "lon": -77.01670033333333, "is_disabled": 0, "fusion_lon": 0.0, "is_reserved": 0, "name": "ca4aed8082a8c7a0e1eb3be490551726", "type": "electric_scooter", "bike_id": "ca4aed8082a8c7a0e1eb3be490551726", "rental_uris": {"ios": "https://dc.lft.to/lastmile_qr_scan", "android": "https://dc.lft.to/lastmile_qr_scan"}, "fusion_lat": 0.0}, {"lat": 38.94496983333333, "lon": -77.036249, "is_disabled": 0, "fusion_lon": 0.0, "is_reserved": 0, "name": "50d761ef1d291bfd2034590371f7d9be", "type": "electric_scooter", "bike_id": "50d761ef1d291bfd2034590371f7d9be", "rental_uris": {"ios": "https://dc.lft.to/lastmile_qr_scan", "android": "https://dc.lft.to/lastmile_qr_scan"}, "fusion_lat": 0.0}, {"lat": 38.91674716666667, "lon": -77.0229885, "is_disabled": 0, "fusion_lon": 0.0, "is_reserved": 0, "name": "a9b553b47483bcb3b91171ce87824fcd", "type": "electric_scooter", "bike_id": "a9b553b47483bcb3b91171ce87824fcd", "rental_uris": {"ios": "https://dc.lft.to/lastmile_qr_scan", "android": "https://dc.lft.to/lastmile_qr_scan"}, "fusion_lat": 0.0}, {"lat": 38.94184533333333, "lon": -77.02490516666667, "is_disabled": 0, "fusion_lon": 0.0, "is_reserved": 0, "name": "dbf9252778ede3cac210f62c9713fa0c", "type": "electric_scooter", "bike_id": "dbf9252778ede3cac210f62c9713fa0c", "rental_uris": {"ios": "https://dc.lft.to/lastmile_qr_scan", "android": "https://dc.lft.to/lastmile_qr_scan"}, "fusion_lat": 0.0}, {"lat": 38.9167855, "lon": -77.01578, "is_disabled": 0, "fusion_lon": 0.0, "is_reserved": 0, "name": "c553c6e7ad7aa9ccfe14d4480cc39687", "type": "electric_scooter", "bike_id": "c553c6e7ad7aa9ccfe14d4480cc39687", "rental_uris": {"ios": "https://dc.lft.to/lastmile_qr_scan", "android": "https://dc.lft.to/lastmile_qr_scan"}, "fusion_lat": 0.0}, {"lat": 38.921972333333336, "lon": -77.040245, "is_disabled": 0, "fusion_lon": 0.0, "is_reserved": 0, "name": "00c88c36216a49f7326692168877d825", "type": "electric_scooter", "bike_id": "00c88c36216a49f7326692168877d825", "rental_uris": {"ios": "https://dc.lft.to/lastmile_qr_scan", "android": "https://dc.lft.to/lastmile_qr_scan"}, "fusion_lat": 0.0}, {"lat": 38.87970416666667, "lon": -76.9161295, "is_disabled": 0, "fusion_lon": 0.0, "is_reserved": 0, "name": "bae6aeaeec70352278de5690b90833af", "type": "electric_bike", "bike_id": "bae6aeaeec70352278de5690b90833af", "rental_uris": {"ios": "https://dc.lft.to/lastmile_qr_scan", "android": "https://dc.lft.to/lastmile_qr_scan"}, "fusion_lat": 0.0}, {"lat": 38.8978055, "lon": -76.991645, "is_disabled": 0, "fusion_lon": 0.0, "is_reserved": 0, "name": "5e499bfbc0c48c6dc817a57317b017a5", "type": "electric_scooter", "bike_id": "5e499bfbc0c48c6dc817a57317b017a5", "rental_uris": {"ios": "https://dc.lft.to/lastmile_qr_scan", "android": "https://dc.lft.to/lastmile_qr_scan"}, "fusion_lat": 0.0}, {"lat": 38.8874715, "lon": -77.0307465, "is_disabled": 0, "fusion_lon": 0.0, "is_reserved": 0, "name": "41b73f9f5c7aa1e9b95783e9387a0736", "type": "electric_scooter", "bike_id": "41b73f9f5c7aa1e9b95783e9387a0736", "rental_uris": {"ios": "https://dc.lft.to/lastmile_qr_scan", "android": "https://dc.lft.to/lastmile_qr_scan"}, "fusion_lat": 0.0}, {"lat": 38.90720133333333, "lon": -77.03539733333334, "is_disabled": 0, "fusion_lon": 0.0, "is_reserved": 0, "name": "d03f4e7c143ce153115478cdecc10fa4", "type": "electric_scooter", "bike_id": "d03f4e7c143ce153115478cdecc10fa4", "rental_uris": {"ios": "https://dc.lft.to/lastmile_qr_scan", "android": "https://dc.lft.to/lastmile_qr_scan"}, "fusion_lat": 0.0}, {"lat": 38.8966965, "lon": -76.93207783333334, "is_disabled": 0, "fusion_lon": 0.0, "is_reserved": 0, "name": "a408961dacd35f6df090fa5498a664bd", "type": "electric_scooter", "bike_id": "a408961dacd35f6df090fa5498a664bd", "rental_uris": {"ios": "https://dc.lft.to/lastmile_qr_scan", "android": "https://dc.lft.to/lastmile_qr_scan"}, "fusion_lat": 0.0}, {"lat": 38.9103845, "lon": -77.04263, "is_disabled": 0, "fusion_lon": 0.0, "is_reserved": 0, "name": "9ac3ead5b34afa4b485f2420bc07da3b", "type": "electric_scooter", "bike_id": "9ac3ead5b34afa4b485f2420bc07da3b", "rental_uris": {"ios": "https://dc.lft.to/lastmile_qr_scan", "android": "https://dc.lft.to/lastmile_qr_scan"}, "fusion_lat": 0.0}, {"lat": 38.927921, "lon": -77.0315355, "is_disabled": 0, "fusion_lon": 0.0, "is_reserved": 0, "name": "85a4c72bf9ddffa6e6eae4459621ad24", "type": "electric_scooter", "bike_id": "85a4c72bf9ddffa6e6eae4459621ad24", "rental_uris": {"ios": "https://dc.lft.to/lastmile_qr_scan", "android": "https://dc.lft.to/lastmile_qr_scan"}, "fusion_lat": 0.0}, {"lat": 38.924681166666666, "lon": -77.02250583333333, "is_disabled": 0, "fusion_lon": 0.0, "is_reserved": 0, "name": "4becefa6b2ef7fbd18389cfe5f1f0cab", "type": "electric_scooter", "bike_id": "4becefa6b2ef7fbd18389cfe5f1f0cab", "rental_uris": {"ios": "https://dc.lft.to/lastmile_qr_scan", "android": "https://dc.lft.to/lastmile_qr_scan"}, "fusion_lat": 0.0}, {"lat": 38.89731716666667, "lon": -77.00777916666667, "is_disabled": 0, "fusion_lon": 0.0, "is_reserved": 0, "name": "5aa65b4b627e0cb244df39981b236cc8", "type": "electric_scooter", "bike_id": "5aa65b4b627e0cb244df39981b236cc8", "rental_uris": {"ios": "https://dc.lft.to/lastmile_qr_scan", "android": "https://dc.lft.to/lastmile_qr_scan"}, "fusion_lat": 0.0}, {"lat": 38.901670333333335, "lon": -77.02673683333333, "is_disabled": 0, "fusion_lon": 0.0, "is_reserved": 0, "name": "2e317db63119d68d8b6b074d6267d19e", "type": "electric_scooter", "bike_id": "2e317db63119d68d8b6b074d6267d19e", "rental_uris": {"ios": "https://dc.lft.to/lastmile_qr_scan", "android": "https://dc.lft.to/lastmile_qr_scan"}, "fusion_lat": 0.0}, {"lat": 38.90969066666667, "lon": -77.04611766666666, "is_disabled": 0, "fusion_lon": 0.0, "is_reserved": 0, "name": "7dac9f516ca9fd69488c20b085100e3c", "type": "electric_scooter", "bike_id": "7dac9f516ca9fd69488c20b085100e3c", "rental_uris": {"ios": "https://dc.lft.to/lastmile_qr_scan", "android": "https://dc.lft.to/lastmile_qr_scan"}, "fusion_lat": 0.0}, {"lat": 38.887635333333336, "lon": -76.98701766666667, "is_disabled": 0, "fusion_lon": 0.0, "is_reserved": 0, "name": "9c611d44989364b36719275a2a7b683a", "type": "electric_scooter", "bike_id": "9c611d44989364b36719275a2a7b683a", "rental_uris": {"ios": "https://dc.lft.to/lastmile_qr_scan", "android": "https://dc.lft.to/lastmile_qr_scan"}, "fusion_lat": 0.0}, {"lat": 38.924628166666665, "lon": -77.0203965, "is_disabled": 0, "fusion_lon": 0.0, "is_reserved": 0, "name": "b507a35a50f5613cfd6caa590cb218a1", "type": "electric_scooter", "bike_id": "b507a35a50f5613cfd6caa590cb218a1", "rental_uris": {"ios": "https://dc.lft.to/lastmile_qr_scan", "android": "https://dc.lft.to/lastmile_qr_scan"}, "fusion_lat": 0.0}, {"lat": 38.89991366666667, "lon": -77.00653316666667, "is_disabled": 0, "fusion_lon": 0.0, "is_reserved": 0, "name": "644544dc07976411452dedcfb967b53b", "type": "electric_scooter", "bike_id": "644544dc07976411452dedcfb967b53b", "rental_uris": {"ios": "https://dc.lft.to/lastmile_qr_scan", "android": "https://dc.lft.to/lastmile_qr_scan"}, "fusion_lat": 0.0}, {"lat": 38.908611, "lon": -77.02857966666667, "is_disabled": 0, "fusion_lon": 0.0, "is_reserved": 0, "name": "0dc69fd24e4049bae9315103a54e394d", "type": "electric_scooter", "bike_id": "0dc69fd24e4049bae9315103a54e394d", "rental_uris": {"ios": "https://dc.lft.to/lastmile_qr_scan", "android": "https://dc.lft.to/lastmile_qr_scan"}, "fusion_lat": 0.0}, {"lat": 38.92233016666667, "lon": -77.02013366666667, "is_disabled": 0, "fusion_lon": 0.0, "is_reserved": 0, "name": "0b5ecafb7cf344ea7888bdb17074d565", "type": "electric_scooter", "bike_id": "0b5ecafb7cf344ea7888bdb17074d565", "rental_uris": {"ios": "https://dc.lft.to/lastmile_qr_scan", "android": "https://dc.lft.to/lastmile_qr_scan"}, "fusion_lat": 0.0}, {"lat": 38.90669966666667, "lon": -77.02691233333333, "is_disabled": 0, "fusion_lon": 0.0, "is_reserved": 0, "name": "9aa71b553409c95028c6cbad87ad259a", "type": "electric_scooter", "bike_id": "9aa71b553409c95028c6cbad87ad259a", "rental_uris": {"ios": "https://dc.lft.to/lastmile_qr_scan", "android": "https://dc.lft.to/lastmile_qr_scan"}, "fusion_lat": 0.0}, {"lat": 38.91902316666667, "lon": -77.03203916666666, "is_disabled": 0, "fusion_lon": 0.0, "is_reserved": 0, "name": "fbbe6cfa281c81a10bee27cd2584e433", "type": "electric_scooter", "bike_id": "fbbe6cfa281c81a10bee27cd2584e433", "rental_uris": {"ios": "https://dc.lft.to/lastmile_qr_scan", "android": "https://dc.lft.to/lastmile_qr_scan"}, "fusion_lat": 0.0}, {"lat": 38.915678, "lon": -77.02006216666666, "is_disabled": 0, "fusion_lon": 0.0, "is_reserved": 0, "name": "c12432348180b92cc7ec67841ee58450", "type": "electric_scooter", "bike_id": "c12432348180b92cc7ec67841ee58450", "rental_uris": {"ios": "https://dc.lft.to/lastmile_qr_scan", "android": "https://dc.lft.to/lastmile_qr_scan"}, "fusion_lat": 0.0}, {"lat": 38.9079285, "lon": -77.038704, "is_disabled": 0, "fusion_lon": 0.0, "is_reserved": 0, "name": "17d8a359be4c3b6e733d4858c68265e1", "type": "electric_scooter", "bike_id": "17d8a359be4c3b6e733d4858c68265e1", "rental_uris": {"ios": "https://dc.lft.to/lastmile_qr_scan", "android": "https://dc.lft.to/lastmile_qr_scan"}, "fusion_lat": 0.0}, {"lat": 38.924926666666664, "lon": -77.02144216666667, "is_disabled": 0, "fusion_lon": 0.0, "is_reserved": 0, "name": "ff018c70f960433158b1011bc6a2635a", "type": "electric_scooter", "bike_id": "ff018c70f960433158b1011bc6a2635a", "rental_uris": {"ios": "https://dc.lft.to/lastmile_qr_scan", "android": "https://dc.lft.to/lastmile_qr_scan"}, "fusion_lat": 0.0}, {"lat": 38.884237666666664, "lon": -77.00814783333334, "is_disabled": 0, "fusion_lon": 0.0, "is_reserved": 0, "name": "6d27697d284c85eb1ee72032f009cdd2", "type": "electric_scooter", "bike_id": "6d27697d284c85eb1ee72032f009cdd2", "rental_uris": {"ios": "https://dc.lft.to/lastmile_qr_scan", "android": "https://dc.lft.to/lastmile_qr_scan"}, "fusion_lat": 0.0}, {"lat": 38.916965, "lon": -77.02490683333333, "is_disabled": 0, "fusion_lon": 0.0, "is_reserved": 0, "name": "c8ccf63220f6f2b2861c04b0a5f25bee", "type": "electric_scooter", "bike_id": "c8ccf63220f6f2b2861c04b0a5f25bee", "rental_uris": {"ios": "https://dc.lft.to/lastmile_qr_scan", "android": "https://dc.lft.to/lastmile_qr_scan"}, "fusion_lat": 0.0}, {"lat": 38.91458466666667, "lon": -77.04177283333334, "is_disabled": 0, "fusion_lon": 0.0, "is_reserved": 0, "name": "cd7e86c0bbe3852483bf0b034932a32c", "type": "electric_scooter", "bike_id": "cd7e86c0bbe3852483bf0b034932a32c", "rental_uris": {"ios": "https://dc.lft.to/lastmile_qr_scan", "android": "https://dc.lft.to/lastmile_qr_scan"}, "fusion_lat": 0.0}, {"lat": 38.874399333333336, "lon": -77.00038183333334, "is_disabled": 0, "fusion_lon": 0.0, "is_reserved": 0, "name": "d8e400bf942709105ba6fa3704f38260", "type": "electric_scooter", "bike_id": "d8e400bf942709105ba6fa3704f38260", "rental_uris": {"ios": "https://dc.lft.to/lastmile_qr_scan", "android": "https://dc.lft.to/lastmile_qr_scan"}, "fusion_lat": 0.0}, {"lat": 38.913537, "lon": -77.04350533333333, "is_disabled": 0, "fusion_lon": 0.0, "is_reserved": 0, "name": "cf33ce3382597a28992afc2f720c36fd", "type": "electric_scooter", "bike_id": "cf33ce3382597a28992afc2f720c36fd", "rental_uris": {"ios": "https://dc.lft.to/lastmile_qr_scan", "android": "https://dc.lft.to/lastmile_qr_scan"}, "fusion_lat": 0.0}, {"lat": 38.952067666666665, "lon": -77.02728766666667, "is_disabled": 0, "fusion_lon": 0.0, "is_reserved": 0, "name": "c44c7b2e63c378b883e20ce57599a924", "type": "electric_scooter", "bike_id": "c44c7b2e63c378b883e20ce57599a924", "rental_uris": {"ios": "https://dc.lft.to/lastmile_qr_scan", "android": "https://dc.lft.to/lastmile_qr_scan"}, "fusion_lat": 0.0}, {"lat": 38.925717166666665, "lon": -77.05263933333333, "is_disabled": 0, "fusion_lon": 0.0, "is_reserved": 0, "name": "de75a70019c4db10dbd35e5f5596c736", "type": "electric_scooter", "bike_id": "de75a70019c4db10dbd35e5f5596c736", "rental_uris": {"ios": "https://dc.lft.to/lastmile_qr_scan", "android": "https://dc.lft.to/lastmile_qr_scan"}, "fusion_lat": 0.0}, {"lat": 38.92067333333333, "lon": -77.023535, "is_disabled": 0, "fusion_lon": 0.0, "is_reserved": 0, "name": "7dabaa6fa49fe09ae388fa4549e5fa5c", "type": "electric_scooter", "bike_id": "7dabaa6fa49fe09ae388fa4549e5fa5c", "rental_uris": {"ios": "https://dc.lft.to/lastmile_qr_scan", "android": "https://dc.lft.to/lastmile_qr_scan"}, "fusion_lat": 0.0}, {"lat": 38.906014666666664, "lon": -77.00267466666666, "is_disabled": 0, "fusion_lon": 0.0, "is_reserved": 0, "name": "53d7695904285e022cb2c4de88f4d3df", "type": "electric_scooter", "bike_id": "53d7695904285e022cb2c4de88f4d3df", "rental_uris": {"ios": "https://dc.lft.to/lastmile_qr_scan", "android": "https://dc.lft.to/lastmile_qr_scan"}, "fusion_lat": 0.0}, {"lat": 38.89574283333334, "lon": -77.0215625, "is_disabled": 0, "fusion_lon": 0.0, "is_reserved": 0, "name": "25f7a5e135ab61ce06f66dd845f6e4cc", "type": "electric_scooter", "bike_id": "25f7a5e135ab61ce06f66dd845f6e4cc", "rental_uris": {"ios": "https://dc.lft.to/lastmile_qr_scan", "android": "https://dc.lft.to/lastmile_qr_scan"}, "fusion_lat": 0.0}, {"lat": 38.933277333333336, "lon": -77.02912366666666, "is_disabled": 0, "fusion_lon": 0.0, "is_reserved": 0, "name": "e0658d34296567a7d0c3a009fac8b65f", "type": "electric_scooter", "bike_id": "e0658d34296567a7d0c3a009fac8b65f", "rental_uris": {"ios": "https://dc.lft.to/lastmile_qr_scan", "android": "https://dc.lft.to/lastmile_qr_scan"}, "fusion_lat": 0.0}, {"lat": 38.91335816666667, "lon": -77.03718433333333, "is_disabled": 0, "fusion_lon": 0.0, "is_reserved": 0, "name": "061ea046677dfb434e4ba44b43290d2a", "type": "electric_scooter", "bike_id": "061ea046677dfb434e4ba44b43290d2a", "rental_uris": {"ios": "https://dc.lft.to/lastmile_qr_scan", "android": "https://dc.lft.to/lastmile_qr_scan"}, "fusion_lat": 0.0}, {"lat": 38.91037166666667, "lon": -77.04261733333334, "is_disabled": 0, "fusion_lon": 0.0, "is_reserved": 0, "name": "9a3fb86abd02539be8e670fd95deb801", "type": "electric_scooter", "bike_id": "9a3fb86abd02539be8e670fd95deb801", "rental_uris": {"ios": "https://dc.lft.to/lastmile_qr_scan", "android": "https://dc.lft.to/lastmile_qr_scan"}, "fusion_lat": 0.0}, {"lat": 38.91263283333333, "lon": -77.03867466666667, "is_disabled": 0, "fusion_lon": 0.0, "is_reserved": 0, "name": "5384c5e6aa13341ac89475fae803f5dc", "type": "electric_scooter", "bike_id": "5384c5e6aa13341ac89475fae803f5dc", "rental_uris": {"ios": "https://dc.lft.to/lastmile_qr_scan", "android": "https://dc.lft.to/lastmile_qr_scan"}, "fusion_lat": 0.0}, {"lat": 38.911036833333334, "lon": -77.01280333333334, "is_disabled": 0, "fusion_lon": 0.0, "is_reserved": 0, "name": "572fe025f020dd6a0266622eec7670b7", "type": "electric_scooter", "bike_id": "572fe025f020dd6a0266622eec7670b7", "rental_uris": {"ios": "https://dc.lft.to/lastmile_qr_scan", "android": "https://dc.lft.to/lastmile_qr_scan"}, "fusion_lat": 0.0}, {"lat": 38.90235116666667, "lon": -77.04690866666667, "is_disabled": 0, "fusion_lon": 0.0, "is_reserved": 0, "name": "f8b529d9fbccca35c14d22915cc589b3", "type": "electric_scooter", "bike_id": "f8b529d9fbccca35c14d22915cc589b3", "rental_uris": {"ios": "https://dc.lft.to/lastmile_qr_scan", "android": "https://dc.lft.to/lastmile_qr_scan"}, "fusion_lat": 0.0}, {"lat": 38.873874666666666, "lon": -77.00170516666667, "is_disabled": 0, "fusion_lon": 0.0, "is_reserved": 0, "name": "529b847136cfca1db6026b6fb4c42abc", "type": "electric_scooter", "bike_id": "529b847136cfca1db6026b6fb4c42abc", "rental_uris": {"ios": "https://dc.lft.to/lastmile_qr_scan", "android": "https://dc.lft.to/lastmile_qr_scan"}, "fusion_lat": 0.0}, {"lat": 38.88443383333333, "lon": -77.0174795, "is_disabled": 0, "fusion_lon": 0.0, "is_reserved": 0, "name": "be7ee00ab47ad0ef3658a2bae4b76a1d", "type": "electric_scooter", "bike_id": "be7ee00ab47ad0ef3658a2bae4b76a1d", "rental_uris": {"ios": "https://dc.lft.to/lastmile_qr_scan", "android": "https://dc.lft.to/lastmile_qr_scan"}, "fusion_lat": 0.0}, {"lat": 38.93113616666667, "lon": -77.03038316666667, "is_disabled": 0, "fusion_lon": 0.0, "is_reserved": 0, "name": "84949b26ebebe8e253bbb249bd99f9b0", "type": "electric_scooter", "bike_id": "84949b26ebebe8e253bbb249bd99f9b0", "rental_uris": {"ios": "https://dc.lft.to/lastmile_qr_scan", "android": "https://dc.lft.to/lastmile_qr_scan"}, "fusion_lat": 0.0}, {"lat": 38.914699666666664, "lon": -77.03836016666666, "is_disabled": 0, "fusion_lon": 0.0, "is_reserved": 0, "name": "a0c1772e90665b3463012e2726d7d375", "type": "electric_scooter", "bike_id": "a0c1772e90665b3463012e2726d7d375", "rental_uris": {"ios": "https://dc.lft.to/lastmile_qr_scan", "android": "https://dc.lft.to/lastmile_qr_scan"}, "fusion_lat": 0.0}, {"lat": 38.92627266666667, "lon": -77.04196183333333, "is_disabled": 0, "fusion_lon": 0.0, "is_reserved": 0, "name": "a0931d1cfbdef77d51913a0601deb561", "type": "electric_scooter", "bike_id": "a0931d1cfbdef77d51913a0601deb561", "rental_uris": {"ios": "https://dc.lft.to/lastmile_qr_scan", "android": "https://dc.lft.to/lastmile_qr_scan"}, "fusion_lat": 0.0}, {"lat": 38.919194166666664, "lon": -77.02376016666666, "is_disabled": 0, "fusion_lon": 0.0, "is_reserved": 0, "name": "ea4fcc888c24836eef1217f84f42f61b", "type": "electric_scooter", "bike_id": "ea4fcc888c24836eef1217f84f42f61b", "rental_uris": {"ios": "https://dc.lft.to/lastmile_qr_scan", "android": "https://dc.lft.to/lastmile_qr_scan"}, "fusion_lat": 0.0}, {"lat": 38.9191175, "lon": -77.02414483333334, "is_disabled": 0, "fusion_lon": 0.0, "is_reserved": 0, "name": "62286571d2dbcab8dd3a57ca6a4de8cf", "type": "electric_scooter", "bike_id": "62286571d2dbcab8dd3a57ca6a4de8cf", "rental_uris": {"ios": "https://dc.lft.to/lastmile_qr_scan", "android": "https://dc.lft.to/lastmile_qr_scan"}, "fusion_lat": 0.0}, {"lat": 38.898396166666664, "lon": -77.031707, "is_disabled": 0, "fusion_lon": 0.0, "is_reserved": 0, "name": "64f625cdf1e93db99cf256e4bde4efc5", "type": "electric_scooter", "bike_id": "64f625cdf1e93db99cf256e4bde4efc5", "rental_uris": {"ios": "https://dc.lft.to/lastmile_qr_scan", "android": "https://dc.lft.to/lastmile_qr_scan"}, "fusion_lat": 0.0}, {"lat": 38.974979833333336, "lon": -77.01664566666666, "is_disabled": 0, "fusion_lon": 0.0, "is_reserved": 0, "name": "0530bd3d0410ab4e3f10908510df7e82", "type": "electric_scooter", "bike_id": "0530bd3d0410ab4e3f10908510df7e82", "rental_uris": {"ios": "https://dc.lft.to/lastmile_qr_scan", "android": "https://dc.lft.to/lastmile_qr_scan"}, "fusion_lat": 0.0}, {"lat": 38.850922833333335, "lon": -76.95698016666667, "is_disabled": 0, "fusion_lon": 0.0, "is_reserved": 0, "name": "c06d7779d4f6552ef4e51a54eef66528", "type": "electric_bike", "bike_id": "c06d7779d4f6552ef4e51a54eef66528", "rental_uris": {"ios": "https://dc.lft.to/lastmile_qr_scan", "android": "https://dc.lft.to/lastmile_qr_scan"}, "fusion_lat": 0.0}, {"lat": 38.912004, "lon": -77.04141166666666, "is_disabled": 0, "fusion_lon": 0.0, "is_reserved": 0, "name": "cd78a1b4c4a8e4f237874199e91de98a", "type": "electric_scooter", "bike_id": "cd78a1b4c4a8e4f237874199e91de98a", "rental_uris": {"ios": "https://dc.lft.to/lastmile_qr_scan", "android": "https://dc.lft.to/lastmile_qr_scan"}, "fusion_lat": 0.0}, {"lat": 38.9307825, "lon": -77.02165716666667, "is_disabled": 0, "fusion_lon": 0.0, "is_reserved": 0, "name": "f2aec02a5f630360f43d4cacb1cd47d0", "type": "electric_scooter", "bike_id": "f2aec02a5f630360f43d4cacb1cd47d0", "rental_uris": {"ios": "https://dc.lft.to/lastmile_qr_scan", "android": "https://dc.lft.to/lastmile_qr_scan"}, "fusion_lat": 0.0}, {"lat": 38.87213116666667, "lon": -77.01389433333334, "is_disabled": 0, "fusion_lon": 0.0, "is_reserved": 0, "name": "346c6a2e6ff7bb426b604bed2edb12e2", "type": "electric_scooter", "bike_id": "346c6a2e6ff7bb426b604bed2edb12e2", "rental_uris": {"ios": "https://dc.lft.to/lastmile_qr_scan", "android": "https://dc.lft.to/lastmile_qr_scan"}, "fusion_lat": 0.0}, {"lat": 38.936102166666664, "lon": -77.05860833333334, "is_disabled": 0, "fusion_lon": 0.0, "is_reserved": 0, "name": "8e63c502415622f0f5c5c32d596cdd6b", "type": "electric_scooter", "bike_id": "8e63c502415622f0f5c5c32d596cdd6b", "rental_uris": {"ios": "https://dc.lft.to/lastmile_qr_scan", "android": "https://dc.lft.to/lastmile_qr_scan"}, "fusion_lat": 0.0}, {"lat": 38.887498, "lon": -77.01773566666667, "is_disabled": 0, "fusion_lon": 0.0, "is_reserved": 0, "name": "aeb0aa5a7ae1a5b95551d830e66b5d9e", "type": "electric_scooter", "bike_id": "aeb0aa5a7ae1a5b95551d830e66b5d9e", "rental_uris": {"ios": "https://dc.lft.to/lastmile_qr_scan", "android": "https://dc.lft.to/lastmile_qr_scan"}, "fusion_lat": 0.0}, {"lat": 38.889977, "lon": -76.95433783333333, "is_disabled": 0, "fusion_lon": 0.0, "is_reserved": 0, "name": "9e10955b06623a4f7916a0b4a1ba1bdb", "type": "electric_scooter", "bike_id": "9e10955b06623a4f7916a0b4a1ba1bdb", "rental_uris": {"ios": "https://dc.lft.to/lastmile_qr_scan", "android": "https://dc.lft.to/lastmile_qr_scan"}, "fusion_lat": 0.0}, {"lat": 38.900883, "lon": -77.04780183333334, "is_disabled": 0, "fusion_lon": 0.0, "is_reserved": 0, "name": "5243fe3e6c56f82133744258c5611c36", "type": "electric_scooter", "bike_id": "5243fe3e6c56f82133744258c5611c36", "rental_uris": {"ios": "https://dc.lft.to/lastmile_qr_scan", "android": "https://dc.lft.to/lastmile_qr_scan"}, "fusion_lat": 0.0}, {"lat": 38.91120016666667, "lon": -77.011477, "is_disabled": 0, "fusion_lon": 0.0, "is_reserved": 0, "name": "509b838f9252fb545ba10f71d2855eb0", "type": "electric_scooter", "bike_id": "509b838f9252fb545ba10f71d2855eb0", "rental_uris": {"ios": "https://dc.lft.to/lastmile_qr_scan", "android": "https://dc.lft.to/lastmile_qr_scan"}, "fusion_lat": 0.0}, {"lat": 38.898432166666666, "lon": -77.0278615, "is_disabled": 0, "fusion_lon": 0.0, "is_reserved": 0, "name": "d77fd0404be452d09baab2ef35363194", "type": "electric_scooter", "bike_id": "d77fd0404be452d09baab2ef35363194", "rental_uris": {"ios": "https://dc.lft.to/lastmile_qr_scan", "android": "https://dc.lft.to/lastmile_qr_scan"}, "fusion_lat": 0.0}, {"lat": 38.914024833333336, "lon": -77.0140815, "is_disabled": 0, "fusion_lon": 0.0, "is_reserved": 0, "name": "593031520ce7275a4893f1b33c6c785a", "type": "electric_scooter", "bike_id": "593031520ce7275a4893f1b33c6c785a", "rental_uris": {"ios": "https://dc.lft.to/lastmile_qr_scan", "android": "https://dc.lft.to/lastmile_qr_scan"}, "fusion_lat": 0.0}, {"lat": 38.820475333333334, "lon": -77.05360266666666, "is_disabled": 0, "fusion_lon": 0.0, "is_reserved": 0, "name": "f76af1c4069e4332ebe3b5d218ec7f74", "type": "electric_bike", "bike_id": "f76af1c4069e4332ebe3b5d218ec7f74", "rental_uris": {"ios": "https://dc.lft.to/lastmile_qr_scan", "android": "https://dc.lft.to/lastmile_qr_scan"}, "fusion_lat": 0.0}, {"lat": 38.9178265, "lon": -77.04338016666667, "is_disabled": 0, "fusion_lon": 0.0, "is_reserved": 0, "name": "ce056a5ca922dbdc4c5cee39642e0ab8", "type": "electric_scooter", "bike_id": "ce056a5ca922dbdc4c5cee39642e0ab8", "rental_uris": {"ios": "https://dc.lft.to/lastmile_qr_scan", "android": "https://dc.lft.to/lastmile_qr_scan"}, "fusion_lat": 0.0}, {"lat": 38.92466783333333, "lon": -77.022476, "is_disabled": 0, "fusion_lon": 0.0, "is_reserved": 0, "name": "abf4a717ae5137ce22b86b8070f40eba", "type": "electric_scooter", "bike_id": "abf4a717ae5137ce22b86b8070f40eba", "rental_uris": {"ios": "https://dc.lft.to/lastmile_qr_scan", "android": "https://dc.lft.to/lastmile_qr_scan"}, "fusion_lat": 0.0}, {"lat": 38.91674483333333, "lon": -77.02289016666667, "is_disabled": 0, "fusion_lon": 0.0, "is_reserved": 0, "name": "3edc7275fe256364b9e6fe7d5c4a388f", "type": "electric_scooter", "bike_id": "3edc7275fe256364b9e6fe7d5c4a388f", "rental_uris": {"ios": "https://dc.lft.to/lastmile_qr_scan", "android": "https://dc.lft.to/lastmile_qr_scan"}, "fusion_lat": 0.0}, {"lat": 38.890113166666666, "lon": -76.9370095, "is_disabled": 0, "fusion_lon": 0.0, "is_reserved": 0, "name": "c101d8ebcc89b7e62c5c856029a4ec8e", "type": "electric_scooter", "bike_id": "c101d8ebcc89b7e62c5c856029a4ec8e", "rental_uris": {"ios": "https://dc.lft.to/lastmile_qr_scan", "android": "https://dc.lft.to/lastmile_qr_scan"}, "fusion_lat": 0.0}, {"lat": 38.83518866666667, "lon": -76.986782, "is_disabled": 0, "fusion_lon": 0.0, "is_reserved": 0, "name": "d15abc4c7daf6cda59dd1ad72b65f65f", "type": "electric_bike", "bike_id": "d15abc4c7daf6cda59dd1ad72b65f65f", "rental_uris": {"ios": "https://dc.lft.to/lastmile_qr_scan", "android": "https://dc.lft.to/lastmile_qr_scan"}, "fusion_lat": 0.0}, {"lat": 38.900516, "lon": -77.01777716666666, "is_disabled": 0, "fusion_lon": 0.0, "is_reserved": 0, "name": "b1282ce2307b04d3cb04c52ba13c246c", "type": "electric_scooter", "bike_id": "b1282ce2307b04d3cb04c52ba13c246c", "rental_uris": {"ios": "https://dc.lft.to/lastmile_qr_scan", "android": "https://dc.lft.to/lastmile_qr_scan"}, "fusion_lat": 0.0}, {"lat": 38.914094166666665, "lon": -77.02982266666666, "is_disabled": 0, "fusion_lon": 0.0, "is_reserved": 0, "name": "a1a5fd08eb4698ed92a216df2d5c032d", "type": "electric_scooter", "bike_id": "a1a5fd08eb4698ed92a216df2d5c032d", "rental_uris": {"ios": "https://dc.lft.to/lastmile_qr_scan", "android": "https://dc.lft.to/lastmile_qr_scan"}, "fusion_lat": 0.0}, {"lat": 38.903545666666666, "lon": -77.02950316666667, "is_disabled": 0, "fusion_lon": 0.0, "is_reserved": 0, "name": "9980de997379e48d61370f3dc45d792a", "type": "electric_scooter", "bike_id": "9980de997379e48d61370f3dc45d792a", "rental_uris": {"ios": "https://dc.lft.to/lastmile_qr_scan", "android": "https://dc.lft.to/lastmile_qr_scan"}, "fusion_lat": 0.0}, {"lat": 38.92127116666666, "lon": -77.2367585, "is_disabled": 0, "fusion_lon": 0.0, "is_reserved": 0, "name": "8d0c2e9dd9805d12147b53d07c3283ca", "type": "electric_bike", "bike_id": "8d0c2e9dd9805d12147b53d07c3283ca", "rental_uris": {"ios": "https://dc.lft.to/lastmile_qr_scan", "android": "https://dc.lft.to/lastmile_qr_scan"}, "fusion_lat": 0.0}, {"lat": 38.920563666666666, "lon": -77.03472033333334, "is_disabled": 0, "fusion_lon": 0.0, "is_reserved": 0, "name": "75953f147df57dd8b9190e0b94e6ef0c", "type": "electric_scooter", "bike_id": "75953f147df57dd8b9190e0b94e6ef0c", "rental_uris": {"ios": "https://dc.lft.to/lastmile_qr_scan", "android": "https://dc.lft.to/lastmile_qr_scan"}, "fusion_lat": 0.0}, {"lat": 38.91934216666667, "lon": -77.02497383333333, "is_disabled": 0, "fusion_lon": 0.0, "is_reserved": 0, "name": "b2045a55d5b2b273edb7cf01e50e0eb3", "type": "electric_scooter", "bike_id": "b2045a55d5b2b273edb7cf01e50e0eb3", "rental_uris": {"ios": "https://dc.lft.to/lastmile_qr_scan", "android": "https://dc.lft.to/lastmile_qr_scan"}, "fusion_lat": 0.0}, {"lat": 38.90651733333333, "lon": -77.03159883333333, "is_disabled": 0, "fusion_lon": 0.0, "is_reserved": 0, "name": "d519ab3f9dc7bbf49cad11851e68fb2d", "type": "electric_scooter", "bike_id": "d519ab3f9dc7bbf49cad11851e68fb2d", "rental_uris": {"ios": "https://dc.lft.to/lastmile_qr_scan", "android": "https://dc.lft.to/lastmile_qr_scan"}, "fusion_lat": 0.0}, {"lat": 38.89911033333333, "lon": -77.02707116666667, "is_disabled": 0, "fusion_lon": 0.0, "is_reserved": 0, "name": "c19f253c5c413a55e9b76ae9aa70ae1d", "type": "electric_scooter", "bike_id": "c19f253c5c413a55e9b76ae9aa70ae1d", "rental_uris": {"ios": "https://dc.lft.to/lastmile_qr_scan", "android": "https://dc.lft.to/lastmile_qr_scan"}, "fusion_lat": 0.0}, {"lat": 38.938455, "lon": -77.03386566666667, "is_disabled": 0, "fusion_lon": 0.0, "is_reserved": 0, "name": "aaa0d7583a0ec680ab81a80598b9e212", "type": "electric_scooter", "bike_id": "aaa0d7583a0ec680ab81a80598b9e212", "rental_uris": {"ios": "https://dc.lft.to/lastmile_qr_scan", "android": "https://dc.lft.to/lastmile_qr_scan"}, "fusion_lat": 0.0}, {"lat": 38.927612333333336, "lon": -77.03284533333333, "is_disabled": 0, "fusion_lon": 0.0, "is_reserved": 0, "name": "f952bf0e97950b23e3fd66bd62e8f161", "type": "electric_scooter", "bike_id": "f952bf0e97950b23e3fd66bd62e8f161", "rental_uris": {"ios": "https://dc.lft.to/lastmile_qr_scan", "android": "https://dc.lft.to/lastmile_qr_scan"}, "fusion_lat": 0.0}, {"lat": 38.943404666666666, "lon": -77.01555433333333, "is_disabled": 0, "fusion_lon": 0.0, "is_reserved": 0, "name": "e6161d51f7527ea14efe1495e7e9470a", "type": "electric_scooter", "bike_id": "e6161d51f7527ea14efe1495e7e9470a", "rental_uris": {"ios": "https://dc.lft.to/lastmile_qr_scan", "android": "https://dc.lft.to/lastmile_qr_scan"}, "fusion_lat": 0.0},