{"data": {"bikes": [{"type": "electric_scooter", "name": "bea23196c873d8923f5c8486f5a7fa37", "rental_uris": {"ios": "https://dc.lft.to/lastmile_qr_scan", "android": "https://dc.lft.to/lastmile_qr_scan"}, "fusion_lon": 0.0, "lat": 38.908342, "is_disabled": 0, "bike_id": "bea23196c873d8923f5c8486f5a7fa37", "fusion_lat": 0.0, "is_reserved": 0, "lon": -77.02193933333334}, {"type": "electric_scooter", "name": "63c0aa27c09e68a0be096a5ed5195587", "rental_uris": {"ios": "https://dc.lft.to/lastmile_qr_scan", "android": "https://dc.lft.to/lastmile_qr_scan"}, "fusion_lon": 0.0, "lat": 38.904982833333335, "is_disabled": 0, "bike_id": "63c0aa27c09e68a0be096a5ed5195587", "fusion_lat": 0.0, "is_reserved": 0, "lon": -76.98134366666666}, {"type": "electric_scooter", "name": "27a6dc83c06009f69b971f224b6096f7", "rental_uris": {"ios": "https://dc.lft.to/lastmile_qr_scan", "android": "https://dc.lft.to/lastmile_qr_scan"}, "fusion_lon": 0.0, "lat": 38.914093333333334, "is_disabled": 0, "bike_id": "27a6dc83c06009f69b971f224b6096f7", "fusion_lat": 0.0, "is_reserved": 0, "lon": -77.018156}, {"type": "electric_scooter", "name": "0096ab7ee2498c7d147d85cb95950259", "rental_uris": {"ios": "https://dc.lft.to/lastmile_qr_scan", "android": "https://dc.lft.to/lastmile_qr_scan"}, "fusion_lon": 0.0, "lat": 38.900267666666664, "is_disabled": 0, "bike_id": "0096ab7ee2498c7d147d85cb95950259", "fusion_lat": 0.0, "is_reserved": 0, "lon": -76.973987}, {"type": "electric_scooter", "name": "e10bfb69c64cdc4811df4bd97212256d", "rental_uris": {"ios": "https://dc.lft.to/lastmile_qr_scan", "android": "https://dc.lft.to/lastmile_qr_scan"}, "fusion_lon": 0.0, "lat": 38.931859, "is_disabled": 0, "bike_id": "e10bfb69c64cdc4811df4bd97212256d", "fusion_lat": 0.0, "is_reserved": 0, "lon": -77.01989133333333}, {"type": "electric_scooter", "name": "6b857aecbe9b9c5e97c8967e180ae559", "rental_uris": {"ios": "https://dc.lft.to/lastmile_qr_scan", "android": "https://dc.lft.to/lastmile_qr_scan"}, "fusion_lon": 0.0, "lat": 38.912605, "is_disabled": 0, "bike_id": "6b857aecbe9b9c5e97c8967e180ae559", "fusion_lat": 0.0, "is_reserved": 0, "lon": -77.03655866666666}, {"type": "electric_bike", "name": "2dacbd8e34f9ebe768b3ed8166ff9c92", "rental_uris": {"ios": "https://dc.lft.to/lastmile_qr_scan", "android": "https://dc.lft.to/lastmile_qr_scan"}, "fusion_lon": 0.0, "lat": 38.94513416666667, "is_disabled": 0, "bike_id": "2dacbd8e34f9ebe768b3ed8166ff9c92", "fusion_lat": 0.0, "is_reserved": 0, "lon": -77.00681966666667}, {"type": "electric_scooter", "name": "d8a717f3e1cf91624f443af83fd544d2", "rental_uris": {"ios": "https://dc.lft.to/lastmile_qr_scan", "android": "https://dc.lft.to/lastmile_qr_scan"}, "fusion_lon": 0.0, "lat": 38.9133345, "is_disabled": 0, "bike_id": "d8a717f3e1cf91624f443af83fd544d2", "fusion_lat": 0.0, "is_reserved": 0, "lon": -77.048662}, {"type": "electric_scooter", "name": "de8094c258950645f26fd042baf8f870", "rental_uris": {"ios": "https://dc.lft.to/lastmile_qr_scan", "android": "https://dc.lft.to/lastmile_qr_scan"}, "fusion_lon": 0.0, "lat": 38.920246, "is_disabled": 0, "bike_id": "de8094c258950645f26fd042baf8f870", "fusion_lat": 0.0, "is_reserved": 0, "lon": -77.0181}, {"type": "electric_scooter", "name": "2ccabf25d960acf3c913f493dac5e28b", "rental_uris": {"ios": "https://dc.lft.to/lastmile_qr_scan", "android": "https://dc.lft.to/lastmile_qr_scan"}, "fusion_lon": 0.0, "lat": 38.915360166666666, "is_disabled": 0, "bike_id": "2ccabf25d960acf3c913f493dac5e28b", "fusion_lat": 0.0, "is_reserved": 0, "lon": -77.0122255}, {"type": "electric_scooter", "name": "2ffc586f1133796073bf8ca20cf344a1", "rental_uris": {"ios": "https://dc.lft.to/lastmile_qr_scan", "android": "https://dc.lft.to/lastmile_qr_scan"}, "fusion_lon": 0.0, "lat": 38.9208795, "is_disabled": 0, "bike_id": "2ffc586f1133796073bf8ca20cf344a1", "fusion_lat": 0.0, "is_reserved": 0, "lon": -77.02253983333334}, {"type": "electric_bike", "name": "c19d3ce7bf298f304cf791a776a48333", "rental_uris": {"ios": "https://dc.lft.to/lastmile_qr_scan", "android": "https://dc.lft.to/lastmile_qr_scan"}, "fusion_lon": 0.0, "lat": 38.95355633333333, "is_disabled": 0, "bike_id": "c19d3ce7bf298f304cf791a776a48333", "fusion_lat": 0.0, "is_reserved": 0, "lon": -76.9809245}, {"type": "electric_scooter", "name": "9b389e52f5f9d22c3d777e8bca15fb66", "rental_uris": {"ios": "https://dc.lft.to/lastmile_qr_scan", "android": "https://dc.lft.to/lastmile_qr_scan"}, "fusion_lon": 0.0, "lat": 38.87547216666667, "is_disabled": 0, "bike_id": "9b389e52f5f9d22c3d777e8bca15fb66", "fusion_lat": 0.0, "is_reserved": 0, "lon": -77.00534116666667}, {"type": "electric_bike", "name": "efd98b846e59a1b4a4e90d4fbfbaeecb", "rental_uris": {"ios": "https://dc.lft.to/lastmile_qr_scan", "android": "https://dc.lft.to/lastmile_qr_scan"}, "fusion_lon": 0.0, "lat": 38.85649083333333, "is_disabled": 0, "bike_id": "efd98b846e59a1b4a4e90d4fbfbaeecb", "fusion_lat": 0.0, "is_reserved": 0, "lon": -77.0852605}, {"type": "electric_scooter", "name": "f6db358a1f3e1cb0b78a24b81e4a76b4", "rental_uris": {"ios": "https://dc.lft.to/lastmile_qr_scan", "android": "https://dc.lft.to/lastmile_qr_scan"}, "fusion_lon": 0.0, "lat": 38.888148666666666, "is_disabled": 0, "bike_id": "f6db358a1f3e1cb0b78a24b81e4a76b4", "fusion_lat": 0.0, "is_reserved": 0, "lon": -76.983616}, {"type": "electric_scooter", "name": "124b9500596987666765a1bc83c2dba2", "rental_uris": {"ios": "https://dc.lft.to/lastmile_qr_scan", "android": "https://dc.lft.to/lastmile_qr_scan"}, "fusion_lon": 0.0, "lat": 38.897024333333334, "is_disabled": 0, "bike_id": "124b9500596987666765a1bc83c2dba2", "fusion_lat": 0.0, "is_reserved": 0, "lon": -77.01605616666667}, {"type": "electric_scooter", "name": "d3e4a4033e884c1480320c04179919a6", "rental_uris": {"ios": "https://dc.lft.to/lastmile_qr_scan", "android": "https://dc.lft.to/lastmile_qr_scan"}, "fusion_lon": 0.0, "lat": 38.905333, "is_disabled": 0, "bike_id": "d3e4a4033e884c1480320c04179919a6", "fusion_lat": 0.0, "is_reserved": 0, "lon": -77.0268895}, {"type": "electric_scooter", "name": "2acf600292e7a460fada130e5cf3fe6c", "rental_uris": {"ios": "https://dc.lft.to/lastmile_qr_scan", "android": "https://dc.lft.to/lastmile_qr_scan"}, "fusion_lon": 0.0, "lat": 38.90740366666667, "is_disabled": 0, "bike_id": "2acf600292e7a460fada130e5cf3fe6c", "fusion_lat": 0.0, "is_reserved": 0, "lon": -77.02691933333334}, {"type": "electric_scooter", "name": "33eedad761754c10f522a3e4ac55656e", "rental_uris": {"ios": "https://dc.lft.to/lastmile_qr_scan", "android": "https://dc.lft.to/lastmile_qr_scan"}, "fusion_lon": 0.0, "lat": 38.88260016666667, "is_disabled": 0, "bike_id": "33eedad761754c10f522a3e4ac55656e", "fusion_lat": 0.0, "is_reserved": 0, "lon": -76.92669783333334}, {"type": "electric_scooter", "name": "bdde25db7d70d76affc5f28fc62630a1", "rental_uris": {"ios": "https://dc.lft.to/lastmile_qr_scan", "android": "https://dc.lft.to/lastmile_qr_scan"}, "fusion_lon": 0.0, "lat": 38.9071555, "is_disabled": 0, "bike_id": "bdde25db7d70d76affc5f28fc62630a1", "fusion_lat": 0.0, "is_reserved": 0, "lon": -77.00585816666667}, {"type": "electric_scooter", "name": "be4dd1b46b11162f8a8a328af37b94b2", "rental_uris": {"ios": "https://dc.lft.to/lastmile_qr_scan", "android": "https://dc.lft.to/lastmile_qr_scan"}, "fusion_lon": 0.0, "lat": 38.9433305, "is_disabled": 0, "bike_id": "be4dd1b46b11162f8a8a328af37b94b2", "fusion_lat": 0.0, "is_reserved": 0, "lon": -77.0268795}, {"type": "electric_scooter", "name": "a71a96a1486550e454db154920aadcfe", "rental_uris": {"ios": "https://dc.lft.to/lastmile_qr_scan", "android": "https://dc.lft.to/lastmile_qr_scan"}, "fusion_lon": 0.0, "lat": 38.9000425, "is_disabled": 0, "bike_id": "a71a96a1486550e454db154920aadcfe", "fusion_lat": 0.0, "is_reserved": 0, "lon": -77.07138266666666}, {"type": "electric_scooter", "name": "aed9dea38afd296749e8446a2cd4ff66", "rental_uris": {"ios": "https://dc.lft.to/lastmile_qr_scan", "android": "https://dc.lft.to/lastmile_qr_scan"}, "fusion_lon": 0.0, "lat": 38.896338166666666, "is_disabled": 0, "bike_id": "aed9dea38afd296749e8446a2cd4ff66", "fusion_lat": 0.0, "is_reserved": 0, "lon": -77.033232}, {"type": "electric_scooter", "name": "82c8b21454bf295f2dfcd5f60532b5f1", "rental_uris": {"ios": "https://dc.lft.to/lastmile_qr_scan", "android": "https://dc.lft.to/lastmile_qr_scan"}, "fusion_lon": 0.0, "lat": 38.908344666666665, "is_disabled": 0, "bike_id": "82c8b21454bf295f2dfcd5f60532b5f1", "fusion_lat": 0.0, "is_reserved": 0, "lon": -77.0434185}, {"type": "electric_scooter", "name": "e67397ef92e912a1ccab0cc27d345b50", "rental_uris": {"ios": "https://dc.lft.to/lastmile_qr_scan", "android": "https://dc.lft.to/lastmile_qr_scan"}, "fusion_lon": 0.0, "lat": 38.910891166666666, "is_disabled": 0, "bike_id": "e67397ef92e912a1ccab0cc27d345b50", "fusion_lat": 0.0, "is_reserved": 0, "lon": -77.01628766666667}, {"type": "electric_scooter", "name": "ff13c0c0e2add474977282355db152ed", "rental_uris": {"ios": "https://dc.lft.to/lastmile_qr_scan", "android": "https://dc.lft.to/lastmile_qr_scan"}, "fusion_lon": 0.0, "lat": 38.926142166666665, "is_disabled": 0, "bike_id": "ff13c0c0e2add474977282355db152ed", "fusion_lat": 0.0, "is_reserved": 0, "lon": -77.02158483333334}, {"type": "electric_scooter", "name": "dca7a72702760e36641da91b0baa5c09", "rental_uris": {"ios": "https://dc.lft.to/lastmile_qr_scan", "android": "https://dc.lft.to/lastmile_qr_scan"}, "fusion_lon": 0.0, "lat": 38.93875516666667, "is_disabled": 0, "bike_id": "dca7a72702760e36641da91b0baa5c09", "fusion_lat": 0.0, "is_reserved": 0, "lon": -77.03087083333334}, {"type": "electric_scooter", "name": "977839565702cadf6d0a21d1a2466cfe", "rental_uris": {"ios": "https://dc.lft.to/lastmile_qr_scan", "android": "https://dc.lft.to/lastmile_qr_scan"}, "fusion_lon": 0.0, "lat": 38.930569, "is_disabled": 0, "bike_id": "977839565702cadf6d0a21d1a2466cfe", "fusion_lat": 0.0, "is_reserved": 0, "lon": -77.03218116666666}, {"type": "electric_scooter", "name": "89e2a3de621652823394237abef05ce5", "rental_uris": {"ios": "https://dc.lft.to/lastmile_qr_scan", "android": "https://dc.lft.to/lastmile_qr_scan"}, "fusion_lon": 0.0, "lat": 38.92266033333333, "is_disabled": 0, "bike_id": "89e2a3de621652823394237abef05ce5", "fusion_lat": 0.0, "is_reserved": 0, "lon": -77.03392966666667}, {"type": "electric_scooter", "name": "3da7f0d360e972a8429a824426f89581", "rental_uris": {"ios": "https://dc.lft.to/lastmile_qr_scan", "android": "https://dc.lft.to/lastmile_qr_scan"}, "fusion_lon": 0.0, "lat": 38.93196533333333, "is_disabled": 0, "bike_id": "3da7f0d360e972a8429a824426f89581", "fusion_lat": 0.0, "is_reserved": 0, "lon": -77.02354383333333}, {"type": "electric_scooter", "name": "e8321fcf3cc919eb2c1dc9a97eb8889f", "rental_uris": {"ios": "https://dc.lft.to/lastmile_qr_scan", "android": "https://dc.lft.to/lastmile_qr_scan"}, "fusion_lon": 0.0, "lat": 38.899872333333334, "is_disabled": 0, "bike_id": "e8321fcf3cc919eb2c1dc9a97eb8889f", "fusion_lat": 0.0, "is_reserved": 0, "lon": -77.00911966666666}, {"type": "electric_scooter", "name": "180b017a5945c669a596d48ea40c6038", "rental_uris": {"ios": "https://dc.lft.to/lastmile_qr_scan", "android": "https://dc.lft.to/lastmile_qr_scan"}, "fusion_lon": 0.0, "lat": 38.890576833333334, "is_disabled": 0, "bike_id": "180b017a5945c669a596d48ea40c6038", "fusion_lat": 0.0, "is_reserved": 0, "lon": -76.94453533333333}, {"type": "electric_scooter", "name": "58da967069ff86cf8df841455f843119", "rental_uris": {"ios": "https://dc.lft.to/lastmile_qr_scan", "android": "https://dc.lft.to/lastmile_qr_scan"}, "fusion_lon": 0.0, "lat": 38.90959483333334, "is_disabled": 0, "bike_id": "58da967069ff86cf8df841455f843119", "fusion_lat": 0.0, "is_reserved": 0, "lon": -77.022769}, {"type": "electric_scooter", "name": "dceeaa65137dab4eaba7c8ee6f5b3092", "rental_uris": {"ios": "https://dc.lft.to/lastmile_qr_scan", "android": "https://dc.lft.to/lastmile_qr_scan"}, "fusion_lon": 0.0, "lat": 38.921626, "is_disabled": 0, "bike_id": "dceeaa65137dab4eaba7c8ee6f5b3092", "fusion_lat": 0.0, "is_reserved": 0, "lon": -77.03328366666666}, {"type": "electric_scooter", "name": "aab6408f34c62ef55e22dac11d2bf535", "rental_uris": {"ios": "https://dc.lft.to/lastmile_qr_scan", "android": "https://dc.lft.to/lastmile_qr_scan"}, "fusion_lon": 0.0, "lat": 38.86682833333333, "is_disabled": 0, "bike_id": "aab6408f34c62ef55e22dac11d2bf535", "fusion_lat": 0.0, "is_reserved": 0, "lon": -76.98563833333333}, {"type": "electric_scooter", "name": "f330e7cfd293d88ffb0dbd6bd12ee3db", "rental_uris": {"ios": "https://dc.lft.to/lastmile_qr_scan", "android": "https://dc.lft.to/lastmile_qr_scan"}, "fusion_lon": 0.0, "lat": 38.90579016666667, "is_disabled": 0, "bike_id": "f330e7cfd293d88ffb0dbd6bd12ee3db", "fusion_lat": 0.0, "is_reserved": 0, "lon": -77.02208383333334}, {"type": "electric_scooter", "name": "7c98b63d12300fbbb50bb488a9f4820c", "rental_uris": {"ios": "https://dc.lft.to/lastmile_qr_scan", "android": "https://dc.lft.to/lastmile_qr_scan"}, "fusion_lon": 0.0, "lat": 38.94272483333334, "is_disabled": 0, "bike_id": "7c98b63d12300fbbb50bb488a9f4820c", "fusion_lat": 0.0, "is_reserved": 0, "lon": -77.03257483333333}, {"type": "electric_scooter", "name": "2944237ffd8d48f60e04ed9ca1f1caf9", "rental_uris": {"ios": "https://dc.lft.to/lastmile_qr_scan", "android": "https://dc.lft.to/lastmile_qr_scan"}, "fusion_lon": 0.0, "lat": 38.9040995, "is_disabled": 0, "bike_id": "2944237ffd8d48f60e04ed9ca1f1caf9", "fusion_lat": 0.0, "is_reserved": 0, "lon": -76.97329733333333}, {"type": "electric_scooter", "name": "5f39976bcc53ef7dbf98c1eaa29a4aaa", "rental_uris": {"ios": "https://dc.lft.to/lastmile_qr_scan", "android": "https://dc.lft.to/lastmile_qr_scan"}, "fusion_lon": 0.0, "lat": 38.92070833333333, "is_disabled": 0, "bike_id": "5f39976bcc53ef7dbf98c1eaa29a4aaa", "fusion_lat": 0.0, "is_reserved": 0, "lon": -77.03797533333334}, {"type": "electric_bike", "name": "8c8645edf0adf198fd85411369caf6ab", "rental_uris": {"ios": "https://dc.lft.to/lastmile_qr_scan", "android": "https://dc.lft.to/lastmile_qr_scan"}, "fusion_lon": 0.0, "lat": 38.920738166666666, "is_disabled": 0, "bike_id": "8c8645edf0adf198fd85411369caf6ab", "fusion_lat": 0.0, "is_reserved": 0, "lon": -77.0240795}, {"type": "electric_scooter", "name": "485322db627aaa7766c7112f3ece8806", "rental_uris": {"ios": "https://dc.lft.to/lastmile_qr_scan", "android": "https://dc.lft.to/lastmile_qr_scan"}, "fusion_lon": 0.0, "lat": 38.87244483333333, "is_disabled": 0, "bike_id": "485322db627aaa7766c7112f3ece8806", "fusion_lat": 0.0, "is_reserved": 0, "lon": -76.97728416666666}, {"type": "electric_scooter", "name": "5d7c1c78081b4c03096ffaa5e45f98ab", "rental_uris": {"ios": "https://dc.lft.to/lastmile_qr_scan", "android": "https://dc.lft.to/lastmile_qr_scan"}, "fusion_lon": 0.0, "lat": 38.90526533333333, "is_disabled": 0, "bike_id": "5d7c1c78081b4c03096ffaa5e45f98ab", "fusion_lat": 0.0, "is_reserved": 0, "lon": -77.06310416666666}, {"type": "electric_scooter", "name": "171c5aa1901df2facf8bd4d3e9abe7e6", "rental_uris": {"ios": "https://dc.lft.to/lastmile_qr_scan", "android": "https://dc.lft.to/lastmile_qr_scan"}, "fusion_lon": 0.0, "lat": 38.88489033333333, "is_disabled": 0, "bike_id": "171c5aa1901df2facf8bd4d3e9abe7e6", "fusion_lat": 0.0, "is_reserved": 0, "lon": -77.007118}, {"type": "electric_bike", "name": "6d10049c31fd6951dbd97457e91933e2", "rental_uris": {"ios": "https://dc.lft.to/lastmile_qr_scan", "android": "https://dc.lft.to/lastmile_qr_scan"}, "fusion_lon": 0.0, "lat": 38.987688166666665, "is_disabled": 0, "bike_id": "6d10049c31fd6951dbd97457e91933e2", "fusion_lat": 0.0, "is_reserved": 0, "lon": -77.14053416666667}, {"type": "electric_scooter", "name": "7a32c2b451c862bb7783c000ec828bbe", "rental_uris": {"ios": "https://dc.lft.to/lastmile_qr_scan", "android": "https://dc.lft.to/lastmile_qr_scan"}, "fusion_lon": 0.0, "lat": 38.90247133333333, "is_disabled": 0, "bike_id": "7a32c2b451c862bb7783c000ec828bbe", "fusion_lat": 0.0, "is_reserved": 0, "lon": -77.03528916666667}, {"type": "electric_scooter", "name": "ded875584270c127d6bb8f054b8cdba3", "rental_uris": {"ios": "https://dc.lft.to/lastmile_qr_scan", "android": "https://dc.lft.to/lastmile_qr_scan"}, "fusion_lon": 0.0, "lat": 38.897326166666666, "is_disabled": 0, "bike_id": "ded875584270c127d6bb8f054b8cdba3", "fusion_lat": 0.0, "is_reserved": 0, "lon": -77.048511}, {"type": "electric_scooter", "name": "3cdf501f96ca76515e5762afc1f50528", "rental_uris": {"ios": "https://dc.lft.to/lastmile_qr_scan", "android": "https://dc.lft.to/lastmile_qr_scan"}, "fusion_lon": 0.0, "lat": 38.8981325, "is_disabled": 0, "bike_id": "3cdf501f96ca76515e5762afc1f50528", "fusion_lat": 0.0, "is_reserved": 0, "lon": -77.03320766666667}, {"type": "electric_bike", "name": "a403647f270da11eec8cea0a64b86390", "rental_uris": {"ios": "https://dc.lft.to/lastmile_qr_scan", "android": "https://dc.lft.to/lastmile_qr_scan"}, "fusion_lon": 0.0, "lat": 38.992263, "is_disabled": 0, "bike_id": "a403647f270da11eec8cea0a64b86390", "fusion_lat": 0.0, "is_reserved": 0, "lon": -76.94412233333334}, {"type": "electric_scooter", "name": "61bc2fbe89d657b0b5db10462bebfe8e", "rental_uris": {"ios": "https://dc.lft.to/lastmile_qr_scan", "android": "https://dc.lft.to/lastmile_qr_scan"}, "fusion_lon": 0.0, "lat": 38.9406815, "is_disabled": 0, "bike_id": "61bc2fbe89d657b0b5db10462bebfe8e", "fusion_lat": 0.0, "is_reserved": 0, "lon": -76.99939}, {"type": "electric_scooter", "name": "5de3b5d04e7a8d3ecd87d303419c5077", "rental_uris": {"ios": "https://dc.lft.to/lastmile_qr_scan", "android": "https://dc.lft.to/lastmile_qr_scan"}, "fusion_lon": 0.0, "lat": 38.91841183333333, "is_disabled": 0, "bike_id": "5de3b5d04e7a8d3ecd87d303419c5077", "fusion_lat": 0.0, "is_reserved": 0, "lon": -77.0401675}, {"type": "electric_bike", "name": "7e0a4ddd0786e7b6a29e5c5cb1b9b7dc", "rental_uris": {"ios": "https://dc.lft.to/lastmile_qr_scan", "android": "https://dc.lft.to/lastmile_qr_scan"}, "fusion_lon": 0.0, "lat": 38.925324333333336, "is_disabled": 0, "bike_id": "7e0a4ddd0786e7b6a29e5c5cb1b9b7dc", "fusion_lat": 0.0, "is_reserved": 0, "lon": -77.0789775}, {"type": "electric_scooter", "name": "b2f874646087d43b8e07905d2eb233f2", "rental_uris": {"ios": "https://dc.lft.to/lastmile_qr_scan", "android": "https://dc.lft.to/lastmile_qr_scan"}, "fusion_lon": 0.0, "lat": 38.90276566666667, "is_disabled": 0, "bike_id": "b2f874646087d43b8e07905d2eb233f2", "fusion_lat": 0.0, "is_reserved": 0, "lon": -77.039995}, {"type": "electric_bike", "name": "d1043a40731ebd31a0bda06f867825ff", "rental_uris": {"ios": "https://dc.lft.to/lastmile_qr_scan", "android": "https://dc.lft.to/lastmile_qr_scan"}, "fusion_lon": 0.0, "lat": 38.85515683333333, "is_disabled": 0, "bike_id": "d1043a40731ebd31a0bda06f867825ff", "fusion_lat": 0.0, "is_reserved": 0, "lon": -77.12034683333333}, {"type": "electric_scooter", "name": "8c182d90dcb391e5c79230503063b169", "rental_uris": {"ios": "https://dc.lft.to/lastmile_qr_scan", "android": "https://dc.lft.to/lastmile_qr_scan"}, "fusion_lon": 0.0, "lat": 38.9647205, "is_disabled": 0, "bike_id": "8c182d90dcb391e5c79230503063b169", "fusion_lat": 0.0, "is_reserved": 0, "lon": -77.01194266666667}, {"type": "electric_scooter", "name": "ee846ef51d05cbb8897e4c61ba5862e0", "rental_uris": {"ios": "https://dc.lft.to/lastmile_qr_scan", "android": "https://dc.lft.to/lastmile_qr_scan"}, "fusion_lon": 0.0, "lat": 38.89212416666667, "is_disabled": 0, "bike_id": "ee846ef51d05cbb8897e4c61ba5862e0", "fusion_lat": 0.0, "is_reserved": 0, "lon": -76.95696516666666}, {"type": "electric_bike", "name": "70150310efc3c90d84f19230b98002f4", "rental_uris": {"ios": "https://dc.lft.to/lastmile_qr_scan", "android": "https://dc.lft.to/lastmile_qr_scan"}, "fusion_lon": 0.0, "lat": 38.857850166666665, "is_disabled": 0, "bike_id": "70150310efc3c90d84f19230b98002f4", "fusion_lat": 0.0, "is_reserved": 0, "lon": -77.12020183333334}, {"type": "electric_scooter", "name": "5c392515202682da25ea1c3751a68940", "rental_uris": {"ios": "https://dc.lft.to/lastmile_qr_scan", "android": "https://dc.lft.to/lastmile_qr_scan"}, "fusion_lon": 0.0, "lat": 38.92047566666667, "is_disabled": 0, "bike_id": "5c392515202682da25ea1c3751a68940", "fusion_lat": 0.0, "is_reserved": 0, "lon": -77.02575466666667}, {"type": "electric_scooter", "name": "5b0db5edb0a2f67f8fb9fa9d872c2954", "rental_uris": {"ios": "https://dc.lft.to/lastmile_qr_scan", "android": "https://dc.lft.to/lastmile_qr_scan"}, "fusion_lon": 0.0, "lat": 38.89523616666666, "is_disabled": 0, "bike_id": "5b0db5edb0a2f67f8fb9fa9d872c2954", "fusion_lat": 0.0, "is_reserved": 0, "lon": -77.02602483333334}, {"type": "electric_scooter", "name": "49163210730bc68e96c71ada2a8d4a00", "rental_uris": {"ios": "https://dc.lft.to/lastmile_qr_scan", "android": "https://dc.lft.to/lastmile_qr_scan"}, "fusion_lon": 0.0, "lat": 38.9104155, "is_disabled": 0, "bike_id": "49163210730bc68e96c71ada2a8d4a00", "fusion_lat": 0.0, "is_reserved": 0, "lon": -77.03372666666667}, {"type": "electric_scooter", "name": "57395c4c3076da5376362a0b7f56973b", "rental_uris": {"ios": "https://dc.lft.to/lastmile_qr_scan", "android": "https://dc.lft.to/lastmile_qr_scan"}, "fusion_lon": 0.0, "lat": 38.8763115, "is_disabled": 0, "bike_id": "57395c4c3076da5376362a0b7f56973b", "fusion_lat": 0.0, "is_reserved": 0, "lon": -77.005903}, {"type": "electric_scooter", "name": "e8ad5fb3f8beaf83835e935f37e3da70", "rental_uris": {"ios": "https://dc.lft.to/lastmile_qr_scan", "android": "https://dc.lft.to/lastmile_qr_scan"}, "fusion_lon": 0.0, "lat": 38.916694666666665, "is_disabled": 0, "bike_id": "e8ad5fb3f8beaf83835e935f37e3da70", "fusion_lat": 0.0, "is_reserved": 0, "lon": -77.02715833333333}, {"type": "electric_scooter", "name": "b54bd6e77433307458ed9f80f13d5794", "rental_uris": {"ios": "https://dc.lft.to/lastmile_qr_scan", "android": "https://dc.lft.to/lastmile_qr_scan"}, "fusion_lon": 0.0, "lat": 38.922734166666665, "is_disabled": 0, "bike_id": "b54bd6e77433307458ed9f80f13d5794", "fusion_lat": 0.0, "is_reserved": 0, "lon": -77.02957983333333}, {"type": "electric_scooter", "name": "cf99d7f38dce969e43e2b70748c7b732", "rental_uris": {"ios": "https://dc.lft.to/lastmile_qr_scan", "android": "https://dc.lft.to/lastmile_qr_scan"}, "fusion_lon": 0.0, "lat": 38.89874533333333, "is_disabled": 0, "bike_id": "cf99d7f38dce969e43e2b70748c7b732", "fusion_lat": 0.0, "is_reserved": 0, "lon": -76.9318895}, {"type": "electric_scooter", "name": "06b334c42c5d566ae4a7763e02b1e85a", "rental_uris": {"ios": "https://dc.lft.to/lastmile_qr_scan", "android": "https://dc.lft.to/lastmile_qr_scan"}, "fusion_lon": 0.0, "lat": 38.924895166666666, "is_disabled": 0, "bike_id": "06b334c42c5d566ae4a7763e02b1e85a", "fusion_lat": 0.0, "is_reserved": 0, "lon": -77.02664883333334}, {"type": "electric_scooter", "name": "70f724a52fb0f026b82e8950cb382e3c", "rental_uris": {"ios": "https://dc.lft.to/lastmile_qr_scan", "android": "https://dc.lft.to/lastmile_qr_scan"}, "fusion_lon": 0.0, "lat": 38.90572983333333, "is_disabled": 0, "bike_id": "70f724a52fb0f026b82e8950cb382e3c", "fusion_lat": 0.0, "is_reserved": 0, "lon": -77.02415266666667}, {"type": "electric_scooter", "name": "fa3749b876bdc38fe7c3582294e97208", "rental_uris": {"ios": "https://dc.lft.to/lastmile_qr_scan", "android": "https://dc.lft.to/lastmile_qr_scan"}, "fusion_lon": 0.0, "lat": 38.902029166666665, "is_disabled": 0, "bike_id": "fa3749b876bdc38fe7c3582294e97208", "fusion_lat": 0.0, "is_reserved": 0, "lon": -77.02374183333333}, {"type": "electric_scooter", "name": "4c7453d6a96282f3810eddc5481b08d5", "rental_uris": {"ios": "https://dc.lft.to/lastmile_qr_scan", "android": "https://dc.lft.to/lastmile_qr_scan"}, "fusion_lon": 0.0, "lat": 38.88505683333333, "is_disabled": 0, "bike_id": "4c7453d6a96282f3810eddc5481b08d5", "fusion_lat": 0.0, "is_reserved": 0, "lon": -77.006985}, {"type": "electric_scooter", "name": "8c37daf8191f5bf71c7ba92eecc17bc0", "rental_uris": {"ios": "https://dc.lft.to/lastmile_qr_scan", "android": "https://dc.lft.to/lastmile_qr_scan"}, "fusion_lon": 0.0, "lat": 38.8655905, "is_disabled": 0, "bike_id": "8c37daf8191f5bf71c7ba92eecc17bc0", "fusion_lat": 0.0, "is_reserved": 0, "lon": -76.98349066666667}, {"type": "electric_scooter", "name": "efbe09bd47a2f0aa677d269171f46462", "rental_uris": {"ios": "https://dc.lft.to/lastmile_qr_scan", "android": "https://dc.lft.to/lastmile_qr_scan"}, "fusion_lon": 0.0, "lat": 38.925647, "is_disabled": 0, "bike_id": "efbe09bd47a2f0aa677d269171f46462", "fusion_lat": 0.0, "is_reserved": 0, "lon": -77.02713433333334}, {"type": "electric_scooter", "name": "0aa13aac642049ee272687bae5151c14", "rental_uris": {"ios": "https://dc.lft.to/lastmile_qr_scan", "android": "https://dc.lft.to/lastmile_qr_scan"}, "fusion_lon": 0.0, "lat": 38.898754333333336, "is_disabled": 0, "bike_id": "0aa13aac642049ee272687bae5151c14", "fusion_lat": 0.0, "is_reserved": 0, "lon": -76.93185216666667}, {"type": "electric_scooter", "name": "00ee87e6513294e6f330cc6ea87163a1", "rental_uris": {"ios": "https://dc.lft.to/lastmile_qr_scan", "android": "https://dc.lft.to/lastmile_qr_scan"}, "fusion_lon": 0.0, "lat": 38.8740485, "is_disabled": 0, "bike_id": "00ee87e6513294e6f330cc6ea87163a1", "fusion_lat": 0.0, "is_reserved": 0, "lon": -77.0020325}, {"type": "electric_scooter", "name": "4bd74414452aa13bd1eae08c5ea440e2", "rental_uris": {"ios": "https://dc.lft.to/lastmile_qr_scan", "android": "https://dc.lft.to/lastmile_qr_scan"}, "fusion_lon": 0.0, "lat": 38.92058316666667, "is_disabled": 0, "bike_id": "4bd74414452aa13bd1eae08c5ea440e2", "fusion_lat": 0.0, "is_reserved": 0, "lon": -77.02535966666666}, {"type": "electric_scooter", "name": "eb2cc865a25803fd4dae4a3344fef833", "rental_uris": {"ios": "https://dc.lft.to/lastmile_qr_scan", "android": "https://dc.lft.to/lastmile_qr_scan"}, "fusion_lon": 0.0, "lat": 38.909823833333334, "is_disabled": 0, "bike_id": "eb2cc865a25803fd4dae4a3344fef833", "fusion_lat": 0.0, "is_reserved": 0, "lon": -77.064974}, {"type": "electric_scooter", "name": "3f0b3ea2772ed1631f6fe9a8653cf06b", "rental_uris": {"ios": "https://dc.lft.to/lastmile_qr_scan", "android": "https://dc.lft.to/lastmile_qr_scan"}, "fusion_lon": 0.0, "lat": 38.90013533333333, "is_disabled": 0, "bike_id": "3f0b3ea2772ed1631f6fe9a8653cf06b", "fusion_lat": 0.0, "is_reserved": 0, "lon": -76.98849783333333}, {"type": "electric_scooter", "name": "4a97dcb82a34b0a581c7311259f5baf1", "rental_uris": {"ios": "https://dc.lft.to/lastmile_qr_scan", "android": "https://dc.lft.to/lastmile_qr_scan"}, "fusion_lon": 0.0, "lat": 38.883251, "is_disabled": 0, "bike_id": "4a97dcb82a34b0a581c7311259f5baf1", "fusion_lat": 0.0, "is_reserved": 0, "lon": -77.017401}, {"type": "electric_scooter", "name": "6d677b89427bca72023e68bfc84540d0", "rental_uris": {"ios": "https://dc.lft.to/lastmile_qr_scan", "android": "https://dc.lft.to/lastmile_qr_scan"}, "fusion_lon": 0.0, "lat": 38.904720166666664, "is_disabled": 0, "bike_id": "6d677b89427bca72023e68bfc84540d0", "fusion_lat": 0.0, "is_reserved": 0, "lon": -77.03481216666667}, {"type": "electric_scooter", "name": "195d1fe0ca984807604d8d50361c739e", "rental_uris": {"ios": "https://dc.lft.to/lastmile_qr_scan", "android": "https://dc.lft.to/lastmile_qr_scan"}, "fusion_lon": 0.0, "lat": 38.91905783333333, "is_disabled": 0, "bike_id": "195d1fe0ca984807604d8d50361c739e", "fusion_lat": 0.0, "is_reserved": 0, "lon": -77.04108716666667}, {"type": "electric_bike", "name": "b5eb9f53da79760b895567ac90c64375", "rental_uris": {"ios": "https://dc.lft.to/lastmile_qr_scan", "android": "https://dc.lft.to/lastmile_qr_scan"}, "fusion_lon": 0.0, "lat": 39.052532666666664, "is_disabled": 0, "bike_id": "b5eb9f53da79760b895567ac90c64375", "fusion_lat": 0.0, "is_reserved": 0, "lon": -77.08068316666666}, {"type": "electric_scooter", "name": "23b97abf530f0464971000c8fd7a83ab", "rental_uris": {"ios": "https://dc.lft.to/lastmile_qr_scan", "android": "https://dc.lft.to/lastmile_qr_scan"}, "fusion_lon": 0.0, "lat": 38.905008333333335, "is_disabled": 0, "bike_id": "23b97abf530f0464971000c8fd7a83ab", "fusion_lat": 0.0, "is_reserved": 0, "lon": -77.02953083333334}, {"type": "electric_scooter", "name": "27357ec08636e0e9cdcc7f1e4a456c2e", "rental_uris": {"ios": "https://dc.lft.to/lastmile_qr_scan", "android": "https://dc.lft.to/lastmile_qr_scan"}, "fusion_lon": 0.0, "lat": 38.896202833333334, "is_disabled": 0, "bike_id": "27357ec08636e0e9cdcc7f1e4a456c2e", "fusion_lat": 0.0, "is_reserved": 0, "lon": -77.00924933333333}, {"type": "electric_scooter", "name": "2525222828c18ee60473961d44c0eb85", "rental_uris": {"ios": "https://dc.lft.to/lastmile_qr_scan", "android": "https://dc.lft.to/lastmile_qr_scan"}, "fusion_lon": 0.0, "lat": 38.939132666666666, "is_disabled": 0, "bike_id": "2525222828c18ee60473961d44c0eb85", "fusion_lat": 0.0, "is_reserved": 0, "lon": -77.03628666666667}, {"type": "electric_scooter", "name": "591a847fce17b0f02f2ab8f1b8dc75b1", "rental_uris": {"ios": "https://dc.lft.to/lastmile_qr_scan", "android": "https://dc.lft.to/lastmile_qr_scan"}, "fusion_lon": 0.0, "lat": 38.87378183333333, "is_disabled": 0, "bike_id": "591a847fce17b0f02f2ab8f1b8dc75b1", "fusion_lat": 0.0, "is_reserved": 0, "lon": -76.97008416666667}, {"type": "electric_scooter", "name": "fe05bd924d671f957fbcbf06f007459b", "rental_uris": {"ios": "https://dc.lft.to/lastmile_qr_scan", "android": "https://dc.lft.to/lastmile_qr_scan"}, "fusion_lon": 0.0, "lat": 38.8831925, "is_disabled": 0, "bike_id": "fe05bd924d671f957fbcbf06f007459b", "fusion_lat": 0.0, "is_reserved": 0, "lon": -77.01763233333334}, {"type": "electric_scooter", "name": "c7e304b076d18f22f6020d804374aa81", "rental_uris": {"ios": "https://dc.lft.to/lastmile_qr_scan", "android": "https://dc.lft.to/lastmile_qr_scan"}, "fusion_lon": 0.0, "lat": 38.93438316666666, "is_disabled": 0, "bike_id": "c7e304b076d18f22f6020d804374aa81", "fusion_lat": 0.0, "is_reserved": 0, "lon": -77.0346415}, {"type": "electric_scooter", "name": "50027f3298fba646ecd2086c8d8d5267", "rental_uris": {"ios": "https://dc.lft.to/lastmile_qr_scan", "android": "https://dc.lft.to/lastmile_qr_scan"}, "fusion_lon": 0.0, "lat": 38.923643166666665, "is_disabled": 0, "bike_id": "50027f3298fba646ecd2086c8d8d5267", "fusion_lat": 0.0, "is_reserved": 0, "lon": -77.050299}, {"type": "electric_scooter", "name": "8e6c3e5080b2326e7c7d773730f804af", "rental_uris": {"ios": "https://dc.lft.to/lastmile_qr_scan", "android": "https://dc.lft.to/lastmile_qr_scan"}, "fusion_lon": 0.0, "lat": 38.893458833333334, "is_disabled": 0, "bike_id": "8e6c3e5080b2326e7c7d773730f804af", "fusion_lat": 0.0, "is_reserved": 0, "lon": -77.01192733333333}, {"type": "electric_scooter", "name": "e677fffb7fdfdf75b0b3c504b22c7153", "rental_uris": {"ios": "https://dc.lft.to/lastmile_qr_scan", "android": "https://dc.lft.to/lastmile_qr_scan"}, "fusion_lon": 0.0, "lat": 38.91697216666667, "is_disabled": 0, "bike_id": "e677fffb7fdfdf75b0b3c504b22c7153", "fusion_lat": 0.0, "is_reserved": 0, "lon": -77.03051233333333}, {"type": "electric_scooter", "name": "8e5845c3f4fad2077535294857602a0c", "rental_uris": {"ios": "https://dc.lft.to/lastmile_qr_scan", "android": "https://dc.lft.to/lastmile_qr_scan"}, "fusion_lon": 0.0, "lat": 38.919146, "is_disabled": 0, "bike_id": "8e5845c3f4fad2077535294857602a0c", "fusion_lat": 0.0, "is_reserved": 0, "lon": -77.04457783333334}, {"type": "electric_bike", "name": "3ee713a96fc392accb4f94e20335a3c6", "rental_uris": {"ios": "https://dc.lft.to/lastmile_qr_scan", "android": "https://dc.lft.to/lastmile_qr_scan"}, "fusion_lon": 0.0, "lat": 38.94818466666667, "is_disabled": 0, "bike_id": "3ee713a96fc392accb4f94e20335a3c6", "fusion_lat": 0.0, "is_reserved": 0, "lon": -77.029793}, {"type": "electric_scooter", "name": "3193e19c5120eef6ec8cde2206284a37", "rental_uris": {"ios": "https://dc.lft.to/lastmile_qr_scan", "android": "https://dc.lft.to/lastmile_qr_scan"}, "fusion_lon": 0.0, "lat": 38.89920383333333, "is_disabled": 0, "bike_id": "3193e19c5120eef6ec8cde2206284a37", "fusion_lat": 0.0, "is_reserved": 0, "lon": -76.98538166666667}, {"type": "electric_scooter", "name": "f843260469f07bdf4269de9c6dfc6077", "rental_uris": {"ios": "https://dc.lft.to/lastmile_qr_scan", "android": "https://dc.lft.to/lastmile_qr_scan"}, "fusion_lon": 0.0, "lat": 38.89707083333333, "is_disabled": 0, "bike_id": "f843260469f07bdf4269de9c6dfc6077", "fusion_lat": 0.0, "is_reserved": 0, "lon": -77.02289783333333}, {"type": "electric_scooter", "name": "f93e632bcab009a6301cdeed01818dc7", "rental_uris": {"ios": "https://dc.lft.to/lastmile_qr_scan", "android": "https://dc.lft.to/lastmile_qr_scan"}, "fusion_lon": 0.0, "lat": 38.855712, "is_disabled": 0, "bike_id": "f93e632bcab009a6301cdeed01818dc7", "fusion_lat": 0.0, "is_reserved": 0, "lon": -76.9664915}, {"type": "electric_scooter", "name": "8f186bfe6c823eeb00b1f33f578e251b", "rental_uris": {"ios": "https://dc.lft.to/lastmile_qr_scan", "android": "https://dc.lft.to/lastmile_qr_scan"}, "fusion_lon": 0.0, "lat": 38.92452683333333, "is_disabled": 0, "bike_id": "8f186bfe6c823eeb00b1f33f578e251b", "fusion_lat": 0.0, "is_reserved": 0, "lon": -77.021527}, {"type": "electric_scooter", "name": "cadb39ad0291d32287459b13dbab768a", "rental_uris": {"ios": "https://dc.lft.to/lastmile_qr_scan", "android": "https://dc.lft.to/lastmile_qr_scan"}, "fusion_lon": 0.0, "lat": 38.92067016666667, "is_disabled": 0, "bike_id": "cadb39ad0291d32287459b13dbab768a", "fusion_lat": 0.0, "is_reserved": 0, "lon": -77.02367033333333}, {"type": "electric_scooter", "name": "1acd3d3faaf1ebc053d75ecec3f1cfe9", "rental_uris": {"ios": "https://dc.lft.to/lastmile_qr_scan", "android": "https://dc.lft.to/lastmile_qr_scan"}, "fusion_lon": 0.0, "lat": 38.9282515, "is_disabled": 0, "bike_id": "1acd3d3faaf1ebc053d75ecec3f1cfe9", "fusion_lat": 0.0, "is_reserved": 0, "lon": -77.05449466666667}, {"type": "electric_scooter", "name": "f90bda940fcbbdfa2e85cf604eaf267e", "rental_uris": {"ios": "https://dc.lft.to/lastmile_qr_scan", "android": "https://dc.lft.to/lastmile_qr_scan"}, "fusion_lon": 0.0, "lat": 38.94976583333333, "is_disabled": 0, "bike_id": "f90bda940fcbbdfa2e85cf604eaf267e", "fusion_lat": 0.0, "is_reserved": 0, "lon": -77.066093}, {"type": "electric_scooter", "name": "58dc5cec484fcb7bf6062fb511db8734", "rental_uris": {"ios": "https://dc.lft.to/lastmile_qr_scan", "android": "https://dc.lft.to/lastmile_qr_scan"}, "fusion_lon": 0.0, "lat": 38.89221416666667, "is_disabled": 0, "bike_id": "58dc5cec484fcb7bf6062fb511db8734", "fusion_lat": 0.0, "is_reserved": 0, "lon": -77.04373383333333}, {"type": "electric_scooter", "name": "6a62fa6dd2f3266072f347c65d5d1480", "rental_uris": {"ios": "https://dc.lft.to/lastmile_qr_scan", "android": "https://dc.lft.to/lastmile_qr_scan"}, "fusion_lon": 0.0, "lat": 38.93528216666667, "is_disabled": 0, "bike_id": "6a62fa6dd2f3266072f347c65d5d1480", "fusion_lat": 0.0, "is_reserved": 0, "lon": -77.023542}, {"type": "electric_scooter", "name": "56fe1eb9691ede36e5cb82b9f300a15e", "rental_uris": {"ios": "https://dc.lft.to/lastmile_qr_scan", "android": "https://dc.lft.to/lastmile_qr_scan"}, "fusion_lon": 0.0, "lat": 38.9023385, "is_disabled": 0, "bike_id": "56fe1eb9691ede36e5cb82b9f300a15e", "fusion_lat": 0.0, "is_reserved": 0, "lon": -77.05326916666667}, {"type": "electric_scooter", "name": "65340517470210b482763fd7e8261f20", "rental_uris": {"ios": "https://dc.lft.to/lastmile_qr_scan", "android": "https://dc.lft.to/lastmile_qr_scan"}, "fusion_lon": 0.0, "lat": 38.9050375, "is_disabled": 0, "bike_id": "65340517470210b482763fd7e8261f20", "fusion_lat": 0.0, "is_reserved": 0, "lon": -77.02948733333334}, {"type": "electric_scooter", "name": "9cdbbf7cf34f7e0ef94bef41bcc0efc8", "rental_uris": {"ios": "https://dc.lft.to/lastmile_qr_scan", "android": "https://dc.lft.to/lastmile_qr_scan"}, "fusion_lon": 0.0, "lat": 38.9078665, "is_disabled": 0, "bike_id": "9cdbbf7cf34f7e0ef94bef41bcc0efc8", "fusion_lat": 0.0, "is_reserved": 0, "lon": -77.06452783333333}, {"type": "electric_bike", "name": "3c61324983bcfb8390172df9d71cb511", "rental_uris": {"ios": "https://dc.lft.to/lastmile_qr_scan", "android": "https://dc.lft.to/lastmile_qr_scan"}, "fusion_lon": 0.0, "lat": 38.8840335, "is_disabled": 0, "bike_id": "3c61324983bcfb8390172df9d71cb511", "fusion_lat": 0.0, "is_reserved": 0, "lon": -76.954195}, {"type": "electric_scooter", "name": "a1a85fb54449dec347902f2e0d7b1cd5", "rental_uris": {"ios": "https://dc.lft.to/lastmile_qr_scan", "android": "https://dc.lft.to/lastmile_qr_scan"}, "fusion_lon": 0.0, "lat": 38.901435166666666, "is_disabled": 0, "bike_id": "a1a85fb54449dec347902f2e0d7b1cd5", "fusion_lat": 0.0, "is_reserved": 0, "lon": -77.06074516666666}, {"type": "electric_scooter", "name": "5f4b91b5493cf2fd6f3cc509edee6706", "rental_uris": {"ios": "https://dc.lft.to/lastmile_qr_scan", "android": "https://dc.lft.to/lastmile_qr_scan"}, "fusion_lon": 0.0, "lat": 38.903664166666665, "is_disabled": 0, "bike_id": "5f4b91b5493cf2fd6f3cc509edee6706", "fusion_lat": 0.0, "is_reserved": 0, "lon": -77.03194566666667}, {"type": "electric_scooter", "name": "84085706953d35b49cec9601012d913b", "rental_uris": {"ios": "https://dc.lft.to/lastmile_qr_scan", "android": "https://dc.lft.to/lastmile_qr_scan"}, "fusion_lon": 0.0, "lat": 38.905753, "is_disabled": 0, "bike_id": "84085706953d35b49cec9601012d913b", "fusion_lat": 0.0, "is_reserved": 0, "lon": -77.003951}, {"type": "electric_scooter", "name": "998527c0cf4989d875083f3de7d87753", "rental_uris": {"ios": "https://dc.lft.to/lastmile_qr_scan", "android": "https://dc.lft.to/lastmile_qr_scan"}, "fusion_lon": 0.0, "lat": 38.919179666666665, "is_disabled": 0, "bike_id": "998527c0cf4989d875083f3de7d87753", "fusion_lat": 0.0, "is_reserved": 0, "lon": -77.03190583333334}, {"type": "electric_scooter", "name": "fcd17b119aa64ff5ef2c4525ffdce5fa", "rental_uris": {"ios": "https://dc.lft.to/lastmile_qr_scan", "android": "https://dc.lft.to/lastmile_qr_scan"}, "fusion_lon": 0.0, "lat": 38.877965333333336, "is_disabled": 0, "bike_id": "fcd17b119aa64ff5ef2c4525ffdce5fa", "fusion_lat": 0.0, "is_reserved": 0, "lon": -77.00129566666666}, {"type": "electric_scooter", "name": "3d62d351aad1ac39e731ef23800d4ff4", "rental_uris": {"ios": "https://dc.lft.to/lastmile_qr_scan", "android": "https://dc.lft.to/lastmile_qr_scan"}, "fusion_lon": 0.0, "lat": 38.90680616666667, "is_disabled": 0, "bike_id": "3d62d351aad1ac39e731ef23800d4ff4", "fusion_lat": 0.0, "is_reserved": 0, "lon": -77.07188316666667}, {"type": "electric_scooter", "name": "e80d34c3e8e57f195cc58c23fb82ee12", "rental_uris": {"ios": "https://dc.lft.to/lastmile_qr_scan", "android": "https://dc.lft.to/lastmile_qr_scan"}, "fusion_lon": 0.0, "lat": 38.91457883333333, "is_disabled": 0, "bike_id": "e80d34c3e8e57f195cc58c23fb82ee12", "fusion_lat": 0.0, "is_reserved": 0, "lon": -77.04635}, {"type": "electric_scooter", "name": "2ab5cc194eca5e34cef83cab36fd6547", "rental_uris": {"ios": "https://dc.lft.to/lastmile_qr_scan", "android": "https://dc.lft.to/lastmile_qr_scan"}, "fusion_lon": 0.0, "lat": 38.9084915, "is_disabled": 0, "bike_id": "2ab5cc194eca5e34cef83cab36fd6547", "fusion_lat": 0.0, "is_reserved": 0, "lon": -76.9980685}, {"type": "electric_scooter", "name": "eaf4e960b2602a13433d2102be8f276f", "rental_uris": {"ios": "https://dc.lft.to/lastmile_qr_scan", "android": "https://dc.lft.to/lastmile_qr_scan"}, "fusion_lon": 0.0, "lat": 38.91309833333333, "is_disabled": 0, "bike_id": "eaf4e960b2602a13433d2102be8f276f", "fusion_lat": 0.0, "is_reserved": 0, "lon": -77.03201516666667}, {"type": "electric_bike", "name": "56d4e743f49c0e9c3e773454faaa3bad", "rental_uris": {"ios": "https://dc.lft.to/lastmile_qr_scan", "android": "https://dc.lft.to/lastmile_qr_scan"}, "fusion_lon": 0.0, "lat": 38.95632666666667, "is_disabled": 0, "bike_id": "56d4e743f49c0e9c3e773454faaa3bad", "fusion_lat": 0.0, "is_reserved": 0, "lon": -77.0231865}, {"type": "electric_scooter", "name": "7b8e878557d521bd4933b0b860d002be", "rental_uris": {"ios": "https://dc.lft.to/lastmile_qr_scan", "android": "https://dc.lft.to/lastmile_qr_scan"}, "fusion_lon": 0.0, "lat": 38.88741016666667, "is_disabled": 0, "bike_id": "7b8e878557d521bd4933b0b860d002be", "fusion_lat": 0.0, "is_reserved": 0, "lon": -77.02127033333333}, {"type": "electric_scooter", "name": "3c564160d477f83ade599092ced2ce9b", "rental_uris": {"ios": "https://dc.lft.to/lastmile_qr_scan", "android": "https://dc.lft.to/lastmile_qr_scan"}, "fusion_lon": 0.0, "lat": 38.91715633333333, "is_disabled": 0, "bike_id": "3c564160d477f83ade599092ced2ce9b", "fusion_lat": 0.0, "is_reserved": 0, "lon": -77.00884766666667}, {"type": "electric_scooter", "name": "668b4a1eb6712a8d2c1d9f8c4613fd1e", "rental_uris": {"ios": "https://dc.lft.to/lastmile_qr_scan", "android": "https://dc.lft.to/lastmile_qr_scan"}, "fusion_lon": 0.0, "lat": 38.920837, "is_disabled": 0, "bike_id": "668b4a1eb6712a8d2c1d9f8c4613fd1e", "fusion_lat": 0.0, "is_reserved": 0, "lon": -77.0246515}, {"type": "electric_scooter", "name": "3a859a33f1ce487b5bfa6792e66dd770", "rental_uris": {"ios": "https://dc.lft.to/lastmile_qr_scan", "android": "https://dc.lft.to/lastmile_qr_scan"}, "fusion_lon": 0.0, "lat": 38.911120833333335, "is_disabled": 0, "bike_id": "3a859a33f1ce487b5bfa6792e66dd770", "fusion_lat": 0.0, "is_reserved": 0, "lon": -77.038315}, {"type": "electric_scooter", "name": "c6198bdf09662c51c7a7c3cf45d2dcbc", "rental_uris": {"ios": "https://dc.lft.to/lastmile_qr_scan", "android": "https://dc.lft.to/lastmile_qr_scan"}, "fusion_lon": 0.0, "lat": 38.9019415, "is_disabled": 0, "bike_id": "c6198bdf09662c51c7a7c3cf45d2dcbc", "fusion_lat": 0.0, "is_reserved": 0, "lon": -76.92902166666667}, {"type": "electric_scooter", "name": "0a2af1a4c923e031f752adb2d5381cf6", "rental_uris": {"ios": "https://dc.lft.to/lastmile_qr_scan", "android": "https://dc.lft.to/lastmile_qr_scan"}, "fusion_lon": 0.0, "lat": 38.907214833333335, "is_disabled": 0, "bike_id": "0a2af1a4c923e031f752adb2d5381cf6", "fusion_lat": 0.0, "is_reserved": 0, "lon": -77.02542766666667}, {"type": "electric_scooter", "name": "f7baa7eaeebb83ccaf3f7db7c12aa9ca", "rental_uris": {"ios": "https://dc.lft.to/lastmile_qr_scan", "android": "https://dc.lft.to/lastmile_qr_scan"}, "fusion_lon": 0.0, "lat": 38.8917875, "is_disabled": 0, "bike_id": "f7baa7eaeebb83ccaf3f7db7c12aa9ca", "fusion_lat": 0.0, "is_reserved": 0, "lon": -76.99948466666666}, {"type": "electric_scooter", "name": "348b7b9a56e7bf1dbb0b1893b91d62e8", "rental_uris": {"ios": "https://dc.lft.to/lastmile_qr_scan", "android": "https://dc.lft.to/lastmile_qr_scan"}, "fusion_lon": 0.0, "lat": 38.902393833333335, "is_disabled": 0, "bike_id": "348b7b9a56e7bf1dbb0b1893b91d62e8", "fusion_lat": 0.0, "is_reserved": 0, "lon": -77.00203166666667}, {"type": "electric_scooter", "name": "756586e31045f05765694a193a7817c5", "rental_uris": {"ios": "https://dc.lft.to/lastmile_qr_scan", "android": "https://dc.lft.to/lastmile_qr_scan"}, "fusion_lon": 0.0, "lat": 38.932044833333336, "is_disabled": 0, "bike_id": "756586e31045f05765694a193a7817c5", "fusion_lat": 0.0, "is_reserved": 0, "lon": -77.0366775}, {"type": "electric_bike", "name": "4fe4aa82188d92414a2ce8ae2dba91a7", "rental_uris": {"ios": "https://dc.lft.to/lastmile_qr_scan", "android": "https://dc.lft.to/lastmile_qr_scan"}, "fusion_lon": 0.0, "lat": 38.85509533333333, "is_disabled": 0, "bike_id": "4fe4aa82188d92414a2ce8ae2dba91a7", "fusion_lat": 0.0, "is_reserved": 0, "lon": -77.10542483333333}, {"type": "electric_scooter", "name": "64edfdbdece52dbc63d813604980b55c", "rental_uris": {"ios": "https://dc.lft.to/lastmile_qr_scan", "android": "https://dc.lft.to/lastmile_qr_scan"}, "fusion_lon": 0.0, "lat": 38.9282805, "is_disabled": 0, "bike_id": "64edfdbdece52dbc63d813604980b55c", "fusion_lat": 0.0, "is_reserved": 0, "lon": -77.05443866666667}, {"type": "electric_scooter", "name": "d9bb5f08629b3b8126b21b639bdbf4fd", "rental_uris": {"ios": "https://dc.lft.to/lastmile_qr_scan", "android": "https://dc.lft.to/lastmile_qr_scan"}, "fusion_lon": 0.0, "lat": 38.910088, "is_disabled": 0, "bike_id": "d9bb5f08629b3b8126b21b639bdbf4fd", "fusion_lat": 0.0, "is_reserved": 0, "lon": -77.02192933333333}, {"type": "electric_scooter", "name": "6f35573dd04dac1d4e5ea06b43c0ad51", "rental_uris": {"ios": "https://dc.lft.to/lastmile_qr_scan", "android": "https://dc.lft.to/lastmile_qr_scan"}, "fusion_lon": 0.0, "lat": 38.88634616666667, "is_disabled": 0, "bike_id": "6f35573dd04dac1d4e5ea06b43c0ad51", "fusion_lat": 0.0, "is_reserved": 0, "lon": -76.9258115}, {"type": "electric_scooter", "name": "1dbad0978a1c06a7dbdc5db2da7d9ce6", "rental_uris": {"ios": "https://dc.lft.to/lastmile_qr_scan", "android": "https://dc.lft.to/lastmile_qr_scan"}, "fusion_lon": 0.0, "lat": 38.892232, "is_disabled": 0, "bike_id": "1dbad0978a1c06a7dbdc5db2da7d9ce6", "fusion_lat": 0.0, "is_reserved": 0, "lon": -77.048078}, {"type": "electric_scooter", "name": "e3746fd44eb0a1e48541dca0d5c36a8d", "rental_uris": {"ios": "https://dc.lft.to/lastmile_qr_scan", "android": "https://dc.lft.to/lastmile_qr_scan"}, "fusion_lon": 0.0, "lat": 38.876103666666666, "is_disabled": 0, "bike_id": "e3746fd44eb0a1e48541dca0d5c36a8d", "fusion_lat": 0.0, "is_reserved": 0, "lon": -76.96566566666667}, {"type": "electric_scooter", "name": "c6fd8cec6f226cde015c4f0b3df2f388", "rental_uris": {"ios": "https://dc.lft.to/lastmile_qr_scan", "android": "https://dc.lft.to/lastmile_qr_scan"}, "fusion_lon": 0.0, "lat": 38.920499666666664, "is_disabled": 0, "bike_id": "c6fd8cec6f226cde015c4f0b3df2f388", "fusion_lat": 0.0, "is_reserved": 0, "lon": -77.0020365}, {"type": "electric_scooter", "name": "22dd311293fd4ee4ad40cb9356d2c31d", "rental_uris": {"ios": "https://dc.lft.to/lastmile_qr_scan", "android": "https://dc.lft.to/lastmile_qr_scan"}, "fusion_lon": 0.0, "lat": 38.90442933333333, "is_disabled": 0, "bike_id": "22dd311293fd4ee4ad40cb9356d2c31d", "fusion_lat": 0.0, "is_reserved": 0, "lon": -77.04357433333334}, {"type": "electric_scooter", "name": "842bce56903f4b867e2db277a7e82f0b", "rental_uris": {"ios": "https://dc.lft.to/lastmile_qr_scan", "android": "https://dc.lft.to/lastmile_qr_scan"}, "fusion_lon": 0.0, "lat": 38.891373, "is_disabled": 0, "bike_id": "842bce56903f4b867e2db277a7e82f0b", "fusion_lat": 0.0, "is_reserved": 0, "lon": -76.99090283333334}, {"type": "electric_bike", "name": "8a9b07d47d10348bf4c441cd221f17dd", "rental_uris": {"ios": "https://dc.lft.to/lastmile_qr_scan", "android": "https://dc.lft.to/lastmile_qr_scan"}, "fusion_lon": 0.0, "lat": 38.8552045, "is_disabled": 0, "bike_id": "8a9b07d47d10348bf4c441cd221f17dd", "fusion_lat": 0.0, "is_reserved": 0, "lon": -76.98431283333333}, {"type": "electric_bike", "name": "3e1f9d8a9daa163e1d04697905c8106d", "rental_uris": {"ios": "https://dc.lft.to/lastmile_qr_scan", "android": "https://dc.lft.to/lastmile_qr_scan"}, "fusion_lon": 0.0, "lat": 38.85320983333333, "is_disabled": 0, "bike_id": "3e1f9d8a9daa163e1d04697905c8106d", "fusion_lat": 0.0, "is_reserved": 0, "lon": -76.98004966666667}, {"type": "electric_scooter", "name": "49f0fb75c638354d1d51662e674cb1f7", "rental_uris": {"ios": "https://dc.lft.to/lastmile_qr_scan", "android": "https://dc.lft.to/lastmile_qr_scan"}, "fusion_lon": 0.0, "lat": 38.9063815, "is_disabled": 0, "bike_id": "49f0fb75c638354d1d51662e674cb1f7", "fusion_lat": 0.0, "is_reserved": 0, "lon": -77.04136133333333}, {"type": "electric_scooter", "name": "fc92c4cf00b00fa6eae0a1a3194d2f53", "rental_uris": {"ios": "https://dc.lft.to/lastmile_qr_scan", "android": "https://dc.lft.to/lastmile_qr_scan"}, "fusion_lon": 0.0, "lat": 38.91059933333333, "is_disabled": 0, "bike_id": "fc92c4cf00b00fa6eae0a1a3194d2f53", "fusion_lat": 0.0, "is_reserved": 0, "lon": -76.98522}, {"type": "electric_scooter", "name": "f70359b48d0e617e8988343014705de2", "rental_uris": {"ios": "https://dc.lft.to/lastmile_qr_scan", "android": "https://dc.lft.to/lastmile_qr_scan"}, "fusion_lon": 0.0, "lat": 38.918415833333334, "is_disabled": 0, "bike_id": "f70359b48d0e617e8988343014705de2", "fusion_lat": 0.0, "is_reserved": 0, "lon": -77.02290966666666}, {"type": "electric_scooter", "name": "ad19a813346cbf64d091c9123c0ad130", "rental_uris": {"ios": "https://dc.lft.to/lastmile_qr_scan", "android": "https://dc.lft.to/lastmile_qr_scan"}, "fusion_lon": 0.0, "lat": 38.908713666666664, "is_disabled": 0, "bike_id": "ad19a813346cbf64d091c9123c0ad130", "fusion_lat": 0.0, "is_reserved": 0, "lon": -77.04265666666667}, {"type": "electric_scooter", "name": "9a1b26c25026cacfd06dcdc295bfde9e", "rental_uris": {"ios": "https://dc.lft.to/lastmile_qr_scan", "android": "https://dc.lft.to/lastmile_qr_scan"}, "fusion_lon": 0.0, "lat": 38.93863566666667, "is_disabled": 0, "bike_id": "9a1b26c25026cacfd06dcdc295bfde9e", "fusion_lat": 0.0, "is_reserved": 0, "lon": -77.02632233333334}, {"type": "electric_scooter", "name": "b302c36a738c8f4e4be53817ddc2a26c", "rental_uris": {"ios": "https://dc.lft.to/lastmile_qr_scan", "android": "https://dc.lft.to/lastmile_qr_scan"}, "fusion_lon": 0.0, "lat": 38.939911, "is_disabled": 0, "bike_id": "b302c36a738c8f4e4be53817ddc2a26c", "fusion_lat": 0.0, "is_reserved": 0, "lon": -77.03269716666667}, {"type": "electric_bike", "name": "500bd79474b8c2cb1e46a15f9361cf75", "rental_uris": {"ios": "https://dc.lft.to/lastmile_qr_scan", "android": "https://dc.lft.to/lastmile_qr_scan"}, "fusion_lon": 0.0, "lat": 38.984615833333336, "is_disabled": 0, "bike_id": "500bd79474b8c2cb1e46a15f9361cf75", "fusion_lat": 0.0, "is_reserved": 0, "lon": -76.97056533333334}, {"type": "electric_scooter", "name": "68c204ea11190338b51e99f77dbdbcd0", "rental_uris": {"ios": "https://dc.lft.to/lastmile_qr_scan", "android": "https://dc.lft.to/lastmile_qr_scan"}, "fusion_lon": 0.0, "lat": 38.88771716666667, "is_disabled": 0, "bike_id": "68c204ea11190338b51e99f77dbdbcd0", "fusion_lat": 0.0, "is_reserved": 0, "lon": -76.977488}, {"type": "electric_scooter", "name": "7ceffb5ed1b52e3e5c0a511e485e7c9b", "rental_uris": {"ios": "https://dc.lft.to/lastmile_qr_scan", "android": "https://dc.lft.to/lastmile_qr_scan"}, "fusion_lon": 0.0, "lat": 38.9342525, "is_disabled": 0, "bike_id": "7ceffb5ed1b52e3e5c0a511e485e7c9b", "fusion_lat": 0.0, "is_reserved": 0, "lon": -77.04410166666666}, {"type": "electric_scooter", "name": "41b2b325f939e4b4513147f9261f5720", "rental_uris": {"ios": "https://dc.lft.to/lastmile_qr_scan", "android": "https://dc.lft.to/lastmile_qr_scan"}, "fusion_lon": 0.0, "lat": 38.907201666666666, "is_disabled": 0, "bike_id": "41b2b325f939e4b4513147f9261f5720", "fusion_lat": 0.0, "is_reserved": 0, "lon": -77.02951283333333}, {"type": "electric_scooter", "name": "17bbe1ef6c2cf8851bed74ea28d99a49", "rental_uris": {"ios": "https://dc.lft.to/lastmile_qr_scan", "android": "https://dc.lft.to/lastmile_qr_scan"}, "fusion_lon": 0.0, "lat": 38.896672833333334, "is_disabled": 0, "bike_id": "17bbe1ef6c2cf8851bed74ea28d99a49", "fusion_lat": 0.0, "is_reserved": 0, "lon": -77.05469866666667}, {"type": "electric_scooter", "name": "63c4859e7d4a646effcbcd88b714a421", "rental_uris": {"ios": "https://dc.lft.to/lastmile_qr_scan", "android": "https://dc.lft.to/lastmile_qr_scan"}, "fusion_lon": 0.0, "lat": 38.90003683333333, "is_disabled": 0, "bike_id": "63c4859e7d4a646effcbcd88b714a421", "fusion_lat": 0.0, "is_reserved": 0, "lon": -77.01030583333333}, {"type": "electric_scooter", "name": "e0e6a37b6c006871998baabca83d2299", "rental_uris": {"ios": "https://dc.lft.to/lastmile_qr_scan", "android": "https://dc.lft.to/lastmile_qr_scan"}, "fusion_lon": 0.0, "lat": 38.91115766666667, "is_disabled": 0, "bike_id": "e0e6a37b6c006871998baabca83d2299", "fusion_lat": 0.0, "is_reserved": 0, "lon": -77.00412866666667}, {"type": "electric_scooter", "name": "f05b875b1844163f21e7078e360c94e4", "rental_uris": {"ios": "https://dc.lft.to/lastmile_qr_scan", "android": "https://dc.lft.to/lastmile_qr_scan"}, "fusion_lon": 0.0, "lat": 38.90430883333333, "is_disabled": 0, "bike_id": "f05b875b1844163f21e7078e360c94e4", "fusion_lat": 0.0, "is_reserved": 0, "lon": -77.0530455}, {"type": "electric_scooter", "name": "a1810b0a8606b673b77391ca38a50738", "rental_uris": {"ios": "https://dc.lft.to/lastmile_qr_scan", "android": "https://dc.lft.to/lastmile_qr_scan"}, "fusion_lon": 0.0, "lat": 38.907911666666664, "is_disabled": 0, "bike_id": "a1810b0a8606b673b77391ca38a50738", "fusion_lat": 0.0, "is_reserved": 0, "lon": -76.99421516666666}, {"type": "electric_scooter", "name": "0c6e1529ecb6ba0d123b87ab2e5076fb", "rental_uris": {"ios": "https://dc.lft.to/lastmile_qr_scan", "android": "https://dc.lft.to/lastmile_qr_scan"}, "fusion_lon": 0.0, "lat": 38.9353515, "is_disabled": 0, "bike_id": "0c6e1529ecb6ba0d123b87ab2e5076fb", "fusion_lat": 0.0, "is_reserved": 0, "lon": -77.02354716666666}, {"type": "electric_scooter", "name": "3ffe5c9ca42299b5d2b2274f18983cf1", "rental_uris": {"ios": "https://dc.lft.to/lastmile_qr_scan", "android": "https://dc.lft.to/lastmile_qr_scan"}, "fusion_lon": 0.0, "lat": 38.895349333333336, "is_disabled": 0, "bike_id": "3ffe5c9ca42299b5d2b2274f18983cf1", "fusion_lat": 0.0, "is_reserved": 0, "lon": -76.9488565}, {"type": "electric_scooter", "name": "0226ed544246a7f7cbc8b4bb3e53abe0", "rental_uris": {"ios": "https://dc.lft.to/lastmile_qr_scan", "android": "https://dc.lft.to/lastmile_qr_scan"}, "fusion_lon": 0.0, "lat": 38.8981965, "is_disabled": 0, "bike_id": "0226ed544246a7f7cbc8b4bb3e53abe0", "fusion_lat": 0.0, "is_reserved": 0, "lon": -77.03319033333334}, {"type": "electric_scooter", "name": "b762c1d0f597c58bbef408eb8860028e", "rental_uris": {"ios": "https://dc.lft.to/lastmile_qr_scan", "android": "https://dc.lft.to/lastmile_qr_scan"}, "fusion_lon": 0.0, "lat": 38.90152966666667, "is_disabled": 0, "bike_id": "b762c1d0f597c58bbef408eb8860028e", "fusion_lat": 0.0, "is_reserved": 0, "lon": -76.99028783333333}, {"type": "electric_scooter", "name": "e01a31cb642207b56f062eb0ad6a0d7d", "rental_uris": {"ios": "https://dc.lft.to/lastmile_qr_scan", "android": "https://dc.lft.to/lastmile_qr_scan"}, "fusion_lon": 0.0, "lat": 38.923461333333336, "is_disabled": 0, "bike_id": "e01a31cb642207b56f062eb0ad6a0d7d", "fusion_lat": 0.0, "is_reserved": 0, "lon": -77.05243616666667}, {"type": "electric_scooter", "name": "1686c8f4adc780eb8947495998a20f45", "rental_uris": {"ios": "https://dc.lft.to/lastmile_qr_scan", "android": "https://dc.lft.to/lastmile_qr_scan"}, "fusion_lon": 0.0, "lat": 38.94300533333333, "is_disabled": 0, "bike_id": "1686c8f4adc780eb8947495998a20f45", "fusion_lat": 0.0, "is_reserved": 0, "lon": -77.02949316666667}, {"type": "electric_scooter", "name": "7934f8ac77bf38b5a1953a263fd2ed30", "rental_uris": {"ios": "https://dc.lft.to/lastmile_qr_scan", "android": "https://dc.lft.to/lastmile_qr_scan"}, "fusion_lon": 0.0, "lat": 38.92113716666667, "is_disabled": 0, "bike_id": "7934f8ac77bf38b5a1953a263fd2ed30", "fusion_lat": 0.0, "is_reserved": 0, "lon": -77.009164}, {"type": "electric_scooter", "name": "94d7252e8ab349a5edf1613ec85bbe69", "rental_uris": {"ios": "https://dc.lft.to/lastmile_qr_scan", "android": "https://dc.lft.to/lastmile_qr_scan"}, "fusion_lon": 0.0, "lat": 38.917750833333336, "is_disabled": 0, "bike_id": "94d7252e8ab349a5edf1613ec85bbe69", "fusion_lat": 0.0, "is_reserved": 0, "lon": -77.023162}, {"type": "electric_scooter", "name": "06e55921813d3a9e2dedf3877ffdf27c", "rental_uris": {"ios": "https://dc.lft.to/lastmile_qr_scan", "android": "https://dc.lft.to/lastmile_qr_scan"}, "fusion_lon": 0.0, "lat": 38.9210735, "is_disabled": 0, "bike_id": "06e55921813d3a9e2dedf3877ffdf27c", "fusion_lat": 0.0, "is_reserved": 0, "lon": -77.02406183333333}, {"type": "electric_scooter", "name": "2d9b502f9c4f2c9f64f148335d9c1271", "rental_uris": {"ios": "https://dc.lft.to/lastmile_qr_scan", "android": "https://dc.lft.to/lastmile_qr_scan"}, "fusion_lon": 0.0, "lat": 38.898382166666664, "is_disabled": 0, "bike_id": "2d9b502f9c4f2c9f64f148335d9c1271", "fusion_lat": 0.0, "is_reserved": 0, "lon": -77.0075}, {"type": "electric_scooter", "name": "a13284361041ac9520662bd08f43e0e4", "rental_uris": {"ios": "https://dc.lft.to/lastmile_qr_scan", "android": "https://dc.lft.to/lastmile_qr_scan"}, "fusion_lon": 0.0, "lat": 38.885214166666664, "is_disabled": 0, "bike_id": "a13284361041ac9520662bd08f43e0e4", "fusion_lat": 0.0, "is_reserved": 0, "lon": -76.97706983333333}, {"type": "electric_bike", "name": "317574b140c9c4e3ed9b763fe63df756", "rental_uris": {"ios": "https://dc.lft.to/lastmile_qr_scan", "android": "https://dc.lft.to/lastmile_qr_scan"}, "fusion_lon": 0.0, "lat": 38.909594, "is_disabled": 0, "bike_id": "317574b140c9c4e3ed9b763fe63df756", "fusion_lat": 0.0, "is_reserved": 0, "lon": -77.228917}, {"type": "electric_scooter", "name": "1107927138c6cb356eb30b7ad7b48373", "rental_uris": {"ios": "https://dc.lft.to/lastmile_qr_scan", "android": "https://dc.lft.to/lastmile_qr_scan"}, "fusion_lon": 0.0, "lat": 38.9169425, "is_disabled": 0, "bike_id": "1107927138c6cb356eb30b7ad7b48373", "fusion_lat": 0.0, "is_reserved": 0, "lon": -77.04111133333333}, {"type": "electric_scooter", "name": "73495b1d0127b9fb956d33ee18eb9d1b", "rental_uris": {"ios": "https://dc.lft.to/lastmile_qr_scan", "android": "https://dc.lft.to/lastmile_qr_scan"}, "fusion_lon": 0.0, "lat": 38.91700566666667, "is_disabled": 0, "bike_id": "73495b1d0127b9fb956d33ee18eb9d1b", "fusion_lat": 0.0, "is_reserved": 0, "lon": -77.04176433333333}, {"type": "electric_scooter", "name": "afe1b0428f86e7e970d16860c6425c6b", "rental_uris": {"ios": "https://dc.lft.to/lastmile_qr_scan", "android": "https://dc.lft.to/lastmile_qr_scan"}, "fusion_lon": 0.0, "lat": 38.929567, "is_disabled": 0, "bike_id": "afe1b0428f86e7e970d16860c6425c6b", "fusion_lat": 0.0, "is_reserved": 0, "lon": -77.01889833333334}, {"type": "electric_scooter", "name": "5cd5f5bedf970a243e62d71101dfe38f", "rental_uris": {"ios": "https://dc.lft.to/lastmile_qr_scan", "android": "https://dc.lft.to/lastmile_qr_scan"}, "fusion_lon": 0.0, "lat": 38.9052145, "is_disabled": 0, "bike_id": "5cd5f5bedf970a243e62d71101dfe38f", "fusion_lat": 0.0, "is_reserved": 0, "lon": -77.04348983333334}, {"type": "electric_scooter", "name": "75f8b879053b656d23a2128c3df581b1", "rental_uris": {"ios": "https://dc.lft.to/lastmile_qr_scan", "android": "https://dc.lft.to/lastmile_qr_scan"}, "fusion_lon": 0.0, "lat": 38.903739, "is_disabled": 0, "bike_id": "75f8b879053b656d23a2128c3df581b1", "fusion_lat": 0.0, "is_reserved": 0, "lon": -77.03194366666666}, {"type": "electric_scooter", "name": "25bc712ff339a9bb6b0d827b6aca5060", "rental_uris": {"ios": "https://dc.lft.to/lastmile_qr_scan", "android": "https://dc.lft.to/lastmile_qr_scan"}, "fusion_lon": 0.0, "lat": 38.90034033333333, "is_disabled": 0, "bike_id": "25bc712ff339a9bb6b0d827b6aca5060", "fusion_lat": 0.0, "is_reserved": 0, "lon": -77.04028316666667}, {"type": "electric_scooter", "name": "7d8b3d6cb184a9e675e1be1314cdac6d", "rental_uris": {"ios": "https://dc.lft.to/lastmile_qr_scan", "android": "https://dc.lft.to/lastmile_qr_scan"}, "fusion_lon": 0.0, "lat": 38.892223333333334, "is_disabled": 0, "bike_id": "7d8b3d6cb184a9e675e1be1314cdac6d", "fusion_lat": 0.0, "is_reserved": 0, "lon": -77.0419815}, {"type": "electric_scooter", "name": "91069cfb362d4d3a2525bf5eabd35bc7", "rental_uris": {"ios": "https://dc.lft.to/lastmile_qr_scan", "android": "https://dc.lft.to/lastmile_qr_scan"}, "fusion_lon": 0.0, "lat": 38.900281666666665, "is_disabled": 0, "bike_id": "91069cfb362d4d3a2525bf5eabd35bc7", "fusion_lat": 0.0, "is_reserved": 0, "lon": -76.98723916666667}, {"type": "electric_scooter", "name": "ce845fbb43120ca31a96389d1f65a9b6", "rental_uris": {"ios": "https://dc.lft.to/lastmile_qr_scan", "android": "https://dc.lft.to/lastmile_qr_scan"}, "fusion_lon": 0.0, "lat": 38.910426666666666, "is_disabled": 0, "bike_id": "ce845fbb43120ca31a96389d1f65a9b6", "fusion_lat": 0.0, "is_reserved": 0, "lon": -77.01030416666667}, {"type": "electric_scooter", "name": "3f68d7c9d5bfb9103eeac437cd84e0cd", "rental_uris": {"ios": "https://dc.lft.to/lastmile_qr_scan", "android": "https://dc.lft.to/lastmile_qr_scan"}, "fusion_lon": 0.0, "lat": 38.926575666666665, "is_disabled": 0, "bike_id": "3f68d7c9d5bfb9103eeac437cd84e0cd", "fusion_lat": 0.0, "is_reserved": 0, "lon": -77.0230695}, {"type": "electric_scooter", "name": "4f6ea480c5a5776db2c0545ba26031ba", "rental_uris": {"ios": "https://dc.lft.to/lastmile_qr_scan", "android": "https://dc.lft.to/lastmile_qr_scan"}, "fusion_lon": 0.0, "lat": 38.91238233333333, "is_disabled": 0, "bike_id": "4f6ea480c5a5776db2c0545ba26031ba", "fusion_lat": 0.0, "is_reserved": 0, "lon": -77.0486755}, {"type": "electric_scooter", "name": "27e5a3c1836f7ca0837cfd62f3864716", "rental_uris": {"ios": "https://dc.lft.to/lastmile_qr_scan", "android": "https://dc.lft.to/lastmile_qr_scan"}, "fusion_lon": 0.0, "lat": 38.924698, "is_disabled": 0, "bike_id": "27e5a3c1836f7ca0837cfd62f3864716", "fusion_lat": 0.0, "is_reserved": 0, "lon": -77.02197283333334}, {"type": "electric_scooter", "name": "898905a10990d320f81a2fc1c8922496", "rental_uris": {"ios": "https://dc.lft.to/lastmile_qr_scan", "android": "https://dc.lft.to/lastmile_qr_scan"}, "fusion_lon": 0.0, "lat": 38.916873, "is_disabled": 0, "bike_id": "898905a10990d320f81a2fc1c8922496", "fusion_lat": 0.0, "is_reserved": 0, "lon": -77.02954383333334}, {"type": "electric_bike", "name": "a735b64fe05eeba9528151504b7d0c0b", "rental_uris": {"ios": "https://dc.lft.to/lastmile_qr_scan", "android": "https://dc.lft.to/lastmile_qr_scan"}, "fusion_lon": 0.0, "lat": 38.857708333333335, "is_disabled": 0, "bike_id": "a735b64fe05eeba9528151504b7d0c0b", "fusion_lat": 0.0, "is_reserved": 0, "lon": -76.98769733333333}, {"type": "electric_scooter", "name": "d064fc880a293d1093f1d3957ebaa49d", "rental_uris": {"ios": "https://dc.lft.to/lastmile_qr_scan", "android": "https://dc.lft.to/lastmile_qr_scan"}, "fusion_lon": 0.0, "lat": 38.930797, "is_disabled": 0, "bike_id": "d064fc880a293d1093f1d3957ebaa49d", "fusion_lat": 0.0, "is_reserved": 0, "lon": -77.02811033333333}, {"type": "electric_scooter", "name": "706d0766f76465647c94884f1ab34277", "rental_uris": {"ios": "https://dc.lft.to/lastmile_qr_scan", "android": "https://dc.lft.to/lastmile_qr_scan"}, "fusion_lon": 0.0, "lat": 38.91069866666667, "is_disabled": 0, "bike_id": "706d0766f76465647c94884f1ab34277", "fusion_lat": 0.0, "is_reserved": 0, "lon": -77.003895}, {"type": "electric_scooter", "name": "0c157a6ae88de16240e1ad3d6b293f93", "rental_uris": {"ios": "https://dc.lft.to/lastmile_qr_scan", "android": "https://dc.lft.to/lastmile_qr_scan"}, "fusion_lon": 0.0, "lat": 38.921206166666664, "is_disabled": 0, "bike_id": "0c157a6ae88de16240e1ad3d6b293f93", "fusion_lat": 0.0, "is_reserved": 0, "lon": -77.01209983333334}, {"type": "electric_scooter", "name": "abf9e28c46b7efed6d5ffd0209c03916", "rental_uris": {"ios": "https://dc.lft.to/lastmile_qr_scan", "android": "https://dc.lft.to/lastmile_qr_scan"}, "fusion_lon": 0.0, "lat": 38.9057255, "is_disabled": 0, "bike_id": "abf9e28c46b7efed6d5ffd0209c03916", "fusion_lat": 0.0, "is_reserved": 0, "lon": -77.024183}, {"type": "electric_scooter", "name": "573064bf6c81a5b5da852a049517df67", "rental_uris": {"ios": "https://dc.lft.to/lastmile_qr_scan", "android": "https://dc.lft.to/lastmile_qr_scan"}, "fusion_lon": 0.0, "lat": 38.910529333333336, "is_disabled": 0, "bike_id": "573064bf6c81a5b5da852a049517df67", "fusion_lat": 0.0, "is_reserved": 0, "lon": -77.021992}, {"type": "electric_bike", "name": "90e9bbfcd999ab9d98a40d40db2a29a4", "rental_uris": {"ios": "https://dc.lft.to/lastmile_qr_scan", "android": "https://dc.lft.to/lastmile_qr_scan"}, "fusion_lon": 0.0, "lat": 38.87790566666666, "is_disabled": 0, "bike_id": "90e9bbfcd999ab9d98a40d40db2a29a4", "fusion_lat": 0.0, "is_reserved": 0, "lon": -77.00752933333334}, {"type": "electric_scooter", "name": "6e710a55664c75771d0ae1479c4e2206", "rental_uris": {"ios": "https://dc.lft.to/lastmile_qr_scan", "android": "https://dc.lft.to/lastmile_qr_scan"}, "fusion_lon": 0.0, "lat": 38.936625666666664, "is_disabled": 0, "bike_id": "6e710a55664c75771d0ae1479c4e2206", "fusion_lat": 0.0, "is_reserved": 0, "lon": -77.03637266666667}, {"type": "electric_bike", "name": "c8b11bc813ce95f1361b8c875313755d", "rental_uris": {"ios": "https://dc.lft.to/lastmile_qr_scan", "android": "https://dc.lft.to/lastmile_qr_scan"}, "fusion_lon": 0.0, "lat": 38.97070883333333, "is_disabled": 0, "bike_id": "c8b11bc813ce95f1361b8c875313755d", "fusion_lat": 0.0, "is_reserved": 0, "lon": -76.9360645}, {"type": "electric_scooter", "name": "d0742c9334dcfff66ba2b61964f481c4", "rental_uris": {"ios": "https://dc.lft.to/lastmile_qr_scan", "android": "https://dc.lft.to/lastmile_qr_scan"}, "fusion_lon": 0.0, "lat": 38.923665, "is_disabled": 0, "bike_id": "d0742c9334dcfff66ba2b61964f481c4", "fusion_lat": 0.0, "is_reserved": 0, "lon": -77.01949766666667}, {"type": "electric_scooter", "name": "94a59acdfb51d06939d2980524637891", "rental_uris": {"ios": "https://dc.lft.to/lastmile_qr_scan", "android": "https://dc.lft.to/lastmile_qr_scan"}, "fusion_lon": 0.0, "lat": 38.9353085, "is_disabled": 0, "bike_id": "94a59acdfb51d06939d2980524637891", "fusion_lat": 0.0, "is_reserved": 0, "lon": -77.023595}, {"type": "electric_scooter", "name": "0fb83bff668e612a6fb5f050868b911b", "rental_uris": {"ios": "https://dc.lft.to/lastmile_qr_scan", "android": "https://dc.lft.to/lastmile_qr_scan"}, "fusion_lon": 0.0, "lat": 38.897283333333334, "is_disabled": 0, "bike_id": "0fb83bff668e612a6fb5f050868b911b", "fusion_lat": 0.0, "is_reserved": 0, "lon": -77.05528216666667}, {"type": "electric_scooter", "name": "90ac9713e9568d03d819b9457077d2e3", "rental_uris": {"ios": "https://dc.lft.to/lastmile_qr_scan", "android": "https://dc.lft.to/lastmile_qr_scan"}, "fusion_lon": 0.0, "lat": 38.925922, "is_disabled": 0, "bike_id": "90ac9713e9568d03d819b9457077d2e3", "fusion_lat": 0.0, "is_reserved": 0, "lon": -77.03786816666667}, {"type": "electric_scooter", "name": "5d41435b574d51d6282c168f68a49140", "rental_uris": {"ios": "https://dc.lft.to/lastmile_qr_scan", "android": "https://dc.lft.to/lastmile_qr_scan"}, "fusion_lon": 0.0, "lat": 38.9296245, "is_disabled": 0, "bike_id": "5d41435b574d51d6282c168f68a49140", "fusion_lat": 0.0, "is_reserved": 0, "lon": -77.01833266666667}, {"type": "electric_scooter", "name": "5d78111b229e7dd9c6df1e867e8d4673", "rental_uris": {"ios": "https://dc.lft.to/lastmile_qr_scan", "android": "https://dc.lft.to/lastmile_qr_scan"}, "fusion_lon": 0.0, "lat": 38.90266483333333, "is_disabled": 0, "bike_id": "5d78111b229e7dd9c6df1e867e8d4673", "fusion_lat": 0.0, "is_reserved": 0, "lon": -77.03033633333334}, {"type": "electric_scooter", "name": "757d9002a21a7df5e436616aa88ae46e", "rental_uris": {"ios": "https://dc.lft.to/lastmile_qr_scan", "android": "https://dc.lft.to/lastmile_qr_scan"}, "fusion_lon": 0.0, "lat": 38.879644666666664, "is_disabled": 0, "bike_id": "757d9002a21a7df5e436616aa88ae46e", "fusion_lat": 0.0, "is_reserved": 0, "lon": -77.02372333333334}, {"type": "electric_scooter", "name": "c43616556de21b1fb1bc0a504ad6e3d0", "rental_uris": {"ios": "https://dc.lft.to/lastmile_qr_scan", "android": "https://dc.lft.to/lastmile_qr_scan"}, "fusion_lon": 0.0, "lat": 38.918908333333334, "is_disabled": 0, "bike_id": "c43616556de21b1fb1bc0a504ad6e3d0", "fusion_lat": 0.0, "is_reserved": 0, "lon": -77.00344433333333}, {"type": "electric_scooter", "name": "7107654144508d19ae8f3e5d74bf8925", "rental_uris": {"ios": "https://dc.lft.to/lastmile_qr_scan", "android": "https://dc.lft.to/lastmile_qr_scan"}, "fusion_lon": 0.0, "lat": 38.92369516666667, "is_disabled": 0, "bike_id": "7107654144508d19ae8f3e5d74bf8925", "fusion_lat": 0.0, "is_reserved": 0, "lon": -77.02128733333333}, {"type": "electric_bike", "name": "3e4003e26db0369fd5051cfe7ece1059", "rental_uris": {"ios": "https://dc.lft.to/lastmile_qr_scan", "android": "https://dc.lft.to/lastmile_qr_scan"}, "fusion_lon": 0.0, "lat": 38.93770683333334, "is_disabled": 0, "bike_id": "3e4003e26db0369fd5051cfe7ece1059", "fusion_lat": 0.0, "is_reserved": 0, "lon": -77.01915483333333}, {"type": "electric_scooter", "name": "6f04b2775a01b07a121251f11a65defd", "rental_uris": {"ios": "https://dc.lft.to/lastmile_qr_scan", "android": "https://dc.lft.to/lastmile_qr_scan"}, "fusion_lon": 0.0, "lat": 38.89734416666667, "is_disabled": 0, "bike_id": "6f04b2775a01b07a121251f11a65defd", "fusion_lat": 0.0, "is_reserved": 0, "lon": -77.0098795}, {"type": "electric_scooter", "name": "eb777cd348975decdf4c0bf68bbea139", "rental_uris": {"ios": "https://dc.lft.to/lastmile_qr_scan", "android": "https://dc.lft.to/lastmile_qr_scan"}, "fusion_lon": 0.0, "lat": 38.93285816666667, "is_disabled": 0, "bike_id": "eb777cd348975decdf4c0bf68bbea139", "fusion_lat": 0.0, "is_reserved": 0, "lon": -77.02542866666667}, {"type": "electric_scooter", "name": "b7784d795d95093ef4ecf5726a262f6f", "rental_uris": {"ios": "https://dc.lft.to/lastmile_qr_scan", "android": "https://dc.lft.to/lastmile_qr_scan"}, "fusion_lon": 0.0, "lat": 38.91710633333334, "is_disabled": 0, "bike_id": "b7784d795d95093ef4ecf5726a262f6f", "fusion_lat": 0.0, "is_reserved": 0, "lon": -77.03867316666667}, {"type": "electric_scooter", "name": "016452214f6d6b953959d6a0c927b2b8", "rental_uris": {"ios": "https://dc.lft.to/lastmile_qr_scan", "android": "https://dc.lft.to/lastmile_qr_scan"}, "fusion_lon": 0.0, "lat": 38.855497666666665, "is_disabled": 0, "bike_id": "016452214f6d6b953959d6a0c927b2b8", "fusion_lat": 0.0, "is_reserved": 0, "lon": -76.987596}, {"type": "electric_bike", "name": "590168c326c873184304ff2909e6f87b", "rental_uris": {"ios": "https://dc.lft.to/lastmile_qr_scan", "android": "https://dc.lft.to/lastmile_qr_scan"}, "fusion_lon": 0.0, "lat": 38.840805, "is_disabled": 0, "bike_id": "590168c326c873184304ff2909e6f87b", "fusion_lat": 0.0, "is_reserved": 0, "lon": -76.97028766666666}, {"type": "electric_scooter", "name": "13be8445f84abae8a07b75627f953e6b", "rental_uris": {"ios": "https://dc.lft.to/lastmile_qr_scan", "android": "https://dc.lft.to/lastmile_qr_scan"}, "fusion_lon": 0.0, "lat": 38.923027, "is_disabled": 0, "bike_id": "13be8445f84abae8a07b75627f953e6b", "fusion_lat": 0.0, "is_reserved": 0, "lon": -77.042715}, {"type": "electric_scooter", "name": "2a2bf706603cad830d3ee1b4029edd1a", "rental_uris": {"ios": "https://dc.lft.to/lastmile_qr_scan", "android": "https://dc.lft.to/lastmile_qr_scan"}, "fusion_lon": 0.0, "lat": 38.897448833333335, "is_disabled": 0, "bike_id": "2a2bf706603cad830d3ee1b4029edd1a", "fusion_lat": 0.0, "is_reserved": 0, "lon": -77.00919016666667}, {"type": "electric_bike", "name": "5b7323aba8bea00158b33d4d3d7fe754", "rental_uris": {"ios": "https://dc.lft.to/lastmile_qr_scan", "android": "https://dc.lft.to/lastmile_qr_scan"}, "fusion_lon": 0.0, "lat": 38.88356816666667, "is_disabled": 0, "bike_id": "5b7323aba8bea00158b33d4d3d7fe754", "fusion_lat": 0.0, "is_reserved": 0, "lon": -76.9821775}, {"type": "electric_scooter", "name": "ea20af62321594ba3926ff4bfc962540", "rental_uris": {"ios": "https://dc.lft.to/lastmile_qr_scan", "android": "https://dc.lft.to/lastmile_qr_scan"}, "fusion_lon": 0.0, "lat": 38.91699466666667, "is_disabled": 0, "bike_id": "ea20af62321594ba3926ff4bfc962540", "fusion_lat": 0.0, "is_reserved": 0, "lon": -77.03222066666666}, {"type": "electric_scooter", "name": "ca547696f67ead01ea7fe1ba62fcc08a", "rental_uris": {"ios": "https://dc.lft.to/lastmile_qr_scan", "android": "https://dc.lft.to/lastmile_qr_scan"}, "fusion_lon": 0.0, "lat": 38.90942483333333, "is_disabled": 0, "bike_id": "ca547696f67ead01ea7fe1ba62fcc08a", "fusion_lat": 0.0, "is_reserved": 0, "lon": -77.0281365}, {"type": "electric_scooter", "name": "47efbdb8014ed6000e177723cfb67885", "rental_uris": {"ios": "https://dc.lft.to/lastmile_qr_scan", "android": "https://dc.lft.to/lastmile_qr_scan"}, "fusion_lon": 0.0, "lat": 38.92504433333333, "is_disabled": 0, "bike_id": "47efbdb8014ed6000e177723cfb67885", "fusion_lat": 0.0, "is_reserved": 0, "lon": -77.00236433333333}, {"type": "electric_scooter", "name": "ccf80d21423c85a0ed7229871d537422", "rental_uris": {"ios": "https://dc.lft.to/lastmile_qr_scan", "android": "https://dc.lft.to/lastmile_qr_scan"}, "fusion_lon": 0.0, "lat": 38.89727516666667, "is_disabled": 0, "bike_id": "ccf80d21423c85a0ed7229871d537422", "fusion_lat": 0.0, "is_reserved": 0, "lon": -77.04332033333333}, {"type": "electric_scooter", "name": "1d5800b902ba04ee784085ecc3d693fc", "rental_uris": {"ios": "https://dc.lft.to/lastmile_qr_scan", "android": "https://dc.lft.to/lastmile_qr_scan"}, "fusion_lon": 0.0, "lat": 38.9199185, "is_disabled": 0, "bike_id": "1d5800b902ba04ee784085ecc3d693fc", "fusion_lat": 0.0, "is_reserved": 0, "lon": -76.97309966666667}, {"type": "electric_scooter", "name": "17dc6d90756856bcd4cfed4331bb6957", "rental_uris": {"ios": "https://dc.lft.to/lastmile_qr_scan", "android": "https://dc.lft.to/lastmile_qr_scan"}, "fusion_lon": 0.0, "lat": 38.93103933333333, "is_disabled": 0, "bike_id": "17dc6d90756856bcd4cfed4331bb6957", "fusion_lat": 0.0, "is_reserved": 0, "lon": -77.02122066666666}, {"type": "electric_scooter", "name": "fc2c1c450f465d523a4885d9afb6abbd", "rental_uris": {"ios": "https://dc.lft.to/lastmile_qr_scan", "android": "https://dc.lft.to/lastmile_qr_scan"}, "fusion_lon": 0.0, "lat": 38.90116666666667, "is_disabled": 0, "bike_id": "fc2c1c450f465d523a4885d9afb6abbd", "fusion_lat": 0.0, "is_reserved": 0, "lon": -77.044864}, {"type": "electric_scooter", "name": "79bf412cb8f3860d693caab26bf1b21b", "rental_uris": {"ios": "https://dc.lft.to/lastmile_qr_scan", "android": "https://dc.lft.to/lastmile_qr_scan"}, "fusion_lon": 0.0, "lat": 38.90751616666667, "is_disabled": 0, "bike_id": "79bf412cb8f3860d693caab26bf1b21b", "fusion_lat": 0.0, "is_reserved": 0, "lon": -76.9987975}, {"type": "electric_scooter", "name": "e881a2beff05c838c498913082334171", "rental_uris": {"ios": "https://dc.lft.to/lastmile_qr_scan", "android": "https://dc.lft.to/lastmile_qr_scan"}, "fusion_lon": 0.0, "lat": 38.9164215, "is_disabled": 0, "bike_id": "e881a2beff05c838c498913082334171", "fusion_lat": 0.0, "is_reserved": 0, "lon": -77.04782933333334}, {"type": "electric_scooter", "name": "e410c6298a098be6fcbb4b81c748bee3", "rental_uris": {"ios": "https://dc.lft.to/lastmile_qr_scan", "android": "https://dc.lft.to/lastmile_qr_scan"}, "fusion_lon": 0.0, "lat": 38.920451666666665, "is_disabled": 0, "bike_id": "e410c6298a098be6fcbb4b81c748bee3", "fusion_lat": 0.0, "is_reserved": 0, "lon": -77.02574133333333}, {"type": "electric_scooter", "name": "0b213a6162f004a3567a91102ed84182", "rental_uris": {"ios": "https://dc.lft.to/lastmile_qr_scan", "android": "https://dc.lft.to/lastmile_qr_scan"}, "fusion_lon": 0.0, "lat": 38.92734683333333, "is_disabled": 0, "bike_id": "0b213a6162f004a3567a91102ed84182", "fusion_lat": 0.0, "is_reserved": 0, "lon": -77.03697933333333}, {"type": "electric_scooter", "name": "b4254a193d7faee8d0c1cd23600c11e2", "rental_uris": {"ios": "https://dc.lft.to/lastmile_qr_scan", "android": "https://dc.lft.to/lastmile_qr_scan"}, "fusion_lon": 0.0, "lat": 38.9066315, "is_disabled": 0, "bike_id": "b4254a193d7faee8d0c1cd23600c11e2", "fusion_lat": 0.0, "is_reserved": 0, "lon": -77.02707866666667}, {"type": "electric_scooter", "name": "d13ca4a6c0f893dfe02be81ceb636c93", "rental_uris": {"ios": "https://dc.lft.to/lastmile_qr_scan", "android": "https://dc.lft.to/lastmile_qr_scan"}, "fusion_lon": 0.0, "lat": 38.92823683333334, "is_disabled": 0, "bike_id": "d13ca4a6c0f893dfe02be81ceb636c93", "fusion_lat": 0.0, "is_reserved": 0, "lon": -77.05443783333334}, {"type": "electric_scooter", "name": "77bf705b3f480bde7c4d22716483b15a", "rental_uris": {"ios": "https://dc.lft.to/lastmile_qr_scan", "android": "https://dc.lft.to/lastmile_qr_scan"}, "fusion_lon": 0.0, "lat": 38.91259016666667, "is_disabled": 0, "bike_id": "77bf705b3f480bde7c4d22716483b15a", "fusion_lat": 0.0, "is_reserved": 0, "lon": -77.0383345}, {"type": "electric_bike", "name": "7a9fe0610da72a108cba510ab77a5548", "rental_uris": {"ios": "https://dc.lft.to/lastmile_qr_scan", "android": "https://dc.lft.to/lastmile_qr_scan"}, "fusion_lon": 0.0, "lat": 38.92462833333333, "is_disabled": 0, "bike_id": "7a9fe0610da72a108cba510ab77a5548", "fusion_lat": 0.0, "is_reserved": 0, "lon": -77.06734883333333}, {"type": "electric_scooter", "name": "1cfd2fbdda9106df14282808a041b41a", "rental_uris": {"ios": "https://dc.lft.to/lastmile_qr_scan", "android": "https://dc.lft.to/lastmile_qr_scan"}, "fusion_lon": 0.0, "lat": 38.89823966666667, "is_disabled": 0, "bike_id": "1cfd2fbdda9106df14282808a041b41a", "fusion_lat": 0.0, "is_reserved": 0, "lon": -77.0316745}, {"type": "electric_scooter", "name": "955788046056922d0caab69e53a993ca", "rental_uris": {"ios": "https://dc.lft.to/lastmile_qr_scan", "android": "https://dc.lft.to/lastmile_qr_scan"}, "fusion_lon": 0.0, "lat": 38.8765755, "is_disabled": 0, "bike_id": "955788046056922d0caab69e53a993ca", "fusion_lat": 0.0, "is_reserved": 0, "lon": -77.01713}, {"type": "electric_scooter", "name": "a969d49758eb2a7468ec15f167398770", "rental_uris": {"ios": "https://dc.lft.to/lastmile_qr_scan", "android": "https://dc.lft.to/lastmile_qr_scan"}, "fusion_lon": 0.0, "lat": 38.917722499999996, "is_disabled": 0, "bike_id": "a969d49758eb2a7468ec15f167398770", "fusion_lat": 0.0, "is_reserved": 0, "lon": -77.04101183333333}, {"type": "electric_bike", "name": "7250ce2b207bbb7526da61c53cfe3656", "rental_uris": {"ios": "https://dc.lft.to/lastmile_qr_scan", "android": "https://dc.lft.to/lastmile_qr_scan"}, "fusion_lon": 0.0, "lat": 38.88013933333333, "is_disabled": 0, "bike_id": "7250ce2b207bbb7526da61c53cfe3656", "fusion_lat": 0.0, "is_reserved": 0, "lon": -77.1077125}, {"type": "electric_scooter", "name": "245f2bce412658f1e6ca46e29be38156", "rental_uris": {"ios": "https://dc.lft.to/lastmile_qr_scan", "android": "https://dc.lft.to/lastmile_qr_scan"}, "fusion_lon": 0.0, "lat": 38.887305, "is_disabled": 0, "bike_id": "245f2bce412658f1e6ca46e29be38156", "fusion_lat": 0.0, "is_reserved": 0, "lon": -77.02581766666667}, {"type": "electric_scooter", "name": "c7d7f63555062f1c61d5034b714073ac", "rental_uris": {"ios": "https://dc.lft.to/lastmile_qr_scan", "android": "https://dc.lft.to/lastmile_qr_scan"}, "fusion_lon": 0.0, "lat": 38.88331733333333, "is_disabled": 0, "bike_id": "c7d7f63555062f1c61d5034b714073ac", "fusion_lat": 0.0, "is_reserved": 0, "lon": -77.01773433333334}, {"type": "electric_scooter", "name": "f74fac5a78827a8fbb8fbe08b46d96ca", "rental_uris": {"ios": "https://dc.lft.to/lastmile_qr_scan", "android": "https://dc.lft.to/lastmile_qr_scan"}, "fusion_lon": 0.0, "lat": 38.91807766666667, "is_disabled": 0, "bike_id": "f74fac5a78827a8fbb8fbe08b46d96ca", "fusion_lat": 0.0, "is_reserved": 0, "lon": -77.02817033333334}, {"type": "electric_bike", "name": "431794950a25ef61e79783b9b49f5e8e", "rental_uris": {"ios": "https://dc.lft.to/lastmile_qr_scan", "android": "https://dc.lft.to/lastmile_qr_scan"}, "fusion_lon": 0.0, "lat": 38.89615216666667, "is_disabled": 0, "bike_id": "431794950a25ef61e79783b9b49f5e8e", "fusion_lat": 0.0, "is_reserved": 0, "lon": -76.90746266666666}, {"type": "electric_scooter", "name": "e761fa4ec3cdd6000458378a28ac2e03", "rental_uris": {"ios": "https://dc.lft.to/lastmile_qr_scan", "android": "https://dc.lft.to/lastmile_qr_scan"}, "fusion_lon": 0.0, "lat": 38.91035216666667, "is_disabled": 0, "bike_id": "e761fa4ec3cdd6000458378a28ac2e03", "fusion_lat": 0.0, "is_reserved": 0, "lon": -77.0292845}, {"type": "electric_scooter", "name": "69676e1a3be2de3f46f98e990eb64f7f", "rental_uris": {"ios": "https://dc.lft.to/lastmile_qr_scan", "android": "https://dc.lft.to/lastmile_qr_scan"}, "fusion_lon": 0.0, "lat": 38.906076666666664, "is_disabled": 0, "bike_id": "69676e1a3be2de3f46f98e990eb64f7f", "fusion_lat": 0.0, "is_reserved": 0, "lon": -77.05693166666667}, {"type": "electric_scooter", "name": "8210b40e43175858e20af29017e92ded", "rental_uris": {"ios": "https://dc.lft.to/lastmile_qr_scan", "android": "https://dc.lft.to/lastmile_qr_scan"}, "fusion_lon": 0.0, "lat": 38.931495166666664, "is_disabled": 0, "bike_id": "8210b40e43175858e20af29017e92ded", "fusion_lat": 0.0, "is_reserved": 0, "lon": -77.04184483333333}, {"type": "electric_bike", "name": "173f339860eefafe581d54af1341dc71", "rental_uris": {"ios": "https://dc.lft.to/lastmile_qr_scan", "android": "https://dc.lft.to/lastmile_qr_scan"}, "fusion_lon": 0.0, "lat": 38.804492333333336, "is_disabled": 0, "bike_id": "173f339860eefafe581d54af1341dc71", "fusion_lat": 0.0, "is_reserved": 0, "lon": -77.05395383333334}, {"type": "electric_scooter", "name": "bd4ba4daa2cf6c7b966764017d06ab4a", "rental_uris": {"ios": "https://dc.lft.to/lastmile_qr_scan", "android": "https://dc.lft.to/lastmile_qr_scan"}, "fusion_lon": 0.0, "lat": 38.8987405, "is_disabled": 0, "bike_id": "bd4ba4daa2cf6c7b966764017d06ab4a", "fusion_lat": 0.0, "is_reserved": 0, "lon": -77.04130183333334}, {"type": "electric_scooter", "name": "47fcb747367b59ab06e7744e42c0f0b5", "rental_uris": {"ios": "https://dc.lft.to/lastmile_qr_scan", "android": "https://dc.lft.to/lastmile_qr_scan"}, "fusion_lon": 0.0, "lat": 38.920293, "is_disabled": 0, "bike_id": "47fcb747367b59ab06e7744e42c0f0b5", "fusion_lat": 0.0, "is_reserved": 0, "lon": -77.017928}, {"type": "electric_scooter", "name": "45b366bf82f4257b4f745deeeb8a41d8", "rental_uris": {"ios": "https://dc.lft.to/lastmile_qr_scan", "android": "https://dc.lft.to/lastmile_qr_scan"}, "fusion_lon": 0.0, "lat": 38.9241485, "is_disabled": 0, "bike_id": "45b366bf82f4257b4f745deeeb8a41d8", "fusion_lat": 0.0, "is_reserved": 0, "lon": -77.04460716666667}, {"type": "electric_scooter", "name": "37db22b6979659a869bbed0acf2c4725", "rental_uris": {"ios": "https://dc.lft.to/lastmile_qr_scan", "android": "https://dc.lft.to/lastmile_qr_scan"}, "fusion_lon": 0.0, "lat": 38.9211315, "is_disabled": 0, "bike_id": "37db22b6979659a869bbed0acf2c4725", "fusion_lat": 0.0, "is_reserved": 0, "lon": -77.024115}, {"type": "electric_scooter", "name": "f15ccf0d46da6a437ca704c49c28d324", "rental_uris": {"ios": "https://dc.lft.to/lastmile_qr_scan", "android": "https://dc.lft.to/lastmile_qr_scan"}, "fusion_lon": 0.0, "lat": 38.926757, "is_disabled": 0, "bike_id": "f15ccf0d46da6a437ca704c49c28d324", "fusion_lat": 0.0, "is_reserved": 0, "lon": -77.01478983333334}, {"type": "electric_scooter", "name": "5b683596ad277a4383ea257f82e96b86", "rental_uris": {"ios": "https://dc.lft.to/lastmile_qr_scan", "android": "https://dc.lft.to/lastmile_qr_scan"}, "fusion_lon": 0.0, "lat": 38.920436, "is_disabled": 0, "bike_id": "5b683596ad277a4383ea257f82e96b86", "fusion_lat": 0.0, "is_reserved": 0, "lon": -77.01787883333333}, {"type": "electric_scooter", "name": "322e7503047fe5e10184a0451569cf86", "rental_uris": {"ios": "https://dc.lft.to/lastmile_qr_scan", "android": "https://dc.lft.to/lastmile_qr_scan"}, "fusion_lon": 0.0, "lat": 38.887203, "is_disabled": 0, "bike_id": "322e7503047fe5e10184a0451569cf86", "fusion_lat": 0.0, "is_reserved": 0, "lon": -76.99694216666667}, {"type": "electric_scooter", "name": "a966f69ddc45bf812152d6e93f172a32", "rental_uris": {"ios": "https://dc.lft.to/lastmile_qr_scan", "android": "https://dc.lft.to/lastmile_qr_scan"}, "fusion_lon": 0.0, "lat": 38.93243583333334, "is_disabled": 0, "bike_id": "a966f69ddc45bf812152d6e93f172a32", "fusion_lat": 0.0, "is_reserved": 0, "lon": -77.03422566666667}, {"type": "electric_bike", "name": "a39a51bd0bf3c7c346bf0a04d1b4ec7c", "rental_uris": {"ios": "https://dc.lft.to/lastmile_qr_scan", "android": "https://dc.lft.to/lastmile_qr_scan"}, "fusion_lon": 0.0, "lat": 38.884926666666665, "is_disabled": 0, "bike_id": "a39a51bd0bf3c7c346bf0a04d1b4ec7c", "fusion_lat": 0.0, "is_reserved": 0, "lon": -76.95664516666666}, {"type": "electric_scooter", "name": "f8b2a46266ee71b147ab694b3e5a4b1b", "rental_uris": {"ios": "https://dc.lft.to/lastmile_qr_scan", "android": "https://dc.lft.to/lastmile_qr_scan"}, "fusion_lon": 0.0, "lat": 38.88146716666667, "is_disabled": 0, "bike_id": "f8b2a46266ee71b147ab694b3e5a4b1b", "fusion_lat": 0.0, "is_reserved": 0, "lon": -77.02738366666667}, {"type": "electric_scooter", "name": "e1f3c5d2a918618ab1c3f5360e04bde3", "rental_uris": {"ios": "https://dc.lft.to/lastmile_qr_scan", "android": "https://dc.lft.to/lastmile_qr_scan"}, "fusion_lon": 0.0, "lat": 38.91414283333334, "is_disabled": 0, "bike_id": "e1f3c5d2a918618ab1c3f5360e04bde3", "fusion_lat": 0.0, "is_reserved": 0, "lon": -77.01816566666666}, {"type": "electric_scooter", "name": "55e563ddf655fe0d28b15d84f9192e7e", "rental_uris": {"ios": "https://dc.lft.to/lastmile_qr_scan", "android": "https://dc.lft.to/lastmile_qr_scan"}, "fusion_lon": 0.0, "lat": 38.938654166666666, "is_disabled": 0, "bike_id": "55e563ddf655fe0d28b15d84f9192e7e", "fusion_lat": 0.0, "is_reserved": 0, "lon": -77.0246965}, {"type": "electric_scooter", "name": "06b45b1b6b5204da97d779986a30f855", "rental_uris": {"ios": "https://dc.lft.to/lastmile_qr_scan", "android": "https://dc.lft.to/lastmile_qr_scan"}, "fusion_lon": 0.0, "lat": 38.907176166666666, "is_disabled": 0, "bike_id": "06b45b1b6b5204da97d779986a30f855", "fusion_lat": 0.0, "is_reserved": 0, "lon": -77.00760966666667}, {"type": "electric_scooter", "name": "c718667f1e662744e79aa8e954a9bd0b", "rental_uris": {"ios": "https://dc.lft.to/lastmile_qr_scan", "android": "https://dc.lft.to/lastmile_qr_scan"}, "fusion_lon": 0.0, "lat": 38.8861455, "is_disabled": 0, "bike_id": "c718667f1e662744e79aa8e954a9bd0b", "fusion_lat": 0.0, "is_reserved": 0, "lon": -77.0125085}, {"type": "electric_scooter", "name": "2f1e9e75873fcd5476a8e4c40ade69a4", "rental_uris": {"ios": "https://dc.lft.to/lastmile_qr_scan", "android": "https://dc.lft.to/lastmile_qr_scan"}, "fusion_lon": 0.0, "lat": 38.882963833333335, "is_disabled": 0, "bike_id": "2f1e9e75873fcd5476a8e4c40ade69a4", "fusion_lat": 0.0, "is_reserved": 0, "lon": -77.0176545}, {"type": "electric_scooter", "name": "44681f3e52f808e0ad227a47be323041", "rental_uris": {"ios": "https://dc.lft.to/lastmile_qr_scan", "android": "https://dc.lft.to/lastmile_qr_scan"}, "fusion_lon": 0.0, "lat": 38.923150166666666, "is_disabled": 0, "bike_id": "44681f3e52f808e0ad227a47be323041", "fusion_lat": 0.0, "is_reserved": 0, "lon": -77.02891883333334}, {"type": "electric_scooter", "name": "f3292d8cf01e2ad0a65684dd73dc562a", "rental_uris": {"ios": "https://dc.lft.to/lastmile_qr_scan", "android": "https://dc.lft.to/lastmile_qr_scan"}, "fusion_lon": 0.0, "lat": 38.89469366666667, "is_disabled": 0, "bike_id": "f3292d8cf01e2ad0a65684dd73dc562a", "fusion_lat": 0.0, "is_reserved": 0, "lon": -77.0166}, {"type": "electric_scooter", "name": "b6bc90257f34a9073d12d2c2c04e76b2", "rental_uris": {"ios": "https://dc.lft.to/lastmile_qr_scan", "android": "https://dc.lft.to/lastmile_qr_scan"}, "fusion_lon": 0.0, "lat": 38.907765, "is_disabled": 0, "bike_id": "b6bc90257f34a9073d12d2c2c04e76b2", "fusion_lat": 0.0, "is_reserved": 0, "lon": -77.07164683333333}, {"type": "electric_scooter", "name": "ad1e065c3c208efb65e1fcec212af50b", "rental_uris": {"ios": "https://dc.lft.to/lastmile_qr_scan", "android": "https://dc.lft.to/lastmile_qr_scan"}, "fusion_lon": 0.0, "lat": 38.887156, "is_disabled": 0, "bike_id": "ad1e065c3c208efb65e1fcec212af50b", "fusion_lat": 0.0, "is_reserved": 0, "lon": -76.98352233333334}, {"type": "electric_scooter", "name": "557945fce58a631d4b2793f0a0d18c4a", "rental_uris": {"ios": "https://dc.lft.to/lastmile_qr_scan", "android": "https://dc.lft.to/lastmile_qr_scan"}, "fusion_lon": 0.0, "lat": 38.90572083333333, "is_disabled": 0, "bike_id": "557945fce58a631d4b2793f0a0d18c4a", "fusion_lat": 0.0, "is_reserved": 0, "lon": -77.02657516666666}, {"type": "electric_scooter", "name": "165d9d253c2802dd70b3bd319022588f", "rental_uris": {"ios": "https://dc.lft.to/lastmile_qr_scan", "android": "https://dc.lft.to/lastmile_qr_scan"}, "fusion_lon": 0.0, "lat": 38.9118165, "is_disabled": 0, "bike_id": "165d9d253c2802dd70b3bd319022588f", "fusion_lat": 0.0, "is_reserved": 0, "lon": -77.00272183333334}, {"type": "electric_scooter", "name": "2bd7056eeebc59ec8e68b8ad0a616bbe", "rental_uris": {"ios": "https://dc.lft.to/lastmile_qr_scan", "android": "https://dc.lft.to/lastmile_qr_scan"}, "fusion_lon": 0.0, "lat": 38.915297833333334, "is_disabled": 0, "bike_id": "2bd7056eeebc59ec8e68b8ad0a616bbe", "fusion_lat": 0.0, "is_reserved": 0, "lon": -77.01222033333333}, {"type": "electric_scooter", "name": "3b293665428dbce166bf1770dd5a90a9", "rental_uris": {"ios": "https://dc.lft.to/lastmile_qr_scan", "android": "https://dc.lft.to/lastmile_qr_scan"}, "fusion_lon": 0.0, "lat": 38.92077366666667, "is_disabled": 0, "bike_id": "3b293665428dbce166bf1770dd5a90a9", "fusion_lat": 0.0, "is_reserved": 0, "lon": -77.0246475}, {"type": "electric_scooter", "name": "04087aea4c739e2e973bb8b57f9d0b92", "rental_uris": {"ios": "https://dc.lft.to/lastmile_qr_scan", "android": "https://dc.lft.to/lastmile_qr_scan"}, "fusion_lon": 0.0, "lat": 38.900679, "is_disabled": 0, "bike_id": "04087aea4c739e2e973bb8b57f9d0b92", "fusion_lat": 0.0, "is_reserved": 0, "lon": -77.054248}, {"type": "electric_bike", "name": "f8ad54a8191c0c267d61c322ce823fea", "rental_uris": {"ios": "https://dc.lft.to/lastmile_qr_scan", "android": "https://dc.lft.to/lastmile_qr_scan"}, "fusion_lon": 0.0, "lat": 38.880842, "is_disabled": 0, "bike_id": "f8ad54a8191c0c267d61c322ce823fea", "fusion_lat": 0.0, "is_reserved": 0, "lon": -76.985376}, {"type": "electric_scooter", "name": "28bc2dae98ae38bc8fb6ce3f53bd6b89", "rental_uris": {"ios": "https://dc.lft.to/lastmile_qr_scan", "android": "https://dc.lft.to/lastmile_qr_scan"}, "fusion_lon": 0.0, "lat": 38.9007765, "is_disabled": 0, "bike_id": "28bc2dae98ae38bc8fb6ce3f53bd6b89", "fusion_lat": 0.0, "is_reserved": 0, "lon": -77.02595916666667}, {"type": "electric_scooter", "name": "de2d60bae19492b8d39ab92683f53f7b", "rental_uris": {"ios": "https://dc.lft.to/lastmile_qr_scan", "android": "https://dc.lft.to/lastmile_qr_scan"}, "fusion_lon": 0.0, "lat": 38.910416, "is_disabled": 0, "bike_id": "de2d60bae19492b8d39ab92683f53f7b", "fusion_lat": 0.0, "is_reserved": 0, "lon": -77.07566533333333}, {"type": "electric_bike", "name": "238e5663311d42ad5b1c65733d27aa19", "rental_uris": {"ios": "https://dc.lft.to/lastmile_qr_scan", "android": "https://dc.lft.to/lastmile_qr_scan"}, "fusion_lon": 0.0, "lat": 38.79856183333333, "is_disabled": 0, "bike_id": "238e5663311d42ad5b1c65733d27aa19", "fusion_lat": 0.0, "is_reserved": 0, "lon": -77.06308516666667}, {"type": "electric_scooter", "name": "c0b5f33d0211db3cd3d093556c790a64", "rental_uris": {"ios": "https://dc.lft.to/lastmile_qr_scan", "android": "https://dc.lft.to/lastmile_qr_scan"}, "fusion_lon": 0.0, "lat": 38.87992033333333, "is_disabled": 0, "bike_id": "c0b5f33d0211db3cd3d093556c790a64", "fusion_lat": 0.0, "is_reserved": 0, "lon": -77.02410183333333}, {"type": "electric_scooter", "name": "2ad1ad05a853187edfbf0041b375d2fa", "rental_uris": {"ios": "https://dc.lft.to/lastmile_qr_scan", "android": "https://dc.lft.to/lastmile_qr_scan"}, "fusion_lon": 0.0, "lat": 38.857960166666665, "is_disabled": 0, "bike_id": "2ad1ad05a853187edfbf0041b375d2fa", "fusion_lat": 0.0, "is_reserved": 0, "lon": -76.98908983333334}, {"type": "electric_scooter", "name": "5731fb9441daa10001fb54f3ad301df0", "rental_uris": {"ios": "https://dc.lft.to/lastmile_qr_scan", "android": "https://dc.lft.to/lastmile_qr_scan"}, "fusion_lon": 0.0, "lat": 38.91712883333334, "is_disabled": 0, "bike_id": "5731fb9441daa10001fb54f3ad301df0", "fusion_lat": 0.0, "is_reserved": 0, "lon": -77.031474}, {"type": "electric_scooter", "name": "906b53f34fb0e947f98b43979f156f85", "rental_uris": {"ios": "https://dc.lft.to/lastmile_qr_scan", "android": "https://dc.lft.to/lastmile_qr_scan"}, "fusion_lon": 0.0, "lat": 38.9111725, "is_disabled": 0, "bike_id": "906b53f34fb0e947f98b43979f156f85", "fusion_lat": 0.0, "is_reserved": 0, "lon": -77.02241816666667}, {"type": "electric_scooter", "name": "bd4cb0e33c90fdb6fab3290673a073e9", "rental_uris": {"ios": "https://dc.lft.to/lastmile_qr_scan", "android": "https://dc.lft.to/lastmile_qr_scan"}, "fusion_lon": 0.0, "lat": 38.915326, "is_disabled": 0, "bike_id": "bd4cb0e33c90fdb6fab3290673a073e9", "fusion_lat": 0.0, "is_reserved": 0, "lon": -77.01222666666666}, {"type": "electric_bike", "name": "0987da6408121a1d532b285065050380", "rental_uris": {"ios": "https://dc.lft.to/lastmile_qr_scan", "android": "https://dc.lft.to/lastmile_qr_scan"}, "fusion_lon": 0.0, "lat": 38.857777, "is_disabled": 0, "bike_id": "0987da6408121a1d532b285065050380", "fusion_lat": 0.0, "is_reserved": 0, "lon": -76.9874815}, {"type": "electric_bike", "name": "dc86e3da489eda4adcbb349e64fd8b5f", "rental_uris": {"ios": "https://dc.lft.to/lastmile_qr_scan", "android": "https://dc.lft.to/lastmile_qr_scan"}, "fusion_lon": 0.0, "lat": 38.944340833333335, "is_disabled": 0, "bike_id": "dc86e3da489eda4adcbb349e64fd8b5f", "fusion_lat": 0.0, "is_reserved": 0, "lon": -77.02605283333334}, {"type": "electric_scooter", "name": "3f18df8f620de48bdd9c70206cd8cb15", "rental_uris": {"ios": "https://dc.lft.to/lastmile_qr_scan", "android": "https://dc.lft.to/lastmile_qr_scan"}, "fusion_lon": 0.0, "lat": 38.9049935, "is_disabled": 0, "bike_id": "3f18df8f620de48bdd9c70206cd8cb15", "fusion_lat": 0.0, "is_reserved": 0, "lon": -77.00099166666666}, {"type": "electric_scooter", "name": "b2a8b629a3d82296f2832822ea915019", "rental_uris": {"ios": "https://dc.lft.to/lastmile_qr_scan", "android": "https://dc.lft.to/lastmile_qr_scan"}, "fusion_lon": 0.0, "lat": 38.924935166666664, "is_disabled": 0, "bike_id": "b2a8b629a3d82296f2832822ea915019", "fusion_lat": 0.0, "is_reserved": 0, "lon": -77.02151033333334}, {"type": "electric_scooter", "name": "3b257ee11d2f3d727c80521223c0e9a8", "rental_uris": {"ios": "https://dc.lft.to/lastmile_qr_scan", "android": "https://dc.lft.to/lastmile_qr_scan"}, "fusion_lon": 0.0, "lat": 38.947523833333335, "is_disabled": 0, "bike_id": "3b257ee11d2f3d727c80521223c0e9a8", "fusion_lat": 0.0, "is_reserved": 0, "lon": -77.00720233333334}, {"type": "electric_scooter", "name": "d276a1beecba01999c3082e54106018a", "rental_uris": {"ios": "https://dc.lft.to/lastmile_qr_scan", "android": "https://dc.lft.to/lastmile_qr_scan"}, "fusion_lon": 0.0, "lat": 38.93954, "is_disabled": 0, "bike_id": "d276a1beecba01999c3082e54106018a", "fusion_lat": 0.0, "is_reserved": 0, "lon": -77.08594833333333}, {"type": "electric_scooter", "name": "7b1996f038416b95235584e26d4a4d77", "rental_uris": {"ios": "https://dc.lft.to/lastmile_qr_scan", "android": "https://dc.lft.to/lastmile_qr_scan"}, "fusion_lon": 0.0, "lat": 38.93590483333333, "is_disabled": 0, "bike_id": "7b1996f038416b95235584e26d4a4d77", "fusion_lat": 0.0, "is_reserved": 0, "lon": -77.02850983333333}, {"type": "electric_scooter", "name": "5e5cebaac5ff125d02e15a3113079ee3", "rental_uris": {"ios": "https://dc.lft.to/lastmile_qr_scan", "android": "https://dc.lft.to/lastmile_qr_scan"}, "fusion_lon": 0.0, "lat": 38.925493, "is_disabled": 0, "bike_id": "5e5cebaac5ff125d02e15a3113079ee3", "fusion_lat": 0.0, "is_reserved": 0, "lon": -77.04060083333333}, {"type": "electric_scooter", "name": "76f798488f7c3def943bd59c76610860", "rental_uris": {"ios": "https://dc.lft.to/lastmile_qr_scan", "android": "https://dc.lft.to/lastmile_qr_scan"}, "fusion_lon": 0.0, "lat": 38.9234335, "is_disabled": 0, "bike_id": "76f798488f7c3def943bd59c76610860", "fusion_lat": 0.0, "is_reserved": 0, "lon": -77.05119833333333}, {"type": "electric_scooter", "name": "c1d37755751353f59b95c0b7e05f641c", "rental_uris": {"ios": "https://dc.lft.to/lastmile_qr_scan", "android": "https://dc.lft.to/lastmile_qr_scan"}, "fusion_lon": 0.0, "lat": 38.90708216666667, "is_disabled": 0, "bike_id": "c1d37755751353f59b95c0b7e05f641c", "fusion_lat": 0.0, "is_reserved": 0, "lon": -77.03586116666666}, {"type": "electric_scooter", "name": "0adda10ffd41186ca1c0f5d53d3cd08e", "rental_uris": {"ios": "https://dc.lft.to/lastmile_qr_scan", "android": "https://dc.lft.to/lastmile_qr_scan"}, "fusion_lon": 0.0, "lat": 38.88731633333333, "is_disabled": 0, "bike_id": "0adda10ffd41186ca1c0f5d53d3cd08e", "fusion_lat": 0.0, "is_reserved": 0, "lon": -77.02830183333333}, {"type": "electric_scooter", "name": "ebd660857f586a4ea20eb5c40e175366", "rental_uris": {"ios": "https://dc.lft.to/lastmile_qr_scan", "android": "https://dc.lft.to/lastmile_qr_scan"}, "fusion_lon": 0.0, "lat": 38.947029666666666, "is_disabled": 0, "bike_id": "ebd660857f586a4ea20eb5c40e175366", "fusion_lat": 0.0, "is_reserved": 0, "lon": -77.01941583333333}, {"type": "electric_scooter", "name": "895e652c06ba71cfbec663b0fd50d7eb", "rental_uris": {"ios": "https://dc.lft.to/lastmile_qr_scan", "android": "https://dc.lft.to/lastmile_qr_scan"}, "fusion_lon": 0.0, "lat": 38.90143233333333, "is_disabled": 0, "bike_id": "895e652c06ba71cfbec663b0fd50d7eb", "fusion_lat": 0.0, "is_reserved": 0, "lon": -77.0444355}, {"type": "electric_scooter", "name": "ac729ab1c5acb4eb9fdbeac521c6d8bc", "rental_uris": {"ios": "https://dc.lft.to/lastmile_qr_scan", "android": "https://dc.lft.to/lastmile_qr_scan"}, "fusion_lon": 0.0, "lat": 38.910686, "is_disabled": 0, "bike_id": "ac729ab1c5acb4eb9fdbeac521c6d8bc", "fusion_lat": 0.0, "is_reserved": 0, "lon": -77.03025616666666}, {"type": "electric_scooter", "name": "1f9e0a7e50a2834a1af4f136df3dda63", "rental_uris": {"ios": "https://dc.lft.to/lastmile_qr_scan", "android": "https://dc.lft.to/lastmile_qr_scan"}, "fusion_lon": 0.0, "lat": 38.8953425, "is_disabled": 0, "bike_id": "1f9e0a7e50a2834a1af4f136df3dda63", "fusion_lat": 0.0, "is_reserved": 0, "lon": -76.948926}, {"type": "electric_scooter", "name": "b198801cf2b70e59432181e113f4cb7d", "rental_uris": {"ios": "https://dc.lft.to/lastmile_qr_scan", "android": "https://dc.lft.to/lastmile_qr_scan"}, "fusion_lon": 0.0, "lat": 38.91103016666667, "is_disabled": 0, "bike_id": "b198801cf2b70e59432181e113f4cb7d", "fusion_lat": 0.0, "is_reserved": 0, "lon": -77.02802616666666}, {"type": "electric_scooter", "name": "ef3d55069e6ea05b267765251ad4cf52", "rental_uris": {"ios": "https://dc.lft.to/lastmile_qr_scan", "android": "https://dc.lft.to/lastmile_qr_scan"}, "fusion_lon": 0.0, "lat": 38.91088166666667, "is_disabled": 0, "bike_id": "ef3d55069e6ea05b267765251ad4cf52", "fusion_lat": 0.0, "is_reserved": 0, "lon": -77.0384285}, {"type": "electric_scooter", "name": "3dfdfdaa55e4f458ed89da9074f2de11", "rental_uris": {"ios": "https://dc.lft.to/lastmile_qr_scan", "android": "https://dc.lft.to/lastmile_qr_scan"}, "fusion_lon": 0.0, "lat": 38.87785, "is_disabled": 0, "bike_id": "3dfdfdaa55e4f458ed89da9074f2de11", "fusion_lat": 0.0, "is_reserved": 0, "lon": -76.99412766666667}, {"type": "electric_scooter", "name": "1742cef9066f2a594a62a8143da1a3a3", "rental_uris": {"ios": "https://dc.lft.to/lastmile_qr_scan", "android": "https://dc.lft.to/lastmile_qr_scan"}, "fusion_lon": 0.0, "lat": 38.89976766666667, "is_disabled": 0, "bike_id": "1742cef9066f2a594a62a8143da1a3a3", "fusion_lat": 0.0, "is_reserved": 0, "lon": -77.04146483333334}, {"type": "electric_scooter", "name": "d24d83c2f38d3184ae78853f4d2a6e7d", "rental_uris": {"ios": "https://dc.lft.to/lastmile_qr_scan", "android": "https://dc.lft.to/lastmile_qr_scan"}, "fusion_lon": 0.0, "lat": 38.89235083333333, "is_disabled": 0, "bike_id": "d24d83c2f38d3184ae78853f4d2a6e7d", "fusion_lat": 0.0, "is_reserved": 0, "lon": -77.048696}, {"type": "electric_scooter", "name": "3f9a39c09e33630af0546f4e960ff502", "rental_uris": {"ios": "https://dc.lft.to/lastmile_qr_scan", "android": "https://dc.lft.to/lastmile_qr_scan"}, "fusion_lon": 0.0, "lat": 38.91484416666667, "is_disabled": 0, "bike_id": "3f9a39c09e33630af0546f4e960ff502", "fusion_lat": 0.0, "is_reserved": 0, "lon": -77.00645966666667}, {"type": "electric_scooter", "name": "116c881ab3199f0f5780dea2c11389e8", "rental_uris": {"ios": "https://dc.lft.to/lastmile_qr_scan", "android": "https://dc.lft.to/lastmile_qr_scan"}, "fusion_lon": 0.0, "lat": 38.9221225, "is_disabled": 0, "bike_id": "116c881ab3199f0f5780dea2c11389e8", "fusion_lat": 0.0, "is_reserved": 0, "lon": -77.03520866666666}, {"type": "electric_scooter", "name": "76aaa41f75bc0ddf746ce6e144f3a4d3", "rental_uris": {"ios": "https://dc.lft.to/lastmile_qr_scan", "android": "https://dc.lft.to/lastmile_qr_scan"}, "fusion_lon": 0.0, "lat": 38.933803166666664, "is_disabled": 0, "bike_id": "76aaa41f75bc0ddf746ce6e144f3a4d3", "fusion_lat": 0.0, "is_reserved": 0, "lon": -77.03684333333334},