{"data": {"bikes": [{"bike_id": "44a46bf298576e74ff4632ac63418035", "type": "electric_scooter", "is_disabled": 0, "lat": 38.917021166666665, "rental_uris": {"ios": "https://dc.lft.to/lastmile_qr_scan", "android": "https://dc.lft.to/lastmile_qr_scan"}, "is_reserved": 0, "fusion_lon": 0.0, "fusion_lat": 0.0, "lon": -77.00653916666667, "name": "44a46bf298576e74ff4632ac63418035"}, {"bike_id": "9379a58e00429f265a61b7e26da65704", "type": "electric_scooter", "is_disabled": 0, "lat": 38.901755333333334, "rental_uris": {"ios": "https://dc.lft.to/lastmile_qr_scan", "android": "https://dc.lft.to/lastmile_qr_scan"}, "is_reserved": 0, "fusion_lon": 0.0, "fusion_lat": 0.0, "lon": -76.98062116666667, "name": "9379a58e00429f265a61b7e26da65704"}, {"bike_id": "e8f73a398325a6722e95563b38ac208d", "type": "electric_scooter", "is_disabled": 0, "lat": 38.93099816666667, "rental_uris": {"ios": "https://dc.lft.to/lastmile_qr_scan", "android": "https://dc.lft.to/lastmile_qr_scan"}, "is_reserved": 0, "fusion_lon": 0.0, "fusion_lat": 0.0, "lon": -77.02482016666667, "name": "e8f73a398325a6722e95563b38ac208d"}, {"bike_id": "95175b9788e1d10f2e3b52f01a932553", "type": "electric_scooter", "is_disabled": 0, "lat": 38.91821616666667, "rental_uris": {"ios": "https://dc.lft.to/lastmile_qr_scan", "android": "https://dc.lft.to/lastmile_qr_scan"}, "is_reserved": 0, "fusion_lon": 0.0, "fusion_lat": 0.0, "lon": -77.049427, "name": "95175b9788e1d10f2e3b52f01a932553"}, {"bike_id": "2c92bbbf76d1b73746adeaec93a700e4", "type": "electric_scooter", "is_disabled": 0, "lat": 38.867013166666666, "rental_uris": {"ios": "https://dc.lft.to/lastmile_qr_scan", "android": "https://dc.lft.to/lastmile_qr_scan"}, "is_reserved": 0, "fusion_lon": 0.0, "fusion_lat": 0.0, "lon": -76.9871615, "name": "2c92bbbf76d1b73746adeaec93a700e4"}, {"bike_id": "7a9aa8675d35cbd0f27bd7dcce532b29", "type": "electric_scooter", "is_disabled": 0, "lat": 38.93132666666666, "rental_uris": {"ios": "https://dc.lft.to/lastmile_qr_scan", "android": "https://dc.lft.to/lastmile_qr_scan"}, "is_reserved": 0, "fusion_lon": 0.0, "fusion_lat": 0.0, "lon": -76.99575516666667, "name": "7a9aa8675d35cbd0f27bd7dcce532b29"}, {"bike_id": "11bdcbca5957be8df32e1eeae77b465c", "type": "electric_scooter", "is_disabled": 0, "lat": 38.8985165, "rental_uris": {"ios": "https://dc.lft.to/lastmile_qr_scan", "android": "https://dc.lft.to/lastmile_qr_scan"}, "is_reserved": 0, "fusion_lon": 0.0, "fusion_lat": 0.0, "lon": -77.02851133333333, "name": "11bdcbca5957be8df32e1eeae77b465c"}, {"bike_id": "302c9586654acdb8f8a629ce9c0cbd73", "type": "electric_scooter", "is_disabled": 0, "lat": 38.90710216666667, "rental_uris": {"ios": "https://dc.lft.to/lastmile_qr_scan", "android": "https://dc.lft.to/lastmile_qr_scan"}, "is_reserved": 0, "fusion_lon": 0.0, "fusion_lat": 0.0, "lon": -77.0239765, "name": "302c9586654acdb8f8a629ce9c0cbd73"}, {"bike_id": "b9349136cc0dbdfb0c21da7fe21b36ac", "type": "electric_scooter", "is_disabled": 0, "lat": 38.9333625, "rental_uris": {"ios": "https://dc.lft.to/lastmile_qr_scan", "android": "https://dc.lft.to/lastmile_qr_scan"}, "is_reserved": 0, "fusion_lon": 0.0, "fusion_lat": 0.0, "lon": -77.02062116666667, "name": "b9349136cc0dbdfb0c21da7fe21b36ac"}, {"bike_id": "e55211755ed0cccdf2e1ddd2e1cbcf8b", "type": "electric_scooter", "is_disabled": 0, "lat": 38.94751933333333, "rental_uris": {"ios": "https://dc.lft.to/lastmile_qr_scan", "android": "https://dc.lft.to/lastmile_qr_scan"}, "is_reserved": 0, "fusion_lon": 0.0, "fusion_lat": 0.0, "lon": -77.07588466666667, "name": "e55211755ed0cccdf2e1ddd2e1cbcf8b"}, {"bike_id": "fac7f607daa6c437a72a012d3ce29ede", "type": "electric_scooter", "is_disabled": 0, "lat": 38.9127345, "rental_uris": {"ios": "https://dc.lft.to/lastmile_qr_scan", "android": "https://dc.lft.to/lastmile_qr_scan"}, "is_reserved": 0, "fusion_lon": 0.0, "fusion_lat": 0.0, "lon": -77.02275666666667, "name": "fac7f607daa6c437a72a012d3ce29ede"}, {"bike_id": "f9e936cf5cbc7b1a3bc5e86712b2464d", "type": "electric_scooter", "is_disabled": 0, "lat": 38.909652333333334, "rental_uris": {"ios": "https://dc.lft.to/lastmile_qr_scan", "android": "https://dc.lft.to/lastmile_qr_scan"}, "is_reserved": 0, "fusion_lon": 0.0, "fusion_lat": 0.0, "lon": -77.04645483333333, "name": "f9e936cf5cbc7b1a3bc5e86712b2464d"}, {"bike_id": "390ae43ac49cb5c8e5d0236088d412b7", "type": "electric_bike", "is_disabled": 0, "lat": 39.052786833333336, "rental_uris": {"ios": "https://dc.lft.to/lastmile_qr_scan", "android": "https://dc.lft.to/lastmile_qr_scan"}, "is_reserved": 0, "fusion_lon": 0.0, "fusion_lat": 0.0, "lon": -77.08068533333334, "name": "390ae43ac49cb5c8e5d0236088d412b7"}, {"bike_id": "f5dab1acf39c195424244525c238b87e", "type": "electric_scooter", "is_disabled": 0, "lat": 38.8922075, "rental_uris": {"ios": "https://dc.lft.to/lastmile_qr_scan", "android": "https://dc.lft.to/lastmile_qr_scan"}, "is_reserved": 0, "fusion_lon": 0.0, "fusion_lat": 0.0, "lon": -77.04192483333334, "name": "f5dab1acf39c195424244525c238b87e"}, {"bike_id": "fc45fb4604ab7d530e5507c6a852ee21", "type": "electric_bike", "is_disabled": 0, "lat": 39.014791833333334, "rental_uris": {"ios": "https://dc.lft.to/lastmile_qr_scan", "android": "https://dc.lft.to/lastmile_qr_scan"}, "is_reserved": 0, "fusion_lon": 0.0, "fusion_lat": 0.0, "lon": -77.05498333333334, "name": "fc45fb4604ab7d530e5507c6a852ee21"}, {"bike_id": "ceac59fd0d0efaa0a1b4399467fddae0", "type": "electric_scooter", "is_disabled": 0, "lat": 38.911171333333336, "rental_uris": {"ios": "https://dc.lft.to/lastmile_qr_scan", "android": "https://dc.lft.to/lastmile_qr_scan"}, "is_reserved": 0, "fusion_lon": 0.0, "fusion_lat": 0.0, "lon": -77.022398, "name": "ceac59fd0d0efaa0a1b4399467fddae0"}, {"bike_id": "5333b9ce68363ad9a618025aa5592614", "type": "electric_scooter", "is_disabled": 0, "lat": 38.89219083333333, "rental_uris": {"ios": "https://dc.lft.to/lastmile_qr_scan", "android": "https://dc.lft.to/lastmile_qr_scan"}, "is_reserved": 0, "fusion_lon": 0.0, "fusion_lat": 0.0, "lon": -77.02783816666667, "name": "5333b9ce68363ad9a618025aa5592614"}, {"bike_id": "1994efb9d40f5bb67661d50b83878ba9", "type": "electric_scooter", "is_disabled": 0, "lat": 38.919615666666665, "rental_uris": {"ios": "https://dc.lft.to/lastmile_qr_scan", "android": "https://dc.lft.to/lastmile_qr_scan"}, "is_reserved": 0, "fusion_lon": 0.0, "fusion_lat": 0.0, "lon": -77.01442616666667, "name": "1994efb9d40f5bb67661d50b83878ba9"}, {"bike_id": "6cbff5e6efc6230bc7469dc278867a5a", "type": "electric_scooter", "is_disabled": 0, "lat": 38.91707233333333, "rental_uris": {"ios": "https://dc.lft.to/lastmile_qr_scan", "android": "https://dc.lft.to/lastmile_qr_scan"}, "is_reserved": 0, "fusion_lon": 0.0, "fusion_lat": 0.0, "lon": -77.02884616666667, "name": "6cbff5e6efc6230bc7469dc278867a5a"}, {"bike_id": "6a2aa3a203b8f1f45d583f2c0a216afb", "type": "electric_bike", "is_disabled": 0, "lat": 38.908698333333334, "rental_uris": {"ios": "https://dc.lft.to/lastmile_qr_scan", "android": "https://dc.lft.to/lastmile_qr_scan"}, "is_reserved": 0, "fusion_lon": 0.0, "fusion_lat": 0.0, "lon": -77.076465, "name": "6a2aa3a203b8f1f45d583f2c0a216afb"}, {"bike_id": "eec4c723c05e448393891e363cde2799", "type": "electric_scooter", "is_disabled": 0, "lat": 38.898434, "rental_uris": {"ios": "https://dc.lft.to/lastmile_qr_scan", "android": "https://dc.lft.to/lastmile_qr_scan"}, "is_reserved": 0, "fusion_lon": 0.0, "fusion_lat": 0.0, "lon": -76.94635816666667, "name": "eec4c723c05e448393891e363cde2799"}, {"bike_id": "bba2adfa67ff3bd23144da41094f70e3", "type": "electric_scooter", "is_disabled": 0, "lat": 38.89475516666667, "rental_uris": {"ios": "https://dc.lft.to/lastmile_qr_scan", "android": "https://dc.lft.to/lastmile_qr_scan"}, "is_reserved": 0, "fusion_lon": 0.0, "fusion_lat": 0.0, "lon": -76.9948525, "name": "bba2adfa67ff3bd23144da41094f70e3"}, {"bike_id": "025d69d1ff2b6be8c174e12cbb8720df", "type": "electric_scooter", "is_disabled": 0, "lat": 38.920564666666664, "rental_uris": {"ios": "https://dc.lft.to/lastmile_qr_scan", "android": "https://dc.lft.to/lastmile_qr_scan"}, "is_reserved": 0, "fusion_lon": 0.0, "fusion_lat": 0.0, "lon": -77.02362933333333, "name": "025d69d1ff2b6be8c174e12cbb8720df"}, {"bike_id": "c716d62556378abf8adcfe597f535d25", "type": "electric_scooter", "is_disabled": 0, "lat": 38.9159365, "rental_uris": {"ios": "https://dc.lft.to/lastmile_qr_scan", "android": "https://dc.lft.to/lastmile_qr_scan"}, "is_reserved": 0, "fusion_lon": 0.0, "fusion_lat": 0.0, "lon": -77.00193366666667, "name": "c716d62556378abf8adcfe597f535d25"}, {"bike_id": "b3b905073876237b936b017d5fc7282a", "type": "electric_scooter", "is_disabled": 0, "lat": 38.844309333333335, "rental_uris": {"ios": "https://dc.lft.to/lastmile_qr_scan", "android": "https://dc.lft.to/lastmile_qr_scan"}, "is_reserved": 0, "fusion_lon": 0.0, "fusion_lat": 0.0, "lon": -76.9986565, "name": "b3b905073876237b936b017d5fc7282a"}, {"bike_id": "e0a7db8cae780f3db1f97a4f637457ae", "type": "electric_scooter", "is_disabled": 0, "lat": 38.90792583333333, "rental_uris": {"ios": "https://dc.lft.to/lastmile_qr_scan", "android": "https://dc.lft.to/lastmile_qr_scan"}, "is_reserved": 0, "fusion_lon": 0.0, "fusion_lat": 0.0, "lon": -77.03200616666666, "name": "e0a7db8cae780f3db1f97a4f637457ae"}, {"bike_id": "bdb6b15ca2d037e331c656b5c92955a1", "type": "electric_scooter", "is_disabled": 0, "lat": 38.934011166666664, "rental_uris": {"ios": "https://dc.lft.to/lastmile_qr_scan", "android": "https://dc.lft.to/lastmile_qr_scan"}, "is_reserved": 0, "fusion_lon": 0.0, "fusion_lat": 0.0, "lon": -77.03518916666667, "name": "bdb6b15ca2d037e331c656b5c92955a1"}, {"bike_id": "bdf1767e4469a08603a24ee1821a2a99", "type": "electric_scooter", "is_disabled": 0, "lat": 38.90702783333333, "rental_uris": {"ios": "https://dc.lft.to/lastmile_qr_scan", "android": "https://dc.lft.to/lastmile_qr_scan"}, "is_reserved": 0, "fusion_lon": 0.0, "fusion_lat": 0.0, "lon": -77.0419, "name": "bdf1767e4469a08603a24ee1821a2a99"}, {"bike_id": "4b12c45ddd2e02cfadd3f3b67b4eb27c", "type": "electric_scooter", "is_disabled": 0, "lat": 38.91721616666667, "rental_uris": {"ios": "https://dc.lft.to/lastmile_qr_scan", "android": "https://dc.lft.to/lastmile_qr_scan"}, "is_reserved": 0, "fusion_lon": 0.0, "fusion_lat": 0.0, "lon": -77.03659016666667, "name": "4b12c45ddd2e02cfadd3f3b67b4eb27c"}, {"bike_id": "eb441aa0b1e5535f70094650d1c1150b", "type": "electric_scooter", "is_disabled": 0, "lat": 38.921391166666666, "rental_uris": {"ios": "https://dc.lft.to/lastmile_qr_scan", "android": "https://dc.lft.to/lastmile_qr_scan"}, "is_reserved": 0, "fusion_lon": 0.0, "fusion_lat": 0.0, "lon": -77.04766266666667, "name": "eb441aa0b1e5535f70094650d1c1150b"}, {"bike_id": "72f4d42093e2d7a0049075ef9b2d9b06", "type": "electric_scooter", "is_disabled": 0, "lat": 38.9384785, "rental_uris": {"ios": "https://dc.lft.to/lastmile_qr_scan", "android": "https://dc.lft.to/lastmile_qr_scan"}, "is_reserved": 0, "fusion_lon": 0.0, "fusion_lat": 0.0, "lon": -77.0723285, "name": "72f4d42093e2d7a0049075ef9b2d9b06"}, {"bike_id": "9fde3f264f537d31be3e666ff183fc3f", "type": "electric_scooter", "is_disabled": 0, "lat": 38.909467, "rental_uris": {"ios": "https://dc.lft.to/lastmile_qr_scan", "android": "https://dc.lft.to/lastmile_qr_scan"}, "is_reserved": 0, "fusion_lon": 0.0, "fusion_lat": 0.0, "lon": -77.05565866666667, "name": "9fde3f264f537d31be3e666ff183fc3f"}, {"bike_id": "7aadc4d64db7291a20a862968a650dc6", "type": "electric_scooter", "is_disabled": 0, "lat": 38.90623933333333, "rental_uris": {"ios": "https://dc.lft.to/lastmile_qr_scan", "android": "https://dc.lft.to/lastmile_qr_scan"}, "is_reserved": 0, "fusion_lon": 0.0, "fusion_lat": 0.0, "lon": -77.00702883333334, "name": "7aadc4d64db7291a20a862968a650dc6"}, {"bike_id": "7597a88409dc814c26ef9394b84bfe17", "type": "electric_scooter", "is_disabled": 0, "lat": 38.9097625, "rental_uris": {"ios": "https://dc.lft.to/lastmile_qr_scan", "android": "https://dc.lft.to/lastmile_qr_scan"}, "is_reserved": 0, "fusion_lon": 0.0, "fusion_lat": 0.0, "lon": -77.01507916666667, "name": "7597a88409dc814c26ef9394b84bfe17"}, {"bike_id": "d175e09a83fe19134fe72c495ad651ef", "type": "electric_scooter", "is_disabled": 0, "lat": 38.96506216666667, "rental_uris": {"ios": "https://dc.lft.to/lastmile_qr_scan", "android": "https://dc.lft.to/lastmile_qr_scan"}, "is_reserved": 0, "fusion_lon": 0.0, "fusion_lat": 0.0, "lon": -77.0020605, "name": "d175e09a83fe19134fe72c495ad651ef"}, {"bike_id": "da6d0457db3a1b32b0b9eb2686a9efb4", "type": "electric_scooter", "is_disabled": 0, "lat": 38.90721083333333, "rental_uris": {"ios": "https://dc.lft.to/lastmile_qr_scan", "android": "https://dc.lft.to/lastmile_qr_scan"}, "is_reserved": 0, "fusion_lon": 0.0, "fusion_lat": 0.0, "lon": -77.02250066666667, "name": "da6d0457db3a1b32b0b9eb2686a9efb4"}, {"bike_id": "69b8d50d5fe2c4724139d04519e1a98a", "type": "electric_scooter", "is_disabled": 0, "lat": 38.911088166666666, "rental_uris": {"ios": "https://dc.lft.to/lastmile_qr_scan", "android": "https://dc.lft.to/lastmile_qr_scan"}, "is_reserved": 0, "fusion_lon": 0.0, "fusion_lat": 0.0, "lon": -77.0490215, "name": "69b8d50d5fe2c4724139d04519e1a98a"}, {"bike_id": "8fd61874d0f8f018cc926905cdf39995", "type": "electric_scooter", "is_disabled": 0, "lat": 38.84531916666667, "rental_uris": {"ios": "https://dc.lft.to/lastmile_qr_scan", "android": "https://dc.lft.to/lastmile_qr_scan"}, "is_reserved": 0, "fusion_lon": 0.0, "fusion_lat": 0.0, "lon": -76.98549316666667, "name": "8fd61874d0f8f018cc926905cdf39995"}, {"bike_id": "513a059793578b5f0de318782acdb7c3", "type": "electric_bike", "is_disabled": 0, "lat": 38.86511816666667, "rental_uris": {"ios": "https://dc.lft.to/lastmile_qr_scan", "android": "https://dc.lft.to/lastmile_qr_scan"}, "is_reserved": 0, "fusion_lon": 0.0, "fusion_lat": 0.0, "lon": -76.9734105, "name": "513a059793578b5f0de318782acdb7c3"}, {"bike_id": "137b5f922b2bf7521a36b4d5d430c3f1", "type": "electric_scooter", "is_disabled": 0, "lat": 38.90706516666667, "rental_uris": {"ios": "https://dc.lft.to/lastmile_qr_scan", "android": "https://dc.lft.to/lastmile_qr_scan"}, "is_reserved": 0, "fusion_lon": 0.0, "fusion_lat": 0.0, "lon": -77.02398616666666, "name": "137b5f922b2bf7521a36b4d5d430c3f1"}, {"bike_id": "1be7977e0fdb7ef4539660dc0c732cd5", "type": "electric_scooter", "is_disabled": 0, "lat": 38.91553566666666, "rental_uris": {"ios": "https://dc.lft.to/lastmile_qr_scan", "android": "https://dc.lft.to/lastmile_qr_scan"}, "is_reserved": 0, "fusion_lon": 0.0, "fusion_lat": 0.0, "lon": -77.03175466666667, "name": "1be7977e0fdb7ef4539660dc0c732cd5"}, {"bike_id": "3044d14dedbfd106198bfbd984f5b2f7", "type": "electric_scooter", "is_disabled": 0, "lat": 38.90821283333333, "rental_uris": {"ios": "https://dc.lft.to/lastmile_qr_scan", "android": "https://dc.lft.to/lastmile_qr_scan"}, "is_reserved": 0, "fusion_lon": 0.0, "fusion_lat": 0.0, "lon": -77.03461033333333, "name": "3044d14dedbfd106198bfbd984f5b2f7"}, {"bike_id": "3ac260d36cf8747184fb83a4be8b99f8", "type": "electric_scooter", "is_disabled": 0, "lat": 38.8953825, "rental_uris": {"ios": "https://dc.lft.to/lastmile_qr_scan", "android": "https://dc.lft.to/lastmile_qr_scan"}, "is_reserved": 0, "fusion_lon": 0.0, "fusion_lat": 0.0, "lon": -76.98865266666667, "name": "3ac260d36cf8747184fb83a4be8b99f8"}, {"bike_id": "40d12f8daec141adabedfa897550ab4d", "type": "electric_scooter", "is_disabled": 0, "lat": 38.84314583333333, "rental_uris": {"ios": "https://dc.lft.to/lastmile_qr_scan", "android": "https://dc.lft.to/lastmile_qr_scan"}, "is_reserved": 0, "fusion_lon": 0.0, "fusion_lat": 0.0, "lon": -76.99922483333333, "name": "40d12f8daec141adabedfa897550ab4d"}, {"bike_id": "5e4cce8ea40a498db514faf74c8d79be", "type": "electric_bike", "is_disabled": 0, "lat": 38.9480215, "rental_uris": {"ios": "https://dc.lft.to/lastmile_qr_scan", "android": "https://dc.lft.to/lastmile_qr_scan"}, "is_reserved": 0, "fusion_lon": 0.0, "fusion_lat": 0.0, "lon": -76.955362, "name": "5e4cce8ea40a498db514faf74c8d79be"}, {"bike_id": "91955bcb9d8b2beeae40363d1e2c18f0", "type": "electric_scooter", "is_disabled": 0, "lat": 38.918119, "rental_uris": {"ios": "https://dc.lft.to/lastmile_qr_scan", "android": "https://dc.lft.to/lastmile_qr_scan"}, "is_reserved": 0, "fusion_lon": 0.0, "fusion_lat": 0.0, "lon": -77.03182716666667, "name": "91955bcb9d8b2beeae40363d1e2c18f0"}, {"bike_id": "b93d279a07510b3e58b70b7d8e425d22", "type": "electric_scooter", "is_disabled": 0, "lat": 38.91445083333333, "rental_uris": {"ios": "https://dc.lft.to/lastmile_qr_scan", "android": "https://dc.lft.to/lastmile_qr_scan"}, "is_reserved": 0, "fusion_lon": 0.0, "fusion_lat": 0.0, "lon": -77.04585666666667, "name": "b93d279a07510b3e58b70b7d8e425d22"}, {"bike_id": "1de1f31d981ef98b267793f9765e311b", "type": "electric_scooter", "is_disabled": 0, "lat": 38.92315766666667, "rental_uris": {"ios": "https://dc.lft.to/lastmile_qr_scan", "android": "https://dc.lft.to/lastmile_qr_scan"}, "is_reserved": 0, "fusion_lon": 0.0, "fusion_lat": 0.0, "lon": -77.04647666666666, "name": "1de1f31d981ef98b267793f9765e311b"}, {"bike_id": "219497fe374bb197fc5f1c0ecfe8a0d7", "type": "electric_scooter", "is_disabled": 0, "lat": 38.908458833333334, "rental_uris": {"ios": "https://dc.lft.to/lastmile_qr_scan", "android": "https://dc.lft.to/lastmile_qr_scan"}, "is_reserved": 0, "fusion_lon": 0.0, "fusion_lat": 0.0, "lon": -77.02716816666667, "name": "219497fe374bb197fc5f1c0ecfe8a0d7"}, {"bike_id": "bbe7672332c507ca3802092332530cf2", "type": "electric_scooter", "is_disabled": 0, "lat": 38.91546233333333, "rental_uris": {"ios": "https://dc.lft.to/lastmile_qr_scan", "android": "https://dc.lft.to/lastmile_qr_scan"}, "is_reserved": 0, "fusion_lon": 0.0, "fusion_lat": 0.0, "lon": -77.02193283333334, "name": "bbe7672332c507ca3802092332530cf2"}, {"bike_id": "753eeb9dbb79e7fc157001822baf686d", "type": "electric_scooter", "is_disabled": 0, "lat": 38.9022295, "rental_uris": {"ios": "https://dc.lft.to/lastmile_qr_scan", "android": "https://dc.lft.to/lastmile_qr_scan"}, "is_reserved": 0, "fusion_lon": 0.0, "fusion_lat": 0.0, "lon": -77.041171, "name": "753eeb9dbb79e7fc157001822baf686d"}, {"bike_id": "ef5d98752246acb9992243e245ef06a0", "type": "electric_scooter", "is_disabled": 0, "lat": 38.91668633333333, "rental_uris": {"ios": "https://dc.lft.to/lastmile_qr_scan", "android": "https://dc.lft.to/lastmile_qr_scan"}, "is_reserved": 0, "fusion_lon": 0.0, "fusion_lat": 0.0, "lon": -77.02390066666666, "name": "ef5d98752246acb9992243e245ef06a0"}, {"bike_id": "49cdd8d97307f38663b0ce09353c26cc", "type": "electric_scooter", "is_disabled": 0, "lat": 38.90787433333333, "rental_uris": {"ios": "https://dc.lft.to/lastmile_qr_scan", "android": "https://dc.lft.to/lastmile_qr_scan"}, "is_reserved": 0, "fusion_lon": 0.0, "fusion_lat": 0.0, "lon": -77.010784, "name": "49cdd8d97307f38663b0ce09353c26cc"}, {"bike_id": "8d6a7d664e51d95f70a3f1942e3187cf", "type": "electric_scooter", "is_disabled": 0, "lat": 38.917030833333335, "rental_uris": {"ios": "https://dc.lft.to/lastmile_qr_scan", "android": "https://dc.lft.to/lastmile_qr_scan"}, "is_reserved": 0, "fusion_lon": 0.0, "fusion_lat": 0.0, "lon": -77.03158533333334, "name": "8d6a7d664e51d95f70a3f1942e3187cf"}, {"bike_id": "ebf73b6f6fb53dc5d980ab4a2eb16808", "type": "electric_scooter", "is_disabled": 0, "lat": 38.9005015, "rental_uris": {"ios": "https://dc.lft.to/lastmile_qr_scan", "android": "https://dc.lft.to/lastmile_qr_scan"}, "is_reserved": 0, "fusion_lon": 0.0, "fusion_lat": 0.0, "lon": -77.04175066666667, "name": "ebf73b6f6fb53dc5d980ab4a2eb16808"}, {"bike_id": "1567db6c4e724da450ad3ff358e96974", "type": "electric_scooter", "is_disabled": 0, "lat": 38.876468833333334, "rental_uris": {"ios": "https://dc.lft.to/lastmile_qr_scan", "android": "https://dc.lft.to/lastmile_qr_scan"}, "is_reserved": 0, "fusion_lon": 0.0, "fusion_lat": 0.0, "lon": -77.00440216666667, "name": "1567db6c4e724da450ad3ff358e96974"}, {"bike_id": "11b86e370b6417fd06a1ffa2ea150a54", "type": "electric_scooter", "is_disabled": 0, "lat": 38.90010733333333, "rental_uris": {"ios": "https://dc.lft.to/lastmile_qr_scan", "android": "https://dc.lft.to/lastmile_qr_scan"}, "is_reserved": 0, "fusion_lon": 0.0, "fusion_lat": 0.0, "lon": -76.985354, "name": "11b86e370b6417fd06a1ffa2ea150a54"}, {"bike_id": "9aa08a0117e48e37afaf7b08946258d2", "type": "electric_scooter", "is_disabled": 0, "lat": 38.965501833333335, "rental_uris": {"ios": "https://dc.lft.to/lastmile_qr_scan", "android": "https://dc.lft.to/lastmile_qr_scan"}, "is_reserved": 0, "fusion_lon": 0.0, "fusion_lat": 0.0, "lon": -77.03621033333333, "name": "9aa08a0117e48e37afaf7b08946258d2"}, {"bike_id": "74c8ec721fc8ee58170846287f892e04", "type": "electric_scooter", "is_disabled": 0, "lat": 38.9189595, "rental_uris": {"ios": "https://dc.lft.to/lastmile_qr_scan", "android": "https://dc.lft.to/lastmile_qr_scan"}, "is_reserved": 0, "fusion_lon": 0.0, "fusion_lat": 0.0, "lon": -77.03119, "name": "74c8ec721fc8ee58170846287f892e04"}, {"bike_id": "e5be90e40d5e6a01014188cfac8beb7a", "type": "electric_scooter", "is_disabled": 0, "lat": 38.90961983333333, "rental_uris": {"ios": "https://dc.lft.to/lastmile_qr_scan", "android": "https://dc.lft.to/lastmile_qr_scan"}, "is_reserved": 0, "fusion_lon": 0.0, "fusion_lat": 0.0, "lon": -77.0188555, "name": "e5be90e40d5e6a01014188cfac8beb7a"}, {"bike_id": "17d0c4bfeb6b7209c50ec6e6f660e6c4", "type": "electric_scooter", "is_disabled": 0, "lat": 38.91799566666667, "rental_uris": {"ios": "https://dc.lft.to/lastmile_qr_scan", "android": "https://dc.lft.to/lastmile_qr_scan"}, "is_reserved": 0, "fusion_lon": 0.0, "fusion_lat": 0.0, "lon": -77.023167, "name": "17d0c4bfeb6b7209c50ec6e6f660e6c4"}, {"bike_id": "3304449388160d6c45861e36a6779d35", "type": "electric_scooter", "is_disabled": 0, "lat": 38.9126785, "rental_uris": {"ios": "https://dc.lft.to/lastmile_qr_scan", "android": "https://dc.lft.to/lastmile_qr_scan"}, "is_reserved": 0, "fusion_lon": 0.0, "fusion_lat": 0.0, "lon": -77.02208833333333, "name": "3304449388160d6c45861e36a6779d35"}, {"bike_id": "24b807b1d36b4a2a5086a7f68b756914", "type": "electric_scooter", "is_disabled": 0, "lat": 38.9169035, "rental_uris": {"ios": "https://dc.lft.to/lastmile_qr_scan", "android": "https://dc.lft.to/lastmile_qr_scan"}, "is_reserved": 0, "fusion_lon": 0.0, "fusion_lat": 0.0, "lon": -77.02348516666666, "name": "24b807b1d36b4a2a5086a7f68b756914"}, {"bike_id": "fec37fa6c65a058025725a1f650a9713", "type": "electric_scooter", "is_disabled": 0, "lat": 38.937086, "rental_uris": {"ios": "https://dc.lft.to/lastmile_qr_scan", "android": "https://dc.lft.to/lastmile_qr_scan"}, "is_reserved": 0, "fusion_lon": 0.0, "fusion_lat": 0.0, "lon": -77.0241935, "name": "fec37fa6c65a058025725a1f650a9713"}, {"bike_id": "fd03cf15f96bc1144e7af03773523965", "type": "electric_scooter", "is_disabled": 0, "lat": 38.892243, "rental_uris": {"ios": "https://dc.lft.to/lastmile_qr_scan", "android": "https://dc.lft.to/lastmile_qr_scan"}, "is_reserved": 0, "fusion_lon": 0.0, "fusion_lat": 0.0, "lon": -77.04309583333334, "name": "fd03cf15f96bc1144e7af03773523965"}, {"bike_id": "c458e4d8477d2f2e1e94b171619e8bff", "type": "electric_scooter", "is_disabled": 0, "lat": 38.917703333333336, "rental_uris": {"ios": "https://dc.lft.to/lastmile_qr_scan", "android": "https://dc.lft.to/lastmile_qr_scan"}, "is_reserved": 0, "fusion_lon": 0.0, "fusion_lat": 0.0, "lon": -77.0477425, "name": "c458e4d8477d2f2e1e94b171619e8bff"}, {"bike_id": "fb0bc0e31f9336ec484cb475ab88770d", "type": "electric_scooter", "is_disabled": 0, "lat": 38.903756, "rental_uris": {"ios": "https://dc.lft.to/lastmile_qr_scan", "android": "https://dc.lft.to/lastmile_qr_scan"}, "is_reserved": 0, "fusion_lon": 0.0, "fusion_lat": 0.0, "lon": -77.0074745, "name": "fb0bc0e31f9336ec484cb475ab88770d"}, {"bike_id": "fbc53f29f28ea8e2c4d2527f7d14df0e", "type": "electric_scooter", "is_disabled": 0, "lat": 38.899399333333335, "rental_uris": {"ios": "https://dc.lft.to/lastmile_qr_scan", "android": "https://dc.lft.to/lastmile_qr_scan"}, "is_reserved": 0, "fusion_lon": 0.0, "fusion_lat": 0.0, "lon": -77.01862983333334, "name": "fbc53f29f28ea8e2c4d2527f7d14df0e"}, {"bike_id": "6898d1b1a062539e8b534d87f39a03d9", "type": "electric_bike", "is_disabled": 0, "lat": 38.9489705, "rental_uris": {"ios": "https://dc.lft.to/lastmile_qr_scan", "android": "https://dc.lft.to/lastmile_qr_scan"}, "is_reserved": 0, "fusion_lon": 0.0, "fusion_lat": 0.0, "lon": -76.96379433333334, "name": "6898d1b1a062539e8b534d87f39a03d9"}, {"bike_id": "bcb10ea85bb5a3ec922add4854657aa7", "type": "electric_scooter", "is_disabled": 0, "lat": 38.9133795, "rental_uris": {"ios": "https://dc.lft.to/lastmile_qr_scan", "android": "https://dc.lft.to/lastmile_qr_scan"}, "is_reserved": 0, "fusion_lon": 0.0, "fusion_lat": 0.0, "lon": -77.025887, "name": "bcb10ea85bb5a3ec922add4854657aa7"}, {"bike_id": "a02d6eaffe585cd30cc2ecd49aae02ff", "type": "electric_scooter", "is_disabled": 0, "lat": 38.92246983333333, "rental_uris": {"ios": "https://dc.lft.to/lastmile_qr_scan", "android": "https://dc.lft.to/lastmile_qr_scan"}, "is_reserved": 0, "fusion_lon": 0.0, "fusion_lat": 0.0, "lon": -77.04272283333333, "name": "a02d6eaffe585cd30cc2ecd49aae02ff"}, {"bike_id": "b3dd175e40ca1e743f2c4497e4a839db", "type": "electric_scooter", "is_disabled": 0, "lat": 38.9286425, "rental_uris": {"ios": "https://dc.lft.to/lastmile_qr_scan", "android": "https://dc.lft.to/lastmile_qr_scan"}, "is_reserved": 0, "fusion_lon": 0.0, "fusion_lat": 0.0, "lon": -77.03716183333333, "name": "b3dd175e40ca1e743f2c4497e4a839db"}, {"bike_id": "7fba2edc35b6a1bdfed9875a37d4b2ab", "type": "electric_scooter", "is_disabled": 0, "lat": 38.91952466666667, "rental_uris": {"ios": "https://dc.lft.to/lastmile_qr_scan", "android": "https://dc.lft.to/lastmile_qr_scan"}, "is_reserved": 0, "fusion_lon": 0.0, "fusion_lat": 0.0, "lon": -77.02489216666666, "name": "7fba2edc35b6a1bdfed9875a37d4b2ab"}, {"bike_id": "007ef11ae3cb78319082244cea538a8d", "type": "electric_scooter", "is_disabled": 0, "lat": 38.921926666666664, "rental_uris": {"ios": "https://dc.lft.to/lastmile_qr_scan", "android": "https://dc.lft.to/lastmile_qr_scan"}, "is_reserved": 0, "fusion_lon": 0.0, "fusion_lat": 0.0, "lon": -77.0380355, "name": "007ef11ae3cb78319082244cea538a8d"}, {"bike_id": "a302838b2f2ac2d104c12dfb0645f5d4", "type": "electric_scooter", "is_disabled": 0, "lat": 38.9126775, "rental_uris": {"ios": "https://dc.lft.to/lastmile_qr_scan", "android": "https://dc.lft.to/lastmile_qr_scan"}, "is_reserved": 0, "fusion_lon": 0.0, "fusion_lat": 0.0, "lon": -77.02208116666667, "name": "a302838b2f2ac2d104c12dfb0645f5d4"}, {"bike_id": "7bfd14f1917c94c75d85236247035a53", "type": "electric_scooter", "is_disabled": 0, "lat": 38.91820383333334, "rental_uris": {"ios": "https://dc.lft.to/lastmile_qr_scan", "android": "https://dc.lft.to/lastmile_qr_scan"}, "is_reserved": 0, "fusion_lon": 0.0, "fusion_lat": 0.0, "lon": -77.00261966666666, "name": "7bfd14f1917c94c75d85236247035a53"}, {"bike_id": "c16153a067dbbaada4574693dae281dc", "type": "electric_scooter", "is_disabled": 0, "lat": 38.906850666666664, "rental_uris": {"ios": "https://dc.lft.to/lastmile_qr_scan", "android": "https://dc.lft.to/lastmile_qr_scan"}, "is_reserved": 0, "fusion_lon": 0.0, "fusion_lat": 0.0, "lon": -77.02693383333333, "name": "c16153a067dbbaada4574693dae281dc"}, {"bike_id": "f0e8f765b4b645d46c6d07b2544b0265", "type": "electric_scooter", "is_disabled": 0, "lat": 38.87292516666667, "rental_uris": {"ios": "https://dc.lft.to/lastmile_qr_scan", "android": "https://dc.lft.to/lastmile_qr_scan"}, "is_reserved": 0, "fusion_lon": 0.0, "fusion_lat": 0.0, "lon": -77.0098575, "name": "f0e8f765b4b645d46c6d07b2544b0265"}, {"bike_id": "8995613d527e058eb50086fce2df2fc8", "type": "electric_scooter", "is_disabled": 0, "lat": 38.9268435, "rental_uris": {"ios": "https://dc.lft.to/lastmile_qr_scan", "android": "https://dc.lft.to/lastmile_qr_scan"}, "is_reserved": 0, "fusion_lon": 0.0, "fusion_lat": 0.0, "lon": -77.02157366666667, "name": "8995613d527e058eb50086fce2df2fc8"}, {"bike_id": "6d96602bbd18a3f3f4757b8e75f59822", "type": "electric_scooter", "is_disabled": 0, "lat": 38.890092, "rental_uris": {"ios": "https://dc.lft.to/lastmile_qr_scan", "android": "https://dc.lft.to/lastmile_qr_scan"}, "is_reserved": 0, "fusion_lon": 0.0, "fusion_lat": 0.0, "lon": -76.93747766666667, "name": "6d96602bbd18a3f3f4757b8e75f59822"}, {"bike_id": "a8945433b813f4eac561ed170f778b12", "type": "electric_scooter", "is_disabled": 0, "lat": 38.911473666666666, "rental_uris": {"ios": "https://dc.lft.to/lastmile_qr_scan", "android": "https://dc.lft.to/lastmile_qr_scan"}, "is_reserved": 0, "fusion_lon": 0.0, "fusion_lat": 0.0, "lon": -77.00662516666667, "name": "a8945433b813f4eac561ed170f778b12"}, {"bike_id": "4e5cd7005958765c68c83101a0c1f233", "type": "electric_scooter", "is_disabled": 0, "lat": 38.90725366666667, "rental_uris": {"ios": "https://dc.lft.to/lastmile_qr_scan", "android": "https://dc.lft.to/lastmile_qr_scan"}, "is_reserved": 0, "fusion_lon": 0.0, "fusion_lat": 0.0, "lon": -77.050089, "name": "4e5cd7005958765c68c83101a0c1f233"}, {"bike_id": "b62ec89bb9f120f001b6e085a74c7dd2", "type": "electric_scooter", "is_disabled": 0, "lat": 38.90719283333333, "rental_uris": {"ios": "https://dc.lft.to/lastmile_qr_scan", "android": "https://dc.lft.to/lastmile_qr_scan"}, "is_reserved": 0, "fusion_lon": 0.0, "fusion_lat": 0.0, "lon": -77.0482025, "name": "b62ec89bb9f120f001b6e085a74c7dd2"}, {"bike_id": "76bd7994986ef86d5219fe41a718cc96", "type": "electric_scooter", "is_disabled": 0, "lat": 38.8923415, "rental_uris": {"ios": "https://dc.lft.to/lastmile_qr_scan", "android": "https://dc.lft.to/lastmile_qr_scan"}, "is_reserved": 0, "fusion_lon": 0.0, "fusion_lat": 0.0, "lon": -77.04674783333333, "name": "76bd7994986ef86d5219fe41a718cc96"}, {"bike_id": "5f866dd8d7533b2d7ec76331ce41d90c", "type": "electric_scooter", "is_disabled": 0, "lat": 38.956882, "rental_uris": {"ios": "https://dc.lft.to/lastmile_qr_scan", "android": "https://dc.lft.to/lastmile_qr_scan"}, "is_reserved": 0, "fusion_lon": 0.0, "fusion_lat": 0.0, "lon": -77.02396833333333, "name": "5f866dd8d7533b2d7ec76331ce41d90c"}, {"bike_id": "c43aa2ab343d1fc202ef7e64c78903e5", "type": "electric_scooter", "is_disabled": 0, "lat": 38.93003983333333, "rental_uris": {"ios": "https://dc.lft.to/lastmile_qr_scan", "android": "https://dc.lft.to/lastmile_qr_scan"}, "is_reserved": 0, "fusion_lon": 0.0, "fusion_lat": 0.0, "lon": -77.03235183333334, "name": "c43aa2ab343d1fc202ef7e64c78903e5"}, {"bike_id": "57afbde8256c74def41c546aa4e4ef3f", "type": "electric_scooter", "is_disabled": 0, "lat": 38.9119, "rental_uris": {"ios": "https://dc.lft.to/lastmile_qr_scan", "android": "https://dc.lft.to/lastmile_qr_scan"}, "is_reserved": 0, "fusion_lon": 0.0, "fusion_lat": 0.0, "lon": -77.03868816666666, "name": "57afbde8256c74def41c546aa4e4ef3f"}, {"bike_id": "28a8bffbb14e651a480029780314d4c2", "type": "electric_scooter", "is_disabled": 0, "lat": 38.90271766666667, "rental_uris": {"ios": "https://dc.lft.to/lastmile_qr_scan", "android": "https://dc.lft.to/lastmile_qr_scan"}, "is_reserved": 0, "fusion_lon": 0.0, "fusion_lat": 0.0, "lon": -77.01883833333333, "name": "28a8bffbb14e651a480029780314d4c2"}, {"bike_id": "b13320ef0aef938e2ac020d93cded142", "type": "electric_scooter", "is_disabled": 0, "lat": 38.90116916666667, "rental_uris": {"ios": "https://dc.lft.to/lastmile_qr_scan", "android": "https://dc.lft.to/lastmile_qr_scan"}, "is_reserved": 0, "fusion_lon": 0.0, "fusion_lat": 0.0, "lon": -77.036377, "name": "b13320ef0aef938e2ac020d93cded142"}, {"bike_id": "ebb3114ae7b1e31fbb34c3e80f591c56", "type": "electric_scooter", "is_disabled": 0, "lat": 38.919241666666665, "rental_uris": {"ios": "https://dc.lft.to/lastmile_qr_scan", "android": "https://dc.lft.to/lastmile_qr_scan"}, "is_reserved": 0, "fusion_lon": 0.0, "fusion_lat": 0.0, "lon": -77.025797, "name": "ebb3114ae7b1e31fbb34c3e80f591c56"}, {"bike_id": "9cd870986ab0380be71776deb21b2659", "type": "electric_scooter", "is_disabled": 0, "lat": 38.90721533333333, "rental_uris": {"ios": "https://dc.lft.to/lastmile_qr_scan", "android": "https://dc.lft.to/lastmile_qr_scan"}, "is_reserved": 0, "fusion_lon": 0.0, "fusion_lat": 0.0, "lon": -77.04650966666667, "name": "9cd870986ab0380be71776deb21b2659"}, {"bike_id": "94b817b42a311b2cb633718291843d6a", "type": "electric_scooter", "is_disabled": 0, "lat": 38.92356216666667, "rental_uris": {"ios": "https://dc.lft.to/lastmile_qr_scan", "android": "https://dc.lft.to/lastmile_qr_scan"}, "is_reserved": 0, "fusion_lon": 0.0, "fusion_lat": 0.0, "lon": -77.035353, "name": "94b817b42a311b2cb633718291843d6a"}, {"bike_id": "c6d74982ee1939773c2b454c8ac876a6", "type": "electric_scooter", "is_disabled": 0, "lat": 38.89540516666667, "rental_uris": {"ios": "https://dc.lft.to/lastmile_qr_scan", "android": "https://dc.lft.to/lastmile_qr_scan"}, "is_reserved": 0, "fusion_lon": 0.0, "fusion_lat": 0.0, "lon": -76.98837733333333, "name": "c6d74982ee1939773c2b454c8ac876a6"}, {"bike_id": "ca17bbab4455b8df6f661a31a130bac5", "type": "electric_bike", "is_disabled": 0, "lat": 38.86335, "rental_uris": {"ios": "https://dc.lft.to/lastmile_qr_scan", "android": "https://dc.lft.to/lastmile_qr_scan"}, "is_reserved": 0, "fusion_lon": 0.0, "fusion_lat": 0.0, "lon": -76.98722766666667, "name": "ca17bbab4455b8df6f661a31a130bac5"}, {"bike_id": "1c888d90e3516e53fd867c0fe688f040", "type": "electric_scooter", "is_disabled": 0, "lat": 38.91373933333333, "rental_uris": {"ios": "https://dc.lft.to/lastmile_qr_scan", "android": "https://dc.lft.to/lastmile_qr_scan"}, "is_reserved": 0, "fusion_lon": 0.0, "fusion_lat": 0.0, "lon": -77.04601583333333, "name": "1c888d90e3516e53fd867c0fe688f040"}, {"bike_id": "a1e16e343195ec1af08709b7c8905b3b", "type": "electric_scooter", "is_disabled": 0, "lat": 38.9337945, "rental_uris": {"ios": "https://dc.lft.to/lastmile_qr_scan", "android": "https://dc.lft.to/lastmile_qr_scan"}, "is_reserved": 0, "fusion_lon": 0.0, "fusion_lat": 0.0, "lon": -77.05732366666666, "name": "a1e16e343195ec1af08709b7c8905b3b"}, {"bike_id": "e6b6171aa355c01df58129b7fb30272d", "type": "electric_bike", "is_disabled": 0, "lat": 38.8294935, "rental_uris": {"ios": "https://dc.lft.to/lastmile_qr_scan", "android": "https://dc.lft.to/lastmile_qr_scan"}, "is_reserved": 0, "fusion_lon": 0.0, "fusion_lat": 0.0, "lon": -77.12356233333334, "name": "e6b6171aa355c01df58129b7fb30272d"}, {"bike_id": "234c98a7bbd435843137c4fd7141132e", "type": "electric_scooter", "is_disabled": 0, "lat": 38.866995333333335, "rental_uris": {"ios": "https://dc.lft.to/lastmile_qr_scan", "android": "https://dc.lft.to/lastmile_qr_scan"}, "is_reserved": 0, "fusion_lon": 0.0, "fusion_lat": 0.0, "lon": -76.9871215, "name": "234c98a7bbd435843137c4fd7141132e"}, {"bike_id": "fe76b46b290bdfdec217615be8cc0362", "type": "electric_scooter", "is_disabled": 0, "lat": 38.90528, "rental_uris": {"ios": "https://dc.lft.to/lastmile_qr_scan", "android": "https://dc.lft.to/lastmile_qr_scan"}, "is_reserved": 0, "fusion_lon": 0.0, "fusion_lat": 0.0, "lon": -76.98623983333333, "name": "fe76b46b290bdfdec217615be8cc0362"}, {"bike_id": "300efd76a8490435e185fa286a853d1c", "type": "electric_scooter", "is_disabled": 0, "lat": 38.862106833333335, "rental_uris": {"ios": "https://dc.lft.to/lastmile_qr_scan", "android": "https://dc.lft.to/lastmile_qr_scan"}, "is_reserved": 0, "fusion_lon": 0.0, "fusion_lat": 0.0, "lon": -76.994736, "name": "300efd76a8490435e185fa286a853d1c"}, {"bike_id": "8512fa6e9dcbc5d77bec4083acb1f0d2", "type": "electric_scooter", "is_disabled": 0, "lat": 38.92159766666666, "rental_uris": {"ios": "https://dc.lft.to/lastmile_qr_scan", "android": "https://dc.lft.to/lastmile_qr_scan"}, "is_reserved": 0, "fusion_lon": 0.0, "fusion_lat": 0.0, "lon": -77.0384835, "name": "8512fa6e9dcbc5d77bec4083acb1f0d2"}, {"bike_id": "fc6bfeac713db45f3fd23e15519a277b", "type": "electric_scooter", "is_disabled": 0, "lat": 38.91692283333333, "rental_uris": {"ios": "https://dc.lft.to/lastmile_qr_scan", "android": "https://dc.lft.to/lastmile_qr_scan"}, "is_reserved": 0, "fusion_lon": 0.0, "fusion_lat": 0.0, "lon": -77.02599133333334, "name": "fc6bfeac713db45f3fd23e15519a277b"}, {"bike_id": "02fe2c3dacb553716a83f00de11fd669", "type": "electric_scooter", "is_disabled": 0, "lat": 38.857604, "rental_uris": {"ios": "https://dc.lft.to/lastmile_qr_scan", "android": "https://dc.lft.to/lastmile_qr_scan"}, "is_reserved": 0, "fusion_lon": 0.0, "fusion_lat": 0.0, "lon": -76.99304083333334, "name": "02fe2c3dacb553716a83f00de11fd669"}, {"bike_id": "68f1a1d7830ebcb68b264151b0d5958c", "type": "electric_bike", "is_disabled": 0, "lat": 38.90617183333333, "rental_uris": {"ios": "https://dc.lft.to/lastmile_qr_scan", "android": "https://dc.lft.to/lastmile_qr_scan"}, "is_reserved": 0, "fusion_lon": 0.0, "fusion_lat": 0.0, "lon": -76.98597983333333, "name": "68f1a1d7830ebcb68b264151b0d5958c"}, {"bike_id": "cf5c6e6643e89fd4206b9d508a81715f", "type": "electric_scooter", "is_disabled": 0, "lat": 38.93815166666667, "rental_uris": {"ios": "https://dc.lft.to/lastmile_qr_scan", "android": "https://dc.lft.to/lastmile_qr_scan"}, "is_reserved": 0, "fusion_lon": 0.0, "fusion_lat": 0.0, "lon": -77.02713, "name": "cf5c6e6643e89fd4206b9d508a81715f"}, {"bike_id": "edb1aeee1f4bf85a1aa2fd9fd22b35df", "type": "electric_scooter", "is_disabled": 0, "lat": 38.894791166666664, "rental_uris": {"ios": "https://dc.lft.to/lastmile_qr_scan", "android": "https://dc.lft.to/lastmile_qr_scan"}, "is_reserved": 0, "fusion_lon": 0.0, "fusion_lat": 0.0, "lon": -76.99520516666666, "name": "edb1aeee1f4bf85a1aa2fd9fd22b35df"}, {"bike_id": "82cdff07033b3940106ce2a609724b3b", "type": "electric_scooter", "is_disabled": 0, "lat": 38.94711733333333, "rental_uris": {"ios": "https://dc.lft.to/lastmile_qr_scan", "android": "https://dc.lft.to/lastmile_qr_scan"}, "is_reserved": 0, "fusion_lon": 0.0, "fusion_lat": 0.0, "lon": -77.0277745, "name": "82cdff07033b3940106ce2a609724b3b"}, {"bike_id": "bafa93c50e884137e9d203cad26417ba", "type": "electric_scooter", "is_disabled": 0, "lat": 38.92246983333333, "rental_uris": {"ios": "https://dc.lft.to/lastmile_qr_scan", "android": "https://dc.lft.to/lastmile_qr_scan"}, "is_reserved": 0, "fusion_lon": 0.0, "fusion_lat": 0.0, "lon": -77.01970733333333, "name": "bafa93c50e884137e9d203cad26417ba"}, {"bike_id": "b838b738d2cccd4e215943414a6b570c", "type": "electric_scooter", "is_disabled": 0, "lat": 38.923726333333335, "rental_uris": {"ios": "https://dc.lft.to/lastmile_qr_scan", "android": "https://dc.lft.to/lastmile_qr_scan"}, "is_reserved": 0, "fusion_lon": 0.0, "fusion_lat": 0.0, "lon": -77.05149183333333, "name": "b838b738d2cccd4e215943414a6b570c"}, {"bike_id": "8f62405d3664d2c229ccc9f0b0cdf78d", "type": "electric_scooter", "is_disabled": 0, "lat": 38.911064833333334, "rental_uris": {"ios": "https://dc.lft.to/lastmile_qr_scan", "android": "https://dc.lft.to/lastmile_qr_scan"}, "is_reserved": 0, "fusion_lon": 0.0, "fusion_lat": 0.0, "lon": -77.038284, "name": "8f62405d3664d2c229ccc9f0b0cdf78d"}, {"bike_id": "de8b3ebf696a39e1efd40f9e46a53b35", "type": "electric_scooter", "is_disabled": 0, "lat": 38.925011166666664, "rental_uris": {"ios": "https://dc.lft.to/lastmile_qr_scan", "android": "https://dc.lft.to/lastmile_qr_scan"}, "is_reserved": 0, "fusion_lon": 0.0, "fusion_lat": 0.0, "lon": -77.02145316666666, "name": "de8b3ebf696a39e1efd40f9e46a53b35"}, {"bike_id": "23a0432e9c8e553b4dc6be92483c0bd6", "type": "electric_scooter", "is_disabled": 0, "lat": 38.921544, "rental_uris": {"ios": "https://dc.lft.to/lastmile_qr_scan", "android": "https://dc.lft.to/lastmile_qr_scan"}, "is_reserved": 0, "fusion_lon": 0.0, "fusion_lat": 0.0, "lon": -77.03514816666667, "name": "23a0432e9c8e553b4dc6be92483c0bd6"}, {"bike_id": "28ed0f1220fe7a2b28debbac5e300c2a", "type": "electric_scooter", "is_disabled": 0, "lat": 38.9353465, "rental_uris": {"ios": "https://dc.lft.to/lastmile_qr_scan", "android": "https://dc.lft.to/lastmile_qr_scan"}, "is_reserved": 0, "fusion_lon": 0.0, "fusion_lat": 0.0, "lon": -77.03402616666666, "name": "28ed0f1220fe7a2b28debbac5e300c2a"}, {"bike_id": "0fb0d59817da2f1e75aa9f24c2b72652", "type": "electric_scooter", "is_disabled": 0, "lat": 38.887421, "rental_uris": {"ios": "https://dc.lft.to/lastmile_qr_scan", "android": "https://dc.lft.to/lastmile_qr_scan"}, "is_reserved": 0, "fusion_lon": 0.0, "fusion_lat": 0.0, "lon": -77.023137, "name": "0fb0d59817da2f1e75aa9f24c2b72652"}, {"bike_id": "da0b4cef3bb9dbcf4e5351b3b25c9be9", "type": "electric_scooter", "is_disabled": 0, "lat": 38.90468533333333, "rental_uris": {"ios": "https://dc.lft.to/lastmile_qr_scan", "android": "https://dc.lft.to/lastmile_qr_scan"}, "is_reserved": 0, "fusion_lon": 0.0, "fusion_lat": 0.0, "lon": -76.976127, "name": "da0b4cef3bb9dbcf4e5351b3b25c9be9"}, {"bike_id": "13c17c7a7c4979df3d7a36eda37aaef0", "type": "electric_scooter", "is_disabled": 0, "lat": 38.908515333333334, "rental_uris": {"ios": "https://dc.lft.to/lastmile_qr_scan", "android": "https://dc.lft.to/lastmile_qr_scan"}, "is_reserved": 0, "fusion_lon": 0.0, "fusion_lat": 0.0, "lon": -77.05490833333333, "name": "13c17c7a7c4979df3d7a36eda37aaef0"}, {"bike_id": "7d361857ff994504ff3227b70c98ebdc", "type": "electric_scooter", "is_disabled": 0, "lat": 38.90680116666667, "rental_uris": {"ios": "https://dc.lft.to/lastmile_qr_scan", "android": "https://dc.lft.to/lastmile_qr_scan"}, "is_reserved": 0, "fusion_lon": 0.0, "fusion_lat": 0.0, "lon": -76.97999416666667, "name": "7d361857ff994504ff3227b70c98ebdc"}, {"bike_id": "c675a6b48325846864306bca0a6996cf", "type": "electric_scooter", "is_disabled": 0, "lat": 38.9240205, "rental_uris": {"ios": "https://dc.lft.to/lastmile_qr_scan", "android": "https://dc.lft.to/lastmile_qr_scan"}, "is_reserved": 0, "fusion_lon": 0.0, "fusion_lat": 0.0, "lon": -77.0446915, "name": "c675a6b48325846864306bca0a6996cf"}, {"bike_id": "070193858b387800de50c4770d5a8517", "type": "electric_scooter", "is_disabled": 0, "lat": 38.921568, "rental_uris": {"ios": "https://dc.lft.to/lastmile_qr_scan", "android": "https://dc.lft.to/lastmile_qr_scan"}, "is_reserved": 0, "fusion_lon": 0.0, "fusion_lat": 0.0, "lon": -77.03515283333333, "name": "070193858b387800de50c4770d5a8517"}, {"bike_id": "a3085a6d338162bc002c1729503e3fd8", "type": "electric_bike", "is_disabled": 0, "lat": 38.88244066666667, "rental_uris": {"ios": "https://dc.lft.to/lastmile_qr_scan", "android": "https://dc.lft.to/lastmile_qr_scan"}, "is_reserved": 0, "fusion_lon": 0.0, "fusion_lat": 0.0, "lon": -76.962603, "name": "a3085a6d338162bc002c1729503e3fd8"}, {"bike_id": "5cf20d30028c445f96df46dd69ce48e2", "type": "electric_scooter", "is_disabled": 0, "lat": 38.918333833333335, "rental_uris": {"ios": "https://dc.lft.to/lastmile_qr_scan", "android": "https://dc.lft.to/lastmile_qr_scan"}, "is_reserved": 0, "fusion_lon": 0.0, "fusion_lat": 0.0, "lon": -77.02603616666667, "name": "5cf20d30028c445f96df46dd69ce48e2"}, {"bike_id": "ab2db943e0554f33c2150eae1bb63764", "type": "electric_bike", "is_disabled": 0, "lat": 38.93227916666667, "rental_uris": {"ios": "https://dc.lft.to/lastmile_qr_scan", "android": "https://dc.lft.to/lastmile_qr_scan"}, "is_reserved": 0, "fusion_lon": 0.0, "fusion_lat": 0.0, "lon": -77.18120133333333, "name": "ab2db943e0554f33c2150eae1bb63764"}, {"bike_id": "b8f8e6162a08b7bc9f5c26f19c5166a5", "type": "electric_scooter", "is_disabled": 0, "lat": 38.90237183333333, "rental_uris": {"ios": "https://dc.lft.to/lastmile_qr_scan", "android": "https://dc.lft.to/lastmile_qr_scan"}, "is_reserved": 0, "fusion_lon": 0.0, "fusion_lat": 0.0, "lon": -77.00193766666666, "name": "b8f8e6162a08b7bc9f5c26f19c5166a5"}, {"bike_id": "a0c967517cdc323873a3e8599602711c", "type": "electric_scooter", "is_disabled": 0, "lat": 38.93086066666667, "rental_uris": {"ios": "https://dc.lft.to/lastmile_qr_scan", "android": "https://dc.lft.to/lastmile_qr_scan"}, "is_reserved": 0, "fusion_lon": 0.0, "fusion_lat": 0.0, "lon": -77.02546383333333, "name": "a0c967517cdc323873a3e8599602711c"}, {"bike_id": "d1e2a264498c22e9c6e79d42d69db5ce", "type": "electric_scooter", "is_disabled": 0, "lat": 38.9171605, "rental_uris": {"ios": "https://dc.lft.to/lastmile_qr_scan", "android": "https://dc.lft.to/lastmile_qr_scan"}, "is_reserved": 0, "fusion_lon": 0.0, "fusion_lat": 0.0, "lon": -77.03662033333333, "name": "d1e2a264498c22e9c6e79d42d69db5ce"}, {"bike_id": "fb72c5e9752c7582b0d88d0385a3046e", "type": "electric_bike", "is_disabled": 0, "lat": 38.961276166666664, "rental_uris": {"ios": "https://dc.lft.to/lastmile_qr_scan", "android": "https://dc.lft.to/lastmile_qr_scan"}, "is_reserved": 0, "fusion_lon": 0.0, "fusion_lat": 0.0, "lon": -77.0332935, "name": "fb72c5e9752c7582b0d88d0385a3046e"}, {"bike_id": "590c6b3d1da32e9f67baea5602eb9ddd", "type": "electric_scooter", "is_disabled": 0, "lat": 38.9314365, "rental_uris": {"ios": "https://dc.lft.to/lastmile_qr_scan", "android": "https://dc.lft.to/lastmile_qr_scan"}, "is_reserved": 0, "fusion_lon": 0.0, "fusion_lat": 0.0, "lon": -77.03358416666667, "name": "590c6b3d1da32e9f67baea5602eb9ddd"}, {"bike_id": "1699c8409b7f375059cdb18ee9c8fe1d", "type": "electric_scooter", "is_disabled": 0, "lat": 38.94852383333333, "rental_uris": {"ios": "https://dc.lft.to/lastmile_qr_scan", "android": "https://dc.lft.to/lastmile_qr_scan"}, "is_reserved": 0, "fusion_lon": 0.0, "fusion_lat": 0.0, "lon": -77.08021466666666, "name": "1699c8409b7f375059cdb18ee9c8fe1d"}, {"bike_id": "4c6268a80384df21174066346d49481a", "type": "electric_scooter", "is_disabled": 0, "lat": 38.934617833333334, "rental_uris": {"ios": "https://dc.lft.to/lastmile_qr_scan", "android": "https://dc.lft.to/lastmile_qr_scan"}, "is_reserved": 0, "fusion_lon": 0.0, "fusion_lat": 0.0, "lon": -77.02796033333334, "name": "4c6268a80384df21174066346d49481a"}, {"bike_id": "c5d797bb50c65b595cbb77dcf2232234", "type": "electric_scooter", "is_disabled": 0, "lat": 38.98699716666667, "rental_uris": {"ios": "https://dc.lft.to/lastmile_qr_scan", "android": "https://dc.lft.to/lastmile_qr_scan"}, "is_reserved": 0, "fusion_lon": 0.0, "fusion_lat": 0.0, "lon": -77.02978266666666, "name": "c5d797bb50c65b595cbb77dcf2232234"}, {"bike_id": "957f70b52ccdec9eab77e8cff1f44550", "type": "electric_scooter", "is_disabled": 0, "lat": 38.892203333333335, "rental_uris": {"ios": "https://dc.lft.to/lastmile_qr_scan", "android": "https://dc.lft.to/lastmile_qr_scan"}, "is_reserved": 0, "fusion_lon": 0.0, "fusion_lat": 0.0, "lon": -77.03976383333334, "name": "957f70b52ccdec9eab77e8cff1f44550"}, {"bike_id": "5f2ba8d1d65ce20a26f3cedf7c59e68a", "type": "electric_scooter", "is_disabled": 0, "lat": 38.905281333333335, "rental_uris": {"ios": "https://dc.lft.to/lastmile_qr_scan", "android": "https://dc.lft.to/lastmile_qr_scan"}, "is_reserved": 0, "fusion_lon": 0.0, "fusion_lat": 0.0, "lon": -77.04997933333334, "name": "5f2ba8d1d65ce20a26f3cedf7c59e68a"}, {"bike_id": "24b9628d6d0672632882660aef2630ff", "type": "electric_scooter", "is_disabled": 0, "lat": 38.91840333333333, "rental_uris": {"ios": "https://dc.lft.to/lastmile_qr_scan", "android": "https://dc.lft.to/lastmile_qr_scan"}, "is_reserved": 0, "fusion_lon": 0.0, "fusion_lat": 0.0, "lon": -76.96555116666667, "name": "24b9628d6d0672632882660aef2630ff"}, {"bike_id": "625497bed6f31022cdd824ad74266c6d", "type": "electric_scooter", "is_disabled": 0, "lat": 38.917765, "rental_uris": {"ios": "https://dc.lft.to/lastmile_qr_scan", "android": "https://dc.lft.to/lastmile_qr_scan"}, "is_reserved": 0, "fusion_lon": 0.0, "fusion_lat": 0.0, "lon": -77.02363833333334, "name": "625497bed6f31022cdd824ad74266c6d"}, {"bike_id": "d64f2e1a0a2bb0e544c492c0381255d1", "type": "electric_scooter", "is_disabled": 0, "lat": 38.92860616666667, "rental_uris": {"ios": "https://dc.lft.to/lastmile_qr_scan", "android": "https://dc.lft.to/lastmile_qr_scan"}, "is_reserved": 0, "fusion_lon": 0.0, "fusion_lat": 0.0, "lon": -77.0329385, "name": "d64f2e1a0a2bb0e544c492c0381255d1"}, {"bike_id": "a990de9fe1cbbc6ae3099f7ec0f2c4d1", "type": "electric_scooter", "is_disabled": 0, "lat": 38.928373666666666, "rental_uris": {"ios": "https://dc.lft.to/lastmile_qr_scan", "android": "https://dc.lft.to/lastmile_qr_scan"}, "is_reserved": 0, "fusion_lon": 0.0, "fusion_lat": 0.0, "lon": -77.03258966666667, "name": "a990de9fe1cbbc6ae3099f7ec0f2c4d1"}, {"bike_id": "a1d9b99e4be37420a8a0c840b15870e1", "type": "electric_scooter", "is_disabled": 0, "lat": 38.902687, "rental_uris": {"ios": "https://dc.lft.to/lastmile_qr_scan", "android": "https://dc.lft.to/lastmile_qr_scan"}, "is_reserved": 0, "fusion_lon": 0.0, "fusion_lat": 0.0, "lon": -77.0175465, "name": "a1d9b99e4be37420a8a0c840b15870e1"}, {"bike_id": "b42b2a8ad36eeaa18f23961bdbda8ecf", "type": "electric_scooter", "is_disabled": 0, "lat": 38.90244766666667, "rental_uris": {"ios": "https://dc.lft.to/lastmile_qr_scan", "android": "https://dc.lft.to/lastmile_qr_scan"}, "is_reserved": 0, "fusion_lon": 0.0, "fusion_lat": 0.0, "lon": -77.02660766666666, "name": "b42b2a8ad36eeaa18f23961bdbda8ecf"}, {"bike_id": "5807077bc8139efbfba1c34915d72d47", "type": "electric_scooter", "is_disabled": 0, "lat": 38.910305, "rental_uris": {"ios": "https://dc.lft.to/lastmile_qr_scan", "android": "https://dc.lft.to/lastmile_qr_scan"}, "is_reserved": 0, "fusion_lon": 0.0, "fusion_lat": 0.0, "lon": -77.02816716666666, "name": "5807077bc8139efbfba1c34915d72d47"}, {"bike_id": "efd650275164e2f8d63f1ed86f76131b", "type": "electric_scooter", "is_disabled": 0, "lat": 38.90902066666666, "rental_uris": {"ios": "https://dc.lft.to/lastmile_qr_scan", "android": "https://dc.lft.to/lastmile_qr_scan"}, "is_reserved": 0, "fusion_lon": 0.0, "fusion_lat": 0.0, "lon": -77.04212566666666, "name": "efd650275164e2f8d63f1ed86f76131b"}, {"bike_id": "8cd774488894a0a6508957d5529aa339", "type": "electric_scooter", "is_disabled": 0, "lat": 38.88658383333333, "rental_uris": {"ios": "https://dc.lft.to/lastmile_qr_scan", "android": "https://dc.lft.to/lastmile_qr_scan"}, "is_reserved": 0, "fusion_lon": 0.0, "fusion_lat": 0.0, "lon": -77.02830416666667, "name": "8cd774488894a0a6508957d5529aa339"}, {"bike_id": "71b58122e993a69293570b6d7d1f6dc3", "type": "electric_scooter", "is_disabled": 0, "lat": 38.92151233333333, "rental_uris": {"ios": "https://dc.lft.to/lastmile_qr_scan", "android": "https://dc.lft.to/lastmile_qr_scan"}, "is_reserved": 0, "fusion_lon": 0.0, "fusion_lat": 0.0, "lon": -77.03875533333333, "name": "71b58122e993a69293570b6d7d1f6dc3"}, {"bike_id": "02672b5f12165ec6ca162a606d362366", "type": "electric_scooter", "is_disabled": 0, "lat": 38.90582233333333, "rental_uris": {"ios": "https://dc.lft.to/lastmile_qr_scan", "android": "https://dc.lft.to/lastmile_qr_scan"}, "is_reserved": 0, "fusion_lon": 0.0, "fusion_lat": 0.0, "lon": -76.98432633333333, "name": "02672b5f12165ec6ca162a606d362366"}, {"bike_id": "d1c03a0baac458d1edd59025e1ced98d", "type": "electric_scooter", "is_disabled": 0, "lat": 38.916275666666664, "rental_uris": {"ios": "https://dc.lft.to/lastmile_qr_scan", "android": "https://dc.lft.to/lastmile_qr_scan"}, "is_reserved": 0, "fusion_lon": 0.0, "fusion_lat": 0.0, "lon": -77.04006783333334, "name": "d1c03a0baac458d1edd59025e1ced98d"}, {"bike_id": "5114c5ca89350610d4cf22902316ad9e", "type": "electric_scooter", "is_disabled": 0, "lat": 38.907917166666664, "rental_uris": {"ios": "https://dc.lft.to/lastmile_qr_scan", "android": "https://dc.lft.to/lastmile_qr_scan"}, "is_reserved": 0, "fusion_lon": 0.0, "fusion_lat": 0.0, "lon": -77.063787, "name": "5114c5ca89350610d4cf22902316ad9e"}, {"bike_id": "540b13c077101fe29fb902bb2dc836e1", "type": "electric_scooter", "is_disabled": 0, "lat": 38.93920933333333, "rental_uris": {"ios": "https://dc.lft.to/lastmile_qr_scan", "android": "https://dc.lft.to/lastmile_qr_scan"}, "is_reserved": 0, "fusion_lon": 0.0, "fusion_lat": 0.0, "lon": -77.0605155, "name": "540b13c077101fe29fb902bb2dc836e1"}, {"bike_id": "069546c781c8d3767c85351ce7d541e9", "type": "electric_scooter", "is_disabled": 0, "lat": 38.892351, "rental_uris": {"ios": "https://dc.lft.to/lastmile_qr_scan", "android": "https://dc.lft.to/lastmile_qr_scan"}, "is_reserved": 0, "fusion_lon": 0.0, "fusion_lat": 0.0, "lon": -77.04671833333333, "name": "069546c781c8d3767c85351ce7d541e9"}, {"bike_id": "bdda407bbd6fe103e3c58528cc185a16", "type": "electric_scooter", "is_disabled": 0, "lat": 38.92033216666667, "rental_uris": {"ios": "https://dc.lft.to/lastmile_qr_scan", "android": "https://dc.lft.to/lastmile_qr_scan"}, "is_reserved": 0, "fusion_lon": 0.0, "fusion_lat": 0.0, "lon": -77.01312116666666, "name": "bdda407bbd6fe103e3c58528cc185a16"}, {"bike_id": "0f448c81d688e8ad0d7732f14377efa9", "type": "electric_scooter", "is_disabled": 0, "lat": 38.8984305, "rental_uris": {"ios": "https://dc.lft.to/lastmile_qr_scan", "android": "https://dc.lft.to/lastmile_qr_scan"}, "is_reserved": 0, "fusion_lon": 0.0, "fusion_lat": 0.0, "lon": -77.03099933333333, "name": "0f448c81d688e8ad0d7732f14377efa9"}, {"bike_id": "e971ef532b6dd60d53e2245aefec5674", "type": "electric_scooter", "is_disabled": 0, "lat": 38.9234215, "rental_uris": {"ios": "https://dc.lft.to/lastmile_qr_scan", "android": "https://dc.lft.to/lastmile_qr_scan"}, "is_reserved": 0, "fusion_lon": 0.0, "fusion_lat": 0.0, "lon": -77.0511695, "name": "e971ef532b6dd60d53e2245aefec5674"}, {"bike_id": "529db4379b1367cdb0dd04a4ca864c32", "type": "electric_bike", "is_disabled": 0, "lat": 38.8730065, "rental_uris": {"ios": "https://dc.lft.to/lastmile_qr_scan", "android": "https://dc.lft.to/lastmile_qr_scan"}, "is_reserved": 0, "fusion_lon": 0.0, "fusion_lat": 0.0, "lon": -77.13927766666667, "name": "529db4379b1367cdb0dd04a4ca864c32"}, {"bike_id": "0dd3ae49a6f4987f968578a905cf2633", "type": "electric_scooter", "is_disabled": 0, "lat": 38.884781833333335, "rental_uris": {"ios": "https://dc.lft.to/lastmile_qr_scan", "android": "https://dc.lft.to/lastmile_qr_scan"}, "is_reserved": 0, "fusion_lon": 0.0, "fusion_lat": 0.0, "lon": -76.98208733333334, "name": "0dd3ae49a6f4987f968578a905cf2633"}, {"bike_id": "deb3fa985768dbd6c9f197230c3bd7da", "type": "electric_scooter", "is_disabled": 0, "lat": 38.91692583333333, "rental_uris": {"ios": "https://dc.lft.to/lastmile_qr_scan", "android": "https://dc.lft.to/lastmile_qr_scan"}, "is_reserved": 0, "fusion_lon": 0.0, "fusion_lat": 0.0, "lon": -77.02874633333333, "name": "deb3fa985768dbd6c9f197230c3bd7da"}, {"bike_id": "013a1447c3569ad48dda6605d10d5738", "type": "electric_scooter", "is_disabled": 0, "lat": 38.92065783333334, "rental_uris": {"ios": "https://dc.lft.to/lastmile_qr_scan", "android": "https://dc.lft.to/lastmile_qr_scan"}, "is_reserved": 0, "fusion_lon": 0.0, "fusion_lat": 0.0, "lon": -77.02712083333333, "name": "013a1447c3569ad48dda6605d10d5738"}, {"bike_id": "123cc75998250e9240abce8a2a813dc8", "type": "electric_scooter", "is_disabled": 0, "lat": 38.918457333333336, "rental_uris": {"ios": "https://dc.lft.to/lastmile_qr_scan", "android": "https://dc.lft.to/lastmile_qr_scan"}, "is_reserved": 0, "fusion_lon": 0.0, "fusion_lat": 0.0, "lon": -76.965529, "name": "123cc75998250e9240abce8a2a813dc8"}, {"bike_id": "fe2d3674e92dc196cafa6aecd508fcd2", "type": "electric_scooter", "is_disabled": 0, "lat": 38.916869166666665, "rental_uris": {"ios": "https://dc.lft.to/lastmile_qr_scan", "android": "https://dc.lft.to/lastmile_qr_scan"}, "is_reserved": 0, "fusion_lon": 0.0, "fusion_lat": 0.0, "lon": -77.02315683333333, "name": "fe2d3674e92dc196cafa6aecd508fcd2"}, {"bike_id": "4e4729c25d8cdf69f220ec718a594243", "type": "electric_scooter", "is_disabled": 0, "lat": 38.93324883333333, "rental_uris": {"ios": "https://dc.lft.to/lastmile_qr_scan", "android": "https://dc.lft.to/lastmile_qr_scan"}, "is_reserved": 0, "fusion_lon": 0.0, "fusion_lat": 0.0, "lon": -77.02393866666667, "name": "4e4729c25d8cdf69f220ec718a594243"}, {"bike_id": "b9d3663da012a3fc989082ad23ccb61d", "type": "electric_scooter", "is_disabled": 0, "lat": 38.919268, "rental_uris": {"ios": "https://dc.lft.to/lastmile_qr_scan", "android": "https://dc.lft.to/lastmile_qr_scan"}, "is_reserved": 0, "fusion_lon": 0.0, "fusion_lat": 0.0, "lon": -77.0250295, "name": "b9d3663da012a3fc989082ad23ccb61d"}, {"bike_id": "e7a2f2be96cd11afc63f52abf54818e5", "type": "electric_scooter", "is_disabled": 0, "lat": 38.920792, "rental_uris": {"ios": "https://dc.lft.to/lastmile_qr_scan", "android": "https://dc.lft.to/lastmile_qr_scan"}, "is_reserved": 0, "fusion_lon": 0.0, "fusion_lat": 0.0, "lon": -77.02841616666667, "name": "e7a2f2be96cd11afc63f52abf54818e5"}, {"bike_id": "fbdc04da6553e9c25a548c9b9b49a945", "type": "electric_scooter", "is_disabled": 0, "lat": 38.91413416666666, "rental_uris": {"ios": "https://dc.lft.to/lastmile_qr_scan", "android": "https://dc.lft.to/lastmile_qr_scan"}, "is_reserved": 0, "fusion_lon": 0.0, "fusion_lat": 0.0, "lon": -77.03956566666666, "name": "fbdc04da6553e9c25a548c9b9b49a945"}, {"bike_id": "838d60e2188e67dfbe7f43edbaf37b14", "type": "electric_scooter", "is_disabled": 0, "lat": 38.892933666666664, "rental_uris": {"ios": "https://dc.lft.to/lastmile_qr_scan", "android": "https://dc.lft.to/lastmile_qr_scan"}, "is_reserved": 0, "fusion_lon": 0.0, "fusion_lat": 0.0, "lon": -77.020199, "name": "838d60e2188e67dfbe7f43edbaf37b14"}, {"bike_id": "1751cd488c0d2a7dd9ea10c985f201ae", "type": "electric_scooter", "is_disabled": 0, "lat": 38.870693833333334, "rental_uris": {"ios": "https://dc.lft.to/lastmile_qr_scan", "android": "https://dc.lft.to/lastmile_qr_scan"}, "is_reserved": 0, "fusion_lon": 0.0, "fusion_lat": 0.0, "lon": -76.9813095, "name": "1751cd488c0d2a7dd9ea10c985f201ae"}, {"bike_id": "8531bb2ca842cc9b9a44c53d3e19da3d", "type": "electric_bike", "is_disabled": 0, "lat": 38.943616666666664, "rental_uris": {"ios": "https://dc.lft.to/lastmile_qr_scan", "android": "https://dc.lft.to/lastmile_qr_scan"}, "is_reserved": 0, "fusion_lon": 0.0, "fusion_lat": 0.0, "lon": -77.00352483333333, "name": "8531bb2ca842cc9b9a44c53d3e19da3d"}, {"bike_id": "aa1e692421d667f878a2ab24d68d478a", "type": "electric_bike", "is_disabled": 0, "lat": 38.80755116666667, "rental_uris": {"ios": "https://dc.lft.to/lastmile_qr_scan", "android": "https://dc.lft.to/lastmile_qr_scan"}, "is_reserved": 0, "fusion_lon": 0.0, "fusion_lat": 0.0, "lon": -77.09455716666666, "name": "aa1e692421d667f878a2ab24d68d478a"}, {"bike_id": "0496713d15aa6b7195a0a1008fd14b4d", "type": "electric_scooter", "is_disabled": 0, "lat": 38.88709216666667, "rental_uris": {"ios": "https://dc.lft.to/lastmile_qr_scan", "android": "https://dc.lft.to/lastmile_qr_scan"}, "is_reserved": 0, "fusion_lon": 0.0, "fusion_lat": 0.0, "lon": -77.02199733333333, "name": "0496713d15aa6b7195a0a1008fd14b4d"}, {"bike_id": "bb7cce21ebfc5a19cebff0b9524382dd", "type": "electric_scooter", "is_disabled": 0, "lat": 38.858098, "rental_uris": {"ios": "https://dc.lft.to/lastmile_qr_scan", "android": "https://dc.lft.to/lastmile_qr_scan"}, "is_reserved": 0, "fusion_lon": 0.0, "fusion_lat": 0.0, "lon": -76.989225, "name": "bb7cce21ebfc5a19cebff0b9524382dd"}, {"bike_id": "a69964d565de7a707f60a59383e61519", "type": "electric_scooter", "is_disabled": 0, "lat": 38.917689, "rental_uris": {"ios": "https://dc.lft.to/lastmile_qr_scan", "android": "https://dc.lft.to/lastmile_qr_scan"}, "is_reserved": 0, "fusion_lon": 0.0, "fusion_lat": 0.0, "lon": -77.0406095, "name": "a69964d565de7a707f60a59383e61519"}, {"bike_id": "6f737dc6a61f477ba72358806278312c", "type": "electric_scooter", "is_disabled": 0, "lat": 38.891961, "rental_uris": {"ios": "https://dc.lft.to/lastmile_qr_scan", "android": "https://dc.lft.to/lastmile_qr_scan"}, "is_reserved": 0, "fusion_lon": 0.0, "fusion_lat": 0.0, "lon": -77.02504683333333, "name": "6f737dc6a61f477ba72358806278312c"}, {"bike_id": "bf37cea5d76a19523d32a1ab34e36795", "type": "electric_scooter", "is_disabled": 0, "lat": 38.9170535, "rental_uris": {"ios": "https://dc.lft.to/lastmile_qr_scan", "android": "https://dc.lft.to/lastmile_qr_scan"}, "is_reserved": 0, "fusion_lon": 0.0, "fusion_lat": 0.0, "lon": -77.028921, "name": "bf37cea5d76a19523d32a1ab34e36795"}, {"bike_id": "9e105b2ba970cc08e447c731303b8ad6", "type": "electric_scooter", "is_disabled": 0, "lat": 38.933220666666664, "rental_uris": {"ios": "https://dc.lft.to/lastmile_qr_scan", "android": "https://dc.lft.to/lastmile_qr_scan"}, "is_reserved": 0, "fusion_lon": 0.0, "fusion_lat": 0.0, "lon": -77.02395766666666, "name": "9e105b2ba970cc08e447c731303b8ad6"}, {"bike_id": "f98ed93ddbea3b407da61a32e2c474dc", "type": "electric_scooter", "is_disabled": 0, "lat": 38.895643, "rental_uris": {"ios": "https://dc.lft.to/lastmile_qr_scan", "android": "https://dc.lft.to/lastmile_qr_scan"}, "is_reserved": 0, "fusion_lon": 0.0, "fusion_lat": 0.0, "lon": -77.00895616666666, "name": "f98ed93ddbea3b407da61a32e2c474dc"}, {"bike_id": "c4da84e1d82d8731b8f171f132570d48", "type": "electric_scooter", "is_disabled": 0, "lat": 38.899672333333335, "rental_uris": {"ios": "https://dc.lft.to/lastmile_qr_scan", "android": "https://dc.lft.to/lastmile_qr_scan"}, "is_reserved": 0, "fusion_lon": 0.0, "fusion_lat": 0.0, "lon": -76.983058, "name": "c4da84e1d82d8731b8f171f132570d48"}, {"bike_id": "0c953616d86ddd682693ac056edb7f94", "type": "electric_scooter", "is_disabled": 0, "lat": 38.916957333333336, "rental_uris": {"ios": "https://dc.lft.to/lastmile_qr_scan", "android": "https://dc.lft.to/lastmile_qr_scan"}, "is_reserved": 0, "fusion_lon": 0.0, "fusion_lat": 0.0, "lon": -77.031735, "name": "0c953616d86ddd682693ac056edb7f94"}, {"bike_id": "103ef9db99aef4ee2cf6aba0b11800aa", "type": "electric_scooter", "is_disabled": 0, "lat": 38.946148666666666, "rental_uris": {"ios": "https://dc.lft.to/lastmile_qr_scan", "android": "https://dc.lft.to/lastmile_qr_scan"}, "is_reserved": 0, "fusion_lon": 0.0, "fusion_lat": 0.0, "lon": -77.0226665, "name": "103ef9db99aef4ee2cf6aba0b11800aa"}, {"bike_id": "0579a48536c9b491e0c8f488d209832d", "type": "electric_scooter", "is_disabled": 0, "lat": 38.90543866666667, "rental_uris": {"ios": "https://dc.lft.to/lastmile_qr_scan", "android": "https://dc.lft.to/lastmile_qr_scan"}, "is_reserved": 0, "fusion_lon": 0.0, "fusion_lat": 0.0, "lon": -77.0057555, "name": "0579a48536c9b491e0c8f488d209832d"}, {"bike_id": "e7cf18aeb2ee5e58a73fe2bd23d7a873", "type": "electric_scooter", "is_disabled": 0, "lat": 38.90788116666667, "rental_uris": {"ios": "https://dc.lft.to/lastmile_qr_scan", "android": "https://dc.lft.to/lastmile_qr_scan"}, "is_reserved": 0, "fusion_lon": 0.0, "fusion_lat": 0.0, "lon": -76.99428066666667, "name": "e7cf18aeb2ee5e58a73fe2bd23d7a873"}, {"bike_id": "6596dbfa0333f9d7f84df5414ded33af", "type": "electric_scooter", "is_disabled": 0, "lat": 38.923274, "rental_uris": {"ios": "https://dc.lft.to/lastmile_qr_scan", "android": "https://dc.lft.to/lastmile_qr_scan"}, "is_reserved": 0, "fusion_lon": 0.0, "fusion_lat": 0.0, "lon": -77.00055183333333, "name": "6596dbfa0333f9d7f84df5414ded33af"}, {"bike_id": "d105c46ebb541d249397c359ca7752f3", "type": "electric_scooter", "is_disabled": 0, "lat": 38.93980166666667, "rental_uris": {"ios": "https://dc.lft.to/lastmile_qr_scan", "android": "https://dc.lft.to/lastmile_qr_scan"}, "is_reserved": 0, "fusion_lon": 0.0, "fusion_lat": 0.0, "lon": -77.02871533333334, "name": "d105c46ebb541d249397c359ca7752f3"}, {"bike_id": "9360e649daa51059e3f7ee8b7339fd27", "type": "electric_scooter", "is_disabled": 0, "lat": 38.86627166666667, "rental_uris": {"ios": "https://dc.lft.to/lastmile_qr_scan", "android": "https://dc.lft.to/lastmile_qr_scan"}, "is_reserved": 0, "fusion_lon": 0.0, "fusion_lat": 0.0, "lon": -76.98718733333334, "name": "9360e649daa51059e3f7ee8b7339fd27"}, {"bike_id": "72f489534454299af3e2e2500fe483c0", "type": "electric_scooter", "is_disabled": 0, "lat": 38.89485783333333, "rental_uris": {"ios": "https://dc.lft.to/lastmile_qr_scan", "android": "https://dc.lft.to/lastmile_qr_scan"}, "is_reserved": 0, "fusion_lon": 0.0, "fusion_lat": 0.0, "lon": -76.98783866666666, "name": "72f489534454299af3e2e2500fe483c0"}, {"bike_id": "45b483af252890d2a320b29bfd870200", "type": "electric_scooter", "is_disabled": 0, "lat": 38.92248, "rental_uris": {"ios": "https://dc.lft.to/lastmile_qr_scan", "android": "https://dc.lft.to/lastmile_qr_scan"}, "is_reserved": 0, "fusion_lon": 0.0, "fusion_lat": 0.0, "lon": -77.04270683333333, "name": "45b483af252890d2a320b29bfd870200"}, {"bike_id": "3ee15c3b7467e1c52c2779b960de48ef", "type": "electric_scooter", "is_disabled": 0, "lat": 38.9007155, "rental_uris": {"ios": "https://dc.lft.to/lastmile_qr_scan", "android": "https://dc.lft.to/lastmile_qr_scan"}, "is_reserved": 0, "fusion_lon": 0.0, "fusion_lat": 0.0, "lon": -77.0483215, "name": "3ee15c3b7467e1c52c2779b960de48ef"}, {"bike_id": "d173597fa4332bc721c6caedc37dd0a0", "type": "electric_scooter", "is_disabled": 0, "lat": 38.915456166666665, "rental_uris": {"ios": "https://dc.lft.to/lastmile_qr_scan", "android": "https://dc.lft.to/lastmile_qr_scan"}, "is_reserved": 0, "fusion_lon": 0.0, "fusion_lat": 0.0, "lon": -77.02201466666666, "name": "d173597fa4332bc721c6caedc37dd0a0"}, {"bike_id": "3ffc5a55f22589c4870759f58267b70f", "type": "electric_scooter", "is_disabled": 0, "lat": 38.90550183333333, "rental_uris": {"ios": "https://dc.lft.to/lastmile_qr_scan", "android": "https://dc.lft.to/lastmile_qr_scan"}, "is_reserved": 0, "fusion_lon": 0.0, "fusion_lat": 0.0, "lon": -77.06288316666667, "name": "3ffc5a55f22589c4870759f58267b70f"}, {"bike_id": "6361ce4b04f407d41319b489714e1e71", "type": "electric_scooter", "is_disabled": 0, "lat": 38.92469416666667, "rental_uris": {"ios": "https://dc.lft.to/lastmile_qr_scan", "android": "https://dc.lft.to/lastmile_qr_scan"}, "is_reserved": 0, "fusion_lon": 0.0, "fusion_lat": 0.0, "lon": -77.0283135, "name": "6361ce4b04f407d41319b489714e1e71"}, {"bike_id": "758dd348aea7605b12f01a01ef9276fa", "type": "electric_bike", "is_disabled": 0, "lat": 38.939760666666665, "rental_uris": {"ios": "https://dc.lft.to/lastmile_qr_scan", "android": "https://dc.lft.to/lastmile_qr_scan"}, "is_reserved": 0, "fusion_lon": 0.0, "fusion_lat": 0.0, "lon": -77.05264833333334, "name": "758dd348aea7605b12f01a01ef9276fa"}, {"bike_id": "dd83cf75558f99183803063ff9be1f65", "type": "electric_scooter", "is_disabled": 0, "lat": 38.926022333333336, "rental_uris": {"ios": "https://dc.lft.to/lastmile_qr_scan", "android": "https://dc.lft.to/lastmile_qr_scan"}, "is_reserved": 0, "fusion_lon": 0.0, "fusion_lat": 0.0, "lon": -77.02444916666667, "name": "dd83cf75558f99183803063ff9be1f65"}, {"bike_id": "dbc0055723544589626b2ac19e9063bf", "type": "electric_scooter", "is_disabled": 0, "lat": 38.89234066666667, "rental_uris": {"ios": "https://dc.lft.to/lastmile_qr_scan", "android": "https://dc.lft.to/lastmile_qr_scan"}, "is_reserved": 0, "fusion_lon": 0.0, "fusion_lat": 0.0, "lon": -77.04674733333333, "name": "dbc0055723544589626b2ac19e9063bf"}, {"bike_id": "0b840cf097c2072b57cdd9cd9a1d7afa", "type": "electric_scooter", "is_disabled": 0, "lat": 38.906993166666666, "rental_uris": {"ios": "https://dc.lft.to/lastmile_qr_scan", "android": "https://dc.lft.to/lastmile_qr_scan"}, "is_reserved": 0, "fusion_lon": 0.0, "fusion_lat": 0.0, "lon": -77.04331216666667, "name": "0b840cf097c2072b57cdd9cd9a1d7afa"}, {"bike_id": "709aa6dfba21e0abc95a20385262aaac", "type": "electric_scooter", "is_disabled": 0, "lat": 38.93067033333333, "rental_uris": {"ios": "https://dc.lft.to/lastmile_qr_scan", "android": "https://dc.lft.to/lastmile_qr_scan"}, "is_reserved": 0, "fusion_lon": 0.0, "fusion_lat": 0.0, "lon": -77.04126316666667, "name": "709aa6dfba21e0abc95a20385262aaac"}, {"bike_id": "a5af3d7637106be3d98307920565c575", "type": "electric_scooter", "is_disabled": 0, "lat": 38.8987695, "rental_uris": {"ios": "https://dc.lft.to/lastmile_qr_scan", "android": "https://dc.lft.to/lastmile_qr_scan"}, "is_reserved": 0, "fusion_lon": 0.0, "fusion_lat": 0.0, "lon": -76.93185216666667, "name": "a5af3d7637106be3d98307920565c575"}, {"bike_id": "6604f76c97d25bbb1794c51aa3cc3a47", "type": "electric_scooter", "is_disabled": 0, "lat": 38.921295, "rental_uris": {"ios": "https://dc.lft.to/lastmile_qr_scan", "android": "https://dc.lft.to/lastmile_qr_scan"}, "is_reserved": 0, "fusion_lon": 0.0, "fusion_lat": 0.0, "lon": -77.02712683333333, "name": "6604f76c97d25bbb1794c51aa3cc3a47"}, {"bike_id": "39b993199b80c9dbf620297cf68ced20", "type": "electric_scooter", "is_disabled": 0, "lat": 38.90567083333333, "rental_uris": {"ios": "https://dc.lft.to/lastmile_qr_scan", "android": "https://dc.lft.to/lastmile_qr_scan"}, "is_reserved": 0, "fusion_lon": 0.0, "fusion_lat": 0.0, "lon": -77.04228016666667, "name": "39b993199b80c9dbf620297cf68ced20"}, {"bike_id": "b3e1c0faa4042805987998714b0ff7e5", "type": "electric_scooter", "is_disabled": 0, "lat": 38.90599483333333, "rental_uris": {"ios": "https://dc.lft.to/lastmile_qr_scan", "android": "https://dc.lft.to/lastmile_qr_scan"}, "is_reserved": 0, "fusion_lon": 0.0, "fusion_lat": 0.0, "lon": -76.9907275, "name": "b3e1c0faa4042805987998714b0ff7e5"}, {"bike_id": "7b8553f30e4c03405a90b71d643a7c8c", "type": "electric_scooter", "is_disabled": 0, "lat": 38.929869333333336, "rental_uris": {"ios": "https://dc.lft.to/lastmile_qr_scan", "android": "https://dc.lft.to/lastmile_qr_scan"}, "is_reserved": 0, "fusion_lon": 0.0, "fusion_lat": 0.0, "lon": -77.0323995, "name": "7b8553f30e4c03405a90b71d643a7c8c"}, {"bike_id": "8b0fec771da73a961db5a3cbfe7806ef", "type": "electric_scooter", "is_disabled": 0, "lat": 38.8820935, "rental_uris": {"ios": "https://dc.lft.to/lastmile_qr_scan", "android": "https://dc.lft.to/lastmile_qr_scan"}, "is_reserved": 0, "fusion_lon": 0.0, "fusion_lat": 0.0, "lon": -76.98924083333333, "name": "8b0fec771da73a961db5a3cbfe7806ef"}, {"bike_id": "c26e5d878beedb3298611dda25b8e488", "type": "electric_scooter", "is_disabled": 0, "lat": 38.91551233333333, "rental_uris": {"ios": "https://dc.lft.to/lastmile_qr_scan", "android": "https://dc.lft.to/lastmile_qr_scan"}, "is_reserved": 0, "fusion_lon": 0.0, "fusion_lat": 0.0, "lon": -77.0317395, "name": "c26e5d878beedb3298611dda25b8e488"}, {"bike_id": "11acbbeea5f35b338f808515a8aab9bd", "type": "electric_scooter", "is_disabled": 0, "lat": 38.9109445, "rental_uris": {"ios": "https://dc.lft.to/lastmile_qr_scan", "android": "https://dc.lft.to/lastmile_qr_scan"}, "is_reserved": 0, "fusion_lon": 0.0, "fusion_lat": 0.0, "lon": -77.02195933333333, "name": "11acbbeea5f35b338f808515a8aab9bd"}, {"bike_id": "63bdf85abc0e035e0437097ebfea5fcb", "type": "electric_scooter", "is_disabled": 0, "lat": 38.89221466666667, "rental_uris": {"ios": "https://dc.lft.to/lastmile_qr_scan", "android": "https://dc.lft.to/lastmile_qr_scan"}, "is_reserved": 0, "fusion_lon": 0.0, "fusion_lat": 0.0, "lon": -77.02913383333333, "name": "63bdf85abc0e035e0437097ebfea5fcb"}, {"bike_id": "566902f96f155ab8f8d99c4ce878bb63", "type": "electric_scooter", "is_disabled": 0, "lat": 38.89295666666666, "rental_uris": {"ios": "https://dc.lft.to/lastmile_qr_scan", "android": "https://dc.lft.to/lastmile_qr_scan"}, "is_reserved": 0, "fusion_lon": 0.0, "fusion_lat": 0.0, "lon": -77.04878533333333, "name": "566902f96f155ab8f8d99c4ce878bb63"}, {"bike_id": "a62295a08cc31887e35d4e5b9e0946fe", "type": "electric_scooter", "is_disabled": 0, "lat": 38.936838, "rental_uris": {"ios": "https://dc.lft.to/lastmile_qr_scan", "android": "https://dc.lft.to/lastmile_qr_scan"}, "is_reserved": 0, "fusion_lon": 0.0, "fusion_lat": 0.0, "lon": -77.0662105, "name": "a62295a08cc31887e35d4e5b9e0946fe"}, {"bike_id": "f389e1d0b5fd0a7e42c51c5aa35059c8", "type": "electric_scooter", "is_disabled": 0, "lat": 38.92207783333333, "rental_uris": {"ios": "https://dc.lft.to/lastmile_qr_scan", "android": "https://dc.lft.to/lastmile_qr_scan"}, "is_reserved": 0, "fusion_lon": 0.0, "fusion_lat": 0.0, "lon": -77.042434, "name": "f389e1d0b5fd0a7e42c51c5aa35059c8"}, {"bike_id": "f0bc9c70c755ea06983a7df8874f1631", "type": "electric_scooter", "is_disabled": 0, "lat": 38.90559066666667, "rental_uris": {"ios": "https://dc.lft.to/lastmile_qr_scan", "android": "https://dc.lft.to/lastmile_qr_scan"}, "is_reserved": 0, "fusion_lon": 0.0, "fusion_lat": 0.0, "lon": -77.04375933333333, "name": "f0bc9c70c755ea06983a7df8874f1631"}, {"bike_id": "2e8b305c2f05b9e81db64201335e4fad", "type": "electric_scooter", "is_disabled": 0, "lat": 38.9088245, "rental_uris": {"ios": "https://dc.lft.to/lastmile_qr_scan", "android": "https://dc.lft.to/lastmile_qr_scan"}, "is_reserved": 0, "fusion_lon": 0.0, "fusion_lat": 0.0, "lon": -77.04498516666666, "name": "2e8b305c2f05b9e81db64201335e4fad"}, {"bike_id": "52d0376c0727f58f057da0ce1feb793a", "type": "electric_scooter", "is_disabled": 0, "lat": 38.92296183333333, "rental_uris": {"ios": "https://dc.lft.to/lastmile_qr_scan", "android": "https://dc.lft.to/lastmile_qr_scan"}, "is_reserved": 0, "fusion_lon": 0.0, "fusion_lat": 0.0, "lon": -77.07300566666666, "name": "52d0376c0727f58f057da0ce1feb793a"}, {"bike_id": "cb0065b22e17d8920dd4c5c7887a20f6", "type": "electric_scooter", "is_disabled": 0, "lat": 38.88714083333333, "rental_uris": {"ios": "https://dc.lft.to/lastmile_qr_scan", "android": "https://dc.lft.to/lastmile_qr_scan"}, "is_reserved": 0, "fusion_lon": 0.0, "fusion_lat": 0.0, "lon": -77.02202933333334, "name": "cb0065b22e17d8920dd4c5c7887a20f6"}, {"bike_id": "335d68a2af5c00b47880593f1b7af8e8", "type": "electric_scooter", "is_disabled": 0, "lat": 38.884638833333334, "rental_uris": {"ios": "https://dc.lft.to/lastmile_qr_scan", "android": "https://dc.lft.to/lastmile_qr_scan"}, "is_reserved": 0, "fusion_lon": 0.0, "fusion_lat": 0.0, "lon": -77.02579933333334, "name": "335d68a2af5c00b47880593f1b7af8e8"}, {"bike_id": "5a5c552e17c245ea4be9c9ab1547e233", "type": "electric_scooter", "is_disabled": 0, "lat": 38.933368, "rental_uris": {"ios": "https://dc.lft.to/lastmile_qr_scan", "android": "https://dc.lft.to/lastmile_qr_scan"}, "is_reserved": 0, "fusion_lon": 0.0, "fusion_lat": 0.0, "lon": -77.03988816666667, "name": "5a5c552e17c245ea4be9c9ab1547e233"}, {"bike_id": "e989221eae92882f023a765fef1fbdf7", "type": "electric_scooter", "is_disabled": 0, "lat": 38.9189635, "rental_uris": {"ios": "https://dc.lft.to/lastmile_qr_scan", "android": "https://dc.lft.to/lastmile_qr_scan"}, "is_reserved": 0, "fusion_lon": 0.0, "fusion_lat": 0.0, "lon": -77.0321015, "name": "e989221eae92882f023a765fef1fbdf7"}, {"bike_id": "9aea4af965ea413fc64167b672c4150c", "type": "electric_scooter", "is_disabled": 0, "lat": 38.89287383333333, "rental_uris": {"ios": "https://dc.lft.to/lastmile_qr_scan", "android": "https://dc.lft.to/lastmile_qr_scan"}, "is_reserved": 0, "fusion_lon": 0.0, "fusion_lat": 0.0, "lon": -77.0448355, "name": "9aea4af965ea413fc64167b672c4150c"}, {"bike_id": "bcd92db18b85a51c753406f53c133d9d", "type": "electric_scooter", "is_disabled": 0, "lat": 38.9001635, "rental_uris": {"ios": "https://dc.lft.to/lastmile_qr_scan", "android": "https://dc.lft.to/lastmile_qr_scan"}, "is_reserved": 0, "fusion_lon": 0.0, "fusion_lat": 0.0, "lon": -77.00176116666667, "name": "bcd92db18b85a51c753406f53c133d9d"}, {"bike_id": "352e62be63537b05ec8b8f564f0bca67", "type": "electric_scooter", "is_disabled": 0, "lat": 38.9429205, "rental_uris": {"ios": "https://dc.lft.to/lastmile_qr_scan", "android": "https://dc.lft.to/lastmile_qr_scan"}, "is_reserved": 0, "fusion_lon": 0.0, "fusion_lat": 0.0, "lon": -77.021775, "name": "352e62be63537b05ec8b8f564f0bca67"}, {"bike_id": "fc8c094bceeabfe4fb7ee5420fd372f5", "type": "electric_scooter", "is_disabled": 0, "lat": 38.91845216666667, "rental_uris": {"ios": "https://dc.lft.to/lastmile_qr_scan", "android": "https://dc.lft.to/lastmile_qr_scan"}, "is_reserved": 0, "fusion_lon": 0.0, "fusion_lat": 0.0, "lon": -76.96558433333334, "name": "fc8c094bceeabfe4fb7ee5420fd372f5"}, {"bike_id": "4e2998a7d6f2d3781b20bf56e3705b70", "type": "electric_scooter", "is_disabled": 0, "lat": 38.8924225, "rental_uris": {"ios": "https://dc.lft.to/lastmile_qr_scan", "android": "https://dc.lft.to/lastmile_qr_scan"}, "is_reserved": 0, "fusion_lon": 0.0, "fusion_lat": 0.0, "lon": -77.026144, "name": "4e2998a7d6f2d3781b20bf56e3705b70"}, {"bike_id": "e4191cc351f58f182b3bf6d340fd46b7", "type": "electric_scooter", "is_disabled": 0, "lat": 38.911878333333334, "rental_uris": {"ios": "https://dc.lft.to/lastmile_qr_scan", "android": "https://dc.lft.to/lastmile_qr_scan"}, "is_reserved": 0, "fusion_lon": 0.0, "fusion_lat": 0.0, "lon": -77.03195783333334, "name": "e4191cc351f58f182b3bf6d340fd46b7"}, {"bike_id": "e79a54d0e7cbf98ecaca738df7d3492e", "type": "electric_scooter", "is_disabled": 0, "lat": 38.922310333333336, "rental_uris": {"ios": "https://dc.lft.to/lastmile_qr_scan", "android": "https://dc.lft.to/lastmile_qr_scan"}, "is_reserved": 0, "fusion_lon": 0.0, "fusion_lat": 0.0, "lon": -77.04268583333334, "name": "e79a54d0e7cbf98ecaca738df7d3492e"}, {"bike_id": "857bded227ed366063a183c0b464bb8c", "type": "electric_scooter", "is_disabled": 0, "lat": 38.914094, "rental_uris": {"ios": "https://dc.lft.to/lastmile_qr_scan", "android": "https://dc.lft.to/lastmile_qr_scan"}, "is_reserved": 0, "fusion_lon": 0.0, "fusion_lat": 0.0, "lon": -77.02248866666666, "name": "857bded227ed366063a183c0b464bb8c"}, {"bike_id": "5e8fa72f04d7b0e5379f4382f7e0c301", "type": "electric_bike", "is_disabled": 0, "lat": 38.815073166666664, "rental_uris": {"ios": "https://dc.lft.to/lastmile_qr_scan", "android": "https://dc.lft.to/lastmile_qr_scan"}, "is_reserved": 0, "fusion_lon": 0.0, "fusion_lat": 0.0, "lon": -77.126542, "name": "5e8fa72f04d7b0e5379f4382f7e0c301"}, {"bike_id": "c0f8aa1df54dfbc88be3da97c8a2f66a", "type": "electric_scooter", "is_disabled": 0, "lat": 38.88134016666667, "rental_uris": {"ios": "https://dc.lft.to/lastmile_qr_scan", "android": "https://dc.lft.to/lastmile_qr_scan"}, "is_reserved": 0, "fusion_lon": 0.0, "fusion_lat": 0.0, "lon": -77.000774, "name": "c0f8aa1df54dfbc88be3da97c8a2f66a"}, {"bike_id": "82eafb1fb2af8455dd70fc51b2c3ca07", "type": "electric_scooter", "is_disabled": 0, "lat": 38.92454433333333, "rental_uris": {"ios": "https://dc.lft.to/lastmile_qr_scan", "android": "https://dc.lft.to/lastmile_qr_scan"}, "is_reserved": 0, "fusion_lon": 0.0, "fusion_lat": 0.0, "lon": -77.03341, "name": "82eafb1fb2af8455dd70fc51b2c3ca07"}, {"bike_id": "822a3804397bf4ff55f2adfabce93f9e", "type": "electric_bike", "is_disabled": 0, "lat": 38.79605883333333, "rental_uris": {"ios": "https://dc.lft.to/lastmile_qr_scan", "android": "https://dc.lft.to/lastmile_qr_scan"}, "is_reserved": 0, "fusion_lon": 0.0, "fusion_lat": 0.0, "lon": -76.99744366666667, "name": "822a3804397bf4ff55f2adfabce93f9e"}, {"bike_id": "75b32604a426b238d1309d55fbf69095", "type": "electric_scooter", "is_disabled": 0, "lat": 38.90479166666667, "rental_uris": {"ios": "https://dc.lft.to/lastmile_qr_scan", "android": "https://dc.lft.to/lastmile_qr_scan"}, "is_reserved": 0, "fusion_lon": 0.0, "fusion_lat": 0.0, "lon": -77.06109683333334, "name": "75b32604a426b238d1309d55fbf69095"}, {"bike_id": "2d85bce2fc2fa5cbef7dd0fea5b6b9b3", "type": "electric_scooter", "is_disabled": 0, "lat": 38.9068215, "rental_uris": {"ios": "https://dc.lft.to/lastmile_qr_scan", "android": "https://dc.lft.to/lastmile_qr_scan"}, "is_reserved": 0, "fusion_lon": 0.0, "fusion_lat": 0.0, "lon": -77.02694166666667, "name": "2d85bce2fc2fa5cbef7dd0fea5b6b9b3"}, {"bike_id": "a960225a08b50414db9843094c5b7c90", "type": "electric_scooter", "is_disabled": 0, "lat": 38.92327933333333, "rental_uris": {"ios": "https://dc.lft.to/lastmile_qr_scan", "android": "https://dc.lft.to/lastmile_qr_scan"}, "is_reserved": 0, "fusion_lon": 0.0, "fusion_lat": 0.0, "lon": -77.0542185, "name": "a960225a08b50414db9843094c5b7c90"}, {"bike_id": "2be151dd442c1518cf305d0eaa7ae43c", "type": "electric_scooter", "is_disabled": 0, "lat": 38.898422333333336, "rental_uris": {"ios": "https://dc.lft.to/lastmile_qr_scan", "android": "https://dc.lft.to/lastmile_qr_scan"}, "is_reserved": 0, "fusion_lon": 0.0, "fusion_lat": 0.0, "lon": -76.94633216666666, "name": "2be151dd442c1518cf305d0eaa7ae43c"}, {"bike_id": "f5b5fa3b471744c9d55a38684f591988", "type": "electric_scooter", "is_disabled": 0, "lat": 38.97678366666667, "rental_uris": {"ios": "https://dc.lft.to/lastmile_qr_scan", "android": "https://dc.lft.to/lastmile_qr_scan"}, "is_reserved": 0, "fusion_lon": 0.0, "fusion_lat": 0.0, "lon": -77.01659183333334, "name": "f5b5fa3b471744c9d55a38684f591988"}, {"bike_id": "3a96d949d3bf29e60c85939db2da82f2", "type": "electric_scooter", "is_disabled": 0, "lat": 38.90223916666667, "rental_uris": {"ios": "https://dc.lft.to/lastmile_qr_scan", "android": "https://dc.lft.to/lastmile_qr_scan"}, "is_reserved": 0, "fusion_lon": 0.0, "fusion_lat": 0.0, "lon": -77.03362983333334, "name": "3a96d949d3bf29e60c85939db2da82f2"}, {"bike_id": "94c440d5cfbe7540ac921f32344a7f55", "type": "electric_scooter", "is_disabled": 0, "lat": 38.90849866666667, "rental_uris": {"ios": "https://dc.lft.to/lastmile_qr_scan", "android": "https://dc.lft.to/lastmile_qr_scan"}, "is_reserved": 0, "fusion_lon": 0.0, "fusion_lat": 0.0, "lon": -77.02226, "name": "94c440d5cfbe7540ac921f32344a7f55"}, {"bike_id": "9589ca035dbb03840919601876eb373f", "type": "electric_scooter", "is_disabled": 0, "lat": 38.907956, "rental_uris": {"ios": "https://dc.lft.to/lastmile_qr_scan", "android": "https://dc.lft.to/lastmile_qr_scan"}, "is_reserved": 0, "fusion_lon": 0.0, "fusion_lat": 0.0, "lon": -77.0482255, "name": "9589ca035dbb03840919601876eb373f"}, {"bike_id": "a3bdf0f9ec8aa8413173db3a7d561dee", "type": "electric_scooter", "is_disabled": 0, "lat": 38.91274033333333, "rental_uris": {"ios": "https://dc.lft.to/lastmile_qr_scan", "android": "https://dc.lft.to/lastmile_qr_scan"}, "is_reserved": 0, "fusion_lon": 0.0, "fusion_lat": 0.0, "lon": -77.041807, "name": "a3bdf0f9ec8aa8413173db3a7d561dee"}, {"bike_id": "d5f5714af8549c7c0b75d002760008d5", "type": "electric_scooter", "is_disabled": 0, "lat": 38.916489166666665, "rental_uris": {"ios": "https://dc.lft.to/lastmile_qr_scan", "android": "https://dc.lft.to/lastmile_qr_scan"}, "is_reserved": 0, "fusion_lon": 0.0, "fusion_lat": 0.0, "lon": -77.06829, "name": "d5f5714af8549c7c0b75d002760008d5"}, {"bike_id": "1c442ec22776fcaf7dc696def0e9410a", "type": "electric_scooter", "is_disabled": 0, "lat": 38.896359333333336, "rental_uris": {"ios": "https://dc.lft.to/lastmile_qr_scan", "android": "https://dc.lft.to/lastmile_qr_scan"}, "is_reserved": 0, "fusion_lon": 0.0, "fusion_lat": 0.0, "lon": -77.07087066666666, "name": "1c442ec22776fcaf7dc696def0e9410a"}, {"bike_id": "cb179d5e36ae348acf13827191578b83", "type": "electric_scooter", "is_disabled": 0, "lat": 38.90680583333334, "rental_uris": {"ios": "https://dc.lft.to/lastmile_qr_scan", "android": "https://dc.lft.to/lastmile_qr_scan"}, "is_reserved": 0, "fusion_lon": 0.0, "fusion_lat": 0.0, "lon": -77.02690683333333, "name": "cb179d5e36ae348acf13827191578b83"}, {"bike_id": "18502d0ad4439eb18de337a06ec35921", "type": "electric_scooter", "is_disabled": 0, "lat": 38.914606666666664, "rental_uris": {"ios": "https://dc.lft.to/lastmile_qr_scan", "android": "https://dc.lft.to/lastmile_qr_scan"}, "is_reserved": 0, "fusion_lon": 0.0, "fusion_lat": 0.0, "lon": -77.03193433333334, "name": "18502d0ad4439eb18de337a06ec35921"}, {"bike_id": "b7863261d79b88de24e3d3be3fa94665", "type": "electric_scooter", "is_disabled": 0, "lat": 38.86626533333333, "rental_uris": {"ios": "https://dc.lft.to/lastmile_qr_scan", "android": "https://dc.lft.to/lastmile_qr_scan"}, "is_reserved": 0, "fusion_lon": 0.0, "fusion_lat": 0.0, "lon": -76.98713116666667, "name": "b7863261d79b88de24e3d3be3fa94665"}, {"bike_id": "7b61ac0b057a7459c467f29dd97bfed1", "type": "electric_scooter", "is_disabled": 0, "lat": 38.92287283333334, "rental_uris": {"ios": "https://dc.lft.to/lastmile_qr_scan", "android": "https://dc.lft.to/lastmile_qr_scan"}, "is_reserved": 0, "fusion_lon": 0.0, "fusion_lat": 0.0, "lon": -77.04478533333334, "name": "7b61ac0b057a7459c467f29dd97bfed1"}, {"bike_id": "46379318d24f66277ef57a611856be51", "type": "electric_scooter", "is_disabled": 0, "lat": 38.92308533333333, "rental_uris": {"ios": "https://dc.lft.to/lastmile_qr_scan", "android": "https://dc.lft.to/lastmile_qr_scan"}, "is_reserved": 0, "fusion_lon": 0.0, "fusion_lat": 0.0, "lon": -77.03661366666667, "name": "46379318d24f66277ef57a611856be51"}, {"bike_id": "7f3ae0dea390b6c0b8ebb55cd5d573ff", "type": "electric_scooter", "is_disabled": 0, "lat": 38.887767333333336, "rental_uris": {"ios": "https://dc.lft.to/lastmile_qr_scan", "android": "https://dc.lft.to/lastmile_qr_scan"}, "is_reserved": 0, "fusion_lon": 0.0, "fusion_lat": 0.0, "lon": -76.955294, "name": "7f3ae0dea390b6c0b8ebb55cd5d573ff"}, {"bike_id": "ee856ebd002d11b6f5286ef16fdcda85", "type": "electric_bike", "is_disabled": 0, "lat": 38.931438166666666, "rental_uris": {"ios": "https://dc.lft.to/lastmile_qr_scan", "android": "https://dc.lft.to/lastmile_qr_scan"}, "is_reserved": 0, "fusion_lon": 0.0, "fusion_lat": 0.0, "lon": -77.07850133333334, "name": "ee856ebd002d11b6f5286ef16fdcda85"}, {"bike_id": "ccfcb341f5dccd549c1f102e07a769ec", "type": "electric_scooter", "is_disabled": 0, "lat": 38.927994166666664, "rental_uris": {"ios": "https://dc.lft.to/lastmile_qr_scan", "android": "https://dc.lft.to/lastmile_qr_scan"}, "is_reserved": 0, "fusion_lon": 0.0, "fusion_lat": 0.0, "lon": -77.02361616666667, "name": "ccfcb341f5dccd549c1f102e07a769ec"}, {"bike_id": "c9523230c205e50e402d989e155c0d4f", "type": "electric_scooter", "is_disabled": 0, "lat": 38.8806155, "rental_uris": {"ios": "https://dc.lft.to/lastmile_qr_scan", "android": "https://dc.lft.to/lastmile_qr_scan"}, "is_reserved": 0, "fusion_lon": 0.0, "fusion_lat": 0.0, "lon": -76.93212583333333, "name": "c9523230c205e50e402d989e155c0d4f"}, {"bike_id": "4de8a142d7af0e336ee65b9ca0fe7ae3", "type": "electric_bike", "is_disabled": 0, "lat": 38.879852, "rental_uris": {"ios": "https://dc.lft.to/lastmile_qr_scan", "android": "https://dc.lft.to/lastmile_qr_scan"}, "is_reserved": 0, "fusion_lon": 0.0, "fusion_lat": 0.0, "lon": -76.91598733333333, "name": "4de8a142d7af0e336ee65b9ca0fe7ae3"}, {"bike_id": "b800a4503194b22ed7142340e2231175", "type": "electric_scooter", "is_disabled": 0, "lat": 38.89220983333333, "rental_uris": {"ios": "https://dc.lft.to/lastmile_qr_scan", "android": "https://dc.lft.to/lastmile_qr_scan"}, "is_reserved": 0, "fusion_lon": 0.0, "fusion_lat": 0.0, "lon": -77.04309483333333, "name": "b800a4503194b22ed7142340e2231175"}, {"bike_id": "a033cf3306b3c588356588ef925c57d1", "type": "electric_scooter", "is_disabled": 0, "lat": 38.888554666666664, "rental_uris": {"ios": "https://dc.lft.to/lastmile_qr_scan", "android": "https://dc.lft.to/lastmile_qr_scan"}, "is_reserved": 0, "fusion_lon": 0.0, "fusion_lat": 0.0, "lon": -77.00055183333333, "name": "a033cf3306b3c588356588ef925c57d1"}, {"bike_id": "928b14d6877371290b5730397dfa088e", "type": "electric_scooter", "is_disabled": 0, "lat": 38.887446833333335, "rental_uris": {"ios": "https://dc.lft.to/lastmile_qr_scan", "android": "https://dc.lft.to/lastmile_qr_scan"}, "is_reserved": 0, "fusion_lon": 0.0, "fusion_lat": 0.0, "lon": -76.99623833333334, "name": "928b14d6877371290b5730397dfa088e"}, {"bike_id": "22328daf000eff102b7d50ab14e83420", "type": "electric_scooter", "is_disabled": 0, "lat": 38.89223616666666, "rental_uris": {"ios": "https://dc.lft.to/lastmile_qr_scan", "android": "https://dc.lft.to/lastmile_qr_scan"}, "is_reserved": 0, "fusion_lon": 0.0, "fusion_lat": 0.0, "lon": -77.03158333333333, "name": "22328daf000eff102b7d50ab14e83420"}, {"bike_id": "a3ce343443f6abdc10395d889807efce", "type": "electric_scooter", "is_disabled": 0, "lat": 38.907915, "rental_uris": {"ios": "https://dc.lft.to/lastmile_qr_scan", "android": "https://dc.lft.to/lastmile_qr_scan"}, "is_reserved": 0, "fusion_lon": 0.0, "fusion_lat": 0.0, "lon": -77.03863833333334, "name": "a3ce343443f6abdc10395d889807efce"}, {"bike_id": "fffc8ffd97814384fb8ea7eba93a0508", "type": "electric_scooter", "is_disabled": 0, "lat": 38.866586, "rental_uris": {"ios": "https://dc.lft.to/lastmile_qr_scan", "android": "https://dc.lft.to/lastmile_qr_scan"}, "is_reserved": 0, "fusion_lon": 0.0, "fusion_lat": 0.0, "lon": -76.98888366666667, "name": "fffc8ffd97814384fb8ea7eba93a0508"}, {"bike_id": "34bfe0acb7fb14c7446122f02412a4bd", "type": "electric_scooter", "is_disabled": 0, "lat": 38.918705333333335, "rental_uris": {"ios": "https://dc.lft.to/lastmile_qr_scan", "android": "https://dc.lft.to/lastmile_qr_scan"}, "is_reserved": 0, "fusion_lon": 0.0, "fusion_lat": 0.0, "lon": -77.04759533333333, "name": "34bfe0acb7fb14c7446122f02412a4bd"}, {"bike_id": "734843b1fd4472d18d5e6292e685f063", "type": "electric_scooter", "is_disabled": 0, "lat": 38.9075175, "rental_uris": {"ios": "https://dc.lft.to/lastmile_qr_scan", "android": "https://dc.lft.to/lastmile_qr_scan"}, "is_reserved": 0, "fusion_lon": 0.0, "fusion_lat": 0.0, "lon": -76.99965883333333, "name": "734843b1fd4472d18d5e6292e685f063"}, {"bike_id": "516b90c0a32847819b5bf6edc0a3fa32", "type": "electric_scooter", "is_disabled": 0, "lat": 38.91689783333333, "rental_uris": {"ios": "https://dc.lft.to/lastmile_qr_scan", "android": "https://dc.lft.to/lastmile_qr_scan"}, "is_reserved": 0, "fusion_lon": 0.0, "fusion_lat": 0.0, "lon": -77.03768716666667, "name": "516b90c0a32847819b5bf6edc0a3fa32"}, {"bike_id": "cd0b2bf0b28e7aecc78a285781f70f4f", "type": "electric_scooter", "is_disabled": 0, "lat": 38.8924455, "rental_uris": {"ios": "https://dc.lft.to/lastmile_qr_scan", "android": "https://dc.lft.to/lastmile_qr_scan"}, "is_reserved": 0, "fusion_lon": 0.0, "fusion_lat": 0.0, "lon": -77.02209433333333, "name": "cd0b2bf0b28e7aecc78a285781f70f4f"}, {"bike_id": "a0f1bea6093bb0ec266060694060d267", "type": "electric_scooter", "is_disabled": 0, "lat": 38.91420083333333, "rental_uris": {"ios": "https://dc.lft.to/lastmile_qr_scan", "android": "https://dc.lft.to/lastmile_qr_scan"}, "is_reserved": 0, "fusion_lon": 0.0, "fusion_lat": 0.0, "lon": -77.04811716666667, "name": "a0f1bea6093bb0ec266060694060d267"}, {"bike_id": "5cd3af83ebf2af5a5b477d32fab62d7c", "type": "electric_scooter", "is_disabled": 0, "lat": 38.86656, "rental_uris": {"ios": "https://dc.lft.to/lastmile_qr_scan", "android": "https://dc.lft.to/lastmile_qr_scan"}, "is_reserved": 0, "fusion_lon": 0.0, "fusion_lat": 0.0, "lon": -76.988889, "name": "5cd3af83ebf2af5a5b477d32fab62d7c"}, {"bike_id": "13e376b90857cf2de4dfbd09a3eb5836", "type": "electric_bike", "is_disabled": 0, "lat": 38.88057416666667, "rental_uris": {"ios": "https://dc.lft.to/lastmile_qr_scan", "android": "https://dc.lft.to/lastmile_qr_scan"}, "is_reserved": 0, "fusion_lon": 0.0, "fusion_lat": 0.0, "lon": -76.96241816666667, "name": "13e376b90857cf2de4dfbd09a3eb5836"}, {"bike_id": "0757bbbf71569cc90e77d1aedbfbebb6", "type": "electric_scooter", "is_disabled": 0, "lat": 38.909752, "rental_uris": {"ios": "https://dc.lft.to/lastmile_qr_scan", "android": "https://dc.lft.to/lastmile_qr_scan"}, "is_reserved": 0, "fusion_lon": 0.0, "fusion_lat": 0.0, "lon": -77.03871483333333, "name": "0757bbbf71569cc90e77d1aedbfbebb6"}, {"bike_id": "5d2d7f0cf95ad966f9e0a22b0ae9c9c0", "type": "electric_bike", "is_disabled": 0, "lat": 38.91014166666667, "rental_uris": {"ios": "https://dc.lft.to/lastmile_qr_scan", "android": "https://dc.lft.to/lastmile_qr_scan"}, "is_reserved": 0, "fusion_lon": 0.0, "fusion_lat": 0.0, "lon": -77.227985, "name": "5d2d7f0cf95ad966f9e0a22b0ae9c9c0"}, {"bike_id": "08031735ab3c9999fc3f9c1a94dcfd4d", "type": "electric_scooter", "is_disabled": 0, "lat": 38.89033533333333, "rental_uris": {"ios": "https://dc.lft.to/lastmile_qr_scan", "android": "https://dc.lft.to/lastmile_qr_scan"}, "is_reserved": 0, "fusion_lon": 0.0, "fusion_lat": 0.0, "lon": -76.93759316666667, "name": "08031735ab3c9999fc3f9c1a94dcfd4d"}, {"bike_id": "99b5580cf4fb4b6d8d2de11ed12353d4", "type": "electric_scooter", "is_disabled": 0, "lat": 38.869724, "rental_uris": {"ios": "https://dc.lft.to/lastmile_qr_scan", "android": "https://dc.lft.to/lastmile_qr_scan"}, "is_reserved": 0, "fusion_lon": 0.0, "fusion_lat": 0.0, "lon": -76.9816545, "name": "99b5580cf4fb4b6d8d2de11ed12353d4"}, {"bike_id": "a5443cd261da4971626746b38e32b252", "type": "electric_scooter", "is_disabled": 0, "lat": 38.924351333333334, "rental_uris": {"ios": "https://dc.lft.to/lastmile_qr_scan", "android": "https://dc.lft.to/lastmile_qr_scan"}, "is_reserved": 0, "fusion_lon": 0.0, "fusion_lat": 0.0, "lon": -77.04023433333333, "name": "a5443cd261da4971626746b38e32b252"}, {"bike_id": "704f57f00f263377f33ee0e03c354ad9", "type": "electric_scooter", "is_disabled": 0, "lat": 38.9237165, "rental_uris": {"ios": "https://dc.lft.to/lastmile_qr_scan", "android": "https://dc.lft.to/lastmile_qr_scan"}, "is_reserved": 0, "fusion_lon": 0.0, "fusion_lat": 0.0, "lon": -77.03054866666666, "name": "704f57f00f263377f33ee0e03c354ad9"}, {"bike_id": "94a7745c4e7fdf806cb4714371ec0f4a", "type": "electric_scooter", "is_disabled": 0, "lat": 38.917813833333334, "rental_uris": {"ios": "https://dc.lft.to/lastmile_qr_scan", "android": "https://dc.lft.to/lastmile_qr_scan"}, "is_reserved": 0, "fusion_lon": 0.0, "fusion_lat": 0.0, "lon": -77.0231555, "name": "94a7745c4e7fdf806cb4714371ec0f4a"}, {"bike_id": "863956d3755b359fc07f283d6db1863b", "type": "electric_bike", "is_disabled": 0, "lat": 38.87281133333333, "rental_uris": {"ios": "https://dc.lft.to/lastmile_qr_scan", "android": "https://dc.lft.to/lastmile_qr_scan"}, "is_reserved": 0, "fusion_lon": 0.0, "fusion_lat": 0.0, "lon": -77.23320066666666, "name": "863956d3755b359fc07f283d6db1863b"}, {"bike_id": "08b6b55a68c5c9e4da9dc7a5c6768d73", "type": "electric_scooter", "is_disabled": 0, "lat": 38.902552, "rental_uris": {"ios": "https://dc.lft.to/lastmile_qr_scan", "android": "https://dc.lft.to/lastmile_qr_scan"}, "is_reserved": 0, "fusion_lon": 0.0, "fusion_lat": 0.0, "lon": -77.04031083333334, "name": "08b6b55a68c5c9e4da9dc7a5c6768d73"}, {"bike_id": "ee45eb63d3428d71268218179e54ea30", "type": "electric_scooter", "is_disabled": 0, "lat": 38.900141833333336, "rental_uris": {"ios": "https://dc.lft.to/lastmile_qr_scan", "android": "https://dc.lft.to/lastmile_qr_scan"}, "is_reserved": 0, "fusion_lon": 0.0, "fusion_lat": 0.0, "lon": -77.0017625, "name": "ee45eb63d3428d71268218179e54ea30"}, {"bike_id": "64e2ed45cd2059099429552f0cd14d66", "type": "electric_scooter", "is_disabled": 0, "lat": 38.947872333333336, "rental_uris": {"ios": "https://dc.lft.to/lastmile_qr_scan", "android": "https://dc.lft.to/lastmile_qr_scan"}, "is_reserved": 0, "fusion_lon": 0.0, "fusion_lat": 0.0, "lon": -77.02136, "name": "64e2ed45cd2059099429552f0cd14d66"}, {"bike_id": "f0fb6830e9a66873fe0ec479d81df400", "type": "electric_scooter", "is_disabled": 0, "lat": 38.934027666666665, "rental_uris": {"ios": "https://dc.lft.to/lastmile_qr_scan", "android": "https://dc.lft.to/lastmile_qr_scan"}, "is_reserved": 0, "fusion_lon": 0.0, "fusion_lat": 0.0, "lon": -77.0221195, "name": "f0fb6830e9a66873fe0ec479d81df400"}, {"bike_id": "a5dfe1c10270ab51e244d6d306cce600", "type": "electric_bike", "is_disabled": 0, "lat": 38.9960355, "rental_uris": {"ios": "https://dc.lft.to/lastmile_qr_scan", "android": "https://dc.lft.to/lastmile_qr_scan"}, "is_reserved": 0, "fusion_lon": 0.0, "fusion_lat": 0.0, "lon": -77.026753, "name": "a5dfe1c10270ab51e244d6d306cce600"}, {"bike_id": "23c63769b279f51b9bdba867f63722db", "type": "electric_scooter", "is_disabled": 0, "lat": 38.9329945, "rental_uris": {"ios": "https://dc.lft.to/lastmile_qr_scan", "android": "https://dc.lft.to/lastmile_qr_scan"}, "is_reserved": 0, "fusion_lon": 0.0, "fusion_lat": 0.0, "lon": -77.0325895, "name": "23c63769b279f51b9bdba867f63722db"}, {"bike_id": "b307be1d8fd76c00d6367b030228d7bd", "type": "electric_scooter", "is_disabled": 0, "lat": 38.91310283333333, "rental_uris": {"ios": "https://dc.lft.to/lastmile_qr_scan", "android": "https://dc.lft.to/lastmile_qr_scan"}, "is_reserved": 0, "fusion_lon": 0.0, "fusion_lat": 0.0, "lon": -77.04544083333333, "name": "b307be1d8fd76c00d6367b030228d7bd"}, {"bike_id": "2fa000f99776efb6015c531a21706a6f", "type": "electric_scooter", "is_disabled": 0, "lat": 38.910269166666666, "rental_uris": {"ios": "https://dc.lft.to/lastmile_qr_scan", "android": "https://dc.lft.to/lastmile_qr_scan"}, "is_reserved": 0, "fusion_lon": 0.0, "fusion_lat": 0.0, "lon": -77.00757083333333, "name": "2fa000f99776efb6015c531a21706a6f"}, {"bike_id": "558426426e8009670d8bce80b1eee9b9", "type": "electric_scooter", "is_disabled": 0, "lat": 38.89223, "rental_uris": {"ios": "https://dc.lft.to/lastmile_qr_scan", "android": "https://dc.lft.to/lastmile_qr_scan"}, "is_reserved": 0, "fusion_lon": 0.0, "fusion_lat": 0.0, "lon": -77.0451455, "name": "558426426e8009670d8bce80b1eee9b9"}, {"bike_id": "593c666778be2eef21f4198ae06460a3", "type": "electric_scooter", "is_disabled": 0, "lat": 38.90549983333333, "rental_uris": {"ios": "https://dc.lft.to/lastmile_qr_scan", "android": "https://dc.lft.to/lastmile_qr_scan"}, "is_reserved": 0, "fusion_lon": 0.0, "fusion_lat": 0.0, "lon": -77.05700616666667, "name": "593c666778be2eef21f4198ae06460a3"}, {"bike_id": "597e4e67feb180dda45029701e5905e6", "type": "electric_scooter", "is_disabled": 0, "lat": 38.91404083333333, "rental_uris": {"ios": "https://dc.lft.to/lastmile_qr_scan", "android": "https://dc.lft.to/lastmile_qr_scan"}, "is_reserved": 0, "fusion_lon": 0.0, "fusion_lat": 0.0, "lon": -77.03221133333334, "name": "597e4e67feb180dda45029701e5905e6"}, {"bike_id": "9510fa9ecb10152d49f56871e8b3e314", "type": "electric_scooter", "is_disabled": 0, "lat": 38.902745333333336, "rental_uris": {"ios": "https://dc.lft.to/lastmile_qr_scan", "android": "https://dc.lft.to/lastmile_qr_scan"}, "is_reserved": 0, "fusion_lon": 0.0, "fusion_lat": 0.0, "lon": -77.03379583333333, "name": "9510fa9ecb10152d49f56871e8b3e314"}, {"bike_id": "97e0afacf92733b477b8ce3756a4341d", "type": "electric_scooter", "is_disabled": 0, "lat": 38.87387783333333, "rental_uris": {"ios": "https://dc.lft.to/lastmile_qr_scan", "android": "https://dc.lft.to/lastmile_qr_scan"}, "is_reserved": 0, "fusion_lon": 0.0, "fusion_lat": 0.0, "lon": -77.04338016666667, "name": "97e0afacf92733b477b8ce3756a4341d"}, {"bike_id": "72fd592ecd594a69b5f94126b82fd3f8", "type": "electric_scooter", "is_disabled": 0, "lat": 38.90083666666666, "rental_uris": {"ios": "https://dc.lft.to/lastmile_qr_scan", "android": "https://dc.lft.to/lastmile_qr_scan"}, "is_reserved": 0, "fusion_lon": 0.0, "fusion_lat": 0.0, "lon": -76.98339516666667, "name": "72fd592ecd594a69b5f94126b82fd3f8"}, {"bike_id": "9b5e6c74556b34f4f26229a88fb01035", "type": "electric_scooter", "is_disabled": 0, "lat": 38.87812533333334, "rental_uris": {"ios": "https://dc.lft.to/lastmile_qr_scan", "android": "https://dc.lft.to/lastmile_qr_scan"}, "is_reserved": 0, "fusion_lon": 0.0, "fusion_lat": 0.0, "lon": -77.02242483333333, "name": "9b5e6c74556b34f4f26229a88fb01035"}, {"bike_id": "97e25df76b27575d647f5c5a23261019", "type": "electric_scooter", "is_disabled": 0, "lat": 38.93521833333333, "rental_uris": {"ios": "https://dc.lft.to/lastmile_qr_scan", "android": "https://dc.lft.to/lastmile_qr_scan"}, "is_reserved": 0, "fusion_lon": 0.0, "fusion_lat": 0.0, "lon": -77.03347466666666, "name": "97e25df76b27575d647f5c5a23261019"}, {"bike_id": "a415d39363f9baeba03fd1dace824386", "type": "electric_scooter", "is_disabled": 0, "lat": 38.893389666666664, "rental_uris": {"ios": "https://dc.lft.to/lastmile_qr_scan", "android": "https://dc.lft.to/lastmile_qr_scan"}, "is_reserved": 0, "fusion_lon": 0.0, "fusion_lat": 0.0, "lon": -76.95054083333333, "name": "a415d39363f9baeba03fd1dace824386"}, {"bike_id": "61865270545b8ba6da2ccec3c68bbc81", "type": "electric_scooter", "is_disabled": 0, "lat": 38.93672, "rental_uris": {"ios": "https://dc.lft.to/lastmile_qr_scan", "android": "https://dc.lft.to/lastmile_qr_scan"}, "is_reserved": 0, "fusion_lon": 0.0, "fusion_lat": 0.0, "lon": -77.02429433333333, "name": "61865270545b8ba6da2ccec3c68bbc81"}, {"bike_id": "7cded5d7fd279795482c1333715274f3", "type": "electric_scooter", "is_disabled": 0, "lat": 38.90755133333333, "rental_uris": {"ios": "https://dc.lft.to/lastmile_qr_scan", "android": "https://dc.lft.to/lastmile_qr_scan"}, "is_reserved": 0, "fusion_lon": 0.0, "fusion_lat": 0.0, "lon": -77.03455016666666, "name": "7cded5d7fd279795482c1333715274f3"},