{"data": {"bikes": [{"lon": -77.02443666666667, "bike_id": "04a66c0f120fa5771b067ca9adb94e31", "lat": 38.914158666666665, "fusion_lon": 0.0, "fusion_lat": 0.0, "type": "electric_scooter", "name": "04a66c0f120fa5771b067ca9adb94e31", "is_disabled": 0, "rental_uris": {"ios": "https://dc.lft.to/lastmile_qr_scan", "android": "https://dc.lft.to/lastmile_qr_scan"}, "is_reserved": 0}, {"lon": -77.044497, "bike_id": "97a4a41855455d216f73351d16a728f2", "lat": 38.897447166666666, "fusion_lon": 0.0, "fusion_lat": 0.0, "type": "electric_scooter", "name": "97a4a41855455d216f73351d16a728f2", "is_disabled": 0, "rental_uris": {"ios": "https://dc.lft.to/lastmile_qr_scan", "android": "https://dc.lft.to/lastmile_qr_scan"}, "is_reserved": 0}, {"lon": -77.05210933333333, "bike_id": "82dfc5a59e802ac4b916e2f1c480833b", "lat": 38.90081, "fusion_lon": 0.0, "fusion_lat": 0.0, "type": "electric_scooter", "name": "82dfc5a59e802ac4b916e2f1c480833b", "is_disabled": 0, "rental_uris": {"ios": "https://dc.lft.to/lastmile_qr_scan", "android": "https://dc.lft.to/lastmile_qr_scan"}, "is_reserved": 0}, {"lon": -77.046441, "bike_id": "16e66cb03d20c12c6e2aabe3411d60a8", "lat": 38.915736333333335, "fusion_lon": 0.0, "fusion_lat": 0.0, "type": "electric_scooter", "name": "16e66cb03d20c12c6e2aabe3411d60a8", "is_disabled": 0, "rental_uris": {"ios": "https://dc.lft.to/lastmile_qr_scan", "android": "https://dc.lft.to/lastmile_qr_scan"}, "is_reserved": 0}, {"lon": -77.023976, "bike_id": "2a15886d64bc4e810123182a810d54f9", "lat": 38.91990716666667, "fusion_lon": 0.0, "fusion_lat": 0.0, "type": "electric_scooter", "name": "2a15886d64bc4e810123182a810d54f9", "is_disabled": 0, "rental_uris": {"ios": "https://dc.lft.to/lastmile_qr_scan", "android": "https://dc.lft.to/lastmile_qr_scan"}, "is_reserved": 0}, {"lon": -77.02965233333333, "bike_id": "770d4912c3191419835f11e1882f2421", "lat": 38.92391466666667, "fusion_lon": 0.0, "fusion_lat": 0.0, "type": "electric_scooter", "name": "770d4912c3191419835f11e1882f2421", "is_disabled": 0, "rental_uris": {"ios": "https://dc.lft.to/lastmile_qr_scan", "android": "https://dc.lft.to/lastmile_qr_scan"}, "is_reserved": 0}, {"lon": -77.00338033333334, "bike_id": "fb83aabf3b2e780152ab3e231fc1c726", "lat": 38.891900166666666, "fusion_lon": 0.0, "fusion_lat": 0.0, "type": "electric_scooter", "name": "fb83aabf3b2e780152ab3e231fc1c726", "is_disabled": 0, "rental_uris": {"ios": "https://dc.lft.to/lastmile_qr_scan", "android": "https://dc.lft.to/lastmile_qr_scan"}, "is_reserved": 0}, {"lon": -77.02112183333334, "bike_id": "b9877c2f9ef963b6339b675561ed909a", "lat": 38.937034, "fusion_lon": 0.0, "fusion_lat": 0.0, "type": "electric_scooter", "name": "b9877c2f9ef963b6339b675561ed909a", "is_disabled": 0, "rental_uris": {"ios": "https://dc.lft.to/lastmile_qr_scan", "android": "https://dc.lft.to/lastmile_qr_scan"}, "is_reserved": 0}, {"lon": -77.00694533333333, "bike_id": "93454d81000b8835ed14eddc161784dd", "lat": 38.91742333333333, "fusion_lon": 0.0, "fusion_lat": 0.0, "type": "electric_scooter", "name": "93454d81000b8835ed14eddc161784dd", "is_disabled": 0, "rental_uris": {"ios": "https://dc.lft.to/lastmile_qr_scan", "android": "https://dc.lft.to/lastmile_qr_scan"}, "is_reserved": 0}, {"lon": -77.007035, "bike_id": "22f16bff1348ed3f4ed79bad5811561e", "lat": 38.90575366666667, "fusion_lon": 0.0, "fusion_lat": 0.0, "type": "electric_scooter", "name": "22f16bff1348ed3f4ed79bad5811561e", "is_disabled": 0, "rental_uris": {"ios": "https://dc.lft.to/lastmile_qr_scan", "android": "https://dc.lft.to/lastmile_qr_scan"}, "is_reserved": 0}, {"lon": -77.02209533333334, "bike_id": "6a194321342b0883b706cb5f5d427710", "lat": 38.9141545, "fusion_lon": 0.0, "fusion_lat": 0.0, "type": "electric_scooter", "name": "6a194321342b0883b706cb5f5d427710", "is_disabled": 0, "rental_uris": {"ios": "https://dc.lft.to/lastmile_qr_scan", "android": "https://dc.lft.to/lastmile_qr_scan"}, "is_reserved": 0}, {"lon": -76.98563883333334, "bike_id": "ff1d564f12f5a71f707a3e2458b5009c", "lat": 38.89954483333333, "fusion_lon": 0.0, "fusion_lat": 0.0, "type": "electric_scooter", "name": "ff1d564f12f5a71f707a3e2458b5009c", "is_disabled": 0, "rental_uris": {"ios": "https://dc.lft.to/lastmile_qr_scan", "android": "https://dc.lft.to/lastmile_qr_scan"}, "is_reserved": 0}, {"lon": -77.020983, "bike_id": "8a3273e05c5793a90c2ccbf7e47d81bb", "lat": 38.931151666666665, "fusion_lon": 0.0, "fusion_lat": 0.0, "type": "electric_scooter", "name": "8a3273e05c5793a90c2ccbf7e47d81bb", "is_disabled": 0, "rental_uris": {"ios": "https://dc.lft.to/lastmile_qr_scan", "android": "https://dc.lft.to/lastmile_qr_scan"}, "is_reserved": 0}, {"lon": -77.124926, "bike_id": "d6afc0a498dfb54153703f9e96de4405", "lat": 38.82784183333333, "fusion_lon": 0.0, "fusion_lat": 0.0, "type": "electric_bike", "name": "d6afc0a498dfb54153703f9e96de4405", "is_disabled": 0, "rental_uris": {"ios": "https://dc.lft.to/lastmile_qr_scan", "android": "https://dc.lft.to/lastmile_qr_scan"}, "is_reserved": 0}, {"lon": -77.03402116666666, "bike_id": "d0b54658c27162b7e34aa6d3fbf8830f", "lat": 38.96030966666667, "fusion_lon": 0.0, "fusion_lat": 0.0, "type": "electric_bike", "name": "d0b54658c27162b7e34aa6d3fbf8830f", "is_disabled": 0, "rental_uris": {"ios": "https://dc.lft.to/lastmile_qr_scan", "android": "https://dc.lft.to/lastmile_qr_scan"}, "is_reserved": 0}, {"lon": -77.0161825, "bike_id": "35bae314b0cebfe4663815f4aa0b59ab", "lat": 38.901697, "fusion_lon": 0.0, "fusion_lat": 0.0, "type": "electric_scooter", "name": "35bae314b0cebfe4663815f4aa0b59ab", "is_disabled": 0, "rental_uris": {"ios": "https://dc.lft.to/lastmile_qr_scan", "android": "https://dc.lft.to/lastmile_qr_scan"}, "is_reserved": 0}, {"lon": -77.02709866666666, "bike_id": "91391c530c5f02cac540e8dab7470b7b", "lat": 38.934756166666666, "fusion_lon": 0.0, "fusion_lat": 0.0, "type": "electric_scooter", "name": "91391c530c5f02cac540e8dab7470b7b", "is_disabled": 0, "rental_uris": {"ios": "https://dc.lft.to/lastmile_qr_scan", "android": "https://dc.lft.to/lastmile_qr_scan"}, "is_reserved": 0}, {"lon": -77.06423366666667, "bike_id": "17be305b167a82060e8a6071b9530fca", "lat": 38.9088495, "fusion_lon": 0.0, "fusion_lat": 0.0, "type": "electric_scooter", "name": "17be305b167a82060e8a6071b9530fca", "is_disabled": 0, "rental_uris": {"ios": "https://dc.lft.to/lastmile_qr_scan", "android": "https://dc.lft.to/lastmile_qr_scan"}, "is_reserved": 0}, {"lon": -77.002818, "bike_id": "130374135943714cf90e7f7c2771ff4c", "lat": 38.957122, "fusion_lon": 0.0, "fusion_lat": 0.0, "type": "electric_bike", "name": "130374135943714cf90e7f7c2771ff4c", "is_disabled": 0, "rental_uris": {"ios": "https://dc.lft.to/lastmile_qr_scan", "android": "https://dc.lft.to/lastmile_qr_scan"}, "is_reserved": 0}, {"lon": -77.00362666666666, "bike_id": "8e23961c13a04b1a0278bfd673bec71e", "lat": 38.905904166666666, "fusion_lon": 0.0, "fusion_lat": 0.0, "type": "electric_scooter", "name": "8e23961c13a04b1a0278bfd673bec71e", "is_disabled": 0, "rental_uris": {"ios": "https://dc.lft.to/lastmile_qr_scan", "android": "https://dc.lft.to/lastmile_qr_scan"}, "is_reserved": 0}, {"lon": -77.04318933333333, "bike_id": "710965d2389f59b067f6ac779e994ad1", "lat": 38.9187715, "fusion_lon": 0.0, "fusion_lat": 0.0, "type": "electric_scooter", "name": "710965d2389f59b067f6ac779e994ad1", "is_disabled": 0, "rental_uris": {"ios": "https://dc.lft.to/lastmile_qr_scan", "android": "https://dc.lft.to/lastmile_qr_scan"}, "is_reserved": 0}, {"lon": -76.96580333333333, "bike_id": "abfcc345f7dbf6d55d55b9005dca8bb5", "lat": 38.87136683333333, "fusion_lon": 0.0, "fusion_lat": 0.0, "type": "electric_scooter", "name": "abfcc345f7dbf6d55d55b9005dca8bb5", "is_disabled": 0, "rental_uris": {"ios": "https://dc.lft.to/lastmile_qr_scan", "android": "https://dc.lft.to/lastmile_qr_scan"}, "is_reserved": 0}, {"lon": -77.0342465, "bike_id": "c0d8bee3f0ec11df9b2e5c777319dfcc", "lat": 38.92749533333333, "fusion_lon": 0.0, "fusion_lat": 0.0, "type": "electric_scooter", "name": "c0d8bee3f0ec11df9b2e5c777319dfcc", "is_disabled": 0, "rental_uris": {"ios": "https://dc.lft.to/lastmile_qr_scan", "android": "https://dc.lft.to/lastmile_qr_scan"}, "is_reserved": 0}, {"lon": -76.9985305, "bike_id": "22f0c04ed3c97aa69afa6fd49f05f24f", "lat": 38.8416145, "fusion_lon": 0.0, "fusion_lat": 0.0, "type": "electric_scooter", "name": "22f0c04ed3c97aa69afa6fd49f05f24f", "is_disabled": 0, "rental_uris": {"ios": "https://dc.lft.to/lastmile_qr_scan", "android": "https://dc.lft.to/lastmile_qr_scan"}, "is_reserved": 0}, {"lon": -77.0398815, "bike_id": "50b23059888863e7f905ec005681d34e", "lat": 38.927235833333334, "fusion_lon": 0.0, "fusion_lat": 0.0, "type": "electric_scooter", "name": "50b23059888863e7f905ec005681d34e", "is_disabled": 0, "rental_uris": {"ios": "https://dc.lft.to/lastmile_qr_scan", "android": "https://dc.lft.to/lastmile_qr_scan"}, "is_reserved": 0}, {"lon": -77.03662116666666, "bike_id": "68ea3dcb7e7981cb1950b644400a0cc2", "lat": 38.933420166666664, "fusion_lon": 0.0, "fusion_lat": 0.0, "type": "electric_scooter", "name": "68ea3dcb7e7981cb1950b644400a0cc2", "is_disabled": 0, "rental_uris": {"ios": "https://dc.lft.to/lastmile_qr_scan", "android": "https://dc.lft.to/lastmile_qr_scan"}, "is_reserved": 0}, {"lon": -77.0233545, "bike_id": "13c85ec2d8c2236a1b06e9febae86674", "lat": 38.9086975, "fusion_lon": 0.0, "fusion_lat": 0.0, "type": "electric_scooter", "name": "13c85ec2d8c2236a1b06e9febae86674", "is_disabled": 0, "rental_uris": {"ios": "https://dc.lft.to/lastmile_qr_scan", "android": "https://dc.lft.to/lastmile_qr_scan"}, "is_reserved": 0}, {"lon": -76.9986915, "bike_id": "d057b4f677a080b15dbbecbde540c80c", "lat": 38.90026983333333, "fusion_lon": 0.0, "fusion_lat": 0.0, "type": "electric_scooter", "name": "d057b4f677a080b15dbbecbde540c80c", "is_disabled": 0, "rental_uris": {"ios": "https://dc.lft.to/lastmile_qr_scan", "android": "https://dc.lft.to/lastmile_qr_scan"}, "is_reserved": 0}, {"lon": -77.032692, "bike_id": "a9f2a0e55292f6e63700e9ed77c86543", "lat": 38.93226533333333, "fusion_lon": 0.0, "fusion_lat": 0.0, "type": "electric_scooter", "name": "a9f2a0e55292f6e63700e9ed77c86543", "is_disabled": 0, "rental_uris": {"ios": "https://dc.lft.to/lastmile_qr_scan", "android": "https://dc.lft.to/lastmile_qr_scan"}, "is_reserved": 0}, {"lon": -77.00310433333334, "bike_id": "959ccd1da4abd7090117a687abf86bde", "lat": 38.895135333333336, "fusion_lon": 0.0, "fusion_lat": 0.0, "type": "electric_scooter", "name": "959ccd1da4abd7090117a687abf86bde", "is_disabled": 0, "rental_uris": {"ios": "https://dc.lft.to/lastmile_qr_scan", "android": "https://dc.lft.to/lastmile_qr_scan"}, "is_reserved": 0}, {"lon": -77.009552, "bike_id": "f0edfadd8403079faa783bcdafa84889", "lat": 38.9214115, "fusion_lon": 0.0, "fusion_lat": 0.0, "type": "electric_scooter", "name": "f0edfadd8403079faa783bcdafa84889", "is_disabled": 0, "rental_uris": {"ios": "https://dc.lft.to/lastmile_qr_scan", "android": "https://dc.lft.to/lastmile_qr_scan"}, "is_reserved": 0}, {"lon": -76.99793, "bike_id": "d623708cf6c39fd324423cdf6bee0fd5", "lat": 38.890906333333334, "fusion_lon": 0.0, "fusion_lat": 0.0, "type": "electric_scooter", "name": "d623708cf6c39fd324423cdf6bee0fd5", "is_disabled": 0, "rental_uris": {"ios": "https://dc.lft.to/lastmile_qr_scan", "android": "https://dc.lft.to/lastmile_qr_scan"}, "is_reserved": 0}, {"lon": -76.98105966666667, "bike_id": "8fef4997fc6503e743873ccd9c8b40bd", "lat": 38.87730966666667, "fusion_lon": 0.0, "fusion_lat": 0.0, "type": "electric_bike", "name": "8fef4997fc6503e743873ccd9c8b40bd", "is_disabled": 0, "rental_uris": {"ios": "https://dc.lft.to/lastmile_qr_scan", "android": "https://dc.lft.to/lastmile_qr_scan"}, "is_reserved": 0}, {"lon": -76.99933433333334, "bike_id": "26dae2d2481c154aaa629dc52e56be50", "lat": 38.907678833333335, "fusion_lon": 0.0, "fusion_lat": 0.0, "type": "electric_scooter", "name": "26dae2d2481c154aaa629dc52e56be50", "is_disabled": 0, "rental_uris": {"ios": "https://dc.lft.to/lastmile_qr_scan", "android": "https://dc.lft.to/lastmile_qr_scan"}, "is_reserved": 0}, {"lon": -77.0366085, "bike_id": "3f5e0fd23741b00708b9a544e1e12600", "lat": 38.93328916666667, "fusion_lon": 0.0, "fusion_lat": 0.0, "type": "electric_scooter", "name": "3f5e0fd23741b00708b9a544e1e12600", "is_disabled": 0, "rental_uris": {"ios": "https://dc.lft.to/lastmile_qr_scan", "android": "https://dc.lft.to/lastmile_qr_scan"}, "is_reserved": 0}, {"lon": -77.03345266666666, "bike_id": "9d19bfb5ede628c0adeef896eb212d7c", "lat": 38.935136166666666, "fusion_lon": 0.0, "fusion_lat": 0.0, "type": "electric_scooter", "name": "9d19bfb5ede628c0adeef896eb212d7c", "is_disabled": 0, "rental_uris": {"ios": "https://dc.lft.to/lastmile_qr_scan", "android": "https://dc.lft.to/lastmile_qr_scan"}, "is_reserved": 0}, {"lon": -77.02690633333333, "bike_id": "c600e3ced39ca0f632966e692b867eb3", "lat": 38.904063666666666, "fusion_lon": 0.0, "fusion_lat": 0.0, "type": "electric_scooter", "name": "c600e3ced39ca0f632966e692b867eb3", "is_disabled": 0, "rental_uris": {"ios": "https://dc.lft.to/lastmile_qr_scan", "android": "https://dc.lft.to/lastmile_qr_scan"}, "is_reserved": 0}, {"lon": -76.99923216666667, "bike_id": "355b14125248024c2fa5bf036a95156d", "lat": 38.889736166666665, "fusion_lon": 0.0, "fusion_lat": 0.0, "type": "electric_scooter", "name": "355b14125248024c2fa5bf036a95156d", "is_disabled": 0, "rental_uris": {"ios": "https://dc.lft.to/lastmile_qr_scan", "android": "https://dc.lft.to/lastmile_qr_scan"}, "is_reserved": 0}, {"lon": -76.98248883333333, "bike_id": "1edf2cc7ec38a55c4e871e498225a991", "lat": 38.86456183333333, "fusion_lon": 0.0, "fusion_lat": 0.0, "type": "electric_scooter", "name": "1edf2cc7ec38a55c4e871e498225a991", "is_disabled": 0, "rental_uris": {"ios": "https://dc.lft.to/lastmile_qr_scan", "android": "https://dc.lft.to/lastmile_qr_scan"}, "is_reserved": 0}, {"lon": -77.03522183333334, "bike_id": "bb11fdc72903e6a70a59c68bd27bdd08", "lat": 38.92730516666666, "fusion_lon": 0.0, "fusion_lat": 0.0, "type": "electric_scooter", "name": "bb11fdc72903e6a70a59c68bd27bdd08", "is_disabled": 0, "rental_uris": {"ios": "https://dc.lft.to/lastmile_qr_scan", "android": "https://dc.lft.to/lastmile_qr_scan"}, "is_reserved": 0}, {"lon": -77.08336133333333, "bike_id": "dcbb3ef76d921cf03b3181a334b819d7", "lat": 38.854398, "fusion_lon": 0.0, "fusion_lat": 0.0, "type": "electric_bike", "name": "dcbb3ef76d921cf03b3181a334b819d7", "is_disabled": 0, "rental_uris": {"ios": "https://dc.lft.to/lastmile_qr_scan", "android": "https://dc.lft.to/lastmile_qr_scan"}, "is_reserved": 0}, {"lon": -77.029809, "bike_id": "006fb0b8b662c31fd69c2e4c617ec515", "lat": 38.935006, "fusion_lon": 0.0, "fusion_lat": 0.0, "type": "electric_scooter", "name": "006fb0b8b662c31fd69c2e4c617ec515", "is_disabled": 0, "rental_uris": {"ios": "https://dc.lft.to/lastmile_qr_scan", "android": "https://dc.lft.to/lastmile_qr_scan"}, "is_reserved": 0}, {"lon": -77.02321883333333, "bike_id": "64c2fdbabf216749c85c30911fe4dfb7", "lat": 38.90888266666666, "fusion_lon": 0.0, "fusion_lat": 0.0, "type": "electric_scooter", "name": "64c2fdbabf216749c85c30911fe4dfb7", "is_disabled": 0, "rental_uris": {"ios": "https://dc.lft.to/lastmile_qr_scan", "android": "https://dc.lft.to/lastmile_qr_scan"}, "is_reserved": 0}, {"lon": -77.00934283333333, "bike_id": "5aa3aad884ae8e2d52ec0e75d8239999", "lat": 38.8998685, "fusion_lon": 0.0, "fusion_lat": 0.0, "type": "electric_scooter", "name": "5aa3aad884ae8e2d52ec0e75d8239999", "is_disabled": 0, "rental_uris": {"ios": "https://dc.lft.to/lastmile_qr_scan", "android": "https://dc.lft.to/lastmile_qr_scan"}, "is_reserved": 0}, {"lon": -77.02487816666667, "bike_id": "73d7ae82c34c55c7ed294a08843cbe8a", "lat": 38.9042465, "fusion_lon": 0.0, "fusion_lat": 0.0, "type": "electric_scooter", "name": "73d7ae82c34c55c7ed294a08843cbe8a", "is_disabled": 0, "rental_uris": {"ios": "https://dc.lft.to/lastmile_qr_scan", "android": "https://dc.lft.to/lastmile_qr_scan"}, "is_reserved": 0}, {"lon": -77.02617816666667, "bike_id": "6377691cc5d57252c97f4bba894bcbfe", "lat": 38.925873333333335, "fusion_lon": 0.0, "fusion_lat": 0.0, "type": "electric_scooter", "name": "6377691cc5d57252c97f4bba894bcbfe", "is_disabled": 0, "rental_uris": {"ios": "https://dc.lft.to/lastmile_qr_scan", "android": "https://dc.lft.to/lastmile_qr_scan"}, "is_reserved": 0}, {"lon": -76.97831866666667, "bike_id": "78ca8e6aea74a2aeb9a90031378a4841", "lat": 38.843724333333334, "fusion_lon": 0.0, "fusion_lat": 0.0, "type": "electric_bike", "name": "78ca8e6aea74a2aeb9a90031378a4841", "is_disabled": 0, "rental_uris": {"ios": "https://dc.lft.to/lastmile_qr_scan", "android": "https://dc.lft.to/lastmile_qr_scan"}, "is_reserved": 0}, {"lon": -77.035876, "bike_id": "c9defd5edcc8fff18a972494c306bb47", "lat": 38.992241666666665, "fusion_lon": 0.0, "fusion_lat": 0.0, "type": "electric_scooter", "name": "c9defd5edcc8fff18a972494c306bb47", "is_disabled": 0, "rental_uris": {"ios": "https://dc.lft.to/lastmile_qr_scan", "android": "https://dc.lft.to/lastmile_qr_scan"}, "is_reserved": 0}, {"lon": -77.017221, "bike_id": "c79234d101b468f5ecddc24ddb8386a5", "lat": 38.9056155, "fusion_lon": 0.0, "fusion_lat": 0.0, "type": "electric_scooter", "name": "c79234d101b468f5ecddc24ddb8386a5", "is_disabled": 0, "rental_uris": {"ios": "https://dc.lft.to/lastmile_qr_scan", "android": "https://dc.lft.to/lastmile_qr_scan"}, "is_reserved": 0}, {"lon": -76.94995983333334, "bike_id": "146191b1ffeb8197af6be61244fa31d8", "lat": 38.89384866666666, "fusion_lon": 0.0, "fusion_lat": 0.0, "type": "electric_scooter", "name": "146191b1ffeb8197af6be61244fa31d8", "is_disabled": 0, "rental_uris": {"ios": "https://dc.lft.to/lastmile_qr_scan", "android": "https://dc.lft.to/lastmile_qr_scan"}, "is_reserved": 0}, {"lon": -77.038423, "bike_id": "c77186a2db6802c6c3e7cfa71ee4c950", "lat": 38.93252733333333, "fusion_lon": 0.0, "fusion_lat": 0.0, "type": "electric_scooter", "name": "c77186a2db6802c6c3e7cfa71ee4c950", "is_disabled": 0, "rental_uris": {"ios": "https://dc.lft.to/lastmile_qr_scan", "android": "https://dc.lft.to/lastmile_qr_scan"}, "is_reserved": 0}, {"lon": -77.0325585, "bike_id": "b8ee1f794c77bdbe6bd5e4b5b98c0b8a", "lat": 38.93135316666667, "fusion_lon": 0.0, "fusion_lat": 0.0, "type": "electric_scooter", "name": "b8ee1f794c77bdbe6bd5e4b5b98c0b8a", "is_disabled": 0, "rental_uris": {"ios": "https://dc.lft.to/lastmile_qr_scan", "android": "https://dc.lft.to/lastmile_qr_scan"}, "is_reserved": 0}, {"lon": -76.9756145, "bike_id": "703a289b7d19980ab32e2e1830e5cda9", "lat": 38.9245895, "fusion_lon": 0.0, "fusion_lat": 0.0, "type": "electric_bike", "name": "703a289b7d19980ab32e2e1830e5cda9", "is_disabled": 0, "rental_uris": {"ios": "https://dc.lft.to/lastmile_qr_scan", "android": "https://dc.lft.to/lastmile_qr_scan"}, "is_reserved": 0}, {"lon": -77.021477, "bike_id": "a4fc98dbec458bff44c1b9f354a07492", "lat": 38.915542, "fusion_lon": 0.0, "fusion_lat": 0.0, "type": "electric_scooter", "name": "a4fc98dbec458bff44c1b9f354a07492", "is_disabled": 0, "rental_uris": {"ios": "https://dc.lft.to/lastmile_qr_scan", "android": "https://dc.lft.to/lastmile_qr_scan"}, "is_reserved": 0}, {"lon": -76.978587, "bike_id": "b1d2425965a3e114bc53feaa56e7ea40", "lat": 38.90724183333333, "fusion_lon": 0.0, "fusion_lat": 0.0, "type": "electric_scooter", "name": "b1d2425965a3e114bc53feaa56e7ea40", "is_disabled": 0, "rental_uris": {"ios": "https://dc.lft.to/lastmile_qr_scan", "android": "https://dc.lft.to/lastmile_qr_scan"}, "is_reserved": 0}, {"lon": -77.02087466666667, "bike_id": "3a6c9c75a2965f14d8448bf6c55563b3", "lat": 38.92914733333333, "fusion_lon": 0.0, "fusion_lat": 0.0, "type": "electric_scooter", "name": "3a6c9c75a2965f14d8448bf6c55563b3", "is_disabled": 0, "rental_uris": {"ios": "https://dc.lft.to/lastmile_qr_scan", "android": "https://dc.lft.to/lastmile_qr_scan"}, "is_reserved": 0}, {"lon": -77.015684, "bike_id": "9c0dee1162a3d0f8a5cb57244b209668", "lat": 38.8832585, "fusion_lon": 0.0, "fusion_lat": 0.0, "type": "electric_scooter", "name": "9c0dee1162a3d0f8a5cb57244b209668", "is_disabled": 0, "rental_uris": {"ios": "https://dc.lft.to/lastmile_qr_scan", "android": "https://dc.lft.to/lastmile_qr_scan"}, "is_reserved": 0}, {"lon": -77.03199566666666, "bike_id": "a1f02176f1d32700d53dcde752ddbdd7", "lat": 38.913473833333335, "fusion_lon": 0.0, "fusion_lat": 0.0, "type": "electric_scooter", "name": "a1f02176f1d32700d53dcde752ddbdd7", "is_disabled": 0, "rental_uris": {"ios": "https://dc.lft.to/lastmile_qr_scan", "android": "https://dc.lft.to/lastmile_qr_scan"}, "is_reserved": 0}, {"lon": -77.04461083333334, "bike_id": "145f6d6544a91f8c91272595017ce6f3", "lat": 38.911185833333334, "fusion_lon": 0.0, "fusion_lat": 0.0, "type": "electric_scooter", "name": "145f6d6544a91f8c91272595017ce6f3", "is_disabled": 0, "rental_uris": {"ios": "https://dc.lft.to/lastmile_qr_scan", "android": "https://dc.lft.to/lastmile_qr_scan"}, "is_reserved": 0}, {"lon": -77.03863083333333, "bike_id": "dd7a82c019f64a66aa47c5890dc678ca", "lat": 38.91176316666667, "fusion_lon": 0.0, "fusion_lat": 0.0, "type": "electric_scooter", "name": "dd7a82c019f64a66aa47c5890dc678ca", "is_disabled": 0, "rental_uris": {"ios": "https://dc.lft.to/lastmile_qr_scan", "android": "https://dc.lft.to/lastmile_qr_scan"}, "is_reserved": 0}, {"lon": -77.03263833333334, "bike_id": "6f45b72c9fa80a20768a0e24dd9a41bb", "lat": 38.937755833333334, "fusion_lon": 0.0, "fusion_lat": 0.0, "type": "electric_scooter", "name": "6f45b72c9fa80a20768a0e24dd9a41bb", "is_disabled": 0, "rental_uris": {"ios": "https://dc.lft.to/lastmile_qr_scan", "android": "https://dc.lft.to/lastmile_qr_scan"}, "is_reserved": 0}, {"lon": -76.99758433333334, "bike_id": "92222b8ab04b8dfc0bce25458f038d80", "lat": 38.9501425, "fusion_lon": 0.0, "fusion_lat": 0.0, "type": "electric_bike", "name": "92222b8ab04b8dfc0bce25458f038d80", "is_disabled": 0, "rental_uris": {"ios": "https://dc.lft.to/lastmile_qr_scan", "android": "https://dc.lft.to/lastmile_qr_scan"}, "is_reserved": 0}, {"lon": -77.023271, "bike_id": "d2af8bf398965b7dde972dd088888d24", "lat": 38.935329333333335, "fusion_lon": 0.0, "fusion_lat": 0.0, "type": "electric_scooter", "name": "d2af8bf398965b7dde972dd088888d24", "is_disabled": 0, "rental_uris": {"ios": "https://dc.lft.to/lastmile_qr_scan", "android": "https://dc.lft.to/lastmile_qr_scan"}, "is_reserved": 0}, {"lon": -77.041597, "bike_id": "d3183b75f40744c609722968f8faaed8", "lat": 38.91878583333333, "fusion_lon": 0.0, "fusion_lat": 0.0, "type": "electric_scooter", "name": "d3183b75f40744c609722968f8faaed8", "is_disabled": 0, "rental_uris": {"ios": "https://dc.lft.to/lastmile_qr_scan", "android": "https://dc.lft.to/lastmile_qr_scan"}, "is_reserved": 0}, {"lon": -77.0320285, "bike_id": "c0277a36ed0bc782c7457a2ad2a8ffb3", "lat": 38.94408883333333, "fusion_lon": 0.0, "fusion_lat": 0.0, "type": "electric_scooter", "name": "c0277a36ed0bc782c7457a2ad2a8ffb3", "is_disabled": 0, "rental_uris": {"ios": "https://dc.lft.to/lastmile_qr_scan", "android": "https://dc.lft.to/lastmile_qr_scan"}, "is_reserved": 0}, {"lon": -77.037707, "bike_id": "6a0b7e81ac7a7cfb57744d6f1045bd17", "lat": 38.929412166666665, "fusion_lon": 0.0, "fusion_lat": 0.0, "type": "electric_scooter", "name": "6a0b7e81ac7a7cfb57744d6f1045bd17", "is_disabled": 0, "rental_uris": {"ios": "https://dc.lft.to/lastmile_qr_scan", "android": "https://dc.lft.to/lastmile_qr_scan"}, "is_reserved": 0}, {"lon": -77.02445783333333, "bike_id": "e35675f77fe83a16864bf669dc5ca177", "lat": 38.91409733333333, "fusion_lon": 0.0, "fusion_lat": 0.0, "type": "electric_scooter", "name": "e35675f77fe83a16864bf669dc5ca177", "is_disabled": 0, "rental_uris": {"ios": "https://dc.lft.to/lastmile_qr_scan", "android": "https://dc.lft.to/lastmile_qr_scan"}, "is_reserved": 0}, {"lon": -77.02375516666666, "bike_id": "926a8894bb710a08035f86af65707721", "lat": 38.902046166666665, "fusion_lon": 0.0, "fusion_lat": 0.0, "type": "electric_scooter", "name": "926a8894bb710a08035f86af65707721", "is_disabled": 0, "rental_uris": {"ios": "https://dc.lft.to/lastmile_qr_scan", "android": "https://dc.lft.to/lastmile_qr_scan"}, "is_reserved": 0}, {"lon": -77.005442, "bike_id": "465e2d1e627cd085de2d0f9ab54570b2", "lat": 38.874602833333334, "fusion_lon": 0.0, "fusion_lat": 0.0, "type": "electric_scooter", "name": "465e2d1e627cd085de2d0f9ab54570b2", "is_disabled": 0, "rental_uris": {"ios": "https://dc.lft.to/lastmile_qr_scan", "android": "https://dc.lft.to/lastmile_qr_scan"}, "is_reserved": 0}, {"lon": -77.05411816666667, "bike_id": "3f56a9582f92e612fe5ef21663d85a62", "lat": 38.901556166666666, "fusion_lon": 0.0, "fusion_lat": 0.0, "type": "electric_scooter", "name": "3f56a9582f92e612fe5ef21663d85a62", "is_disabled": 0, "rental_uris": {"ios": "https://dc.lft.to/lastmile_qr_scan", "android": "https://dc.lft.to/lastmile_qr_scan"}, "is_reserved": 0}, {"lon": -77.03449616666667, "bike_id": "0c4c2a8a996e415c7d4f4290293b54bf", "lat": 38.91801516666666, "fusion_lon": 0.0, "fusion_lat": 0.0, "type": "electric_scooter", "name": "0c4c2a8a996e415c7d4f4290293b54bf", "is_disabled": 0, "rental_uris": {"ios": "https://dc.lft.to/lastmile_qr_scan", "android": "https://dc.lft.to/lastmile_qr_scan"}, "is_reserved": 0}, {"lon": -77.00071866666667, "bike_id": "8c50251b332a0ee0dfb30b62fbd9fa4a", "lat": 38.89736533333333, "fusion_lon": 0.0, "fusion_lat": 0.0, "type": "electric_scooter", "name": "8c50251b332a0ee0dfb30b62fbd9fa4a", "is_disabled": 0, "rental_uris": {"ios": "https://dc.lft.to/lastmile_qr_scan", "android": "https://dc.lft.to/lastmile_qr_scan"}, "is_reserved": 0}, {"lon": -77.03351483333333, "bike_id": "ee7afc44cd41e90d01c0b557aa218fab", "lat": 38.8972545, "fusion_lon": 0.0, "fusion_lat": 0.0, "type": "electric_scooter", "name": "ee7afc44cd41e90d01c0b557aa218fab", "is_disabled": 0, "rental_uris": {"ios": "https://dc.lft.to/lastmile_qr_scan", "android": "https://dc.lft.to/lastmile_qr_scan"}, "is_reserved": 0}, {"lon": -77.03436683333334, "bike_id": "67e62c0c1386458382c27e2b17dcdac0", "lat": 38.9097235, "fusion_lon": 0.0, "fusion_lat": 0.0, "type": "electric_scooter", "name": "67e62c0c1386458382c27e2b17dcdac0", "is_disabled": 0, "rental_uris": {"ios": "https://dc.lft.to/lastmile_qr_scan", "android": "https://dc.lft.to/lastmile_qr_scan"}, "is_reserved": 0}, {"lon": -77.00034716666667, "bike_id": "5fa46230c599d117e8caaf1ad5b82e14", "lat": 38.967954166666665, "fusion_lon": 0.0, "fusion_lat": 0.0, "type": "electric_bike", "name": "5fa46230c599d117e8caaf1ad5b82e14", "is_disabled": 0, "rental_uris": {"ios": "https://dc.lft.to/lastmile_qr_scan", "android": "https://dc.lft.to/lastmile_qr_scan"}, "is_reserved": 0}, {"lon": -77.0490575, "bike_id": "07cc1dcd168d58b7ba8b290b98cfe5bd", "lat": 38.88838166666667, "fusion_lon": 0.0, "fusion_lat": 0.0, "type": "electric_scooter", "name": "07cc1dcd168d58b7ba8b290b98cfe5bd", "is_disabled": 0, "rental_uris": {"ios": "https://dc.lft.to/lastmile_qr_scan", "android": "https://dc.lft.to/lastmile_qr_scan"}, "is_reserved": 0}, {"lon": -77.036519, "bike_id": "eca6d8adfc64099d7f999f130d3924fd", "lat": 38.920874833333336, "fusion_lon": 0.0, "fusion_lat": 0.0, "type": "electric_scooter", "name": "eca6d8adfc64099d7f999f130d3924fd", "is_disabled": 0, "rental_uris": {"ios": "https://dc.lft.to/lastmile_qr_scan", "android": "https://dc.lft.to/lastmile_qr_scan"}, "is_reserved": 0}, {"lon": -76.99609533333333, "bike_id": "baa8a9ef8cf51ee48b5f928a43adfb5c", "lat": 38.902206166666666, "fusion_lon": 0.0, "fusion_lat": 0.0, "type": "electric_scooter", "name": "baa8a9ef8cf51ee48b5f928a43adfb5c", "is_disabled": 0, "rental_uris": {"ios": "https://dc.lft.to/lastmile_qr_scan", "android": "https://dc.lft.to/lastmile_qr_scan"}, "is_reserved": 0}, {"lon": -77.01366616666667, "bike_id": "acd8191316ec51e2ccac872eb244fed6", "lat": 38.906161, "fusion_lon": 0.0, "fusion_lat": 0.0, "type": "electric_scooter", "name": "acd8191316ec51e2ccac872eb244fed6", "is_disabled": 0, "rental_uris": {"ios": "https://dc.lft.to/lastmile_qr_scan", "android": "https://dc.lft.to/lastmile_qr_scan"}, "is_reserved": 0}, {"lon": -77.01739366666666, "bike_id": "28c477809ea63ccb323b94e3de0983c6", "lat": 38.880557333333336, "fusion_lon": 0.0, "fusion_lat": 0.0, "type": "electric_scooter", "name": "28c477809ea63ccb323b94e3de0983c6", "is_disabled": 0, "rental_uris": {"ios": "https://dc.lft.to/lastmile_qr_scan", "android": "https://dc.lft.to/lastmile_qr_scan"}, "is_reserved": 0}, {"lon": -77.0222325, "bike_id": "a9fe11cfe696cf62eb6d39bb72a32adb", "lat": 38.89218966666667, "fusion_lon": 0.0, "fusion_lat": 0.0, "type": "electric_scooter", "name": "a9fe11cfe696cf62eb6d39bb72a32adb", "is_disabled": 0, "rental_uris": {"ios": "https://dc.lft.to/lastmile_qr_scan", "android": "https://dc.lft.to/lastmile_qr_scan"}, "is_reserved": 0}, {"lon": -77.085963, "bike_id": "152e6929f2a911efe27b2a6f3b19d080", "lat": 38.908705, "fusion_lon": 0.0, "fusion_lat": 0.0, "type": "electric_scooter", "name": "152e6929f2a911efe27b2a6f3b19d080", "is_disabled": 0, "rental_uris": {"ios": "https://dc.lft.to/lastmile_qr_scan", "android": "https://dc.lft.to/lastmile_qr_scan"}, "is_reserved": 0}, {"lon": -77.02055533333333, "bike_id": "f2e5fb2d14104d777a5c1e747603b412", "lat": 38.9234965, "fusion_lon": 0.0, "fusion_lat": 0.0, "type": "electric_scooter", "name": "f2e5fb2d14104d777a5c1e747603b412", "is_disabled": 0, "rental_uris": {"ios": "https://dc.lft.to/lastmile_qr_scan", "android": "https://dc.lft.to/lastmile_qr_scan"}, "is_reserved": 0}, {"lon": -77.0218115, "bike_id": "2b19145d399c717861abb2dd9b921b30", "lat": 38.91419833333333, "fusion_lon": 0.0, "fusion_lat": 0.0, "type": "electric_scooter", "name": "2b19145d399c717861abb2dd9b921b30", "is_disabled": 0, "rental_uris": {"ios": "https://dc.lft.to/lastmile_qr_scan", "android": "https://dc.lft.to/lastmile_qr_scan"}, "is_reserved": 0}, {"lon": -77.0315775, "bike_id": "eae5f9df1fc2178a5b00f2abc9ac1c2a", "lat": 38.903633666666664, "fusion_lon": 0.0, "fusion_lat": 0.0, "type": "electric_scooter", "name": "eae5f9df1fc2178a5b00f2abc9ac1c2a", "is_disabled": 0, "rental_uris": {"ios": "https://dc.lft.to/lastmile_qr_scan", "android": "https://dc.lft.to/lastmile_qr_scan"}, "is_reserved": 0}, {"lon": -76.94639933333333, "bike_id": "cd703c703e3cdfe6d75efe8f894de5cc", "lat": 38.89834183333333, "fusion_lon": 0.0, "fusion_lat": 0.0, "type": "electric_scooter", "name": "cd703c703e3cdfe6d75efe8f894de5cc", "is_disabled": 0, "rental_uris": {"ios": "https://dc.lft.to/lastmile_qr_scan", "android": "https://dc.lft.to/lastmile_qr_scan"}, "is_reserved": 0}, {"lon": -76.98376316666666, "bike_id": "54d993a503c70155b628d5fc7c0d6960", "lat": 38.90649666666667, "fusion_lon": 0.0, "fusion_lat": 0.0, "type": "electric_scooter", "name": "54d993a503c70155b628d5fc7c0d6960", "is_disabled": 0, "rental_uris": {"ios": "https://dc.lft.to/lastmile_qr_scan", "android": "https://dc.lft.to/lastmile_qr_scan"}, "is_reserved": 0}, {"lon": -77.0221105, "bike_id": "b4fd5466402d3400c7f2125e313bccaf", "lat": 38.9141285, "fusion_lon": 0.0, "fusion_lat": 0.0, "type": "electric_scooter", "name": "b4fd5466402d3400c7f2125e313bccaf", "is_disabled": 0, "rental_uris": {"ios": "https://dc.lft.to/lastmile_qr_scan", "android": "https://dc.lft.to/lastmile_qr_scan"}, "is_reserved": 0}, {"lon": -77.02771166666666, "bike_id": "fcbe907fed1bd5cade8c99d1434303f7", "lat": 38.8921985, "fusion_lon": 0.0, "fusion_lat": 0.0, "type": "electric_scooter", "name": "fcbe907fed1bd5cade8c99d1434303f7", "is_disabled": 0, "rental_uris": {"ios": "https://dc.lft.to/lastmile_qr_scan", "android": "https://dc.lft.to/lastmile_qr_scan"}, "is_reserved": 0}, {"lon": -77.081846, "bike_id": "e6accf2a89de37e0b7538fc237e9fcb1", "lat": 38.94963583333333, "fusion_lon": 0.0, "fusion_lat": 0.0, "type": "electric_scooter", "name": "e6accf2a89de37e0b7538fc237e9fcb1", "is_disabled": 0, "rental_uris": {"ios": "https://dc.lft.to/lastmile_qr_scan", "android": "https://dc.lft.to/lastmile_qr_scan"}, "is_reserved": 0}, {"lon": -76.994587, "bike_id": "aadb643167c504524b942b213eb9e2a7", "lat": 38.966212166666665, "fusion_lon": 0.0, "fusion_lat": 0.0, "type": "electric_bike", "name": "aadb643167c504524b942b213eb9e2a7", "is_disabled": 0, "rental_uris": {"ios": "https://dc.lft.to/lastmile_qr_scan", "android": "https://dc.lft.to/lastmile_qr_scan"}, "is_reserved": 0}, {"lon": -76.9903095, "bike_id": "e474de921ac5abb204f3bb74f817d55e", "lat": 38.898543333333336, "fusion_lon": 0.0, "fusion_lat": 0.0, "type": "electric_scooter", "name": "e474de921ac5abb204f3bb74f817d55e", "is_disabled": 0, "rental_uris": {"ios": "https://dc.lft.to/lastmile_qr_scan", "android": "https://dc.lft.to/lastmile_qr_scan"}, "is_reserved": 0}, {"lon": -77.04323266666667, "bike_id": "43d071c5832c855609bbf82a982e15fe", "lat": 38.90730883333333, "fusion_lon": 0.0, "fusion_lat": 0.0, "type": "electric_scooter", "name": "43d071c5832c855609bbf82a982e15fe", "is_disabled": 0, "rental_uris": {"ios": "https://dc.lft.to/lastmile_qr_scan", "android": "https://dc.lft.to/lastmile_qr_scan"}, "is_reserved": 0}, {"lon": -76.97925216666667, "bike_id": "ae082d18262f56b5ee0a6bbe253115d4", "lat": 38.90504283333333, "fusion_lon": 0.0, "fusion_lat": 0.0, "type": "electric_scooter", "name": "ae082d18262f56b5ee0a6bbe253115d4", "is_disabled": 0, "rental_uris": {"ios": "https://dc.lft.to/lastmile_qr_scan", "android": "https://dc.lft.to/lastmile_qr_scan"}, "is_reserved": 0}, {"lon": -76.99366683333334, "bike_id": "4bfb73d578ff4f8bbf878cbdb96252df", "lat": 38.879777833333335, "fusion_lon": 0.0, "fusion_lat": 0.0, "type": "electric_scooter", "name": "4bfb73d578ff4f8bbf878cbdb96252df", "is_disabled": 0, "rental_uris": {"ios": "https://dc.lft.to/lastmile_qr_scan", "android": "https://dc.lft.to/lastmile_qr_scan"}, "is_reserved": 0}, {"lon": -77.0272285, "bike_id": "ce54a8e6ca7c6ca7bb1817ecda737e2a", "lat": 38.91339383333333, "fusion_lon": 0.0, "fusion_lat": 0.0, "type": "electric_scooter", "name": "ce54a8e6ca7c6ca7bb1817ecda737e2a", "is_disabled": 0, "rental_uris": {"ios": "https://dc.lft.to/lastmile_qr_scan", "android": "https://dc.lft.to/lastmile_qr_scan"}, "is_reserved": 0}, {"lon": -76.99000233333334, "bike_id": "c763c8ab0294198be40edbb07dd6773c", "lat": 38.865106, "fusion_lon": 0.0, "fusion_lat": 0.0, "type": "electric_scooter", "name": "c763c8ab0294198be40edbb07dd6773c", "is_disabled": 0, "rental_uris": {"ios": "https://dc.lft.to/lastmile_qr_scan", "android": "https://dc.lft.to/lastmile_qr_scan"}, "is_reserved": 0}, {"lon": -77.037405, "bike_id": "6f7a1b7096bdda66ca771371618c6f5a", "lat": 38.918025166666666, "fusion_lon": 0.0, "fusion_lat": 0.0, "type": "electric_scooter", "name": "6f7a1b7096bdda66ca771371618c6f5a", "is_disabled": 0, "rental_uris": {"ios": "https://dc.lft.to/lastmile_qr_scan", "android": "https://dc.lft.to/lastmile_qr_scan"}, "is_reserved": 0}, {"lon": -77.02716283333334, "bike_id": "30233b126a28dafd0869e44ea38f576e", "lat": 38.89732583333333, "fusion_lon": 0.0, "fusion_lat": 0.0, "type": "electric_scooter", "name": "30233b126a28dafd0869e44ea38f576e", "is_disabled": 0, "rental_uris": {"ios": "https://dc.lft.to/lastmile_qr_scan", "android": "https://dc.lft.to/lastmile_qr_scan"}, "is_reserved": 0}, {"lon": -77.03182816666667, "bike_id": "b5b2e4ce46aa7f566beb7235e1e84371", "lat": 38.89576266666667, "fusion_lon": 0.0, "fusion_lat": 0.0, "type": "electric_scooter", "name": "b5b2e4ce46aa7f566beb7235e1e84371", "is_disabled": 0, "rental_uris": {"ios": "https://dc.lft.to/lastmile_qr_scan", "android": "https://dc.lft.to/lastmile_qr_scan"}, "is_reserved": 0}, {"lon": -77.050699, "bike_id": "7204185cbd04bf9a14370bd0929e8e89", "lat": 38.900856833333336, "fusion_lon": 0.0, "fusion_lat": 0.0, "type": "electric_scooter", "name": "7204185cbd04bf9a14370bd0929e8e89", "is_disabled": 0, "rental_uris": {"ios": "https://dc.lft.to/lastmile_qr_scan", "android": "https://dc.lft.to/lastmile_qr_scan"}, "is_reserved": 0}, {"lon": -77.02851966666667, "bike_id": "6962a9727fdefaea528cb58137b801f5", "lat": 38.93278216666667, "fusion_lon": 0.0, "fusion_lat": 0.0, "type": "electric_scooter", "name": "6962a9727fdefaea528cb58137b801f5", "is_disabled": 0, "rental_uris": {"ios": "https://dc.lft.to/lastmile_qr_scan", "android": "https://dc.lft.to/lastmile_qr_scan"}, "is_reserved": 0}, {"lon": -77.13097766666667, "bike_id": "5175782002d8118694f81d7f572fbd6c", "lat": 39.024352, "fusion_lon": 0.0, "fusion_lat": 0.0, "type": "electric_bike", "name": "5175782002d8118694f81d7f572fbd6c", "is_disabled": 0, "rental_uris": {"ios": "https://dc.lft.to/lastmile_qr_scan", "android": "https://dc.lft.to/lastmile_qr_scan"}, "is_reserved": 0}, {"lon": -77.003668, "bike_id": "a7a040be46d9e98cf2350cc164d79b2c", "lat": 38.89726116666667, "fusion_lon": 0.0, "fusion_lat": 0.0, "type": "electric_scooter", "name": "a7a040be46d9e98cf2350cc164d79b2c", "is_disabled": 0, "rental_uris": {"ios": "https://dc.lft.to/lastmile_qr_scan", "android": "https://dc.lft.to/lastmile_qr_scan"}, "is_reserved": 0}, {"lon": -77.026172, "bike_id": "b6ac6b375e825f794d393b61b9c6a736", "lat": 38.9170605, "fusion_lon": 0.0, "fusion_lat": 0.0, "type": "electric_scooter", "name": "b6ac6b375e825f794d393b61b9c6a736", "is_disabled": 0, "rental_uris": {"ios": "https://dc.lft.to/lastmile_qr_scan", "android": "https://dc.lft.to/lastmile_qr_scan"}, "is_reserved": 0}, {"lon": -76.980169, "bike_id": "67c55831f76fe74bd07f44571e8de791", "lat": 38.90335733333333, "fusion_lon": 0.0, "fusion_lat": 0.0, "type": "electric_scooter", "name": "67c55831f76fe74bd07f44571e8de791", "is_disabled": 0, "rental_uris": {"ios": "https://dc.lft.to/lastmile_qr_scan", "android": "https://dc.lft.to/lastmile_qr_scan"}, "is_reserved": 0}, {"lon": -77.01931116666667, "bike_id": "a1fd70fa5762e8524413fb1769c5c045", "lat": 38.922241, "fusion_lon": 0.0, "fusion_lat": 0.0, "type": "electric_scooter", "name": "a1fd70fa5762e8524413fb1769c5c045", "is_disabled": 0, "rental_uris": {"ios": "https://dc.lft.to/lastmile_qr_scan", "android": "https://dc.lft.to/lastmile_qr_scan"}, "is_reserved": 0}, {"lon": -77.02118666666667, "bike_id": "a35ab30e1540762f416f017633c670fe", "lat": 38.91417283333333, "fusion_lon": 0.0, "fusion_lat": 0.0, "type": "electric_scooter", "name": "a35ab30e1540762f416f017633c670fe", "is_disabled": 0, "rental_uris": {"ios": "https://dc.lft.to/lastmile_qr_scan", "android": "https://dc.lft.to/lastmile_qr_scan"}, "is_reserved": 0}, {"lon": -77.032628, "bike_id": "0e2a60454e592594f7f787d65343fce8", "lat": 38.925373666666665, "fusion_lon": 0.0, "fusion_lat": 0.0, "type": "electric_scooter", "name": "0e2a60454e592594f7f787d65343fce8", "is_disabled": 0, "rental_uris": {"ios": "https://dc.lft.to/lastmile_qr_scan", "android": "https://dc.lft.to/lastmile_qr_scan"}, "is_reserved": 0}, {"lon": -77.06367166666666, "bike_id": "72154731d9014912f4ad71d1000fe1be", "lat": 38.90821033333334, "fusion_lon": 0.0, "fusion_lat": 0.0, "type": "electric_scooter", "name": "72154731d9014912f4ad71d1000fe1be", "is_disabled": 0, "rental_uris": {"ios": "https://dc.lft.to/lastmile_qr_scan", "android": "https://dc.lft.to/lastmile_qr_scan"}, "is_reserved": 0}, {"lon": -77.00349566666667, "bike_id": "361081707097c774904e3de8b4115e4f", "lat": 38.88716, "fusion_lon": 0.0, "fusion_lat": 0.0, "type": "electric_scooter", "name": "361081707097c774904e3de8b4115e4f", "is_disabled": 0, "rental_uris": {"ios": "https://dc.lft.to/lastmile_qr_scan", "android": "https://dc.lft.to/lastmile_qr_scan"}, "is_reserved": 0}, {"lon": -77.02874833333334, "bike_id": "b5d6bf0930fa2ce1363cc4987a43e329", "lat": 38.898364666666666, "fusion_lon": 0.0, "fusion_lat": 0.0, "type": "electric_scooter", "name": "b5d6bf0930fa2ce1363cc4987a43e329", "is_disabled": 0, "rental_uris": {"ios": "https://dc.lft.to/lastmile_qr_scan", "android": "https://dc.lft.to/lastmile_qr_scan"}, "is_reserved": 0}, {"lon": -77.03419283333334, "bike_id": "c584ffefd8c5f3c789101cc0430c96c0", "lat": 38.902648, "fusion_lon": 0.0, "fusion_lat": 0.0, "type": "electric_scooter", "name": "c584ffefd8c5f3c789101cc0430c96c0", "is_disabled": 0, "rental_uris": {"ios": "https://dc.lft.to/lastmile_qr_scan", "android": "https://dc.lft.to/lastmile_qr_scan"}, "is_reserved": 0}, {"lon": -77.03864083333333, "bike_id": "83a59918ddb50674be81c324b5298e87", "lat": 38.945053, "fusion_lon": 0.0, "fusion_lat": 0.0, "type": "electric_scooter", "name": "83a59918ddb50674be81c324b5298e87", "is_disabled": 0, "rental_uris": {"ios": "https://dc.lft.to/lastmile_qr_scan", "android": "https://dc.lft.to/lastmile_qr_scan"}, "is_reserved": 0}, {"lon": -76.93534583333333, "bike_id": "666d41734ca2b7c65ddd5e4b0ce4c1c1", "lat": 38.896801833333335, "fusion_lon": 0.0, "fusion_lat": 0.0, "type": "electric_scooter", "name": "666d41734ca2b7c65ddd5e4b0ce4c1c1", "is_disabled": 0, "rental_uris": {"ios": "https://dc.lft.to/lastmile_qr_scan", "android": "https://dc.lft.to/lastmile_qr_scan"}, "is_reserved": 0}, {"lon": -77.02715666666667, "bike_id": "94b7fa9c762654ec66b369265dee1a7d", "lat": 38.92466683333333, "fusion_lon": 0.0, "fusion_lat": 0.0, "type": "electric_scooter", "name": "94b7fa9c762654ec66b369265dee1a7d", "is_disabled": 0, "rental_uris": {"ios": "https://dc.lft.to/lastmile_qr_scan", "android": "https://dc.lft.to/lastmile_qr_scan"}, "is_reserved": 0}, {"lon": -76.98096716666667, "bike_id": "47ce34c761b6c588569f4893f7f10583", "lat": 38.895561, "fusion_lon": 0.0, "fusion_lat": 0.0, "type": "electric_scooter", "name": "47ce34c761b6c588569f4893f7f10583", "is_disabled": 0, "rental_uris": {"ios": "https://dc.lft.to/lastmile_qr_scan", "android": "https://dc.lft.to/lastmile_qr_scan"}, "is_reserved": 0}, {"lon": -76.96786266666666, "bike_id": "e3461625da2cd3014f4e267e519938fc", "lat": 38.868485, "fusion_lon": 0.0, "fusion_lat": 0.0, "type": "electric_scooter", "name": "e3461625da2cd3014f4e267e519938fc", "is_disabled": 0, "rental_uris": {"ios": "https://dc.lft.to/lastmile_qr_scan", "android": "https://dc.lft.to/lastmile_qr_scan"}, "is_reserved": 0}, {"lon": -76.99048733333333, "bike_id": "0a5eb0a1b6655b370b472f86814fbf21", "lat": 38.887602666666666, "fusion_lon": 0.0, "fusion_lat": 0.0, "type": "electric_scooter", "name": "0a5eb0a1b6655b370b472f86814fbf21", "is_disabled": 0, "rental_uris": {"ios": "https://dc.lft.to/lastmile_qr_scan", "android": "https://dc.lft.to/lastmile_qr_scan"}, "is_reserved": 0}, {"lon": -76.96152633333334, "bike_id": "b98a94cc535190e8b821a37eaaeb938b", "lat": 38.8835775, "fusion_lon": 0.0, "fusion_lat": 0.0, "type": "electric_scooter", "name": "b98a94cc535190e8b821a37eaaeb938b", "is_disabled": 0, "rental_uris": {"ios": "https://dc.lft.to/lastmile_qr_scan", "android": "https://dc.lft.to/lastmile_qr_scan"}, "is_reserved": 0}, {"lon": -77.00811683333333, "bike_id": "acd7225ecbf5c05e8fa040f067eca9da", "lat": 38.905876666666664, "fusion_lon": 0.0, "fusion_lat": 0.0, "type": "electric_scooter", "name": "acd7225ecbf5c05e8fa040f067eca9da", "is_disabled": 0, "rental_uris": {"ios": "https://dc.lft.to/lastmile_qr_scan", "android": "https://dc.lft.to/lastmile_qr_scan"}, "is_reserved": 0}, {"lon": -77.02620983333334, "bike_id": "4e83db424540aa33711b6fc7e382d267", "lat": 38.917070333333335, "fusion_lon": 0.0, "fusion_lat": 0.0, "type": "electric_scooter", "name": "4e83db424540aa33711b6fc7e382d267", "is_disabled": 0, "rental_uris": {"ios": "https://dc.lft.to/lastmile_qr_scan", "android": "https://dc.lft.to/lastmile_qr_scan"}, "is_reserved": 0}, {"lon": -76.97548616666667, "bike_id": "6e8d41a03b88be2a8f5e2114dd5faa1f", "lat": 38.903255, "fusion_lon": 0.0, "fusion_lat": 0.0, "type": "electric_scooter", "name": "6e8d41a03b88be2a8f5e2114dd5faa1f", "is_disabled": 0, "rental_uris": {"ios": "https://dc.lft.to/lastmile_qr_scan", "android": "https://dc.lft.to/lastmile_qr_scan"}, "is_reserved": 0}, {"lon": -77.05536933333333, "bike_id": "09e1b2c84f847938c68260ffd0b2e2cb", "lat": 38.93431283333334, "fusion_lon": 0.0, "fusion_lat": 0.0, "type": "electric_scooter", "name": "09e1b2c84f847938c68260ffd0b2e2cb", "is_disabled": 0, "rental_uris": {"ios": "https://dc.lft.to/lastmile_qr_scan", "android": "https://dc.lft.to/lastmile_qr_scan"}, "is_reserved": 0}, {"lon": -77.00890366666667, "bike_id": "a914e05c86c9a382bae7eb8b126b088f", "lat": 38.8977, "fusion_lon": 0.0, "fusion_lat": 0.0, "type": "electric_scooter", "name": "a914e05c86c9a382bae7eb8b126b088f", "is_disabled": 0, "rental_uris": {"ios": "https://dc.lft.to/lastmile_qr_scan", "android": "https://dc.lft.to/lastmile_qr_scan"}, "is_reserved": 0}, {"lon": -76.973889, "bike_id": "2192f870c0044af93a4d572508e7356e", "lat": 38.905538166666666, "fusion_lon": 0.0, "fusion_lat": 0.0, "type": "electric_scooter", "name": "2192f870c0044af93a4d572508e7356e", "is_disabled": 0, "rental_uris": {"ios": "https://dc.lft.to/lastmile_qr_scan", "android": "https://dc.lft.to/lastmile_qr_scan"}, "is_reserved": 0}, {"lon": -77.025984, "bike_id": "f586ac66378d40d07a190e5ec3045681", "lat": 38.88386033333333, "fusion_lon": 0.0, "fusion_lat": 0.0, "type": "electric_scooter", "name": "f586ac66378d40d07a190e5ec3045681", "is_disabled": 0, "rental_uris": {"ios": "https://dc.lft.to/lastmile_qr_scan", "android": "https://dc.lft.to/lastmile_qr_scan"}, "is_reserved": 0}, {"lon": -77.0339765, "bike_id": "6ff76bc2bf2727e27ecb6ae31e5d0da9", "lat": 38.909748666666665, "fusion_lon": 0.0, "fusion_lat": 0.0, "type": "electric_scooter", "name": "6ff76bc2bf2727e27ecb6ae31e5d0da9", "is_disabled": 0, "rental_uris": {"ios": "https://dc.lft.to/lastmile_qr_scan", "android": "https://dc.lft.to/lastmile_qr_scan"}, "is_reserved": 0}, {"lon": -77.08461083333333, "bike_id": "0f643d573a880244b196d7c6d212ccc3", "lat": 38.84821133333333, "fusion_lon": 0.0, "fusion_lat": 0.0, "type": "electric_bike", "name": "0f643d573a880244b196d7c6d212ccc3", "is_disabled": 0, "rental_uris": {"ios": "https://dc.lft.to/lastmile_qr_scan", "android": "https://dc.lft.to/lastmile_qr_scan"}, "is_reserved": 0}, {"lon": -77.0269135, "bike_id": "356c43ffd35a818f8c35ed1c195e4f3a", "lat": 38.89693366666667, "fusion_lon": 0.0, "fusion_lat": 0.0, "type": "electric_scooter", "name": "356c43ffd35a818f8c35ed1c195e4f3a", "is_disabled": 0, "rental_uris": {"ios": "https://dc.lft.to/lastmile_qr_scan", "android": "https://dc.lft.to/lastmile_qr_scan"}, "is_reserved": 0}, {"lon": -77.03425283333333, "bike_id": "9aebd68f8880069b216e462614b54629", "lat": 38.92243783333333, "fusion_lon": 0.0, "fusion_lat": 0.0, "type": "electric_scooter", "name": "9aebd68f8880069b216e462614b54629", "is_disabled": 0, "rental_uris": {"ios": "https://dc.lft.to/lastmile_qr_scan", "android": "https://dc.lft.to/lastmile_qr_scan"}, "is_reserved": 0}, {"lon": -77.03378483333333, "bike_id": "a68f36b8225478dea9ea9b67a6e879e3", "lat": 38.90984316666667, "fusion_lon": 0.0, "fusion_lat": 0.0, "type": "electric_scooter", "name": "a68f36b8225478dea9ea9b67a6e879e3", "is_disabled": 0, "rental_uris": {"ios": "https://dc.lft.to/lastmile_qr_scan", "android": "https://dc.lft.to/lastmile_qr_scan"}, "is_reserved": 0}, {"lon": -77.03898516666666, "bike_id": "c6de0e168b14aaf06f7a451bc129da97", "lat": 38.923608, "fusion_lon": 0.0, "fusion_lat": 0.0, "type": "electric_scooter", "name": "c6de0e168b14aaf06f7a451bc129da97", "is_disabled": 0, "rental_uris": {"ios": "https://dc.lft.to/lastmile_qr_scan", "android": "https://dc.lft.to/lastmile_qr_scan"}, "is_reserved": 0}, {"lon": -77.034899, "bike_id": "1f18623a7cbd224b6b8b9040304b47b0", "lat": 38.937588, "fusion_lon": 0.0, "fusion_lat": 0.0, "type": "electric_scooter", "name": "1f18623a7cbd224b6b8b9040304b47b0", "is_disabled": 0, "rental_uris": {"ios": "https://dc.lft.to/lastmile_qr_scan", "android": "https://dc.lft.to/lastmile_qr_scan"}, "is_reserved": 0}, {"lon": -77.02967833333334, "bike_id": "054ad86e278017d1af55eff5630ca772", "lat": 38.9292865, "fusion_lon": 0.0, "fusion_lat": 0.0, "type": "electric_scooter", "name": "054ad86e278017d1af55eff5630ca772", "is_disabled": 0, "rental_uris": {"ios": "https://dc.lft.to/lastmile_qr_scan", "android": "https://dc.lft.to/lastmile_qr_scan"}, "is_reserved": 0}, {"lon": -76.94636883333334, "bike_id": "04d3feeeb305e534bb6486c7ddb534c6", "lat": 38.898339, "fusion_lon": 0.0, "fusion_lat": 0.0, "type": "electric_scooter", "name": "04d3feeeb305e534bb6486c7ddb534c6", "is_disabled": 0, "rental_uris": {"ios": "https://dc.lft.to/lastmile_qr_scan", "android": "https://dc.lft.to/lastmile_qr_scan"}, "is_reserved": 0}, {"lon": -77.06343866666667, "bike_id": "7fd659f798fe73f217eba40dcb27cffd", "lat": 38.906834, "fusion_lon": 0.0, "fusion_lat": 0.0, "type": "electric_scooter", "name": "7fd659f798fe73f217eba40dcb27cffd", "is_disabled": 0, "rental_uris": {"ios": "https://dc.lft.to/lastmile_qr_scan", "android": "https://dc.lft.to/lastmile_qr_scan"}, "is_reserved": 0}, {"lon": -77.00131433333334, "bike_id": "9d25ff4432ec9bb6077172a1b000153e", "lat": 38.88527233333333, "fusion_lon": 0.0, "fusion_lat": 0.0, "type": "electric_scooter", "name": "9d25ff4432ec9bb6077172a1b000153e", "is_disabled": 0, "rental_uris": {"ios": "https://dc.lft.to/lastmile_qr_scan", "android": "https://dc.lft.to/lastmile_qr_scan"}, "is_reserved": 0}, {"lon": -77.03585383333333, "bike_id": "ad279f144fff93e3c2722ce6cd158ac6", "lat": 38.90969916666667, "fusion_lon": 0.0, "fusion_lat": 0.0, "type": "electric_scooter", "name": "ad279f144fff93e3c2722ce6cd158ac6", "is_disabled": 0, "rental_uris": {"ios": "https://dc.lft.to/lastmile_qr_scan", "android": "https://dc.lft.to/lastmile_qr_scan"}, "is_reserved": 0}, {"lon": -77.025298, "bike_id": "aa57d11642e29b234c4c011fa216cc84", "lat": 38.94301333333333, "fusion_lon": 0.0, "fusion_lat": 0.0, "type": "electric_scooter", "name": "aa57d11642e29b234c4c011fa216cc84", "is_disabled": 0, "rental_uris": {"ios": "https://dc.lft.to/lastmile_qr_scan", "android": "https://dc.lft.to/lastmile_qr_scan"}, "is_reserved": 0}, {"lon": -77.02395316666667, "bike_id": "f229510c79e94f8227646f342b0a8c0a", "lat": 38.92316816666667, "fusion_lon": 0.0, "fusion_lat": 0.0, "type": "electric_bike", "name": "f229510c79e94f8227646f342b0a8c0a", "is_disabled": 0, "rental_uris": {"ios": "https://dc.lft.to/lastmile_qr_scan", "android": "https://dc.lft.to/lastmile_qr_scan"}, "is_reserved": 0}, {"lon": -77.049835, "bike_id": "0ba47e8d74ae1a97b581985c39d8cd36", "lat": 38.89991833333333, "fusion_lon": 0.0, "fusion_lat": 0.0, "type": "electric_scooter", "name": "0ba47e8d74ae1a97b581985c39d8cd36", "is_disabled": 0, "rental_uris": {"ios": "https://dc.lft.to/lastmile_qr_scan", "android": "https://dc.lft.to/lastmile_qr_scan"}, "is_reserved": 0}, {"lon": -77.00600933333334, "bike_id": "b5cc94ef7e205ed5350439d62e443bf6", "lat": 38.87181233333333, "fusion_lon": 0.0, "fusion_lat": 0.0, "type": "electric_bike", "name": "b5cc94ef7e205ed5350439d62e443bf6", "is_disabled": 0, "rental_uris": {"ios": "https://dc.lft.to/lastmile_qr_scan", "android": "https://dc.lft.to/lastmile_qr_scan"}, "is_reserved": 0}, {"lon": -77.0779415, "bike_id": "e017fe8a08a94d389d93ea0c7e01b555", "lat": 38.996032166666666, "fusion_lon": 0.0, "fusion_lat": 0.0, "type": "electric_bike", "name": "e017fe8a08a94d389d93ea0c7e01b555", "is_disabled": 0, "rental_uris": {"ios": "https://dc.lft.to/lastmile_qr_scan", "android": "https://dc.lft.to/lastmile_qr_scan"}, "is_reserved": 0}, {"lon": -76.969926, "bike_id": "48315fe61503485a1f42198b19a220b7", "lat": 38.873729833333336, "fusion_lon": 0.0, "fusion_lat": 0.0, "type": "electric_scooter", "name": "48315fe61503485a1f42198b19a220b7", "is_disabled": 0, "rental_uris": {"ios": "https://dc.lft.to/lastmile_qr_scan", "android": "https://dc.lft.to/lastmile_qr_scan"}, "is_reserved": 0}, {"lon": -77.06137016666666, "bike_id": "410cea795345650ea7db3ef9acef1920", "lat": 38.94362666666667, "fusion_lon": 0.0, "fusion_lat": 0.0, "type": "electric_scooter", "name": "410cea795345650ea7db3ef9acef1920", "is_disabled": 0, "rental_uris": {"ios": "https://dc.lft.to/lastmile_qr_scan", "android": "https://dc.lft.to/lastmile_qr_scan"}, "is_reserved": 0}, {"lon": -77.04429766666667, "bike_id": "9359674d64741bf21d77b245fc5ce902", "lat": 38.909660833333334, "fusion_lon": 0.0, "fusion_lat": 0.0, "type": "electric_scooter", "name": "9359674d64741bf21d77b245fc5ce902", "is_disabled": 0, "rental_uris": {"ios": "https://dc.lft.to/lastmile_qr_scan", "android": "https://dc.lft.to/lastmile_qr_scan"}, "is_reserved": 0}, {"lon": -77.03474333333334, "bike_id": "b37b896bdbe3284c73872942f8a22c1d", "lat": 38.92749583333333, "fusion_lon": 0.0, "fusion_lat": 0.0, "type": "electric_scooter", "name": "b37b896bdbe3284c73872942f8a22c1d", "is_disabled": 0, "rental_uris": {"ios": "https://dc.lft.to/lastmile_qr_scan", "android": "https://dc.lft.to/lastmile_qr_scan"}, "is_reserved": 0}, {"lon": -76.977694, "bike_id": "31d0013dbb2342940df0915722cb5a23", "lat": 38.899020666666665, "fusion_lon": 0.0, "fusion_lat": 0.0, "type": "electric_scooter", "name": "31d0013dbb2342940df0915722cb5a23", "is_disabled": 0, "rental_uris": {"ios": "https://dc.lft.to/lastmile_qr_scan", "android": "https://dc.lft.to/lastmile_qr_scan"}, "is_reserved": 0}, {"lon": -77.01976016666667, "bike_id": "19a7d17580306346339e570a05cc44ba", "lat": 38.88598866666667, "fusion_lon": 0.0, "fusion_lat": 0.0, "type": "electric_scooter", "name": "19a7d17580306346339e570a05cc44ba", "is_disabled": 0, "rental_uris": {"ios": "https://dc.lft.to/lastmile_qr_scan", "android": "https://dc.lft.to/lastmile_qr_scan"}, "is_reserved": 0}, {"lon": -77.0386295, "bike_id": "beeef6b1ee50846f4f01fd698244b2b7", "lat": 38.91680983333333, "fusion_lon": 0.0, "fusion_lat": 0.0, "type": "electric_scooter", "name": "beeef6b1ee50846f4f01fd698244b2b7", "is_disabled": 0, "rental_uris": {"ios": "https://dc.lft.to/lastmile_qr_scan", "android": "https://dc.lft.to/lastmile_qr_scan"}, "is_reserved": 0}, {"lon": -77.03137766666667, "bike_id": "84469eb299485e140b4a8205bcf6d1b7", "lat": 38.915602, "fusion_lon": 0.0, "fusion_lat": 0.0, "type": "electric_scooter", "name": "84469eb299485e140b4a8205bcf6d1b7", "is_disabled": 0, "rental_uris": {"ios": "https://dc.lft.to/lastmile_qr_scan", "android": "https://dc.lft.to/lastmile_qr_scan"}, "is_reserved": 0}, {"lon": -77.042519, "bike_id": "c8c64ff960c2c698b479886218b506bf", "lat": 38.909609, "fusion_lon": 0.0, "fusion_lat": 0.0, "type": "electric_scooter", "name": "c8c64ff960c2c698b479886218b506bf", "is_disabled": 0, "rental_uris": {"ios": "https://dc.lft.to/lastmile_qr_scan", "android": "https://dc.lft.to/lastmile_qr_scan"}, "is_reserved": 0}, {"lon": -77.00587066666667, "bike_id": "93f531e284e703c6288e9ff6fa809508", "lat": 38.906494333333335, "fusion_lon": 0.0, "fusion_lat": 0.0, "type": "electric_scooter", "name": "93f531e284e703c6288e9ff6fa809508", "is_disabled": 0, "rental_uris": {"ios": "https://dc.lft.to/lastmile_qr_scan", "android": "https://dc.lft.to/lastmile_qr_scan"}, "is_reserved": 0}, {"lon": -77.02692233333333, "bike_id": "6d4e689e70566b11f7493f8a708b0a55", "lat": 38.906260333333336, "fusion_lon": 0.0, "fusion_lat": 0.0, "type": "electric_scooter", "name": "6d4e689e70566b11f7493f8a708b0a55", "is_disabled": 0, "rental_uris": {"ios": "https://dc.lft.to/lastmile_qr_scan", "android": "https://dc.lft.to/lastmile_qr_scan"}, "is_reserved": 0}, {"lon": -77.04446633333333, "bike_id": "280b1c6fb0faba7c27063ba8e0a787cc", "lat": 38.92167833333333, "fusion_lon": 0.0, "fusion_lat": 0.0, "type": "electric_scooter", "name": "280b1c6fb0faba7c27063ba8e0a787cc", "is_disabled": 0, "rental_uris": {"ios": "https://dc.lft.to/lastmile_qr_scan", "android": "https://dc.lft.to/lastmile_qr_scan"}, "is_reserved": 0}, {"lon": -77.05619533333333, "bike_id": "9e5ac42c2a50d10ec391b0d818357461", "lat": 38.923345166666664, "fusion_lon": 0.0, "fusion_lat": 0.0, "type": "electric_scooter", "name": "9e5ac42c2a50d10ec391b0d818357461", "is_disabled": 0, "rental_uris": {"ios": "https://dc.lft.to/lastmile_qr_scan", "android": "https://dc.lft.to/lastmile_qr_scan"}, "is_reserved": 0}, {"lon": -77.03345716666666, "bike_id": "f377627a5a1e562e83912a22e2c09a90", "lat": 38.88541816666667, "fusion_lon": 0.0, "fusion_lat": 0.0, "type": "electric_scooter", "name": "f377627a5a1e562e83912a22e2c09a90", "is_disabled": 0, "rental_uris": {"ios": "https://dc.lft.to/lastmile_qr_scan", "android": "https://dc.lft.to/lastmile_qr_scan"}, "is_reserved": 0}, {"lon": -77.03334133333334, "bike_id": "e13a18035fbc5e73e5b7a8d4ec374f20", "lat": 38.898361666666666, "fusion_lon": 0.0, "fusion_lat": 0.0, "type": "electric_scooter", "name": "e13a18035fbc5e73e5b7a8d4ec374f20", "is_disabled": 0, "rental_uris": {"ios": "https://dc.lft.to/lastmile_qr_scan", "android": "https://dc.lft.to/lastmile_qr_scan"}, "is_reserved": 0}, {"lon": -77.0318325, "bike_id": "a0ce13837ec867483d3e16c1045a4cf7", "lat": 38.91343483333333, "fusion_lon": 0.0, "fusion_lat": 0.0, "type": "electric_scooter", "name": "a0ce13837ec867483d3e16c1045a4cf7", "is_disabled": 0, "rental_uris": {"ios": "https://dc.lft.to/lastmile_qr_scan", "android": "https://dc.lft.to/lastmile_qr_scan"}, "is_reserved": 0}, {"lon": -77.03205983333334, "bike_id": "8c64f1da46e70708428b8d1fbf3a7ef7", "lat": 38.939697333333335, "fusion_lon": 0.0, "fusion_lat": 0.0, "type": "electric_scooter", "name": "8c64f1da46e70708428b8d1fbf3a7ef7", "is_disabled": 0, "rental_uris": {"ios": "https://dc.lft.to/lastmile_qr_scan", "android": "https://dc.lft.to/lastmile_qr_scan"}, "is_reserved": 0}, {"lon": -76.997807, "bike_id": "b48a18cf01df3ebcfafcfba0a02dfde7", "lat": 38.92302133333333, "fusion_lon": 0.0, "fusion_lat": 0.0, "type": "electric_scooter", "name": "b48a18cf01df3ebcfafcfba0a02dfde7", "is_disabled": 0, "rental_uris": {"ios": "https://dc.lft.to/lastmile_qr_scan", "android": "https://dc.lft.to/lastmile_qr_scan"}, "is_reserved": 0}, {"lon": -77.00068266666666, "bike_id": "2ab43ec88ee5ba1de6e013dc60d7f7b0", "lat": 38.924338166666665, "fusion_lon": 0.0, "fusion_lat": 0.0, "type": "electric_scooter", "name": "2ab43ec88ee5ba1de6e013dc60d7f7b0", "is_disabled": 0, "rental_uris": {"ios": "https://dc.lft.to/lastmile_qr_scan", "android": "https://dc.lft.to/lastmile_qr_scan"}, "is_reserved": 0}, {"lon": -76.96359916666667, "bike_id": "d5dea0b1fb6348d8f0a314fc9a3b0754", "lat": 38.93499766666667, "fusion_lon": 0.0, "fusion_lat": 0.0, "type": "electric_scooter", "name": "d5dea0b1fb6348d8f0a314fc9a3b0754", "is_disabled": 0, "rental_uris": {"ios": "https://dc.lft.to/lastmile_qr_scan", "android": "https://dc.lft.to/lastmile_qr_scan"}, "is_reserved": 0}, {"lon": -77.031998, "bike_id": "61619fd5e3176d64e581df10400cf182", "lat": 38.91025033333333, "fusion_lon": 0.0, "fusion_lat": 0.0, "type": "electric_scooter", "name": "61619fd5e3176d64e581df10400cf182", "is_disabled": 0, "rental_uris": {"ios": "https://dc.lft.to/lastmile_qr_scan", "android": "https://dc.lft.to/lastmile_qr_scan"}, "is_reserved": 0}, {"lon": -77.02114583333334, "bike_id": "d06c67fa0385e240e4363d55a99cbf8d", "lat": 38.93698583333333, "fusion_lon": 0.0, "fusion_lat": 0.0, "type": "electric_scooter", "name": "d06c67fa0385e240e4363d55a99cbf8d", "is_disabled": 0, "rental_uris": {"ios": "https://dc.lft.to/lastmile_qr_scan", "android": "https://dc.lft.to/lastmile_qr_scan"}, "is_reserved": 0}, {"lon": -77.03817083333334, "bike_id": "aacc7249c59aa18cbfd7fbb7e2729f86", "lat": 38.931030666666665, "fusion_lon": 0.0, "fusion_lat": 0.0, "type": "electric_scooter", "name": "aacc7249c59aa18cbfd7fbb7e2729f86", "is_disabled": 0, "rental_uris": {"ios": "https://dc.lft.to/lastmile_qr_scan", "android": "https://dc.lft.to/lastmile_qr_scan"}, "is_reserved": 0}, {"lon": -76.97622, "bike_id": "6289fc128272a6336fb510eb8d8b1d99", "lat": 38.90379633333333, "fusion_lon": 0.0, "fusion_lat": 0.0, "type": "electric_scooter", "name": "6289fc128272a6336fb510eb8d8b1d99", "is_disabled": 0, "rental_uris": {"ios": "https://dc.lft.to/lastmile_qr_scan", "android": "https://dc.lft.to/lastmile_qr_scan"}, "is_reserved": 0}, {"lon": -77.009138, "bike_id": "602504197be442b198896b1677b69e88", "lat": 38.82785233333333, "fusion_lon": 0.0, "fusion_lat": 0.0, "type": "electric_bike", "name": "602504197be442b198896b1677b69e88", "is_disabled": 0, "rental_uris": {"ios": "https://dc.lft.to/lastmile_qr_scan", "android": "https://dc.lft.to/lastmile_qr_scan"}, "is_reserved": 0}, {"lon": -76.99003533333334, "bike_id": "f356355d8d0e538e72dae56160bc9fa9", "lat": 38.8650545, "fusion_lon": 0.0, "fusion_lat": 0.0, "type": "electric_scooter", "name": "f356355d8d0e538e72dae56160bc9fa9", "is_disabled": 0, "rental_uris": {"ios": "https://dc.lft.to/lastmile_qr_scan", "android": "https://dc.lft.to/lastmile_qr_scan"}, "is_reserved": 0}, {"lon": -77.03336433333334, "bike_id": "9efa46458a0d6c07351940d36978b5b2", "lat": 38.936428166666666, "fusion_lon": 0.0, "fusion_lat": 0.0, "type": "electric_scooter", "name": "9efa46458a0d6c07351940d36978b5b2", "is_disabled": 0, "rental_uris": {"ios": "https://dc.lft.to/lastmile_qr_scan", "android": "https://dc.lft.to/lastmile_qr_scan"}, "is_reserved": 0}, {"lon": -77.02692583333334, "bike_id": "d649681f44972edba895a7855873b8e6", "lat": 38.92482533333333, "fusion_lon": 0.0, "fusion_lat": 0.0, "type": "electric_scooter", "name": "d649681f44972edba895a7855873b8e6", "is_disabled": 0, "rental_uris": {"ios": "https://dc.lft.to/lastmile_qr_scan", "android": "https://dc.lft.to/lastmile_qr_scan"}, "is_reserved": 0}, {"lon": -76.99334416666667, "bike_id": "9b8790211cf9e1af4f26b62e331c3439", "lat": 38.871433333333336, "fusion_lon": 0.0, "fusion_lat": 0.0, "type": "electric_scooter", "name": "9b8790211cf9e1af4f26b62e331c3439", "is_disabled": 0, "rental_uris": {"ios": "https://dc.lft.to/lastmile_qr_scan", "android": "https://dc.lft.to/lastmile_qr_scan"}, "is_reserved": 0}, {"lon": -77.03307483333333, "bike_id": "bc11f90d47ea88d611c92bca0953b79f", "lat": 38.9036565, "fusion_lon": 0.0, "fusion_lat": 0.0, "type": "electric_scooter", "name": "bc11f90d47ea88d611c92bca0953b79f", "is_disabled": 0, "rental_uris": {"ios": "https://dc.lft.to/lastmile_qr_scan", "android": "https://dc.lft.to/lastmile_qr_scan"}, "is_reserved": 0}, {"lon": -77.0271635, "bike_id": "b381762f662bc98fbafdbb8c04176879", "lat": 38.9106915, "fusion_lon": 0.0, "fusion_lat": 0.0, "type": "electric_scooter", "name": "b381762f662bc98fbafdbb8c04176879", "is_disabled": 0, "rental_uris": {"ios": "https://dc.lft.to/lastmile_qr_scan", "android": "https://dc.lft.to/lastmile_qr_scan"}, "is_reserved": 0}, {"lon": -76.987061, "bike_id": "88503d73fd9251e747f0c0286c89b91e", "lat": 38.865385, "fusion_lon": 0.0, "fusion_lat": 0.0, "type": "electric_scooter", "name": "88503d73fd9251e747f0c0286c89b91e", "is_disabled": 0, "rental_uris": {"ios": "https://dc.lft.to/lastmile_qr_scan", "android": "https://dc.lft.to/lastmile_qr_scan"}, "is_reserved": 0}, {"lon": -76.98725066666667, "bike_id": "6ab273ed5012bd7451195e3fada8696e", "lat": 38.867131666666666, "fusion_lon": 0.0, "fusion_lat": 0.0, "type": "electric_scooter", "name": "6ab273ed5012bd7451195e3fada8696e", "is_disabled": 0, "rental_uris": {"ios": "https://dc.lft.to/lastmile_qr_scan", "android": "https://dc.lft.to/lastmile_qr_scan"}, "is_reserved": 0}, {"lon": -76.9488375, "bike_id": "657b1a9d2768861ab5ff482e4b5f509a", "lat": 38.8951225, "fusion_lon": 0.0, "fusion_lat": 0.0, "type": "electric_scooter", "name": "657b1a9d2768861ab5ff482e4b5f509a", "is_disabled": 0, "rental_uris": {"ios": "https://dc.lft.to/lastmile_qr_scan", "android": "https://dc.lft.to/lastmile_qr_scan"}, "is_reserved": 0}, {"lon": -77.0232935, "bike_id": "fa7ce1acd0265d6035a735635d8df29c", "lat": 38.922280666666666, "fusion_lon": 0.0, "fusion_lat": 0.0, "type": "electric_scooter", "name": "fa7ce1acd0265d6035a735635d8df29c", "is_disabled": 0, "rental_uris": {"ios": "https://dc.lft.to/lastmile_qr_scan", "android": "https://dc.lft.to/lastmile_qr_scan"}, "is_reserved": 0}, {"lon": -77.051293, "bike_id": "abc08ff48180debf8e79bde823e35f7c", "lat": 38.923376833333336, "fusion_lon": 0.0, "fusion_lat": 0.0, "type": "electric_scooter", "name": "abc08ff48180debf8e79bde823e35f7c", "is_disabled": 0, "rental_uris": {"ios": "https://dc.lft.to/lastmile_qr_scan", "android": "https://dc.lft.to/lastmile_qr_scan"}, "is_reserved": 0}, {"lon": -77.02092916666666, "bike_id": "4ecde5342645a252ac6d76d56d4c9e48", "lat": 38.957529, "fusion_lon": 0.0, "fusion_lat": 0.0, "type": "electric_scooter", "name": "4ecde5342645a252ac6d76d56d4c9e48", "is_disabled": 0, "rental_uris": {"ios": "https://dc.lft.to/lastmile_qr_scan", "android": "https://dc.lft.to/lastmile_qr_scan"}, "is_reserved": 0}, {"lon": -77.01673483333333, "bike_id": "1f6ce3b150fde78b50f59e203f6a5643", "lat": 38.88137183333333, "fusion_lon": 0.0, "fusion_lat": 0.0, "type": "electric_scooter", "name": "1f6ce3b150fde78b50f59e203f6a5643", "is_disabled": 0, "rental_uris": {"ios": "https://dc.lft.to/lastmile_qr_scan", "android": "https://dc.lft.to/lastmile_qr_scan"}, "is_reserved": 0}, {"lon": -77.04385283333333, "bike_id": "b8cd3f8d35b55229049237b590da0ce6", "lat": 38.908889, "fusion_lon": 0.0, "fusion_lat": 0.0, "type": "electric_scooter", "name": "b8cd3f8d35b55229049237b590da0ce6", "is_disabled": 0, "rental_uris": {"ios": "https://dc.lft.to/lastmile_qr_scan", "android": "https://dc.lft.to/lastmile_qr_scan"}, "is_reserved": 0}, {"lon": -77.026494, "bike_id": "28a4714a41393f03818915e3d312f67f", "lat": 38.8971875, "fusion_lon": 0.0, "fusion_lat": 0.0, "type": "electric_scooter", "name": "28a4714a41393f03818915e3d312f67f", "is_disabled": 0, "rental_uris": {"ios": "https://dc.lft.to/lastmile_qr_scan", "android": "https://dc.lft.to/lastmile_qr_scan"}, "is_reserved": 0}, {"lon": -77.05572916666667, "bike_id": "50c069b2ed885c7a4ed298d371ba7532", "lat": 38.91598366666667, "fusion_lon": 0.0, "fusion_lat": 0.0, "type": "electric_scooter", "name": "50c069b2ed885c7a4ed298d371ba7532", "is_disabled": 0, "rental_uris": {"ios": "https://dc.lft.to/lastmile_qr_scan", "android": "https://dc.lft.to/lastmile_qr_scan"}, "is_reserved": 0}, {"lon": -77.03586666666666, "bike_id": "7fd5ba2cad211c788f8703de4b607192", "lat": 38.910407166666666, "fusion_lon": 0.0, "fusion_lat": 0.0, "type": "electric_scooter", "name": "7fd5ba2cad211c788f8703de4b607192", "is_disabled": 0, "rental_uris": {"ios": "https://dc.lft.to/lastmile_qr_scan", "android": "https://dc.lft.to/lastmile_qr_scan"}, "is_reserved": 0}, {"lon": -77.04220583333333, "bike_id": "6247af3e252d46e2869c411cd08ead7d", "lat": 38.91350333333333, "fusion_lon": 0.0, "fusion_lat": 0.0, "type": "electric_scooter", "name": "6247af3e252d46e2869c411cd08ead7d", "is_disabled": 0, "rental_uris": {"ios": "https://dc.lft.to/lastmile_qr_scan", "android": "https://dc.lft.to/lastmile_qr_scan"}, "is_reserved": 0}, {"lon": -77.043524, "bike_id": "cd46f523aa2c549e788e71f49db6300f", "lat": 38.923477166666665, "fusion_lon": 0.0, "fusion_lat": 0.0, "type": "electric_scooter", "name": "cd46f523aa2c549e788e71f49db6300f", "is_disabled": 0, "rental_uris": {"ios": "https://dc.lft.to/lastmile_qr_scan", "android": "https://dc.lft.to/lastmile_qr_scan"}, "is_reserved": 0}, {"lon": -76.9929385, "bike_id": "a8c06088b554aaeb23c1fd21e99f9448", "lat": 38.898855166666664, "fusion_lon": 0.0, "fusion_lat": 0.0, "type": "electric_scooter", "name": "a8c06088b554aaeb23c1fd21e99f9448", "is_disabled": 0, "rental_uris": {"ios": "https://dc.lft.to/lastmile_qr_scan", "android": "https://dc.lft.to/lastmile_qr_scan"}, "is_reserved": 0}, {"lon": -77.04420983333333, "bike_id": "161abfc8d59d613a734b4a3fb66385b9", "lat": 38.911337333333336, "fusion_lon": 0.0, "fusion_lat": 0.0, "type": "electric_scooter", "name": "161abfc8d59d613a734b4a3fb66385b9", "is_disabled": 0, "rental_uris": {"ios": "https://dc.lft.to/lastmile_qr_scan", "android": "https://dc.lft.to/lastmile_qr_scan"}, "is_reserved": 0}, {"lon": -77.03185783333333, "bike_id": "cb02a54f05433e08be10ef3c38e5cfa6", "lat": 38.91825433333333, "fusion_lon": 0.0, "fusion_lat": 0.0, "type": "electric_scooter", "name": "cb02a54f05433e08be10ef3c38e5cfa6", "is_disabled": 0, "rental_uris": {"ios": "https://dc.lft.to/lastmile_qr_scan", "android": "https://dc.lft.to/lastmile_qr_scan"}, "is_reserved": 0}, {"lon": -77.02749683333333, "bike_id": "9b78d8dad0ba66d4966ff02ea0ca675d", "lat": 38.917012666666665, "fusion_lon": 0.0, "fusion_lat": 0.0, "type": "electric_scooter", "name": "9b78d8dad0ba66d4966ff02ea0ca675d", "is_disabled": 0, "rental_uris": {"ios": "https://dc.lft.to/lastmile_qr_scan", "android": "https://dc.lft.to/lastmile_qr_scan"}, "is_reserved": 0}, {"lon": -77.03263766666667, "bike_id": "2309282e373a66592f7b151dd3290bbb", "lat": 38.932054666666666, "fusion_lon": 0.0, "fusion_lat": 0.0, "type": "electric_scooter", "name": "2309282e373a66592f7b151dd3290bbb", "is_disabled": 0, "rental_uris": {"ios": "https://dc.lft.to/lastmile_qr_scan", "android": "https://dc.lft.to/lastmile_qr_scan"}, "is_reserved": 0}, {"lon": -77.0417095, "bike_id": "7b24028ec08b0c4293ab89bb94b8555f", "lat": 38.905482166666665, "fusion_lon": 0.0, "fusion_lat": 0.0, "type": "electric_scooter", "name": "7b24028ec08b0c4293ab89bb94b8555f", "is_disabled": 0, "rental_uris": {"ios": "https://dc.lft.to/lastmile_qr_scan", "android": "https://dc.lft.to/lastmile_qr_scan"}, "is_reserved": 0}, {"lon": -77.0216795, "bike_id": "f77be3e4f7c8ba20826ad0f77e4f5f4e", "lat": 38.929931, "fusion_lon": 0.0, "fusion_lat": 0.0, "type": "electric_scooter", "name": "f77be3e4f7c8ba20826ad0f77e4f5f4e", "is_disabled": 0, "rental_uris": {"ios": "https://dc.lft.to/lastmile_qr_scan", "android": "https://dc.lft.to/lastmile_qr_scan"}, "is_reserved": 0}, {"lon": -77.0038265, "bike_id": "08290741939abaeb1e3b86d7b12484c0", "lat": 38.83602666666667, "fusion_lon": 0.0, "fusion_lat": 0.0, "type": "electric_bike", "name": "08290741939abaeb1e3b86d7b12484c0", "is_disabled": 0, "rental_uris": {"ios": "https://dc.lft.to/lastmile_qr_scan", "android": "https://dc.lft.to/lastmile_qr_scan"}, "is_reserved": 0}, {"lon": -77.03147566666667, "bike_id": "f533dc93b225466993c43714b76b9210", "lat": 38.932495833333334, "fusion_lon": 0.0, "fusion_lat": 0.0, "type": "electric_scooter", "name": "f533dc93b225466993c43714b76b9210", "is_disabled": 0, "rental_uris": {"ios": "https://dc.lft.to/lastmile_qr_scan", "android": "https://dc.lft.to/lastmile_qr_scan"}, "is_reserved": 0}, {"lon": -77.007443, "bike_id": "8b5c017ab58acf1011b8bd2fcc008b09", "lat": 38.8978645, "fusion_lon": 0.0, "fusion_lat": 0.0, "type": "electric_bike", "name": "8b5c017ab58acf1011b8bd2fcc008b09", "is_disabled": 0, "rental_uris": {"ios": "https://dc.lft.to/lastmile_qr_scan", "android": "https://dc.lft.to/lastmile_qr_scan"}, "is_reserved": 0}, {"lon": -77.031907, "bike_id": "e0b4ffa8cd202eb1c3b69e55a5f0df10", "lat": 38.91749016666667, "fusion_lon": 0.0, "fusion_lat": 0.0, "type": "electric_scooter", "name": "e0b4ffa8cd202eb1c3b69e55a5f0df10", "is_disabled": 0, "rental_uris": {"ios": "https://dc.lft.to/lastmile_qr_scan", "android": "https://dc.lft.to/lastmile_qr_scan"}, "is_reserved": 0}, {"lon": -77.04674033333333, "bike_id": "394c7a514635cf2d45f27115ffbfb99c", "lat": 38.90717033333333, "fusion_lon": 0.0, "fusion_lat": 0.0, "type": "electric_scooter", "name": "394c7a514635cf2d45f27115ffbfb99c", "is_disabled": 0, "rental_uris": {"ios": "https://dc.lft.to/lastmile_qr_scan", "android": "https://dc.lft.to/lastmile_qr_scan"}, "is_reserved": 0}, {"lon": -77.032625, "bike_id": "6fc75833abedd04d49be068ad3e680e3", "lat": 38.937745166666666, "fusion_lon": 0.0, "fusion_lat": 0.0, "type": "electric_scooter", "name": "6fc75833abedd04d49be068ad3e680e3", "is_disabled": 0, "rental_uris": {"ios": "https://dc.lft.to/lastmile_qr_scan", "android": "https://dc.lft.to/lastmile_qr_scan"}, "is_reserved": 0}, {"lon": -77.03326033333333, "bike_id": "13fb9614808aa4fbdb95d26f76475384", "lat": 38.947177833333335, "fusion_lon": 0.0, "fusion_lat": 0.0, "type": "electric_scooter", "name": "13fb9614808aa4fbdb95d26f76475384", "is_disabled": 0, "rental_uris": {"ios": "https://dc.lft.to/lastmile_qr_scan", "android": "https://dc.lft.to/lastmile_qr_scan"}, "is_reserved": 0}, {"lon": -77.02160716666667, "bike_id": "940836a795092a3827516833b9be3604", "lat": 38.926125166666665, "fusion_lon": 0.0, "fusion_lat": 0.0, "type": "electric_scooter", "name": "940836a795092a3827516833b9be3604", "is_disabled": 0, "rental_uris": {"ios": "https://dc.lft.to/lastmile_qr_scan", "android": "https://dc.lft.to/lastmile_qr_scan"}, "is_reserved": 0}, {"lon": -77.03196116666666, "bike_id": "6f734694ac9be03299a93cf237d6027f", "lat": 38.91748233333333, "fusion_lon": 0.0, "fusion_lat": 0.0, "type": "electric_scooter", "name": "6f734694ac9be03299a93cf237d6027f", "is_disabled": 0, "rental_uris": {"ios": "https://dc.lft.to/lastmile_qr_scan", "android": "https://dc.lft.to/lastmile_qr_scan"}, "is_reserved": 0}, {"lon": -77.03415733333334, "bike_id": "cb7b4b02b5e626d8b389154858527b3b", "lat": 38.902529333333334, "fusion_lon": 0.0, "fusion_lat": 0.0, "type": "electric_scooter", "name": "cb7b4b02b5e626d8b389154858527b3b", "is_disabled": 0, "rental_uris": {"ios": "https://dc.lft.to/lastmile_qr_scan", "android": "https://dc.lft.to/lastmile_qr_scan"}, "is_reserved": 0}, {"lon": -76.98231166666666, "bike_id": "91fb4fd067323065c2ff83c435ae30b6", "lat": 38.8829845, "fusion_lon": 0.0, "fusion_lat": 0.0, "type": "electric_bike", "name": "91fb4fd067323065c2ff83c435ae30b6", "is_disabled": 0, "rental_uris": {"ios": "https://dc.lft.to/lastmile_qr_scan", "android": "https://dc.lft.to/lastmile_qr_scan"}, "is_reserved": 0}, {"lon": -77.00056283333333, "bike_id": "11a05c3d3254dd8aa97cba4c3f0d9e68", "lat": 38.89988266666667, "fusion_lon": 0.0, "fusion_lat": 0.0, "type": "electric_scooter", "name": "11a05c3d3254dd8aa97cba4c3f0d9e68", "is_disabled": 0, "rental_uris": {"ios": "https://dc.lft.to/lastmile_qr_scan", "android": "https://dc.lft.to/lastmile_qr_scan"}, "is_reserved": 0}, {"lon": -77.04371333333333, "bike_id": "00d937cac7a358e9820a67999b801d95", "lat": 38.918638333333334, "fusion_lon": 0.0, "fusion_lat": 0.0, "type": "electric_scooter", "name": "00d937cac7a358e9820a67999b801d95", "is_disabled": 0, "rental_uris": {"ios": "https://dc.lft.to/lastmile_qr_scan", "android": "https://dc.lft.to/lastmile_qr_scan"}, "is_reserved": 0}, {"lon": -77.01848816666667, "bike_id": "96a92aab33ac80a575ba43219a506c66", "lat": 38.91267933333334, "fusion_lon": 0.0, "fusion_lat": 0.0, "type": "electric_scooter", "name": "96a92aab33ac80a575ba43219a506c66", "is_disabled": 0, "rental_uris": {"ios": "https://dc.lft.to/lastmile_qr_scan", "android": "https://dc.lft.to/lastmile_qr_scan"}, "is_reserved": 0}, {"lon": -77.01083366666667, "bike_id": "a47e0b73c7c3ee269cabbd1bee89ee89", "lat": 38.90387483333333, "fusion_lon": 0.0, "fusion_lat": 0.0, "type": "electric_scooter", "name": "a47e0b73c7c3ee269cabbd1bee89ee89", "is_disabled": 0, "rental_uris": {"ios": "https://dc.lft.to/lastmile_qr_scan", "android": "https://dc.lft.to/lastmile_qr_scan"}, "is_reserved": 0}, {"lon": -77.04866216666667, "bike_id": "a1ee569eebf288b0d3159199f3ed96a8", "lat": 38.9162155, "fusion_lon": 0.0, "fusion_lat": 0.0, "type": "electric_scooter", "name": "a1ee569eebf288b0d3159199f3ed96a8", "is_disabled": 0, "rental_uris": {"ios": "https://dc.lft.to/lastmile_qr_scan", "android": "https://dc.lft.to/lastmile_qr_scan"}, "is_reserved": 0}, {"lon": -77.04184333333333, "bike_id": "b8355945b4f3a77eec631ad6c42a867a", "lat": 38.911205333333335, "fusion_lon": 0.0, "fusion_lat": 0.0, "type": "electric_scooter", "name": "b8355945b4f3a77eec631ad6c42a867a", "is_disabled": 0, "rental_uris": {"ios": "https://dc.lft.to/lastmile_qr_scan", "android": "https://dc.lft.to/lastmile_qr_scan"}, "is_reserved": 0}, {"lon": -76.97519633333333, "bike_id": "6d8d678288d1a3a693a497ff7634f869", "lat": 38.9669885, "fusion_lon": 0.0, "fusion_lat": 0.0, "type": "electric_bike", "name": "6d8d678288d1a3a693a497ff7634f869", "is_disabled": 0, "rental_uris": {"ios": "https://dc.lft.to/lastmile_qr_scan", "android": "https://dc.lft.to/lastmile_qr_scan"}, "is_reserved": 0}, {"lon": -77.07108333333333, "bike_id": "39863009346769c30049a4cee055ef6d", "lat": 38.91985716666667, "fusion_lon": 0.0, "fusion_lat": 0.0, "type": "electric_scooter", "name": "39863009346769c30049a4cee055ef6d", "is_disabled": 0, "rental_uris": {"ios": "https://dc.lft.to/lastmile_qr_scan", "android": "https://dc.lft.to/lastmile_qr_scan"}, "is_reserved": 0}, {"lon": -77.04885616666667, "bike_id": "b43d14eb92b2adb69c4a8c72430c85d2", "lat": 38.903992, "fusion_lon": 0.0, "fusion_lat": 0.0, "type": "electric_scooter", "name": "b43d14eb92b2adb69c4a8c72430c85d2", "is_disabled": 0, "rental_uris": {"ios": "https://dc.lft.to/lastmile_qr_scan", "android": "https://dc.lft.to/lastmile_qr_scan"}, "is_reserved": 0}, {"lon": -77.04416033333334, "bike_id": "fcc943e2f86bf33794dac268bc0d5b2e", "lat": 38.908953333333336, "fusion_lon": 0.0, "fusion_lat": 0.0, "type": "electric_scooter", "name": "fcc943e2f86bf33794dac268bc0d5b2e", "is_disabled": 0, "rental_uris": {"ios": "https://dc.lft.to/lastmile_qr_scan", "android": "https://dc.lft.to/lastmile_qr_scan"}, "is_reserved": 0}, {"lon": -77.017975, "bike_id": "addca072535e443273a5d9a65537656f", "lat": 38.973428, "fusion_lon": 0.0, "fusion_lat": 0.0, "type": "electric_bike", "name": "addca072535e443273a5d9a65537656f", "is_disabled": 0, "rental_uris": {"ios": "https://dc.lft.to/lastmile_qr_scan", "android": "https://dc.lft.to/lastmile_qr_scan"}, "is_reserved": 0}, {"lon": -77.03853133333334, "bike_id": "c000537cd2a933da38269d2ae15bbc06", "lat": 38.911811666666665, "fusion_lon": 0.0, "fusion_lat": 0.0, "type": "electric_scooter", "name": "c000537cd2a933da38269d2ae15bbc06", "is_disabled": 0, "rental_uris": {"ios": "https://dc.lft.to/lastmile_qr_scan", "android": "https://dc.lft.to/lastmile_qr_scan"}, "is_reserved": 0}, {"lon": -77.050519, "bike_id": "371dd46c71b1d3ba28043a72f0b1ecb8", "lat": 38.907186833333334, "fusion_lon": 0.0, "fusion_lat": 0.0, "type": "electric_scooter", "name": "371dd46c71b1d3ba28043a72f0b1ecb8", "is_disabled": 0, "rental_uris": {"ios": "https://dc.lft.to/lastmile_qr_scan", "android": "https://dc.lft.to/lastmile_qr_scan"}, "is_reserved": 0}, {"lon": -77.02363733333334, "bike_id": "2f8961ec3a32bb80a26ce79679266149", "lat": 38.892233, "fusion_lon": 0.0, "fusion_lat": 0.0, "type": "electric_scooter", "name": "2f8961ec3a32bb80a26ce79679266149", "is_disabled": 0, "rental_uris": {"ios": "https://dc.lft.to/lastmile_qr_scan", "android": "https://dc.lft.to/lastmile_qr_scan"}, "is_reserved": 0}, {"lon": -77.0531145, "bike_id": "23b5c1ec7af0ab133a2526d0ffd3a94d", "lat": 38.900723, "fusion_lon": 0.0, "fusion_lat": 0.0, "type": "electric_scooter", "name": "23b5c1ec7af0ab133a2526d0ffd3a94d", "is_disabled": 0, "rental_uris": {"ios": "https://dc.lft.to/lastmile_qr_scan", "android": "https://dc.lft.to/lastmile_qr_scan"}, "is_reserved": 0}, {"lon": -77.03391316666666, "bike_id": "597b22c79b876377956834d781a3d44c", "lat": 38.90971066666667, "fusion_lon": 0.0, "fusion_lat": 0.0, "type": "electric_scooter", "name": "597b22c79b876377956834d781a3d44c", "is_disabled": 0, "rental_uris": {"ios": "https://dc.lft.to/lastmile_qr_scan", "android": "https://dc.lft.to/lastmile_qr_scan"}, "is_reserved": 0}, {"lon": -76.996818, "bike_id": "55d66d1ceaa0a6cf0713141c478b2288", "lat": 38.860237833333336, "fusion_lon": 0.0, "fusion_lat": 0.0, "type": "electric_scooter", "name": "55d66d1ceaa0a6cf0713141c478b2288", "is_disabled": 0, "rental_uris": {"ios": "https://dc.lft.to/lastmile_qr_scan", "android": "https://dc.lft.to/lastmile_qr_scan"}, "is_reserved": 0}, {"lon": -77.02090666666666, "bike_id": "cc7ffbc880744ccc760e32055f3314b3", "lat": 38.95747133333333, "fusion_lon": 0.0, "fusion_lat": 0.0, "type": "electric_scooter", "name": "cc7ffbc880744ccc760e32055f3314b3", "is_disabled": 0, "rental_uris": {"ios": "https://dc.lft.to/lastmile_qr_scan", "android": "https://dc.lft.to/lastmile_qr_scan"}, "is_reserved": 0}, {"lon": -77.02200933333333, "bike_id": "8431d08a2068d21804fc20be34f88a2c", "lat": 38.9113495, "fusion_lon": 0.0, "fusion_lat": 0.0, "type": "electric_scooter", "name": "8431d08a2068d21804fc20be34f88a2c", "is_disabled": 0, "rental_uris": {"ios": "https://dc.lft.to/lastmile_qr_scan", "android": "https://dc.lft.to/lastmile_qr_scan"}, "is_reserved": 0}, {"lon": -77.02591183333334, "bike_id": "7936a2d365372e644fa1608c378a9142", "lat": 38.9049415, "fusion_lon": 0.0, "fusion_lat": 0.0, "type": "electric_scooter", "name": "7936a2d365372e644fa1608c378a9142", "is_disabled": 0, "rental_uris": {"ios": "https://dc.lft.to/lastmile_qr_scan", "android": "https://dc.lft.to/lastmile_qr_scan"}, "is_reserved": 0}, {"lon": -77.031965, "bike_id": "6e2d917fa76b72673dd2ffa9a9202b48", "lat": 38.8872725, "fusion_lon": 0.0, "fusion_lat": 0.0, "type": "electric_scooter", "name": "6e2d917fa76b72673dd2ffa9a9202b48", "is_disabled": 0, "rental_uris": {"ios": "https://dc.lft.to/lastmile_qr_scan", "android": "https://dc.lft.to/lastmile_qr_scan"}, "is_reserved": 0}, {"lon": -77.02164633333334, "bike_id": "02c2651f7a9a6a8205f3be6df08e8d47", "lat": 38.89721, "fusion_lon": 0.0, "fusion_lat": 0.0, "type": "electric_scooter", "name": "02c2651f7a9a6a8205f3be6df08e8d47", "is_disabled": 0, "rental_uris": {"ios": "https://dc.lft.to/lastmile_qr_scan", "android": "https://dc.lft.to/lastmile_qr_scan"}, "is_reserved": 0}, {"lon": -77.05231166666667, "bike_id": "34700cade8ad86fd920490c8f255d2a2", "lat": 38.9245935, "fusion_lon": 0.0, "fusion_lat": 0.0, "type": "electric_scooter", "name": "34700cade8ad86fd920490c8f255d2a2", "is_disabled": 0, "rental_uris": {"ios": "https://dc.lft.to/lastmile_qr_scan", "android": "https://dc.lft.to/lastmile_qr_scan"}, "is_reserved": 0}, {"lon": -77.0289955, "bike_id": "6686719a9967bc080bd799ad6b114bfd", "lat": 38.928179166666666, "fusion_lon": 0.0, "fusion_lat": 0.0, "type": "electric_scooter", "name": "6686719a9967bc080bd799ad6b114bfd", "is_disabled": 0, "rental_uris": {"ios": "https://dc.lft.to/lastmile_qr_scan", "android": "https://dc.lft.to/lastmile_qr_scan"}, "is_reserved": 0}, {"lon": -76.994847, "bike_id": "aa2aacdc4f37b2cd7a87bf69b433e89c", "lat": 38.897409, "fusion_lon": 0.0, "fusion_lat": 0.0, "type": "electric_scooter", "name": "aa2aacdc4f37b2cd7a87bf69b433e89c", "is_disabled": 0, "rental_uris": {"ios": "https://dc.lft.to/lastmile_qr_scan", "android": "https://dc.lft.to/lastmile_qr_scan"}, "is_reserved": 0}, {"lon": -77.04549166666666, "bike_id": "7777ddd9c4cb4904c30befbb09bc3955", "lat": 38.913380333333336, "fusion_lon": 0.0, "fusion_lat": 0.0, "type": "electric_scooter", "name": "7777ddd9c4cb4904c30befbb09bc3955", "is_disabled": 0, "rental_uris": {"ios": "https://dc.lft.to/lastmile_qr_scan", "android": "https://dc.lft.to/lastmile_qr_scan"}, "is_reserved": 0}, {"lon": -77.032967, "bike_id": "ce4b9b62cebdaaef27c5a78f6d285666", "lat": 38.93054033333333, "fusion_lon": 0.0, "fusion_lat": 0.0, "type": "electric_scooter", "name": "ce4b9b62cebdaaef27c5a78f6d285666", "is_disabled": 0, "rental_uris": {"ios": "https://dc.lft.to/lastmile_qr_scan", "android": "https://dc.lft.to/lastmile_qr_scan"}, "is_reserved": 0}, {"lon": -77.03174316666667, "bike_id": "282526dd4abf011461e1ad671313e2af", "lat": 38.9192515, "fusion_lon": 0.0, "fusion_lat": 0.0, "type": "electric_scooter", "name": "282526dd4abf011461e1ad671313e2af", "is_disabled": 0, "rental_uris": {"ios": "https://dc.lft.to/lastmile_qr_scan", "android": "https://dc.lft.to/lastmile_qr_scan"}, "is_reserved": 0}, {"lon": -76.93307566666667, "bike_id": "8788198fe84366fe015386e1e87865cd", "lat": 38.8947375, "fusion_lon": 0.0, "fusion_lat": 0.0, "type": "electric_scooter", "name": "8788198fe84366fe015386e1e87865cd", "is_disabled": 0, "rental_uris": {"ios": "https://dc.lft.to/lastmile_qr_scan", "android": "https://dc.lft.to/lastmile_qr_scan"}, "is_reserved": 0}, {"lon": -76.99530633333333, "bike_id": "9f4e6ce2b37204dff1c810f2090ed7c3", "lat": 38.8836515, "fusion_lon": 0.0, "fusion_lat": 0.0, "type": "electric_scooter", "name": "9f4e6ce2b37204dff1c810f2090ed7c3", "is_disabled": 0, "rental_uris": {"ios": "https://dc.lft.to/lastmile_qr_scan", "android": "https://dc.lft.to/lastmile_qr_scan"}, "is_reserved": 0}, {"lon": -77.04340066666667, "bike_id": "3b3d75d5b1dff51c839f5f352d9d2874", "lat": 38.911039, "fusion_lon": 0.0, "fusion_lat": 0.0, "type": "electric_scooter", "name": "3b3d75d5b1dff51c839f5f352d9d2874", "is_disabled": 0, "rental_uris": {"ios": "https://dc.lft.to/lastmile_qr_scan", "android": "https://dc.lft.to/lastmile_qr_scan"}, "is_reserved": 0}, {"lon": -77.05366333333333, "bike_id": "1a8304c7ccea07a9d548f3b47f092bcf", "lat": 38.927094333333336, "fusion_lon": 0.0, "fusion_lat": 0.0, "type": "electric_scooter", "name": "1a8304c7ccea07a9d548f3b47f092bcf", "is_disabled": 0, "rental_uris": {"ios": "https://dc.lft.to/lastmile_qr_scan", "android": "https://dc.lft.to/lastmile_qr_scan"}, "is_reserved": 0}, {"lon": -77.03860533333334, "bike_id": "ff8179baef52649dbb87d100630aa4ad", "lat": 38.91552316666667, "fusion_lon": 0.0, "fusion_lat": 0.0, "type": "electric_scooter", "name": "ff8179baef52649dbb87d100630aa4ad", "is_disabled": 0, "rental_uris": {"ios": "https://dc.lft.to/lastmile_qr_scan", "android": "https://dc.lft.to/lastmile_qr_scan"}, "is_reserved": 0}, {"lon": -77.04770816666667, "bike_id": "4d182ba05052d12b0967fa3ef5597e92", "lat": 38.9214025, "fusion_lon": 0.0, "fusion_lat": 0.0, "type": "electric_scooter", "name": "4d182ba05052d12b0967fa3ef5597e92", "is_disabled": 0, "rental_uris": {"ios": "https://dc.lft.to/lastmile_qr_scan", "android": "https://dc.lft.to/lastmile_qr_scan"}, "is_reserved": 0}, {"lon": -77.0366445, "bike_id": "642a7d5b9b3ac8fafea447e73215f171", "lat": 38.9181185, "fusion_lon": 0.0, "fusion_lat": 0.0, "type": "electric_scooter", "name": "642a7d5b9b3ac8fafea447e73215f171", "is_disabled": 0, "rental_uris": {"ios": "https://dc.lft.to/lastmile_qr_scan", "android": "https://dc.lft.to/lastmile_qr_scan"}, "is_reserved": 0}, {"lon": -77.03857666666667, "bike_id": "297d97b9128cd004aa23b19b9a592a4d", "lat": 38.91777966666667, "fusion_lon": 0.0, "fusion_lat": 0.0, "type": "electric_scooter", "name": "297d97b9128cd004aa23b19b9a592a4d", "is_disabled": 0, "rental_uris": {"ios": "https://dc.lft.to/lastmile_qr_scan", "android": "https://dc.lft.to/lastmile_qr_scan"}, "is_reserved": 0}, {"lon": -77.0527355, "bike_id": "ec784eef0b883dab8b24d64731ee5334", "lat": 38.89975416666667, "fusion_lon": 0.0, "fusion_lat": 0.0, "type": "electric_scooter", "name": "ec784eef0b883dab8b24d64731ee5334", "is_disabled": 0, "rental_uris": {"ios": "https://dc.lft.to/lastmile_qr_scan", "android": "https://dc.lft.to/lastmile_qr_scan"}, "is_reserved": 0}, {"lon": -76.98543466666666, "bike_id": "2a16003c36558b396d532985f4a68b9f", "lat": 38.896556, "fusion_lon": 0.0, "fusion_lat": 0.0, "type": "electric_scooter", "name": "2a16003c36558b396d532985f4a68b9f", "is_disabled": 0, "rental_uris": {"ios": "https://dc.lft.to/lastmile_qr_scan", "android": "https://dc.lft.to/lastmile_qr_scan"}, "is_reserved": 0}, {"lon": -77.04162766666667, "bike_id": "36af17877193169eafebb95b82b0fa67", "lat": 38.91249533333333, "fusion_lon": 0.0, "fusion_lat": 0.0, "type": "electric_scooter", "name": "36af17877193169eafebb95b82b0fa67", "is_disabled": 0, "rental_uris": {"ios": "https://dc.lft.to/lastmile_qr_scan", "android": "https://dc.lft.to/lastmile_qr_scan"}, "is_reserved": 0}, {"lon": -77.01944533333334, "bike_id": "90f9cda50a04f6fb01d4e255fb06f7aa", "lat": 38.9368015, "fusion_lon": 0.0, "fusion_lat": 0.0, "type": "electric_scooter", "name": "90f9cda50a04f6fb01d4e255fb06f7aa", "is_disabled": 0, "rental_uris": {"ios": "https://dc.lft.to/lastmile_qr_scan", "android": "https://dc.lft.to/lastmile_qr_scan"}, "is_reserved": 0}, {"lon": -77.0386775, "bike_id": "974d1f64d601e02cba439812038046de", "lat": 38.909704166666664, "fusion_lon": 0.0, "fusion_lat": 0.0, "type": "electric_scooter", "name": "974d1f64d601e02cba439812038046de", "is_disabled": 0, "rental_uris": {"ios": "https://dc.lft.to/lastmile_qr_scan", "android": "https://dc.lft.to/lastmile_qr_scan"}, "is_reserved": 0}, {"lon": -76.97840166666667, "bike_id": "94b086f4137bcb718673504ddc6f77c3", "lat": 38.865671166666665, "fusion_lon": 0.0, "fusion_lat": 0.0, "type": "electric_scooter", "name": "94b086f4137bcb718673504ddc6f77c3", "is_disabled": 0, "rental_uris": {"ios": "https://dc.lft.to/lastmile_qr_scan", "android": "https://dc.lft.to/lastmile_qr_scan"}, "is_reserved": 0}, {"lon": -77.03805483333333, "bike_id": "61a9aa0c66897f11892b2ea08608d941", "lat": 38.931159666666666, "fusion_lon": 0.0, "fusion_lat": 0.0, "type": "electric_scooter", "name": "61a9aa0c66897f11892b2ea08608d941", "is_disabled": 0, "rental_uris": {"ios": "https://dc.lft.to/lastmile_qr_scan", "android": "https://dc.lft.to/lastmile_qr_scan"}, "is_reserved": 0}, {"lon": -77.03597066666667, "bike_id": "236ae583c649c91261b04ac801048870", "lat": 38.91765933333333, "fusion_lon": 0.0, "fusion_lat": 0.0, "type": "electric_scooter", "name": "236ae583c649c91261b04ac801048870", "is_disabled": 0, "rental_uris": {"ios": "https://dc.lft.to/lastmile_qr_scan", "android": "https://dc.lft.to/lastmile_qr_scan"}, "is_reserved": 0}, {"lon": -77.02382833333333, "bike_id": "1d944c1a8b3e2cfc80fa970e10cd5aac", "lat": 38.9073105, "fusion_lon": 0.0, "fusion_lat": 0.0, "type": "electric_scooter", "name": "1d944c1a8b3e2cfc80fa970e10cd5aac", "is_disabled": 0, "rental_uris": {"ios": "https://dc.lft.to/lastmile_qr_scan", "android": "https://dc.lft.to/lastmile_qr_scan"}, "is_reserved": 0}, {"lon": -77.032156, "bike_id": "09f25acad3526ff8ab64b179aa6d5b92", "lat": 38.91484916666667, "fusion_lon": 0.0, "fusion_lat": 0.0, "type": "electric_scooter", "name": "09f25acad3526ff8ab64b179aa6d5b92", "is_disabled": 0, "rental_uris": {"ios": "https://dc.lft.to/lastmile_qr_scan", "android": "https://dc.lft.to/lastmile_qr_scan"}, "is_reserved": 0}, {"lon": -76.94896233333333, "bike_id": "f969e0fa2f8574209c952d417648f41a", "lat": 38.89529366666667, "fusion_lon": 0.0, "fusion_lat": 0.0, "type": "electric_scooter", "name": "f969e0fa2f8574209c952d417648f41a", "is_disabled": 0, "rental_uris": {"ios": "https://dc.lft.to/lastmile_qr_scan", "android": "https://dc.lft.to/lastmile_qr_scan"}, "is_reserved": 0}, {"lon": -77.038952, "bike_id": "82eb7aad781dbb9d225499a80a3cbb5a", "lat": 38.9234155, "fusion_lon": 0.0, "fusion_lat": 0.0, "type": "electric_scooter", "name": "82eb7aad781dbb9d225499a80a3cbb5a", "is_disabled": 0, "rental_uris": {"ios": "https://dc.lft.to/lastmile_qr_scan", "android": "https://dc.lft.to/lastmile_qr_scan"}, "is_reserved": 0}, {"lon": -77.03178433333333, "bike_id": "a86c4c7945e7425026aaadf0268ed201", "lat": 38.905140833333334, "fusion_lon": 0.0, "fusion_lat": 0.0, "type": "electric_scooter", "name": "a86c4c7945e7425026aaadf0268ed201", "is_disabled": 0, "rental_uris": {"ios": "https://dc.lft.to/lastmile_qr_scan", "android": "https://dc.lft.to/lastmile_qr_scan"}, "is_reserved": 0}, {"lon": -77.02476983333334, "bike_id": "3bceebd1a49bb9498d7ff955ea39dd9b", "lat": 38.92589816666667, "fusion_lon": 0.0, "fusion_lat": 0.0, "type": "electric_scooter", "name": "3bceebd1a49bb9498d7ff955ea39dd9b", "is_disabled": 0, "rental_uris": {"ios": "https://dc.lft.to/lastmile_qr_scan", "android": "https://dc.lft.to/lastmile_qr_scan"}, "is_reserved": 0}, {"lon": -77.02709733333333, "bike_id": "06854ea257fd72a73e38185ad98dce00", "lat": 38.8973045, "fusion_lon": 0.0, "fusion_lat": 0.0, "type": "electric_scooter", "name": "06854ea257fd72a73e38185ad98dce00", "is_disabled": 0, "rental_uris": {"ios": "https://dc.lft.to/lastmile_qr_scan", "android": "https://dc.lft.to/lastmile_qr_scan"}, "is_reserved": 0}, {"lon": -77.07975616666667, "bike_id": "2e9383ebac433e0c03b138189fc62c7d", "lat": 38.85728533333333, "fusion_lon": 0.0, "fusion_lat": 0.0, "type": "electric_bike", "name": "2e9383ebac433e0c03b138189fc62c7d", "is_disabled": 0, "rental_uris": {"ios": "https://dc.lft.to/lastmile_qr_scan", "android": "https://dc.lft.to/lastmile_qr_scan"}, "is_reserved": 0}, {"lon": -76.9952265, "bike_id": "5ef4be15f15c5d48345a667268bad605", "lat": 38.862627, "fusion_lon": 0.0, "fusion_lat": 0.0, "type": "electric_scooter", "name": "5ef4be15f15c5d48345a667268bad605", "is_disabled": 0, "rental_uris": {"ios": "https://dc.lft.to/lastmile_qr_scan", "android": "https://dc.lft.to/lastmile_qr_scan"}, "is_reserved": 0}, {"lon": -76.99065633333333, "bike_id": "3403899a98cc5c12aa52fd344623c4da", "lat": 38.897983333333336, "fusion_lon": 0.0, "fusion_lat": 0.0, "type": "electric_bike", "name": "3403899a98cc5c12aa52fd344623c4da", "is_disabled": 0, "rental_uris": {"ios": "https://dc.lft.to/lastmile_qr_scan", "android": "https://dc.lft.to/lastmile_qr_scan"}, "is_reserved": 0}, {"lon": -76.94883733333333, "bike_id": "6275752e8f38de7f2acf772f41fab676", "lat": 38.89508383333333, "fusion_lon": 0.0, "fusion_lat": 0.0, "type": "electric_scooter", "name": "6275752e8f38de7f2acf772f41fab676", "is_disabled": 0, "rental_uris": {"ios": "https://dc.lft.to/lastmile_qr_scan", "android": "https://dc.lft.to/lastmile_qr_scan"}, "is_reserved": 0}, {"lon": -77.02009383333333, "bike_id": "24813027b955f92e33be5f5cc8dd2017", "lat": 38.92419816666666, "fusion_lon": 0.0, "fusion_lat": 0.0, "type": "electric_scooter", "name": "24813027b955f92e33be5f5cc8dd2017", "is_disabled": 0, "rental_uris": {"ios": "https://dc.lft.to/lastmile_qr_scan", "android": "https://dc.lft.to/lastmile_qr_scan"}, "is_reserved": 0}, {"lon": -77.02160966666666, "bike_id": "83c364e3fd7d1bc6e44bd7f37c8a059c", "lat": 38.950743333333335, "fusion_lon": 0.0, "fusion_lat": 0.0, "type": "electric_scooter", "name": "83c364e3fd7d1bc6e44bd7f37c8a059c", "is_disabled": 0, "rental_uris": {"ios": "https://dc.lft.to/lastmile_qr_scan", "android": "https://dc.lft.to/lastmile_qr_scan"}, "is_reserved": 0}, {"lon": -77.03421216666666, "bike_id": "4a3bbe627933fb406982ee25095f0882", "lat": 38.90266033333333, "fusion_lon": 0.0, "fusion_lat": 0.0, "type": "electric_scooter", "name": "4a3bbe627933fb406982ee25095f0882", "is_disabled": 0, "rental_uris": {"ios": "https://dc.lft.to/lastmile_qr_scan", "android": "https://dc.lft.to/lastmile_qr_scan"}, "is_reserved": 0}, {"lon": -77.041285, "bike_id": "dc756600d447732e1ab54011ec604e0c", "lat": 38.919723, "fusion_lon": 0.0, "fusion_lat": 0.0, "type": "electric_scooter", "name": "dc756600d447732e1ab54011ec604e0c", "is_disabled": 0, "rental_uris": {"ios": "https://dc.lft.to/lastmile_qr_scan", "android": "https://dc.lft.to/lastmile_qr_scan"}, "is_reserved": 0}, {"lon": -77.03735316666666, "bike_id": "7d649621e8d5da1694a04767e27841c6", "lat": 38.920268166666666, "fusion_lon": 0.0, "fusion_lat": 0.0, "type": "electric_scooter", "name": "7d649621e8d5da1694a04767e27841c6", "is_disabled": 0, "rental_uris": {"ios": "https://dc.lft.to/lastmile_qr_scan", "android": "https://dc.lft.to/lastmile_qr_scan"}, "is_reserved": 0}, {"lon": -77.03440733333333, "bike_id": "399791a4677bec38532276216979694d", "lat": 38.90980016666666, "fusion_lon": 0.0, "fusion_lat": 0.0, "type": "electric_scooter", "name": "399791a4677bec38532276216979694d", "is_disabled": 0, "rental_uris": {"ios": "https://dc.lft.to/lastmile_qr_scan", "android": "https://dc.lft.to/lastmile_qr_scan"}, "is_reserved": 0}, {"lon": -76.99609083333333, "bike_id": "a1dd7e1cc6b8036c6be93c997f15c580", "lat": 38.88695933333333, "fusion_lon": 0.0, "fusion_lat": 0.0, "type": "electric_scooter", "name": "a1dd7e1cc6b8036c6be93c997f15c580", "is_disabled": 0, "rental_uris": {"ios": "https://dc.lft.to/lastmile_qr_scan", "android": "https://dc.lft.to/lastmile_qr_scan"}, "is_reserved": 0}, {"lon": -77.05233883333334, "bike_id": "82c6f25af4eb66ab3f68f4ace205454a", "lat": 38.924645166666664, "fusion_lon": 0.0, "fusion_lat": 0.0, "type": "electric_scooter", "name": "82c6f25af4eb66ab3f68f4ace205454a", "is_disabled": 0, "rental_uris": {"ios": "https://dc.lft.to/lastmile_qr_scan", "android": "https://dc.lft.to/lastmile_qr_scan"}, "is_reserved": 0}, {"lon": -77.031021, "bike_id": "11859bb06fc08a97301be5606f6a7835", "lat": 38.91561016666667, "fusion_lon": 0.0, "fusion_lat": 0.0, "type": "electric_scooter", "name": "11859bb06fc08a97301be5606f6a7835", "is_disabled": 0, "rental_uris": {"ios": "https://dc.lft.to/lastmile_qr_scan", "android": "https://dc.lft.to/lastmile_qr_scan"}, "is_reserved": 0}, {"lon": -76.98988783333333, "bike_id": "462745fba495d8df574e19f607de6ee7", "lat": 38.9336545, "fusion_lon": 0.0, "fusion_lat": 0.0, "type": "electric_scooter", "name": "462745fba495d8df574e19f607de6ee7", "is_disabled": 0, "rental_uris": {"ios": "https://dc.lft.to/lastmile_qr_scan", "android": "https://dc.lft.to/lastmile_qr_scan"}, "is_reserved": 0}, {"lon": -76.98022633333333, "bike_id": "c9d4dbcc32cf2db3f092d0e23f5ea366", "lat": 38.853242, "fusion_lon": 0.0, "fusion_lat": 0.0, "type": "electric_bike", "name": "c9d4dbcc32cf2db3f092d0e23f5ea366", "is_disabled": 0, "rental_uris": {"ios": "https://dc.lft.to/lastmile_qr_scan", "android": "https://dc.lft.to/lastmile_qr_scan"}, "is_reserved": 0}, {"lon": -77.04322716666667, "bike_id": "80a4ff71f4a39deed25b58d954ba17c2", "lat": 38.90734883333333, "fusion_lon": 0.0, "fusion_lat": 0.0, "type": "electric_scooter", "name": "80a4ff71f4a39deed25b58d954ba17c2", "is_disabled": 0, "rental_uris": {"ios": "https://dc.lft.to/lastmile_qr_scan", "android": "https://dc.lft.to/lastmile_qr_scan"}, "is_reserved": 0}, {"lon": -77.03444966666666, "bike_id": "da7167ccf8681f9fdc3dda6e7c311958", "lat": 38.90955116666667, "fusion_lon": 0.0, "fusion_lat": 0.0, "type": "electric_scooter", "name": "da7167ccf8681f9fdc3dda6e7c311958", "is_disabled": 0, "rental_uris": {"ios": "https://dc.lft.to/lastmile_qr_scan", "android": "https://dc.lft.to/lastmile_qr_scan"}, "is_reserved": 0}, {"lon": -77.02218216666667, "bike_id": "f7ac0806ca260a0c04ed1ae765e4b6d3", "lat": 38.92626716666667, "fusion_lon": 0.0, "fusion_lat": 0.0, "type": "electric_scooter", "name": "f7ac0806ca260a0c04ed1ae765e4b6d3", "is_disabled": 0, "rental_uris": {"ios": "https://dc.lft.to/lastmile_qr_scan", "android": "https://dc.lft.to/lastmile_qr_scan"}, "is_reserved": 0}, {"lon": -77.0439005, "bike_id": "14f7dd123682d6189e9e4bd8b1b0e1a3", "lat": 39.04717133333333, "fusion_lon": 0.0, "fusion_lat": 0.0, "type": "electric_bike", "name": "14f7dd123682d6189e9e4bd8b1b0e1a3", "is_disabled": 0, "rental_uris": {"ios": "https://dc.lft.to/lastmile_qr_scan", "android": "https://dc.lft.to/lastmile_qr_scan"}, "is_reserved": 0}, {"lon": -76.95577633333333, "bike_id": "8852505967629d99af411485cb9dc3f4", "lat": 38.88766066666667, "fusion_lon": 0.0, "fusion_lat": 0.0, "type": "electric_scooter", "name": "8852505967629d99af411485cb9dc3f4", "is_disabled": 0, "rental_uris": {"ios": "https://dc.lft.to/lastmile_qr_scan", "android": "https://dc.lft.to/lastmile_qr_scan"}, "is_reserved": 0}, {"lon": -77.02237366666667, "bike_id": "5c76676d4dad14cbf6a97edb955802d4", "lat": 38.962166, "fusion_lon": 0.0, "fusion_lat": 0.0, "type": "electric_bike", "name": "5c76676d4dad14cbf6a97edb955802d4", "is_disabled": 0, "rental_uris": {"ios": "https://dc.lft.to/lastmile_qr_scan", "android": "https://dc.lft.to/lastmile_qr_scan"}, "is_reserved": 0}, {"lon": -77.028423, "bike_id": "cfe8a8d16251cb4a93e2e62d82e3f057", "lat": 38.92572783333333, "fusion_lon": 0.0, "fusion_lat": 0.0, "type": "electric_scooter", "name": "cfe8a8d16251cb4a93e2e62d82e3f057", "is_disabled": 0, "rental_uris": {"ios": "https://dc.lft.to/lastmile_qr_scan", "android": "https://dc.lft.to/lastmile_qr_scan"}, "is_reserved": 0}, {"lon": -77.0525155, "bike_id": "4d8f379eb26bf58df2c012103d4add20", "lat": 38.89994933333333, "fusion_lon": 0.0, "fusion_lat": 0.0, "type": "electric_scooter", "name": "4d8f379eb26bf58df2c012103d4add20", "is_disabled": 0, "rental_uris": {"ios": "https://dc.lft.to/lastmile_qr_scan", "android": "https://dc.lft.to/lastmile_qr_scan"}, "is_reserved": 0}, {"lon": -77.02032966666667, "bike_id": "27135e715df34d547f326b3258b6532f", "lat": 38.924183666666664, "fusion_lon": 0.0, "fusion_lat": 0.0, "type": "electric_scooter", "name": "27135e715df34d547f326b3258b6532f", "is_disabled": 0, "rental_uris": {"ios": "https://dc.lft.to/lastmile_qr_scan", "android": "https://dc.lft.to/lastmile_qr_scan"}, "is_reserved": 0}, {"lon": -77.03293116666667, "bike_id": "52fe0629d032be70f89074f6d6c300f6", "lat": 38.907287, "fusion_lon": 0.0, "fusion_lat": 0.0, "type": "electric_scooter", "name": "52fe0629d032be70f89074f6d6c300f6", "is_disabled": 0, "rental_uris": {"ios": "https://dc.lft.to/lastmile_qr_scan", "android": "https://dc.lft.to/lastmile_qr_scan"}, "is_reserved": 0},