{"data": {"bikes": [{"rental_uris": {"ios": "https://dc.lft.to/lastmile_qr_scan", "android": "https://dc.lft.to/lastmile_qr_scan"}, "type": "electric_scooter", "name": "92b43d2928315dc7cbfddafdab23eafe", "is_reserved": 0, "lon": -77.03508133333334, "is_disabled": 0, "fusion_lat": 0.0, "lat": 38.92154383333333, "bike_id": "92b43d2928315dc7cbfddafdab23eafe", "fusion_lon": 0.0}, {"rental_uris": {"ios": "https://dc.lft.to/lastmile_qr_scan", "android": "https://dc.lft.to/lastmile_qr_scan"}, "type": "electric_scooter", "name": "1df4707b388f20d16085441e2a49e6d9", "is_reserved": 0, "lon": -77.04195783333333, "is_disabled": 0, "fusion_lat": 0.0, "lat": 38.92627016666667, "bike_id": "1df4707b388f20d16085441e2a49e6d9", "fusion_lon": 0.0}, {"rental_uris": {"ios": "https://dc.lft.to/lastmile_qr_scan", "android": "https://dc.lft.to/lastmile_qr_scan"}, "type": "electric_scooter", "name": "319cdcf4eb5a298b6ebf6b8c6052414f", "is_reserved": 0, "lon": -76.99845266666667, "is_disabled": 0, "fusion_lat": 0.0, "lat": 38.837766333333335, "bike_id": "319cdcf4eb5a298b6ebf6b8c6052414f", "fusion_lon": 0.0}, {"rental_uris": {"ios": "https://dc.lft.to/lastmile_qr_scan", "android": "https://dc.lft.to/lastmile_qr_scan"}, "type": "electric_scooter", "name": "595b38d685f7af30d77ea21eb20516a0", "is_reserved": 0, "lon": -77.0610385, "is_disabled": 0, "fusion_lat": 0.0, "lat": 38.905061833333335, "bike_id": "595b38d685f7af30d77ea21eb20516a0", "fusion_lon": 0.0}, {"rental_uris": {"ios": "https://dc.lft.to/lastmile_qr_scan", "android": "https://dc.lft.to/lastmile_qr_scan"}, "type": "electric_scooter", "name": "0c9869b18fb04717c552c1a7422723be", "is_reserved": 0, "lon": -77.038024, "is_disabled": 0, "fusion_lat": 0.0, "lat": 38.91191233333333, "bike_id": "0c9869b18fb04717c552c1a7422723be", "fusion_lon": 0.0}, {"rental_uris": {"ios": "https://dc.lft.to/lastmile_qr_scan", "android": "https://dc.lft.to/lastmile_qr_scan"}, "type": "electric_scooter", "name": "ee32cc92f84e92af2daa32fcc457ea6a", "is_reserved": 0, "lon": -77.032539, "is_disabled": 0, "fusion_lat": 0.0, "lat": 38.901151, "bike_id": "ee32cc92f84e92af2daa32fcc457ea6a", "fusion_lon": 0.0}, {"rental_uris": {"ios": "https://dc.lft.to/lastmile_qr_scan", "android": "https://dc.lft.to/lastmile_qr_scan"}, "type": "electric_scooter", "name": "af2539c9e33238f17370d5fb998c4f8f", "is_reserved": 0, "lon": -77.04488016666667, "is_disabled": 0, "fusion_lat": 0.0, "lat": 38.89956133333333, "bike_id": "af2539c9e33238f17370d5fb998c4f8f", "fusion_lon": 0.0}, {"rental_uris": {"ios": "https://dc.lft.to/lastmile_qr_scan", "android": "https://dc.lft.to/lastmile_qr_scan"}, "type": "electric_scooter", "name": "5483267376ff8df283626fcf92bab37c", "is_reserved": 0, "lon": -77.0450585, "is_disabled": 0, "fusion_lat": 0.0, "lat": 38.89229366666667, "bike_id": "5483267376ff8df283626fcf92bab37c", "fusion_lon": 0.0}, {"rental_uris": {"ios": "https://dc.lft.to/lastmile_qr_scan", "android": "https://dc.lft.to/lastmile_qr_scan"}, "type": "electric_bike", "name": "4f7dec82fde67f422598db15fd58e63e", "is_reserved": 0, "lon": -77.02121533333333, "is_disabled": 0, "fusion_lat": 0.0, "lat": 38.8812835, "bike_id": "4f7dec82fde67f422598db15fd58e63e", "fusion_lon": 0.0}, {"rental_uris": {"ios": "https://dc.lft.to/lastmile_qr_scan", "android": "https://dc.lft.to/lastmile_qr_scan"}, "type": "electric_scooter", "name": "5e50f7c4851a4d0016fce2f9ddfde90d", "is_reserved": 0, "lon": -77.04401566666667, "is_disabled": 0, "fusion_lat": 0.0, "lat": 38.92954616666667, "bike_id": "5e50f7c4851a4d0016fce2f9ddfde90d", "fusion_lon": 0.0}, {"rental_uris": {"ios": "https://dc.lft.to/lastmile_qr_scan", "android": "https://dc.lft.to/lastmile_qr_scan"}, "type": "electric_scooter", "name": "a1f8de89e553b2979bd75b5f4ba56b4f", "is_reserved": 0, "lon": -76.93707866666666, "is_disabled": 0, "fusion_lat": 0.0, "lat": 38.890167166666664, "bike_id": "a1f8de89e553b2979bd75b5f4ba56b4f", "fusion_lon": 0.0}, {"rental_uris": {"ios": "https://dc.lft.to/lastmile_qr_scan", "android": "https://dc.lft.to/lastmile_qr_scan"}, "type": "electric_scooter", "name": "9f8b1cc8d7fe6bfe8a1656681938f390", "is_reserved": 0, "lon": -77.03813866666667, "is_disabled": 0, "fusion_lat": 0.0, "lat": 38.90677783333334, "bike_id": "9f8b1cc8d7fe6bfe8a1656681938f390", "fusion_lon": 0.0}, {"rental_uris": {"ios": "https://dc.lft.to/lastmile_qr_scan", "android": "https://dc.lft.to/lastmile_qr_scan"}, "type": "electric_scooter", "name": "472b68c6147be384d0b8a986c0ba91ad", "is_reserved": 0, "lon": -76.96985083333334, "is_disabled": 0, "fusion_lat": 0.0, "lat": 38.87382066666667, "bike_id": "472b68c6147be384d0b8a986c0ba91ad", "fusion_lon": 0.0}, {"rental_uris": {"ios": "https://dc.lft.to/lastmile_qr_scan", "android": "https://dc.lft.to/lastmile_qr_scan"}, "type": "electric_scooter", "name": "7b450b048a6eba9fbca1fb71d2e5c695", "is_reserved": 0, "lon": -76.96503966666667, "is_disabled": 0, "fusion_lat": 0.0, "lat": 38.87648083333333, "bike_id": "7b450b048a6eba9fbca1fb71d2e5c695", "fusion_lon": 0.0}, {"rental_uris": {"ios": "https://dc.lft.to/lastmile_qr_scan", "android": "https://dc.lft.to/lastmile_qr_scan"}, "type": "electric_bike", "name": "aa0428320760096264a7b66cf3960a99", "is_reserved": 0, "lon": -77.07013683333334, "is_disabled": 0, "fusion_lat": 0.0, "lat": 38.8411145, "bike_id": "aa0428320760096264a7b66cf3960a99", "fusion_lon": 0.0}, {"rental_uris": {"ios": "https://dc.lft.to/lastmile_qr_scan", "android": "https://dc.lft.to/lastmile_qr_scan"}, "type": "electric_scooter", "name": "7db654fadb3f3949c761aa95ef216dd2", "is_reserved": 0, "lon": -77.04893116666666, "is_disabled": 0, "fusion_lat": 0.0, "lat": 38.898878, "bike_id": "7db654fadb3f3949c761aa95ef216dd2", "fusion_lon": 0.0}, {"rental_uris": {"ios": "https://dc.lft.to/lastmile_qr_scan", "android": "https://dc.lft.to/lastmile_qr_scan"}, "type": "electric_scooter", "name": "2a611fe898c1e4b35669b9bc27c1d62f", "is_reserved": 0, "lon": -76.95553583333333, "is_disabled": 0, "fusion_lat": 0.0, "lat": 38.9274315, "bike_id": "2a611fe898c1e4b35669b9bc27c1d62f", "fusion_lon": 0.0}, {"rental_uris": {"ios": "https://dc.lft.to/lastmile_qr_scan", "android": "https://dc.lft.to/lastmile_qr_scan"}, "type": "electric_scooter", "name": "64fcfe0a85e7893fe1600616e924f2c7", "is_reserved": 0, "lon": -77.0233605, "is_disabled": 0, "fusion_lat": 0.0, "lat": 38.91786883333333, "bike_id": "64fcfe0a85e7893fe1600616e924f2c7", "fusion_lon": 0.0}, {"rental_uris": {"ios": "https://dc.lft.to/lastmile_qr_scan", "android": "https://dc.lft.to/lastmile_qr_scan"}, "type": "electric_scooter", "name": "3b79f2d90b1b9eba283b4657c9955683", "is_reserved": 0, "lon": -77.018557, "is_disabled": 0, "fusion_lat": 0.0, "lat": 38.9489075, "bike_id": "3b79f2d90b1b9eba283b4657c9955683", "fusion_lon": 0.0}, {"rental_uris": {"ios": "https://dc.lft.to/lastmile_qr_scan", "android": "https://dc.lft.to/lastmile_qr_scan"}, "type": "electric_scooter", "name": "28948f7547641ab2693849d38585f750", "is_reserved": 0, "lon": -77.04212533333333, "is_disabled": 0, "fusion_lat": 0.0, "lat": 38.921315666666665, "bike_id": "28948f7547641ab2693849d38585f750", "fusion_lon": 0.0}, {"rental_uris": {"ios": "https://dc.lft.to/lastmile_qr_scan", "android": "https://dc.lft.to/lastmile_qr_scan"}, "type": "electric_scooter", "name": "f7d644300de43910654355f915307eba", "is_reserved": 0, "lon": -77.03036166666666, "is_disabled": 0, "fusion_lat": 0.0, "lat": 38.88402033333333, "bike_id": "f7d644300de43910654355f915307eba", "fusion_lon": 0.0}, {"rental_uris": {"ios": "https://dc.lft.to/lastmile_qr_scan", "android": "https://dc.lft.to/lastmile_qr_scan"}, "type": "electric_scooter", "name": "0cfc53ee5785e2cef1a1554f47c7d842", "is_reserved": 0, "lon": -77.00346766666667, "is_disabled": 0, "fusion_lat": 0.0, "lat": 38.87670416666667, "bike_id": "0cfc53ee5785e2cef1a1554f47c7d842", "fusion_lon": 0.0}, {"rental_uris": {"ios": "https://dc.lft.to/lastmile_qr_scan", "android": "https://dc.lft.to/lastmile_qr_scan"}, "type": "electric_scooter", "name": "8eb4eaa3a36e279aa2f543cc87de58c3", "is_reserved": 0, "lon": -77.02866516666667, "is_disabled": 0, "fusion_lat": 0.0, "lat": 38.89833466666666, "bike_id": "8eb4eaa3a36e279aa2f543cc87de58c3", "fusion_lon": 0.0}, {"rental_uris": {"ios": "https://dc.lft.to/lastmile_qr_scan", "android": "https://dc.lft.to/lastmile_qr_scan"}, "type": "electric_scooter", "name": "b5bd60dfbda94b5f73efe9389f702c57", "is_reserved": 0, "lon": -77.02294016666667, "is_disabled": 0, "fusion_lat": 0.0, "lat": 38.92332366666667, "bike_id": "b5bd60dfbda94b5f73efe9389f702c57", "fusion_lon": 0.0}, {"rental_uris": {"ios": "https://dc.lft.to/lastmile_qr_scan", "android": "https://dc.lft.to/lastmile_qr_scan"}, "type": "electric_scooter", "name": "d6da241ac416882e7b533a245fb1ae40", "is_reserved": 0, "lon": -77.00200383333333, "is_disabled": 0, "fusion_lat": 0.0, "lat": 38.90240633333333, "bike_id": "d6da241ac416882e7b533a245fb1ae40", "fusion_lon": 0.0}, {"rental_uris": {"ios": "https://dc.lft.to/lastmile_qr_scan", "android": "https://dc.lft.to/lastmile_qr_scan"}, "type": "electric_scooter", "name": "3dd5be9e939e4c5cd4f9f568dff97b7c", "is_reserved": 0, "lon": -77.03799016666666, "is_disabled": 0, "fusion_lat": 0.0, "lat": 38.90138483333333, "bike_id": "3dd5be9e939e4c5cd4f9f568dff97b7c", "fusion_lon": 0.0}, {"rental_uris": {"ios": "https://dc.lft.to/lastmile_qr_scan", "android": "https://dc.lft.to/lastmile_qr_scan"}, "type": "electric_scooter", "name": "0f2ae9dc85d03b12d4e077563349e5b3", "is_reserved": 0, "lon": -77.03906616666667, "is_disabled": 0, "fusion_lat": 0.0, "lat": 38.915441333333334, "bike_id": "0f2ae9dc85d03b12d4e077563349e5b3", "fusion_lon": 0.0}, {"rental_uris": {"ios": "https://dc.lft.to/lastmile_qr_scan", "android": "https://dc.lft.to/lastmile_qr_scan"}, "type": "electric_scooter", "name": "9e2a9c7534e061f74778258cdc4f4d9c", "is_reserved": 0, "lon": -77.0267905, "is_disabled": 0, "fusion_lat": 0.0, "lat": 38.898492166666664, "bike_id": "9e2a9c7534e061f74778258cdc4f4d9c", "fusion_lon": 0.0}, {"rental_uris": {"ios": "https://dc.lft.to/lastmile_qr_scan", "android": "https://dc.lft.to/lastmile_qr_scan"}, "type": "electric_scooter", "name": "558a8f8c50095fa7fcc98887b7144685", "is_reserved": 0, "lon": -76.99438116666667, "is_disabled": 0, "fusion_lat": 0.0, "lat": 38.959229, "bike_id": "558a8f8c50095fa7fcc98887b7144685", "fusion_lon": 0.0}, {"rental_uris": {"ios": "https://dc.lft.to/lastmile_qr_scan", "android": "https://dc.lft.to/lastmile_qr_scan"}, "type": "electric_scooter", "name": "2426d7ff9df508feda2dde839ba2170e", "is_reserved": 0, "lon": -77.038556, "is_disabled": 0, "fusion_lat": 0.0, "lat": 38.91687316666667, "bike_id": "2426d7ff9df508feda2dde839ba2170e", "fusion_lon": 0.0}, {"rental_uris": {"ios": "https://dc.lft.to/lastmile_qr_scan", "android": "https://dc.lft.to/lastmile_qr_scan"}, "type": "electric_scooter", "name": "0a0b74da468a8140ba396b1d6db512c7", "is_reserved": 0, "lon": -76.99507433333333, "is_disabled": 0, "fusion_lat": 0.0, "lat": 38.8619585, "bike_id": "0a0b74da468a8140ba396b1d6db512c7", "fusion_lon": 0.0}, {"rental_uris": {"ios": "https://dc.lft.to/lastmile_qr_scan", "android": "https://dc.lft.to/lastmile_qr_scan"}, "type": "electric_scooter", "name": "343eee143743bf07326a7104bb35e163", "is_reserved": 0, "lon": -77.02272316666667, "is_disabled": 0, "fusion_lat": 0.0, "lat": 38.9262835, "bike_id": "343eee143743bf07326a7104bb35e163", "fusion_lon": 0.0}, {"rental_uris": {"ios": "https://dc.lft.to/lastmile_qr_scan", "android": "https://dc.lft.to/lastmile_qr_scan"}, "type": "electric_scooter", "name": "34d0a6a852d05bf694acaebb3dad118d", "is_reserved": 0, "lon": -76.99276333333333, "is_disabled": 0, "fusion_lat": 0.0, "lat": 38.883078833333336, "bike_id": "34d0a6a852d05bf694acaebb3dad118d", "fusion_lon": 0.0}, {"rental_uris": {"ios": "https://dc.lft.to/lastmile_qr_scan", "android": "https://dc.lft.to/lastmile_qr_scan"}, "type": "electric_scooter", "name": "603392e85299a77189acf91d7998c4a0", "is_reserved": 0, "lon": -77.05741016666667, "is_disabled": 0, "fusion_lat": 0.0, "lat": 38.93340416666667, "bike_id": "603392e85299a77189acf91d7998c4a0", "fusion_lon": 0.0}, {"rental_uris": {"ios": "https://dc.lft.to/lastmile_qr_scan", "android": "https://dc.lft.to/lastmile_qr_scan"}, "type": "electric_scooter", "name": "615ea89952b153b0f0cabcab8786d56a", "is_reserved": 0, "lon": -77.0055785, "is_disabled": 0, "fusion_lat": 0.0, "lat": 38.87471383333333, "bike_id": "615ea89952b153b0f0cabcab8786d56a", "fusion_lon": 0.0}, {"rental_uris": {"ios": "https://dc.lft.to/lastmile_qr_scan", "android": "https://dc.lft.to/lastmile_qr_scan"}, "type": "electric_scooter", "name": "2462736ca967df8dfd07bc1e53ae2d8a", "is_reserved": 0, "lon": -77.042509, "is_disabled": 0, "fusion_lat": 0.0, "lat": 38.922480166666666, "bike_id": "2462736ca967df8dfd07bc1e53ae2d8a", "fusion_lon": 0.0}, {"rental_uris": {"ios": "https://dc.lft.to/lastmile_qr_scan", "android": "https://dc.lft.to/lastmile_qr_scan"}, "type": "electric_scooter", "name": "b865ed7bad33280c02a2478a53e4a8bf", "is_reserved": 0, "lon": -77.02074333333333, "is_disabled": 0, "fusion_lat": 0.0, "lat": 38.921018833333335, "bike_id": "b865ed7bad33280c02a2478a53e4a8bf", "fusion_lon": 0.0}, {"rental_uris": {"ios": "https://dc.lft.to/lastmile_qr_scan", "android": "https://dc.lft.to/lastmile_qr_scan"}, "type": "electric_scooter", "name": "aa3c777019f6f1505b7bf4655d753bf8", "is_reserved": 0, "lon": -77.02027333333334, "is_disabled": 0, "fusion_lat": 0.0, "lat": 38.92438033333333, "bike_id": "aa3c777019f6f1505b7bf4655d753bf8", "fusion_lon": 0.0}, {"rental_uris": {"ios": "https://dc.lft.to/lastmile_qr_scan", "android": "https://dc.lft.to/lastmile_qr_scan"}, "type": "electric_scooter", "name": "bbfc7d03658a1cf1725c91b79dac3028", "is_reserved": 0, "lon": -77.00332166666666, "is_disabled": 0, "fusion_lat": 0.0, "lat": 38.895044166666665, "bike_id": "bbfc7d03658a1cf1725c91b79dac3028", "fusion_lon": 0.0}, {"rental_uris": {"ios": "https://dc.lft.to/lastmile_qr_scan", "android": "https://dc.lft.to/lastmile_qr_scan"}, "type": "electric_scooter", "name": "76dc4612ffdf087fb0b1a28370f90a8f", "is_reserved": 0, "lon": -76.98653316666666, "is_disabled": 0, "fusion_lat": 0.0, "lat": 38.905418833333336, "bike_id": "76dc4612ffdf087fb0b1a28370f90a8f", "fusion_lon": 0.0}, {"rental_uris": {"ios": "https://dc.lft.to/lastmile_qr_scan", "android": "https://dc.lft.to/lastmile_qr_scan"}, "type": "electric_scooter", "name": "d60fd59d6b0ba63bbdc6551d66aa59ca", "is_reserved": 0, "lon": -77.03135866666666, "is_disabled": 0, "fusion_lat": 0.0, "lat": 38.915518666666664, "bike_id": "d60fd59d6b0ba63bbdc6551d66aa59ca", "fusion_lon": 0.0}, {"rental_uris": {"ios": "https://dc.lft.to/lastmile_qr_scan", "android": "https://dc.lft.to/lastmile_qr_scan"}, "type": "electric_scooter", "name": "a13e01add5755c95dcb0a8f4418396b9", "is_reserved": 0, "lon": -77.024598, "is_disabled": 0, "fusion_lat": 0.0, "lat": 38.957798333333336, "bike_id": "a13e01add5755c95dcb0a8f4418396b9", "fusion_lon": 0.0}, {"rental_uris": {"ios": "https://dc.lft.to/lastmile_qr_scan", "android": "https://dc.lft.to/lastmile_qr_scan"}, "type": "electric_scooter", "name": "07f6840d71d4b60f29571af655bfda50", "is_reserved": 0, "lon": -77.00346533333334, "is_disabled": 0, "fusion_lat": 0.0, "lat": 38.890009166666665, "bike_id": "07f6840d71d4b60f29571af655bfda50", "fusion_lon": 0.0}, {"rental_uris": {"ios": "https://dc.lft.to/lastmile_qr_scan", "android": "https://dc.lft.to/lastmile_qr_scan"}, "type": "electric_scooter", "name": "3875db2ea497f059aed34fe4f59620ae", "is_reserved": 0, "lon": -77.02329233333333, "is_disabled": 0, "fusion_lat": 0.0, "lat": 38.928135, "bike_id": "3875db2ea497f059aed34fe4f59620ae", "fusion_lon": 0.0}, {"rental_uris": {"ios": "https://dc.lft.to/lastmile_qr_scan", "android": "https://dc.lft.to/lastmile_qr_scan"}, "type": "electric_scooter", "name": "823c56265edf36be56ffe1f585038877", "is_reserved": 0, "lon": -77.015085, "is_disabled": 0, "fusion_lat": 0.0, "lat": 38.912960166666664, "bike_id": "823c56265edf36be56ffe1f585038877", "fusion_lon": 0.0}, {"rental_uris": {"ios": "https://dc.lft.to/lastmile_qr_scan", "android": "https://dc.lft.to/lastmile_qr_scan"}, "type": "electric_scooter", "name": "0ac8bfec692b629010d589832c3590ce", "is_reserved": 0, "lon": -77.0234135, "is_disabled": 0, "fusion_lat": 0.0, "lat": 38.917658, "bike_id": "0ac8bfec692b629010d589832c3590ce", "fusion_lon": 0.0}, {"rental_uris": {"ios": "https://dc.lft.to/lastmile_qr_scan", "android": "https://dc.lft.to/lastmile_qr_scan"}, "type": "electric_scooter", "name": "098d567bf89d59266a714c61ba7c8b8d", "is_reserved": 0, "lon": -77.0266565, "is_disabled": 0, "fusion_lat": 0.0, "lat": 38.93865233333333, "bike_id": "098d567bf89d59266a714c61ba7c8b8d", "fusion_lon": 0.0}, {"rental_uris": {"ios": "https://dc.lft.to/lastmile_qr_scan", "android": "https://dc.lft.to/lastmile_qr_scan"}, "type": "electric_scooter", "name": "a53f7882d2719782e94049955e2dbf32", "is_reserved": 0, "lon": -77.03295616666666, "is_disabled": 0, "fusion_lat": 0.0, "lat": 38.9288425, "bike_id": "a53f7882d2719782e94049955e2dbf32", "fusion_lon": 0.0}, {"rental_uris": {"ios": "https://dc.lft.to/lastmile_qr_scan", "android": "https://dc.lft.to/lastmile_qr_scan"}, "type": "electric_scooter", "name": "83c1fde9b8cbacd8a986bd124d990f56", "is_reserved": 0, "lon": -77.02337333333334, "is_disabled": 0, "fusion_lat": 0.0, "lat": 38.92713766666667, "bike_id": "83c1fde9b8cbacd8a986bd124d990f56", "fusion_lon": 0.0}, {"rental_uris": {"ios": "https://dc.lft.to/lastmile_qr_scan", "android": "https://dc.lft.to/lastmile_qr_scan"}, "type": "electric_bike", "name": "259cb6f7a51142f786f28c5b06d6ca58", "is_reserved": 0, "lon": -77.10622466666666, "is_disabled": 0, "fusion_lat": 0.0, "lat": 38.87324983333333, "bike_id": "259cb6f7a51142f786f28c5b06d6ca58", "fusion_lon": 0.0}, {"rental_uris": {"ios": "https://dc.lft.to/lastmile_qr_scan", "android": "https://dc.lft.to/lastmile_qr_scan"}, "type": "electric_scooter", "name": "db5eeaa606a2a062a5b1a684de12b250", "is_reserved": 0, "lon": -77.07056266666666, "is_disabled": 0, "fusion_lat": 0.0, "lat": 38.89912966666667, "bike_id": "db5eeaa606a2a062a5b1a684de12b250", "fusion_lon": 0.0}, {"rental_uris": {"ios": "https://dc.lft.to/lastmile_qr_scan", "android": "https://dc.lft.to/lastmile_qr_scan"}, "type": "electric_scooter", "name": "d5989a85ac8382abb20de2f6645a1333", "is_reserved": 0, "lon": -76.923033, "is_disabled": 0, "fusion_lat": 0.0, "lat": 38.8938725, "bike_id": "d5989a85ac8382abb20de2f6645a1333", "fusion_lon": 0.0}, {"rental_uris": {"ios": "https://dc.lft.to/lastmile_qr_scan", "android": "https://dc.lft.to/lastmile_qr_scan"}, "type": "electric_scooter", "name": "a48b2769909145a44f62725eeabdc2c3", "is_reserved": 0, "lon": -77.00756666666666, "is_disabled": 0, "fusion_lat": 0.0, "lat": 38.903701833333336, "bike_id": "a48b2769909145a44f62725eeabdc2c3", "fusion_lon": 0.0}, {"rental_uris": {"ios": "https://dc.lft.to/lastmile_qr_scan", "android": "https://dc.lft.to/lastmile_qr_scan"}, "type": "electric_scooter", "name": "82587e999b4348346331fdc9fe63e59e", "is_reserved": 0, "lon": -77.063823, "is_disabled": 0, "fusion_lat": 0.0, "lat": 38.90521283333333, "bike_id": "82587e999b4348346331fdc9fe63e59e", "fusion_lon": 0.0}, {"rental_uris": {"ios": "https://dc.lft.to/lastmile_qr_scan", "android": "https://dc.lft.to/lastmile_qr_scan"}, "type": "electric_bike", "name": "da0de9e286e814147bd024207aac60c8", "is_reserved": 0, "lon": -76.99550833333333, "is_disabled": 0, "fusion_lat": 0.0, "lat": 38.908199833333335, "bike_id": "da0de9e286e814147bd024207aac60c8", "fusion_lon": 0.0}, {"rental_uris": {"ios": "https://dc.lft.to/lastmile_qr_scan", "android": "https://dc.lft.to/lastmile_qr_scan"}, "type": "electric_bike", "name": "4a56284987068b81b879f0bfb2791991", "is_reserved": 0, "lon": -76.99700366666667, "is_disabled": 0, "fusion_lat": 0.0, "lat": 38.8386235, "bike_id": "4a56284987068b81b879f0bfb2791991", "fusion_lon": 0.0}, {"rental_uris": {"ios": "https://dc.lft.to/lastmile_qr_scan", "android": "https://dc.lft.to/lastmile_qr_scan"}, "type": "electric_scooter", "name": "cbc09ea4415bba443a367ad043a2c743", "is_reserved": 0, "lon": -77.040654, "is_disabled": 0, "fusion_lat": 0.0, "lat": 38.904718, "bike_id": "cbc09ea4415bba443a367ad043a2c743", "fusion_lon": 0.0}, {"rental_uris": {"ios": "https://dc.lft.to/lastmile_qr_scan", "android": "https://dc.lft.to/lastmile_qr_scan"}, "type": "electric_scooter", "name": "84f4c7e1868961b4f06cee1295877f72", "is_reserved": 0, "lon": -77.03824966666667, "is_disabled": 0, "fusion_lat": 0.0, "lat": 38.912692166666666, "bike_id": "84f4c7e1868961b4f06cee1295877f72", "fusion_lon": 0.0}, {"rental_uris": {"ios": "https://dc.lft.to/lastmile_qr_scan", "android": "https://dc.lft.to/lastmile_qr_scan"}, "type": "electric_scooter", "name": "4ddb15216c23d1953a2624dace53dcac", "is_reserved": 0, "lon": -77.02207083333333, "is_disabled": 0, "fusion_lat": 0.0, "lat": 38.879556666666666, "bike_id": "4ddb15216c23d1953a2624dace53dcac", "fusion_lon": 0.0}, {"rental_uris": {"ios": "https://dc.lft.to/lastmile_qr_scan", "android": "https://dc.lft.to/lastmile_qr_scan"}, "type": "electric_scooter", "name": "6f04694b1021f21ba4a7f45ab2dc7282", "is_reserved": 0, "lon": -77.0200635, "is_disabled": 0, "fusion_lat": 0.0, "lat": 38.899339166666664, "bike_id": "6f04694b1021f21ba4a7f45ab2dc7282", "fusion_lon": 0.0}, {"rental_uris": {"ios": "https://dc.lft.to/lastmile_qr_scan", "android": "https://dc.lft.to/lastmile_qr_scan"}, "type": "electric_bike", "name": "29d0e40d892915412b1297ae54b74df8", "is_reserved": 0, "lon": -76.9927535, "is_disabled": 0, "fusion_lat": 0.0, "lat": 38.97258033333333, "bike_id": "29d0e40d892915412b1297ae54b74df8", "fusion_lon": 0.0}, {"rental_uris": {"ios": "https://dc.lft.to/lastmile_qr_scan", "android": "https://dc.lft.to/lastmile_qr_scan"}, "type": "electric_scooter", "name": "452a38132be15752906bf4b354bf71ee", "is_reserved": 0, "lon": -77.03973066666667, "is_disabled": 0, "fusion_lat": 0.0, "lat": 38.9024405, "bike_id": "452a38132be15752906bf4b354bf71ee", "fusion_lon": 0.0}, {"rental_uris": {"ios": "https://dc.lft.to/lastmile_qr_scan", "android": "https://dc.lft.to/lastmile_qr_scan"}, "type": "electric_scooter", "name": "23a1e4cf5547600a2ae035066aa56dd1", "is_reserved": 0, "lon": -77.02778766666667, "is_disabled": 0, "fusion_lat": 0.0, "lat": 38.892216833333336, "bike_id": "23a1e4cf5547600a2ae035066aa56dd1", "fusion_lon": 0.0}, {"rental_uris": {"ios": "https://dc.lft.to/lastmile_qr_scan", "android": "https://dc.lft.to/lastmile_qr_scan"}, "type": "electric_scooter", "name": "dd47e72b45a149e3d3b5286d029611cf", "is_reserved": 0, "lon": -77.04206066666667, "is_disabled": 0, "fusion_lat": 0.0, "lat": 38.899192, "bike_id": "dd47e72b45a149e3d3b5286d029611cf", "fusion_lon": 0.0}, {"rental_uris": {"ios": "https://dc.lft.to/lastmile_qr_scan", "android": "https://dc.lft.to/lastmile_qr_scan"}, "type": "electric_scooter", "name": "11bcbf740301228d77a7c3bd986bfc21", "is_reserved": 0, "lon": -77.02837616666666, "is_disabled": 0, "fusion_lat": 0.0, "lat": 38.892297, "bike_id": "11bcbf740301228d77a7c3bd986bfc21", "fusion_lon": 0.0}, {"rental_uris": {"ios": "https://dc.lft.to/lastmile_qr_scan", "android": "https://dc.lft.to/lastmile_qr_scan"}, "type": "electric_scooter", "name": "448df77e79ae880e7ac2fbf20013fc30", "is_reserved": 0, "lon": -77.006109, "is_disabled": 0, "fusion_lat": 0.0, "lat": 38.8765315, "bike_id": "448df77e79ae880e7ac2fbf20013fc30", "fusion_lon": 0.0}, {"rental_uris": {"ios": "https://dc.lft.to/lastmile_qr_scan", "android": "https://dc.lft.to/lastmile_qr_scan"}, "type": "electric_scooter", "name": "4fa36ac78ef80f14bf17165927899516", "is_reserved": 0, "lon": -77.03295016666667, "is_disabled": 0, "fusion_lat": 0.0, "lat": 38.920451, "bike_id": "4fa36ac78ef80f14bf17165927899516", "fusion_lon": 0.0}, {"rental_uris": {"ios": "https://dc.lft.to/lastmile_qr_scan", "android": "https://dc.lft.to/lastmile_qr_scan"}, "type": "electric_scooter", "name": "75e694e39d0dc360612c8e15ef54fa16", "is_reserved": 0, "lon": -77.04011516666667, "is_disabled": 0, "fusion_lat": 0.0, "lat": 38.925791333333336, "bike_id": "75e694e39d0dc360612c8e15ef54fa16", "fusion_lon": 0.0}, {"rental_uris": {"ios": "https://dc.lft.to/lastmile_qr_scan", "android": "https://dc.lft.to/lastmile_qr_scan"}, "type": "electric_scooter", "name": "91f27f1cef2403b798368a7d40199e6e", "is_reserved": 0, "lon": -77.046487, "is_disabled": 0, "fusion_lat": 0.0, "lat": 38.90720833333334, "bike_id": "91f27f1cef2403b798368a7d40199e6e", "fusion_lon": 0.0}, {"rental_uris": {"ios": "https://dc.lft.to/lastmile_qr_scan", "android": "https://dc.lft.to/lastmile_qr_scan"}, "type": "electric_bike", "name": "750551130f2ae35b0c4140d3e385c7f5", "is_reserved": 0, "lon": -76.9689075, "is_disabled": 0, "fusion_lat": 0.0, "lat": 38.869841, "bike_id": "750551130f2ae35b0c4140d3e385c7f5", "fusion_lon": 0.0}, {"rental_uris": {"ios": "https://dc.lft.to/lastmile_qr_scan", "android": "https://dc.lft.to/lastmile_qr_scan"}, "type": "electric_scooter", "name": "89350294bc75d317c6126081c7cd00e5", "is_reserved": 0, "lon": -77.04454, "is_disabled": 0, "fusion_lat": 0.0, "lat": 38.91015433333333, "bike_id": "89350294bc75d317c6126081c7cd00e5", "fusion_lon": 0.0}, {"rental_uris": {"ios": "https://dc.lft.to/lastmile_qr_scan", "android": "https://dc.lft.to/lastmile_qr_scan"}, "type": "electric_scooter", "name": "5db028e9cc1fca29402ece923aaf63d7", "is_reserved": 0, "lon": -77.03216716666667, "is_disabled": 0, "fusion_lat": 0.0, "lat": 38.9164235, "bike_id": "5db028e9cc1fca29402ece923aaf63d7", "fusion_lon": 0.0}, {"rental_uris": {"ios": "https://dc.lft.to/lastmile_qr_scan", "android": "https://dc.lft.to/lastmile_qr_scan"}, "type": "electric_scooter", "name": "4330c7919e03c540cda8bf7828c0305b", "is_reserved": 0, "lon": -77.03927333333333, "is_disabled": 0, "fusion_lat": 0.0, "lat": 38.9014755, "bike_id": "4330c7919e03c540cda8bf7828c0305b", "fusion_lon": 0.0}, {"rental_uris": {"ios": "https://dc.lft.to/lastmile_qr_scan", "android": "https://dc.lft.to/lastmile_qr_scan"}, "type": "electric_scooter", "name": "1010a58bc94e1e2d3508b7066855ebcf", "is_reserved": 0, "lon": -77.03808216666667, "is_disabled": 0, "fusion_lat": 0.0, "lat": 38.933349, "bike_id": "1010a58bc94e1e2d3508b7066855ebcf", "fusion_lon": 0.0}, {"rental_uris": {"ios": "https://dc.lft.to/lastmile_qr_scan", "android": "https://dc.lft.to/lastmile_qr_scan"}, "type": "electric_scooter", "name": "f0f11d3d092f300b81c2d7279f73d268", "is_reserved": 0, "lon": -76.98552466666666, "is_disabled": 0, "fusion_lat": 0.0, "lat": 38.859961166666665, "bike_id": "f0f11d3d092f300b81c2d7279f73d268", "fusion_lon": 0.0}, {"rental_uris": {"ios": "https://dc.lft.to/lastmile_qr_scan", "android": "https://dc.lft.to/lastmile_qr_scan"}, "type": "electric_scooter", "name": "adf068d1168bb003d84420dc043c9e2c", "is_reserved": 0, "lon": -77.03863333333334, "is_disabled": 0, "fusion_lat": 0.0, "lat": 38.908029666666664, "bike_id": "adf068d1168bb003d84420dc043c9e2c", "fusion_lon": 0.0}, {"rental_uris": {"ios": "https://dc.lft.to/lastmile_qr_scan", "android": "https://dc.lft.to/lastmile_qr_scan"}, "type": "electric_scooter", "name": "b5c6df5ed843c661e9e8ad91623e3229", "is_reserved": 0, "lon": -76.99929266666666, "is_disabled": 0, "fusion_lat": 0.0, "lat": 38.957601833333335, "bike_id": "b5c6df5ed843c661e9e8ad91623e3229", "fusion_lon": 0.0}, {"rental_uris": {"ios": "https://dc.lft.to/lastmile_qr_scan", "android": "https://dc.lft.to/lastmile_qr_scan"}, "type": "electric_scooter", "name": "2ceb0a48776ccb6d9d8a89cc04bba79e", "is_reserved": 0, "lon": -77.0329385, "is_disabled": 0, "fusion_lat": 0.0, "lat": 38.904368833333336, "bike_id": "2ceb0a48776ccb6d9d8a89cc04bba79e", "fusion_lon": 0.0}, {"rental_uris": {"ios": "https://dc.lft.to/lastmile_qr_scan", "android": "https://dc.lft.to/lastmile_qr_scan"}, "type": "electric_scooter", "name": "d583f2b00690fc5f68bd670ee32523fa", "is_reserved": 0, "lon": -77.05243966666667, "is_disabled": 0, "fusion_lat": 0.0, "lat": 38.90004, "bike_id": "d583f2b00690fc5f68bd670ee32523fa", "fusion_lon": 0.0}, {"rental_uris": {"ios": "https://dc.lft.to/lastmile_qr_scan", "android": "https://dc.lft.to/lastmile_qr_scan"}, "type": "electric_scooter", "name": "697d658f81e3ff0a0ad5ebf7e86a282f", "is_reserved": 0, "lon": -77.017575, "is_disabled": 0, "fusion_lat": 0.0, "lat": 38.920333, "bike_id": "697d658f81e3ff0a0ad5ebf7e86a282f", "fusion_lon": 0.0}, {"rental_uris": {"ios": "https://dc.lft.to/lastmile_qr_scan", "android": "https://dc.lft.to/lastmile_qr_scan"}, "type": "electric_scooter", "name": "50e32cb8161097c3b600b68b7888150c", "is_reserved": 0, "lon": -77.04246733333333, "is_disabled": 0, "fusion_lat": 0.0, "lat": 38.90428516666667, "bike_id": "50e32cb8161097c3b600b68b7888150c", "fusion_lon": 0.0}, {"rental_uris": {"ios": "https://dc.lft.to/lastmile_qr_scan", "android": "https://dc.lft.to/lastmile_qr_scan"}, "type": "electric_scooter", "name": "63340c55e006fa0d3efdac8fa5c8b45e", "is_reserved": 0, "lon": -77.00778966666667, "is_disabled": 0, "fusion_lat": 0.0, "lat": 38.89734266666667, "bike_id": "63340c55e006fa0d3efdac8fa5c8b45e", "fusion_lon": 0.0}, {"rental_uris": {"ios": "https://dc.lft.to/lastmile_qr_scan", "android": "https://dc.lft.to/lastmile_qr_scan"}, "type": "electric_scooter", "name": "6ed370fd947cf709c2fb1b907d902f9d", "is_reserved": 0, "lon": -76.951937, "is_disabled": 0, "fusion_lat": 0.0, "lat": 38.90510066666667, "bike_id": "6ed370fd947cf709c2fb1b907d902f9d", "fusion_lon": 0.0}, {"rental_uris": {"ios": "https://dc.lft.to/lastmile_qr_scan", "android": "https://dc.lft.to/lastmile_qr_scan"}, "type": "electric_bike", "name": "331844654e28c371d1bfb8a1716748bf", "is_reserved": 0, "lon": -76.93749366666667, "is_disabled": 0, "fusion_lat": 0.0, "lat": 38.871490666666666, "bike_id": "331844654e28c371d1bfb8a1716748bf", "fusion_lon": 0.0}, {"rental_uris": {"ios": "https://dc.lft.to/lastmile_qr_scan", "android": "https://dc.lft.to/lastmile_qr_scan"}, "type": "electric_scooter", "name": "dee444a4d544b704da2ce4a0690bfaee", "is_reserved": 0, "lon": -77.0230595, "is_disabled": 0, "fusion_lat": 0.0, "lat": 38.92992516666666, "bike_id": "dee444a4d544b704da2ce4a0690bfaee", "fusion_lon": 0.0}, {"rental_uris": {"ios": "https://dc.lft.to/lastmile_qr_scan", "android": "https://dc.lft.to/lastmile_qr_scan"}, "type": "electric_scooter", "name": "90ef766065fd4414f7c1171459043fa5", "is_reserved": 0, "lon": -77.01742683333333, "is_disabled": 0, "fusion_lat": 0.0, "lat": 38.900596, "bike_id": "90ef766065fd4414f7c1171459043fa5", "fusion_lon": 0.0}, {"rental_uris": {"ios": "https://dc.lft.to/lastmile_qr_scan", "android": "https://dc.lft.to/lastmile_qr_scan"}, "type": "electric_scooter", "name": "0fad3926f56dd247d6ac68e3644b674e", "is_reserved": 0, "lon": -77.08779433333333, "is_disabled": 0, "fusion_lat": 0.0, "lat": 38.93555166666667, "bike_id": "0fad3926f56dd247d6ac68e3644b674e", "fusion_lon": 0.0}, {"rental_uris": {"ios": "https://dc.lft.to/lastmile_qr_scan", "android": "https://dc.lft.to/lastmile_qr_scan"}, "type": "electric_scooter", "name": "eaf34f556bb32f87b98436dc7d579a64", "is_reserved": 0, "lon": -77.032136, "is_disabled": 0, "fusion_lat": 0.0, "lat": 38.91708233333333, "bike_id": "eaf34f556bb32f87b98436dc7d579a64", "fusion_lon": 0.0}, {"rental_uris": {"ios": "https://dc.lft.to/lastmile_qr_scan", "android": "https://dc.lft.to/lastmile_qr_scan"}, "type": "electric_bike", "name": "43095a82ecb2a61859ae9b54fc931118", "is_reserved": 0, "lon": -77.11284083333334, "is_disabled": 0, "fusion_lat": 0.0, "lat": 38.831042833333335, "bike_id": "43095a82ecb2a61859ae9b54fc931118", "fusion_lon": 0.0}, {"rental_uris": {"ios": "https://dc.lft.to/lastmile_qr_scan", "android": "https://dc.lft.to/lastmile_qr_scan"}, "type": "electric_scooter", "name": "a185db34d31fd0d88a39c0118f86fe06", "is_reserved": 0, "lon": -77.04171866666667, "is_disabled": 0, "fusion_lat": 0.0, "lat": 38.899663, "bike_id": "a185db34d31fd0d88a39c0118f86fe06", "fusion_lon": 0.0}, {"rental_uris": {"ios": "https://dc.lft.to/lastmile_qr_scan", "android": "https://dc.lft.to/lastmile_qr_scan"}, "type": "electric_scooter", "name": "96380a4a09fbdd929e5475a76011d378", "is_reserved": 0, "lon": -77.036027, "is_disabled": 0, "fusion_lat": 0.0, "lat": 38.917014, "bike_id": "96380a4a09fbdd929e5475a76011d378", "fusion_lon": 0.0}, {"rental_uris": {"ios": "https://dc.lft.to/lastmile_qr_scan", "android": "https://dc.lft.to/lastmile_qr_scan"}, "type": "electric_scooter", "name": "4ba1df2199206d1c573e6476a0166583", "is_reserved": 0, "lon": -77.03294033333333, "is_disabled": 0, "fusion_lat": 0.0, "lat": 38.93500266666667, "bike_id": "4ba1df2199206d1c573e6476a0166583", "fusion_lon": 0.0}, {"rental_uris": {"ios": "https://dc.lft.to/lastmile_qr_scan", "android": "https://dc.lft.to/lastmile_qr_scan"}, "type": "electric_bike", "name": "9165bdc56332e59c00af7e8ef1d713a1", "is_reserved": 0, "lon": -76.99324966666667, "is_disabled": 0, "fusion_lat": 0.0, "lat": 38.93248333333333, "bike_id": "9165bdc56332e59c00af7e8ef1d713a1", "fusion_lon": 0.0}, {"rental_uris": {"ios": "https://dc.lft.to/lastmile_qr_scan", "android": "https://dc.lft.to/lastmile_qr_scan"}, "type": "electric_scooter", "name": "be06442d8a2ccd0c5f3a6ec019499c32", "is_reserved": 0, "lon": -77.06318516666667, "is_disabled": 0, "fusion_lat": 0.0, "lat": 38.9133905, "bike_id": "be06442d8a2ccd0c5f3a6ec019499c32", "fusion_lon": 0.0}, {"rental_uris": {"ios": "https://dc.lft.to/lastmile_qr_scan", "android": "https://dc.lft.to/lastmile_qr_scan"}, "type": "electric_scooter", "name": "9787fee4ac9b2bc1472a8d135aa3b6cb", "is_reserved": 0, "lon": -77.0066575, "is_disabled": 0, "fusion_lat": 0.0, "lat": 38.90564533333333, "bike_id": "9787fee4ac9b2bc1472a8d135aa3b6cb", "fusion_lon": 0.0}, {"rental_uris": {"ios": "https://dc.lft.to/lastmile_qr_scan", "android": "https://dc.lft.to/lastmile_qr_scan"}, "type": "electric_scooter", "name": "1ed481eab6c592a9586a085f2ebe6821", "is_reserved": 0, "lon": -77.01081616666667, "is_disabled": 0, "fusion_lat": 0.0, "lat": 38.911950166666664, "bike_id": "1ed481eab6c592a9586a085f2ebe6821", "fusion_lon": 0.0}, {"rental_uris": {"ios": "https://dc.lft.to/lastmile_qr_scan", "android": "https://dc.lft.to/lastmile_qr_scan"}, "type": "electric_scooter", "name": "6903366166f693430357d6ff99e3e30f", "is_reserved": 0, "lon": -77.0042875, "is_disabled": 0, "fusion_lat": 0.0, "lat": 38.876616166666665, "bike_id": "6903366166f693430357d6ff99e3e30f", "fusion_lon": 0.0}, {"rental_uris": {"ios": "https://dc.lft.to/lastmile_qr_scan", "android": "https://dc.lft.to/lastmile_qr_scan"}, "type": "electric_scooter", "name": "750e8f7c341a5dbd4d8423c56debc113", "is_reserved": 0, "lon": -77.024333, "is_disabled": 0, "fusion_lat": 0.0, "lat": 38.94199233333333, "bike_id": "750e8f7c341a5dbd4d8423c56debc113", "fusion_lon": 0.0}, {"rental_uris": {"ios": "https://dc.lft.to/lastmile_qr_scan", "android": "https://dc.lft.to/lastmile_qr_scan"}, "type": "electric_scooter", "name": "777bd11c5310eefc286ea15526d69c6b", "is_reserved": 0, "lon": -77.02292416666667, "is_disabled": 0, "fusion_lat": 0.0, "lat": 38.90758, "bike_id": "777bd11c5310eefc286ea15526d69c6b", "fusion_lon": 0.0}, {"rental_uris": {"ios": "https://dc.lft.to/lastmile_qr_scan", "android": "https://dc.lft.to/lastmile_qr_scan"}, "type": "electric_scooter", "name": "cda9082e254e062e6b8071647f37fe00", "is_reserved": 0, "lon": -77.00855916666667, "is_disabled": 0, "fusion_lat": 0.0, "lat": 38.923983166666666, "bike_id": "cda9082e254e062e6b8071647f37fe00", "fusion_lon": 0.0}, {"rental_uris": {"ios": "https://dc.lft.to/lastmile_qr_scan", "android": "https://dc.lft.to/lastmile_qr_scan"}, "type": "electric_scooter", "name": "6335819c24661e6ac59f38f79b16071e", "is_reserved": 0, "lon": -76.9732615, "is_disabled": 0, "fusion_lat": 0.0, "lat": 38.90409283333334, "bike_id": "6335819c24661e6ac59f38f79b16071e", "fusion_lon": 0.0}, {"rental_uris": {"ios": "https://dc.lft.to/lastmile_qr_scan", "android": "https://dc.lft.to/lastmile_qr_scan"}, "type": "electric_scooter", "name": "dd1575e93c89ffe615620cdaa5c370a6", "is_reserved": 0, "lon": -77.04647666666666, "is_disabled": 0, "fusion_lat": 0.0, "lat": 38.89623483333333, "bike_id": "dd1575e93c89ffe615620cdaa5c370a6", "fusion_lon": 0.0}, {"rental_uris": {"ios": "https://dc.lft.to/lastmile_qr_scan", "android": "https://dc.lft.to/lastmile_qr_scan"}, "type": "electric_scooter", "name": "306688dda4c0cc284049bd8c94cb24a2", "is_reserved": 0, "lon": -77.02414833333333, "is_disabled": 0, "fusion_lat": 0.0, "lat": 38.918500333333334, "bike_id": "306688dda4c0cc284049bd8c94cb24a2", "fusion_lon": 0.0}, {"rental_uris": {"ios": "https://dc.lft.to/lastmile_qr_scan", "android": "https://dc.lft.to/lastmile_qr_scan"}, "type": "electric_scooter", "name": "38e81078b551a04083306682a6bcd654", "is_reserved": 0, "lon": -77.01989233333333, "is_disabled": 0, "fusion_lat": 0.0, "lat": 38.910492, "bike_id": "38e81078b551a04083306682a6bcd654", "fusion_lon": 0.0}, {"rental_uris": {"ios": "https://dc.lft.to/lastmile_qr_scan", "android": "https://dc.lft.to/lastmile_qr_scan"}, "type": "electric_scooter", "name": "d8dc76bf5dfab71a27cef74d7bb2cf8f", "is_reserved": 0, "lon": -77.04348733333333, "is_disabled": 0, "fusion_lat": 0.0, "lat": 38.92170866666667, "bike_id": "d8dc76bf5dfab71a27cef74d7bb2cf8f", "fusion_lon": 0.0}, {"rental_uris": {"ios": "https://dc.lft.to/lastmile_qr_scan", "android": "https://dc.lft.to/lastmile_qr_scan"}, "type": "electric_scooter", "name": "0c0861f5c4a1946a31c5f07dfd8f3d9f", "is_reserved": 0, "lon": -77.040536, "is_disabled": 0, "fusion_lat": 0.0, "lat": 38.901339666666665, "bike_id": "0c0861f5c4a1946a31c5f07dfd8f3d9f", "fusion_lon": 0.0}, {"rental_uris": {"ios": "https://dc.lft.to/lastmile_qr_scan", "android": "https://dc.lft.to/lastmile_qr_scan"}, "type": "electric_scooter", "name": "c359ecf9d28e534f78f2e22940c84be2", "is_reserved": 0, "lon": -76.99588616666666, "is_disabled": 0, "fusion_lat": 0.0, "lat": 38.90942316666667, "bike_id": "c359ecf9d28e534f78f2e22940c84be2", "fusion_lon": 0.0}, {"rental_uris": {"ios": "https://dc.lft.to/lastmile_qr_scan", "android": "https://dc.lft.to/lastmile_qr_scan"}, "type": "electric_scooter", "name": "6fb64489906204ec4fc7b82a12a22e95", "is_reserved": 0, "lon": -77.0420175, "is_disabled": 0, "fusion_lat": 0.0, "lat": 38.921124666666664, "bike_id": "6fb64489906204ec4fc7b82a12a22e95", "fusion_lon": 0.0}, {"rental_uris": {"ios": "https://dc.lft.to/lastmile_qr_scan", "android": "https://dc.lft.to/lastmile_qr_scan"}, "type": "electric_scooter", "name": "f6948bd88552867685930a0d53d132a3", "is_reserved": 0, "lon": -77.04559966666666, "is_disabled": 0, "fusion_lat": 0.0, "lat": 38.91829, "bike_id": "f6948bd88552867685930a0d53d132a3", "fusion_lon": 0.0}, {"rental_uris": {"ios": "https://dc.lft.to/lastmile_qr_scan", "android": "https://dc.lft.to/lastmile_qr_scan"}, "type": "electric_scooter", "name": "910865031b88ee0ae8b49720dfaaa08e", "is_reserved": 0, "lon": -77.0219395, "is_disabled": 0, "fusion_lat": 0.0, "lat": 38.9112465, "bike_id": "910865031b88ee0ae8b49720dfaaa08e", "fusion_lon": 0.0}, {"rental_uris": {"ios": "https://dc.lft.to/lastmile_qr_scan", "android": "https://dc.lft.to/lastmile_qr_scan"}, "type": "electric_scooter", "name": "2552d4d5b43141af511bcd95692f4e53", "is_reserved": 0, "lon": -77.028378, "is_disabled": 0, "fusion_lat": 0.0, "lat": 38.91402733333334, "bike_id": "2552d4d5b43141af511bcd95692f4e53", "fusion_lon": 0.0}, {"rental_uris": {"ios": "https://dc.lft.to/lastmile_qr_scan", "android": "https://dc.lft.to/lastmile_qr_scan"}, "type": "electric_scooter", "name": "a52c10c2fa73a83dc1c60f6fc5329946", "is_reserved": 0, "lon": -77.015162, "is_disabled": 0, "fusion_lat": 0.0, "lat": 38.884321166666666, "bike_id": "a52c10c2fa73a83dc1c60f6fc5329946", "fusion_lon": 0.0}, {"rental_uris": {"ios": "https://dc.lft.to/lastmile_qr_scan", "android": "https://dc.lft.to/lastmile_qr_scan"}, "type": "electric_scooter", "name": "64671299c68b595fb4dd34a6a6eb1db3", "is_reserved": 0, "lon": -77.03080166666666, "is_disabled": 0, "fusion_lat": 0.0, "lat": 38.93304916666666, "bike_id": "64671299c68b595fb4dd34a6a6eb1db3", "fusion_lon": 0.0}, {"rental_uris": {"ios": "https://dc.lft.to/lastmile_qr_scan", "android": "https://dc.lft.to/lastmile_qr_scan"}, "type": "electric_bike", "name": "509196514b5c373f342ae5ec43fca365", "is_reserved": 0, "lon": -77.22824416666667, "is_disabled": 0, "fusion_lat": 0.0, "lat": 38.882692, "bike_id": "509196514b5c373f342ae5ec43fca365", "fusion_lon": 0.0}, {"rental_uris": {"ios": "https://dc.lft.to/lastmile_qr_scan", "android": "https://dc.lft.to/lastmile_qr_scan"}, "type": "electric_scooter", "name": "306e9d8567478292dff36bf59850c1ee", "is_reserved": 0, "lon": -77.0433655, "is_disabled": 0, "fusion_lat": 0.0, "lat": 38.892219833333336, "bike_id": "306e9d8567478292dff36bf59850c1ee", "fusion_lon": 0.0}, {"rental_uris": {"ios": "https://dc.lft.to/lastmile_qr_scan", "android": "https://dc.lft.to/lastmile_qr_scan"}, "type": "electric_scooter", "name": "750ac32e87d91e030a8f8c53d0f6b260", "is_reserved": 0, "lon": -77.00773683333334, "is_disabled": 0, "fusion_lat": 0.0, "lat": 38.9524265, "bike_id": "750ac32e87d91e030a8f8c53d0f6b260", "fusion_lon": 0.0}, {"rental_uris": {"ios": "https://dc.lft.to/lastmile_qr_scan", "android": "https://dc.lft.to/lastmile_qr_scan"}, "type": "electric_scooter", "name": "96286946a9a60f68f0f22d6798979202", "is_reserved": 0, "lon": -77.02495416666666, "is_disabled": 0, "fusion_lat": 0.0, "lat": 38.919303166666666, "bike_id": "96286946a9a60f68f0f22d6798979202", "fusion_lon": 0.0}, {"rental_uris": {"ios": "https://dc.lft.to/lastmile_qr_scan", "android": "https://dc.lft.to/lastmile_qr_scan"}, "type": "electric_scooter", "name": "b0a2ce3e6d5f40275be76f620152bc97", "is_reserved": 0, "lon": -77.03556633333334, "is_disabled": 0, "fusion_lat": 0.0, "lat": 38.90474783333333, "bike_id": "b0a2ce3e6d5f40275be76f620152bc97", "fusion_lon": 0.0}, {"rental_uris": {"ios": "https://dc.lft.to/lastmile_qr_scan", "android": "https://dc.lft.to/lastmile_qr_scan"}, "type": "electric_scooter", "name": "e40dbaf3984e57635d789d2d4fa06c7b", "is_reserved": 0, "lon": -77.039275, "is_disabled": 0, "fusion_lat": 0.0, "lat": 38.92475133333333, "bike_id": "e40dbaf3984e57635d789d2d4fa06c7b", "fusion_lon": 0.0}, {"rental_uris": {"ios": "https://dc.lft.to/lastmile_qr_scan", "android": "https://dc.lft.to/lastmile_qr_scan"}, "type": "electric_bike", "name": "842d8ade3c8b3c63b6156625e93c40ee", "is_reserved": 0, "lon": -77.02516033333333, "is_disabled": 0, "fusion_lat": 0.0, "lat": 38.880378, "bike_id": "842d8ade3c8b3c63b6156625e93c40ee", "fusion_lon": 0.0}, {"rental_uris": {"ios": "https://dc.lft.to/lastmile_qr_scan", "android": "https://dc.lft.to/lastmile_qr_scan"}, "type": "electric_scooter", "name": "d5103dfb2107ca28d8bc1d157a91d749", "is_reserved": 0, "lon": -77.0422985, "is_disabled": 0, "fusion_lat": 0.0, "lat": 38.921547833333335, "bike_id": "d5103dfb2107ca28d8bc1d157a91d749", "fusion_lon": 0.0}, {"rental_uris": {"ios": "https://dc.lft.to/lastmile_qr_scan", "android": "https://dc.lft.to/lastmile_qr_scan"}, "type": "electric_scooter", "name": "7bde04eeafc8bf1ec8e1d11ab826829f", "is_reserved": 0, "lon": -76.94963, "is_disabled": 0, "fusion_lat": 0.0, "lat": 38.89473183333333, "bike_id": "7bde04eeafc8bf1ec8e1d11ab826829f", "fusion_lon": 0.0}, {"rental_uris": {"ios": "https://dc.lft.to/lastmile_qr_scan", "android": "https://dc.lft.to/lastmile_qr_scan"}, "type": "electric_scooter", "name": "b01adfa34599cd26423973f17e806c1c", "is_reserved": 0, "lon": -77.013166, "is_disabled": 0, "fusion_lat": 0.0, "lat": 38.956501833333334, "bike_id": "b01adfa34599cd26423973f17e806c1c", "fusion_lon": 0.0}, {"rental_uris": {"ios": "https://dc.lft.to/lastmile_qr_scan", "android": "https://dc.lft.to/lastmile_qr_scan"}, "type": "electric_scooter", "name": "631dab7005224590cf571f472b1546cc", "is_reserved": 0, "lon": -76.9304005, "is_disabled": 0, "fusion_lat": 0.0, "lat": 38.883906333333336, "bike_id": "631dab7005224590cf571f472b1546cc", "fusion_lon": 0.0}, {"rental_uris": {"ios": "https://dc.lft.to/lastmile_qr_scan", "android": "https://dc.lft.to/lastmile_qr_scan"}, "type": "electric_scooter", "name": "2b6b8394ea57649bcbf3b668ed57a891", "is_reserved": 0, "lon": -77.0015605, "is_disabled": 0, "fusion_lat": 0.0, "lat": 38.821350333333335, "bike_id": "2b6b8394ea57649bcbf3b668ed57a891", "fusion_lon": 0.0}, {"rental_uris": {"ios": "https://dc.lft.to/lastmile_qr_scan", "android": "https://dc.lft.to/lastmile_qr_scan"}, "type": "electric_bike", "name": "f020e08e5e4da5a5dbd7efb7a17130de", "is_reserved": 0, "lon": -76.95158216666667, "is_disabled": 0, "fusion_lat": 0.0, "lat": 39.0843375, "bike_id": "f020e08e5e4da5a5dbd7efb7a17130de", "fusion_lon": 0.0}, {"rental_uris": {"ios": "https://dc.lft.to/lastmile_qr_scan", "android": "https://dc.lft.to/lastmile_qr_scan"}, "type": "electric_scooter", "name": "cec186f08354a26aedb09362fdcb638c", "is_reserved": 0, "lon": -77.03961, "is_disabled": 0, "fusion_lat": 0.0, "lat": 38.8986395, "bike_id": "cec186f08354a26aedb09362fdcb638c", "fusion_lon": 0.0}, {"rental_uris": {"ios": "https://dc.lft.to/lastmile_qr_scan", "android": "https://dc.lft.to/lastmile_qr_scan"}, "type": "electric_scooter", "name": "5703176f162db836dfa91df3a4e2249e", "is_reserved": 0, "lon": -77.0586595, "is_disabled": 0, "fusion_lat": 0.0, "lat": 38.942447666666666, "bike_id": "5703176f162db836dfa91df3a4e2249e", "fusion_lon": 0.0}, {"rental_uris": {"ios": "https://dc.lft.to/lastmile_qr_scan", "android": "https://dc.lft.to/lastmile_qr_scan"}, "type": "electric_scooter", "name": "958746558b10e714aeded1a00290c115", "is_reserved": 0, "lon": -77.06766466666667, "is_disabled": 0, "fusion_lat": 0.0, "lat": 38.9041115, "bike_id": "958746558b10e714aeded1a00290c115", "fusion_lon": 0.0}, {"rental_uris": {"ios": "https://dc.lft.to/lastmile_qr_scan", "android": "https://dc.lft.to/lastmile_qr_scan"}, "type": "electric_scooter", "name": "4987fb00a1096601158fdb3d30db1f4d", "is_reserved": 0, "lon": -77.019414, "is_disabled": 0, "fusion_lat": 0.0, "lat": 38.92378633333333, "bike_id": "4987fb00a1096601158fdb3d30db1f4d", "fusion_lon": 0.0}, {"rental_uris": {"ios": "https://dc.lft.to/lastmile_qr_scan", "android": "https://dc.lft.to/lastmile_qr_scan"}, "type": "electric_scooter", "name": "299e19268bcf7aa0427e88f5696e46a4", "is_reserved": 0, "lon": -77.04214133333333, "is_disabled": 0, "fusion_lat": 0.0, "lat": 38.923002833333335, "bike_id": "299e19268bcf7aa0427e88f5696e46a4", "fusion_lon": 0.0}, {"rental_uris": {"ios": "https://dc.lft.to/lastmile_qr_scan", "android": "https://dc.lft.to/lastmile_qr_scan"}, "type": "electric_scooter", "name": "f57167b9c29dc8c65272beb2615c26c4", "is_reserved": 0, "lon": -77.031096, "is_disabled": 0, "fusion_lat": 0.0, "lat": 38.921135, "bike_id": "f57167b9c29dc8c65272beb2615c26c4", "fusion_lon": 0.0}, {"rental_uris": {"ios": "https://dc.lft.to/lastmile_qr_scan", "android": "https://dc.lft.to/lastmile_qr_scan"}, "type": "electric_scooter", "name": "5d2397e0f2ef68ebed5a4eb89d894840", "is_reserved": 0, "lon": -77.03898, "is_disabled": 0, "fusion_lat": 0.0, "lat": 38.924368333333334, "bike_id": "5d2397e0f2ef68ebed5a4eb89d894840", "fusion_lon": 0.0}, {"rental_uris": {"ios": "https://dc.lft.to/lastmile_qr_scan", "android": "https://dc.lft.to/lastmile_qr_scan"}, "type": "electric_scooter", "name": "d4ce1fd53dfcc9bc86d0c55a448ab44e", "is_reserved": 0, "lon": -76.9951995, "is_disabled": 0, "fusion_lat": 0.0, "lat": 38.8836845, "bike_id": "d4ce1fd53dfcc9bc86d0c55a448ab44e", "fusion_lon": 0.0}, {"rental_uris": {"ios": "https://dc.lft.to/lastmile_qr_scan", "android": "https://dc.lft.to/lastmile_qr_scan"}, "type": "electric_scooter", "name": "53b46c90c6588f4606806016750f3e4c", "is_reserved": 0, "lon": -77.01845133333333, "is_disabled": 0, "fusion_lat": 0.0, "lat": 38.91533283333333, "bike_id": "53b46c90c6588f4606806016750f3e4c", "fusion_lon": 0.0}, {"rental_uris": {"ios": "https://dc.lft.to/lastmile_qr_scan", "android": "https://dc.lft.to/lastmile_qr_scan"}, "type": "electric_scooter", "name": "6cc358b4d7546b5c978a11a74dff269c", "is_reserved": 0, "lon": -76.93702816666666, "is_disabled": 0, "fusion_lat": 0.0, "lat": 38.8902085, "bike_id": "6cc358b4d7546b5c978a11a74dff269c", "fusion_lon": 0.0}, {"rental_uris": {"ios": "https://dc.lft.to/lastmile_qr_scan", "android": "https://dc.lft.to/lastmile_qr_scan"}, "type": "electric_scooter", "name": "f8e43915de4732d55f3b6c76c2b2494d", "is_reserved": 0, "lon": -77.02249783333333, "is_disabled": 0, "fusion_lat": 0.0, "lat": 38.956508666666664, "bike_id": "f8e43915de4732d55f3b6c76c2b2494d", "fusion_lon": 0.0}, {"rental_uris": {"ios": "https://dc.lft.to/lastmile_qr_scan", "android": "https://dc.lft.to/lastmile_qr_scan"}, "type": "electric_scooter", "name": "0fc9410a4886e027a276cc541784ae2b", "is_reserved": 0, "lon": -76.994998, "is_disabled": 0, "fusion_lat": 0.0, "lat": 38.9260825, "bike_id": "0fc9410a4886e027a276cc541784ae2b", "fusion_lon": 0.0}, {"rental_uris": {"ios": "https://dc.lft.to/lastmile_qr_scan", "android": "https://dc.lft.to/lastmile_qr_scan"}, "type": "electric_scooter", "name": "dc0f2e81bcbbe45a8bd014c9fc75391b", "is_reserved": 0, "lon": -77.02484283333334, "is_disabled": 0, "fusion_lat": 0.0, "lat": 38.90178016666667, "bike_id": "dc0f2e81bcbbe45a8bd014c9fc75391b", "fusion_lon": 0.0}, {"rental_uris": {"ios": "https://dc.lft.to/lastmile_qr_scan", "android": "https://dc.lft.to/lastmile_qr_scan"}, "type": "electric_scooter", "name": "ad451481dce45dfb4a353aeaddff6f3b", "is_reserved": 0, "lon": -77.04189216666667, "is_disabled": 0, "fusion_lat": 0.0, "lat": 38.922090833333336, "bike_id": "ad451481dce45dfb4a353aeaddff6f3b", "fusion_lon": 0.0}, {"rental_uris": {"ios": "https://dc.lft.to/lastmile_qr_scan", "android": "https://dc.lft.to/lastmile_qr_scan"}, "type": "electric_scooter", "name": "3ca059138f9bd8d8e7e9fcec2f6faa71", "is_reserved": 0, "lon": -76.99618233333334, "is_disabled": 0, "fusion_lat": 0.0, "lat": 38.877619333333335, "bike_id": "3ca059138f9bd8d8e7e9fcec2f6faa71", "fusion_lon": 0.0}, {"rental_uris": {"ios": "https://dc.lft.to/lastmile_qr_scan", "android": "https://dc.lft.to/lastmile_qr_scan"}, "type": "electric_scooter", "name": "338b20f9c920f976d9db605650126ec8", "is_reserved": 0, "lon": -77.03983866666667, "is_disabled": 0, "fusion_lat": 0.0, "lat": 38.8922095, "bike_id": "338b20f9c920f976d9db605650126ec8", "fusion_lon": 0.0}, {"rental_uris": {"ios": "https://dc.lft.to/lastmile_qr_scan", "android": "https://dc.lft.to/lastmile_qr_scan"}, "type": "electric_scooter", "name": "31c3d526a71c108c0c4c947c32f93107", "is_reserved": 0, "lon": -77.02392266666666, "is_disabled": 0, "fusion_lat": 0.0, "lat": 38.925999166666664, "bike_id": "31c3d526a71c108c0c4c947c32f93107", "fusion_lon": 0.0}, {"rental_uris": {"ios": "https://dc.lft.to/lastmile_qr_scan", "android": "https://dc.lft.to/lastmile_qr_scan"}, "type": "electric_scooter", "name": "26a79802a9fafd9c2367e7a8b93d79d8", "is_reserved": 0, "lon": -77.06693166666666, "is_disabled": 0, "fusion_lat": 0.0, "lat": 38.950100166666665, "bike_id": "26a79802a9fafd9c2367e7a8b93d79d8", "fusion_lon": 0.0}, {"rental_uris": {"ios": "https://dc.lft.to/lastmile_qr_scan", "android": "https://dc.lft.to/lastmile_qr_scan"}, "type": "electric_scooter", "name": "db4bc7ea89e67f4213f7d807866d4f67", "is_reserved": 0, "lon": -77.04144683333334, "is_disabled": 0, "fusion_lat": 0.0, "lat": 38.91412733333333, "bike_id": "db4bc7ea89e67f4213f7d807866d4f67", "fusion_lon": 0.0}, {"rental_uris": {"ios": "https://dc.lft.to/lastmile_qr_scan", "android": "https://dc.lft.to/lastmile_qr_scan"}, "type": "electric_scooter", "name": "0386438b9075b60c28f0e90647e0fbe8", "is_reserved": 0, "lon": -77.0417755, "is_disabled": 0, "fusion_lat": 0.0, "lat": 38.9069785, "bike_id": "0386438b9075b60c28f0e90647e0fbe8", "fusion_lon": 0.0}, {"rental_uris": {"ios": "https://dc.lft.to/lastmile_qr_scan", "android": "https://dc.lft.to/lastmile_qr_scan"}, "type": "electric_scooter", "name": "872107c2d841005692b1aebd1da8ca37", "is_reserved": 0, "lon": -77.036968, "is_disabled": 0, "fusion_lat": 0.0, "lat": 38.92639416666667, "bike_id": "872107c2d841005692b1aebd1da8ca37", "fusion_lon": 0.0}, {"rental_uris": {"ios": "https://dc.lft.to/lastmile_qr_scan", "android": "https://dc.lft.to/lastmile_qr_scan"}, "type": "electric_scooter", "name": "d02d4a6fefebf42614cd9c6a9f0b1d52", "is_reserved": 0, "lon": -77.04459666666666, "is_disabled": 0, "fusion_lat": 0.0, "lat": 38.9154625, "bike_id": "d02d4a6fefebf42614cd9c6a9f0b1d52", "fusion_lon": 0.0}, {"rental_uris": {"ios": "https://dc.lft.to/lastmile_qr_scan", "android": "https://dc.lft.to/lastmile_qr_scan"}, "type": "electric_scooter", "name": "61c0b58d940f060c422a0d91e5a48dac", "is_reserved": 0, "lon": -77.06371816666666, "is_disabled": 0, "fusion_lat": 0.0, "lat": 38.93559333333333, "bike_id": "61c0b58d940f060c422a0d91e5a48dac", "fusion_lon": 0.0}, {"rental_uris": {"ios": "https://dc.lft.to/lastmile_qr_scan", "android": "https://dc.lft.to/lastmile_qr_scan"}, "type": "electric_bike", "name": "b0d0d8759c2b1fe751c0ffa4d7e423e2", "is_reserved": 0, "lon": -77.12650816666667, "is_disabled": 0, "fusion_lat": 0.0, "lat": 38.819062833333334, "bike_id": "b0d0d8759c2b1fe751c0ffa4d7e423e2", "fusion_lon": 0.0}, {"rental_uris": {"ios": "https://dc.lft.to/lastmile_qr_scan", "android": "https://dc.lft.to/lastmile_qr_scan"}, "type": "electric_scooter", "name": "21233077fc3fb52304bee22ce215b013", "is_reserved": 0, "lon": -77.00203366666666, "is_disabled": 0, "fusion_lat": 0.0, "lat": 38.90227083333333, "bike_id": "21233077fc3fb52304bee22ce215b013", "fusion_lon": 0.0}, {"rental_uris": {"ios": "https://dc.lft.to/lastmile_qr_scan", "android": "https://dc.lft.to/lastmile_qr_scan"}, "type": "electric_scooter", "name": "4a7a0cdaa1d87995f17ec57922ecc1f5", "is_reserved": 0, "lon": -76.92823366666667, "is_disabled": 0, "fusion_lat": 0.0, "lat": 38.901796, "bike_id": "4a7a0cdaa1d87995f17ec57922ecc1f5", "fusion_lon": 0.0}, {"rental_uris": {"ios": "https://dc.lft.to/lastmile_qr_scan", "android": "https://dc.lft.to/lastmile_qr_scan"}, "type": "electric_scooter", "name": "40d84caa02dcd5adc1893fb6f4ed886c", "is_reserved": 0, "lon": -76.94749833333333, "is_disabled": 0, "fusion_lat": 0.0, "lat": 38.893607, "bike_id": "40d84caa02dcd5adc1893fb6f4ed886c", "fusion_lon": 0.0}, {"rental_uris": {"ios": "https://dc.lft.to/lastmile_qr_scan", "android": "https://dc.lft.to/lastmile_qr_scan"}, "type": "electric_scooter", "name": "acd3af2c90e0e8a82be12e6fcd04430d", "is_reserved": 0, "lon": -77.07163266666667, "is_disabled": 0, "fusion_lat": 0.0, "lat": 38.9087365, "bike_id": "acd3af2c90e0e8a82be12e6fcd04430d", "fusion_lon": 0.0}, {"rental_uris": {"ios": "https://dc.lft.to/lastmile_qr_scan", "android": "https://dc.lft.to/lastmile_qr_scan"}, "type": "electric_scooter", "name": "e8310475cf625db11ef5832e7b1fa1bb", "is_reserved": 0, "lon": -77.0120505, "is_disabled": 0, "fusion_lat": 0.0, "lat": 38.92122716666667, "bike_id": "e8310475cf625db11ef5832e7b1fa1bb", "fusion_lon": 0.0}, {"rental_uris": {"ios": "https://dc.lft.to/lastmile_qr_scan", "android": "https://dc.lft.to/lastmile_qr_scan"}, "type": "electric_scooter", "name": "e2db66a26287277906a60e3b9153b15a", "is_reserved": 0, "lon": -77.02126216666667, "is_disabled": 0, "fusion_lat": 0.0, "lat": 38.93286883333333, "bike_id": "e2db66a26287277906a60e3b9153b15a", "fusion_lon": 0.0}, {"rental_uris": {"ios": "https://dc.lft.to/lastmile_qr_scan", "android": "https://dc.lft.to/lastmile_qr_scan"}, "type": "electric_scooter", "name": "915f41a52e2679a424e94856397379d1", "is_reserved": 0, "lon": -77.02348366666666, "is_disabled": 0, "fusion_lat": 0.0, "lat": 38.93045083333333, "bike_id": "915f41a52e2679a424e94856397379d1", "fusion_lon": 0.0}, {"rental_uris": {"ios": "https://dc.lft.to/lastmile_qr_scan", "android": "https://dc.lft.to/lastmile_qr_scan"}, "type": "electric_scooter", "name": "5573d541ca0498aadd1323559cc9708f", "is_reserved": 0, "lon": -77.00745616666667, "is_disabled": 0, "fusion_lat": 0.0, "lat": 38.90353283333334, "bike_id": "5573d541ca0498aadd1323559cc9708f", "fusion_lon": 0.0}, {"rental_uris": {"ios": "https://dc.lft.to/lastmile_qr_scan", "android": "https://dc.lft.to/lastmile_qr_scan"}, "type": "electric_bike", "name": "231822dd63b921e5cc04d57f4ecc2bfa", "is_reserved": 0, "lon": -76.98686366666666, "is_disabled": 0, "fusion_lat": 0.0, "lat": 38.94474916666667, "bike_id": "231822dd63b921e5cc04d57f4ecc2bfa", "fusion_lon": 0.0}, {"rental_uris": {"ios": "https://dc.lft.to/lastmile_qr_scan", "android": "https://dc.lft.to/lastmile_qr_scan"}, "type": "electric_scooter", "name": "157a78eb29b1f257a768d87d22116240", "is_reserved": 0, "lon": -77.03223283333334, "is_disabled": 0, "fusion_lat": 0.0, "lat": 38.89625733333333, "bike_id": "157a78eb29b1f257a768d87d22116240", "fusion_lon": 0.0}, {"rental_uris": {"ios": "https://dc.lft.to/lastmile_qr_scan", "android": "https://dc.lft.to/lastmile_qr_scan"}, "type": "electric_scooter", "name": "6abd83e15847868f8aba362d92d80e56", "is_reserved": 0, "lon": -77.03642583333334, "is_disabled": 0, "fusion_lat": 0.0, "lat": 38.91203766666667, "bike_id": "6abd83e15847868f8aba362d92d80e56", "fusion_lon": 0.0}, {"rental_uris": {"ios": "https://dc.lft.to/lastmile_qr_scan", "android": "https://dc.lft.to/lastmile_qr_scan"}, "type": "electric_scooter", "name": "7e5ef784b60a632b1aa7bb795c2b92a7", "is_reserved": 0, "lon": -77.02078333333333, "is_disabled": 0, "fusion_lat": 0.0, "lat": 38.921095333333334, "bike_id": "7e5ef784b60a632b1aa7bb795c2b92a7", "fusion_lon": 0.0}, {"rental_uris": {"ios": "https://dc.lft.to/lastmile_qr_scan", "android": "https://dc.lft.to/lastmile_qr_scan"}, "type": "electric_scooter", "name": "d944aaef958ca8d806571340cb19b1de", "is_reserved": 0, "lon": -77.03313833333333, "is_disabled": 0, "fusion_lat": 0.0, "lat": 38.89866633333333, "bike_id": "d944aaef958ca8d806571340cb19b1de", "fusion_lon": 0.0}, {"rental_uris": {"ios": "https://dc.lft.to/lastmile_qr_scan", "android": "https://dc.lft.to/lastmile_qr_scan"}, "type": "electric_scooter", "name": "031fa10c07b38d8d212f67c404b0f9c4", "is_reserved": 0, "lon": -77.03182083333333, "is_disabled": 0, "fusion_lat": 0.0, "lat": 38.897702333333335, "bike_id": "031fa10c07b38d8d212f67c404b0f9c4", "fusion_lon": 0.0}, {"rental_uris": {"ios": "https://dc.lft.to/lastmile_qr_scan", "android": "https://dc.lft.to/lastmile_qr_scan"}, "type": "electric_scooter", "name": "814e95d712e1dc304875d12b57315735", "is_reserved": 0, "lon": -77.031769, "is_disabled": 0, "fusion_lat": 0.0, "lat": 38.908499166666665, "bike_id": "814e95d712e1dc304875d12b57315735", "fusion_lon": 0.0}, {"rental_uris": {"ios": "https://dc.lft.to/lastmile_qr_scan", "android": "https://dc.lft.to/lastmile_qr_scan"}, "type": "electric_scooter", "name": "d169cd9ba05cf9c177ed2db25d554a42", "is_reserved": 0, "lon": -77.03945233333333, "is_disabled": 0, "fusion_lat": 0.0, "lat": 38.901637666666666, "bike_id": "d169cd9ba05cf9c177ed2db25d554a42", "fusion_lon": 0.0}, {"rental_uris": {"ios": "https://dc.lft.to/lastmile_qr_scan", "android": "https://dc.lft.to/lastmile_qr_scan"}, "type": "electric_scooter", "name": "752b89a660bd698a69c1adb0690df47b", "is_reserved": 0, "lon": -77.03204583333333, "is_disabled": 0, "fusion_lat": 0.0, "lat": 38.90384, "bike_id": "752b89a660bd698a69c1adb0690df47b", "fusion_lon": 0.0}, {"rental_uris": {"ios": "https://dc.lft.to/lastmile_qr_scan", "android": "https://dc.lft.to/lastmile_qr_scan"}, "type": "electric_scooter", "name": "cb9316b73ccc27581f5f14a16a2952d2", "is_reserved": 0, "lon": -77.0306805, "is_disabled": 0, "fusion_lat": 0.0, "lat": 38.89702583333333, "bike_id": "cb9316b73ccc27581f5f14a16a2952d2", "fusion_lon": 0.0}, {"rental_uris": {"ios": "https://dc.lft.to/lastmile_qr_scan", "android": "https://dc.lft.to/lastmile_qr_scan"}, "type": "electric_scooter", "name": "d5bf0733a7e18d6a2e7ab9cd3e442e97", "is_reserved": 0, "lon": -77.02407366666667, "is_disabled": 0, "fusion_lat": 0.0, "lat": 38.917616833333334, "bike_id": "d5bf0733a7e18d6a2e7ab9cd3e442e97", "fusion_lon": 0.0}, {"rental_uris": {"ios": "https://dc.lft.to/lastmile_qr_scan", "android": "https://dc.lft.to/lastmile_qr_scan"}, "type": "electric_scooter", "name": "eb935b25b760e1fbf4977bcb4b029836", "is_reserved": 0, "lon": -77.0258065, "is_disabled": 0, "fusion_lat": 0.0, "lat": 38.92791116666667, "bike_id": "eb935b25b760e1fbf4977bcb4b029836", "fusion_lon": 0.0}, {"rental_uris": {"ios": "https://dc.lft.to/lastmile_qr_scan", "android": "https://dc.lft.to/lastmile_qr_scan"}, "type": "electric_scooter", "name": "98941b47435ae6b40bd02b8880bb9c2a", "is_reserved": 0, "lon": -77.0391985, "is_disabled": 0, "fusion_lat": 0.0, "lat": 38.92472383333333, "bike_id": "98941b47435ae6b40bd02b8880bb9c2a", "fusion_lon": 0.0}, {"rental_uris": {"ios": "https://dc.lft.to/lastmile_qr_scan", "android": "https://dc.lft.to/lastmile_qr_scan"}, "type": "electric_scooter", "name": "9fb205f7495d8074a4f4104f125b8177", "is_reserved": 0, "lon": -77.0297105, "is_disabled": 0, "fusion_lat": 0.0, "lat": 38.92311316666667, "bike_id": "9fb205f7495d8074a4f4104f125b8177", "fusion_lon": 0.0}, {"rental_uris": {"ios": "https://dc.lft.to/lastmile_qr_scan", "android": "https://dc.lft.to/lastmile_qr_scan"}, "type": "electric_scooter", "name": "cff5c31f8f22640beffe7f45060ba165", "is_reserved": 0, "lon": -77.041452, "is_disabled": 0, "fusion_lat": 0.0, "lat": 38.922996499999996, "bike_id": "cff5c31f8f22640beffe7f45060ba165", "fusion_lon": 0.0}, {"rental_uris": {"ios": "https://dc.lft.to/lastmile_qr_scan", "android": "https://dc.lft.to/lastmile_qr_scan"}, "type": "electric_scooter", "name": "ecfdb615f2199307f15990fe00bf371d", "is_reserved": 0, "lon": -77.02752133333334, "is_disabled": 0, "fusion_lat": 0.0, "lat": 38.966097166666664, "bike_id": "ecfdb615f2199307f15990fe00bf371d", "fusion_lon": 0.0}, {"rental_uris": {"ios": "https://dc.lft.to/lastmile_qr_scan", "android": "https://dc.lft.to/lastmile_qr_scan"}, "type": "electric_scooter", "name": "b5f2124151a912b46c4e709804b198ff", "is_reserved": 0, "lon": -77.0224365, "is_disabled": 0, "fusion_lat": 0.0, "lat": 38.878611666666664, "bike_id": "b5f2124151a912b46c4e709804b198ff", "fusion_lon": 0.0}, {"rental_uris": {"ios": "https://dc.lft.to/lastmile_qr_scan", "android": "https://dc.lft.to/lastmile_qr_scan"}, "type": "electric_bike", "name": "2ea3bf15be7f2e1fe347751cf2fa049c", "is_reserved": 0, "lon": -76.93330533333334, "is_disabled": 0, "fusion_lat": 0.0, "lat": 38.95153116666667, "bike_id": "2ea3bf15be7f2e1fe347751cf2fa049c", "fusion_lon": 0.0}, {"rental_uris": {"ios": "https://dc.lft.to/lastmile_qr_scan", "android": "https://dc.lft.to/lastmile_qr_scan"}, "type": "electric_scooter", "name": "06cc8717eabbb29bc42f93f446ec75f3", "is_reserved": 0, "lon": -77.02694933333333, "is_disabled": 0, "fusion_lat": 0.0, "lat": 38.9233395, "bike_id": "06cc8717eabbb29bc42f93f446ec75f3", "fusion_lon": 0.0}, {"rental_uris": {"ios": "https://dc.lft.to/lastmile_qr_scan", "android": "https://dc.lft.to/lastmile_qr_scan"}, "type": "electric_scooter", "name": "fd7b8d7acc8f13927ca986b0664615a6", "is_reserved": 0, "lon": -77.043675, "is_disabled": 0, "fusion_lat": 0.0, "lat": 38.892215, "bike_id": "fd7b8d7acc8f13927ca986b0664615a6", "fusion_lon": 0.0}, {"rental_uris": {"ios": "https://dc.lft.to/lastmile_qr_scan", "android": "https://dc.lft.to/lastmile_qr_scan"}, "type": "electric_scooter", "name": "e8fd2fe84204e3e7f1500dabf5becba6", "is_reserved": 0, "lon": -77.00450566666666, "is_disabled": 0, "fusion_lat": 0.0, "lat": 38.83793383333333, "bike_id": "e8fd2fe84204e3e7f1500dabf5becba6", "fusion_lon": 0.0}, {"rental_uris": {"ios": "https://dc.lft.to/lastmile_qr_scan", "android": "https://dc.lft.to/lastmile_qr_scan"}, "type": "electric_scooter", "name": "591ded78e2d9f64fad9f5236d624425a", "is_reserved": 0, "lon": -77.04003366666667, "is_disabled": 0, "fusion_lat": 0.0, "lat": 38.922466, "bike_id": "591ded78e2d9f64fad9f5236d624425a", "fusion_lon": 0.0}, {"rental_uris": {"ios": "https://dc.lft.to/lastmile_qr_scan", "android": "https://dc.lft.to/lastmile_qr_scan"}, "type": "electric_scooter", "name": "4dff5707d9087943cd5ab33f89bad9b2", "is_reserved": 0, "lon": -77.0269705, "is_disabled": 0, "fusion_lat": 0.0, "lat": 38.917126833333334, "bike_id": "4dff5707d9087943cd5ab33f89bad9b2", "fusion_lon": 0.0}, {"rental_uris": {"ios": "https://dc.lft.to/lastmile_qr_scan", "android": "https://dc.lft.to/lastmile_qr_scan"}, "type": "electric_scooter", "name": "63497f0bd4bc4dd38c90fc260def7266", "is_reserved": 0, "lon": -76.98823083333333, "is_disabled": 0, "fusion_lat": 0.0, "lat": 38.900416166666666, "bike_id": "63497f0bd4bc4dd38c90fc260def7266", "fusion_lon": 0.0}, {"rental_uris": {"ios": "https://dc.lft.to/lastmile_qr_scan", "android": "https://dc.lft.to/lastmile_qr_scan"}, "type": "electric_scooter", "name": "d9154644446d277d1397cf5a4c2fc386", "is_reserved": 0, "lon": -77.04075633333333, "is_disabled": 0, "fusion_lat": 0.0, "lat": 38.94779, "bike_id": "d9154644446d277d1397cf5a4c2fc386", "fusion_lon": 0.0}, {"rental_uris": {"ios": "https://dc.lft.to/lastmile_qr_scan", "android": "https://dc.lft.to/lastmile_qr_scan"}, "type": "electric_scooter", "name": "9a45770c8b63c2c8ddedd5528a51dadf", "is_reserved": 0, "lon": -76.99544166666666, "is_disabled": 0, "fusion_lat": 0.0, "lat": 38.879237, "bike_id": "9a45770c8b63c2c8ddedd5528a51dadf", "fusion_lon": 0.0}, {"rental_uris": {"ios": "https://dc.lft.to/lastmile_qr_scan", "android": "https://dc.lft.to/lastmile_qr_scan"}, "type": "electric_scooter", "name": "0d108c73e0f362c668fdae7504c20607", "is_reserved": 0, "lon": -76.98310883333333, "is_disabled": 0, "fusion_lat": 0.0, "lat": 38.925492166666665, "bike_id": "0d108c73e0f362c668fdae7504c20607", "fusion_lon": 0.0}, {"rental_uris": {"ios": "https://dc.lft.to/lastmile_qr_scan", "android": "https://dc.lft.to/lastmile_qr_scan"}, "type": "electric_bike", "name": "25132537929af7c04d9e2a31b9278f39", "is_reserved": 0, "lon": -77.02714533333334, "is_disabled": 0, "fusion_lat": 0.0, "lat": 38.97192416666667, "bike_id": "25132537929af7c04d9e2a31b9278f39", "fusion_lon": 0.0}, {"rental_uris": {"ios": "https://dc.lft.to/lastmile_qr_scan", "android": "https://dc.lft.to/lastmile_qr_scan"}, "type": "electric_scooter", "name": "7f2696a49cb19c604a221c523456bf92", "is_reserved": 0, "lon": -77.00686766666666, "is_disabled": 0, "fusion_lat": 0.0, "lat": 38.871589666666665, "bike_id": "7f2696a49cb19c604a221c523456bf92", "fusion_lon": 0.0}, {"rental_uris": {"ios": "https://dc.lft.to/lastmile_qr_scan", "android": "https://dc.lft.to/lastmile_qr_scan"}, "type": "electric_scooter", "name": "2cef8944d67d5450ae38454f78f9c8f0", "is_reserved": 0, "lon": -77.03946816666667, "is_disabled": 0, "fusion_lat": 0.0, "lat": 38.898714166666664, "bike_id": "2cef8944d67d5450ae38454f78f9c8f0", "fusion_lon": 0.0}, {"rental_uris": {"ios": "https://dc.lft.to/lastmile_qr_scan", "android": "https://dc.lft.to/lastmile_qr_scan"}, "type": "electric_scooter", "name": "6598e558f0d9985dd354b88c92dacbb7", "is_reserved": 0, "lon": -77.0383005, "is_disabled": 0, "fusion_lat": 0.0, "lat": 38.912665833333335, "bike_id": "6598e558f0d9985dd354b88c92dacbb7", "fusion_lon": 0.0}, {"rental_uris": {"ios": "https://dc.lft.to/lastmile_qr_scan", "android": "https://dc.lft.to/lastmile_qr_scan"}, "type": "electric_scooter", "name": "6ab347bb418e6af1749f1beb076dc6ff", "is_reserved": 0, "lon": -77.04147683333333, "is_disabled": 0, "fusion_lat": 0.0, "lat": 38.914170166666665, "bike_id": "6ab347bb418e6af1749f1beb076dc6ff", "fusion_lon": 0.0}, {"rental_uris": {"ios": "https://dc.lft.to/lastmile_qr_scan", "android": "https://dc.lft.to/lastmile_qr_scan"}, "type": "electric_scooter", "name": "4f96ccb60a31cf28cd8bf1bed222d187", "is_reserved": 0, "lon": -77.03182216666667, "is_disabled": 0, "fusion_lat": 0.0, "lat": 38.9134855, "bike_id": "4f96ccb60a31cf28cd8bf1bed222d187", "fusion_lon": 0.0}, {"rental_uris": {"ios": "https://dc.lft.to/lastmile_qr_scan", "android": "https://dc.lft.to/lastmile_qr_scan"}, "type": "electric_scooter", "name": "bf57c6a263cfb058434022fe28907f2d", "is_reserved": 0, "lon": -77.041518, "is_disabled": 0, "fusion_lat": 0.0, "lat": 38.9111625, "bike_id": "bf57c6a263cfb058434022fe28907f2d", "fusion_lon": 0.0}, {"rental_uris": {"ios": "https://dc.lft.to/lastmile_qr_scan", "android": "https://dc.lft.to/lastmile_qr_scan"}, "type": "electric_scooter", "name": "d0b21e50f8b217d7f6ea7c1079e46967", "is_reserved": 0, "lon": -76.98530583333333, "is_disabled": 0, "fusion_lat": 0.0, "lat": 38.8807805, "bike_id": "d0b21e50f8b217d7f6ea7c1079e46967", "fusion_lon": 0.0}, {"rental_uris": {"ios": "https://dc.lft.to/lastmile_qr_scan", "android": "https://dc.lft.to/lastmile_qr_scan"}, "type": "electric_scooter", "name": "b45d067fe88faa3d6b4635a18132068b", "is_reserved": 0, "lon": -77.01970033333333, "is_disabled": 0, "fusion_lat": 0.0, "lat": 38.956526833333335, "bike_id": "b45d067fe88faa3d6b4635a18132068b", "fusion_lon": 0.0}, {"rental_uris": {"ios": "https://dc.lft.to/lastmile_qr_scan", "android": "https://dc.lft.to/lastmile_qr_scan"}, "type": "electric_scooter", "name": "2b492468e36e18c606a575297d8aa8a7", "is_reserved": 0, "lon": -77.01726283333333, "is_disabled": 0, "fusion_lat": 0.0, "lat": 38.89221033333333, "bike_id": "2b492468e36e18c606a575297d8aa8a7", "fusion_lon": 0.0}, {"rental_uris": {"ios": "https://dc.lft.to/lastmile_qr_scan", "android": "https://dc.lft.to/lastmile_qr_scan"}, "type": "electric_bike", "name": "7f7cf76bd061ee3f51b2d31c73c99d04", "is_reserved": 0, "lon": -77.03903566666666, "is_disabled": 0, "fusion_lat": 0.0, "lat": 38.9233055, "bike_id": "7f7cf76bd061ee3f51b2d31c73c99d04", "fusion_lon": 0.0}, {"rental_uris": {"ios": "https://dc.lft.to/lastmile_qr_scan", "android": "https://dc.lft.to/lastmile_qr_scan"}, "type": "electric_scooter", "name": "56cd5126b2a95fe1c092e066c08acaab", "is_reserved": 0, "lon": -77.020964, "is_disabled": 0, "fusion_lat": 0.0, "lat": 38.92145883333333, "bike_id": "56cd5126b2a95fe1c092e066c08acaab", "fusion_lon": 0.0}, {"rental_uris": {"ios": "https://dc.lft.to/lastmile_qr_scan", "android": "https://dc.lft.to/lastmile_qr_scan"}, "type": "electric_scooter", "name": "a9832742b894a5d1c1af2a3c6460857b", "is_reserved": 0, "lon": -76.98723633333333, "is_disabled": 0, "fusion_lat": 0.0, "lat": 38.91193483333333, "bike_id": "a9832742b894a5d1c1af2a3c6460857b", "fusion_lon": 0.0}, {"rental_uris": {"ios": "https://dc.lft.to/lastmile_qr_scan", "android": "https://dc.lft.to/lastmile_qr_scan"}, "type": "electric_scooter", "name": "f6c1e59f73c5805daf0673009d469389", "is_reserved": 0, "lon": -77.02953633333334, "is_disabled": 0, "fusion_lat": 0.0, "lat": 38.91674533333333, "bike_id": "f6c1e59f73c5805daf0673009d469389", "fusion_lon": 0.0}, {"rental_uris": {"ios": "https://dc.lft.to/lastmile_qr_scan", "android": "https://dc.lft.to/lastmile_qr_scan"}, "type": "electric_bike", "name": "be4abc9befc14913e77ec7a2eb039035", "is_reserved": 0, "lon": -76.98458783333334, "is_disabled": 0, "fusion_lat": 0.0, "lat": 38.87915366666667, "bike_id": "be4abc9befc14913e77ec7a2eb039035", "fusion_lon": 0.0}, {"rental_uris": {"ios": "https://dc.lft.to/lastmile_qr_scan", "android": "https://dc.lft.to/lastmile_qr_scan"}, "type": "electric_scooter", "name": "fe8f659652868256c0faeff583a2b097", "is_reserved": 0, "lon": -76.98984316666667, "is_disabled": 0, "fusion_lat": 0.0, "lat": 38.86502016666667, "bike_id": "fe8f659652868256c0faeff583a2b097", "fusion_lon": 0.0}, {"rental_uris": {"ios": "https://dc.lft.to/lastmile_qr_scan", "android": "https://dc.lft.to/lastmile_qr_scan"}, "type": "electric_scooter", "name": "5a89872541859ceae9093c44814900de", "is_reserved": 0, "lon": -77.01216366666667, "is_disabled": 0, "fusion_lat": 0.0, "lat": 38.92032966666667, "bike_id": "5a89872541859ceae9093c44814900de", "fusion_lon": 0.0}, {"rental_uris": {"ios": "https://dc.lft.to/lastmile_qr_scan", "android": "https://dc.lft.to/lastmile_qr_scan"}, "type": "electric_scooter", "name": "e355a7c31d1d386c1656de4266ebe742", "is_reserved": 0, "lon": -77.0614445, "is_disabled": 0, "fusion_lat": 0.0, "lat": 38.912968666666664, "bike_id": "e355a7c31d1d386c1656de4266ebe742", "fusion_lon": 0.0}, {"rental_uris": {"ios": "https://dc.lft.to/lastmile_qr_scan", "android": "https://dc.lft.to/lastmile_qr_scan"}, "type": "electric_scooter", "name": "629676918129aa69f8abaf5e8f80f9a7", "is_reserved": 0, "lon": -77.0253785, "is_disabled": 0, "fusion_lat": 0.0, "lat": 38.9006335, "bike_id": "629676918129aa69f8abaf5e8f80f9a7", "fusion_lon": 0.0}, {"rental_uris": {"ios": "https://dc.lft.to/lastmile_qr_scan", "android": "https://dc.lft.to/lastmile_qr_scan"}, "type": "electric_scooter", "name": "e790987312a0da7278bdabf1f5ce500a", "is_reserved": 0, "lon": -77.00916383333333, "is_disabled": 0, "fusion_lat": 0.0, "lat": 38.9183505, "bike_id": "e790987312a0da7278bdabf1f5ce500a", "fusion_lon": 0.0}, {"rental_uris": {"ios": "https://dc.lft.to/lastmile_qr_scan", "android": "https://dc.lft.to/lastmile_qr_scan"}, "type": "electric_bike", "name": "7522597c0e425fdcb660f2645a84d888", "is_reserved": 0, "lon": -77.03523266666667, "is_disabled": 0, "fusion_lat": 0.0, "lat": 38.933658333333334, "bike_id": "7522597c0e425fdcb660f2645a84d888", "fusion_lon": 0.0}, {"rental_uris": {"ios": "https://dc.lft.to/lastmile_qr_scan", "android": "https://dc.lft.to/lastmile_qr_scan"}, "type": "electric_scooter", "name": "7cdf908a80a3f8dd223d6a35e4301d03", "is_reserved": 0, "lon": -77.02946166666666, "is_disabled": 0, "fusion_lat": 0.0, "lat": 38.883986166666666, "bike_id": "7cdf908a80a3f8dd223d6a35e4301d03", "fusion_lon": 0.0}, {"rental_uris": {"ios": "https://dc.lft.to/lastmile_qr_scan", "android": "https://dc.lft.to/lastmile_qr_scan"}, "type": "electric_bike", "name": "81743891f51bc77da81f52911b0b5002", "is_reserved": 0, "lon": -76.9597475, "is_disabled": 0, "fusion_lat": 0.0, "lat": 38.92564983333333, "bike_id": "81743891f51bc77da81f52911b0b5002", "fusion_lon": 0.0}, {"rental_uris": {"ios": "https://dc.lft.to/lastmile_qr_scan", "android": "https://dc.lft.to/lastmile_qr_scan"}, "type": "electric_bike", "name": "2b3b4e3be9ed4c4a5fe902910c597899", "is_reserved": 0, "lon": -77.023921, "is_disabled": 0, "fusion_lat": 0.0, "lat": 38.881954, "bike_id": "2b3b4e3be9ed4c4a5fe902910c597899", "fusion_lon": 0.0}, {"rental_uris": {"ios": "https://dc.lft.to/lastmile_qr_scan", "android": "https://dc.lft.to/lastmile_qr_scan"}, "type": "electric_scooter", "name": "6422ffc987a8b1c2cfc7f6c846fd9f0d", "is_reserved": 0, "lon": -77.01099033333334, "is_disabled": 0, "fusion_lat": 0.0, "lat": 38.885397166666664, "bike_id": "6422ffc987a8b1c2cfc7f6c846fd9f0d", "fusion_lon": 0.0}, {"rental_uris": {"ios": "https://dc.lft.to/lastmile_qr_scan", "android": "https://dc.lft.to/lastmile_qr_scan"}, "type": "electric_bike", "name": "0e647d6d6a7cff98c61bb456083753de", "is_reserved": 0, "lon": -76.9949255, "is_disabled": 0, "fusion_lat": 0.0, "lat": 38.9296155, "bike_id": "0e647d6d6a7cff98c61bb456083753de", "fusion_lon": 0.0}, {"rental_uris": {"ios": "https://dc.lft.to/lastmile_qr_scan", "android": "https://dc.lft.to/lastmile_qr_scan"}, "type": "electric_scooter", "name": "3da9dedde59d5050eadaca3cf3eb414f", "is_reserved": 0, "lon": -77.02176016666667, "is_disabled": 0, "fusion_lat": 0.0, "lat": 38.911968, "bike_id": "3da9dedde59d5050eadaca3cf3eb414f", "fusion_lon": 0.0}, {"rental_uris": {"ios": "https://dc.lft.to/lastmile_qr_scan", "android": "https://dc.lft.to/lastmile_qr_scan"}, "type": "electric_scooter", "name": "4e62e9c2a67f77917ed38e0c1805c592", "is_reserved": 0, "lon": -77.00215516666667, "is_disabled": 0, "fusion_lat": 0.0, "lat": 38.90022833333333, "bike_id": "4e62e9c2a67f77917ed38e0c1805c592", "fusion_lon": 0.0}, {"rental_uris": {"ios": "https://dc.lft.to/lastmile_qr_scan", "android": "https://dc.lft.to/lastmile_qr_scan"}, "type": "electric_scooter", "name": "224210d5b4fe6e1e1dd2a054613ea577", "is_reserved": 0, "lon": -77.04716333333333, "is_disabled": 0, "fusion_lat": 0.0, "lat": 38.9222435, "bike_id": "224210d5b4fe6e1e1dd2a054613ea577", "fusion_lon": 0.0}, {"rental_uris": {"ios": "https://dc.lft.to/lastmile_qr_scan", "android": "https://dc.lft.to/lastmile_qr_scan"}, "type": "electric_scooter", "name": "6273c5a24fad9a5a5b62b4d4eae4b172", "is_reserved": 0, "lon": -77.027065, "is_disabled": 0, "fusion_lat": 0.0, "lat": 38.8813645, "bike_id": "6273c5a24fad9a5a5b62b4d4eae4b172", "fusion_lon": 0.0}, {"rental_uris": {"ios": "https://dc.lft.to/lastmile_qr_scan", "android": "https://dc.lft.to/lastmile_qr_scan"}, "type": "electric_scooter", "name": "0a7d5d8babe7fb3ea38e4484a4fd6856", "is_reserved": 0, "lon": -77.02720616666667, "is_disabled": 0, "fusion_lat": 0.0, "lat": 38.90556683333333, "bike_id": "0a7d5d8babe7fb3ea38e4484a4fd6856", "fusion_lon": 0.0}, {"rental_uris": {"ios": "https://dc.lft.to/lastmile_qr_scan", "android": "https://dc.lft.to/lastmile_qr_scan"}, "type": "electric_scooter", "name": "b89886bd5d234cd9b2eb8b7241066c82", "is_reserved": 0, "lon": -77.03430866666666, "is_disabled": 0, "fusion_lat": 0.0, "lat": 38.90796983333333, "bike_id": "b89886bd5d234cd9b2eb8b7241066c82", "fusion_lon": 0.0}, {"rental_uris": {"ios": "https://dc.lft.to/lastmile_qr_scan", "android": "https://dc.lft.to/lastmile_qr_scan"}, "type": "electric_scooter", "name": "8a024aaeb0727fe1d798d3d6a3be0cff", "is_reserved": 0, "lon": -77.00584283333333, "is_disabled": 0, "fusion_lat": 0.0, "lat": 38.88519483333334, "bike_id": "8a024aaeb0727fe1d798d3d6a3be0cff", "fusion_lon": 0.0}, {"rental_uris": {"ios": "https://dc.lft.to/lastmile_qr_scan", "android": "https://dc.lft.to/lastmile_qr_scan"}, "type": "electric_scooter", "name": "1d9fc912b342133e6a4c40f0f5d45814", "is_reserved": 0, "lon": -77.06898783333334, "is_disabled": 0, "fusion_lat": 0.0, "lat": 38.917427, "bike_id": "1d9fc912b342133e6a4c40f0f5d45814", "fusion_lon": 0.0}, {"rental_uris": {"ios": "https://dc.lft.to/lastmile_qr_scan", "android": "https://dc.lft.to/lastmile_qr_scan"}, "type": "electric_scooter", "name": "4a9445be0cc07d17c40ac67f4efef868", "is_reserved": 0, "lon": -77.01674583333333, "is_disabled": 0, "fusion_lat": 0.0, "lat": 38.88118683333333, "bike_id": "4a9445be0cc07d17c40ac67f4efef868", "fusion_lon": 0.0}, {"rental_uris": {"ios": "https://dc.lft.to/lastmile_qr_scan", "android": "https://dc.lft.to/lastmile_qr_scan"}, "type": "electric_scooter", "name": "3ad81ddba2113e340c1ce1539b97c64c", "is_reserved": 0, "lon": -77.04203216666667, "is_disabled": 0, "fusion_lat": 0.0, "lat": 38.92397916666667, "bike_id": "3ad81ddba2113e340c1ce1539b97c64c", "fusion_lon": 0.0}, {"rental_uris": {"ios": "https://dc.lft.to/lastmile_qr_scan", "android": "https://dc.lft.to/lastmile_qr_scan"}, "type": "electric_scooter", "name": "aa6fa9575f78d827e971b9d424d585ed", "is_reserved": 0, "lon": -77.039119, "is_disabled": 0, "fusion_lat": 0.0, "lat": 38.908128833333336, "bike_id": "aa6fa9575f78d827e971b9d424d585ed", "fusion_lon": 0.0}, {"rental_uris": {"ios": "https://dc.lft.to/lastmile_qr_scan", "android": "https://dc.lft.to/lastmile_qr_scan"}, "type": "electric_scooter", "name": "eb6004c0f10200558fa3c5fb0fcf4203", "is_reserved": 0, "lon": -77.05326166666667, "is_disabled": 0, "fusion_lat": 0.0, "lat": 38.9072765, "bike_id": "eb6004c0f10200558fa3c5fb0fcf4203", "fusion_lon": 0.0}, {"rental_uris": {"ios": "https://dc.lft.to/lastmile_qr_scan", "android": "https://dc.lft.to/lastmile_qr_scan"}, "type": "electric_scooter", "name": "7e1017bf74cd22aa5516aa494b87bf2b", "is_reserved": 0, "lon": -77.0328015, "is_disabled": 0, "fusion_lat": 0.0, "lat": 38.9367075, "bike_id": "7e1017bf74cd22aa5516aa494b87bf2b", "fusion_lon": 0.0}, {"rental_uris": {"ios": "https://dc.lft.to/lastmile_qr_scan", "android": "https://dc.lft.to/lastmile_qr_scan"}, "type": "electric_scooter", "name": "4e05288e04d9e5c19a93c44765450e8a", "is_reserved": 0, "lon": -77.03213983333333, "is_disabled": 0, "fusion_lat": 0.0, "lat": 38.920723, "bike_id": "4e05288e04d9e5c19a93c44765450e8a", "fusion_lon": 0.0}, {"rental_uris": {"ios": "https://dc.lft.to/lastmile_qr_scan", "android": "https://dc.lft.to/lastmile_qr_scan"}, "type": "electric_scooter", "name": "cb97a88a2d80886c76780a62e21ba75b", "is_reserved": 0, "lon": -77.0329665, "is_disabled": 0, "fusion_lat": 0.0, "lat": 38.90550233333333, "bike_id": "cb97a88a2d80886c76780a62e21ba75b", "fusion_lon": 0.0}, {"rental_uris": {"ios": "https://dc.lft.to/lastmile_qr_scan", "android": "https://dc.lft.to/lastmile_qr_scan"}, "type": "electric_scooter", "name": "bb0bd6548ede330d67b2a181bb21229b", "is_reserved": 0, "lon": -77.02098633333334, "is_disabled": 0, "fusion_lat": 0.0, "lat": 38.92177216666666, "bike_id": "bb0bd6548ede330d67b2a181bb21229b", "fusion_lon": 0.0}, {"rental_uris": {"ios": "https://dc.lft.to/lastmile_qr_scan", "android": "https://dc.lft.to/lastmile_qr_scan"}, "type": "electric_scooter", "name": "5322f0f7422686b943427cad2ce6557f", "is_reserved": 0, "lon": -77.04498066666666, "is_disabled": 0, "fusion_lat": 0.0, "lat": 38.915921833333336, "bike_id": "5322f0f7422686b943427cad2ce6557f", "fusion_lon": 0.0}, {"rental_uris": {"ios": "https://dc.lft.to/lastmile_qr_scan", "android": "https://dc.lft.to/lastmile_qr_scan"}, "type": "electric_bike", "name": "5a827b70200ffb790bf77e0dbd7277df", "is_reserved": 0, "lon": -77.01196966666667, "is_disabled": 0, "fusion_lat": 0.0, "lat": 38.9638, "bike_id": "5a827b70200ffb790bf77e0dbd7277df", "fusion_lon": 0.0}, {"rental_uris": {"ios": "https://dc.lft.to/lastmile_qr_scan", "android": "https://dc.lft.to/lastmile_qr_scan"}, "type": "electric_scooter", "name": "a145e113c4b7ca54cfb494aca71a3d02", "is_reserved": 0, "lon": -77.00568166666666, "is_disabled": 0, "fusion_lat": 0.0, "lat": 38.90528883333333, "bike_id": "a145e113c4b7ca54cfb494aca71a3d02", "fusion_lon": 0.0}, {"rental_uris": {"ios": "https://dc.lft.to/lastmile_qr_scan", "android": "https://dc.lft.to/lastmile_qr_scan"}, "type": "electric_scooter", "name": "a0eef2cd11b4e2ea0a7ae76ae2c64d62", "is_reserved": 0, "lon": -77.043241, "is_disabled": 0, "fusion_lat": 0.0, "lat": 38.907337, "bike_id": "a0eef2cd11b4e2ea0a7ae76ae2c64d62", "fusion_lon": 0.0}, {"rental_uris": {"ios": "https://dc.lft.to/lastmile_qr_scan", "android": "https://dc.lft.to/lastmile_qr_scan"}, "type": "electric_scooter", "name": "8eefd35d56141a5452134bd0f152ca9e", "is_reserved": 0, "lon": -77.04094683333334, "is_disabled": 0, "fusion_lat": 0.0, "lat": 38.9184605, "bike_id": "8eefd35d56141a5452134bd0f152ca9e", "fusion_lon": 0.0}, {"rental_uris": {"ios": "https://dc.lft.to/lastmile_qr_scan", "android": "https://dc.lft.to/lastmile_qr_scan"}, "type": "electric_scooter", "name": "584ab982dfab78a30741435c911a0f01", "is_reserved": 0, "lon": -77.0233665, "is_disabled": 0, "fusion_lat": 0.0, "lat": 38.92703433333333, "bike_id": "584ab982dfab78a30741435c911a0f01", "fusion_lon": 0.0}, {"rental_uris": {"ios": "https://dc.lft.to/lastmile_qr_scan", "android": "https://dc.lft.to/lastmile_qr_scan"}, "type": "electric_scooter", "name": "afe6bcf4b86f5753ad8e7dbe28407a21", "is_reserved": 0, "lon": -77.04417666666667, "is_disabled": 0, "fusion_lat": 0.0, "lat": 38.92602316666667, "bike_id": "afe6bcf4b86f5753ad8e7dbe28407a21", "fusion_lon": 0.0}, {"rental_uris": {"ios": "https://dc.lft.to/lastmile_qr_scan", "android": "https://dc.lft.to/lastmile_qr_scan"}, "type": "electric_scooter", "name": "161410728f294723a03e85e72d536ec3", "is_reserved": 0, "lon": -77.0185335, "is_disabled": 0, "fusion_lat": 0.0, "lat": 38.9542775, "bike_id": "161410728f294723a03e85e72d536ec3", "fusion_lon": 0.0}, {"rental_uris": {"ios": "https://dc.lft.to/lastmile_qr_scan", "android": "https://dc.lft.to/lastmile_qr_scan"}, "type": "electric_scooter", "name": "67d73e19dd52c067097deb9f2984e37b", "is_reserved": 0, "lon": -77.01728566666667, "is_disabled": 0, "fusion_lat": 0.0, "lat": 38.9005635, "bike_id": "67d73e19dd52c067097deb9f2984e37b", "fusion_lon": 0.0}, {"rental_uris": {"ios": "https://dc.lft.to/lastmile_qr_scan", "android": "https://dc.lft.to/lastmile_qr_scan"}, "type": "electric_scooter", "name": "46d873ffea52010b30c7e288756dbaf2", "is_reserved": 0, "lon": -77.04894266666666, "is_disabled": 0, "fusion_lat": 0.0, "lat": 38.89902383333333, "bike_id": "46d873ffea52010b30c7e288756dbaf2", "fusion_lon": 0.0}, {"rental_uris": {"ios": "https://dc.lft.to/lastmile_qr_scan", "android": "https://dc.lft.to/lastmile_qr_scan"}, "type": "electric_scooter", "name": "2e3a19ad9ffdde70d6f82d5e83a84f59", "is_reserved": 0, "lon": -77.05685233333334, "is_disabled": 0, "fusion_lat": 0.0, "lat": 38.9339495, "bike_id": "2e3a19ad9ffdde70d6f82d5e83a84f59", "fusion_lon": 0.0}, {"rental_uris": {"ios": "https://dc.lft.to/lastmile_qr_scan", "android": "https://dc.lft.to/lastmile_qr_scan"}, "type": "electric_scooter", "name": "a389181c5664a56239081e2948a639a3", "is_reserved": 0, "lon": -77.0262305, "is_disabled": 0, "fusion_lat": 0.0, "lat": 38.8921665, "bike_id": "a389181c5664a56239081e2948a639a3", "fusion_lon": 0.0}, {"rental_uris": {"ios": "https://dc.lft.to/lastmile_qr_scan", "android": "https://dc.lft.to/lastmile_qr_scan"}, "type": "electric_scooter", "name": "073922bdee9a2e53ba3ac5cab98cfe4f", "is_reserved": 0, "lon": -77.03850983333334, "is_disabled": 0, "fusion_lat": 0.0, "lat": 38.91659, "bike_id": "073922bdee9a2e53ba3ac5cab98cfe4f", "fusion_lon": 0.0}, {"rental_uris": {"ios": "https://dc.lft.to/lastmile_qr_scan", "android": "https://dc.lft.to/lastmile_qr_scan"}, "type": "electric_scooter", "name": "9395f7fa1da8f7f57ed1ea99c337a9b8", "is_reserved": 0, "lon": -76.99384466666666, "is_disabled": 0, "fusion_lat": 0.0, "lat": 38.910138333333336, "bike_id": "9395f7fa1da8f7f57ed1ea99c337a9b8", "fusion_lon": 0.0}, {"rental_uris": {"ios": "https://dc.lft.to/lastmile_qr_scan", "android": "https://dc.lft.to/lastmile_qr_scan"}, "type": "electric_scooter", "name": "a69846c2c992fd73700081d9c4c82da8", "is_reserved": 0, "lon": -77.02209816666667, "is_disabled": 0, "fusion_lat": 0.0, "lat": 38.887413, "bike_id": "a69846c2c992fd73700081d9c4c82da8", "fusion_lon": 0.0}, {"rental_uris": {"ios": "https://dc.lft.to/lastmile_qr_scan", "android": "https://dc.lft.to/lastmile_qr_scan"}, "type": "electric_scooter", "name": "ddb1b2ef06811f9ae56d9fc2359ecfac", "is_reserved": 0, "lon": -77.0229445, "is_disabled": 0, "fusion_lat": 0.0, "lat": 38.908851166666665, "bike_id": "ddb1b2ef06811f9ae56d9fc2359ecfac", "fusion_lon": 0.0}, {"rental_uris": {"ios": "https://dc.lft.to/lastmile_qr_scan", "android": "https://dc.lft.to/lastmile_qr_scan"}, "type": "electric_scooter", "name": "1287faab9bc48da71741757f4212a206", "is_reserved": 0, "lon": -77.01360833333334, "is_disabled": 0, "fusion_lat": 0.0, "lat": 38.91928266666667, "bike_id": "1287faab9bc48da71741757f4212a206", "fusion_lon": 0.0}, {"rental_uris": {"ios": "https://dc.lft.to/lastmile_qr_scan", "android": "https://dc.lft.to/lastmile_qr_scan"}, "type": "electric_scooter", "name": "fad292f67f8f14ceb281cf30c6803f97", "is_reserved": 0, "lon": -77.0340525, "is_disabled": 0, "fusion_lat": 0.0, "lat": 38.90976583333333, "bike_id": "fad292f67f8f14ceb281cf30c6803f97", "fusion_lon": 0.0}, {"rental_uris": {"ios": "https://dc.lft.to/lastmile_qr_scan", "android": "https://dc.lft.to/lastmile_qr_scan"}, "type": "electric_scooter", "name": "f520bbf041eef832e83e54517a8bd883", "is_reserved": 0, "lon": -77.04252933333333, "is_disabled": 0, "fusion_lat": 0.0, "lat": 38.92246633333333, "bike_id": "f520bbf041eef832e83e54517a8bd883", "fusion_lon": 0.0}, {"rental_uris": {"ios": "https://dc.lft.to/lastmile_qr_scan", "android": "https://dc.lft.to/lastmile_qr_scan"}, "type": "electric_scooter", "name": "beabd6e0e41276e9f61c71ad43ab6fe8", "is_reserved": 0, "lon": -76.98214716666666, "is_disabled": 0, "fusion_lat": 0.0, "lat": 38.8865825, "bike_id": "beabd6e0e41276e9f61c71ad43ab6fe8", "fusion_lon": 0.0}, {"rental_uris": {"ios": "https://dc.lft.to/lastmile_qr_scan", "android": "https://dc.lft.to/lastmile_qr_scan"}, "type": "electric_scooter", "name": "d50d7dd902f6679b29f64e8069e2e293", "is_reserved": 0, "lon": -77.04416183333333, "is_disabled": 0, "fusion_lat": 0.0, "lat": 38.90119266666667, "bike_id": "d50d7dd902f6679b29f64e8069e2e293", "fusion_lon": 0.0}, {"rental_uris": {"ios": "https://dc.lft.to/lastmile_qr_scan", "android": "https://dc.lft.to/lastmile_qr_scan"}, "type": "electric_scooter", "name": "305b583cf711b38502e06334f427cb99", "is_reserved": 0, "lon": -77.03867216666667, "is_disabled": 0, "fusion_lat": 0.0, "lat": 38.920128166666665, "bike_id": "305b583cf711b38502e06334f427cb99", "fusion_lon": 0.0}, {"rental_uris": {"ios": "https://dc.lft.to/lastmile_qr_scan", "android": "https://dc.lft.to/lastmile_qr_scan"}, "type": "electric_scooter", "name": "f0707772eba9b87dc772be0ef9cfac95", "is_reserved": 0, "lon": -77.03182483333333, "is_disabled": 0, "fusion_lat": 0.0, "lat": 38.908389, "bike_id": "f0707772eba9b87dc772be0ef9cfac95", "fusion_lon": 0.0}, {"rental_uris": {"ios": "https://dc.lft.to/lastmile_qr_scan", "android": "https://dc.lft.to/lastmile_qr_scan"}, "type": "electric_scooter", "name": "b9326b84a84b9bbe7740171eed1815c2", "is_reserved": 0, "lon": -76.99951516666667, "is_disabled": 0, "fusion_lat": 0.0, "lat": 38.89417816666667, "bike_id": "b9326b84a84b9bbe7740171eed1815c2", "fusion_lon": 0.0}, {"rental_uris": {"ios": "https://dc.lft.to/lastmile_qr_scan", "android": "https://dc.lft.to/lastmile_qr_scan"}, "type": "electric_bike", "name": "e76680d02b56463f45101e22ebf514d6", "is_reserved": 0, "lon": -77.1297375, "is_disabled": 0, "fusion_lat": 0.0, "lat": 38.799867166666665, "bike_id": "e76680d02b56463f45101e22ebf514d6", "fusion_lon": 0.0}, {"rental_uris": {"ios": "https://dc.lft.to/lastmile_qr_scan", "android": "https://dc.lft.to/lastmile_qr_scan"}, "type": "electric_scooter", "name": "691578086abb6f8e3b6aa505221420f5", "is_reserved": 0, "lon": -77.03253983333333, "is_disabled": 0, "fusion_lat": 0.0, "lat": 38.905527166666666, "bike_id": "691578086abb6f8e3b6aa505221420f5", "fusion_lon": 0.0}, {"rental_uris": {"ios": "https://dc.lft.to/lastmile_qr_scan", "android": "https://dc.lft.to/lastmile_qr_scan"}, "type": "electric_scooter", "name": "ffb1adc94427e0d126d4b30f59171bf5", "is_reserved": 0, "lon": -77.0317685, "is_disabled": 0, "fusion_lat": 0.0, "lat": 38.91572683333333, "bike_id": "ffb1adc94427e0d126d4b30f59171bf5", "fusion_lon": 0.0}, {"rental_uris": {"ios": "https://dc.lft.to/lastmile_qr_scan", "android": "https://dc.lft.to/lastmile_qr_scan"}, "type": "electric_bike", "name": "16a083dbfeae9f9b6bf5353a71c0f52d", "is_reserved": 0, "lon": -76.91796583333333, "is_disabled": 0, "fusion_lat": 0.0, "lat": 38.9999915, "bike_id": "16a083dbfeae9f9b6bf5353a71c0f52d", "fusion_lon": 0.0}, {"rental_uris": {"ios": "https://dc.lft.to/lastmile_qr_scan", "android": "https://dc.lft.to/lastmile_qr_scan"}, "type": "electric_scooter", "name": "8438721960424d2177e9b1d68cf47b0d", "is_reserved": 0, "lon": -77.01796183333333, "is_disabled": 0, "fusion_lat": 0.0, "lat": 38.886126833333336, "bike_id": "8438721960424d2177e9b1d68cf47b0d", "fusion_lon": 0.0}, {"rental_uris": {"ios": "https://dc.lft.to/lastmile_qr_scan", "android": "https://dc.lft.to/lastmile_qr_scan"}, "type": "electric_scooter", "name": "43324f0fc3a5bf5b7c9f6e14dab12389", "is_reserved": 0, "lon": -77.00606133333334, "is_disabled": 0, "fusion_lat": 0.0, "lat": 38.87181666666667, "bike_id": "43324f0fc3a5bf5b7c9f6e14dab12389", "fusion_lon": 0.0}, {"rental_uris": {"ios": "https://dc.lft.to/lastmile_qr_scan", "android": "https://dc.lft.to/lastmile_qr_scan"}, "type": "electric_scooter", "name": "3d6946e98307a546a572640597d5819f", "is_reserved": 0, "lon": -76.93292883333334, "is_disabled": 0, "fusion_lat": 0.0, "lat": 38.896894333333336, "bike_id": "3d6946e98307a546a572640597d5819f", "fusion_lon": 0.0}, {"rental_uris": {"ios": "https://dc.lft.to/lastmile_qr_scan", "android": "https://dc.lft.to/lastmile_qr_scan"}, "type": "electric_scooter", "name": "c95a94b1f1dcd03fb32b8b6e91570cc4", "is_reserved": 0, "lon": -77.03363516666667, "is_disabled": 0, "fusion_lat": 0.0, "lat": 38.94509133333333, "bike_id": "c95a94b1f1dcd03fb32b8b6e91570cc4", "fusion_lon": 0.0}, {"rental_uris": {"ios": "https://dc.lft.to/lastmile_qr_scan", "android": "https://dc.lft.to/lastmile_qr_scan"}, "type": "electric_scooter", "name": "7740a98cffad860d0bc452ffc35e85db", "is_reserved": 0, "lon": -76.98889816666667, "is_disabled": 0, "fusion_lat": 0.0, "lat": 38.86654716666666, "bike_id": "7740a98cffad860d0bc452ffc35e85db", "fusion_lon": 0.0}, {"rental_uris": {"ios": "https://dc.lft.to/lastmile_qr_scan", "android": "https://dc.lft.to/lastmile_qr_scan"}, "type": "electric_scooter", "name": "d6e6589d9e07f9d27b9035406eab2655", "is_reserved": 0, "lon": -77.0450335, "is_disabled": 0, "fusion_lat": 0.0, "lat": 38.914140333333336, "bike_id": "d6e6589d9e07f9d27b9035406eab2655", "fusion_lon": 0.0}, {"rental_uris": {"ios": "https://dc.lft.to/lastmile_qr_scan", "android": "https://dc.lft.to/lastmile_qr_scan"}, "type": "electric_scooter", "name": "dfdf323b45f744b465c85f90ce8507b4", "is_reserved": 0, "lon": -77.041988, "is_disabled": 0, "fusion_lat": 0.0, "lat": 38.892672166666664, "bike_id": "dfdf323b45f744b465c85f90ce8507b4", "fusion_lon": 0.0}, {"rental_uris": {"ios": "https://dc.lft.to/lastmile_qr_scan", "android": "https://dc.lft.to/lastmile_qr_scan"}, "type": "electric_scooter", "name": "5741cbb98487a541dfc65fcb0732aa61", "is_reserved": 0, "lon": -76.98511516666667, "is_disabled": 0, "fusion_lat": 0.0, "lat": 38.88085866666667, "bike_id": "5741cbb98487a541dfc65fcb0732aa61", "fusion_lon": 0.0}, {"rental_uris": {"ios": "https://dc.lft.to/lastmile_qr_scan", "android": "https://dc.lft.to/lastmile_qr_scan"}, "type": "electric_scooter", "name": "19b6e1d8deccc2ee6cc65f807ae794f6", "is_reserved": 0, "lon": -77.04860783333334, "is_disabled": 0, "fusion_lat": 0.0, "lat": 38.89223466666667, "bike_id": "19b6e1d8deccc2ee6cc65f807ae794f6", "fusion_lon": 0.0}, {"rental_uris": {"ios": "https://dc.lft.to/lastmile_qr_scan", "android": "https://dc.lft.to/lastmile_qr_scan"}, "type": "electric_scooter", "name": "fc938d3e228ee48734a85e1391193249", "is_reserved": 0, "lon": -77.0231625, "is_disabled": 0, "fusion_lat": 0.0, "lat": 38.90953866666667, "bike_id": "fc938d3e228ee48734a85e1391193249", "fusion_lon": 0.0}, {"rental_uris": {"ios": "https://dc.lft.to/lastmile_qr_scan", "android": "https://dc.lft.to/lastmile_qr_scan"}, "type": "electric_scooter", "name": "3d70ad0babd34a4a00a67b77867b46dd", "is_reserved": 0, "lon": -77.02093083333334, "is_disabled": 0, "fusion_lat": 0.0, "lat": 38.92241633333333, "bike_id": "3d70ad0babd34a4a00a67b77867b46dd", "fusion_lon": 0.0}, {"rental_uris": {"ios": "https://dc.lft.to/lastmile_qr_scan", "android": "https://dc.lft.to/lastmile_qr_scan"}, "type": "electric_scooter", "name": "4a6b758f2da29d09b53dd6007290fa61", "is_reserved": 0, "lon": -77.024648, "is_disabled": 0, "fusion_lat": 0.0, "lat": 38.89725983333334, "bike_id": "4a6b758f2da29d09b53dd6007290fa61", "fusion_lon": 0.0}, {"rental_uris": {"ios": "https://dc.lft.to/lastmile_qr_scan", "android": "https://dc.lft.to/lastmile_qr_scan"}, "type": "electric_scooter", "name": "f92b7d7c950183bb707a9688dc5792f6", "is_reserved": 0, "lon": -77.04602733333333, "is_disabled": 0, "fusion_lat": 0.0, "lat": 38.909699333333336, "bike_id": "f92b7d7c950183bb707a9688dc5792f6", "fusion_lon": 0.0}, {"rental_uris": {"ios": "https://dc.lft.to/lastmile_qr_scan", "android": "https://dc.lft.to/lastmile_qr_scan"}, "type": "electric_scooter", "name": "0a4eb77e60d2e9ef6550566feaeaded6", "is_reserved": 0, "lon": -77.0271025, "is_disabled": 0, "fusion_lat": 0.0, "lat": 38.906691, "bike_id": "0a4eb77e60d2e9ef6550566feaeaded6", "fusion_lon": 0.0}, {"rental_uris": {"ios": "https://dc.lft.to/lastmile_qr_scan", "android": "https://dc.lft.to/lastmile_qr_scan"}, "type": "electric_scooter", "name": "a3b526078fd066e816ff2df490792755", "is_reserved": 0, "lon": -77.04884683333333, "is_disabled": 0, "fusion_lat": 0.0, "lat": 38.910226333333334, "bike_id": "a3b526078fd066e816ff2df490792755", "fusion_lon": 0.0}, {"rental_uris": {"ios": "https://dc.lft.to/lastmile_qr_scan", "android": "https://dc.lft.to/lastmile_qr_scan"}, "type": "electric_scooter", "name": "7101206e67c9ed813f175174dd564d09", "is_reserved": 0, "lon": -77.02190216666666, "is_disabled": 0, "fusion_lat": 0.0, "lat": 38.894599, "bike_id": "7101206e67c9ed813f175174dd564d09", "fusion_lon": 0.0}, {"rental_uris": {"ios": "https://dc.lft.to/lastmile_qr_scan", "android": "https://dc.lft.to/lastmile_qr_scan"}, "type": "electric_scooter", "name": "809b91c286ee44ae71e00318b7db51af", "is_reserved": 0, "lon": -77.04149516666666, "is_disabled": 0, "fusion_lat": 0.0, "lat": 38.917031, "bike_id": "809b91c286ee44ae71e00318b7db51af", "fusion_lon": 0.0}, {"rental_uris": {"ios": "https://dc.lft.to/lastmile_qr_scan", "android": "https://dc.lft.to/lastmile_qr_scan"}, "type": "electric_scooter", "name": "f165a46e8e3db5b085e18910a15ab583", "is_reserved": 0, "lon": -77.018531, "is_disabled": 0, "fusion_lat": 0.0, "lat": 38.914924666666664, "bike_id": "f165a46e8e3db5b085e18910a15ab583", "fusion_lon": 0.0}, {"rental_uris": {"ios": "https://dc.lft.to/lastmile_qr_scan", "android": "https://dc.lft.to/lastmile_qr_scan"}, "type": "electric_scooter", "name": "05da36c2bcb59bed97d90939afd87589", "is_reserved": 0, "lon": -77.0413235, "is_disabled": 0, "fusion_lat": 0.0, "lat": 38.93275383333334, "bike_id": "05da36c2bcb59bed97d90939afd87589", "fusion_lon": 0.0}, {"rental_uris": {"ios": "https://dc.lft.to/lastmile_qr_scan", "android": "https://dc.lft.to/lastmile_qr_scan"}, "type": "electric_scooter", "name": "0b5f2b161311bd03d8732f439d88fdc4", "is_reserved": 0, "lon": -77.0294955, "is_disabled": 0, "fusion_lat": 0.0, "lat": 38.918002333333334, "bike_id": "0b5f2b161311bd03d8732f439d88fdc4", "fusion_lon": 0.0}, {"rental_uris": {"ios": "https://dc.lft.to/lastmile_qr_scan", "android": "https://dc.lft.to/lastmile_qr_scan"}, "type": "electric_scooter", "name": "cb0bd08b2058a4b895e907928b959e72", "is_reserved": 0, "lon": -76.98546916666666, "is_disabled": 0, "fusion_lat": 0.0, "lat": 38.87999766666667, "bike_id": "cb0bd08b2058a4b895e907928b959e72", "fusion_lon": 0.0}, {"rental_uris": {"ios": "https://dc.lft.to/lastmile_qr_scan", "android": "https://dc.lft.to/lastmile_qr_scan"}, "type": "electric_scooter", "name": "9f2b01945fe9aff79164334b92d36c0e", "is_reserved": 0, "lon": -76.98108766666667, "is_disabled": 0, "fusion_lat": 0.0, "lat": 38.902460833333336, "bike_id": "9f2b01945fe9aff79164334b92d36c0e", "fusion_lon": 0.0}, {"rental_uris": {"ios": "https://dc.lft.to/lastmile_qr_scan", "android": "https://dc.lft.to/lastmile_qr_scan"}, "type": "electric_scooter", "name": "baf0ce81695b87094d5cceb1fba3c9bb", "is_reserved": 0, "lon": -77.04347683333333, "is_disabled": 0, "fusion_lat": 0.0, "lat": 38.90600883333333, "bike_id": "baf0ce81695b87094d5cceb1fba3c9bb", "fusion_lon": 0.0}, {"rental_uris": {"ios": "https://dc.lft.to/lastmile_qr_scan", "android": "https://dc.lft.to/lastmile_qr_scan"}, "type": "electric_scooter", "name": "997cb5fed056558401b452e03da54855", "is_reserved": 0, "lon": -76.96985016666666, "is_disabled": 0, "fusion_lat": 0.0, "lat": 38.85268633333333, "bike_id": "997cb5fed056558401b452e03da54855", "fusion_lon": 0.0}, {"rental_uris": {"ios": "https://dc.lft.to/lastmile_qr_scan", "android": "https://dc.lft.to/lastmile_qr_scan"}, "type": "electric_scooter", "name": "4a5f88529ca267a28f12a7342473572c", "is_reserved": 0, "lon": -77.03206666666667, "is_disabled": 0, "fusion_lat": 0.0, "lat": 38.9093935, "bike_id": "4a5f88529ca267a28f12a7342473572c", "fusion_lon": 0.0}, {"rental_uris": {"ios": "https://dc.lft.to/lastmile_qr_scan", "android": "https://dc.lft.to/lastmile_qr_scan"}, "type": "electric_scooter", "name": "3ff3bcd138acebab3b31046caf5e36c9", "is_reserved": 0, "lon": -77.03194, "is_disabled": 0, "fusion_lat": 0.0, "lat": 38.91634833333333, "bike_id": "3ff3bcd138acebab3b31046caf5e36c9", "fusion_lon": 0.0}, {"rental_uris": {"ios": "https://dc.lft.to/lastmile_qr_scan", "android": "https://dc.lft.to/lastmile_qr_scan"}, "type": "electric_scooter", "name": "7fd8fd3774835eedcd3a34f93f338698", "is_reserved": 0, "lon": -77.01758966666667, "is_disabled": 0, "fusion_lat": 0.0, "lat": 38.876680666666665, "bike_id": "7fd8fd3774835eedcd3a34f93f338698", "fusion_lon": 0.0},