{"data": {"bikes": [{"lon": -77.029405, "bike_id": "20035538470a99b5ed21802242c0cd0c", "lat": 38.91696066666667, "fusion_lon": 0.0, "fusion_lat": 0.0, "type": "electric_scooter", "name": "20035538470a99b5ed21802242c0cd0c", "is_disabled": 0, "rental_uris": {"ios": "https://dc.lft.to/lastmile_qr_scan", "android": "https://dc.lft.to/lastmile_qr_scan"}, "is_reserved": 0}, {"lon": -77.02238116666666, "bike_id": "ae3c60e3fac45b604081734289471285", "lat": 38.962005, "fusion_lon": 0.0, "fusion_lat": 0.0, "type": "electric_scooter", "name": "ae3c60e3fac45b604081734289471285", "is_disabled": 0, "rental_uris": {"ios": "https://dc.lft.to/lastmile_qr_scan", "android": "https://dc.lft.to/lastmile_qr_scan"}, "is_reserved": 0}, {"lon": -77.06013133333333, "bike_id": "5291345af0b3e4d21e95d107eb506c5b", "lat": 38.901162666666664, "fusion_lon": 0.0, "fusion_lat": 0.0, "type": "electric_scooter", "name": "5291345af0b3e4d21e95d107eb506c5b", "is_disabled": 0, "rental_uris": {"ios": "https://dc.lft.to/lastmile_qr_scan", "android": "https://dc.lft.to/lastmile_qr_scan"}, "is_reserved": 0}, {"lon": -77.01956, "bike_id": "f6d87ba5597b83d261d7726a8e34accb", "lat": 38.87850366666667, "fusion_lon": 0.0, "fusion_lat": 0.0, "type": "electric_scooter", "name": "f6d87ba5597b83d261d7726a8e34accb", "is_disabled": 0, "rental_uris": {"ios": "https://dc.lft.to/lastmile_qr_scan", "android": "https://dc.lft.to/lastmile_qr_scan"}, "is_reserved": 0}, {"lon": -77.0219595, "bike_id": "fd354a5bf078af6b8f617bdffe6676a1", "lat": 38.901350666666666, "fusion_lon": 0.0, "fusion_lat": 0.0, "type": "electric_scooter", "name": "fd354a5bf078af6b8f617bdffe6676a1", "is_disabled": 0, "rental_uris": {"ios": "https://dc.lft.to/lastmile_qr_scan", "android": "https://dc.lft.to/lastmile_qr_scan"}, "is_reserved": 0}, {"lon": -77.048777, "bike_id": "44b7b351a28c3079a3621327f33f7b63", "lat": 38.892316666666666, "fusion_lon": 0.0, "fusion_lat": 0.0, "type": "electric_scooter", "name": "44b7b351a28c3079a3621327f33f7b63", "is_disabled": 0, "rental_uris": {"ios": "https://dc.lft.to/lastmile_qr_scan", "android": "https://dc.lft.to/lastmile_qr_scan"}, "is_reserved": 0}, {"lon": -77.02530516666667, "bike_id": "9b45fdb16be7732f7fdcba3eaa24e9c5", "lat": 38.905713666666664, "fusion_lon": 0.0, "fusion_lat": 0.0, "type": "electric_scooter", "name": "9b45fdb16be7732f7fdcba3eaa24e9c5", "is_disabled": 0, "rental_uris": {"ios": "https://dc.lft.to/lastmile_qr_scan", "android": "https://dc.lft.to/lastmile_qr_scan"}, "is_reserved": 0}, {"lon": -77.03220466666667, "bike_id": "83214c7d11a698be6e61d2c72f293bfa", "lat": 38.89242483333334, "fusion_lon": 0.0, "fusion_lat": 0.0, "type": "electric_scooter", "name": "83214c7d11a698be6e61d2c72f293bfa", "is_disabled": 0, "rental_uris": {"ios": "https://dc.lft.to/lastmile_qr_scan", "android": "https://dc.lft.to/lastmile_qr_scan"}, "is_reserved": 0}, {"lon": -77.029792, "bike_id": "e976eb0e99c85bdc36c19a36c14385b2", "lat": 38.91623883333333, "fusion_lon": 0.0, "fusion_lat": 0.0, "type": "electric_scooter", "name": "e976eb0e99c85bdc36c19a36c14385b2", "is_disabled": 0, "rental_uris": {"ios": "https://dc.lft.to/lastmile_qr_scan", "android": "https://dc.lft.to/lastmile_qr_scan"}, "is_reserved": 0}, {"lon": -77.115958, "bike_id": "da345de3086aeb6f34ff871c4863e07e", "lat": 39.07493016666667, "fusion_lon": 0.0, "fusion_lat": 0.0, "type": "electric_bike", "name": "da345de3086aeb6f34ff871c4863e07e", "is_disabled": 0, "rental_uris": {"ios": "https://dc.lft.to/lastmile_qr_scan", "android": "https://dc.lft.to/lastmile_qr_scan"}, "is_reserved": 0}, {"lon": -77.0269275, "bike_id": "6b4dc15c60cf72ea79a2ebae9dc16894", "lat": 38.909594, "fusion_lon": 0.0, "fusion_lat": 0.0, "type": "electric_scooter", "name": "6b4dc15c60cf72ea79a2ebae9dc16894", "is_disabled": 0, "rental_uris": {"ios": "https://dc.lft.to/lastmile_qr_scan", "android": "https://dc.lft.to/lastmile_qr_scan"}, "is_reserved": 0}, {"lon": -76.9905135, "bike_id": "e91031bddc8956b1df66978720967867", "lat": 38.863792833333335, "fusion_lon": 0.0, "fusion_lat": 0.0, "type": "electric_scooter", "name": "e91031bddc8956b1df66978720967867", "is_disabled": 0, "rental_uris": {"ios": "https://dc.lft.to/lastmile_qr_scan", "android": "https://dc.lft.to/lastmile_qr_scan"}, "is_reserved": 0}, {"lon": -76.9993225, "bike_id": "9ebd4c80877244ceca37b257df3cf761", "lat": 38.84311316666667, "fusion_lon": 0.0, "fusion_lat": 0.0, "type": "electric_scooter", "name": "9ebd4c80877244ceca37b257df3cf761", "is_disabled": 0, "rental_uris": {"ios": "https://dc.lft.to/lastmile_qr_scan", "android": "https://dc.lft.to/lastmile_qr_scan"}, "is_reserved": 0}, {"lon": -77.03119633333333, "bike_id": "7dc6285b9659e9d8b4674f00939fc831", "lat": 38.9126825, "fusion_lon": 0.0, "fusion_lat": 0.0, "type": "electric_scooter", "name": "7dc6285b9659e9d8b4674f00939fc831", "is_disabled": 0, "rental_uris": {"ios": "https://dc.lft.to/lastmile_qr_scan", "android": "https://dc.lft.to/lastmile_qr_scan"}, "is_reserved": 0}, {"lon": -76.99071266666667, "bike_id": "4d83eb416c79a9c5aec7f8b33f3eb420", "lat": 38.927451833333336, "fusion_lon": 0.0, "fusion_lat": 0.0, "type": "electric_scooter", "name": "4d83eb416c79a9c5aec7f8b33f3eb420", "is_disabled": 0, "rental_uris": {"ios": "https://dc.lft.to/lastmile_qr_scan", "android": "https://dc.lft.to/lastmile_qr_scan"}, "is_reserved": 0}, {"lon": -76.969151, "bike_id": "de3e6d27fa6819c7e7948a3e3216ad51", "lat": 38.84610583333333, "fusion_lon": 0.0, "fusion_lat": 0.0, "type": "electric_bike", "name": "de3e6d27fa6819c7e7948a3e3216ad51", "is_disabled": 0, "rental_uris": {"ios": "https://dc.lft.to/lastmile_qr_scan", "android": "https://dc.lft.to/lastmile_qr_scan"}, "is_reserved": 0}, {"lon": -77.06307016666666, "bike_id": "8e5b52492ab7bcdb178c728af6efd867", "lat": 38.9060685, "fusion_lon": 0.0, "fusion_lat": 0.0, "type": "electric_scooter", "name": "8e5b52492ab7bcdb178c728af6efd867", "is_disabled": 0, "rental_uris": {"ios": "https://dc.lft.to/lastmile_qr_scan", "android": "https://dc.lft.to/lastmile_qr_scan"}, "is_reserved": 0}, {"lon": -77.033452, "bike_id": "ef6af1710ebe1a63b63894c4af8c56c4", "lat": 38.9287585, "fusion_lon": 0.0, "fusion_lat": 0.0, "type": "electric_scooter", "name": "ef6af1710ebe1a63b63894c4af8c56c4", "is_disabled": 0, "rental_uris": {"ios": "https://dc.lft.to/lastmile_qr_scan", "android": "https://dc.lft.to/lastmile_qr_scan"}, "is_reserved": 0}, {"lon": -76.9700145, "bike_id": "b68b282c4172b538688c2071fdd0133e", "lat": 38.873729833333336, "fusion_lon": 0.0, "fusion_lat": 0.0, "type": "electric_scooter", "name": "b68b282c4172b538688c2071fdd0133e", "is_disabled": 0, "rental_uris": {"ios": "https://dc.lft.to/lastmile_qr_scan", "android": "https://dc.lft.to/lastmile_qr_scan"}, "is_reserved": 0}, {"lon": -77.06147433333334, "bike_id": "3e94dbf8125a9adf4ce63142fcd13405", "lat": 38.943571, "fusion_lon": 0.0, "fusion_lat": 0.0, "type": "electric_scooter", "name": "3e94dbf8125a9adf4ce63142fcd13405", "is_disabled": 0, "rental_uris": {"ios": "https://dc.lft.to/lastmile_qr_scan", "android": "https://dc.lft.to/lastmile_qr_scan"}, "is_reserved": 0}, {"lon": -76.977491, "bike_id": "c86e7bfb998980b5479edca057aa217c", "lat": 38.89896566666667, "fusion_lon": 0.0, "fusion_lat": 0.0, "type": "electric_scooter", "name": "c86e7bfb998980b5479edca057aa217c", "is_disabled": 0, "rental_uris": {"ios": "https://dc.lft.to/lastmile_qr_scan", "android": "https://dc.lft.to/lastmile_qr_scan"}, "is_reserved": 0}, {"lon": -77.024277, "bike_id": "fea9e9fd33bb550aa91059f16422ce8b", "lat": 38.937528, "fusion_lon": 0.0, "fusion_lat": 0.0, "type": "electric_scooter", "name": "fea9e9fd33bb550aa91059f16422ce8b", "is_disabled": 0, "rental_uris": {"ios": "https://dc.lft.to/lastmile_qr_scan", "android": "https://dc.lft.to/lastmile_qr_scan"}, "is_reserved": 0}, {"lon": -77.01980716666667, "bike_id": "a50c40dee9ae51ede40eba61b2a5a997", "lat": 38.8861045, "fusion_lon": 0.0, "fusion_lat": 0.0, "type": "electric_scooter", "name": "a50c40dee9ae51ede40eba61b2a5a997", "is_disabled": 0, "rental_uris": {"ios": "https://dc.lft.to/lastmile_qr_scan", "android": "https://dc.lft.to/lastmile_qr_scan"}, "is_reserved": 0}, {"lon": -77.02291983333333, "bike_id": "1b64573cd3a5ee1ea5ab50b1a5749ac6", "lat": 38.915995333333335, "fusion_lon": 0.0, "fusion_lat": 0.0, "type": "electric_bike", "name": "1b64573cd3a5ee1ea5ab50b1a5749ac6", "is_disabled": 0, "rental_uris": {"ios": "https://dc.lft.to/lastmile_qr_scan", "android": "https://dc.lft.to/lastmile_qr_scan"}, "is_reserved": 0}, {"lon": -77.02173066666667, "bike_id": "aefa729f2fdc6c0531d5a9fb240f1597", "lat": 38.916063, "fusion_lon": 0.0, "fusion_lat": 0.0, "type": "electric_scooter", "name": "aefa729f2fdc6c0531d5a9fb240f1597", "is_disabled": 0, "rental_uris": {"ios": "https://dc.lft.to/lastmile_qr_scan", "android": "https://dc.lft.to/lastmile_qr_scan"}, "is_reserved": 0}, {"lon": -77.00599583333333, "bike_id": "02cb40dbaba69930827aff985f9ab0c9", "lat": 38.8717935, "fusion_lon": 0.0, "fusion_lat": 0.0, "type": "electric_bike", "name": "02cb40dbaba69930827aff985f9ab0c9", "is_disabled": 0, "rental_uris": {"ios": "https://dc.lft.to/lastmile_qr_scan", "android": "https://dc.lft.to/lastmile_qr_scan"}, "is_reserved": 0}, {"lon": -77.02427733333333, "bike_id": "7644d761e32ab56fa0b1b91a57cf1688", "lat": 38.922851666666666, "fusion_lon": 0.0, "fusion_lat": 0.0, "type": "electric_scooter", "name": "7644d761e32ab56fa0b1b91a57cf1688", "is_disabled": 0, "rental_uris": {"ios": "https://dc.lft.to/lastmile_qr_scan", "android": "https://dc.lft.to/lastmile_qr_scan"}, "is_reserved": 0}, {"lon": -77.04246633333334, "bike_id": "3158f8fc6faea404dbac80cdffcf35a1", "lat": 38.909599166666666, "fusion_lon": 0.0, "fusion_lat": 0.0, "type": "electric_scooter", "name": "3158f8fc6faea404dbac80cdffcf35a1", "is_disabled": 0, "rental_uris": {"ios": "https://dc.lft.to/lastmile_qr_scan", "android": "https://dc.lft.to/lastmile_qr_scan"}, "is_reserved": 0}, {"lon": -77.03140533333334, "bike_id": "341125defb6bd4df520458481c38b43c", "lat": 38.91562716666667, "fusion_lon": 0.0, "fusion_lat": 0.0, "type": "electric_scooter", "name": "341125defb6bd4df520458481c38b43c", "is_disabled": 0, "rental_uris": {"ios": "https://dc.lft.to/lastmile_qr_scan", "android": "https://dc.lft.to/lastmile_qr_scan"}, "is_reserved": 0}, {"lon": -77.035859, "bike_id": "37358b120bf2d5f3afdf6059b6e4bcc1", "lat": 38.9096385, "fusion_lon": 0.0, "fusion_lat": 0.0, "type": "electric_scooter", "name": "37358b120bf2d5f3afdf6059b6e4bcc1", "is_disabled": 0, "rental_uris": {"ios": "https://dc.lft.to/lastmile_qr_scan", "android": "https://dc.lft.to/lastmile_qr_scan"}, "is_reserved": 0}, {"lon": -77.07791116666667, "bike_id": "357c6d11a9197fde200256a26e362721", "lat": 38.99605666666667, "fusion_lon": 0.0, "fusion_lat": 0.0, "type": "electric_bike", "name": "357c6d11a9197fde200256a26e362721", "is_disabled": 0, "rental_uris": {"ios": "https://dc.lft.to/lastmile_qr_scan", "android": "https://dc.lft.to/lastmile_qr_scan"}, "is_reserved": 0}, {"lon": -77.001879, "bike_id": "7794fdaf8d3689b922aa79f9f20b906f", "lat": 38.89099383333333, "fusion_lon": 0.0, "fusion_lat": 0.0, "type": "electric_scooter", "name": "7794fdaf8d3689b922aa79f9f20b906f", "is_disabled": 0, "rental_uris": {"ios": "https://dc.lft.to/lastmile_qr_scan", "android": "https://dc.lft.to/lastmile_qr_scan"}, "is_reserved": 0}, {"lon": -77.05269783333334, "bike_id": "e0140d0cc70c9c83bdbc8fd131e167c8", "lat": 38.899710666666664, "fusion_lon": 0.0, "fusion_lat": 0.0, "type": "electric_scooter", "name": "e0140d0cc70c9c83bdbc8fd131e167c8", "is_disabled": 0, "rental_uris": {"ios": "https://dc.lft.to/lastmile_qr_scan", "android": "https://dc.lft.to/lastmile_qr_scan"}, "is_reserved": 0}, {"lon": -77.05000366666667, "bike_id": "8105041e0f77f511ae4b06e07fdc4eab", "lat": 38.8999015, "fusion_lon": 0.0, "fusion_lat": 0.0, "type": "electric_scooter", "name": "8105041e0f77f511ae4b06e07fdc4eab", "is_disabled": 0, "rental_uris": {"ios": "https://dc.lft.to/lastmile_qr_scan", "android": "https://dc.lft.to/lastmile_qr_scan"}, "is_reserved": 0}, {"lon": -77.04316416666667, "bike_id": "d731f5ec74e189afb193c04becee5225", "lat": 38.8919725, "fusion_lon": 0.0, "fusion_lat": 0.0, "type": "electric_scooter", "name": "d731f5ec74e189afb193c04becee5225", "is_disabled": 0, "rental_uris": {"ios": "https://dc.lft.to/lastmile_qr_scan", "android": "https://dc.lft.to/lastmile_qr_scan"}, "is_reserved": 0}, {"lon": -76.9160225, "bike_id": "3c63f9b3a03e22deb0e4370edd69fe5c", "lat": 38.87979, "fusion_lon": 0.0, "fusion_lat": 0.0, "type": "electric_bike", "name": "3c63f9b3a03e22deb0e4370edd69fe5c", "is_disabled": 0, "rental_uris": {"ios": "https://dc.lft.to/lastmile_qr_scan", "android": "https://dc.lft.to/lastmile_qr_scan"}, "is_reserved": 0}, {"lon": -76.94885, "bike_id": "a718b5769ba9c970ee5c35866e066f29", "lat": 38.895094, "fusion_lon": 0.0, "fusion_lat": 0.0, "type": "electric_scooter", "name": "a718b5769ba9c970ee5c35866e066f29", "is_disabled": 0, "rental_uris": {"ios": "https://dc.lft.to/lastmile_qr_scan", "android": "https://dc.lft.to/lastmile_qr_scan"}, "is_reserved": 0}, {"lon": -77.02173416666666, "bike_id": "7265014475f654fb7fb108bc532e8a45", "lat": 38.897460333333335, "fusion_lon": 0.0, "fusion_lat": 0.0, "type": "electric_scooter", "name": "7265014475f654fb7fb108bc532e8a45", "is_disabled": 0, "rental_uris": {"ios": "https://dc.lft.to/lastmile_qr_scan", "android": "https://dc.lft.to/lastmile_qr_scan"}, "is_reserved": 0}, {"lon": -77.02690616666666, "bike_id": "26b5a63d062b7ad97c9a3069e8b38e1c", "lat": 38.900845833333335, "fusion_lon": 0.0, "fusion_lat": 0.0, "type": "electric_scooter", "name": "26b5a63d062b7ad97c9a3069e8b38e1c", "is_disabled": 0, "rental_uris": {"ios": "https://dc.lft.to/lastmile_qr_scan", "android": "https://dc.lft.to/lastmile_qr_scan"}, "is_reserved": 0}, {"lon": -77.08200333333333, "bike_id": "17426ec508f46f9750f6c3c30e6d3c3e", "lat": 38.935148833333336, "fusion_lon": 0.0, "fusion_lat": 0.0, "type": "electric_scooter", "name": "17426ec508f46f9750f6c3c30e6d3c3e", "is_disabled": 0, "rental_uris": {"ios": "https://dc.lft.to/lastmile_qr_scan", "android": "https://dc.lft.to/lastmile_qr_scan"}, "is_reserved": 0}, {"lon": -76.99502266666667, "bike_id": "efeeaf19bb27656fc0d0a3b232e8ab76", "lat": 38.883072166666665, "fusion_lon": 0.0, "fusion_lat": 0.0, "type": "electric_scooter", "name": "efeeaf19bb27656fc0d0a3b232e8ab76", "is_disabled": 0, "rental_uris": {"ios": "https://dc.lft.to/lastmile_qr_scan", "android": "https://dc.lft.to/lastmile_qr_scan"}, "is_reserved": 0}, {"lon": -77.043445, "bike_id": "2e0d403e8bfe424c9c53259d816a558c", "lat": 38.90502433333333, "fusion_lon": 0.0, "fusion_lat": 0.0, "type": "electric_scooter", "name": "2e0d403e8bfe424c9c53259d816a558c", "is_disabled": 0, "rental_uris": {"ios": "https://dc.lft.to/lastmile_qr_scan", "android": "https://dc.lft.to/lastmile_qr_scan"}, "is_reserved": 0}, {"lon": -76.96550783333333, "bike_id": "b9d0205ce4cf9ee9e27ae7bd9a98d1e4", "lat": 38.918525, "fusion_lon": 0.0, "fusion_lat": 0.0, "type": "electric_scooter", "name": "b9d0205ce4cf9ee9e27ae7bd9a98d1e4", "is_disabled": 0, "rental_uris": {"ios": "https://dc.lft.to/lastmile_qr_scan", "android": "https://dc.lft.to/lastmile_qr_scan"}, "is_reserved": 0}, {"lon": -77.0586395, "bike_id": "3840fbdfae0424fc4b0359b3affd0259", "lat": 38.9360655, "fusion_lon": 0.0, "fusion_lat": 0.0, "type": "electric_scooter", "name": "3840fbdfae0424fc4b0359b3affd0259", "is_disabled": 0, "rental_uris": {"ios": "https://dc.lft.to/lastmile_qr_scan", "android": "https://dc.lft.to/lastmile_qr_scan"}, "is_reserved": 0}, {"lon": -76.990472, "bike_id": "1ce48d275eb3ccd262ba1653cbe44503", "lat": 38.8841665, "fusion_lon": 0.0, "fusion_lat": 0.0, "type": "electric_scooter", "name": "1ce48d275eb3ccd262ba1653cbe44503", "is_disabled": 0, "rental_uris": {"ios": "https://dc.lft.to/lastmile_qr_scan", "android": "https://dc.lft.to/lastmile_qr_scan"}, "is_reserved": 0}, {"lon": -77.01867116666666, "bike_id": "682a6c0e384764b6a99276403146ee51", "lat": 38.90403883333333, "fusion_lon": 0.0, "fusion_lat": 0.0, "type": "electric_scooter", "name": "682a6c0e384764b6a99276403146ee51", "is_disabled": 0, "rental_uris": {"ios": "https://dc.lft.to/lastmile_qr_scan", "android": "https://dc.lft.to/lastmile_qr_scan"}, "is_reserved": 0}, {"lon": -77.033512, "bike_id": "d1acc19b89247c84d4489f17c8679684", "lat": 38.892549333333335, "fusion_lon": 0.0, "fusion_lat": 0.0, "type": "electric_scooter", "name": "d1acc19b89247c84d4489f17c8679684", "is_disabled": 0, "rental_uris": {"ios": "https://dc.lft.to/lastmile_qr_scan", "android": "https://dc.lft.to/lastmile_qr_scan"}, "is_reserved": 0}, {"lon": -77.041567, "bike_id": "9373533893cbb569e6122e7058913f8a", "lat": 38.914181166666665, "fusion_lon": 0.0, "fusion_lat": 0.0, "type": "electric_scooter", "name": "9373533893cbb569e6122e7058913f8a", "is_disabled": 0, "rental_uris": {"ios": "https://dc.lft.to/lastmile_qr_scan", "android": "https://dc.lft.to/lastmile_qr_scan"}, "is_reserved": 0}, {"lon": -77.0317365, "bike_id": "b98cc30e9fb7bb8bbfc4586f35191902", "lat": 38.936894333333335, "fusion_lon": 0.0, "fusion_lat": 0.0, "type": "electric_scooter", "name": "b98cc30e9fb7bb8bbfc4586f35191902", "is_disabled": 0, "rental_uris": {"ios": "https://dc.lft.to/lastmile_qr_scan", "android": "https://dc.lft.to/lastmile_qr_scan"}, "is_reserved": 0}, {"lon": -76.9300445, "bike_id": "29515e69af3ad26b807f982b6d736d44", "lat": 38.89190833333333, "fusion_lon": 0.0, "fusion_lat": 0.0, "type": "electric_scooter", "name": "29515e69af3ad26b807f982b6d736d44", "is_disabled": 0, "rental_uris": {"ios": "https://dc.lft.to/lastmile_qr_scan", "android": "https://dc.lft.to/lastmile_qr_scan"}, "is_reserved": 0}, {"lon": -77.01212916666667, "bike_id": "754a466d684da66093d82da24624b85e", "lat": 38.92120583333333, "fusion_lon": 0.0, "fusion_lat": 0.0, "type": "electric_scooter", "name": "754a466d684da66093d82da24624b85e", "is_disabled": 0, "rental_uris": {"ios": "https://dc.lft.to/lastmile_qr_scan", "android": "https://dc.lft.to/lastmile_qr_scan"}, "is_reserved": 0}, {"lon": -77.04388366666667, "bike_id": "08d4d576d8e5aac5131079cd892d2623", "lat": 38.921136, "fusion_lon": 0.0, "fusion_lat": 0.0, "type": "electric_scooter", "name": "08d4d576d8e5aac5131079cd892d2623", "is_disabled": 0, "rental_uris": {"ios": "https://dc.lft.to/lastmile_qr_scan", "android": "https://dc.lft.to/lastmile_qr_scan"}, "is_reserved": 0}, {"lon": -77.10489933333334, "bike_id": "2cbf1dcf5fdb64ba4e0a2c0e55b17c4b", "lat": 38.8560575, "fusion_lon": 0.0, "fusion_lat": 0.0, "type": "electric_bike", "name": "2cbf1dcf5fdb64ba4e0a2c0e55b17c4b", "is_disabled": 0, "rental_uris": {"ios": "https://dc.lft.to/lastmile_qr_scan", "android": "https://dc.lft.to/lastmile_qr_scan"}, "is_reserved": 0}, {"lon": -76.97536566666666, "bike_id": "53898258dc0e5b2fcb1b448718fdb469", "lat": 38.8642235, "fusion_lon": 0.0, "fusion_lat": 0.0, "type": "electric_scooter", "name": "53898258dc0e5b2fcb1b448718fdb469", "is_disabled": 0, "rental_uris": {"ios": "https://dc.lft.to/lastmile_qr_scan", "android": "https://dc.lft.to/lastmile_qr_scan"}, "is_reserved": 0}, {"lon": -77.05161566666666, "bike_id": "c7f5a400d407d862419c522e848caf02", "lat": 39.043050666666666, "fusion_lon": 0.0, "fusion_lat": 0.0, "type": "electric_bike", "name": "c7f5a400d407d862419c522e848caf02", "is_disabled": 0, "rental_uris": {"ios": "https://dc.lft.to/lastmile_qr_scan", "android": "https://dc.lft.to/lastmile_qr_scan"}, "is_reserved": 0}, {"lon": -76.98108533333334, "bike_id": "8f93a0208349fbc45f5480dc8d37cab0", "lat": 38.91472983333333, "fusion_lon": 0.0, "fusion_lat": 0.0, "type": "electric_scooter", "name": "8f93a0208349fbc45f5480dc8d37cab0", "is_disabled": 0, "rental_uris": {"ios": "https://dc.lft.to/lastmile_qr_scan", "android": "https://dc.lft.to/lastmile_qr_scan"}, "is_reserved": 0}, {"lon": -77.05697483333333, "bike_id": "4f26f3f5c85318bce504b6b21f704fec", "lat": 38.937135166666664, "fusion_lon": 0.0, "fusion_lat": 0.0, "type": "electric_scooter", "name": "4f26f3f5c85318bce504b6b21f704fec", "is_disabled": 0, "rental_uris": {"ios": "https://dc.lft.to/lastmile_qr_scan", "android": "https://dc.lft.to/lastmile_qr_scan"}, "is_reserved": 0}, {"lon": -76.99533166666667, "bike_id": "68373c218277cff9feb1876d1337cbd2", "lat": 38.883743833333334, "fusion_lon": 0.0, "fusion_lat": 0.0, "type": "electric_scooter", "name": "68373c218277cff9feb1876d1337cbd2", "is_disabled": 0, "rental_uris": {"ios": "https://dc.lft.to/lastmile_qr_scan", "android": "https://dc.lft.to/lastmile_qr_scan"}, "is_reserved": 0}, {"lon": -77.05723466666667, "bike_id": "bf0dddefe75c27eded59d35d3d3497f7", "lat": 38.93363383333333, "fusion_lon": 0.0, "fusion_lat": 0.0, "type": "electric_scooter", "name": "bf0dddefe75c27eded59d35d3d3497f7", "is_disabled": 0, "rental_uris": {"ios": "https://dc.lft.to/lastmile_qr_scan", "android": "https://dc.lft.to/lastmile_qr_scan"}, "is_reserved": 0}, {"lon": -77.0433825, "bike_id": "c43f554a4b5ab28e97a289005475ae50", "lat": 38.92214766666667, "fusion_lon": 0.0, "fusion_lat": 0.0, "type": "electric_scooter", "name": "c43f554a4b5ab28e97a289005475ae50", "is_disabled": 0, "rental_uris": {"ios": "https://dc.lft.to/lastmile_qr_scan", "android": "https://dc.lft.to/lastmile_qr_scan"}, "is_reserved": 0}, {"lon": -77.00058566666667, "bike_id": "481e505c74605e1881785b2376e9ca7c", "lat": 38.8949055, "fusion_lon": 0.0, "fusion_lat": 0.0, "type": "electric_scooter", "name": "481e505c74605e1881785b2376e9ca7c", "is_disabled": 0, "rental_uris": {"ios": "https://dc.lft.to/lastmile_qr_scan", "android": "https://dc.lft.to/lastmile_qr_scan"}, "is_reserved": 0}, {"lon": -77.04277783333333, "bike_id": "2fe622933601bba073e068e4be1f5506", "lat": 38.907221666666665, "fusion_lon": 0.0, "fusion_lat": 0.0, "type": "electric_scooter", "name": "2fe622933601bba073e068e4be1f5506", "is_disabled": 0, "rental_uris": {"ios": "https://dc.lft.to/lastmile_qr_scan", "android": "https://dc.lft.to/lastmile_qr_scan"}, "is_reserved": 0}, {"lon": -76.98230833333334, "bike_id": "cc877184d110a861cb43ffac87c1bd52", "lat": 38.88644083333333, "fusion_lon": 0.0, "fusion_lat": 0.0, "type": "electric_scooter", "name": "cc877184d110a861cb43ffac87c1bd52", "is_disabled": 0, "rental_uris": {"ios": "https://dc.lft.to/lastmile_qr_scan", "android": "https://dc.lft.to/lastmile_qr_scan"}, "is_reserved": 0}, {"lon": -77.039152, "bike_id": "fb0473a4f1f5733b722fab1fab44aee2", "lat": 38.92314066666667, "fusion_lon": 0.0, "fusion_lat": 0.0, "type": "electric_scooter", "name": "fb0473a4f1f5733b722fab1fab44aee2", "is_disabled": 0, "rental_uris": {"ios": "https://dc.lft.to/lastmile_qr_scan", "android": "https://dc.lft.to/lastmile_qr_scan"}, "is_reserved": 0}, {"lon": -77.04356466666667, "bike_id": "8556c72cd18f6911d9b35b788f6f78bd", "lat": 38.9215455, "fusion_lon": 0.0, "fusion_lat": 0.0, "type": "electric_scooter", "name": "8556c72cd18f6911d9b35b788f6f78bd", "is_disabled": 0, "rental_uris": {"ios": "https://dc.lft.to/lastmile_qr_scan", "android": "https://dc.lft.to/lastmile_qr_scan"}, "is_reserved": 0}, {"lon": -77.015609, "bike_id": "34631ceb87da360661ef06f331255348", "lat": 38.903274833333334, "fusion_lon": 0.0, "fusion_lat": 0.0, "type": "electric_scooter", "name": "34631ceb87da360661ef06f331255348", "is_disabled": 0, "rental_uris": {"ios": "https://dc.lft.to/lastmile_qr_scan", "android": "https://dc.lft.to/lastmile_qr_scan"}, "is_reserved": 0}, {"lon": -77.023992, "bike_id": "7a0fdfd60de657c11d1b9beaa2f5ba4a", "lat": 38.9197225, "fusion_lon": 0.0, "fusion_lat": 0.0, "type": "electric_scooter", "name": "7a0fdfd60de657c11d1b9beaa2f5ba4a", "is_disabled": 0, "rental_uris": {"ios": "https://dc.lft.to/lastmile_qr_scan", "android": "https://dc.lft.to/lastmile_qr_scan"}, "is_reserved": 0}, {"lon": -77.02961716666667, "bike_id": "fb8acb1d3d078293032049de8e637f99", "lat": 38.9238755, "fusion_lon": 0.0, "fusion_lat": 0.0, "type": "electric_scooter", "name": "fb8acb1d3d078293032049de8e637f99", "is_disabled": 0, "rental_uris": {"ios": "https://dc.lft.to/lastmile_qr_scan", "android": "https://dc.lft.to/lastmile_qr_scan"}, "is_reserved": 0}, {"lon": -77.0462365, "bike_id": "cb4a1d4847547e63cb8013ab42dfa297", "lat": 38.915699333333336, "fusion_lon": 0.0, "fusion_lat": 0.0, "type": "electric_scooter", "name": "cb4a1d4847547e63cb8013ab42dfa297", "is_disabled": 0, "rental_uris": {"ios": "https://dc.lft.to/lastmile_qr_scan", "android": "https://dc.lft.to/lastmile_qr_scan"}, "is_reserved": 0}, {"lon": -77.0212055, "bike_id": "f15c57bf256d33b044fac4def1b27f2f", "lat": 38.937017833333336, "fusion_lon": 0.0, "fusion_lat": 0.0, "type": "electric_scooter", "name": "f15c57bf256d33b044fac4def1b27f2f", "is_disabled": 0, "rental_uris": {"ios": "https://dc.lft.to/lastmile_qr_scan", "android": "https://dc.lft.to/lastmile_qr_scan"}, "is_reserved": 0}, {"lon": -77.00856316666666, "bike_id": "6d4bdd8bb60cfb70e510d600f2b7d33d", "lat": 38.87907383333334, "fusion_lon": 0.0, "fusion_lat": 0.0, "type": "electric_scooter", "name": "6d4bdd8bb60cfb70e510d600f2b7d33d", "is_disabled": 0, "rental_uris": {"ios": "https://dc.lft.to/lastmile_qr_scan", "android": "https://dc.lft.to/lastmile_qr_scan"}, "is_reserved": 0}, {"lon": -77.048758, "bike_id": "7bf5a84debbc8e913fbc98965b8a1fa5", "lat": 38.8984255, "fusion_lon": 0.0, "fusion_lat": 0.0, "type": "electric_scooter", "name": "7bf5a84debbc8e913fbc98965b8a1fa5", "is_disabled": 0, "rental_uris": {"ios": "https://dc.lft.to/lastmile_qr_scan", "android": "https://dc.lft.to/lastmile_qr_scan"}, "is_reserved": 0}, {"lon": -77.02450883333333, "bike_id": "0c0b2fa77db3f380a1b6ea25dcf5c03b", "lat": 38.91413883333333, "fusion_lon": 0.0, "fusion_lat": 0.0, "type": "electric_scooter", "name": "0c0b2fa77db3f380a1b6ea25dcf5c03b", "is_disabled": 0, "rental_uris": {"ios": "https://dc.lft.to/lastmile_qr_scan", "android": "https://dc.lft.to/lastmile_qr_scan"}, "is_reserved": 0}, {"lon": -77.05993366666667, "bike_id": "c6b65bff2cd0658b2f82fdaea797fd5e", "lat": 38.90237033333333, "fusion_lon": 0.0, "fusion_lat": 0.0, "type": "electric_scooter", "name": "c6b65bff2cd0658b2f82fdaea797fd5e", "is_disabled": 0, "rental_uris": {"ios": "https://dc.lft.to/lastmile_qr_scan", "android": "https://dc.lft.to/lastmile_qr_scan"}, "is_reserved": 0}, {"lon": -77.05203933333334, "bike_id": "a6586c395249a7eb1fbb383cd11fc8fe", "lat": 38.899573833333335, "fusion_lon": 0.0, "fusion_lat": 0.0, "type": "electric_scooter", "name": "a6586c395249a7eb1fbb383cd11fc8fe", "is_disabled": 0, "rental_uris": {"ios": "https://dc.lft.to/lastmile_qr_scan", "android": "https://dc.lft.to/lastmile_qr_scan"}, "is_reserved": 0}, {"lon": -77.0338065, "bike_id": "7a47d373ff6688b4e15be449f82845d0", "lat": 38.8996575, "fusion_lon": 0.0, "fusion_lat": 0.0, "type": "electric_scooter", "name": "7a47d373ff6688b4e15be449f82845d0", "is_disabled": 0, "rental_uris": {"ios": "https://dc.lft.to/lastmile_qr_scan", "android": "https://dc.lft.to/lastmile_qr_scan"}, "is_reserved": 0}, {"lon": -77.0426685, "bike_id": "3be381887b5a4ada13ee3b0eebd794d8", "lat": 38.89990366666667, "fusion_lon": 0.0, "fusion_lat": 0.0, "type": "electric_scooter", "name": "3be381887b5a4ada13ee3b0eebd794d8", "is_disabled": 0, "rental_uris": {"ios": "https://dc.lft.to/lastmile_qr_scan", "android": "https://dc.lft.to/lastmile_qr_scan"}, "is_reserved": 0}, {"lon": -77.03847066666667, "bike_id": "18d8bf2c5906bbd40834ba8634ac7c12", "lat": 38.9100725, "fusion_lon": 0.0, "fusion_lat": 0.0, "type": "electric_scooter", "name": "18d8bf2c5906bbd40834ba8634ac7c12", "is_disabled": 0, "rental_uris": {"ios": "https://dc.lft.to/lastmile_qr_scan", "android": "https://dc.lft.to/lastmile_qr_scan"}, "is_reserved": 0}, {"lon": -77.04483166666667, "bike_id": "175673fdba3dd053a8b20e52185e4931", "lat": 38.92424233333333, "fusion_lon": 0.0, "fusion_lat": 0.0, "type": "electric_scooter", "name": "175673fdba3dd053a8b20e52185e4931", "is_disabled": 0, "rental_uris": {"ios": "https://dc.lft.to/lastmile_qr_scan", "android": "https://dc.lft.to/lastmile_qr_scan"}, "is_reserved": 0}, {"lon": -77.00198883333333, "bike_id": "c5a465c4c0cdaaf776a75b560c47e131", "lat": 38.90239566666666, "fusion_lon": 0.0, "fusion_lat": 0.0, "type": "electric_scooter", "name": "c5a465c4c0cdaaf776a75b560c47e131", "is_disabled": 0, "rental_uris": {"ios": "https://dc.lft.to/lastmile_qr_scan", "android": "https://dc.lft.to/lastmile_qr_scan"}, "is_reserved": 0}, {"lon": -77.03185116666667, "bike_id": "0f57c371d04fbff77b2ce301725bf3fd", "lat": 38.92113783333333, "fusion_lon": 0.0, "fusion_lat": 0.0, "type": "electric_scooter", "name": "0f57c371d04fbff77b2ce301725bf3fd", "is_disabled": 0, "rental_uris": {"ios": "https://dc.lft.to/lastmile_qr_scan", "android": "https://dc.lft.to/lastmile_qr_scan"}, "is_reserved": 0}, {"lon": -77.04269083333334, "bike_id": "9493d6a5efa0a9b75246adfd79261b9f", "lat": 38.910094666666666, "fusion_lon": 0.0, "fusion_lat": 0.0, "type": "electric_scooter", "name": "9493d6a5efa0a9b75246adfd79261b9f", "is_disabled": 0, "rental_uris": {"ios": "https://dc.lft.to/lastmile_qr_scan", "android": "https://dc.lft.to/lastmile_qr_scan"}, "is_reserved": 0}, {"lon": -77.01528266666666, "bike_id": "7b085dfe1b984c0f7dd3eeab88d902da", "lat": 38.885082833333335, "fusion_lon": 0.0, "fusion_lat": 0.0, "type": "electric_scooter", "name": "7b085dfe1b984c0f7dd3eeab88d902da", "is_disabled": 0, "rental_uris": {"ios": "https://dc.lft.to/lastmile_qr_scan", "android": "https://dc.lft.to/lastmile_qr_scan"}, "is_reserved": 0}, {"lon": -77.03183683333333, "bike_id": "bff26087fe5d3be09a254cc1aff09541", "lat": 38.9029605, "fusion_lon": 0.0, "fusion_lat": 0.0, "type": "electric_scooter", "name": "bff26087fe5d3be09a254cc1aff09541", "is_disabled": 0, "rental_uris": {"ios": "https://dc.lft.to/lastmile_qr_scan", "android": "https://dc.lft.to/lastmile_qr_scan"}, "is_reserved": 0}, {"lon": -77.02181666666667, "bike_id": "b3b17db7548fafc3c9349789a885879f", "lat": 38.893581, "fusion_lon": 0.0, "fusion_lat": 0.0, "type": "electric_scooter", "name": "b3b17db7548fafc3c9349789a885879f", "is_disabled": 0, "rental_uris": {"ios": "https://dc.lft.to/lastmile_qr_scan", "android": "https://dc.lft.to/lastmile_qr_scan"}, "is_reserved": 0}, {"lon": -77.03266166666667, "bike_id": "dafcc48f3cf68c62f01f3cbbaf382023", "lat": 38.956793833333336, "fusion_lon": 0.0, "fusion_lat": 0.0, "type": "electric_bike", "name": "dafcc48f3cf68c62f01f3cbbaf382023", "is_disabled": 0, "rental_uris": {"ios": "https://dc.lft.to/lastmile_qr_scan", "android": "https://dc.lft.to/lastmile_qr_scan"}, "is_reserved": 0}, {"lon": -76.999363, "bike_id": "794571eac3a6b4c9bfdca4f2eb74880f", "lat": 38.9192975, "fusion_lon": 0.0, "fusion_lat": 0.0, "type": "electric_scooter", "name": "794571eac3a6b4c9bfdca4f2eb74880f", "is_disabled": 0, "rental_uris": {"ios": "https://dc.lft.to/lastmile_qr_scan", "android": "https://dc.lft.to/lastmile_qr_scan"}, "is_reserved": 0}, {"lon": -77.10810466666666, "bike_id": "e0066c57e3b46f06b4b2e455e267d4de", "lat": 38.81203166666667, "fusion_lon": 0.0, "fusion_lat": 0.0, "type": "electric_bike", "name": "e0066c57e3b46f06b4b2e455e267d4de", "is_disabled": 0, "rental_uris": {"ios": "https://dc.lft.to/lastmile_qr_scan", "android": "https://dc.lft.to/lastmile_qr_scan"}, "is_reserved": 0}, {"lon": -77.00212983333333, "bike_id": "f4dd09978912845fdc226a2f4b034a29", "lat": 38.900373, "fusion_lon": 0.0, "fusion_lat": 0.0, "type": "electric_scooter", "name": "f4dd09978912845fdc226a2f4b034a29", "is_disabled": 0, "rental_uris": {"ios": "https://dc.lft.to/lastmile_qr_scan", "android": "https://dc.lft.to/lastmile_qr_scan"}, "is_reserved": 0}, {"lon": -77.04337216666667, "bike_id": "c289b644ed0c1f1dbb353dc22259a3ac", "lat": 38.922184333333334, "fusion_lon": 0.0, "fusion_lat": 0.0, "type": "electric_scooter", "name": "c289b644ed0c1f1dbb353dc22259a3ac", "is_disabled": 0, "rental_uris": {"ios": "https://dc.lft.to/lastmile_qr_scan", "android": "https://dc.lft.to/lastmile_qr_scan"}, "is_reserved": 0}, {"lon": -76.97298866666667, "bike_id": "7a446a6486ab9da4c51762cf55af4837", "lat": 38.916436833333336, "fusion_lon": 0.0, "fusion_lat": 0.0, "type": "electric_scooter", "name": "7a446a6486ab9da4c51762cf55af4837", "is_disabled": 0, "rental_uris": {"ios": "https://dc.lft.to/lastmile_qr_scan", "android": "https://dc.lft.to/lastmile_qr_scan"}, "is_reserved": 0}, {"lon": -76.99972433333333, "bike_id": "b3c3eec4826c0fbe68ff935a0ffab493", "lat": 38.908525833333336, "fusion_lon": 0.0, "fusion_lat": 0.0, "type": "electric_scooter", "name": "b3c3eec4826c0fbe68ff935a0ffab493", "is_disabled": 0, "rental_uris": {"ios": "https://dc.lft.to/lastmile_qr_scan", "android": "https://dc.lft.to/lastmile_qr_scan"}, "is_reserved": 0}, {"lon": -76.998817, "bike_id": "ec33ee62aa108fd90f30725ca3afd149", "lat": 38.920592666666664, "fusion_lon": 0.0, "fusion_lat": 0.0, "type": "electric_scooter", "name": "ec33ee62aa108fd90f30725ca3afd149", "is_disabled": 0, "rental_uris": {"ios": "https://dc.lft.to/lastmile_qr_scan", "android": "https://dc.lft.to/lastmile_qr_scan"}, "is_reserved": 0}, {"lon": -76.99356866666666, "bike_id": "b07f3b9a47251d029ad7df3a3094ff86", "lat": 38.845068166666664, "fusion_lon": 0.0, "fusion_lat": 0.0, "type": "electric_bike", "name": "b07f3b9a47251d029ad7df3a3094ff86", "is_disabled": 0, "rental_uris": {"ios": "https://dc.lft.to/lastmile_qr_scan", "android": "https://dc.lft.to/lastmile_qr_scan"}, "is_reserved": 0}, {"lon": -77.0310965, "bike_id": "5052eb7daeaff8a44c204d06525e74c0", "lat": 38.915640833333335, "fusion_lon": 0.0, "fusion_lat": 0.0, "type": "electric_scooter", "name": "5052eb7daeaff8a44c204d06525e74c0", "is_disabled": 0, "rental_uris": {"ios": "https://dc.lft.to/lastmile_qr_scan", "android": "https://dc.lft.to/lastmile_qr_scan"}, "is_reserved": 0}, {"lon": -77.02649316666667, "bike_id": "cc7913ff56c3111448b2b1afef0f217f", "lat": 38.9386335, "fusion_lon": 0.0, "fusion_lat": 0.0, "type": "electric_scooter", "name": "cc7913ff56c3111448b2b1afef0f217f", "is_disabled": 0, "rental_uris": {"ios": "https://dc.lft.to/lastmile_qr_scan", "android": "https://dc.lft.to/lastmile_qr_scan"}, "is_reserved": 0}, {"lon": -77.01058533333334, "bike_id": "8e9cdbd0fd76c39f03efd39ac5d3a13b", "lat": 38.8786795, "fusion_lon": 0.0, "fusion_lat": 0.0, "type": "electric_scooter", "name": "8e9cdbd0fd76c39f03efd39ac5d3a13b", "is_disabled": 0, "rental_uris": {"ios": "https://dc.lft.to/lastmile_qr_scan", "android": "https://dc.lft.to/lastmile_qr_scan"}, "is_reserved": 0}, {"lon": -77.022828, "bike_id": "eb4ca67181a352f1aaba6997974e83eb", "lat": 38.91216133333333, "fusion_lon": 0.0, "fusion_lat": 0.0, "type": "electric_scooter", "name": "eb4ca67181a352f1aaba6997974e83eb", "is_disabled": 0, "rental_uris": {"ios": "https://dc.lft.to/lastmile_qr_scan", "android": "https://dc.lft.to/lastmile_qr_scan"}, "is_reserved": 0}, {"lon": -76.98559616666667, "bike_id": "acd1c944a12831d97c50ca80f1ea0dda", "lat": 38.8994865, "fusion_lon": 0.0, "fusion_lat": 0.0, "type": "electric_scooter", "name": "acd1c944a12831d97c50ca80f1ea0dda", "is_disabled": 0, "rental_uris": {"ios": "https://dc.lft.to/lastmile_qr_scan", "android": "https://dc.lft.to/lastmile_qr_scan"}, "is_reserved": 0}, {"lon": -77.02713416666667, "bike_id": "526fa61569434cc386ccee5a3af4772e", "lat": 38.934744, "fusion_lon": 0.0, "fusion_lat": 0.0, "type": "electric_scooter", "name": "526fa61569434cc386ccee5a3af4772e", "is_disabled": 0, "rental_uris": {"ios": "https://dc.lft.to/lastmile_qr_scan", "android": "https://dc.lft.to/lastmile_qr_scan"}, "is_reserved": 0}, {"lon": -77.02100266666666, "bike_id": "26f9771d091e7742c41f805b675394e8", "lat": 38.93114166666667, "fusion_lon": 0.0, "fusion_lat": 0.0, "type": "electric_scooter", "name": "26f9771d091e7742c41f805b675394e8", "is_disabled": 0, "rental_uris": {"ios": "https://dc.lft.to/lastmile_qr_scan", "android": "https://dc.lft.to/lastmile_qr_scan"}, "is_reserved": 0}, {"lon": -77.02488233333334, "bike_id": "d08f9f81b3d6cd6d7de225bde3c6b7af", "lat": 38.9198425, "fusion_lon": 0.0, "fusion_lat": 0.0, "type": "electric_scooter", "name": "d08f9f81b3d6cd6d7de225bde3c6b7af", "is_disabled": 0, "rental_uris": {"ios": "https://dc.lft.to/lastmile_qr_scan", "android": "https://dc.lft.to/lastmile_qr_scan"}, "is_reserved": 0}, {"lon": -77.06427633333334, "bike_id": "89e0b6119ab57addeed6ea571cf25bd9", "lat": 38.90889416666667, "fusion_lon": 0.0, "fusion_lat": 0.0, "type": "electric_scooter", "name": "89e0b6119ab57addeed6ea571cf25bd9", "is_disabled": 0, "rental_uris": {"ios": "https://dc.lft.to/lastmile_qr_scan", "android": "https://dc.lft.to/lastmile_qr_scan"}, "is_reserved": 0}, {"lon": -77.00329833333333, "bike_id": "ddfd07b774d350327c1b3c641595ff1f", "lat": 38.90601783333334, "fusion_lon": 0.0, "fusion_lat": 0.0, "type": "electric_scooter", "name": "ddfd07b774d350327c1b3c641595ff1f", "is_disabled": 0, "rental_uris": {"ios": "https://dc.lft.to/lastmile_qr_scan", "android": "https://dc.lft.to/lastmile_qr_scan"}, "is_reserved": 0}, {"lon": -77.03405666666667, "bike_id": "486e9322219579d4db32dd111090a7a7", "lat": 38.96025683333333, "fusion_lon": 0.0, "fusion_lat": 0.0, "type": "electric_bike", "name": "486e9322219579d4db32dd111090a7a7", "is_disabled": 0, "rental_uris": {"ios": "https://dc.lft.to/lastmile_qr_scan", "android": "https://dc.lft.to/lastmile_qr_scan"}, "is_reserved": 0}, {"lon": -77.0386865, "bike_id": "87fa614be9abe0bcbe31a2826c692b12", "lat": 38.92151033333333, "fusion_lon": 0.0, "fusion_lat": 0.0, "type": "electric_scooter", "name": "87fa614be9abe0bcbe31a2826c692b12", "is_disabled": 0, "rental_uris": {"ios": "https://dc.lft.to/lastmile_qr_scan", "android": "https://dc.lft.to/lastmile_qr_scan"}, "is_reserved": 0}, {"lon": -77.00280566666666, "bike_id": "69039cf5d661ade26fbcb3152cbe9204", "lat": 38.957093, "fusion_lon": 0.0, "fusion_lat": 0.0, "type": "electric_bike", "name": "69039cf5d661ade26fbcb3152cbe9204", "is_disabled": 0, "rental_uris": {"ios": "https://dc.lft.to/lastmile_qr_scan", "android": "https://dc.lft.to/lastmile_qr_scan"}, "is_reserved": 0}, {"lon": -76.99852316666667, "bike_id": "1d8ad3386f51c7e1bb6fc4cd9a30dca7", "lat": 38.84154733333333, "fusion_lon": 0.0, "fusion_lat": 0.0, "type": "electric_scooter", "name": "1d8ad3386f51c7e1bb6fc4cd9a30dca7", "is_disabled": 0, "rental_uris": {"ios": "https://dc.lft.to/lastmile_qr_scan", "android": "https://dc.lft.to/lastmile_qr_scan"}, "is_reserved": 0}, {"lon": -77.016053, "bike_id": "0685433e29040d3e1d713973003b4dca", "lat": 38.90175333333333, "fusion_lon": 0.0, "fusion_lat": 0.0, "type": "electric_scooter", "name": "0685433e29040d3e1d713973003b4dca", "is_disabled": 0, "rental_uris": {"ios": "https://dc.lft.to/lastmile_qr_scan", "android": "https://dc.lft.to/lastmile_qr_scan"}, "is_reserved": 0}, {"lon": -77.0432285, "bike_id": "b584502d4444653a9e3f0a22e5166039", "lat": 38.918759, "fusion_lon": 0.0, "fusion_lat": 0.0, "type": "electric_scooter", "name": "b584502d4444653a9e3f0a22e5166039", "is_disabled": 0, "rental_uris": {"ios": "https://dc.lft.to/lastmile_qr_scan", "android": "https://dc.lft.to/lastmile_qr_scan"}, "is_reserved": 0}, {"lon": -77.12497333333333, "bike_id": "2abf1f32047c0db9336547701eb5e613", "lat": 38.827824, "fusion_lon": 0.0, "fusion_lat": 0.0, "type": "electric_bike", "name": "2abf1f32047c0db9336547701eb5e613", "is_disabled": 0, "rental_uris": {"ios": "https://dc.lft.to/lastmile_qr_scan", "android": "https://dc.lft.to/lastmile_qr_scan"}, "is_reserved": 0}, {"lon": -77.03644533333333, "bike_id": "1906b9f1ce18e0c63c410cc82d1ffdc3", "lat": 38.911791666666666, "fusion_lon": 0.0, "fusion_lat": 0.0, "type": "electric_scooter", "name": "1906b9f1ce18e0c63c410cc82d1ffdc3", "is_disabled": 0, "rental_uris": {"ios": "https://dc.lft.to/lastmile_qr_scan", "android": "https://dc.lft.to/lastmile_qr_scan"}, "is_reserved": 0}, {"lon": -77.0212, "bike_id": "5cbb66ae0796a1fbcee0e253e600514e", "lat": 38.9301245, "fusion_lon": 0.0, "fusion_lat": 0.0, "type": "electric_scooter", "name": "5cbb66ae0796a1fbcee0e253e600514e", "is_disabled": 0, "rental_uris": {"ios": "https://dc.lft.to/lastmile_qr_scan", "android": "https://dc.lft.to/lastmile_qr_scan"}, "is_reserved": 0}, {"lon": -77.03088033333333, "bike_id": "51f38d902e854c9e8fceeae2ed0e6ebb", "lat": 38.90999033333333, "fusion_lon": 0.0, "fusion_lat": 0.0, "type": "electric_scooter", "name": "51f38d902e854c9e8fceeae2ed0e6ebb", "is_disabled": 0, "rental_uris": {"ios": "https://dc.lft.to/lastmile_qr_scan", "android": "https://dc.lft.to/lastmile_qr_scan"}, "is_reserved": 0}, {"lon": -77.02055966666667, "bike_id": "48aa2f658112ced85f5a59dc8e408764", "lat": 38.923482, "fusion_lon": 0.0, "fusion_lat": 0.0, "type": "electric_scooter", "name": "48aa2f658112ced85f5a59dc8e408764", "is_disabled": 0, "rental_uris": {"ios": "https://dc.lft.to/lastmile_qr_scan", "android": "https://dc.lft.to/lastmile_qr_scan"}, "is_reserved": 0}, {"lon": -77.08601533333334, "bike_id": "0b5bf15c2f3841c42b6a76366267df99", "lat": 38.908646166666664, "fusion_lon": 0.0, "fusion_lat": 0.0, "type": "electric_scooter", "name": "0b5bf15c2f3841c42b6a76366267df99", "is_disabled": 0, "rental_uris": {"ios": "https://dc.lft.to/lastmile_qr_scan", "android": "https://dc.lft.to/lastmile_qr_scan"}, "is_reserved": 0}, {"lon": -76.94635616666666, "bike_id": "f04a41efc898d6e3d2f89d22e9d88a52", "lat": 38.8983015, "fusion_lon": 0.0, "fusion_lat": 0.0, "type": "electric_scooter", "name": "f04a41efc898d6e3d2f89d22e9d88a52", "is_disabled": 0, "rental_uris": {"ios": "https://dc.lft.to/lastmile_qr_scan", "android": "https://dc.lft.to/lastmile_qr_scan"}, "is_reserved": 0}, {"lon": -77.00058216666666, "bike_id": "f51ced963d87aa6a5627beb4400d80c2", "lat": 38.90690516666667, "fusion_lon": 0.0, "fusion_lat": 0.0, "type": "electric_scooter", "name": "f51ced963d87aa6a5627beb4400d80c2", "is_disabled": 0, "rental_uris": {"ios": "https://dc.lft.to/lastmile_qr_scan", "android": "https://dc.lft.to/lastmile_qr_scan"}, "is_reserved": 0}, {"lon": -77.00311416666666, "bike_id": "4bbf65a64e32b44d29d16c220098ce68", "lat": 38.9234595, "fusion_lon": 0.0, "fusion_lat": 0.0, "type": "electric_scooter", "name": "4bbf65a64e32b44d29d16c220098ce68", "is_disabled": 0, "rental_uris": {"ios": "https://dc.lft.to/lastmile_qr_scan", "android": "https://dc.lft.to/lastmile_qr_scan"}, "is_reserved": 0}, {"lon": -77.02318416666667, "bike_id": "7816862c072828b3a754841ae2442ff0", "lat": 38.8787975, "fusion_lon": 0.0, "fusion_lat": 0.0, "type": "electric_scooter", "name": "7816862c072828b3a754841ae2442ff0", "is_disabled": 0, "rental_uris": {"ios": "https://dc.lft.to/lastmile_qr_scan", "android": "https://dc.lft.to/lastmile_qr_scan"}, "is_reserved": 0}, {"lon": -76.983766, "bike_id": "e7848e22d66309b3c36a55729cb0bb2b", "lat": 38.906491, "fusion_lon": 0.0, "fusion_lat": 0.0, "type": "electric_scooter", "name": "e7848e22d66309b3c36a55729cb0bb2b", "is_disabled": 0, "rental_uris": {"ios": "https://dc.lft.to/lastmile_qr_scan", "android": "https://dc.lft.to/lastmile_qr_scan"}, "is_reserved": 0}, {"lon": -76.97618133333333, "bike_id": "5a9fbfcf80e6ea2c880a759e2879c85d", "lat": 38.9265025, "fusion_lon": 0.0, "fusion_lat": 0.0, "type": "electric_scooter", "name": "5a9fbfcf80e6ea2c880a759e2879c85d", "is_disabled": 0, "rental_uris": {"ios": "https://dc.lft.to/lastmile_qr_scan", "android": "https://dc.lft.to/lastmile_qr_scan"}, "is_reserved": 0}, {"lon": -76.95238483333333, "bike_id": "4e520571762fd4c88ddd2a517f08f149", "lat": 38.89099, "fusion_lon": 0.0, "fusion_lat": 0.0, "type": "electric_scooter", "name": "4e520571762fd4c88ddd2a517f08f149", "is_disabled": 0, "rental_uris": {"ios": "https://dc.lft.to/lastmile_qr_scan", "android": "https://dc.lft.to/lastmile_qr_scan"}, "is_reserved": 0}, {"lon": -77.08814183333334, "bike_id": "1b1fa7a14b4d0b84d94f9214f3ab8395", "lat": 38.911771, "fusion_lon": 0.0, "fusion_lat": 0.0, "type": "electric_bike", "name": "1b1fa7a14b4d0b84d94f9214f3ab8395", "is_disabled": 0, "rental_uris": {"ios": "https://dc.lft.to/lastmile_qr_scan", "android": "https://dc.lft.to/lastmile_qr_scan"}, "is_reserved": 0}, {"lon": -77.03922466666667, "bike_id": "7ab3fb6a50faaf73b8e351b8d02a62df", "lat": 38.92799566666667, "fusion_lon": 0.0, "fusion_lat": 0.0, "type": "electric_scooter", "name": "7ab3fb6a50faaf73b8e351b8d02a62df", "is_disabled": 0, "rental_uris": {"ios": "https://dc.lft.to/lastmile_qr_scan", "android": "https://dc.lft.to/lastmile_qr_scan"}, "is_reserved": 0}, {"lon": -77.01864766666667, "bike_id": "5f8360f9196c0373584994cb7f5dce72", "lat": 38.951530166666664, "fusion_lon": 0.0, "fusion_lat": 0.0, "type": "electric_scooter", "name": "5f8360f9196c0373584994cb7f5dce72", "is_disabled": 0, "rental_uris": {"ios": "https://dc.lft.to/lastmile_qr_scan", "android": "https://dc.lft.to/lastmile_qr_scan"}, "is_reserved": 0}, {"lon": -76.99783283333333, "bike_id": "d289ad43124bb805ed5b4bebd53929db", "lat": 38.84424383333333, "fusion_lon": 0.0, "fusion_lat": 0.0, "type": "electric_scooter", "name": "d289ad43124bb805ed5b4bebd53929db", "is_disabled": 0, "rental_uris": {"ios": "https://dc.lft.to/lastmile_qr_scan", "android": "https://dc.lft.to/lastmile_qr_scan"}, "is_reserved": 0}, {"lon": -76.99101683333333, "bike_id": "f1c3d5674d2a1045c53f4cdd6ff69612", "lat": 38.90319566666667, "fusion_lon": 0.0, "fusion_lat": 0.0, "type": "electric_scooter", "name": "f1c3d5674d2a1045c53f4cdd6ff69612", "is_disabled": 0, "rental_uris": {"ios": "https://dc.lft.to/lastmile_qr_scan", "android": "https://dc.lft.to/lastmile_qr_scan"}, "is_reserved": 0}, {"lon": -77.06331583333333, "bike_id": "58d170a4eb4fab861359985290d8a584", "lat": 38.90757516666667, "fusion_lon": 0.0, "fusion_lat": 0.0, "type": "electric_scooter", "name": "58d170a4eb4fab861359985290d8a584", "is_disabled": 0, "rental_uris": {"ios": "https://dc.lft.to/lastmile_qr_scan", "android": "https://dc.lft.to/lastmile_qr_scan"}, "is_reserved": 0}, {"lon": -77.0219195, "bike_id": "378e6778cb1e4a1f74462d65ddcb43ee", "lat": 38.910564666666666, "fusion_lon": 0.0, "fusion_lat": 0.0, "type": "electric_scooter", "name": "378e6778cb1e4a1f74462d65ddcb43ee", "is_disabled": 0, "rental_uris": {"ios": "https://dc.lft.to/lastmile_qr_scan", "android": "https://dc.lft.to/lastmile_qr_scan"}, "is_reserved": 0}, {"lon": -77.0686535, "bike_id": "fdd25b7f4dcbb3be9a79def97d005cd4", "lat": 38.80573966666667, "fusion_lon": 0.0, "fusion_lat": 0.0, "type": "electric_bike", "name": "fdd25b7f4dcbb3be9a79def97d005cd4", "is_disabled": 0, "rental_uris": {"ios": "https://dc.lft.to/lastmile_qr_scan", "android": "https://dc.lft.to/lastmile_qr_scan"}, "is_reserved": 0}, {"lon": -76.94634916666666, "bike_id": "4269acfb48db3432429042abb00545a6", "lat": 38.89834333333334, "fusion_lon": 0.0, "fusion_lat": 0.0, "type": "electric_scooter", "name": "4269acfb48db3432429042abb00545a6", "is_disabled": 0, "rental_uris": {"ios": "https://dc.lft.to/lastmile_qr_scan", "android": "https://dc.lft.to/lastmile_qr_scan"}, "is_reserved": 0}, {"lon": -77.04195016666667, "bike_id": "60b59427148d420a2ed8f985035a08bf", "lat": 38.926162166666664, "fusion_lon": 0.0, "fusion_lat": 0.0, "type": "electric_scooter", "name": "60b59427148d420a2ed8f985035a08bf", "is_disabled": 0, "rental_uris": {"ios": "https://dc.lft.to/lastmile_qr_scan", "android": "https://dc.lft.to/lastmile_qr_scan"}, "is_reserved": 0}, {"lon": -77.0225425, "bike_id": "3e9598b4d80f9eaca9de898bb1ba1bdf", "lat": 38.928957833333335, "fusion_lon": 0.0, "fusion_lat": 0.0, "type": "electric_scooter", "name": "3e9598b4d80f9eaca9de898bb1ba1bdf", "is_disabled": 0, "rental_uris": {"ios": "https://dc.lft.to/lastmile_qr_scan", "android": "https://dc.lft.to/lastmile_qr_scan"}, "is_reserved": 0}, {"lon": -77.02148716666666, "bike_id": "fd8c47b1b5ed17daf72ceed99d569dc2", "lat": 38.9026275, "fusion_lon": 0.0, "fusion_lat": 0.0, "type": "electric_scooter", "name": "fd8c47b1b5ed17daf72ceed99d569dc2", "is_disabled": 0, "rental_uris": {"ios": "https://dc.lft.to/lastmile_qr_scan", "android": "https://dc.lft.to/lastmile_qr_scan"}, "is_reserved": 0}, {"lon": -76.96517516666667, "bike_id": "02f2dd79a0588db5073edda4ac2ec4ab", "lat": 38.874749666666666, "fusion_lon": 0.0, "fusion_lat": 0.0, "type": "electric_scooter", "name": "02f2dd79a0588db5073edda4ac2ec4ab", "is_disabled": 0, "rental_uris": {"ios": "https://dc.lft.to/lastmile_qr_scan", "android": "https://dc.lft.to/lastmile_qr_scan"}, "is_reserved": 0}, {"lon": -77.02159933333333, "bike_id": "37d5a6704a961e6ab0ab3894d996f5e1", "lat": 38.894787, "fusion_lon": 0.0, "fusion_lat": 0.0, "type": "electric_scooter", "name": "37d5a6704a961e6ab0ab3894d996f5e1", "is_disabled": 0, "rental_uris": {"ios": "https://dc.lft.to/lastmile_qr_scan", "android": "https://dc.lft.to/lastmile_qr_scan"}, "is_reserved": 0}, {"lon": -77.02432983333334, "bike_id": "8ee748258c552948c71ab80cbdb84f7f", "lat": 38.92054, "fusion_lon": 0.0, "fusion_lat": 0.0, "type": "electric_scooter", "name": "8ee748258c552948c71ab80cbdb84f7f", "is_disabled": 0, "rental_uris": {"ios": "https://dc.lft.to/lastmile_qr_scan", "android": "https://dc.lft.to/lastmile_qr_scan"}, "is_reserved": 0}, {"lon": -77.07221933333334, "bike_id": "78c437675a2c1176b74e0b7e35ddbe65", "lat": 38.922602166666664, "fusion_lon": 0.0, "fusion_lat": 0.0, "type": "electric_scooter", "name": "78c437675a2c1176b74e0b7e35ddbe65", "is_disabled": 0, "rental_uris": {"ios": "https://dc.lft.to/lastmile_qr_scan", "android": "https://dc.lft.to/lastmile_qr_scan"}, "is_reserved": 0}, {"lon": -77.0394205, "bike_id": "708218f21c8f9651b3d24cb30adcb626", "lat": 38.89985866666667, "fusion_lon": 0.0, "fusion_lat": 0.0, "type": "electric_scooter", "name": "708218f21c8f9651b3d24cb30adcb626", "is_disabled": 0, "rental_uris": {"ios": "https://dc.lft.to/lastmile_qr_scan", "android": "https://dc.lft.to/lastmile_qr_scan"}, "is_reserved": 0}, {"lon": -77.0400255, "bike_id": "3de99e04e91dd0300dab0466a362e177", "lat": 38.903725666666666, "fusion_lon": 0.0, "fusion_lat": 0.0, "type": "electric_scooter", "name": "3de99e04e91dd0300dab0466a362e177", "is_disabled": 0, "rental_uris": {"ios": "https://dc.lft.to/lastmile_qr_scan", "android": "https://dc.lft.to/lastmile_qr_scan"}, "is_reserved": 0}, {"lon": -77.04342933333334, "bike_id": "a63b2f2c0b477b1f1aefb0aa77039e44", "lat": 38.90368216666667, "fusion_lon": 0.0, "fusion_lat": 0.0, "type": "electric_scooter", "name": "a63b2f2c0b477b1f1aefb0aa77039e44", "is_disabled": 0, "rental_uris": {"ios": "https://dc.lft.to/lastmile_qr_scan", "android": "https://dc.lft.to/lastmile_qr_scan"}, "is_reserved": 0}, {"lon": -77.025617, "bike_id": "11d275fb30ce283104674f74c47645db", "lat": 38.9335535, "fusion_lon": 0.0, "fusion_lat": 0.0, "type": "electric_scooter", "name": "11d275fb30ce283104674f74c47645db", "is_disabled": 0, "rental_uris": {"ios": "https://dc.lft.to/lastmile_qr_scan", "android": "https://dc.lft.to/lastmile_qr_scan"}, "is_reserved": 0}, {"lon": -77.06007416666667, "bike_id": "cd0f4728e686f492c58181db164bba7d", "lat": 38.90503483333333, "fusion_lon": 0.0, "fusion_lat": 0.0, "type": "electric_scooter", "name": "cd0f4728e686f492c58181db164bba7d", "is_disabled": 0, "rental_uris": {"ios": "https://dc.lft.to/lastmile_qr_scan", "android": "https://dc.lft.to/lastmile_qr_scan"}, "is_reserved": 0}, {"lon": -77.02394216666667, "bike_id": "f81f5601783d9865c110a3732e370a41", "lat": 38.920857, "fusion_lon": 0.0, "fusion_lat": 0.0, "type": "electric_scooter", "name": "f81f5601783d9865c110a3732e370a41", "is_disabled": 0, "rental_uris": {"ios": "https://dc.lft.to/lastmile_qr_scan", "android": "https://dc.lft.to/lastmile_qr_scan"}, "is_reserved": 0}, {"lon": -77.00757066666667, "bike_id": "92bafd376d3a6655d7622da198ad779b", "lat": 38.8710415, "fusion_lon": 0.0, "fusion_lat": 0.0, "type": "electric_scooter", "name": "92bafd376d3a6655d7622da198ad779b", "is_disabled": 0, "rental_uris": {"ios": "https://dc.lft.to/lastmile_qr_scan", "android": "https://dc.lft.to/lastmile_qr_scan"}, "is_reserved": 0}, {"lon": -77.063052, "bike_id": "a074f34584171d50134cd0b0bff32ea3", "lat": 38.906042666666664, "fusion_lon": 0.0, "fusion_lat": 0.0, "type": "electric_scooter", "name": "a074f34584171d50134cd0b0bff32ea3", "is_disabled": 0, "rental_uris": {"ios": "https://dc.lft.to/lastmile_qr_scan", "android": "https://dc.lft.to/lastmile_qr_scan"}, "is_reserved": 0}, {"lon": -77.041761, "bike_id": "e9beab0471152c27802ac36ee14eb0d0", "lat": 38.9172335, "fusion_lon": 0.0, "fusion_lat": 0.0, "type": "electric_scooter", "name": "e9beab0471152c27802ac36ee14eb0d0", "is_disabled": 0, "rental_uris": {"ios": "https://dc.lft.to/lastmile_qr_scan", "android": "https://dc.lft.to/lastmile_qr_scan"}, "is_reserved": 0}, {"lon": -77.02370933333333, "bike_id": "32132d0a91e2301fd312aba0c1dee425", "lat": 38.917817166666666, "fusion_lon": 0.0, "fusion_lat": 0.0, "type": "electric_scooter", "name": "32132d0a91e2301fd312aba0c1dee425", "is_disabled": 0, "rental_uris": {"ios": "https://dc.lft.to/lastmile_qr_scan", "android": "https://dc.lft.to/lastmile_qr_scan"}, "is_reserved": 0}, {"lon": -77.02802833333334, "bike_id": "0cdaebcfa3dece5bcc2cf5f9cb00d42c", "lat": 38.920243166666666, "fusion_lon": 0.0, "fusion_lat": 0.0, "type": "electric_scooter", "name": "0cdaebcfa3dece5bcc2cf5f9cb00d42c", "is_disabled": 0, "rental_uris": {"ios": "https://dc.lft.to/lastmile_qr_scan", "android": "https://dc.lft.to/lastmile_qr_scan"}, "is_reserved": 0}, {"lon": -77.0400605, "bike_id": "dfed07f317f86657b99f919f12c5215c", "lat": 38.91561466666667, "fusion_lon": 0.0, "fusion_lat": 0.0, "type": "electric_scooter", "name": "dfed07f317f86657b99f919f12c5215c", "is_disabled": 0, "rental_uris": {"ios": "https://dc.lft.to/lastmile_qr_scan", "android": "https://dc.lft.to/lastmile_qr_scan"}, "is_reserved": 0}, {"lon": -77.02795833333333, "bike_id": "6abff10664f9e6a711ec02e0f0c21cc7", "lat": 38.95678566666667, "fusion_lon": 0.0, "fusion_lat": 0.0, "type": "electric_scooter", "name": "6abff10664f9e6a711ec02e0f0c21cc7", "is_disabled": 0, "rental_uris": {"ios": "https://dc.lft.to/lastmile_qr_scan", "android": "https://dc.lft.to/lastmile_qr_scan"}, "is_reserved": 0}, {"lon": -77.03339733333334, "bike_id": "b8c85304e5b1108120ff094f05251072", "lat": 38.909673, "fusion_lon": 0.0, "fusion_lat": 0.0, "type": "electric_scooter", "name": "b8c85304e5b1108120ff094f05251072", "is_disabled": 0, "rental_uris": {"ios": "https://dc.lft.to/lastmile_qr_scan", "android": "https://dc.lft.to/lastmile_qr_scan"}, "is_reserved": 0}, {"lon": -77.04543683333333, "bike_id": "c0061ef63c15256275e382da561d0ab6", "lat": 38.9205585, "fusion_lon": 0.0, "fusion_lat": 0.0, "type": "electric_scooter", "name": "c0061ef63c15256275e382da561d0ab6", "is_disabled": 0, "rental_uris": {"ios": "https://dc.lft.to/lastmile_qr_scan", "android": "https://dc.lft.to/lastmile_qr_scan"}, "is_reserved": 0}, {"lon": -77.0273675, "bike_id": "77fad26a3e68c452f9947fbb73d864de", "lat": 38.932084833333334, "fusion_lon": 0.0, "fusion_lat": 0.0, "type": "electric_scooter", "name": "77fad26a3e68c452f9947fbb73d864de", "is_disabled": 0, "rental_uris": {"ios": "https://dc.lft.to/lastmile_qr_scan", "android": "https://dc.lft.to/lastmile_qr_scan"}, "is_reserved": 0}, {"lon": -77.00201116666666, "bike_id": "5592950f235b3bc9d2f1b50920d27bd7", "lat": 38.911978, "fusion_lon": 0.0, "fusion_lat": 0.0, "type": "electric_scooter", "name": "5592950f235b3bc9d2f1b50920d27bd7", "is_disabled": 0, "rental_uris": {"ios": "https://dc.lft.to/lastmile_qr_scan", "android": "https://dc.lft.to/lastmile_qr_scan"}, "is_reserved": 0}, {"lon": -77.02427116666667, "bike_id": "d26cb4cf1a985b8314bac02ada3ac10f", "lat": 38.92656483333333, "fusion_lon": 0.0, "fusion_lat": 0.0, "type": "electric_scooter", "name": "d26cb4cf1a985b8314bac02ada3ac10f", "is_disabled": 0, "rental_uris": {"ios": "https://dc.lft.to/lastmile_qr_scan", "android": "https://dc.lft.to/lastmile_qr_scan"}, "is_reserved": 0}, {"lon": -77.027235, "bike_id": "213e80f8b2e9e56a361f814488486831", "lat": 38.89802483333333, "fusion_lon": 0.0, "fusion_lat": 0.0, "type": "electric_scooter", "name": "213e80f8b2e9e56a361f814488486831", "is_disabled": 0, "rental_uris": {"ios": "https://dc.lft.to/lastmile_qr_scan", "android": "https://dc.lft.to/lastmile_qr_scan"}, "is_reserved": 0}, {"lon": -77.13103183333334, "bike_id": "3f4a826a8df864cb2f6c05bf07390fc7", "lat": 39.0243245, "fusion_lon": 0.0, "fusion_lat": 0.0, "type": "electric_bike", "name": "3f4a826a8df864cb2f6c05bf07390fc7", "is_disabled": 0, "rental_uris": {"ios": "https://dc.lft.to/lastmile_qr_scan", "android": "https://dc.lft.to/lastmile_qr_scan"}, "is_reserved": 0}, {"lon": -77.03272233333334, "bike_id": "1ff791a917b4edb8664356a6f81564ab", "lat": 38.9254995, "fusion_lon": 0.0, "fusion_lat": 0.0, "type": "electric_scooter", "name": "1ff791a917b4edb8664356a6f81564ab", "is_disabled": 0, "rental_uris": {"ios": "https://dc.lft.to/lastmile_qr_scan", "android": "https://dc.lft.to/lastmile_qr_scan"}, "is_reserved": 0}, {"lon": -77.02711566666666, "bike_id": "ca17433d6e2a63241a6694af0a2e0a4a", "lat": 38.916775, "fusion_lon": 0.0, "fusion_lat": 0.0, "type": "electric_scooter", "name": "ca17433d6e2a63241a6694af0a2e0a4a", "is_disabled": 0, "rental_uris": {"ios": "https://dc.lft.to/lastmile_qr_scan", "android": "https://dc.lft.to/lastmile_qr_scan"}, "is_reserved": 0}, {"lon": -77.021904, "bike_id": "9738ef3c21edac8baee1cffb1932f75e", "lat": 38.8996735, "fusion_lon": 0.0, "fusion_lat": 0.0, "type": "electric_scooter", "name": "9738ef3c21edac8baee1cffb1932f75e", "is_disabled": 0, "rental_uris": {"ios": "https://dc.lft.to/lastmile_qr_scan", "android": "https://dc.lft.to/lastmile_qr_scan"}, "is_reserved": 0}, {"lon": -77.06387016666666, "bike_id": "bffbe15fd8275efdecfb8fae3c8140e8", "lat": 38.908311833333336, "fusion_lon": 0.0, "fusion_lat": 0.0, "type": "electric_scooter", "name": "bffbe15fd8275efdecfb8fae3c8140e8", "is_disabled": 0, "rental_uris": {"ios": "https://dc.lft.to/lastmile_qr_scan", "android": "https://dc.lft.to/lastmile_qr_scan"}, "is_reserved": 0}, {"lon": -77.01926533333334, "bike_id": "c0db5e9c4c9af893ef4a9b4f72b22f90", "lat": 38.92209883333334, "fusion_lon": 0.0, "fusion_lat": 0.0, "type": "electric_scooter", "name": "c0db5e9c4c9af893ef4a9b4f72b22f90", "is_disabled": 0, "rental_uris": {"ios": "https://dc.lft.to/lastmile_qr_scan", "android": "https://dc.lft.to/lastmile_qr_scan"}, "is_reserved": 0}, {"lon": -77.05060266666666, "bike_id": "ce6d64bbd9f6fc820c61f06ac4f36c95", "lat": 38.90076233333333, "fusion_lon": 0.0, "fusion_lat": 0.0, "type": "electric_scooter", "name": "ce6d64bbd9f6fc820c61f06ac4f36c95", "is_disabled": 0, "rental_uris": {"ios": "https://dc.lft.to/lastmile_qr_scan", "android": "https://dc.lft.to/lastmile_qr_scan"}, "is_reserved": 0}, {"lon": -76.983812, "bike_id": "d4f662401f868792ff041a41c2a60115", "lat": 38.89969166666667, "fusion_lon": 0.0, "fusion_lat": 0.0, "type": "electric_scooter", "name": "d4f662401f868792ff041a41c2a60115", "is_disabled": 0, "rental_uris": {"ios": "https://dc.lft.to/lastmile_qr_scan", "android": "https://dc.lft.to/lastmile_qr_scan"}, "is_reserved": 0}, {"lon": -77.0037095, "bike_id": "45471940cc2f80acfadbb756729b2771", "lat": 38.89731066666667, "fusion_lon": 0.0, "fusion_lat": 0.0, "type": "electric_scooter", "name": "45471940cc2f80acfadbb756729b2771", "is_disabled": 0, "rental_uris": {"ios": "https://dc.lft.to/lastmile_qr_scan", "android": "https://dc.lft.to/lastmile_qr_scan"}, "is_reserved": 0}, {"lon": -77.04491366666667, "bike_id": "ed3398b4472959db40019076d692a029", "lat": 38.919320666666664, "fusion_lon": 0.0, "fusion_lat": 0.0, "type": "electric_scooter", "name": "ed3398b4472959db40019076d692a029", "is_disabled": 0, "rental_uris": {"ios": "https://dc.lft.to/lastmile_qr_scan", "android": "https://dc.lft.to/lastmile_qr_scan"}, "is_reserved": 0}, {"lon": -77.02569583333333, "bike_id": "3c1c29fcb392e4eba4dccb3c2012a986", "lat": 38.883783666666666, "fusion_lon": 0.0, "fusion_lat": 0.0, "type": "electric_scooter", "name": "3c1c29fcb392e4eba4dccb3c2012a986", "is_disabled": 0, "rental_uris": {"ios": "https://dc.lft.to/lastmile_qr_scan", "android": "https://dc.lft.to/lastmile_qr_scan"}, "is_reserved": 0}, {"lon": -77.03322616666667, "bike_id": "648a767171f24534556ca9afcbb5fae3", "lat": 38.921603833333336, "fusion_lon": 0.0, "fusion_lat": 0.0, "type": "electric_scooter", "name": "648a767171f24534556ca9afcbb5fae3", "is_disabled": 0, "rental_uris": {"ios": "https://dc.lft.to/lastmile_qr_scan", "android": "https://dc.lft.to/lastmile_qr_scan"}, "is_reserved": 0}, {"lon": -77.03341216666666, "bike_id": "1c44585a4b1a0850c9f5b34dfa4329aa", "lat": 38.9000825, "fusion_lon": 0.0, "fusion_lat": 0.0, "type": "electric_scooter", "name": "1c44585a4b1a0850c9f5b34dfa4329aa", "is_disabled": 0, "rental_uris": {"ios": "https://dc.lft.to/lastmile_qr_scan", "android": "https://dc.lft.to/lastmile_qr_scan"}, "is_reserved": 0}, {"lon": -77.01794316666667, "bike_id": "c8cd8876eaf5ad03db316c0339dac3f3", "lat": 38.94113516666667, "fusion_lon": 0.0, "fusion_lat": 0.0, "type": "electric_scooter", "name": "c8cd8876eaf5ad03db316c0339dac3f3", "is_disabled": 0, "rental_uris": {"ios": "https://dc.lft.to/lastmile_qr_scan", "android": "https://dc.lft.to/lastmile_qr_scan"}, "is_reserved": 0}, {"lon": -76.941296, "bike_id": "93feb1cc4cb30683156bcfe7b24525e4", "lat": 38.908216833333334, "fusion_lon": 0.0, "fusion_lat": 0.0, "type": "electric_scooter", "name": "93feb1cc4cb30683156bcfe7b24525e4", "is_disabled": 0, "rental_uris": {"ios": "https://dc.lft.to/lastmile_qr_scan", "android": "https://dc.lft.to/lastmile_qr_scan"}, "is_reserved": 0}, {"lon": -77.0205705, "bike_id": "0fdf62a39ab4b27d282c5112667c076e", "lat": 38.9291535, "fusion_lon": 0.0, "fusion_lat": 0.0, "type": "electric_scooter", "name": "0fdf62a39ab4b27d282c5112667c076e", "is_disabled": 0, "rental_uris": {"ios": "https://dc.lft.to/lastmile_qr_scan", "android": "https://dc.lft.to/lastmile_qr_scan"}, "is_reserved": 0}, {"lon": -77.01221016666666, "bike_id": "e347fc6e7c5e058a1379bfab28356fb9", "lat": 38.91355016666667, "fusion_lon": 0.0, "fusion_lat": 0.0, "type": "electric_scooter", "name": "e347fc6e7c5e058a1379bfab28356fb9", "is_disabled": 0, "rental_uris": {"ios": "https://dc.lft.to/lastmile_qr_scan", "android": "https://dc.lft.to/lastmile_qr_scan"}, "is_reserved": 0}, {"lon": -77.01984083333333, "bike_id": "4136f7970ed373572b8762b6658781d1", "lat": 38.925474, "fusion_lon": 0.0, "fusion_lat": 0.0, "type": "electric_bike", "name": "4136f7970ed373572b8762b6658781d1", "is_disabled": 0, "rental_uris": {"ios": "https://dc.lft.to/lastmile_qr_scan", "android": "https://dc.lft.to/lastmile_qr_scan"}, "is_reserved": 0}, {"lon": -76.99052016666667, "bike_id": "c3ca944deb6a41a50b0f3c56c53074c6", "lat": 38.8637885, "fusion_lon": 0.0, "fusion_lat": 0.0, "type": "electric_scooter", "name": "c3ca944deb6a41a50b0f3c56c53074c6", "is_disabled": 0, "rental_uris": {"ios": "https://dc.lft.to/lastmile_qr_scan", "android": "https://dc.lft.to/lastmile_qr_scan"}, "is_reserved": 0}, {"lon": -77.00018566666667, "bike_id": "10a67b6047640afdfb6618c06a0d8404", "lat": 38.890902, "fusion_lon": 0.0, "fusion_lat": 0.0, "type": "electric_scooter", "name": "10a67b6047640afdfb6618c06a0d8404", "is_disabled": 0, "rental_uris": {"ios": "https://dc.lft.to/lastmile_qr_scan", "android": "https://dc.lft.to/lastmile_qr_scan"}, "is_reserved": 0}, {"lon": -76.99370766666667, "bike_id": "26aee9ed7e6df8da283cb5b11f44f26a", "lat": 38.8937265, "fusion_lon": 0.0, "fusion_lat": 0.0, "type": "electric_scooter", "name": "26aee9ed7e6df8da283cb5b11f44f26a", "is_disabled": 0, "rental_uris": {"ios": "https://dc.lft.to/lastmile_qr_scan", "android": "https://dc.lft.to/lastmile_qr_scan"}, "is_reserved": 0}, {"lon": -77.02768533333334, "bike_id": "f19b5e1b283543e71845fb8de7b364c2", "lat": 38.892207166666665, "fusion_lon": 0.0, "fusion_lat": 0.0, "type": "electric_scooter", "name": "f19b5e1b283543e71845fb8de7b364c2", "is_disabled": 0, "rental_uris": {"ios": "https://dc.lft.to/lastmile_qr_scan", "android": "https://dc.lft.to/lastmile_qr_scan"}, "is_reserved": 0}, {"lon": -77.000559, "bike_id": "22607c038e6f770131f98f00cc88b52f", "lat": 38.900862833333335, "fusion_lon": 0.0, "fusion_lat": 0.0, "type": "electric_scooter", "name": "22607c038e6f770131f98f00cc88b52f", "is_disabled": 0, "rental_uris": {"ios": "https://dc.lft.to/lastmile_qr_scan", "android": "https://dc.lft.to/lastmile_qr_scan"}, "is_reserved": 0}, {"lon": -77.04257466666667, "bike_id": "396b37ab1bb17ca9aa2d684c9a13e77e", "lat": 38.92065566666667, "fusion_lon": 0.0, "fusion_lat": 0.0, "type": "electric_scooter", "name": "396b37ab1bb17ca9aa2d684c9a13e77e", "is_disabled": 0, "rental_uris": {"ios": "https://dc.lft.to/lastmile_qr_scan", "android": "https://dc.lft.to/lastmile_qr_scan"}, "is_reserved": 0}, {"lon": -77.0275425, "bike_id": "39ce83e1ffe92871788dc10420cac2df", "lat": 38.95772633333333, "fusion_lon": 0.0, "fusion_lat": 0.0, "type": "electric_scooter", "name": "39ce83e1ffe92871788dc10420cac2df", "is_disabled": 0, "rental_uris": {"ios": "https://dc.lft.to/lastmile_qr_scan", "android": "https://dc.lft.to/lastmile_qr_scan"}, "is_reserved": 0}, {"lon": -76.94879283333333, "bike_id": "f5e9a3dbbc121fb3fb3489c2a401af54", "lat": 38.89428916666667, "fusion_lon": 0.0, "fusion_lat": 0.0, "type": "electric_scooter", "name": "f5e9a3dbbc121fb3fb3489c2a401af54", "is_disabled": 0, "rental_uris": {"ios": "https://dc.lft.to/lastmile_qr_scan", "android": "https://dc.lft.to/lastmile_qr_scan"}, "is_reserved": 0}, {"lon": -77.0269915, "bike_id": "50bf548c68c2441be67b524022fdf025", "lat": 38.908405, "fusion_lon": 0.0, "fusion_lat": 0.0, "type": "electric_scooter", "name": "50bf548c68c2441be67b524022fdf025", "is_disabled": 0, "rental_uris": {"ios": "https://dc.lft.to/lastmile_qr_scan", "android": "https://dc.lft.to/lastmile_qr_scan"}, "is_reserved": 0}, {"lon": -77.00684066666666, "bike_id": "5e549ec4adc2acd7fb4b934e0e2c4f19", "lat": 38.834927, "fusion_lon": 0.0, "fusion_lat": 0.0, "type": "electric_scooter", "name": "5e549ec4adc2acd7fb4b934e0e2c4f19", "is_disabled": 0, "rental_uris": {"ios": "https://dc.lft.to/lastmile_qr_scan", "android": "https://dc.lft.to/lastmile_qr_scan"}, "is_reserved": 0}, {"lon": -77.02353683333334, "bike_id": "7361b261f9b33947f6420f028efecc92", "lat": 38.90286033333334, "fusion_lon": 0.0, "fusion_lat": 0.0, "type": "electric_scooter", "name": "7361b261f9b33947f6420f028efecc92", "is_disabled": 0, "rental_uris": {"ios": "https://dc.lft.to/lastmile_qr_scan", "android": "https://dc.lft.to/lastmile_qr_scan"}, "is_reserved": 0}, {"lon": -77.021739, "bike_id": "62c1850dc9bf89120eacd48b6906c570", "lat": 38.90847683333333, "fusion_lon": 0.0, "fusion_lat": 0.0, "type": "electric_scooter", "name": "62c1850dc9bf89120eacd48b6906c570", "is_disabled": 0, "rental_uris": {"ios": "https://dc.lft.to/lastmile_qr_scan", "android": "https://dc.lft.to/lastmile_qr_scan"}, "is_reserved": 0}, {"lon": -77.0437885, "bike_id": "e58607f06be5d37b8453270dd37acbcc", "lat": 38.92068666666667, "fusion_lon": 0.0, "fusion_lat": 0.0, "type": "electric_scooter", "name": "e58607f06be5d37b8453270dd37acbcc", "is_disabled": 0, "rental_uris": {"ios": "https://dc.lft.to/lastmile_qr_scan", "android": "https://dc.lft.to/lastmile_qr_scan"}, "is_reserved": 0}, {"lon": -77.04429083333333, "bike_id": "5f080e01c59bccb1ab45639ea25f57df", "lat": 38.9212345, "fusion_lon": 0.0, "fusion_lat": 0.0, "type": "electric_scooter", "name": "5f080e01c59bccb1ab45639ea25f57df", "is_disabled": 0, "rental_uris": {"ios": "https://dc.lft.to/lastmile_qr_scan", "android": "https://dc.lft.to/lastmile_qr_scan"}, "is_reserved": 0}, {"lon": -77.02590966666666, "bike_id": "5db35f0bd08eb2c50f7edce2a54d6e9d", "lat": 38.9430095, "fusion_lon": 0.0, "fusion_lat": 0.0, "type": "electric_scooter", "name": "5db35f0bd08eb2c50f7edce2a54d6e9d", "is_disabled": 0, "rental_uris": {"ios": "https://dc.lft.to/lastmile_qr_scan", "android": "https://dc.lft.to/lastmile_qr_scan"}, "is_reserved": 0}, {"lon": -77.0776495, "bike_id": "9e286595266a856eb7f34d641c4f039f", "lat": 38.9256145, "fusion_lon": 0.0, "fusion_lat": 0.0, "type": "electric_scooter", "name": "9e286595266a856eb7f34d641c4f039f", "is_disabled": 0, "rental_uris": {"ios": "https://dc.lft.to/lastmile_qr_scan", "android": "https://dc.lft.to/lastmile_qr_scan"}, "is_reserved": 0}, {"lon": -77.01624233333334, "bike_id": "e37311c00d975c817b54b1ef834c0af0", "lat": 38.928984666666665, "fusion_lon": 0.0, "fusion_lat": 0.0, "type": "electric_scooter", "name": "e37311c00d975c817b54b1ef834c0af0", "is_disabled": 0, "rental_uris": {"ios": "https://dc.lft.to/lastmile_qr_scan", "android": "https://dc.lft.to/lastmile_qr_scan"}, "is_reserved": 0}, {"lon": -77.0626215, "bike_id": "23dd75a86c01a002aa19eaf4bbb40163", "lat": 38.90541533333333, "fusion_lon": 0.0, "fusion_lat": 0.0, "type": "electric_scooter", "name": "23dd75a86c01a002aa19eaf4bbb40163", "is_disabled": 0, "rental_uris": {"ios": "https://dc.lft.to/lastmile_qr_scan", "android": "https://dc.lft.to/lastmile_qr_scan"}, "is_reserved": 0}, {"lon": -77.02496016666667, "bike_id": "32607a22dc159fd176c98a120ad65129", "lat": 38.91917933333333, "fusion_lon": 0.0, "fusion_lat": 0.0, "type": "electric_scooter", "name": "32607a22dc159fd176c98a120ad65129", "is_disabled": 0, "rental_uris": {"ios": "https://dc.lft.to/lastmile_qr_scan", "android": "https://dc.lft.to/lastmile_qr_scan"}, "is_reserved": 0}, {"lon": -77.04162333333333, "bike_id": "24e4fa30fe97fcfd30da38b2678d6cd2", "lat": 38.91246966666667, "fusion_lon": 0.0, "fusion_lat": 0.0, "type": "electric_scooter", "name": "24e4fa30fe97fcfd30da38b2678d6cd2", "is_disabled": 0, "rental_uris": {"ios": "https://dc.lft.to/lastmile_qr_scan", "android": "https://dc.lft.to/lastmile_qr_scan"}, "is_reserved": 0}, {"lon": -77.0337045, "bike_id": "d8f1429d8b73a12daf0fe75e9bd052aa", "lat": 38.90014383333333, "fusion_lon": 0.0, "fusion_lat": 0.0, "type": "electric_scooter", "name": "d8f1429d8b73a12daf0fe75e9bd052aa", "is_disabled": 0, "rental_uris": {"ios": "https://dc.lft.to/lastmile_qr_scan", "android": "https://dc.lft.to/lastmile_qr_scan"}, "is_reserved": 0}, {"lon": -76.93740333333334, "bike_id": "ef59338a176a891f6b1319104a10677b", "lat": 38.890121, "fusion_lon": 0.0, "fusion_lat": 0.0, "type": "electric_scooter", "name": "ef59338a176a891f6b1319104a10677b", "is_disabled": 0, "rental_uris": {"ios": "https://dc.lft.to/lastmile_qr_scan", "android": "https://dc.lft.to/lastmile_qr_scan"}, "is_reserved": 0}, {"lon": -77.05808983333333, "bike_id": "2aebb1995dabb016855c6f5de95ded8a", "lat": 38.9350895, "fusion_lon": 0.0, "fusion_lat": 0.0, "type": "electric_scooter", "name": "2aebb1995dabb016855c6f5de95ded8a", "is_disabled": 0, "rental_uris": {"ios": "https://dc.lft.to/lastmile_qr_scan", "android": "https://dc.lft.to/lastmile_qr_scan"}, "is_reserved": 0}, {"lon": -77.04251033333334, "bike_id": "99243ff1d4cd223a2e2cbbc35f520ab6", "lat": 38.90012816666667, "fusion_lon": 0.0, "fusion_lat": 0.0, "type": "electric_scooter", "name": "99243ff1d4cd223a2e2cbbc35f520ab6", "is_disabled": 0, "rental_uris": {"ios": "https://dc.lft.to/lastmile_qr_scan", "android": "https://dc.lft.to/lastmile_qr_scan"}, "is_reserved": 0}, {"lon": -77.03669716666667, "bike_id": "eaaa3d4539837ca3b207bdf8e6fe53cf", "lat": 38.93608566666666, "fusion_lon": 0.0, "fusion_lat": 0.0, "type": "electric_scooter", "name": "eaaa3d4539837ca3b207bdf8e6fe53cf", "is_disabled": 0, "rental_uris": {"ios": "https://dc.lft.to/lastmile_qr_scan", "android": "https://dc.lft.to/lastmile_qr_scan"}, "is_reserved": 0}, {"lon": -77.03445683333334, "bike_id": "b1addeefa173ac823a91299c1e231bcb", "lat": 38.914923333333334, "fusion_lon": 0.0, "fusion_lat": 0.0, "type": "electric_scooter", "name": "b1addeefa173ac823a91299c1e231bcb", "is_disabled": 0, "rental_uris": {"ios": "https://dc.lft.to/lastmile_qr_scan", "android": "https://dc.lft.to/lastmile_qr_scan"}, "is_reserved": 0}, {"lon": -77.04335066666667, "bike_id": "845f9ba10bdc9e7ac371ea2cef3995cc", "lat": 38.90724933333333, "fusion_lon": 0.0, "fusion_lat": 0.0, "type": "electric_scooter", "name": "845f9ba10bdc9e7ac371ea2cef3995cc", "is_disabled": 0, "rental_uris": {"ios": "https://dc.lft.to/lastmile_qr_scan", "android": "https://dc.lft.to/lastmile_qr_scan"}, "is_reserved": 0}, {"lon": -76.98896183333333, "bike_id": "5530b5d5120b6ddb17d3fa6d1d7aafd2", "lat": 38.913427, "fusion_lon": 0.0, "fusion_lat": 0.0, "type": "electric_scooter", "name": "5530b5d5120b6ddb17d3fa6d1d7aafd2", "is_disabled": 0, "rental_uris": {"ios": "https://dc.lft.to/lastmile_qr_scan", "android": "https://dc.lft.to/lastmile_qr_scan"}, "is_reserved": 0}, {"lon": -77.00539183333333, "bike_id": "bb83555e15d8bf3dc7e1611f6f34e20b", "lat": 38.900343666666664, "fusion_lon": 0.0, "fusion_lat": 0.0, "type": "electric_scooter", "name": "bb83555e15d8bf3dc7e1611f6f34e20b", "is_disabled": 0, "rental_uris": {"ios": "https://dc.lft.to/lastmile_qr_scan", "android": "https://dc.lft.to/lastmile_qr_scan"}, "is_reserved": 0}, {"lon": -77.0319115, "bike_id": "b39c169280d23713f64ff64a9f032e30", "lat": 38.9079315, "fusion_lon": 0.0, "fusion_lat": 0.0, "type": "electric_scooter", "name": "b39c169280d23713f64ff64a9f032e30", "is_disabled": 0, "rental_uris": {"ios": "https://dc.lft.to/lastmile_qr_scan", "android": "https://dc.lft.to/lastmile_qr_scan"}, "is_reserved": 0}, {"lon": -77.021899, "bike_id": "9e92b2e2cdd7afec5bedb7f548708430", "lat": 38.89903966666667, "fusion_lon": 0.0, "fusion_lat": 0.0, "type": "electric_scooter", "name": "9e92b2e2cdd7afec5bedb7f548708430", "is_disabled": 0, "rental_uris": {"ios": "https://dc.lft.to/lastmile_qr_scan", "android": "https://dc.lft.to/lastmile_qr_scan"}, "is_reserved": 0}, {"lon": -77.00840866666667, "bike_id": "6fdcb9c85379cf72fbe0f56123c62349", "lat": 38.91626566666667, "fusion_lon": 0.0, "fusion_lat": 0.0, "type": "electric_scooter", "name": "6fdcb9c85379cf72fbe0f56123c62349", "is_disabled": 0, "rental_uris": {"ios": "https://dc.lft.to/lastmile_qr_scan", "android": "https://dc.lft.to/lastmile_qr_scan"}, "is_reserved": 0}, {"lon": -77.03449366666666, "bike_id": "26515e2cd5e5383926d0667b60b8d268", "lat": 38.909780166666664, "fusion_lon": 0.0, "fusion_lat": 0.0, "type": "electric_scooter", "name": "26515e2cd5e5383926d0667b60b8d268", "is_disabled": 0, "rental_uris": {"ios": "https://dc.lft.to/lastmile_qr_scan", "android": "https://dc.lft.to/lastmile_qr_scan"}, "is_reserved": 0}, {"lon": -77.03826683333334, "bike_id": "e3bf9399931d18fe4b217e3d15006185", "lat": 38.90673183333333, "fusion_lon": 0.0, "fusion_lat": 0.0, "type": "electric_scooter", "name": "e3bf9399931d18fe4b217e3d15006185", "is_disabled": 0, "rental_uris": {"ios": "https://dc.lft.to/lastmile_qr_scan", "android": "https://dc.lft.to/lastmile_qr_scan"}, "is_reserved": 0}, {"lon": -77.03289083333334, "bike_id": "444c549bf90a8e15a05a56e434c90c61", "lat": 38.95647816666666, "fusion_lon": 0.0, "fusion_lat": 0.0, "type": "electric_scooter", "name": "444c549bf90a8e15a05a56e434c90c61", "is_disabled": 0, "rental_uris": {"ios": "https://dc.lft.to/lastmile_qr_scan", "android": "https://dc.lft.to/lastmile_qr_scan"}, "is_reserved": 0}, {"lon": -77.01776916666667, "bike_id": "dd86bdded8fe11209434a82db1ebad40", "lat": 38.887150166666665, "fusion_lon": 0.0, "fusion_lat": 0.0, "type": "electric_scooter", "name": "dd86bdded8fe11209434a82db1ebad40", "is_disabled": 0, "rental_uris": {"ios": "https://dc.lft.to/lastmile_qr_scan", "android": "https://dc.lft.to/lastmile_qr_scan"}, "is_reserved": 0}, {"lon": -77.03216383333333, "bike_id": "492b86064fd2db1dc2d15c53e4ef616c", "lat": 38.892201166666666, "fusion_lon": 0.0, "fusion_lat": 0.0, "type": "electric_scooter", "name": "492b86064fd2db1dc2d15c53e4ef616c", "is_disabled": 0, "rental_uris": {"ios": "https://dc.lft.to/lastmile_qr_scan", "android": "https://dc.lft.to/lastmile_qr_scan"}, "is_reserved": 0}, {"lon": -77.05860316666667, "bike_id": "cc924e48832f864285ec9b857f4da210", "lat": 38.93544083333333, "fusion_lon": 0.0, "fusion_lat": 0.0, "type": "electric_scooter", "name": "cc924e48832f864285ec9b857f4da210", "is_disabled": 0, "rental_uris": {"ios": "https://dc.lft.to/lastmile_qr_scan", "android": "https://dc.lft.to/lastmile_qr_scan"}, "is_reserved": 0}, {"lon": -77.04191566666667, "bike_id": "0edd8afac581553fd82b451e737ac507", "lat": 38.899806166666664, "fusion_lon": 0.0, "fusion_lat": 0.0, "type": "electric_scooter", "name": "0edd8afac581553fd82b451e737ac507", "is_disabled": 0, "rental_uris": {"ios": "https://dc.lft.to/lastmile_qr_scan", "android": "https://dc.lft.to/lastmile_qr_scan"}, "is_reserved": 0}, {"lon": -76.9979345, "bike_id": "21869c9f48f442184ee079eb68818cd6", "lat": 38.9564115, "fusion_lon": 0.0, "fusion_lat": 0.0, "type": "electric_bike", "name": "21869c9f48f442184ee079eb68818cd6", "is_disabled": 0, "rental_uris": {"ios": "https://dc.lft.to/lastmile_qr_scan", "android": "https://dc.lft.to/lastmile_qr_scan"}, "is_reserved": 0}, {"lon": -76.9732595, "bike_id": "3a169eeb1bb1f2ef6ccb4d3a49cbe858", "lat": 38.90480566666667, "fusion_lon": 0.0, "fusion_lat": 0.0, "type": "electric_bike", "name": "3a169eeb1bb1f2ef6ccb4d3a49cbe858", "is_disabled": 0, "rental_uris": {"ios": "https://dc.lft.to/lastmile_qr_scan", "android": "https://dc.lft.to/lastmile_qr_scan"}, "is_reserved": 0}, {"lon": -77.070965, "bike_id": "26f1ad31b4df19dd2f41b9e39f7193dc", "lat": 38.89513933333333, "fusion_lon": 0.0, "fusion_lat": 0.0, "type": "electric_bike", "name": "26f1ad31b4df19dd2f41b9e39f7193dc", "is_disabled": 0, "rental_uris": {"ios": "https://dc.lft.to/lastmile_qr_scan", "android": "https://dc.lft.to/lastmile_qr_scan"}, "is_reserved": 0}, {"lon": -77.04499416666667, "bike_id": "8836d7d0c24f5e27e4f489c69a80c3b0", "lat": 38.911089, "fusion_lon": 0.0, "fusion_lat": 0.0, "type": "electric_scooter", "name": "8836d7d0c24f5e27e4f489c69a80c3b0", "is_disabled": 0, "rental_uris": {"ios": "https://dc.lft.to/lastmile_qr_scan", "android": "https://dc.lft.to/lastmile_qr_scan"}, "is_reserved": 0}, {"lon": -77.02396333333333, "bike_id": "1110443f31a014a88b51602a27b29fc5", "lat": 38.88132366666667, "fusion_lon": 0.0, "fusion_lat": 0.0, "type": "electric_scooter", "name": "1110443f31a014a88b51602a27b29fc5", "is_disabled": 0, "rental_uris": {"ios": "https://dc.lft.to/lastmile_qr_scan", "android": "https://dc.lft.to/lastmile_qr_scan"}, "is_reserved": 0}, {"lon": -76.99473833333333, "bike_id": "ef96e7309f918273e32ddca545d829b2", "lat": 38.882703166666666, "fusion_lon": 0.0, "fusion_lat": 0.0, "type": "electric_scooter", "name": "ef96e7309f918273e32ddca545d829b2", "is_disabled": 0, "rental_uris": {"ios": "https://dc.lft.to/lastmile_qr_scan", "android": "https://dc.lft.to/lastmile_qr_scan"}, "is_reserved": 0}, {"lon": -77.03839466666666, "bike_id": "dcb34d8737ead31f6f621bb07eb06240", "lat": 38.910427, "fusion_lon": 0.0, "fusion_lat": 0.0, "type": "electric_scooter", "name": "dcb34d8737ead31f6f621bb07eb06240", "is_disabled": 0, "rental_uris": {"ios": "https://dc.lft.to/lastmile_qr_scan", "android": "https://dc.lft.to/lastmile_qr_scan"}, "is_reserved": 0}, {"lon": -77.03989066666666, "bike_id": "7f6984645872bbc9019b34eb95e3dca3", "lat": 38.93338466666667, "fusion_lon": 0.0, "fusion_lat": 0.0, "type": "electric_scooter", "name": "7f6984645872bbc9019b34eb95e3dca3", "is_disabled": 0, "rental_uris": {"ios": "https://dc.lft.to/lastmile_qr_scan", "android": "https://dc.lft.to/lastmile_qr_scan"}, "is_reserved": 0}, {"lon": -77.021547, "bike_id": "e3816112f804a65f8380de2c358619a2", "lat": 38.89716383333333, "fusion_lon": 0.0, "fusion_lat": 0.0, "type": "electric_scooter", "name": "e3816112f804a65f8380de2c358619a2", "is_disabled": 0, "rental_uris": {"ios": "https://dc.lft.to/lastmile_qr_scan", "android": "https://dc.lft.to/lastmile_qr_scan"}, "is_reserved": 0}, {"lon": -77.0415465, "bike_id": "af9b5774465d27f1fc8b69eac2e522b3", "lat": 38.90677, "fusion_lon": 0.0, "fusion_lat": 0.0, "type": "electric_scooter", "name": "af9b5774465d27f1fc8b69eac2e522b3", "is_disabled": 0, "rental_uris": {"ios": "https://dc.lft.to/lastmile_qr_scan", "android": "https://dc.lft.to/lastmile_qr_scan"}, "is_reserved": 0}, {"lon": -77.22803316666666, "bike_id": "16eed083281deb693e1344dfe89bc358", "lat": 38.910137666666664, "fusion_lon": 0.0, "fusion_lat": 0.0, "type": "electric_bike", "name": "16eed083281deb693e1344dfe89bc358", "is_disabled": 0, "rental_uris": {"ios": "https://dc.lft.to/lastmile_qr_scan", "android": "https://dc.lft.to/lastmile_qr_scan"}, "is_reserved": 0}, {"lon": -76.96402483333334, "bike_id": "e6a73f357d28b281e0b4991c51d21119", "lat": 38.951757666666666, "fusion_lon": 0.0, "fusion_lat": 0.0, "type": "electric_bike", "name": "e6a73f357d28b281e0b4991c51d21119", "is_disabled": 0, "rental_uris": {"ios": "https://dc.lft.to/lastmile_qr_scan", "android": "https://dc.lft.to/lastmile_qr_scan"}, "is_reserved": 0}, {"lon": -77.04341716666667, "bike_id": "d195e5b6bcb088ae0bc9b84806da691e", "lat": 38.9104845, "fusion_lon": 0.0, "fusion_lat": 0.0, "type": "electric_scooter", "name": "d195e5b6bcb088ae0bc9b84806da691e", "is_disabled": 0, "rental_uris": {"ios": "https://dc.lft.to/lastmile_qr_scan", "android": "https://dc.lft.to/lastmile_qr_scan"}, "is_reserved": 0}, {"lon": -77.00717866666666, "bike_id": "d629eabf04e1951278119ce0eb281f3e", "lat": 38.905672333333335, "fusion_lon": 0.0, "fusion_lat": 0.0, "type": "electric_scooter", "name": "d629eabf04e1951278119ce0eb281f3e", "is_disabled": 0, "rental_uris": {"ios": "https://dc.lft.to/lastmile_qr_scan", "android": "https://dc.lft.to/lastmile_qr_scan"}, "is_reserved": 0}, {"lon": -77.02800616666667, "bike_id": "e5b43827c208c990f84ac8efc226800f", "lat": 38.954048666666665, "fusion_lon": 0.0, "fusion_lat": 0.0, "type": "electric_scooter", "name": "e5b43827c208c990f84ac8efc226800f", "is_disabled": 0, "rental_uris": {"ios": "https://dc.lft.to/lastmile_qr_scan", "android": "https://dc.lft.to/lastmile_qr_scan"}, "is_reserved": 0}, {"lon": -77.02090766666667, "bike_id": "663297eac5836f74b05e6cfdc859ef0d", "lat": 38.92914866666667, "fusion_lon": 0.0, "fusion_lat": 0.0, "type": "electric_scooter", "name": "663297eac5836f74b05e6cfdc859ef0d", "is_disabled": 0, "rental_uris": {"ios": "https://dc.lft.to/lastmile_qr_scan", "android": "https://dc.lft.to/lastmile_qr_scan"}, "is_reserved": 0}, {"lon": -77.00744516666667, "bike_id": "f51917c27bb567b79f56563db09d7505", "lat": 38.925324, "fusion_lon": 0.0, "fusion_lat": 0.0, "type": "electric_scooter", "name": "f51917c27bb567b79f56563db09d7505", "is_disabled": 0, "rental_uris": {"ios": "https://dc.lft.to/lastmile_qr_scan", "android": "https://dc.lft.to/lastmile_qr_scan"}, "is_reserved": 0}, {"lon": -77.02380816666667, "bike_id": "15f7262bdbec0d9af363b2424d6f533a", "lat": 38.9162195, "fusion_lon": 0.0, "fusion_lat": 0.0, "type": "electric_scooter", "name": "15f7262bdbec0d9af363b2424d6f533a", "is_disabled": 0, "rental_uris": {"ios": "https://dc.lft.to/lastmile_qr_scan", "android": "https://dc.lft.to/lastmile_qr_scan"}, "is_reserved": 0}, {"lon": -77.021705, "bike_id": "3d22c822b311df5bf9e273c40f55c155", "lat": 38.9151875, "fusion_lon": 0.0, "fusion_lat": 0.0, "type": "electric_scooter", "name": "3d22c822b311df5bf9e273c40f55c155", "is_disabled": 0, "rental_uris": {"ios": "https://dc.lft.to/lastmile_qr_scan", "android": "https://dc.lft.to/lastmile_qr_scan"}, "is_reserved": 0}, {"lon": -77.02951066666667, "bike_id": "cab72477356e12ec039947edc526dfde", "lat": 38.9276765, "fusion_lon": 0.0, "fusion_lat": 0.0, "type": "electric_scooter", "name": "cab72477356e12ec039947edc526dfde", "is_disabled": 0, "rental_uris": {"ios": "https://dc.lft.to/lastmile_qr_scan", "android": "https://dc.lft.to/lastmile_qr_scan"}, "is_reserved": 0}, {"lon": -77.05881416666666, "bike_id": "16d3a61dad91e21955c054329ef51347", "lat": 38.9355415, "fusion_lon": 0.0, "fusion_lat": 0.0, "type": "electric_scooter", "name": "16d3a61dad91e21955c054329ef51347", "is_disabled": 0, "rental_uris": {"ios": "https://dc.lft.to/lastmile_qr_scan", "android": "https://dc.lft.to/lastmile_qr_scan"}, "is_reserved": 0}, {"lon": -77.053145, "bike_id": "45511bc83730eb2eadae7d91f9ece419", "lat": 38.9409865, "fusion_lon": 0.0, "fusion_lat": 0.0, "type": "electric_bike", "name": "45511bc83730eb2eadae7d91f9ece419", "is_disabled": 0, "rental_uris": {"ios": "https://dc.lft.to/lastmile_qr_scan", "android": "https://dc.lft.to/lastmile_qr_scan"}, "is_reserved": 0}, {"lon": -77.03126316666666, "bike_id": "b46c71a7c4e8b606e057df94d12150af", "lat": 38.988313166666664, "fusion_lon": 0.0, "fusion_lat": 0.0, "type": "electric_scooter", "name": "b46c71a7c4e8b606e057df94d12150af", "is_disabled": 0, "rental_uris": {"ios": "https://dc.lft.to/lastmile_qr_scan", "android": "https://dc.lft.to/lastmile_qr_scan"}, "is_reserved": 0}, {"lon": -77.0411215, "bike_id": "20a5196c61774b43ddca7e09a12db587", "lat": 38.9169645, "fusion_lon": 0.0, "fusion_lat": 0.0, "type": "electric_scooter", "name": "20a5196c61774b43ddca7e09a12db587", "is_disabled": 0, "rental_uris": {"ios": "https://dc.lft.to/lastmile_qr_scan", "android": "https://dc.lft.to/lastmile_qr_scan"}, "is_reserved": 0}, {"lon": -77.022447, "bike_id": "31326ef4db6c7b84b5573f85e14acef1", "lat": 38.908615166666664, "fusion_lon": 0.0, "fusion_lat": 0.0, "type": "electric_scooter", "name": "31326ef4db6c7b84b5573f85e14acef1", "is_disabled": 0, "rental_uris": {"ios": "https://dc.lft.to/lastmile_qr_scan", "android": "https://dc.lft.to/lastmile_qr_scan"}, "is_reserved": 0}, {"lon": -77.031387, "bike_id": "de72dbe307a80315b57b11edf3859549", "lat": 38.9156425, "fusion_lon": 0.0, "fusion_lat": 0.0, "type": "electric_scooter", "name": "de72dbe307a80315b57b11edf3859549", "is_disabled": 0, "rental_uris": {"ios": "https://dc.lft.to/lastmile_qr_scan", "android": "https://dc.lft.to/lastmile_qr_scan"}, "is_reserved": 0}, {"lon": -77.02048416666666, "bike_id": "4f1f23ba3681d1edb0a825158a0b83f8", "lat": 38.915541833333336, "fusion_lon": 0.0, "fusion_lat": 0.0, "type": "electric_scooter", "name": "4f1f23ba3681d1edb0a825158a0b83f8", "is_disabled": 0, "rental_uris": {"ios": "https://dc.lft.to/lastmile_qr_scan", "android": "https://dc.lft.to/lastmile_qr_scan"}, "is_reserved": 0}, {"lon": -77.0271275, "bike_id": "9d033f4881629a557588f1d1588a6cc3", "lat": 38.906678666666664, "fusion_lon": 0.0, "fusion_lat": 0.0, "type": "electric_scooter", "name": "9d033f4881629a557588f1d1588a6cc3", "is_disabled": 0, "rental_uris": {"ios": "https://dc.lft.to/lastmile_qr_scan", "android": "https://dc.lft.to/lastmile_qr_scan"}, "is_reserved": 0}, {"lon": -77.02006416666667, "bike_id": "dadec5e7f05d62bcbb6fafe4c7d0ab88", "lat": 38.924116, "fusion_lon": 0.0, "fusion_lat": 0.0, "type": "electric_scooter", "name": "dadec5e7f05d62bcbb6fafe4c7d0ab88", "is_disabled": 0, "rental_uris": {"ios": "https://dc.lft.to/lastmile_qr_scan", "android": "https://dc.lft.to/lastmile_qr_scan"}, "is_reserved": 0}, {"lon": -77.032782, "bike_id": "f20f49d17d52b6ef8898a3967c736c32", "lat": 38.9297855, "fusion_lon": 0.0, "fusion_lat": 0.0, "type": "electric_scooter", "name": "f20f49d17d52b6ef8898a3967c736c32", "is_disabled": 0, "rental_uris": {"ios": "https://dc.lft.to/lastmile_qr_scan", "android": "https://dc.lft.to/lastmile_qr_scan"}, "is_reserved": 0}, {"lon": -76.99782766666667, "bike_id": "fddf893e2e8677038ac09b3cfaff9ab1", "lat": 38.844237166666666, "fusion_lon": 0.0, "fusion_lat": 0.0, "type": "electric_scooter", "name": "fddf893e2e8677038ac09b3cfaff9ab1", "is_disabled": 0, "rental_uris": {"ios": "https://dc.lft.to/lastmile_qr_scan", "android": "https://dc.lft.to/lastmile_qr_scan"}, "is_reserved": 0}, {"lon": -77.02438466666666, "bike_id": "1b7968760b3d2fba26e9768e51ec1577", "lat": 38.916970166666665, "fusion_lon": 0.0, "fusion_lat": 0.0, "type": "electric_scooter", "name": "1b7968760b3d2fba26e9768e51ec1577", "is_disabled": 0, "rental_uris": {"ios": "https://dc.lft.to/lastmile_qr_scan", "android": "https://dc.lft.to/lastmile_qr_scan"}, "is_reserved": 0}, {"lon": -77.0452595, "bike_id": "879f374b93089446bffc80cb8cf09f84", "lat": 38.9182545, "fusion_lon": 0.0, "fusion_lat": 0.0, "type": "electric_scooter", "name": "879f374b93089446bffc80cb8cf09f84", "is_disabled": 0, "rental_uris": {"ios": "https://dc.lft.to/lastmile_qr_scan", "android": "https://dc.lft.to/lastmile_qr_scan"}, "is_reserved": 0}, {"lon": -76.94726916666667, "bike_id": "9ac377db585b686d3a07a01f1e152ae4", "lat": 38.89735983333333, "fusion_lon": 0.0, "fusion_lat": 0.0, "type": "electric_scooter", "name": "9ac377db585b686d3a07a01f1e152ae4", "is_disabled": 0, "rental_uris": {"ios": "https://dc.lft.to/lastmile_qr_scan", "android": "https://dc.lft.to/lastmile_qr_scan"}, "is_reserved": 0}, {"lon": -77.0328505, "bike_id": "b298af2768678c21bccf200f20e123d4", "lat": 38.9397935, "fusion_lon": 0.0, "fusion_lat": 0.0, "type": "electric_scooter", "name": "b298af2768678c21bccf200f20e123d4", "is_disabled": 0, "rental_uris": {"ios": "https://dc.lft.to/lastmile_qr_scan", "android": "https://dc.lft.to/lastmile_qr_scan"}, "is_reserved": 0}, {"lon": -76.97705133333334, "bike_id": "2cb03fd2f35c2ca3b041e430539e185c", "lat": 38.9491245, "fusion_lon": 0.0, "fusion_lat": 0.0, "type": "electric_bike", "name": "2cb03fd2f35c2ca3b041e430539e185c", "is_disabled": 0, "rental_uris": {"ios": "https://dc.lft.to/lastmile_qr_scan", "android": "https://dc.lft.to/lastmile_qr_scan"}, "is_reserved": 0}, {"lon": -77.360944, "bike_id": "ae23f965c0b34075b3d606c045b91fb8", "lat": 38.93959683333333, "fusion_lon": 0.0, "fusion_lat": 0.0, "type": "electric_bike", "name": "ae23f965c0b34075b3d606c045b91fb8", "is_disabled": 0, "rental_uris": {"ios": "https://dc.lft.to/lastmile_qr_scan", "android": "https://dc.lft.to/lastmile_qr_scan"}, "is_reserved": 0}, {"lon": -77.01203866666667, "bike_id": "66b687c8f80425a7dabdc580e9b7f9d3", "lat": 38.8855235, "fusion_lon": 0.0, "fusion_lat": 0.0, "type": "electric_scooter", "name": "66b687c8f80425a7dabdc580e9b7f9d3", "is_disabled": 0, "rental_uris": {"ios": "https://dc.lft.to/lastmile_qr_scan", "android": "https://dc.lft.to/lastmile_qr_scan"}, "is_reserved": 0}, {"lon": -76.99474933333333, "bike_id": "33c2f67ed9b49052823dda225dedaac9", "lat": 38.88274416666667, "fusion_lon": 0.0, "fusion_lat": 0.0, "type": "electric_scooter", "name": "33c2f67ed9b49052823dda225dedaac9", "is_disabled": 0, "rental_uris": {"ios": "https://dc.lft.to/lastmile_qr_scan", "android": "https://dc.lft.to/lastmile_qr_scan"}, "is_reserved": 0}, {"lon": -77.031929, "bike_id": "04936a4e588cf41d6ba5b2727fe26efc", "lat": 38.913148166666666, "fusion_lon": 0.0, "fusion_lat": 0.0, "type": "electric_scooter", "name": "04936a4e588cf41d6ba5b2727fe26efc", "is_disabled": 0, "rental_uris": {"ios": "https://dc.lft.to/lastmile_qr_scan", "android": "https://dc.lft.to/lastmile_qr_scan"}, "is_reserved": 0}, {"lon": -77.0529595, "bike_id": "e7420a95807ac0d23bf7c778be57e83a", "lat": 38.89888216666667, "fusion_lon": 0.0, "fusion_lat": 0.0, "type": "electric_scooter", "name": "e7420a95807ac0d23bf7c778be57e83a", "is_disabled": 0, "rental_uris": {"ios": "https://dc.lft.to/lastmile_qr_scan", "android": "https://dc.lft.to/lastmile_qr_scan"}, "is_reserved": 0}, {"lon": -77.036798, "bike_id": "220adbc89eea7e8eb985360e28f9bb1e", "lat": 38.90834316666667, "fusion_lon": 0.0, "fusion_lat": 0.0, "type": "electric_scooter", "name": "220adbc89eea7e8eb985360e28f9bb1e", "is_disabled": 0, "rental_uris": {"ios": "https://dc.lft.to/lastmile_qr_scan", "android": "https://dc.lft.to/lastmile_qr_scan"}, "is_reserved": 0}, {"lon": -77.02308133333334, "bike_id": "c09f61545d79fb756230517278163d5f", "lat": 38.902985, "fusion_lon": 0.0, "fusion_lat": 0.0, "type": "electric_scooter", "name": "c09f61545d79fb756230517278163d5f", "is_disabled": 0, "rental_uris": {"ios": "https://dc.lft.to/lastmile_qr_scan", "android": "https://dc.lft.to/lastmile_qr_scan"}, "is_reserved": 0}, {"lon": -76.99744033333333, "bike_id": "4251b0b2a0eb30d00770e641e3d962fc", "lat": 39.04234483333333, "fusion_lon": 0.0, "fusion_lat": 0.0, "type": "electric_bike", "name": "4251b0b2a0eb30d00770e641e3d962fc", "is_disabled": 0, "rental_uris": {"ios": "https://dc.lft.to/lastmile_qr_scan", "android": "https://dc.lft.to/lastmile_qr_scan"}, "is_reserved": 0}, {"lon": -77.02404116666666, "bike_id": "437dedf79733019c4aa0c1b614b11f00", "lat": 38.8828875, "fusion_lon": 0.0, "fusion_lat": 0.0, "type": "electric_scooter", "name": "437dedf79733019c4aa0c1b614b11f00", "is_disabled": 0, "rental_uris": {"ios": "https://dc.lft.to/lastmile_qr_scan", "android": "https://dc.lft.to/lastmile_qr_scan"}, "is_reserved": 0}, {"lon": -77.02183566666666, "bike_id": "e60905107df392284f2cb74ef26e3b80", "lat": 38.909448, "fusion_lon": 0.0, "fusion_lat": 0.0, "type": "electric_scooter", "name": "e60905107df392284f2cb74ef26e3b80", "is_disabled": 0, "rental_uris": {"ios": "https://dc.lft.to/lastmile_qr_scan", "android": "https://dc.lft.to/lastmile_qr_scan"}, "is_reserved": 0}, {"lon": -77.05950566666667, "bike_id": "cc80dd38bafe379928fd8ed4bf6264ef", "lat": 38.9183975, "fusion_lon": 0.0, "fusion_lat": 0.0, "type": "electric_scooter", "name": "cc80dd38bafe379928fd8ed4bf6264ef", "is_disabled": 0, "rental_uris": {"ios": "https://dc.lft.to/lastmile_qr_scan", "android": "https://dc.lft.to/lastmile_qr_scan"}, "is_reserved": 0}, {"lon": -77.036689, "bike_id": "b249c19e201fdcb566526be50a3b6715", "lat": 38.918073, "fusion_lon": 0.0, "fusion_lat": 0.0, "type": "electric_scooter", "name": "b249c19e201fdcb566526be50a3b6715", "is_disabled": 0, "rental_uris": {"ios": "https://dc.lft.to/lastmile_qr_scan", "android": "https://dc.lft.to/lastmile_qr_scan"}, "is_reserved": 0}, {"lon": -77.05063033333333, "bike_id": "b5d47db64459efc8c71943d223a1ef2b", "lat": 38.907013, "fusion_lon": 0.0, "fusion_lat": 0.0, "type": "electric_scooter", "name": "b5d47db64459efc8c71943d223a1ef2b", "is_disabled": 0, "rental_uris": {"ios": "https://dc.lft.to/lastmile_qr_scan", "android": "https://dc.lft.to/lastmile_qr_scan"}, "is_reserved": 0}, {"lon": -76.9752185, "bike_id": "20a4c926efaae4bee3a00edfd2c61b88", "lat": 38.966937, "fusion_lon": 0.0, "fusion_lat": 0.0, "type": "electric_bike", "name": "20a4c926efaae4bee3a00edfd2c61b88", "is_disabled": 0, "rental_uris": {"ios": "https://dc.lft.to/lastmile_qr_scan", "android": "https://dc.lft.to/lastmile_qr_scan"}, "is_reserved": 0}, {"lon": -77.0292365, "bike_id": "5809bedc18b4ff2175994f8bc1c6f855", "lat": 38.9046385, "fusion_lon": 0.0, "fusion_lat": 0.0, "type": "electric_scooter", "name": "5809bedc18b4ff2175994f8bc1c6f855", "is_disabled": 0, "rental_uris": {"ios": "https://dc.lft.to/lastmile_qr_scan", "android": "https://dc.lft.to/lastmile_qr_scan"}, "is_reserved": 0}, {"lon": -77.05311966666666, "bike_id": "21a30e0ed4d5b5a1acd82f1956c9bb93", "lat": 38.900734, "fusion_lon": 0.0, "fusion_lat": 0.0, "type": "electric_scooter", "name": "21a30e0ed4d5b5a1acd82f1956c9bb93", "is_disabled": 0, "rental_uris": {"ios": "https://dc.lft.to/lastmile_qr_scan", "android": "https://dc.lft.to/lastmile_qr_scan"}, "is_reserved": 0}, {"lon": -77.03371233333333, "bike_id": "5a0d8fbb7b8c08acddccfe40569fe3cd", "lat": 38.898599, "fusion_lon": 0.0, "fusion_lat": 0.0, "type": "electric_scooter", "name": "5a0d8fbb7b8c08acddccfe40569fe3cd", "is_disabled": 0, "rental_uris": {"ios": "https://dc.lft.to/lastmile_qr_scan", "android": "https://dc.lft.to/lastmile_qr_scan"}, "is_reserved": 0}, {"lon": -77.023843, "bike_id": "70a18f0f3fcfd338f4c3fe3d009cfe67", "lat": 38.89227916666667, "fusion_lon": 0.0, "fusion_lat": 0.0, "type": "electric_scooter", "name": "70a18f0f3fcfd338f4c3fe3d009cfe67", "is_disabled": 0, "rental_uris": {"ios": "https://dc.lft.to/lastmile_qr_scan", "android": "https://dc.lft.to/lastmile_qr_scan"}, "is_reserved": 0}, {"lon": -77.0208515, "bike_id": "efeb29d9b04dfdb1ba0b0091bbf59bed", "lat": 38.95745266666667, "fusion_lon": 0.0, "fusion_lat": 0.0, "type": "electric_scooter", "name": "efeb29d9b04dfdb1ba0b0091bbf59bed", "is_disabled": 0, "rental_uris": {"ios": "https://dc.lft.to/lastmile_qr_scan", "android": "https://dc.lft.to/lastmile_qr_scan"}, "is_reserved": 0}, {"lon": -77.03387916666667, "bike_id": "edb9526c8ed904cc01f4cb75cb33c94b", "lat": 38.909692166666666, "fusion_lon": 0.0, "fusion_lat": 0.0, "type": "electric_scooter", "name": "edb9526c8ed904cc01f4cb75cb33c94b", "is_disabled": 0, "rental_uris": {"ios": "https://dc.lft.to/lastmile_qr_scan", "android": "https://dc.lft.to/lastmile_qr_scan"}, "is_reserved": 0}, {"lon": -77.03868983333334, "bike_id": "31604d1e650257c99b09b67a1bef3a0d", "lat": 38.91175966666667, "fusion_lon": 0.0, "fusion_lat": 0.0, "type": "electric_scooter", "name": "31604d1e650257c99b09b67a1bef3a0d", "is_disabled": 0, "rental_uris": {"ios": "https://dc.lft.to/lastmile_qr_scan", "android": "https://dc.lft.to/lastmile_qr_scan"}, "is_reserved": 0}, {"lon": -76.99682333333334, "bike_id": "19a49a2e1d5893232f6eb859b5c429ec", "lat": 38.860217666666664, "fusion_lon": 0.0, "fusion_lat": 0.0, "type": "electric_scooter", "name": "19a49a2e1d5893232f6eb859b5c429ec", "is_disabled": 0, "rental_uris": {"ios": "https://dc.lft.to/lastmile_qr_scan", "android": "https://dc.lft.to/lastmile_qr_scan"}, "is_reserved": 0}, {"lon": -77.01801366666666, "bike_id": "c50f493dcc05116834534f7c7ea18b60", "lat": 38.97344433333333, "fusion_lon": 0.0, "fusion_lat": 0.0, "type": "electric_bike", "name": "c50f493dcc05116834534f7c7ea18b60", "is_disabled": 0, "rental_uris": {"ios": "https://dc.lft.to/lastmile_qr_scan", "android": "https://dc.lft.to/lastmile_qr_scan"}, "is_reserved": 0}, {"lon": -77.07286316666666, "bike_id": "1bc0e15e51c504e35ecb550955a91a06", "lat": 38.931934, "fusion_lon": 0.0, "fusion_lat": 0.0, "type": "electric_scooter", "name": "1bc0e15e51c504e35ecb550955a91a06", "is_disabled": 0, "rental_uris": {"ios": "https://dc.lft.to/lastmile_qr_scan", "android": "https://dc.lft.to/lastmile_qr_scan"}, "is_reserved": 0}, {"lon": -77.03533666666667, "bike_id": "6d3f07bfce0f7a193b8a900dbcc1aa39", "lat": 38.91841216666667, "fusion_lon": 0.0, "fusion_lat": 0.0, "type": "electric_scooter", "name": "6d3f07bfce0f7a193b8a900dbcc1aa39", "is_disabled": 0, "rental_uris": {"ios": "https://dc.lft.to/lastmile_qr_scan", "android": "https://dc.lft.to/lastmile_qr_scan"}, "is_reserved": 0}, {"lon": -77.01961683333333, "bike_id": "4dac2dbe22a3a8c533a7f5535773fe34", "lat": 38.921925, "fusion_lon": 0.0, "fusion_lat": 0.0, "type": "electric_scooter", "name": "4dac2dbe22a3a8c533a7f5535773fe34", "is_disabled": 0, "rental_uris": {"ios": "https://dc.lft.to/lastmile_qr_scan", "android": "https://dc.lft.to/lastmile_qr_scan"}, "is_reserved": 0}, {"lon": -76.95187033333333, "bike_id": "3ebd9c1cd6c24aa97f9ef3eeed19cc27", "lat": 38.90737216666667, "fusion_lon": 0.0, "fusion_lat": 0.0, "type": "electric_scooter", "name": "3ebd9c1cd6c24aa97f9ef3eeed19cc27", "is_disabled": 0, "rental_uris": {"ios": "https://dc.lft.to/lastmile_qr_scan", "android": "https://dc.lft.to/lastmile_qr_scan"}, "is_reserved": 0}, {"lon": -77.0403785, "bike_id": "e727341a1ab1eb60b057316c86a1231b", "lat": 38.9231615, "fusion_lon": 0.0, "fusion_lat": 0.0, "type": "electric_scooter", "name": "e727341a1ab1eb60b057316c86a1231b", "is_disabled": 0, "rental_uris": {"ios": "https://dc.lft.to/lastmile_qr_scan", "android": "https://dc.lft.to/lastmile_qr_scan"}, "is_reserved": 0}, {"lon": -77.01787833333333, "bike_id": "2f58f0ad0c3a0304a69d67d6e054a2b8", "lat": 38.87711266666667, "fusion_lon": 0.0, "fusion_lat": 0.0, "type": "electric_scooter", "name": "2f58f0ad0c3a0304a69d67d6e054a2b8", "is_disabled": 0, "rental_uris": {"ios": "https://dc.lft.to/lastmile_qr_scan", "android": "https://dc.lft.to/lastmile_qr_scan"}, "is_reserved": 0}, {"lon": -77.0424875, "bike_id": "b941e576d29ad0539dd0e688b4d3dde7", "lat": 38.922363833333335, "fusion_lon": 0.0, "fusion_lat": 0.0, "type": "electric_scooter", "name": "b941e576d29ad0539dd0e688b4d3dde7", "is_disabled": 0, "rental_uris": {"ios": "https://dc.lft.to/lastmile_qr_scan", "android": "https://dc.lft.to/lastmile_qr_scan"}, "is_reserved": 0}, {"lon": -76.98194383333333, "bike_id": "a20df767d118ab2d52a4dae41981f3f7", "lat": 38.89945633333333, "fusion_lon": 0.0, "fusion_lat": 0.0, "type": "electric_scooter", "name": "a20df767d118ab2d52a4dae41981f3f7", "is_disabled": 0, "rental_uris": {"ios": "https://dc.lft.to/lastmile_qr_scan", "android": "https://dc.lft.to/lastmile_qr_scan"}, "is_reserved": 0},