{"data": {"bikes": [{"lon": -77.0464455, "bike_id": "3e451abbd272472da306403a51265d71", "lat": 38.915825, "fusion_lon": 0.0, "fusion_lat": 0.0, "type": "electric_scooter", "name": "3e451abbd272472da306403a51265d71", "is_disabled": 0, "rental_uris": {"ios": "https://dc.lft.to/lastmile_qr_scan", "android": "https://dc.lft.to/lastmile_qr_scan"}, "is_reserved": 0}, {"lon": -76.98791833333334, "bike_id": "cfcd93cd492cf112bad88af12d0324b6", "lat": 38.8674535, "fusion_lon": 0.0, "fusion_lat": 0.0, "type": "electric_scooter", "name": "cfcd93cd492cf112bad88af12d0324b6", "is_disabled": 0, "rental_uris": {"ios": "https://dc.lft.to/lastmile_qr_scan", "android": "https://dc.lft.to/lastmile_qr_scan"}, "is_reserved": 0}, {"lon": -77.0306545, "bike_id": "b892cfe98cef716ac6fbe4c5fc3c4b8f", "lat": 38.9224685, "fusion_lon": 0.0, "fusion_lat": 0.0, "type": "electric_scooter", "name": "b892cfe98cef716ac6fbe4c5fc3c4b8f", "is_disabled": 0, "rental_uris": {"ios": "https://dc.lft.to/lastmile_qr_scan", "android": "https://dc.lft.to/lastmile_qr_scan"}, "is_reserved": 0}, {"lon": -77.02965216666666, "bike_id": "b6c2e76449fc2c92da0166de28be3677", "lat": 38.916682, "fusion_lon": 0.0, "fusion_lat": 0.0, "type": "electric_scooter", "name": "b6c2e76449fc2c92da0166de28be3677", "is_disabled": 0, "rental_uris": {"ios": "https://dc.lft.to/lastmile_qr_scan", "android": "https://dc.lft.to/lastmile_qr_scan"}, "is_reserved": 0}, {"lon": -77.02925233333333, "bike_id": "ac05a50e69e8b86c29318185482e9378", "lat": 38.934613, "fusion_lon": 0.0, "fusion_lat": 0.0, "type": "electric_scooter", "name": "ac05a50e69e8b86c29318185482e9378", "is_disabled": 0, "rental_uris": {"ios": "https://dc.lft.to/lastmile_qr_scan", "android": "https://dc.lft.to/lastmile_qr_scan"}, "is_reserved": 0}, {"lon": -77.0311585, "bike_id": "aea520f897e64a8440c23ff816d7eabd", "lat": 38.915629333333335, "fusion_lon": 0.0, "fusion_lat": 0.0, "type": "electric_scooter", "name": "aea520f897e64a8440c23ff816d7eabd", "is_disabled": 0, "rental_uris": {"ios": "https://dc.lft.to/lastmile_qr_scan", "android": "https://dc.lft.to/lastmile_qr_scan"}, "is_reserved": 0}, {"lon": -77.02900033333333, "bike_id": "aae6ec0dfa18cf9d2e4f97dd9cdaeef1", "lat": 38.91705666666667, "fusion_lon": 0.0, "fusion_lat": 0.0, "type": "electric_scooter", "name": "aae6ec0dfa18cf9d2e4f97dd9cdaeef1", "is_disabled": 0, "rental_uris": {"ios": "https://dc.lft.to/lastmile_qr_scan", "android": "https://dc.lft.to/lastmile_qr_scan"}, "is_reserved": 0}, {"lon": -77.02715116666667, "bike_id": "b7d4359808de10b1e369b282cf406ca0", "lat": 38.90662566666666, "fusion_lon": 0.0, "fusion_lat": 0.0, "type": "electric_scooter", "name": "b7d4359808de10b1e369b282cf406ca0", "is_disabled": 0, "rental_uris": {"ios": "https://dc.lft.to/lastmile_qr_scan", "android": "https://dc.lft.to/lastmile_qr_scan"}, "is_reserved": 0}, {"lon": -76.98864566666667, "bike_id": "6bd086ac2ab3ccfc15cb521226133a75", "lat": 38.89169783333333, "fusion_lon": 0.0, "fusion_lat": 0.0, "type": "electric_scooter", "name": "6bd086ac2ab3ccfc15cb521226133a75", "is_disabled": 0, "rental_uris": {"ios": "https://dc.lft.to/lastmile_qr_scan", "android": "https://dc.lft.to/lastmile_qr_scan"}, "is_reserved": 0}, {"lon": -77.03833316666666, "bike_id": "4d48d1a8c13e03a0f8c596ab60fee50d", "lat": 38.90670983333333, "fusion_lon": 0.0, "fusion_lat": 0.0, "type": "electric_scooter", "name": "4d48d1a8c13e03a0f8c596ab60fee50d", "is_disabled": 0, "rental_uris": {"ios": "https://dc.lft.to/lastmile_qr_scan", "android": "https://dc.lft.to/lastmile_qr_scan"}, "is_reserved": 0}, {"lon": -77.02836083333334, "bike_id": "d67d01c21ac6ed763542566c227d3abd", "lat": 38.932786, "fusion_lon": 0.0, "fusion_lat": 0.0, "type": "electric_scooter", "name": "d67d01c21ac6ed763542566c227d3abd", "is_disabled": 0, "rental_uris": {"ios": "https://dc.lft.to/lastmile_qr_scan", "android": "https://dc.lft.to/lastmile_qr_scan"}, "is_reserved": 0}, {"lon": -77.07112033333334, "bike_id": "509a3cb52e384ea4917fb8732ee9d994", "lat": 38.91992333333334, "fusion_lon": 0.0, "fusion_lat": 0.0, "type": "electric_scooter", "name": "509a3cb52e384ea4917fb8732ee9d994", "is_disabled": 0, "rental_uris": {"ios": "https://dc.lft.to/lastmile_qr_scan", "android": "https://dc.lft.to/lastmile_qr_scan"}, "is_reserved": 0}, {"lon": -76.97674666666667, "bike_id": "2ccc110bcf4a1ec26622d819cf10a800", "lat": 38.95248933333333, "fusion_lon": 0.0, "fusion_lat": 0.0, "type": "electric_bike", "name": "2ccc110bcf4a1ec26622d819cf10a800", "is_disabled": 0, "rental_uris": {"ios": "https://dc.lft.to/lastmile_qr_scan", "android": "https://dc.lft.to/lastmile_qr_scan"}, "is_reserved": 0}, {"lon": -76.9949915, "bike_id": "40dc8b810a9ea45aefa478a12236effe", "lat": 38.93243616666667, "fusion_lon": 0.0, "fusion_lat": 0.0, "type": "electric_scooter", "name": "40dc8b810a9ea45aefa478a12236effe", "is_disabled": 0, "rental_uris": {"ios": "https://dc.lft.to/lastmile_qr_scan", "android": "https://dc.lft.to/lastmile_qr_scan"}, "is_reserved": 0}, {"lon": -77.01804866666667, "bike_id": "02fe6cf270502b8f499d2da70d99dbfc", "lat": 38.92126866666667, "fusion_lon": 0.0, "fusion_lat": 0.0, "type": "electric_scooter", "name": "02fe6cf270502b8f499d2da70d99dbfc", "is_disabled": 0, "rental_uris": {"ios": "https://dc.lft.to/lastmile_qr_scan", "android": "https://dc.lft.to/lastmile_qr_scan"}, "is_reserved": 0}, {"lon": -77.00990433333334, "bike_id": "5d5907474a3f4be034cb301eaed15427", "lat": 38.872895666666665, "fusion_lon": 0.0, "fusion_lat": 0.0, "type": "electric_scooter", "name": "5d5907474a3f4be034cb301eaed15427", "is_disabled": 0, "rental_uris": {"ios": "https://dc.lft.to/lastmile_qr_scan", "android": "https://dc.lft.to/lastmile_qr_scan"}, "is_reserved": 0}, {"lon": -77.033213, "bike_id": "901b61a5c2069573b0bfa75a897a4a74", "lat": 38.921765, "fusion_lon": 0.0, "fusion_lat": 0.0, "type": "electric_scooter", "name": "901b61a5c2069573b0bfa75a897a4a74", "is_disabled": 0, "rental_uris": {"ios": "https://dc.lft.to/lastmile_qr_scan", "android": "https://dc.lft.to/lastmile_qr_scan"}, "is_reserved": 0}, {"lon": -77.03071816666667, "bike_id": "643f72c4d37f32c2366bc1aa25c98861", "lat": 38.900726666666664, "fusion_lon": 0.0, "fusion_lat": 0.0, "type": "electric_scooter", "name": "643f72c4d37f32c2366bc1aa25c98861", "is_disabled": 0, "rental_uris": {"ios": "https://dc.lft.to/lastmile_qr_scan", "android": "https://dc.lft.to/lastmile_qr_scan"}, "is_reserved": 0}, {"lon": -77.0444175, "bike_id": "9bfd3c41732520e4742d35ed5549e41d", "lat": 38.918005666666666, "fusion_lon": 0.0, "fusion_lat": 0.0, "type": "electric_scooter", "name": "9bfd3c41732520e4742d35ed5549e41d", "is_disabled": 0, "rental_uris": {"ios": "https://dc.lft.to/lastmile_qr_scan", "android": "https://dc.lft.to/lastmile_qr_scan"}, "is_reserved": 0}, {"lon": -77.04555383333333, "bike_id": "6c4619171dc766cc68f79c20d1b51cc5", "lat": 38.913219, "fusion_lon": 0.0, "fusion_lat": 0.0, "type": "electric_scooter", "name": "6c4619171dc766cc68f79c20d1b51cc5", "is_disabled": 0, "rental_uris": {"ios": "https://dc.lft.to/lastmile_qr_scan", "android": "https://dc.lft.to/lastmile_qr_scan"}, "is_reserved": 0}, {"lon": -77.02375416666666, "bike_id": "abd4006494f5aef8c2aa4fb2f27caa04", "lat": 38.91983616666667, "fusion_lon": 0.0, "fusion_lat": 0.0, "type": "electric_scooter", "name": "abd4006494f5aef8c2aa4fb2f27caa04", "is_disabled": 0, "rental_uris": {"ios": "https://dc.lft.to/lastmile_qr_scan", "android": "https://dc.lft.to/lastmile_qr_scan"}, "is_reserved": 0}, {"lon": -77.02693633333334, "bike_id": "59f56d966d969a4b323e62f18f5183fb", "lat": 38.908429, "fusion_lon": 0.0, "fusion_lat": 0.0, "type": "electric_scooter", "name": "59f56d966d969a4b323e62f18f5183fb", "is_disabled": 0, "rental_uris": {"ios": "https://dc.lft.to/lastmile_qr_scan", "android": "https://dc.lft.to/lastmile_qr_scan"}, "is_reserved": 0}, {"lon": -77.0276875, "bike_id": "aa071401c364e9e5795b0c5ff6450357", "lat": 38.892261, "fusion_lon": 0.0, "fusion_lat": 0.0, "type": "electric_scooter", "name": "aa071401c364e9e5795b0c5ff6450357", "is_disabled": 0, "rental_uris": {"ios": "https://dc.lft.to/lastmile_qr_scan", "android": "https://dc.lft.to/lastmile_qr_scan"}, "is_reserved": 0}, {"lon": -76.99052883333333, "bike_id": "e7621dca1dfcc8f7147c1536706f57c4", "lat": 38.863838, "fusion_lon": 0.0, "fusion_lat": 0.0, "type": "electric_scooter", "name": "e7621dca1dfcc8f7147c1536706f57c4", "is_disabled": 0, "rental_uris": {"ios": "https://dc.lft.to/lastmile_qr_scan", "android": "https://dc.lft.to/lastmile_qr_scan"}, "is_reserved": 0}, {"lon": -77.02056033333334, "bike_id": "2056134dc9549d5604472a11d647368c", "lat": 38.9291745, "fusion_lon": 0.0, "fusion_lat": 0.0, "type": "electric_scooter", "name": "2056134dc9549d5604472a11d647368c", "is_disabled": 0, "rental_uris": {"ios": "https://dc.lft.to/lastmile_qr_scan", "android": "https://dc.lft.to/lastmile_qr_scan"}, "is_reserved": 0}, {"lon": -77.0006455, "bike_id": "a6b9215f77be888ad4e579e920fdc576", "lat": 38.900876833333335, "fusion_lon": 0.0, "fusion_lat": 0.0, "type": "electric_scooter", "name": "a6b9215f77be888ad4e579e920fdc576", "is_disabled": 0, "rental_uris": {"ios": "https://dc.lft.to/lastmile_qr_scan", "android": "https://dc.lft.to/lastmile_qr_scan"}, "is_reserved": 0}, {"lon": -77.0179945, "bike_id": "956a406dcf1b1a3f144d715342ed815c", "lat": 38.941177, "fusion_lon": 0.0, "fusion_lat": 0.0, "type": "electric_scooter", "name": "956a406dcf1b1a3f144d715342ed815c", "is_disabled": 0, "rental_uris": {"ios": "https://dc.lft.to/lastmile_qr_scan", "android": "https://dc.lft.to/lastmile_qr_scan"}, "is_reserved": 0}, {"lon": -76.94878033333333, "bike_id": "8051398019401106cf174d147ff61b76", "lat": 38.894325333333335, "fusion_lon": 0.0, "fusion_lat": 0.0, "type": "electric_scooter", "name": "8051398019401106cf174d147ff61b76", "is_disabled": 0, "rental_uris": {"ios": "https://dc.lft.to/lastmile_qr_scan", "android": "https://dc.lft.to/lastmile_qr_scan"}, "is_reserved": 0}, {"lon": -77.03217316666667, "bike_id": "6aadcd1b8fb2002a1f3303d1a83af2a1", "lat": 38.91265283333333, "fusion_lon": 0.0, "fusion_lat": 0.0, "type": "electric_scooter", "name": "6aadcd1b8fb2002a1f3303d1a83af2a1", "is_disabled": 0, "rental_uris": {"ios": "https://dc.lft.to/lastmile_qr_scan", "android": "https://dc.lft.to/lastmile_qr_scan"}, "is_reserved": 0}, {"lon": -77.01988533333333, "bike_id": "d50ee7fdc54e85644d60d74cdf46dcbb", "lat": 38.9255065, "fusion_lon": 0.0, "fusion_lat": 0.0, "type": "electric_bike", "name": "d50ee7fdc54e85644d60d74cdf46dcbb", "is_disabled": 0, "rental_uris": {"ios": "https://dc.lft.to/lastmile_qr_scan", "android": "https://dc.lft.to/lastmile_qr_scan"}, "is_reserved": 0}, {"lon": -77.03381066666667, "bike_id": "51d9b18bd0955501d4baa4dff12d2010", "lat": 38.938472, "fusion_lon": 0.0, "fusion_lat": 0.0, "type": "electric_scooter", "name": "51d9b18bd0955501d4baa4dff12d2010", "is_disabled": 0, "rental_uris": {"ios": "https://dc.lft.to/lastmile_qr_scan", "android": "https://dc.lft.to/lastmile_qr_scan"}, "is_reserved": 0}, {"lon": -76.9936695, "bike_id": "b8651849b5ab3c4e5d66a7c2f340da84", "lat": 38.893759833333334, "fusion_lon": 0.0, "fusion_lat": 0.0, "type": "electric_scooter", "name": "b8651849b5ab3c4e5d66a7c2f340da84", "is_disabled": 0, "rental_uris": {"ios": "https://dc.lft.to/lastmile_qr_scan", "android": "https://dc.lft.to/lastmile_qr_scan"}, "is_reserved": 0}, {"lon": -77.00677266666666, "bike_id": "203788cd40b9f73b7274a3845981ca71", "lat": 38.83498083333333, "fusion_lon": 0.0, "fusion_lat": 0.0, "type": "electric_scooter", "name": "203788cd40b9f73b7274a3845981ca71", "is_disabled": 0, "rental_uris": {"ios": "https://dc.lft.to/lastmile_qr_scan", "android": "https://dc.lft.to/lastmile_qr_scan"}, "is_reserved": 0}, {"lon": -77.01197366666666, "bike_id": "9e6148bab589bc0a2ac31c0388dff80e", "lat": 38.900357666666665, "fusion_lon": 0.0, "fusion_lat": 0.0, "type": "electric_bike", "name": "9e6148bab589bc0a2ac31c0388dff80e", "is_disabled": 0, "rental_uris": {"ios": "https://dc.lft.to/lastmile_qr_scan", "android": "https://dc.lft.to/lastmile_qr_scan"}, "is_reserved": 0}, {"lon": -77.02402033333334, "bike_id": "fd0285f56576ef46ee563d19312a2637", "lat": 38.9199135, "fusion_lon": 0.0, "fusion_lat": 0.0, "type": "electric_scooter", "name": "fd0285f56576ef46ee563d19312a2637", "is_disabled": 0, "rental_uris": {"ios": "https://dc.lft.to/lastmile_qr_scan", "android": "https://dc.lft.to/lastmile_qr_scan"}, "is_reserved": 0}, {"lon": -77.02403416666667, "bike_id": "cf3492f0ad9af358907a1326c9ed04fa", "lat": 38.93108683333333, "fusion_lon": 0.0, "fusion_lat": 0.0, "type": "electric_scooter", "name": "cf3492f0ad9af358907a1326c9ed04fa", "is_disabled": 0, "rental_uris": {"ios": "https://dc.lft.to/lastmile_qr_scan", "android": "https://dc.lft.to/lastmile_qr_scan"}, "is_reserved": 0}, {"lon": -77.03861516666667, "bike_id": "ba32a52cbada954abfb3f17ea88a4288", "lat": 38.9027375, "fusion_lon": 0.0, "fusion_lat": 0.0, "type": "electric_scooter", "name": "ba32a52cbada954abfb3f17ea88a4288", "is_disabled": 0, "rental_uris": {"ios": "https://dc.lft.to/lastmile_qr_scan", "android": "https://dc.lft.to/lastmile_qr_scan"}, "is_reserved": 0}, {"lon": -77.02592766666666, "bike_id": "6904ca8589a425d7e65eb36e7e3e0b8c", "lat": 38.963954, "fusion_lon": 0.0, "fusion_lat": 0.0, "type": "electric_scooter", "name": "6904ca8589a425d7e65eb36e7e3e0b8c", "is_disabled": 0, "rental_uris": {"ios": "https://dc.lft.to/lastmile_qr_scan", "android": "https://dc.lft.to/lastmile_qr_scan"}, "is_reserved": 0}, {"lon": -77.03276, "bike_id": "8f6079281fc85c9ff329c273527c7ca5", "lat": 38.9199675, "fusion_lon": 0.0, "fusion_lat": 0.0, "type": "electric_scooter", "name": "8f6079281fc85c9ff329c273527c7ca5", "is_disabled": 0, "rental_uris": {"ios": "https://dc.lft.to/lastmile_qr_scan", "android": "https://dc.lft.to/lastmile_qr_scan"}, "is_reserved": 0}, {"lon": -77.02979, "bike_id": "3a407a8f3ab4fa5edd19651e84041428", "lat": 38.92874833333333, "fusion_lon": 0.0, "fusion_lat": 0.0, "type": "electric_scooter", "name": "3a407a8f3ab4fa5edd19651e84041428", "is_disabled": 0, "rental_uris": {"ios": "https://dc.lft.to/lastmile_qr_scan", "android": "https://dc.lft.to/lastmile_qr_scan"}, "is_reserved": 0}, {"lon": -76.93732716666666, "bike_id": "4d50587d210c8a9ab360f4df35f53ed4", "lat": 38.890149, "fusion_lon": 0.0, "fusion_lat": 0.0, "type": "electric_scooter", "name": "4d50587d210c8a9ab360f4df35f53ed4", "is_disabled": 0, "rental_uris": {"ios": "https://dc.lft.to/lastmile_qr_scan", "android": "https://dc.lft.to/lastmile_qr_scan"}, "is_reserved": 0}, {"lon": -76.98712033333334, "bike_id": "455ff423b24c5c400613600568a63863", "lat": 38.867038666666666, "fusion_lon": 0.0, "fusion_lat": 0.0, "type": "electric_scooter", "name": "455ff423b24c5c400613600568a63863", "is_disabled": 0, "rental_uris": {"ios": "https://dc.lft.to/lastmile_qr_scan", "android": "https://dc.lft.to/lastmile_qr_scan"}, "is_reserved": 0}, {"lon": -77.02053833333333, "bike_id": "da2db830790d01ad5f395e172a29540d", "lat": 38.957558666666664, "fusion_lon": 0.0, "fusion_lat": 0.0, "type": "electric_bike", "name": "da2db830790d01ad5f395e172a29540d", "is_disabled": 0, "rental_uris": {"ios": "https://dc.lft.to/lastmile_qr_scan", "android": "https://dc.lft.to/lastmile_qr_scan"}, "is_reserved": 0}, {"lon": -77.045137, "bike_id": "18592e73ae0f7cbb933876d71d0985aa", "lat": 38.903808166666664, "fusion_lon": 0.0, "fusion_lat": 0.0, "type": "electric_scooter", "name": "18592e73ae0f7cbb933876d71d0985aa", "is_disabled": 0, "rental_uris": {"ios": "https://dc.lft.to/lastmile_qr_scan", "android": "https://dc.lft.to/lastmile_qr_scan"}, "is_reserved": 0}, {"lon": -76.98233166666667, "bike_id": "f618e09cc95f14108cf04d7a11deb87c", "lat": 38.868951333333335, "fusion_lon": 0.0, "fusion_lat": 0.0, "type": "electric_scooter", "name": "f618e09cc95f14108cf04d7a11deb87c", "is_disabled": 0, "rental_uris": {"ios": "https://dc.lft.to/lastmile_qr_scan", "android": "https://dc.lft.to/lastmile_qr_scan"}, "is_reserved": 0}, {"lon": -77.0321025, "bike_id": "d019cc794f0ad1b6929fad3673a18bf9", "lat": 38.89366833333333, "fusion_lon": 0.0, "fusion_lat": 0.0, "type": "electric_scooter", "name": "d019cc794f0ad1b6929fad3673a18bf9", "is_disabled": 0, "rental_uris": {"ios": "https://dc.lft.to/lastmile_qr_scan", "android": "https://dc.lft.to/lastmile_qr_scan"}, "is_reserved": 0}, {"lon": -76.99203166666666, "bike_id": "69d4c5f1091854e7ee07a2bb70d729d3", "lat": 38.86294866666667, "fusion_lon": 0.0, "fusion_lat": 0.0, "type": "electric_scooter", "name": "69d4c5f1091854e7ee07a2bb70d729d3", "is_disabled": 0, "rental_uris": {"ios": "https://dc.lft.to/lastmile_qr_scan", "android": "https://dc.lft.to/lastmile_qr_scan"}, "is_reserved": 0}, {"lon": -77.04147133333333, "bike_id": "53642d12898a76b21fdd7891e97fb23f", "lat": 38.905332333333334, "fusion_lon": 0.0, "fusion_lat": 0.0, "type": "electric_scooter", "name": "53642d12898a76b21fdd7891e97fb23f", "is_disabled": 0, "rental_uris": {"ios": "https://dc.lft.to/lastmile_qr_scan", "android": "https://dc.lft.to/lastmile_qr_scan"}, "is_reserved": 0}, {"lon": -77.0433275, "bike_id": "463770f0c12cdeec13f2083cf0cbdb58", "lat": 38.902263, "fusion_lon": 0.0, "fusion_lat": 0.0, "type": "electric_scooter", "name": "463770f0c12cdeec13f2083cf0cbdb58", "is_disabled": 0, "rental_uris": {"ios": "https://dc.lft.to/lastmile_qr_scan", "android": "https://dc.lft.to/lastmile_qr_scan"}, "is_reserved": 0}, {"lon": -77.038571, "bike_id": "e34be88800fb9b8a89ba4d1002acd0c7", "lat": 38.912790666666666, "fusion_lon": 0.0, "fusion_lat": 0.0, "type": "electric_scooter", "name": "e34be88800fb9b8a89ba4d1002acd0c7", "is_disabled": 0, "rental_uris": {"ios": "https://dc.lft.to/lastmile_qr_scan", "android": "https://dc.lft.to/lastmile_qr_scan"}, "is_reserved": 0}, {"lon": -77.02684016666667, "bike_id": "bf8e79bac03347a0cd73833f3dff9535", "lat": 38.904455, "fusion_lon": 0.0, "fusion_lat": 0.0, "type": "electric_scooter", "name": "bf8e79bac03347a0cd73833f3dff9535", "is_disabled": 0, "rental_uris": {"ios": "https://dc.lft.to/lastmile_qr_scan", "android": "https://dc.lft.to/lastmile_qr_scan"}, "is_reserved": 0}, {"lon": -77.04205583333334, "bike_id": "36e14d5f4e2fa94406216dbd6697203a", "lat": 38.92136933333333, "fusion_lon": 0.0, "fusion_lat": 0.0, "type": "electric_scooter", "name": "36e14d5f4e2fa94406216dbd6697203a", "is_disabled": 0, "rental_uris": {"ios": "https://dc.lft.to/lastmile_qr_scan", "android": "https://dc.lft.to/lastmile_qr_scan"}, "is_reserved": 0}, {"lon": -77.04497316666667, "bike_id": "2e4d126151f3566c10146fec43d7b5e7", "lat": 38.897846333333334, "fusion_lon": 0.0, "fusion_lat": 0.0, "type": "electric_scooter", "name": "2e4d126151f3566c10146fec43d7b5e7", "is_disabled": 0, "rental_uris": {"ios": "https://dc.lft.to/lastmile_qr_scan", "android": "https://dc.lft.to/lastmile_qr_scan"}, "is_reserved": 0}, {"lon": -77.02210433333333, "bike_id": "ffeaeba8d357c99e6ecc36ed1c3bc8be", "lat": 38.91272416666666, "fusion_lon": 0.0, "fusion_lat": 0.0, "type": "electric_scooter", "name": "ffeaeba8d357c99e6ecc36ed1c3bc8be", "is_disabled": 0, "rental_uris": {"ios": "https://dc.lft.to/lastmile_qr_scan", "android": "https://dc.lft.to/lastmile_qr_scan"}, "is_reserved": 0}, {"lon": -77.032842, "bike_id": "b99b1715ce9c7d104b4485d843959b0a", "lat": 38.901510333333334, "fusion_lon": 0.0, "fusion_lat": 0.0, "type": "electric_scooter", "name": "b99b1715ce9c7d104b4485d843959b0a", "is_disabled": 0, "rental_uris": {"ios": "https://dc.lft.to/lastmile_qr_scan", "android": "https://dc.lft.to/lastmile_qr_scan"}, "is_reserved": 0}, {"lon": -76.97396683333334, "bike_id": "5f7785dd873ebde84a059401eee9d554", "lat": 38.9029855, "fusion_lon": 0.0, "fusion_lat": 0.0, "type": "electric_scooter", "name": "5f7785dd873ebde84a059401eee9d554", "is_disabled": 0, "rental_uris": {"ios": "https://dc.lft.to/lastmile_qr_scan", "android": "https://dc.lft.to/lastmile_qr_scan"}, "is_reserved": 0}, {"lon": -77.03409483333333, "bike_id": "c5342e521cfe0d6995683109f9025aff", "lat": 38.9342635, "fusion_lon": 0.0, "fusion_lat": 0.0, "type": "electric_scooter", "name": "c5342e521cfe0d6995683109f9025aff", "is_disabled": 0, "rental_uris": {"ios": "https://dc.lft.to/lastmile_qr_scan", "android": "https://dc.lft.to/lastmile_qr_scan"}, "is_reserved": 0}, {"lon": -77.02180283333334, "bike_id": "d1570de53c35dadbffd3f7b760170265", "lat": 38.91533716666667, "fusion_lon": 0.0, "fusion_lat": 0.0, "type": "electric_scooter", "name": "d1570de53c35dadbffd3f7b760170265", "is_disabled": 0, "rental_uris": {"ios": "https://dc.lft.to/lastmile_qr_scan", "android": "https://dc.lft.to/lastmile_qr_scan"}, "is_reserved": 0}, {"lon": -77.029726, "bike_id": "f3225732c5ecdc1dd0c27adbb18b9307", "lat": 38.9228955, "fusion_lon": 0.0, "fusion_lat": 0.0, "type": "electric_scooter", "name": "f3225732c5ecdc1dd0c27adbb18b9307", "is_disabled": 0, "rental_uris": {"ios": "https://dc.lft.to/lastmile_qr_scan", "android": "https://dc.lft.to/lastmile_qr_scan"}, "is_reserved": 0}, {"lon": -77.02833983333333, "bike_id": "bbd0341f2fbe0f4242e697ab24018246", "lat": 38.887319833333336, "fusion_lon": 0.0, "fusion_lat": 0.0, "type": "electric_scooter", "name": "bbd0341f2fbe0f4242e697ab24018246", "is_disabled": 0, "rental_uris": {"ios": "https://dc.lft.to/lastmile_qr_scan", "android": "https://dc.lft.to/lastmile_qr_scan"}, "is_reserved": 0}, {"lon": -77.02194016666667, "bike_id": "c75253969cc77b9a21cd80b2472790be", "lat": 38.894753333333334, "fusion_lon": 0.0, "fusion_lat": 0.0, "type": "electric_scooter", "name": "c75253969cc77b9a21cd80b2472790be", "is_disabled": 0, "rental_uris": {"ios": "https://dc.lft.to/lastmile_qr_scan", "android": "https://dc.lft.to/lastmile_qr_scan"}, "is_reserved": 0}, {"lon": -76.94592166666666, "bike_id": "9bc48de9b29728e508e7419e940631ea", "lat": 38.90141766666667, "fusion_lon": 0.0, "fusion_lat": 0.0, "type": "electric_scooter", "name": "9bc48de9b29728e508e7419e940631ea", "is_disabled": 0, "rental_uris": {"ios": "https://dc.lft.to/lastmile_qr_scan", "android": "https://dc.lft.to/lastmile_qr_scan"}, "is_reserved": 0}, {"lon": -77.01066366666667, "bike_id": "74c201200f60fd00ce13fd5a58a276af", "lat": 38.907270833333335, "fusion_lon": 0.0, "fusion_lat": 0.0, "type": "electric_bike", "name": "74c201200f60fd00ce13fd5a58a276af", "is_disabled": 0, "rental_uris": {"ios": "https://dc.lft.to/lastmile_qr_scan", "android": "https://dc.lft.to/lastmile_qr_scan"}, "is_reserved": 0}, {"lon": -77.0320425, "bike_id": "e35a86231fd1f07df543733a9cc364b9", "lat": 38.928760833333335, "fusion_lon": 0.0, "fusion_lat": 0.0, "type": "electric_scooter", "name": "e35a86231fd1f07df543733a9cc364b9", "is_disabled": 0, "rental_uris": {"ios": "https://dc.lft.to/lastmile_qr_scan", "android": "https://dc.lft.to/lastmile_qr_scan"}, "is_reserved": 0}, {"lon": -77.02661183333333, "bike_id": "39e562bbe79013de7d48d1633f73bc1c", "lat": 38.91698733333333, "fusion_lon": 0.0, "fusion_lat": 0.0, "type": "electric_scooter", "name": "39e562bbe79013de7d48d1633f73bc1c", "is_disabled": 0, "rental_uris": {"ios": "https://dc.lft.to/lastmile_qr_scan", "android": "https://dc.lft.to/lastmile_qr_scan"}, "is_reserved": 0}, {"lon": -77.02593466666667, "bike_id": "0c66ff32294ec3b8d695096d58d5e1e1", "lat": 38.906591666666664, "fusion_lon": 0.0, "fusion_lat": 0.0, "type": "electric_scooter", "name": "0c66ff32294ec3b8d695096d58d5e1e1", "is_disabled": 0, "rental_uris": {"ios": "https://dc.lft.to/lastmile_qr_scan", "android": "https://dc.lft.to/lastmile_qr_scan"}, "is_reserved": 0}, {"lon": -77.00897066666667, "bike_id": "c080ecb165f06ff4db01ece338fd4ad2", "lat": 38.961206833333335, "fusion_lon": 0.0, "fusion_lat": 0.0, "type": "electric_scooter", "name": "c080ecb165f06ff4db01ece338fd4ad2", "is_disabled": 0, "rental_uris": {"ios": "https://dc.lft.to/lastmile_qr_scan", "android": "https://dc.lft.to/lastmile_qr_scan"}, "is_reserved": 0}, {"lon": -77.02583833333334, "bike_id": "ed5c87b4ff42dafd789e64a27965ad40", "lat": 38.887471166666664, "fusion_lon": 0.0, "fusion_lat": 0.0, "type": "electric_scooter", "name": "ed5c87b4ff42dafd789e64a27965ad40", "is_disabled": 0, "rental_uris": {"ios": "https://dc.lft.to/lastmile_qr_scan", "android": "https://dc.lft.to/lastmile_qr_scan"}, "is_reserved": 0}, {"lon": -77.0321755, "bike_id": "8492e8292aa52cc540fbda851f52f561", "lat": 38.91484916666667, "fusion_lon": 0.0, "fusion_lat": 0.0, "type": "electric_scooter", "name": "8492e8292aa52cc540fbda851f52f561", "is_disabled": 0, "rental_uris": {"ios": "https://dc.lft.to/lastmile_qr_scan", "android": "https://dc.lft.to/lastmile_qr_scan"}, "is_reserved": 0}, {"lon": -77.04465766666667, "bike_id": "f547fdb98f2cf00ae7d0ad415063fdcc", "lat": 38.924358, "fusion_lon": 0.0, "fusion_lat": 0.0, "type": "electric_scooter", "name": "f547fdb98f2cf00ae7d0ad415063fdcc", "is_disabled": 0, "rental_uris": {"ios": "https://dc.lft.to/lastmile_qr_scan", "android": "https://dc.lft.to/lastmile_qr_scan"}, "is_reserved": 0}, {"lon": -77.04709616666666, "bike_id": "c9e2b3ebf5ff5d33f063e4d118a58989", "lat": 38.9031155, "fusion_lon": 0.0, "fusion_lat": 0.0, "type": "electric_scooter", "name": "c9e2b3ebf5ff5d33f063e4d118a58989", "is_disabled": 0, "rental_uris": {"ios": "https://dc.lft.to/lastmile_qr_scan", "android": "https://dc.lft.to/lastmile_qr_scan"}, "is_reserved": 0}, {"lon": -76.93302716666666, "bike_id": "62b074cf92eb929309126629a786c04e", "lat": 38.90095266666667, "fusion_lon": 0.0, "fusion_lat": 0.0, "type": "electric_scooter", "name": "62b074cf92eb929309126629a786c04e", "is_disabled": 0, "rental_uris": {"ios": "https://dc.lft.to/lastmile_qr_scan", "android": "https://dc.lft.to/lastmile_qr_scan"}, "is_reserved": 0}, {"lon": -76.98925983333334, "bike_id": "34bc8211c096aa2d85b0b84d56afac99", "lat": 38.86488933333333, "fusion_lon": 0.0, "fusion_lat": 0.0, "type": "electric_scooter", "name": "34bc8211c096aa2d85b0b84d56afac99", "is_disabled": 0, "rental_uris": {"ios": "https://dc.lft.to/lastmile_qr_scan", "android": "https://dc.lft.to/lastmile_qr_scan"}, "is_reserved": 0}, {"lon": -77.0259705, "bike_id": "7f2c8296041193a8bf2c0117181ed37b", "lat": 38.942039666666666, "fusion_lon": 0.0, "fusion_lat": 0.0, "type": "electric_scooter", "name": "7f2c8296041193a8bf2c0117181ed37b", "is_disabled": 0, "rental_uris": {"ios": "https://dc.lft.to/lastmile_qr_scan", "android": "https://dc.lft.to/lastmile_qr_scan"}, "is_reserved": 0}, {"lon": -76.99387216666666, "bike_id": "f6027d7fd05369297f7ea85c79812c81", "lat": 38.89211516666667, "fusion_lon": 0.0, "fusion_lat": 0.0, "type": "electric_scooter", "name": "f6027d7fd05369297f7ea85c79812c81", "is_disabled": 0, "rental_uris": {"ios": "https://dc.lft.to/lastmile_qr_scan", "android": "https://dc.lft.to/lastmile_qr_scan"}, "is_reserved": 0}, {"lon": -77.00590016666666, "bike_id": "015a61cdd78cdc9b8ec276a19f7aea27", "lat": 38.90576033333333, "fusion_lon": 0.0, "fusion_lat": 0.0, "type": "electric_scooter", "name": "015a61cdd78cdc9b8ec276a19f7aea27", "is_disabled": 0, "rental_uris": {"ios": "https://dc.lft.to/lastmile_qr_scan", "android": "https://dc.lft.to/lastmile_qr_scan"}, "is_reserved": 0}, {"lon": -77.0383485, "bike_id": "41a8c6b5473e76fb8f44037d28f4b204", "lat": 38.917179, "fusion_lon": 0.0, "fusion_lat": 0.0, "type": "electric_scooter", "name": "41a8c6b5473e76fb8f44037d28f4b204", "is_disabled": 0, "rental_uris": {"ios": "https://dc.lft.to/lastmile_qr_scan", "android": "https://dc.lft.to/lastmile_qr_scan"}, "is_reserved": 0}, {"lon": -77.018411, "bike_id": "575dc404e95dc05837007aa20bc1d971", "lat": 38.90963283333333, "fusion_lon": 0.0, "fusion_lat": 0.0, "type": "electric_scooter", "name": "575dc404e95dc05837007aa20bc1d971", "is_disabled": 0, "rental_uris": {"ios": "https://dc.lft.to/lastmile_qr_scan", "android": "https://dc.lft.to/lastmile_qr_scan"}, "is_reserved": 0}, {"lon": -77.036308, "bike_id": "f5eaf24053ba70d8d04b0858130e6f58", "lat": 38.9131525, "fusion_lon": 0.0, "fusion_lat": 0.0, "type": "electric_scooter", "name": "f5eaf24053ba70d8d04b0858130e6f58", "is_disabled": 0, "rental_uris": {"ios": "https://dc.lft.to/lastmile_qr_scan", "android": "https://dc.lft.to/lastmile_qr_scan"}, "is_reserved": 0}, {"lon": -77.03411833333334, "bike_id": "78a0f2a95ef969ee0f1f12874959e6b0", "lat": 38.9273565, "fusion_lon": 0.0, "fusion_lat": 0.0, "type": "electric_scooter", "name": "78a0f2a95ef969ee0f1f12874959e6b0", "is_disabled": 0, "rental_uris": {"ios": "https://dc.lft.to/lastmile_qr_scan", "android": "https://dc.lft.to/lastmile_qr_scan"}, "is_reserved": 0}, {"lon": -76.99068533333333, "bike_id": "80f2fe0beb3859d4fe929d15b96e4c48", "lat": 38.89819416666667, "fusion_lon": 0.0, "fusion_lat": 0.0, "type": "electric_bike", "name": "80f2fe0beb3859d4fe929d15b96e4c48", "is_disabled": 0, "rental_uris": {"ios": "https://dc.lft.to/lastmile_qr_scan", "android": "https://dc.lft.to/lastmile_qr_scan"}, "is_reserved": 0}, {"lon": -77.03457316666666, "bike_id": "3bf6581e0f49149c85d077d320c1233e", "lat": 38.90730383333333, "fusion_lon": 0.0, "fusion_lat": 0.0, "type": "electric_scooter", "name": "3bf6581e0f49149c85d077d320c1233e", "is_disabled": 0, "rental_uris": {"ios": "https://dc.lft.to/lastmile_qr_scan", "android": "https://dc.lft.to/lastmile_qr_scan"}, "is_reserved": 0}, {"lon": -77.01838633333334, "bike_id": "d07bfaea350957e2db8f81e79963c773", "lat": 38.9092735, "fusion_lon": 0.0, "fusion_lat": 0.0, "type": "electric_scooter", "name": "d07bfaea350957e2db8f81e79963c773", "is_disabled": 0, "rental_uris": {"ios": "https://dc.lft.to/lastmile_qr_scan", "android": "https://dc.lft.to/lastmile_qr_scan"}, "is_reserved": 0}, {"lon": -77.01696816666667, "bike_id": "e1391812ffe56b91d98f0473bcfc0188", "lat": 38.90468766666667, "fusion_lon": 0.0, "fusion_lat": 0.0, "type": "electric_scooter", "name": "e1391812ffe56b91d98f0473bcfc0188", "is_disabled": 0, "rental_uris": {"ios": "https://dc.lft.to/lastmile_qr_scan", "android": "https://dc.lft.to/lastmile_qr_scan"}, "is_reserved": 0}, {"lon": -77.03264366666667, "bike_id": "b485961bf06cc3c1cacf346ef3e84d9f", "lat": 38.93102666666667, "fusion_lon": 0.0, "fusion_lat": 0.0, "type": "electric_scooter", "name": "b485961bf06cc3c1cacf346ef3e84d9f", "is_disabled": 0, "rental_uris": {"ios": "https://dc.lft.to/lastmile_qr_scan", "android": "https://dc.lft.to/lastmile_qr_scan"}, "is_reserved": 0}, {"lon": -77.03176216666667, "bike_id": "548953512754ae4a0c9b32dfcef42f72", "lat": 38.914176166666664, "fusion_lon": 0.0, "fusion_lat": 0.0, "type": "electric_scooter", "name": "548953512754ae4a0c9b32dfcef42f72", "is_disabled": 0, "rental_uris": {"ios": "https://dc.lft.to/lastmile_qr_scan", "android": "https://dc.lft.to/lastmile_qr_scan"}, "is_reserved": 0}, {"lon": -77.032623, "bike_id": "5e7f61cfbdf4d0252a62c376aa0d0b3c", "lat": 38.932148166666664, "fusion_lon": 0.0, "fusion_lat": 0.0, "type": "electric_scooter", "name": "5e7f61cfbdf4d0252a62c376aa0d0b3c", "is_disabled": 0, "rental_uris": {"ios": "https://dc.lft.to/lastmile_qr_scan", "android": "https://dc.lft.to/lastmile_qr_scan"}, "is_reserved": 0}, {"lon": -77.04244266666667, "bike_id": "f066a4d32bdf6edee4506727fab2bc0b", "lat": 38.924289333333334, "fusion_lon": 0.0, "fusion_lat": 0.0, "type": "electric_scooter", "name": "f066a4d32bdf6edee4506727fab2bc0b", "is_disabled": 0, "rental_uris": {"ios": "https://dc.lft.to/lastmile_qr_scan", "android": "https://dc.lft.to/lastmile_qr_scan"}, "is_reserved": 0}, {"lon": -76.98716083333333, "bike_id": "0f5f5fa4ea118303f2d6df7f833912e4", "lat": 38.86625766666667, "fusion_lon": 0.0, "fusion_lat": 0.0, "type": "electric_scooter", "name": "0f5f5fa4ea118303f2d6df7f833912e4", "is_disabled": 0, "rental_uris": {"ios": "https://dc.lft.to/lastmile_qr_scan", "android": "https://dc.lft.to/lastmile_qr_scan"}, "is_reserved": 0}, {"lon": -77.04199216666666, "bike_id": "de8ac6e772606f3e9c539f115406d60a", "lat": 38.921259, "fusion_lon": 0.0, "fusion_lat": 0.0, "type": "electric_scooter", "name": "de8ac6e772606f3e9c539f115406d60a", "is_disabled": 0, "rental_uris": {"ios": "https://dc.lft.to/lastmile_qr_scan", "android": "https://dc.lft.to/lastmile_qr_scan"}, "is_reserved": 0}, {"lon": -77.02441116666667, "bike_id": "bb78f86e56415cd39d77be2b2356580a", "lat": 38.920700333333336, "fusion_lon": 0.0, "fusion_lat": 0.0, "type": "electric_scooter", "name": "bb78f86e56415cd39d77be2b2356580a", "is_disabled": 0, "rental_uris": {"ios": "https://dc.lft.to/lastmile_qr_scan", "android": "https://dc.lft.to/lastmile_qr_scan"}, "is_reserved": 0}, {"lon": -77.07435383333333, "bike_id": "73a3569d79007dc015337bfdeb9083d0", "lat": 38.99947316666667, "fusion_lon": 0.0, "fusion_lat": 0.0, "type": "electric_bike", "name": "73a3569d79007dc015337bfdeb9083d0", "is_disabled": 0, "rental_uris": {"ios": "https://dc.lft.to/lastmile_qr_scan", "android": "https://dc.lft.to/lastmile_qr_scan"}, "is_reserved": 0}, {"lon": -77.052182, "bike_id": "51feffe7632b37e937f0534a350c77df", "lat": 38.92480583333333, "fusion_lon": 0.0, "fusion_lat": 0.0, "type": "electric_scooter", "name": "51feffe7632b37e937f0534a350c77df", "is_disabled": 0, "rental_uris": {"ios": "https://dc.lft.to/lastmile_qr_scan", "android": "https://dc.lft.to/lastmile_qr_scan"}, "is_reserved": 0}, {"lon": -77.05810733333334, "bike_id": "0712ee83da1de0a085b7a9b810660c92", "lat": 38.82397433333333, "fusion_lon": 0.0, "fusion_lat": 0.0, "type": "electric_bike", "name": "0712ee83da1de0a085b7a9b810660c92", "is_disabled": 0, "rental_uris": {"ios": "https://dc.lft.to/lastmile_qr_scan", "android": "https://dc.lft.to/lastmile_qr_scan"}, "is_reserved": 0}, {"lon": -76.9492555, "bike_id": "e0a1a0eeb2b153a39e40a20fe8ac36ef", "lat": 38.89354933333333, "fusion_lon": 0.0, "fusion_lat": 0.0, "type": "electric_scooter", "name": "e0a1a0eeb2b153a39e40a20fe8ac36ef", "is_disabled": 0, "rental_uris": {"ios": "https://dc.lft.to/lastmile_qr_scan", "android": "https://dc.lft.to/lastmile_qr_scan"}, "is_reserved": 0}, {"lon": -77.04140666666666, "bike_id": "117a5211201a98cadf2baefa4b026704", "lat": 38.92649516666667, "fusion_lon": 0.0, "fusion_lat": 0.0, "type": "electric_scooter", "name": "117a5211201a98cadf2baefa4b026704", "is_disabled": 0, "rental_uris": {"ios": "https://dc.lft.to/lastmile_qr_scan", "android": "https://dc.lft.to/lastmile_qr_scan"}, "is_reserved": 0}, {"lon": -77.01088083333333, "bike_id": "c910c6a19d2fa66d56db5c78da80d018", "lat": 38.906685333333336, "fusion_lon": 0.0, "fusion_lat": 0.0, "type": "electric_bike", "name": "c910c6a19d2fa66d56db5c78da80d018", "is_disabled": 0, "rental_uris": {"ios": "https://dc.lft.to/lastmile_qr_scan", "android": "https://dc.lft.to/lastmile_qr_scan"}, "is_reserved": 0}, {"lon": -76.98948166666666, "bike_id": "2f8c3c993000d9d81796c4e15354c8d0", "lat": 38.90395183333333, "fusion_lon": 0.0, "fusion_lat": 0.0, "type": "electric_scooter", "name": "2f8c3c993000d9d81796c4e15354c8d0", "is_disabled": 0, "rental_uris": {"ios": "https://dc.lft.to/lastmile_qr_scan", "android": "https://dc.lft.to/lastmile_qr_scan"}, "is_reserved": 0}, {"lon": -77.0640665, "bike_id": "eea4b13d072d8747e3cf597c13c19194", "lat": 38.90778, "fusion_lon": 0.0, "fusion_lat": 0.0, "type": "electric_scooter", "name": "eea4b13d072d8747e3cf597c13c19194", "is_disabled": 0, "rental_uris": {"ios": "https://dc.lft.to/lastmile_qr_scan", "android": "https://dc.lft.to/lastmile_qr_scan"}, "is_reserved": 0}, {"lon": -77.02800316666666, "bike_id": "81efe99aeaa72442778049195fdf75d6", "lat": 38.95419616666667, "fusion_lon": 0.0, "fusion_lat": 0.0, "type": "electric_scooter", "name": "81efe99aeaa72442778049195fdf75d6", "is_disabled": 0, "rental_uris": {"ios": "https://dc.lft.to/lastmile_qr_scan", "android": "https://dc.lft.to/lastmile_qr_scan"}, "is_reserved": 0}, {"lon": -77.22802116666666, "bike_id": "2d86a1ab85d5468dca127f2b718bb644", "lat": 38.910141833333334, "fusion_lon": 0.0, "fusion_lat": 0.0, "type": "electric_bike", "name": "2d86a1ab85d5468dca127f2b718bb644", "is_disabled": 0, "rental_uris": {"ios": "https://dc.lft.to/lastmile_qr_scan", "android": "https://dc.lft.to/lastmile_qr_scan"}, "is_reserved": 0}, {"lon": -77.03194333333333, "bike_id": "280e61fdfda87f5ed0c3bbd7ae1ad409", "lat": 38.90996633333334, "fusion_lon": 0.0, "fusion_lat": 0.0, "type": "electric_scooter", "name": "280e61fdfda87f5ed0c3bbd7ae1ad409", "is_disabled": 0, "rental_uris": {"ios": "https://dc.lft.to/lastmile_qr_scan", "android": "https://dc.lft.to/lastmile_qr_scan"}, "is_reserved": 0}, {"lon": -77.0208755, "bike_id": "4835db472f6455f45923221df22aea2c", "lat": 38.9291595, "fusion_lon": 0.0, "fusion_lat": 0.0, "type": "electric_scooter", "name": "4835db472f6455f45923221df22aea2c", "is_disabled": 0, "rental_uris": {"ios": "https://dc.lft.to/lastmile_qr_scan", "android": "https://dc.lft.to/lastmile_qr_scan"}, "is_reserved": 0}, {"lon": -77.03168433333333, "bike_id": "cab4c004a1b2f289e6ba08c077dbfd1f", "lat": 38.92388483333333, "fusion_lon": 0.0, "fusion_lat": 0.0, "type": "electric_scooter", "name": "cab4c004a1b2f289e6ba08c077dbfd1f", "is_disabled": 0, "rental_uris": {"ios": "https://dc.lft.to/lastmile_qr_scan", "android": "https://dc.lft.to/lastmile_qr_scan"}, "is_reserved": 0}, {"lon": -77.03167633333334, "bike_id": "77331a794b64a6752af869f3eefac943", "lat": 38.88738583333333, "fusion_lon": 0.0, "fusion_lat": 0.0, "type": "electric_scooter", "name": "77331a794b64a6752af869f3eefac943", "is_disabled": 0, "rental_uris": {"ios": "https://dc.lft.to/lastmile_qr_scan", "android": "https://dc.lft.to/lastmile_qr_scan"}, "is_reserved": 0}, {"lon": -77.00744583333334, "bike_id": "54c793f0e02ebbfa059d6384d0d7564b", "lat": 38.92528933333333, "fusion_lon": 0.0, "fusion_lat": 0.0, "type": "electric_scooter", "name": "54c793f0e02ebbfa059d6384d0d7564b", "is_disabled": 0, "rental_uris": {"ios": "https://dc.lft.to/lastmile_qr_scan", "android": "https://dc.lft.to/lastmile_qr_scan"}, "is_reserved": 0}, {"lon": -77.00441316666667, "bike_id": "d1eb9fb12caef76d1ae7904bc1390f17", "lat": 38.9119335, "fusion_lon": 0.0, "fusion_lat": 0.0, "type": "electric_scooter", "name": "d1eb9fb12caef76d1ae7904bc1390f17", "is_disabled": 0, "rental_uris": {"ios": "https://dc.lft.to/lastmile_qr_scan", "android": "https://dc.lft.to/lastmile_qr_scan"}, "is_reserved": 0}, {"lon": -77.04140933333333, "bike_id": "3ac03efe8fe3142ffb744ce17c85bd22", "lat": 38.92297416666667, "fusion_lon": 0.0, "fusion_lat": 0.0, "type": "electric_scooter", "name": "3ac03efe8fe3142ffb744ce17c85bd22", "is_disabled": 0, "rental_uris": {"ios": "https://dc.lft.to/lastmile_qr_scan", "android": "https://dc.lft.to/lastmile_qr_scan"}, "is_reserved": 0}, {"lon": -77.0274165, "bike_id": "29b348e85a036322ec2cecaf1b3ad8d1", "lat": 38.89736383333333, "fusion_lon": 0.0, "fusion_lat": 0.0, "type": "electric_scooter", "name": "29b348e85a036322ec2cecaf1b3ad8d1", "is_disabled": 0, "rental_uris": {"ios": "https://dc.lft.to/lastmile_qr_scan", "android": "https://dc.lft.to/lastmile_qr_scan"}, "is_reserved": 0}, {"lon": -77.02713616666666, "bike_id": "ce880dac86b4bf05be5729e2cfd4955b", "lat": 38.90665033333333, "fusion_lon": 0.0, "fusion_lat": 0.0, "type": "electric_scooter", "name": "ce880dac86b4bf05be5729e2cfd4955b", "is_disabled": 0, "rental_uris": {"ios": "https://dc.lft.to/lastmile_qr_scan", "android": "https://dc.lft.to/lastmile_qr_scan"}, "is_reserved": 0}, {"lon": -77.02802016666666, "bike_id": "d5756d896cf51dfcb2e9383fcb2a1928", "lat": 38.912222166666666, "fusion_lon": 0.0, "fusion_lat": 0.0, "type": "electric_scooter", "name": "d5756d896cf51dfcb2e9383fcb2a1928", "is_disabled": 0, "rental_uris": {"ios": "https://dc.lft.to/lastmile_qr_scan", "android": "https://dc.lft.to/lastmile_qr_scan"}, "is_reserved": 0}, {"lon": -77.0531635, "bike_id": "10be957c9c8dd779eb0258e57c196f1f", "lat": 38.941020333333334, "fusion_lon": 0.0, "fusion_lat": 0.0, "type": "electric_bike", "name": "10be957c9c8dd779eb0258e57c196f1f", "is_disabled": 0, "rental_uris": {"ios": "https://dc.lft.to/lastmile_qr_scan", "android": "https://dc.lft.to/lastmile_qr_scan"}, "is_reserved": 0}, {"lon": -76.9638265, "bike_id": "c8a2513c241c2adc602a6082d0497407", "lat": 38.951748, "fusion_lon": 0.0, "fusion_lat": 0.0, "type": "electric_bike", "name": "c8a2513c241c2adc602a6082d0497407", "is_disabled": 0, "rental_uris": {"ios": "https://dc.lft.to/lastmile_qr_scan", "android": "https://dc.lft.to/lastmile_qr_scan"}, "is_reserved": 0}, {"lon": -77.03126066666667, "bike_id": "5eae13c22b27d0ca9f265744347dac8e", "lat": 38.988335666666664, "fusion_lon": 0.0, "fusion_lat": 0.0, "type": "electric_scooter", "name": "5eae13c22b27d0ca9f265744347dac8e", "is_disabled": 0, "rental_uris": {"ios": "https://dc.lft.to/lastmile_qr_scan", "android": "https://dc.lft.to/lastmile_qr_scan"}, "is_reserved": 0}, {"lon": -77.067825, "bike_id": "2f9f4ce446de9c73d57e5822c879afae", "lat": 38.904545, "fusion_lon": 0.0, "fusion_lat": 0.0, "type": "electric_scooter", "name": "2f9f4ce446de9c73d57e5822c879afae", "is_disabled": 0, "rental_uris": {"ios": "https://dc.lft.to/lastmile_qr_scan", "android": "https://dc.lft.to/lastmile_qr_scan"}, "is_reserved": 0}, {"lon": -77.03249, "bike_id": "b40ba72c1abec52a7b7747951f7bb738", "lat": 38.90978166666667, "fusion_lon": 0.0, "fusion_lat": 0.0, "type": "electric_scooter", "name": "b40ba72c1abec52a7b7747951f7bb738", "is_disabled": 0, "rental_uris": {"ios": "https://dc.lft.to/lastmile_qr_scan", "android": "https://dc.lft.to/lastmile_qr_scan"}, "is_reserved": 0}, {"lon": -77.03850266666667, "bike_id": "59d25d967849f378d9fe0a4c600b67a0", "lat": 38.91546616666667, "fusion_lon": 0.0, "fusion_lat": 0.0, "type": "electric_scooter", "name": "59d25d967849f378d9fe0a4c600b67a0", "is_disabled": 0, "rental_uris": {"ios": "https://dc.lft.to/lastmile_qr_scan", "android": "https://dc.lft.to/lastmile_qr_scan"}, "is_reserved": 0}, {"lon": -77.01865916666667, "bike_id": "fad4633b4591323125734ae0e4d0dbbd", "lat": 38.904044999999996, "fusion_lon": 0.0, "fusion_lat": 0.0, "type": "electric_scooter", "name": "fad4633b4591323125734ae0e4d0dbbd", "is_disabled": 0, "rental_uris": {"ios": "https://dc.lft.to/lastmile_qr_scan", "android": "https://dc.lft.to/lastmile_qr_scan"}, "is_reserved": 0}, {"lon": -77.03179566666667, "bike_id": "e9845814874f4d1f539331f0bd6cc309", "lat": 38.887381, "fusion_lon": 0.0, "fusion_lat": 0.0, "type": "electric_scooter", "name": "e9845814874f4d1f539331f0bd6cc309", "is_disabled": 0, "rental_uris": {"ios": "https://dc.lft.to/lastmile_qr_scan", "android": "https://dc.lft.to/lastmile_qr_scan"}, "is_reserved": 0}, {"lon": -77.04171916666667, "bike_id": "fdad0889c5327e5e4dda95c8da7b3a95", "lat": 38.91795116666667, "fusion_lon": 0.0, "fusion_lat": 0.0, "type": "electric_scooter", "name": "fdad0889c5327e5e4dda95c8da7b3a95", "is_disabled": 0, "rental_uris": {"ios": "https://dc.lft.to/lastmile_qr_scan", "android": "https://dc.lft.to/lastmile_qr_scan"}, "is_reserved": 0}, {"lon": -77.02504, "bike_id": "44f2593527027609d96dbb53e6fc0bb5", "lat": 38.91915016666667, "fusion_lon": 0.0, "fusion_lat": 0.0, "type": "electric_scooter", "name": "44f2593527027609d96dbb53e6fc0bb5", "is_disabled": 0, "rental_uris": {"ios": "https://dc.lft.to/lastmile_qr_scan", "android": "https://dc.lft.to/lastmile_qr_scan"}, "is_reserved": 0}, {"lon": -77.04669483333333, "bike_id": "0424a6287ec53baeaf92d2a746237e43", "lat": 38.90522716666667, "fusion_lon": 0.0, "fusion_lat": 0.0, "type": "electric_scooter", "name": "0424a6287ec53baeaf92d2a746237e43", "is_disabled": 0, "rental_uris": {"ios": "https://dc.lft.to/lastmile_qr_scan", "android": "https://dc.lft.to/lastmile_qr_scan"}, "is_reserved": 0}, {"lon": -77.027207, "bike_id": "f2d4ed82f0c225fe5d0c796d20cda11d", "lat": 38.916813833333336, "fusion_lon": 0.0, "fusion_lat": 0.0, "type": "electric_scooter", "name": "f2d4ed82f0c225fe5d0c796d20cda11d", "is_disabled": 0, "rental_uris": {"ios": "https://dc.lft.to/lastmile_qr_scan", "android": "https://dc.lft.to/lastmile_qr_scan"}, "is_reserved": 0}, {"lon": -77.01929266666667, "bike_id": "079052f3377bfb4253595898c7bd1f27", "lat": 38.92222233333333, "fusion_lon": 0.0, "fusion_lat": 0.0, "type": "electric_scooter", "name": "079052f3377bfb4253595898c7bd1f27", "is_disabled": 0, "rental_uris": {"ios": "https://dc.lft.to/lastmile_qr_scan", "android": "https://dc.lft.to/lastmile_qr_scan"}, "is_reserved": 0}, {"lon": -76.99601716666666, "bike_id": "58e4d3fe87252e49e0cd41b72363c006", "lat": 38.884274, "fusion_lon": 0.0, "fusion_lat": 0.0, "type": "electric_scooter", "name": "58e4d3fe87252e49e0cd41b72363c006", "is_disabled": 0, "rental_uris": {"ios": "https://dc.lft.to/lastmile_qr_scan", "android": "https://dc.lft.to/lastmile_qr_scan"}, "is_reserved": 0}, {"lon": -77.0242095, "bike_id": "d62cf0f073ff0ff5784766a5cdddc917", "lat": 38.920789666666664, "fusion_lon": 0.0, "fusion_lat": 0.0, "type": "electric_scooter", "name": "d62cf0f073ff0ff5784766a5cdddc917", "is_disabled": 0, "rental_uris": {"ios": "https://dc.lft.to/lastmile_qr_scan", "android": "https://dc.lft.to/lastmile_qr_scan"}, "is_reserved": 0}, {"lon": -77.01536416666667, "bike_id": "214a6af064271188fa15efff10f09bd1", "lat": 38.90268666666667, "fusion_lon": 0.0, "fusion_lat": 0.0, "type": "electric_scooter", "name": "214a6af064271188fa15efff10f09bd1", "is_disabled": 0, "rental_uris": {"ios": "https://dc.lft.to/lastmile_qr_scan", "android": "https://dc.lft.to/lastmile_qr_scan"}, "is_reserved": 0}, {"lon": -77.13101066666667, "bike_id": "132761c922de5c30ee299ea6d18be3d6", "lat": 39.024400166666666, "fusion_lon": 0.0, "fusion_lat": 0.0, "type": "electric_bike", "name": "132761c922de5c30ee299ea6d18be3d6", "is_disabled": 0, "rental_uris": {"ios": "https://dc.lft.to/lastmile_qr_scan", "android": "https://dc.lft.to/lastmile_qr_scan"}, "is_reserved": 0}, {"lon": -77.09075333333334, "bike_id": "0be13601b0306cc657907427b6e7f36e", "lat": 38.978597666666666, "fusion_lon": 0.0, "fusion_lat": 0.0, "type": "electric_bike", "name": "0be13601b0306cc657907427b6e7f36e", "is_disabled": 0, "rental_uris": {"ios": "https://dc.lft.to/lastmile_qr_scan", "android": "https://dc.lft.to/lastmile_qr_scan"}, "is_reserved": 0}, {"lon": -77.02607383333333, "bike_id": "f72d5656d8d0dc08012e151a7410092c", "lat": 38.90045583333333, "fusion_lon": 0.0, "fusion_lat": 0.0, "type": "electric_scooter", "name": "f72d5656d8d0dc08012e151a7410092c", "is_disabled": 0, "rental_uris": {"ios": "https://dc.lft.to/lastmile_qr_scan", "android": "https://dc.lft.to/lastmile_qr_scan"}, "is_reserved": 0}, {"lon": -77.01205016666667, "bike_id": "207dfcf910001da2c04ceaf20736c88a", "lat": 38.885555333333336, "fusion_lon": 0.0, "fusion_lat": 0.0, "type": "electric_scooter", "name": "207dfcf910001da2c04ceaf20736c88a", "is_disabled": 0, "rental_uris": {"ios": "https://dc.lft.to/lastmile_qr_scan", "android": "https://dc.lft.to/lastmile_qr_scan"}, "is_reserved": 0}, {"lon": -77.02027583333333, "bike_id": "de1968f184e9d42f1f90c1b6e5d64c2d", "lat": 38.924482833333336, "fusion_lon": 0.0, "fusion_lat": 0.0, "type": "electric_scooter", "name": "de1968f184e9d42f1f90c1b6e5d64c2d", "is_disabled": 0, "rental_uris": {"ios": "https://dc.lft.to/lastmile_qr_scan", "android": "https://dc.lft.to/lastmile_qr_scan"}, "is_reserved": 0}, {"lon": -77.03659, "bike_id": "f96a02cf20c62e7b4f58efc0445ba974", "lat": 38.91715283333333, "fusion_lon": 0.0, "fusion_lat": 0.0, "type": "electric_scooter", "name": "f96a02cf20c62e7b4f58efc0445ba974", "is_disabled": 0, "rental_uris": {"ios": "https://dc.lft.to/lastmile_qr_scan", "android": "https://dc.lft.to/lastmile_qr_scan"}, "is_reserved": 0}, {"lon": -77.05302483333334, "bike_id": "a19a05341d5ee5ebb35804737812a72d", "lat": 38.898824833333336, "fusion_lon": 0.0, "fusion_lat": 0.0, "type": "electric_scooter", "name": "a19a05341d5ee5ebb35804737812a72d", "is_disabled": 0, "rental_uris": {"ios": "https://dc.lft.to/lastmile_qr_scan", "android": "https://dc.lft.to/lastmile_qr_scan"}, "is_reserved": 0}, {"lon": -77.01767783333334, "bike_id": "4d94977867ea6e1f175047a2046989e6", "lat": 38.87721, "fusion_lon": 0.0, "fusion_lat": 0.0, "type": "electric_scooter", "name": "4d94977867ea6e1f175047a2046989e6", "is_disabled": 0, "rental_uris": {"ios": "https://dc.lft.to/lastmile_qr_scan", "android": "https://dc.lft.to/lastmile_qr_scan"}, "is_reserved": 0}, {"lon": -77.04085066666667, "bike_id": "f7a20ee4a8c959824a7a667755d9748f", "lat": 38.91699883333333, "fusion_lon": 0.0, "fusion_lat": 0.0, "type": "electric_scooter", "name": "f7a20ee4a8c959824a7a667755d9748f", "is_disabled": 0, "rental_uris": {"ios": "https://dc.lft.to/lastmile_qr_scan", "android": "https://dc.lft.to/lastmile_qr_scan"}, "is_reserved": 0}, {"lon": -77.0265155, "bike_id": "8feff133ae7e771747f5a3b0e48821de", "lat": 38.926118333333335, "fusion_lon": 0.0, "fusion_lat": 0.0, "type": "electric_scooter", "name": "8feff133ae7e771747f5a3b0e48821de", "is_disabled": 0, "rental_uris": {"ios": "https://dc.lft.to/lastmile_qr_scan", "android": "https://dc.lft.to/lastmile_qr_scan"}, "is_reserved": 0}, {"lon": -77.02171566666667, "bike_id": "5638979f78279cc2119317b90fca74f4", "lat": 38.9429645, "fusion_lon": 0.0, "fusion_lat": 0.0, "type": "electric_scooter", "name": "5638979f78279cc2119317b90fca74f4", "is_disabled": 0, "rental_uris": {"ios": "https://dc.lft.to/lastmile_qr_scan", "android": "https://dc.lft.to/lastmile_qr_scan"}, "is_reserved": 0}, {"lon": -76.947257, "bike_id": "c3e82bc230dd96abc475e1592554f2d4", "lat": 38.8973745, "fusion_lon": 0.0, "fusion_lat": 0.0, "type": "electric_scooter", "name": "c3e82bc230dd96abc475e1592554f2d4", "is_disabled": 0, "rental_uris": {"ios": "https://dc.lft.to/lastmile_qr_scan", "android": "https://dc.lft.to/lastmile_qr_scan"}, "is_reserved": 0}, {"lon": -77.344154, "bike_id": "ca7708a03e1e98a78100e803ac6ffbfa", "lat": 38.945941833333336, "fusion_lon": 0.0, "fusion_lat": 0.0, "type": "electric_bike", "name": "ca7708a03e1e98a78100e803ac6ffbfa", "is_disabled": 0, "rental_uris": {"ios": "https://dc.lft.to/lastmile_qr_scan", "android": "https://dc.lft.to/lastmile_qr_scan"}, "is_reserved": 0}, {"lon": -77.037799, "bike_id": "546fe96babb7f9b29c0f3efb36654d86", "lat": 38.996730666666664, "fusion_lon": 0.0, "fusion_lat": 0.0, "type": "electric_bike", "name": "546fe96babb7f9b29c0f3efb36654d86", "is_disabled": 0, "rental_uris": {"ios": "https://dc.lft.to/lastmile_qr_scan", "android": "https://dc.lft.to/lastmile_qr_scan"}, "is_reserved": 0}, {"lon": -77.03278866666666, "bike_id": "799a3834620f299c15548db3964d24a7", "lat": 38.940934, "fusion_lon": 0.0, "fusion_lat": 0.0, "type": "electric_scooter", "name": "799a3834620f299c15548db3964d24a7", "is_disabled": 0, "rental_uris": {"ios": "https://dc.lft.to/lastmile_qr_scan", "android": "https://dc.lft.to/lastmile_qr_scan"}, "is_reserved": 0}, {"lon": -76.99781783333333, "bike_id": "c038e8558dbf1299af15198fbfb10bb2", "lat": 38.844282666666665, "fusion_lon": 0.0, "fusion_lat": 0.0, "type": "electric_scooter", "name": "c038e8558dbf1299af15198fbfb10bb2", "is_disabled": 0, "rental_uris": {"ios": "https://dc.lft.to/lastmile_qr_scan", "android": "https://dc.lft.to/lastmile_qr_scan"}, "is_reserved": 0}, {"lon": -77.02241683333334, "bike_id": "d509eac46e0d6eaa7cccc0ded583491f", "lat": 38.908680833333335, "fusion_lon": 0.0, "fusion_lat": 0.0, "type": "electric_scooter", "name": "d509eac46e0d6eaa7cccc0ded583491f", "is_disabled": 0, "rental_uris": {"ios": "https://dc.lft.to/lastmile_qr_scan", "android": "https://dc.lft.to/lastmile_qr_scan"}, "is_reserved": 0}, {"lon": -76.97704166666666, "bike_id": "071fb996f218fd4c7377b2c04695748c", "lat": 38.94919483333334, "fusion_lon": 0.0, "fusion_lat": 0.0, "type": "electric_bike", "name": "071fb996f218fd4c7377b2c04695748c", "is_disabled": 0, "rental_uris": {"ios": "https://dc.lft.to/lastmile_qr_scan", "android": "https://dc.lft.to/lastmile_qr_scan"}, "is_reserved": 0}, {"lon": -77.03659716666667, "bike_id": "6dc0dd28f303379452197abd9f332992", "lat": 38.922856333333335, "fusion_lon": 0.0, "fusion_lat": 0.0, "type": "electric_scooter", "name": "6dc0dd28f303379452197abd9f332992", "is_disabled": 0, "rental_uris": {"ios": "https://dc.lft.to/lastmile_qr_scan", "android": "https://dc.lft.to/lastmile_qr_scan"}, "is_reserved": 0}, {"lon": -77.023793, "bike_id": "40d546032312aaa7246a53d9eff992e4", "lat": 38.9021535, "fusion_lon": 0.0, "fusion_lat": 0.0, "type": "electric_scooter", "name": "40d546032312aaa7246a53d9eff992e4", "is_disabled": 0, "rental_uris": {"ios": "https://dc.lft.to/lastmile_qr_scan", "android": "https://dc.lft.to/lastmile_qr_scan"}, "is_reserved": 0}, {"lon": -77.0239395, "bike_id": "17ba3d54ed7897d8c40d9e70ff03435d", "lat": 38.928079833333335, "fusion_lon": 0.0, "fusion_lat": 0.0, "type": "electric_scooter", "name": "17ba3d54ed7897d8c40d9e70ff03435d", "is_disabled": 0, "rental_uris": {"ios": "https://dc.lft.to/lastmile_qr_scan", "android": "https://dc.lft.to/lastmile_qr_scan"}, "is_reserved": 0}, {"lon": -77.003759, "bike_id": "287965db17b6c5a9e206421c6350c27d", "lat": 38.897332, "fusion_lon": 0.0, "fusion_lat": 0.0, "type": "electric_scooter", "name": "287965db17b6c5a9e206421c6350c27d", "is_disabled": 0, "rental_uris": {"ios": "https://dc.lft.to/lastmile_qr_scan", "android": "https://dc.lft.to/lastmile_qr_scan"}, "is_reserved": 0}, {"lon": -77.0238895, "bike_id": "7ba3bdaacbc2b119d1263ae850a5e3c9", "lat": 38.91436983333333, "fusion_lon": 0.0, "fusion_lat": 0.0, "type": "electric_scooter", "name": "7ba3bdaacbc2b119d1263ae850a5e3c9", "is_disabled": 0, "rental_uris": {"ios": "https://dc.lft.to/lastmile_qr_scan", "android": "https://dc.lft.to/lastmile_qr_scan"}, "is_reserved": 0}, {"lon": -76.98034583333333, "bike_id": "a09890cab9e385d319ef11c0fcbc037c", "lat": 38.889681, "fusion_lon": 0.0, "fusion_lat": 0.0, "type": "electric_scooter", "name": "a09890cab9e385d319ef11c0fcbc037c", "is_disabled": 0, "rental_uris": {"ios": "https://dc.lft.to/lastmile_qr_scan", "android": "https://dc.lft.to/lastmile_qr_scan"}, "is_reserved": 0}, {"lon": -77.00578533333334, "bike_id": "2facfc80f496b3395519f41cd1d88894", "lat": 38.9055545, "fusion_lon": 0.0, "fusion_lat": 0.0, "type": "electric_scooter", "name": "2facfc80f496b3395519f41cd1d88894", "is_disabled": 0, "rental_uris": {"ios": "https://dc.lft.to/lastmile_qr_scan", "android": "https://dc.lft.to/lastmile_qr_scan"}, "is_reserved": 0}, {"lon": -77.0329925, "bike_id": "460d0a8ec41fad271066f7c5f5c39650", "lat": 38.907266166666666, "fusion_lon": 0.0, "fusion_lat": 0.0, "type": "electric_scooter", "name": "460d0a8ec41fad271066f7c5f5c39650", "is_disabled": 0, "rental_uris": {"ios": "https://dc.lft.to/lastmile_qr_scan", "android": "https://dc.lft.to/lastmile_qr_scan"}, "is_reserved": 0}, {"lon": -76.98402, "bike_id": "98a8a31f11101cac60b1c10765bc5406", "lat": 38.8664405, "fusion_lon": 0.0, "fusion_lat": 0.0, "type": "electric_scooter", "name": "98a8a31f11101cac60b1c10765bc5406", "is_disabled": 0, "rental_uris": {"ios": "https://dc.lft.to/lastmile_qr_scan", "android": "https://dc.lft.to/lastmile_qr_scan"}, "is_reserved": 0}, {"lon": -77.036112, "bike_id": "50b4c18b02a9936caa628be569736467", "lat": 38.93482216666666, "fusion_lon": 0.0, "fusion_lat": 0.0, "type": "electric_scooter", "name": "50b4c18b02a9936caa628be569736467", "is_disabled": 0, "rental_uris": {"ios": "https://dc.lft.to/lastmile_qr_scan", "android": "https://dc.lft.to/lastmile_qr_scan"}, "is_reserved": 0}, {"lon": -77.08005616666667, "bike_id": "b5fc3762db0f46864be03c9cc501449b", "lat": 38.9649045, "fusion_lon": 0.0, "fusion_lat": 0.0, "type": "electric_scooter", "name": "b5fc3762db0f46864be03c9cc501449b", "is_disabled": 0, "rental_uris": {"ios": "https://dc.lft.to/lastmile_qr_scan", "android": "https://dc.lft.to/lastmile_qr_scan"}, "is_reserved": 0}, {"lon": -77.01500433333334, "bike_id": "f99dcc94b8fa408fa45b0c2dbb04134a", "lat": 38.917570166666664, "fusion_lon": 0.0, "fusion_lat": 0.0, "type": "electric_scooter", "name": "f99dcc94b8fa408fa45b0c2dbb04134a", "is_disabled": 0, "rental_uris": {"ios": "https://dc.lft.to/lastmile_qr_scan", "android": "https://dc.lft.to/lastmile_qr_scan"}, "is_reserved": 0}, {"lon": -76.92201833333333, "bike_id": "aab1094726c7c65fb940b2ae42815e72", "lat": 38.89507016666667, "fusion_lon": 0.0, "fusion_lat": 0.0, "type": "electric_bike", "name": "aab1094726c7c65fb940b2ae42815e72", "is_disabled": 0, "rental_uris": {"ios": "https://dc.lft.to/lastmile_qr_scan", "android": "https://dc.lft.to/lastmile_qr_scan"}, "is_reserved": 0}, {"lon": -77.07906866666667, "bike_id": "7a71deb9064b564d6f797ce69501c160", "lat": 38.839318166666665, "fusion_lon": 0.0, "fusion_lat": 0.0, "type": "electric_bike", "name": "7a71deb9064b564d6f797ce69501c160", "is_disabled": 0, "rental_uris": {"ios": "https://dc.lft.to/lastmile_qr_scan", "android": "https://dc.lft.to/lastmile_qr_scan"}, "is_reserved": 0}, {"lon": -76.93190433333334, "bike_id": "b22cbc3f932643a0921306f8312a7445", "lat": 38.898773166666665, "fusion_lon": 0.0, "fusion_lat": 0.0, "type": "electric_scooter", "name": "b22cbc3f932643a0921306f8312a7445", "is_disabled": 0, "rental_uris": {"ios": "https://dc.lft.to/lastmile_qr_scan", "android": "https://dc.lft.to/lastmile_qr_scan"}, "is_reserved": 0}, {"lon": -76.99016666666667, "bike_id": "b40af29b7ae903ff8fb9545d7b7e580d", "lat": 38.882784666666666, "fusion_lon": 0.0, "fusion_lat": 0.0, "type": "electric_scooter", "name": "b40af29b7ae903ff8fb9545d7b7e580d", "is_disabled": 0, "rental_uris": {"ios": "https://dc.lft.to/lastmile_qr_scan", "android": "https://dc.lft.to/lastmile_qr_scan"}, "is_reserved": 0}, {"lon": -77.03440466666666, "bike_id": "5a694a64f90a7cff9ee0b61a99716fe5", "lat": 38.909768, "fusion_lon": 0.0, "fusion_lat": 0.0, "type": "electric_scooter", "name": "5a694a64f90a7cff9ee0b61a99716fe5", "is_disabled": 0, "rental_uris": {"ios": "https://dc.lft.to/lastmile_qr_scan", "android": "https://dc.lft.to/lastmile_qr_scan"}, "is_reserved": 0}, {"lon": -77.04374933333334, "bike_id": "dbb9dfd0c22805888e0eaa4d22f076ae", "lat": 38.89221283333333, "fusion_lon": 0.0, "fusion_lat": 0.0, "type": "electric_scooter", "name": "dbb9dfd0c22805888e0eaa4d22f076ae", "is_disabled": 0, "rental_uris": {"ios": "https://dc.lft.to/lastmile_qr_scan", "android": "https://dc.lft.to/lastmile_qr_scan"}, "is_reserved": 0}, {"lon": -77.125243, "bike_id": "8dbf0f0890f33306d623a0521007d082", "lat": 39.056346, "fusion_lon": 0.0, "fusion_lat": 0.0, "type": "electric_bike", "name": "8dbf0f0890f33306d623a0521007d082", "is_disabled": 0, "rental_uris": {"ios": "https://dc.lft.to/lastmile_qr_scan", "android": "https://dc.lft.to/lastmile_qr_scan"}, "is_reserved": 0}, {"lon": -77.01303133333333, "bike_id": "d048d67b9bc055f0915fbb3fc37aa925", "lat": 38.914181, "fusion_lon": 0.0, "fusion_lat": 0.0, "type": "electric_scooter", "name": "d048d67b9bc055f0915fbb3fc37aa925", "is_disabled": 0, "rental_uris": {"ios": "https://dc.lft.to/lastmile_qr_scan", "android": "https://dc.lft.to/lastmile_qr_scan"}, "is_reserved": 0}, {"lon": -77.02842833333334, "bike_id": "39fa1e666c4117affaf49c889d4e9649", "lat": 38.93423216666667, "fusion_lon": 0.0, "fusion_lat": 0.0, "type": "electric_scooter", "name": "39fa1e666c4117affaf49c889d4e9649", "is_disabled": 0, "rental_uris": {"ios": "https://dc.lft.to/lastmile_qr_scan", "android": "https://dc.lft.to/lastmile_qr_scan"}, "is_reserved": 0}, {"lon": -77.03430616666667, "bike_id": "e0faa19862c651e8106a148099b9d9cd", "lat": 38.90567083333333, "fusion_lon": 0.0, "fusion_lat": 0.0, "type": "electric_scooter", "name": "e0faa19862c651e8106a148099b9d9cd", "is_disabled": 0, "rental_uris": {"ios": "https://dc.lft.to/lastmile_qr_scan", "android": "https://dc.lft.to/lastmile_qr_scan"}, "is_reserved": 0}, {"lon": -76.99934483333334, "bike_id": "d736956cf3e237ab9d31304f48ac6c96", "lat": 38.84317466666667, "fusion_lon": 0.0, "fusion_lat": 0.0, "type": "electric_scooter", "name": "d736956cf3e237ab9d31304f48ac6c96", "is_disabled": 0, "rental_uris": {"ios": "https://dc.lft.to/lastmile_qr_scan", "android": "https://dc.lft.to/lastmile_qr_scan"}, "is_reserved": 0}, {"lon": -77.0433725, "bike_id": "d974408551bf118f6a78e37dcdcee21d", "lat": 38.892217, "fusion_lon": 0.0, "fusion_lat": 0.0, "type": "electric_scooter", "name": "d974408551bf118f6a78e37dcdcee21d", "is_disabled": 0, "rental_uris": {"ios": "https://dc.lft.to/lastmile_qr_scan", "android": "https://dc.lft.to/lastmile_qr_scan"}, "is_reserved": 0}, {"lon": -77.0745515, "bike_id": "572547a449d9830acdae2ce00f9a5fcd", "lat": 38.94511166666667, "fusion_lon": 0.0, "fusion_lat": 0.0, "type": "electric_scooter", "name": "572547a449d9830acdae2ce00f9a5fcd", "is_disabled": 0, "rental_uris": {"ios": "https://dc.lft.to/lastmile_qr_scan", "android": "https://dc.lft.to/lastmile_qr_scan"}, "is_reserved": 0}, {"lon": -76.93734083333334, "bike_id": "6aa7251f2cdd067eaa6ae82e4b83016e", "lat": 38.89014983333333, "fusion_lon": 0.0, "fusion_lat": 0.0, "type": "electric_scooter", "name": "6aa7251f2cdd067eaa6ae82e4b83016e", "is_disabled": 0, "rental_uris": {"ios": "https://dc.lft.to/lastmile_qr_scan", "android": "https://dc.lft.to/lastmile_qr_scan"}, "is_reserved": 0}, {"lon": -77.016043, "bike_id": "f8923094d992182eef2021bcb6ced8fe", "lat": 38.899771666666666, "fusion_lon": 0.0, "fusion_lat": 0.0, "type": "electric_scooter", "name": "f8923094d992182eef2021bcb6ced8fe", "is_disabled": 0, "rental_uris": {"ios": "https://dc.lft.to/lastmile_qr_scan", "android": "https://dc.lft.to/lastmile_qr_scan"}, "is_reserved": 0}, {"lon": -77.034543, "bike_id": "d2ab5e6201758d0a464fab29fa123ba5", "lat": 38.902597166666666, "fusion_lon": 0.0, "fusion_lat": 0.0, "type": "electric_scooter", "name": "d2ab5e6201758d0a464fab29fa123ba5", "is_disabled": 0, "rental_uris": {"ios": "https://dc.lft.to/lastmile_qr_scan", "android": "https://dc.lft.to/lastmile_qr_scan"}, "is_reserved": 0}, {"lon": -77.01229083333334, "bike_id": "a11fa7caef7de36c6ea953d0e298f85d", "lat": 38.915444, "fusion_lon": 0.0, "fusion_lat": 0.0, "type": "electric_scooter", "name": "a11fa7caef7de36c6ea953d0e298f85d", "is_disabled": 0, "rental_uris": {"ios": "https://dc.lft.to/lastmile_qr_scan", "android": "https://dc.lft.to/lastmile_qr_scan"}, "is_reserved": 0}, {"lon": -77.02494983333334, "bike_id": "8a69f65ffa5f4b20f69f70a17bd0438b", "lat": 38.91707233333333, "fusion_lon": 0.0, "fusion_lat": 0.0, "type": "electric_scooter", "name": "8a69f65ffa5f4b20f69f70a17bd0438b", "is_disabled": 0, "rental_uris": {"ios": "https://dc.lft.to/lastmile_qr_scan", "android": "https://dc.lft.to/lastmile_qr_scan"}, "is_reserved": 0}, {"lon": -77.04673683333333, "bike_id": "436ed8894ad3fa7913e6188ad786b7b3", "lat": 38.892334, "fusion_lon": 0.0, "fusion_lat": 0.0, "type": "electric_scooter", "name": "436ed8894ad3fa7913e6188ad786b7b3", "is_disabled": 0, "rental_uris": {"ios": "https://dc.lft.to/lastmile_qr_scan", "android": "https://dc.lft.to/lastmile_qr_scan"}, "is_reserved": 0}, {"lon": -77.01386566666666, "bike_id": "7528e18f7d8273cc2404e2a178c1f280", "lat": 38.9121525, "fusion_lon": 0.0, "fusion_lat": 0.0, "type": "electric_scooter", "name": "7528e18f7d8273cc2404e2a178c1f280", "is_disabled": 0, "rental_uris": {"ios": "https://dc.lft.to/lastmile_qr_scan", "android": "https://dc.lft.to/lastmile_qr_scan"}, "is_reserved": 0}, {"lon": -77.031912, "bike_id": "4467bffdb5b776343be65f2d97079dec", "lat": 38.909955, "fusion_lon": 0.0, "fusion_lat": 0.0, "type": "electric_scooter", "name": "4467bffdb5b776343be65f2d97079dec", "is_disabled": 0, "rental_uris": {"ios": "https://dc.lft.to/lastmile_qr_scan", "android": "https://dc.lft.to/lastmile_qr_scan"}, "is_reserved": 0}, {"lon": -77.03869683333333, "bike_id": "c3b907ae33e690cda289a6226b7a7af6", "lat": 38.912687166666664, "fusion_lon": 0.0, "fusion_lat": 0.0, "type": "electric_scooter", "name": "c3b907ae33e690cda289a6226b7a7af6", "is_disabled": 0, "rental_uris": {"ios": "https://dc.lft.to/lastmile_qr_scan", "android": "https://dc.lft.to/lastmile_qr_scan"}, "is_reserved": 0}, {"lon": -77.04238333333333, "bike_id": "9480caaefcdc6b5b9a32157ca5d59cbf", "lat": 38.9218235, "fusion_lon": 0.0, "fusion_lat": 0.0, "type": "electric_scooter", "name": "9480caaefcdc6b5b9a32157ca5d59cbf", "is_disabled": 0, "rental_uris": {"ios": "https://dc.lft.to/lastmile_qr_scan", "android": "https://dc.lft.to/lastmile_qr_scan"}, "is_reserved": 0}, {"lon": -77.00106133333334, "bike_id": "3c8c4af1fda0b489109a4cffaf0e8c6e", "lat": 38.912492666666665, "fusion_lon": 0.0, "fusion_lat": 0.0, "type": "electric_scooter", "name": "3c8c4af1fda0b489109a4cffaf0e8c6e", "is_disabled": 0, "rental_uris": {"ios": "https://dc.lft.to/lastmile_qr_scan", "android": "https://dc.lft.to/lastmile_qr_scan"}, "is_reserved": 0}, {"lon": -76.97842366666667, "bike_id": "dfc2c7fbdfba147e68fedfd665eb3239", "lat": 38.865704666666666, "fusion_lon": 0.0, "fusion_lat": 0.0, "type": "electric_scooter", "name": "dfc2c7fbdfba147e68fedfd665eb3239", "is_disabled": 0, "rental_uris": {"ios": "https://dc.lft.to/lastmile_qr_scan", "android": "https://dc.lft.to/lastmile_qr_scan"}, "is_reserved": 0}, {"lon": -77.11164433333333, "bike_id": "008a303e5043bf3b60ba30835de7f1b6", "lat": 38.85519, "fusion_lon": 0.0, "fusion_lat": 0.0, "type": "electric_bike", "name": "008a303e5043bf3b60ba30835de7f1b6", "is_disabled": 0, "rental_uris": {"ios": "https://dc.lft.to/lastmile_qr_scan", "android": "https://dc.lft.to/lastmile_qr_scan"}, "is_reserved": 0}, {"lon": -77.03839216666667, "bike_id": "53303f94bb84fb46624800f4409156de", "lat": 38.91209966666667, "fusion_lon": 0.0, "fusion_lat": 0.0, "type": "electric_scooter", "name": "53303f94bb84fb46624800f4409156de", "is_disabled": 0, "rental_uris": {"ios": "https://dc.lft.to/lastmile_qr_scan", "android": "https://dc.lft.to/lastmile_qr_scan"}, "is_reserved": 0}, {"lon": -77.02610083333333, "bike_id": "438561129ccd77c894e8702f7d5757e9", "lat": 38.918416666666666, "fusion_lon": 0.0, "fusion_lat": 0.0, "type": "electric_scooter", "name": "438561129ccd77c894e8702f7d5757e9", "is_disabled": 0, "rental_uris": {"ios": "https://dc.lft.to/lastmile_qr_scan", "android": "https://dc.lft.to/lastmile_qr_scan"}, "is_reserved": 0}, {"lon": -76.94879866666666, "bike_id": "b433c190bc4c6c4c23bf6120becd8e6d", "lat": 38.89502783333333, "fusion_lon": 0.0, "fusion_lat": 0.0, "type": "electric_scooter", "name": "b433c190bc4c6c4c23bf6120becd8e6d", "is_disabled": 0, "rental_uris": {"ios": "https://dc.lft.to/lastmile_qr_scan", "android": "https://dc.lft.to/lastmile_qr_scan"}, "is_reserved": 0}, {"lon": -77.0488005, "bike_id": "999d6e925386d7f57974fddc3b69e973", "lat": 38.89235016666667, "fusion_lon": 0.0, "fusion_lat": 0.0, "type": "electric_scooter", "name": "999d6e925386d7f57974fddc3b69e973", "is_disabled": 0, "rental_uris": {"ios": "https://dc.lft.to/lastmile_qr_scan", "android": "https://dc.lft.to/lastmile_qr_scan"}, "is_reserved": 0}, {"lon": -77.0345105, "bike_id": "414c58fe11b0e2ab8bfa76091742820c", "lat": 38.917594333333334, "fusion_lon": 0.0, "fusion_lat": 0.0, "type": "electric_scooter", "name": "414c58fe11b0e2ab8bfa76091742820c", "is_disabled": 0, "rental_uris": {"ios": "https://dc.lft.to/lastmile_qr_scan", "android": "https://dc.lft.to/lastmile_qr_scan"}, "is_reserved": 0}, {"lon": -77.03136216666667, "bike_id": "f0e6d84d0daeffcc159f474403f1aa15", "lat": 38.91551483333333, "fusion_lon": 0.0, "fusion_lat": 0.0, "type": "electric_scooter", "name": "f0e6d84d0daeffcc159f474403f1aa15", "is_disabled": 0, "rental_uris": {"ios": "https://dc.lft.to/lastmile_qr_scan", "android": "https://dc.lft.to/lastmile_qr_scan"}, "is_reserved": 0}, {"lon": -77.04357616666667, "bike_id": "5a5b26903ce69745484119b9d72c9e94", "lat": 39.015386, "fusion_lon": 0.0, "fusion_lat": 0.0, "type": "electric_bike", "name": "5a5b26903ce69745484119b9d72c9e94", "is_disabled": 0, "rental_uris": {"ios": "https://dc.lft.to/lastmile_qr_scan", "android": "https://dc.lft.to/lastmile_qr_scan"}, "is_reserved": 0}, {"lon": -77.02907133333333, "bike_id": "98dbe226e9d86b9469e3955cba3e1b23", "lat": 38.91708666666667, "fusion_lon": 0.0, "fusion_lat": 0.0, "type": "electric_scooter", "name": "98dbe226e9d86b9469e3955cba3e1b23", "is_disabled": 0, "rental_uris": {"ios": "https://dc.lft.to/lastmile_qr_scan", "android": "https://dc.lft.to/lastmile_qr_scan"}, "is_reserved": 0}, {"lon": -77.00729166666666, "bike_id": "4f35ddd7883eab3e6cf4bc1204ea04ef", "lat": 38.870985166666664, "fusion_lon": 0.0, "fusion_lat": 0.0, "type": "electric_scooter", "name": "4f35ddd7883eab3e6cf4bc1204ea04ef", "is_disabled": 0, "rental_uris": {"ios": "https://dc.lft.to/lastmile_qr_scan", "android": "https://dc.lft.to/lastmile_qr_scan"}, "is_reserved": 0}, {"lon": -77.02403933333333, "bike_id": "2683f30791d06b194ca18975ad5aaf0d", "lat": 38.919670333333336, "fusion_lon": 0.0, "fusion_lat": 0.0, "type": "electric_scooter", "name": "2683f30791d06b194ca18975ad5aaf0d", "is_disabled": 0, "rental_uris": {"ios": "https://dc.lft.to/lastmile_qr_scan", "android": "https://dc.lft.to/lastmile_qr_scan"}, "is_reserved": 0}, {"lon": -77.057051, "bike_id": "0f8682c8d930370c142508a641e6854e", "lat": 38.9048715, "fusion_lon": 0.0, "fusion_lat": 0.0, "type": "electric_scooter", "name": "0f8682c8d930370c142508a641e6854e", "is_disabled": 0, "rental_uris": {"ios": "https://dc.lft.to/lastmile_qr_scan", "android": "https://dc.lft.to/lastmile_qr_scan"}, "is_reserved": 0}, {"lon": -76.96535066666667, "bike_id": "a06d4790fda0c5de1a5c06b157ac7e7c", "lat": 38.87481583333334, "fusion_lon": 0.0, "fusion_lat": 0.0, "type": "electric_scooter", "name": "a06d4790fda0c5de1a5c06b157ac7e7c", "is_disabled": 0, "rental_uris": {"ios": "https://dc.lft.to/lastmile_qr_scan", "android": "https://dc.lft.to/lastmile_qr_scan"}, "is_reserved": 0}, {"lon": -76.99542916666667, "bike_id": "d47538ed3a91c14f1eb4a2d16ba13d80", "lat": 38.883736166666665, "fusion_lon": 0.0, "fusion_lat": 0.0, "type": "electric_scooter", "name": "d47538ed3a91c14f1eb4a2d16ba13d80", "is_disabled": 0, "rental_uris": {"ios": "https://dc.lft.to/lastmile_qr_scan", "android": "https://dc.lft.to/lastmile_qr_scan"}, "is_reserved": 0}, {"lon": -77.03922683333333, "bike_id": "568afa034192fd7625ed3996d997cde9", "lat": 38.899841, "fusion_lon": 0.0, "fusion_lat": 0.0, "type": "electric_scooter", "name": "568afa034192fd7625ed3996d997cde9", "is_disabled": 0, "rental_uris": {"ios": "https://dc.lft.to/lastmile_qr_scan", "android": "https://dc.lft.to/lastmile_qr_scan"}, "is_reserved": 0}, {"lon": -77.04865316666667, "bike_id": "c20377ed632fba626b6f0ce0a0de7b41", "lat": 38.900903166666666, "fusion_lon": 0.0, "fusion_lat": 0.0, "type": "electric_scooter", "name": "c20377ed632fba626b6f0ce0a0de7b41", "is_disabled": 0, "rental_uris": {"ios": "https://dc.lft.to/lastmile_qr_scan", "android": "https://dc.lft.to/lastmile_qr_scan"}, "is_reserved": 0}, {"lon": -77.02560666666666, "bike_id": "49e22b07b1982950e8ee24d9cc61048b", "lat": 38.93352, "fusion_lon": 0.0, "fusion_lat": 0.0, "type": "electric_scooter", "name": "49e22b07b1982950e8ee24d9cc61048b", "is_disabled": 0, "rental_uris": {"ios": "https://dc.lft.to/lastmile_qr_scan", "android": "https://dc.lft.to/lastmile_qr_scan"}, "is_reserved": 0}, {"lon": -77.03518283333334, "bike_id": "a5de55ae9cbfaf299a99e7d32b81de77", "lat": 38.922620333333334, "fusion_lon": 0.0, "fusion_lat": 0.0, "type": "electric_scooter", "name": "a5de55ae9cbfaf299a99e7d32b81de77", "is_disabled": 0, "rental_uris": {"ios": "https://dc.lft.to/lastmile_qr_scan", "android": "https://dc.lft.to/lastmile_qr_scan"}, "is_reserved": 0}, {"lon": -77.02168666666667, "bike_id": "202a55b75994adc7b34beeae57980b11", "lat": 38.895076333333336, "fusion_lon": 0.0, "fusion_lat": 0.0, "type": "electric_scooter", "name": "202a55b75994adc7b34beeae57980b11", "is_disabled": 0, "rental_uris": {"ios": "https://dc.lft.to/lastmile_qr_scan", "android": "https://dc.lft.to/lastmile_qr_scan"}, "is_reserved": 0}, {"lon": -76.9463335, "bike_id": "06b9cc33032bb32b4e39dea3caef864f", "lat": 38.89833183333333, "fusion_lon": 0.0, "fusion_lat": 0.0, "type": "electric_scooter", "name": "06b9cc33032bb32b4e39dea3caef864f", "is_disabled": 0, "rental_uris": {"ios": "https://dc.lft.to/lastmile_qr_scan", "android": "https://dc.lft.to/lastmile_qr_scan"}, "is_reserved": 0}, {"lon": -77.02377366666667, "bike_id": "48d0dc210defaf726bca8d647d5b5eda", "lat": 38.91704566666667, "fusion_lon": 0.0, "fusion_lat": 0.0, "type": "electric_scooter", "name": "48d0dc210defaf726bca8d647d5b5eda", "is_disabled": 0, "rental_uris": {"ios": "https://dc.lft.to/lastmile_qr_scan", "android": "https://dc.lft.to/lastmile_qr_scan"}, "is_reserved": 0}, {"lon": -77.04855016666667, "bike_id": "9427b4edaf5225d587d812284ea1a552", "lat": 38.904736166666666, "fusion_lon": 0.0, "fusion_lat": 0.0, "type": "electric_bike", "name": "9427b4edaf5225d587d812284ea1a552", "is_disabled": 0, "rental_uris": {"ios": "https://dc.lft.to/lastmile_qr_scan", "android": "https://dc.lft.to/lastmile_qr_scan"}, "is_reserved": 0}, {"lon": -76.97532783333334, "bike_id": "202645fc340d5108ed6f41b534169f98", "lat": 38.903284666666664, "fusion_lon": 0.0, "fusion_lat": 0.0, "type": "electric_bike", "name": "202645fc340d5108ed6f41b534169f98", "is_disabled": 0, "rental_uris": {"ios": "https://dc.lft.to/lastmile_qr_scan", "android": "https://dc.lft.to/lastmile_qr_scan"}, "is_reserved": 0}, {"lon": -77.04485216666667, "bike_id": "4b042b9aa11b6e2ed6db04e74f1654f7", "lat": 38.89237883333333, "fusion_lon": 0.0, "fusion_lat": 0.0, "type": "electric_scooter", "name": "4b042b9aa11b6e2ed6db04e74f1654f7", "is_disabled": 0, "rental_uris": {"ios": "https://dc.lft.to/lastmile_qr_scan", "android": "https://dc.lft.to/lastmile_qr_scan"}, "is_reserved": 0}, {"lon": -77.02408233333334, "bike_id": "d014c23823fbe4da3e259181cd87d1c2", "lat": 38.93422066666667, "fusion_lon": 0.0, "fusion_lat": 0.0, "type": "electric_bike", "name": "d014c23823fbe4da3e259181cd87d1c2", "is_disabled": 0, "rental_uris": {"ios": "https://dc.lft.to/lastmile_qr_scan", "android": "https://dc.lft.to/lastmile_qr_scan"}, "is_reserved": 0}, {"lon": -77.01760283333333, "bike_id": "6259bb23bb0106ba72c1c08fd7263f04", "lat": 38.877208833333334, "fusion_lon": 0.0, "fusion_lat": 0.0, "type": "electric_scooter", "name": "6259bb23bb0106ba72c1c08fd7263f04", "is_disabled": 0, "rental_uris": {"ios": "https://dc.lft.to/lastmile_qr_scan", "android": "https://dc.lft.to/lastmile_qr_scan"}, "is_reserved": 0}, {"lon": -77.02196516666666, "bike_id": "ed1e36616fe5c118b2a93661d47c4839", "lat": 38.894726166666665, "fusion_lon": 0.0, "fusion_lat": 0.0, "type": "electric_scooter", "name": "ed1e36616fe5c118b2a93661d47c4839", "is_disabled": 0, "rental_uris": {"ios": "https://dc.lft.to/lastmile_qr_scan", "android": "https://dc.lft.to/lastmile_qr_scan"}, "is_reserved": 0}, {"lon": -77.117814, "bike_id": "5078ff4cb1d42577c43715ca601a703c", "lat": 39.054934833333334, "fusion_lon": 0.0, "fusion_lat": 0.0, "type": "electric_bike", "name": "5078ff4cb1d42577c43715ca601a703c", "is_disabled": 0, "rental_uris": {"ios": "https://dc.lft.to/lastmile_qr_scan", "android": "https://dc.lft.to/lastmile_qr_scan"}, "is_reserved": 0}, {"lon": -77.0327935, "bike_id": "471e1fb9335fe5a0aed98762d35479b7", "lat": 38.941537333333336, "fusion_lon": 0.0, "fusion_lat": 0.0, "type": "electric_scooter", "name": "471e1fb9335fe5a0aed98762d35479b7", "is_disabled": 0, "rental_uris": {"ios": "https://dc.lft.to/lastmile_qr_scan", "android": "https://dc.lft.to/lastmile_qr_scan"}, "is_reserved": 0}, {"lon": -77.0426865, "bike_id": "0dcfc73bdba2e7612cfbb8fbb8ff12c9", "lat": 38.922365666666664, "fusion_lon": 0.0, "fusion_lat": 0.0, "type": "electric_scooter", "name": "0dcfc73bdba2e7612cfbb8fbb8ff12c9", "is_disabled": 0, "rental_uris": {"ios": "https://dc.lft.to/lastmile_qr_scan", "android": "https://dc.lft.to/lastmile_qr_scan"}, "is_reserved": 0}, {"lon": -77.0166735, "bike_id": "2a1d8f9d91249086018cdd01167c3867", "lat": 38.917387166666664, "fusion_lon": 0.0, "fusion_lat": 0.0, "type": "electric_scooter", "name": "2a1d8f9d91249086018cdd01167c3867", "is_disabled": 0, "rental_uris": {"ios": "https://dc.lft.to/lastmile_qr_scan", "android": "https://dc.lft.to/lastmile_qr_scan"}, "is_reserved": 0}, {"lon": -77.03615516666666, "bike_id": "fe310a456ded3f455c54dbae09ab0947", "lat": 38.923247, "fusion_lon": 0.0, "fusion_lat": 0.0, "type": "electric_scooter", "name": "fe310a456ded3f455c54dbae09ab0947", "is_disabled": 0, "rental_uris": {"ios": "https://dc.lft.to/lastmile_qr_scan", "android": "https://dc.lft.to/lastmile_qr_scan"}, "is_reserved": 0}, {"lon": -77.04164683333333, "bike_id": "361924e5137710c5dbe643590203bf4e", "lat": 38.919812, "fusion_lon": 0.0, "fusion_lat": 0.0, "type": "electric_scooter", "name": "361924e5137710c5dbe643590203bf4e", "is_disabled": 0, "rental_uris": {"ios": "https://dc.lft.to/lastmile_qr_scan", "android": "https://dc.lft.to/lastmile_qr_scan"}, "is_reserved": 0}, {"lon": -77.03838516666667, "bike_id": "17bf4d0fa652fb07675d52fa7d7a95e8", "lat": 38.91547383333333, "fusion_lon": 0.0, "fusion_lat": 0.0, "type": "electric_scooter", "name": "17bf4d0fa652fb07675d52fa7d7a95e8", "is_disabled": 0, "rental_uris": {"ios": "https://dc.lft.to/lastmile_qr_scan", "android": "https://dc.lft.to/lastmile_qr_scan"}, "is_reserved": 0}, {"lon": -77.02220933333334, "bike_id": "04cc9851c8248004c4a0be38c8277de6", "lat": 38.89221916666666, "fusion_lon": 0.0, "fusion_lat": 0.0, "type": "electric_scooter", "name": "04cc9851c8248004c4a0be38c8277de6", "is_disabled": 0, "rental_uris": {"ios": "https://dc.lft.to/lastmile_qr_scan", "android": "https://dc.lft.to/lastmile_qr_scan"}, "is_reserved": 0}, {"lon": -76.94103783333334, "bike_id": "45acb9371d344f5ed7537b1cd33a31dd", "lat": 38.884618, "fusion_lon": 0.0, "fusion_lat": 0.0, "type": "electric_scooter", "name": "45acb9371d344f5ed7537b1cd33a31dd", "is_disabled": 0, "rental_uris": {"ios": "https://dc.lft.to/lastmile_qr_scan", "android": "https://dc.lft.to/lastmile_qr_scan"}, "is_reserved": 0}, {"lon": -76.9853135, "bike_id": "c42da2e47a1472f6d3ec36dd53265ea5", "lat": 38.8668835, "fusion_lon": 0.0, "fusion_lat": 0.0, "type": "electric_scooter", "name": "c42da2e47a1472f6d3ec36dd53265ea5", "is_disabled": 0, "rental_uris": {"ios": "https://dc.lft.to/lastmile_qr_scan", "android": "https://dc.lft.to/lastmile_qr_scan"}, "is_reserved": 0}, {"lon": -77.00304483333333, "bike_id": "a430b932af2ce8fe0e4da0385c11f815", "lat": 38.901624, "fusion_lon": 0.0, "fusion_lat": 0.0, "type": "electric_scooter", "name": "a430b932af2ce8fe0e4da0385c11f815", "is_disabled": 0, "rental_uris": {"ios": "https://dc.lft.to/lastmile_qr_scan", "android": "https://dc.lft.to/lastmile_qr_scan"}, "is_reserved": 0}, {"lon": -77.03428366666667, "bike_id": "84a0deefeca0c4165fdf0980a5ae5e53", "lat": 38.904106666666664, "fusion_lon": 0.0, "fusion_lat": 0.0, "type": "electric_scooter", "name": "84a0deefeca0c4165fdf0980a5ae5e53", "is_disabled": 0, "rental_uris": {"ios": "https://dc.lft.to/lastmile_qr_scan", "android": "https://dc.lft.to/lastmile_qr_scan"}, "is_reserved": 0}, {"lon": -77.03198416666666, "bike_id": "d82aa32e6c4f1dd19a7113974ab37fa1", "lat": 38.89966716666667, "fusion_lon": 0.0, "fusion_lat": 0.0, "type": "electric_scooter", "name": "d82aa32e6c4f1dd19a7113974ab37fa1", "is_disabled": 0, "rental_uris": {"ios": "https://dc.lft.to/lastmile_qr_scan", "android": "https://dc.lft.to/lastmile_qr_scan"}, "is_reserved": 0}, {"lon": -77.0397855, "bike_id": "74809a67c62d09f16686d79910a598c5", "lat": 38.92800966666667, "fusion_lon": 0.0, "fusion_lat": 0.0, "type": "electric_scooter", "name": "74809a67c62d09f16686d79910a598c5", "is_disabled": 0, "rental_uris": {"ios": "https://dc.lft.to/lastmile_qr_scan", "android": "https://dc.lft.to/lastmile_qr_scan"}, "is_reserved": 0}, {"lon": -77.03269066666667, "bike_id": "0fe34c172a68e281baea7d7f34d23e25", "lat": 38.91226483333333, "fusion_lon": 0.0, "fusion_lat": 0.0, "type": "electric_scooter", "name": "0fe34c172a68e281baea7d7f34d23e25", "is_disabled": 0, "rental_uris": {"ios": "https://dc.lft.to/lastmile_qr_scan", "android": "https://dc.lft.to/lastmile_qr_scan"}, "is_reserved": 0}, {"lon": -77.233253, "bike_id": "85c31b33ede4a423798e6cd0fd1634dd", "lat": 38.872736333333336, "fusion_lon": 0.0, "fusion_lat": 0.0, "type": "electric_bike", "name": "85c31b33ede4a423798e6cd0fd1634dd", "is_disabled": 0, "rental_uris": {"ios": "https://dc.lft.to/lastmile_qr_scan", "android": "https://dc.lft.to/lastmile_qr_scan"}, "is_reserved": 0}, {"lon": -76.9653795, "bike_id": "45c334078d7b12823123830d32584c61", "lat": 38.91840783333333, "fusion_lon": 0.0, "fusion_lat": 0.0, "type": "electric_scooter", "name": "45c334078d7b12823123830d32584c61", "is_disabled": 0, "rental_uris": {"ios": "https://dc.lft.to/lastmile_qr_scan", "android": "https://dc.lft.to/lastmile_qr_scan"}, "is_reserved": 0}, {"lon": -76.972989, "bike_id": "6b918aaccf7e12b1ff290527b832e723", "lat": 38.91645833333333, "fusion_lon": 0.0, "fusion_lat": 0.0, "type": "electric_bike", "name": "6b918aaccf7e12b1ff290527b832e723", "is_disabled": 0, "rental_uris": {"ios": "https://dc.lft.to/lastmile_qr_scan", "android": "https://dc.lft.to/lastmile_qr_scan"}, "is_reserved": 0}, {"lon": -77.044727, "bike_id": "f8b038700ddca5747cc3aa0cf475283b", "lat": 38.89224183333333, "fusion_lon": 0.0, "fusion_lat": 0.0, "type": "electric_scooter", "name": "f8b038700ddca5747cc3aa0cf475283b", "is_disabled": 0, "rental_uris": {"ios": "https://dc.lft.to/lastmile_qr_scan", "android": "https://dc.lft.to/lastmile_qr_scan"}, "is_reserved": 0}, {"lon": -77.01142283333333, "bike_id": "89d5f4f475ff498ca65327d4334fb95f", "lat": 38.9064715, "fusion_lon": 0.0, "fusion_lat": 0.0, "type": "electric_scooter", "name": "89d5f4f475ff498ca65327d4334fb95f", "is_disabled": 0, "rental_uris": {"ios": "https://dc.lft.to/lastmile_qr_scan", "android": "https://dc.lft.to/lastmile_qr_scan"}, "is_reserved": 0}, {"lon": -77.05001, "bike_id": "e491719aa64955b286ae8a680b778156", "lat": 38.89230583333333, "fusion_lon": 0.0, "fusion_lat": 0.0, "type": "electric_scooter", "name": "e491719aa64955b286ae8a680b778156", "is_disabled": 0, "rental_uris": {"ios": "https://dc.lft.to/lastmile_qr_scan", "android": "https://dc.lft.to/lastmile_qr_scan"}, "is_reserved": 0}, {"lon": -76.98881083333333, "bike_id": "44906547fc626180cf5356452a65a844", "lat": 38.8665825, "fusion_lon": 0.0, "fusion_lat": 0.0, "type": "electric_scooter", "name": "44906547fc626180cf5356452a65a844", "is_disabled": 0, "rental_uris": {"ios": "https://dc.lft.to/lastmile_qr_scan", "android": "https://dc.lft.to/lastmile_qr_scan"}, "is_reserved": 0}, {"lon": -77.023142, "bike_id": "3616f6fd01f593e5cd1285b34e08e1fe", "lat": 38.918460333333336, "fusion_lon": 0.0, "fusion_lat": 0.0, "type": "electric_scooter", "name": "3616f6fd01f593e5cd1285b34e08e1fe", "is_disabled": 0, "rental_uris": {"ios": "https://dc.lft.to/lastmile_qr_scan", "android": "https://dc.lft.to/lastmile_qr_scan"}, "is_reserved": 0}, {"lon": -77.00101866666667, "bike_id": "f8aa9695419c0d8287942b26d52550b3", "lat": 38.912444666666666, "fusion_lon": 0.0, "fusion_lat": 0.0, "type": "electric_scooter", "name": "f8aa9695419c0d8287942b26d52550b3", "is_disabled": 0, "rental_uris": {"ios": "https://dc.lft.to/lastmile_qr_scan", "android": "https://dc.lft.to/lastmile_qr_scan"}, "is_reserved": 0}, {"lon": -77.06777666666666, "bike_id": "cddf90e2db0ceccea5da49c44378ab15", "lat": 38.905165833333335, "fusion_lon": 0.0, "fusion_lat": 0.0, "type": "electric_scooter", "name": "cddf90e2db0ceccea5da49c44378ab15", "is_disabled": 0, "rental_uris": {"ios": "https://dc.lft.to/lastmile_qr_scan", "android": "https://dc.lft.to/lastmile_qr_scan"}, "is_reserved": 0}, {"lon": -77.0128235, "bike_id": "a49cb8f7a92ba5430213f24ea39483db", "lat": 38.9156015, "fusion_lon": 0.0, "fusion_lat": 0.0, "type": "electric_scooter", "name": "a49cb8f7a92ba5430213f24ea39483db", "is_disabled": 0, "rental_uris": {"ios": "https://dc.lft.to/lastmile_qr_scan", "android": "https://dc.lft.to/lastmile_qr_scan"}, "is_reserved": 0}, {"lon": -76.99112616666666, "bike_id": "70523897d252737b55b687f0db5551ce", "lat": 38.903243, "fusion_lon": 0.0, "fusion_lat": 0.0, "type": "electric_scooter", "name": "70523897d252737b55b687f0db5551ce", "is_disabled": 0, "rental_uris": {"ios": "https://dc.lft.to/lastmile_qr_scan", "android": "https://dc.lft.to/lastmile_qr_scan"}, "is_reserved": 0}, {"lon": -77.01768583333333, "bike_id": "97004b8ebb7868cc856914664fa424af", "lat": 38.877146, "fusion_lon": 0.0, "fusion_lat": 0.0, "type": "electric_scooter", "name": "97004b8ebb7868cc856914664fa424af", "is_disabled": 0, "rental_uris": {"ios": "https://dc.lft.to/lastmile_qr_scan", "android": "https://dc.lft.to/lastmile_qr_scan"}, "is_reserved": 0}, {"lon": -77.00593883333333, "bike_id": "77e57fafcf5df27ed501fe5fa10844e9", "lat": 38.92628033333333, "fusion_lon": 0.0, "fusion_lat": 0.0, "type": "electric_scooter", "name": "77e57fafcf5df27ed501fe5fa10844e9", "is_disabled": 0, "rental_uris": {"ios": "https://dc.lft.to/lastmile_qr_scan", "android": "https://dc.lft.to/lastmile_qr_scan"}, "is_reserved": 0}, {"lon": -76.997854, "bike_id": "58870a67dd4a84dbe189c7eb51290ed8", "lat": 38.844305, "fusion_lon": 0.0, "fusion_lat": 0.0, "type": "electric_scooter", "name": "58870a67dd4a84dbe189c7eb51290ed8", "is_disabled": 0, "rental_uris": {"ios": "https://dc.lft.to/lastmile_qr_scan", "android": "https://dc.lft.to/lastmile_qr_scan"}, "is_reserved": 0}, {"lon": -76.9545725, "bike_id": "a04c5d06faa485b73bf6043d57293c51", "lat": 38.88950833333333, "fusion_lon": 0.0, "fusion_lat": 0.0, "type": "electric_scooter", "name": "a04c5d06faa485b73bf6043d57293c51", "is_disabled": 0, "rental_uris": {"ios": "https://dc.lft.to/lastmile_qr_scan", "android": "https://dc.lft.to/lastmile_qr_scan"}, "is_reserved": 0}, {"lon": -77.039215, "bike_id": "ac75eba38ba41a4541d2e392f03d1f09", "lat": 38.92800866666666, "fusion_lon": 0.0, "fusion_lat": 0.0, "type": "electric_scooter", "name": "ac75eba38ba41a4541d2e392f03d1f09", "is_disabled": 0, "rental_uris": {"ios": "https://dc.lft.to/lastmile_qr_scan", "android": "https://dc.lft.to/lastmile_qr_scan"}, "is_reserved": 0}, {"lon": -77.04871066666666, "bike_id": "4d11d98d2bda801a9faf95810cb397b3", "lat": 38.90718533333333, "fusion_lon": 0.0, "fusion_lat": 0.0, "type": "electric_scooter", "name": "4d11d98d2bda801a9faf95810cb397b3", "is_disabled": 0, "rental_uris": {"ios": "https://dc.lft.to/lastmile_qr_scan", "android": "https://dc.lft.to/lastmile_qr_scan"}, "is_reserved": 0}, {"lon": -77.06054716666667, "bike_id": "18ca6699e9c4b279f3f96ceb1ec3ffe7", "lat": 38.805746666666664, "fusion_lon": 0.0, "fusion_lat": 0.0, "type": "electric_bike", "name": "18ca6699e9c4b279f3f96ceb1ec3ffe7", "is_disabled": 0, "rental_uris": {"ios": "https://dc.lft.to/lastmile_qr_scan", "android": "https://dc.lft.to/lastmile_qr_scan"}, "is_reserved": 0}, {"lon": -77.088091, "bike_id": "c97c2f4fb9f746df90efe8ed503b7005", "lat": 38.91174216666667, "fusion_lon": 0.0, "fusion_lat": 0.0, "type": "electric_bike", "name": "c97c2f4fb9f746df90efe8ed503b7005", "is_disabled": 0, "rental_uris": {"ios": "https://dc.lft.to/lastmile_qr_scan", "android": "https://dc.lft.to/lastmile_qr_scan"}, "is_reserved": 0}, {"lon": -77.0473455, "bike_id": "7c9986a631bec45494e5164b42a68f19", "lat": 38.907181333333334, "fusion_lon": 0.0, "fusion_lat": 0.0, "type": "electric_scooter", "name": "7c9986a631bec45494e5164b42a68f19", "is_disabled": 0, "rental_uris": {"ios": "https://dc.lft.to/lastmile_qr_scan", "android": "https://dc.lft.to/lastmile_qr_scan"}, "is_reserved": 0}, {"lon": -76.97619333333333, "bike_id": "396a315c9d99f1ea011f114dafefd669", "lat": 38.926554333333335, "fusion_lon": 0.0, "fusion_lat": 0.0, "type": "electric_scooter", "name": "396a315c9d99f1ea011f114dafefd669", "is_disabled": 0, "rental_uris": {"ios": "https://dc.lft.to/lastmile_qr_scan", "android": "https://dc.lft.to/lastmile_qr_scan"}, "is_reserved": 0}, {"lon": -76.977398, "bike_id": "a060bf51c2a43ef19886a007fddf70da", "lat": 38.86503733333333, "fusion_lon": 0.0, "fusion_lat": 0.0, "type": "electric_bike", "name": "a060bf51c2a43ef19886a007fddf70da", "is_disabled": 0, "rental_uris": {"ios": "https://dc.lft.to/lastmile_qr_scan", "android": "https://dc.lft.to/lastmile_qr_scan"}, "is_reserved": 0}, {"lon": -76.97627183333333, "bike_id": "744513cda1794c866db89e81ee9c43c7", "lat": 38.905694, "fusion_lon": 0.0, "fusion_lat": 0.0, "type": "electric_scooter", "name": "744513cda1794c866db89e81ee9c43c7", "is_disabled": 0, "rental_uris": {"ios": "https://dc.lft.to/lastmile_qr_scan", "android": "https://dc.lft.to/lastmile_qr_scan"}, "is_reserved": 0}, {"lon": -77.03825383333333, "bike_id": "e969812179e99b5860bc2c7925d3d709", "lat": 38.91051183333333, "fusion_lon": 0.0, "fusion_lat": 0.0, "type": "electric_scooter", "name": "e969812179e99b5860bc2c7925d3d709", "is_disabled": 0, "rental_uris": {"ios": "https://dc.lft.to/lastmile_qr_scan", "android": "https://dc.lft.to/lastmile_qr_scan"}, "is_reserved": 0}, {"lon": -76.994933, "bike_id": "ec4a367fef6ec785f509e75b56e159d6", "lat": 38.862475, "fusion_lon": 0.0, "fusion_lat": 0.0, "type": "electric_scooter", "name": "ec4a367fef6ec785f509e75b56e159d6", "is_disabled": 0, "rental_uris": {"ios": "https://dc.lft.to/lastmile_qr_scan", "android": "https://dc.lft.to/lastmile_qr_scan"}, "is_reserved": 0}, {"lon": -77.04160566666667, "bike_id": "3ffb41f1109e58e2552d49bf1b630b63", "lat": 38.912502333333336, "fusion_lon": 0.0, "fusion_lat": 0.0, "type": "electric_scooter", "name": "3ffb41f1109e58e2552d49bf1b630b63", "is_disabled": 0, "rental_uris": {"ios": "https://dc.lft.to/lastmile_qr_scan", "android": "https://dc.lft.to/lastmile_qr_scan"}, "is_reserved": 0}, {"lon": -77.0297705, "bike_id": "57a04e3bd6d09243ae2904d76e7a106d", "lat": 38.916801666666665, "fusion_lon": 0.0, "fusion_lat": 0.0, "type": "electric_scooter", "name": "57a04e3bd6d09243ae2904d76e7a106d", "is_disabled": 0, "rental_uris": {"ios": "https://dc.lft.to/lastmile_qr_scan", "android": "https://dc.lft.to/lastmile_qr_scan"}, "is_reserved": 0}, {"lon": -77.01937066666666, "bike_id": "b591bd4d4a01a58038d19c95267a59b6", "lat": 38.93686066666667, "fusion_lon": 0.0, "fusion_lat": 0.0, "type": "electric_scooter", "name": "b591bd4d4a01a58038d19c95267a59b6", "is_disabled": 0, "rental_uris": {"ios": "https://dc.lft.to/lastmile_qr_scan", "android": "https://dc.lft.to/lastmile_qr_scan"}, "is_reserved": 0}, {"lon": -76.985449, "bike_id": "ad1063aa1581ed1473d9013659f464b4", "lat": 38.89659916666667, "fusion_lon": 0.0, "fusion_lat": 0.0, "type": "electric_scooter", "name": "ad1063aa1581ed1473d9013659f464b4", "is_disabled": 0, "rental_uris": {"ios": "https://dc.lft.to/lastmile_qr_scan", "android": "https://dc.lft.to/lastmile_qr_scan"}, "is_reserved": 0}, {"lon": -77.03301716666667, "bike_id": "66ea5cecf177d6a9cfcb897602a2e694", "lat": 38.925491666666666, "fusion_lon": 0.0, "fusion_lat": 0.0, "type": "electric_scooter", "name": "66ea5cecf177d6a9cfcb897602a2e694", "is_disabled": 0, "rental_uris": {"ios": "https://dc.lft.to/lastmile_qr_scan", "android": "https://dc.lft.to/lastmile_qr_scan"}, "is_reserved": 0}, {"lon": -77.03204, "bike_id": "6402ab15ba1fdfba542da355996f4a3d", "lat": 38.907331, "fusion_lon": 0.0, "fusion_lat": 0.0, "type": "electric_scooter", "name": "6402ab15ba1fdfba542da355996f4a3d", "is_disabled": 0, "rental_uris": {"ios": "https://dc.lft.to/lastmile_qr_scan", "android": "https://dc.lft.to/lastmile_qr_scan"}, "is_reserved": 0}, {"lon": -77.04763416666667, "bike_id": "50722c27c3a209124c007d068820d23b", "lat": 38.92140166666667, "fusion_lon": 0.0, "fusion_lat": 0.0, "type": "electric_scooter", "name": "50722c27c3a209124c007d068820d23b", "is_disabled": 0, "rental_uris": {"ios": "https://dc.lft.to/lastmile_qr_scan", "android": "https://dc.lft.to/lastmile_qr_scan"}, "is_reserved": 0}, {"lon": -76.93058833333333, "bike_id": "2582f463939bfbd7783142357d8aba62", "lat": 38.90153166666666, "fusion_lon": 0.0, "fusion_lat": 0.0, "type": "electric_scooter", "name": "2582f463939bfbd7783142357d8aba62", "is_disabled": 0, "rental_uris": {"ios": "https://dc.lft.to/lastmile_qr_scan", "android": "https://dc.lft.to/lastmile_qr_scan"}, "is_reserved": 0}, {"lon": -77.02116283333334, "bike_id": "4cce01649519916def6f73df9733d39b", "lat": 38.91589616666667, "fusion_lon": 0.0, "fusion_lat": 0.0, "type": "electric_scooter", "name": "4cce01649519916def6f73df9733d39b", "is_disabled": 0, "rental_uris": {"ios": "https://dc.lft.to/lastmile_qr_scan", "android": "https://dc.lft.to/lastmile_qr_scan"}, "is_reserved": 0}, {"lon": -77.02706483333333, "bike_id": "a7536874a463fe0ac0702e7f4c7f5f3a", "lat": 38.9067185, "fusion_lon": 0.0, "fusion_lat": 0.0, "type": "electric_scooter", "name": "a7536874a463fe0ac0702e7f4c7f5f3a", "is_disabled": 0, "rental_uris": {"ios": "https://dc.lft.to/lastmile_qr_scan", "android": "https://dc.lft.to/lastmile_qr_scan"}, "is_reserved": 0}, {"lon": -77.0326485, "bike_id": "d9688cb9d7b06be3a336a66a6bafe9e3", "lat": 38.93263566666667, "fusion_lon": 0.0, "fusion_lat": 0.0, "type": "electric_scooter", "name": "d9688cb9d7b06be3a336a66a6bafe9e3", "is_disabled": 0, "rental_uris": {"ios": "https://dc.lft.to/lastmile_qr_scan", "android": "https://dc.lft.to/lastmile_qr_scan"}, "is_reserved": 0}, {"lon": -77.0219045, "bike_id": "17239aa0c7b4fc5c1770f84ced8b4a00", "lat": 38.89472966666666, "fusion_lon": 0.0, "fusion_lat": 0.0, "type": "electric_scooter", "name": "17239aa0c7b4fc5c1770f84ced8b4a00", "is_disabled": 0, "rental_uris": {"ios": "https://dc.lft.to/lastmile_qr_scan", "android": "https://dc.lft.to/lastmile_qr_scan"}, "is_reserved": 0}, {"lon": -77.025897, "bike_id": "a9a9f807e9035c0a4b991c552f1ae9aa", "lat": 38.914132333333335, "fusion_lon": 0.0, "fusion_lat": 0.0, "type": "electric_scooter", "name": "a9a9f807e9035c0a4b991c552f1ae9aa", "is_disabled": 0, "rental_uris": {"ios": "https://dc.lft.to/lastmile_qr_scan", "android": "https://dc.lft.to/lastmile_qr_scan"}, "is_reserved": 0}, {"lon": -76.99153683333333, "bike_id": "00aa98a10bc0200c8777bb67b8be5cbe", "lat": 38.90037566666667, "fusion_lon": 0.0, "fusion_lat": 0.0, "type": "electric_scooter", "name": "00aa98a10bc0200c8777bb67b8be5cbe", "is_disabled": 0, "rental_uris": {"ios": "https://dc.lft.to/lastmile_qr_scan", "android": "https://dc.lft.to/lastmile_qr_scan"}, "is_reserved": 0}, {"lon": -77.02518583333334, "bike_id": "363ff5a68143b101384782944747524b", "lat": 38.9204895, "fusion_lon": 0.0, "fusion_lat": 0.0, "type": "electric_scooter", "name": "363ff5a68143b101384782944747524b", "is_disabled": 0, "rental_uris": {"ios": "https://dc.lft.to/lastmile_qr_scan", "android": "https://dc.lft.to/lastmile_qr_scan"}, "is_reserved": 0}, {"lon": -77.04682316666667, "bike_id": "aa55dc8a58c4e339230ddf7d374b7566", "lat": 38.90023716666666, "fusion_lon": 0.0, "fusion_lat": 0.0, "type": "electric_scooter", "name": "aa55dc8a58c4e339230ddf7d374b7566", "is_disabled": 0, "rental_uris": {"ios": "https://dc.lft.to/lastmile_qr_scan", "android": "https://dc.lft.to/lastmile_qr_scan"}, "is_reserved": 0}, {"lon": -77.02006766666666, "bike_id": "e95ff2950a279f42c6b6b81b97f29d8d", "lat": 38.8766685, "fusion_lon": 0.0, "fusion_lat": 0.0, "type": "electric_scooter", "name": "e95ff2950a279f42c6b6b81b97f29d8d", "is_disabled": 0, "rental_uris": {"ios": "https://dc.lft.to/lastmile_qr_scan", "android": "https://dc.lft.to/lastmile_qr_scan"}, "is_reserved": 0}, {"lon": -77.03719016666666, "bike_id": "b9c8854a4d2d10e6a8d95512326c5836", "lat": 38.9147915, "fusion_lon": 0.0, "fusion_lat": 0.0, "type": "electric_scooter", "name": "b9c8854a4d2d10e6a8d95512326c5836", "is_disabled": 0, "rental_uris": {"ios": "https://dc.lft.to/lastmile_qr_scan", "android": "https://dc.lft.to/lastmile_qr_scan"}, "is_reserved": 0}, {"lon": -77.03811983333334, "bike_id": "7396f98bb9eb8e0de032da4a7ddb58d6", "lat": 38.91416783333333, "fusion_lon": 0.0, "fusion_lat": 0.0, "type": "electric_scooter", "name": "7396f98bb9eb8e0de032da4a7ddb58d6", "is_disabled": 0, "rental_uris": {"ios": "https://dc.lft.to/lastmile_qr_scan", "android": "https://dc.lft.to/lastmile_qr_scan"}, "is_reserved": 0}, {"lon": -76.916001, "bike_id": "34131a5bbc05d3ef8e117d2df7cbc9e2", "lat": 38.8798675, "fusion_lon": 0.0, "fusion_lat": 0.0, "type": "electric_bike", "name": "34131a5bbc05d3ef8e117d2df7cbc9e2", "is_disabled": 0, "rental_uris": {"ios": "https://dc.lft.to/lastmile_qr_scan", "android": "https://dc.lft.to/lastmile_qr_scan"}, "is_reserved": 0}, {"lon": -77.02819033333333, "bike_id": "d824461c43ee139dd166e24cc7502072", "lat": 38.93174833333333, "fusion_lon": 0.0, "fusion_lat": 0.0, "type": "electric_scooter", "name": "d824461c43ee139dd166e24cc7502072", "is_disabled": 0, "rental_uris": {"ios": "https://dc.lft.to/lastmile_qr_scan", "android": "https://dc.lft.to/lastmile_qr_scan"}, "is_reserved": 0}, {"lon": -77.04466416666666, "bike_id": "567486c7501a55b06cd865fbd7ebff8d", "lat": 38.90528416666667, "fusion_lon": 0.0, "fusion_lat": 0.0, "type": "electric_scooter", "name": "567486c7501a55b06cd865fbd7ebff8d", "is_disabled": 0, "rental_uris": {"ios": "https://dc.lft.to/lastmile_qr_scan", "android": "https://dc.lft.to/lastmile_qr_scan"}, "is_reserved": 0}, {"lon": -77.02227383333333, "bike_id": "3526b58df2838caf1335e23c0be56ba6", "lat": 38.8932655, "fusion_lon": 0.0, "fusion_lat": 0.0, "type": "electric_scooter", "name": "3526b58df2838caf1335e23c0be56ba6", "is_disabled": 0, "rental_uris": {"ios": "https://dc.lft.to/lastmile_qr_scan", "android": "https://dc.lft.to/lastmile_qr_scan"}, "is_reserved": 0}, {"lon": -77.03290816666667, "bike_id": "bb4ecfdf98d94eaea0684473a7076b7c", "lat": 38.934875166666664, "fusion_lon": 0.0, "fusion_lat": 0.0, "type": "electric_scooter", "name": "bb4ecfdf98d94eaea0684473a7076b7c", "is_disabled": 0, "rental_uris": {"ios": "https://dc.lft.to/lastmile_qr_scan", "android": "https://dc.lft.to/lastmile_qr_scan"}, "is_reserved": 0}, {"lon": -77.02306333333334, "bike_id": "85b8568aa716f2dea6cdac7e546a8220", "lat": 38.93284383333334, "fusion_lon": 0.0, "fusion_lat": 0.0, "type": "electric_scooter", "name": "85b8568aa716f2dea6cdac7e546a8220", "is_disabled": 0, "rental_uris": {"ios": "https://dc.lft.to/lastmile_qr_scan", "android": "https://dc.lft.to/lastmile_qr_scan"}, "is_reserved": 0}, {"lon": -76.93030216666666, "bike_id": "4e270c5beb79263a7923c7dad645df44", "lat": 38.90014266666667, "fusion_lon": 0.0, "fusion_lat": 0.0, "type": "electric_scooter", "name": "4e270c5beb79263a7923c7dad645df44", "is_disabled": 0, "rental_uris": {"ios": "https://dc.lft.to/lastmile_qr_scan", "android": "https://dc.lft.to/lastmile_qr_scan"}, "is_reserved": 0}, {"lon": -77.01900883333333, "bike_id": "ce62c63556cb96cfeb4b4c59006fe65d", "lat": 38.9045055, "fusion_lon": 0.0, "fusion_lat": 0.0, "type": "electric_scooter", "name": "ce62c63556cb96cfeb4b4c59006fe65d", "is_disabled": 0, "rental_uris": {"ios": "https://dc.lft.to/lastmile_qr_scan", "android": "https://dc.lft.to/lastmile_qr_scan"}, "is_reserved": 0}, {"lon": -77.0277695, "bike_id": "c4cb4a53b6d7ee10df25065a45a31d90", "lat": 38.89222216666667, "fusion_lon": 0.0, "fusion_lat": 0.0, "type": "electric_scooter", "name": "c4cb4a53b6d7ee10df25065a45a31d90", "is_disabled": 0, "rental_uris": {"ios": "https://dc.lft.to/lastmile_qr_scan", "android": "https://dc.lft.to/lastmile_qr_scan"}, "is_reserved": 0}, {"lon": -77.02592183333333, "bike_id": "8289e450a3e44d9847f5034c2a6bccb1", "lat": 38.9034615, "fusion_lon": 0.0, "fusion_lat": 0.0, "type": "electric_scooter", "name": "8289e450a3e44d9847f5034c2a6bccb1", "is_disabled": 0, "rental_uris": {"ios": "https://dc.lft.to/lastmile_qr_scan", "android": "https://dc.lft.to/lastmile_qr_scan"}, "is_reserved": 0}, {"lon": -77.04190316666667, "bike_id": "1d279a2d6296e68e3d7f6f6398a14398", "lat": 38.911259, "fusion_lon": 0.0, "fusion_lat": 0.0, "type": "electric_scooter", "name": "1d279a2d6296e68e3d7f6f6398a14398", "is_disabled": 0, "rental_uris": {"ios": "https://dc.lft.to/lastmile_qr_scan", "android": "https://dc.lft.to/lastmile_qr_scan"}, "is_reserved": 0}, {"lon": -77.02289033333334, "bike_id": "3c4bf5f731660aea1848399e670f0da4", "lat": 38.916587666666665, "fusion_lon": 0.0, "fusion_lat": 0.0, "type": "electric_scooter", "name": "3c4bf5f731660aea1848399e670f0da4", "is_disabled": 0, "rental_uris": {"ios": "https://dc.lft.to/lastmile_qr_scan", "android": "https://dc.lft.to/lastmile_qr_scan"}, "is_reserved": 0}, {"lon": -77.03662033333333, "bike_id": "5053e392e127d4103f3884a5bf691d79", "lat": 38.917147166666666, "fusion_lon": 0.0, "fusion_lat": 0.0, "type": "electric_scooter", "name": "5053e392e127d4103f3884a5bf691d79", "is_disabled": 0, "rental_uris": {"ios": "https://dc.lft.to/lastmile_qr_scan", "android": "https://dc.lft.to/lastmile_qr_scan"}, "is_reserved": 0},