{"data": {"bikes": [{"lon": -77.05580683333334, "bike_id": "375358f0fb4a68fe6a55eb9a1146c42d", "lat": 38.900194166666665, "fusion_lon": 0.0, "fusion_lat": 0.0, "type": "electric_scooter", "name": "375358f0fb4a68fe6a55eb9a1146c42d", "is_disabled": 0, "rental_uris": {"ios": "https://dc.lft.to/lastmile_qr_scan", "android": "https://dc.lft.to/lastmile_qr_scan"}, "is_reserved": 0}, {"lon": -77.04468033333333, "bike_id": "9bfa7a91f9293ccaf42a6287c3b620ef", "lat": 38.92388483333333, "fusion_lon": 0.0, "fusion_lat": 0.0, "type": "electric_scooter", "name": "9bfa7a91f9293ccaf42a6287c3b620ef", "is_disabled": 0, "rental_uris": {"ios": "https://dc.lft.to/lastmile_qr_scan", "android": "https://dc.lft.to/lastmile_qr_scan"}, "is_reserved": 0}, {"lon": -77.00491283333334, "bike_id": "9cdf91b2c2fadceb784baa0e7e66ee1e", "lat": 38.905558166666665, "fusion_lon": 0.0, "fusion_lat": 0.0, "type": "electric_scooter", "name": "9cdf91b2c2fadceb784baa0e7e66ee1e", "is_disabled": 0, "rental_uris": {"ios": "https://dc.lft.to/lastmile_qr_scan", "android": "https://dc.lft.to/lastmile_qr_scan"}, "is_reserved": 0}, {"lon": -77.01908616666667, "bike_id": "4b4a169f6573e586bcf029a903cb6115", "lat": 38.899657833333336, "fusion_lon": 0.0, "fusion_lat": 0.0, "type": "electric_scooter", "name": "4b4a169f6573e586bcf029a903cb6115", "is_disabled": 0, "rental_uris": {"ios": "https://dc.lft.to/lastmile_qr_scan", "android": "https://dc.lft.to/lastmile_qr_scan"}, "is_reserved": 0}, {"lon": -76.97428833333333, "bike_id": "f6f86e865e58c33172ce52861c5fa5ea", "lat": 38.903963, "fusion_lon": 0.0, "fusion_lat": 0.0, "type": "electric_scooter", "name": "f6f86e865e58c33172ce52861c5fa5ea", "is_disabled": 0, "rental_uris": {"ios": "https://dc.lft.to/lastmile_qr_scan", "android": "https://dc.lft.to/lastmile_qr_scan"}, "is_reserved": 0}, {"lon": -77.00560983333334, "bike_id": "3dfdc9eaec63a64bd2a5e2f06aebc3d6", "lat": 38.874683166666664, "fusion_lon": 0.0, "fusion_lat": 0.0, "type": "electric_scooter", "name": "3dfdc9eaec63a64bd2a5e2f06aebc3d6", "is_disabled": 0, "rental_uris": {"ios": "https://dc.lft.to/lastmile_qr_scan", "android": "https://dc.lft.to/lastmile_qr_scan"}, "is_reserved": 0}, {"lon": -77.04230733333333, "bike_id": "c6cb2481ee9d9a3055a9efb1861cefe0", "lat": 38.914060666666664, "fusion_lon": 0.0, "fusion_lat": 0.0, "type": "electric_scooter", "name": "c6cb2481ee9d9a3055a9efb1861cefe0", "is_disabled": 0, "rental_uris": {"ios": "https://dc.lft.to/lastmile_qr_scan", "android": "https://dc.lft.to/lastmile_qr_scan"}, "is_reserved": 0}, {"lon": -77.03265483333334, "bike_id": "e375c8759fc4ee83ac3c8b0b7784ed16", "lat": 38.919849166666665, "fusion_lon": 0.0, "fusion_lat": 0.0, "type": "electric_scooter", "name": "e375c8759fc4ee83ac3c8b0b7784ed16", "is_disabled": 0, "rental_uris": {"ios": "https://dc.lft.to/lastmile_qr_scan", "android": "https://dc.lft.to/lastmile_qr_scan"}, "is_reserved": 0}, {"lon": -76.907339, "bike_id": "a2cb93a4033e5cd4d39a5fb9d39f67e1", "lat": 38.8961935, "fusion_lon": 0.0, "fusion_lat": 0.0, "type": "electric_bike", "name": "a2cb93a4033e5cd4d39a5fb9d39f67e1", "is_disabled": 0, "rental_uris": {"ios": "https://dc.lft.to/lastmile_qr_scan", "android": "https://dc.lft.to/lastmile_qr_scan"}, "is_reserved": 0}, {"lon": -77.02292566666667, "bike_id": "f84ce1cb9e7dee753ad1228420dcfdc4", "lat": 38.922316, "fusion_lon": 0.0, "fusion_lat": 0.0, "type": "electric_scooter", "name": "f84ce1cb9e7dee753ad1228420dcfdc4", "is_disabled": 0, "rental_uris": {"ios": "https://dc.lft.to/lastmile_qr_scan", "android": "https://dc.lft.to/lastmile_qr_scan"}, "is_reserved": 0}, {"lon": -76.98526266666667, "bike_id": "81dcd82bbe15b9e2e742a4d5ef56d6fc", "lat": 38.866847666666665, "fusion_lon": 0.0, "fusion_lat": 0.0, "type": "electric_scooter", "name": "81dcd82bbe15b9e2e742a4d5ef56d6fc", "is_disabled": 0, "rental_uris": {"ios": "https://dc.lft.to/lastmile_qr_scan", "android": "https://dc.lft.to/lastmile_qr_scan"}, "is_reserved": 0}, {"lon": -77.04827816666666, "bike_id": "a3ce86fe80a774a782e4c87fef2fed20", "lat": 38.897425, "fusion_lon": 0.0, "fusion_lat": 0.0, "type": "electric_scooter", "name": "a3ce86fe80a774a782e4c87fef2fed20", "is_disabled": 0, "rental_uris": {"ios": "https://dc.lft.to/lastmile_qr_scan", "android": "https://dc.lft.to/lastmile_qr_scan"}, "is_reserved": 0}, {"lon": -77.03811666666667, "bike_id": "f6d7b6bb10734515bbb913d8708a8b0a", "lat": 38.931141833333335, "fusion_lon": 0.0, "fusion_lat": 0.0, "type": "electric_scooter", "name": "f6d7b6bb10734515bbb913d8708a8b0a", "is_disabled": 0, "rental_uris": {"ios": "https://dc.lft.to/lastmile_qr_scan", "android": "https://dc.lft.to/lastmile_qr_scan"}, "is_reserved": 0}, {"lon": -77.0203015, "bike_id": "098935a26650300497bf264790798299", "lat": 38.90562633333333, "fusion_lon": 0.0, "fusion_lat": 0.0, "type": "electric_scooter", "name": "098935a26650300497bf264790798299", "is_disabled": 0, "rental_uris": {"ios": "https://dc.lft.to/lastmile_qr_scan", "android": "https://dc.lft.to/lastmile_qr_scan"}, "is_reserved": 0}, {"lon": -77.02765366666667, "bike_id": "6fe37daadf496c137df1192020406530", "lat": 38.954286333333336, "fusion_lon": 0.0, "fusion_lat": 0.0, "type": "electric_scooter", "name": "6fe37daadf496c137df1192020406530", "is_disabled": 0, "rental_uris": {"ios": "https://dc.lft.to/lastmile_qr_scan", "android": "https://dc.lft.to/lastmile_qr_scan"}, "is_reserved": 0}, {"lon": -77.04817983333334, "bike_id": "1bd8c4403063fdbda3f4cfc356a74415", "lat": 38.91109183333333, "fusion_lon": 0.0, "fusion_lat": 0.0, "type": "electric_scooter", "name": "1bd8c4403063fdbda3f4cfc356a74415", "is_disabled": 0, "rental_uris": {"ios": "https://dc.lft.to/lastmile_qr_scan", "android": "https://dc.lft.to/lastmile_qr_scan"}, "is_reserved": 0}, {"lon": -77.05728366666666, "bike_id": "da48aa0a055b3deef171ff75cb070559", "lat": 38.93360916666666, "fusion_lon": 0.0, "fusion_lat": 0.0, "type": "electric_scooter", "name": "da48aa0a055b3deef171ff75cb070559", "is_disabled": 0, "rental_uris": {"ios": "https://dc.lft.to/lastmile_qr_scan", "android": "https://dc.lft.to/lastmile_qr_scan"}, "is_reserved": 0}, {"lon": -77.0317695, "bike_id": "493a62cd5f4d7303de989aac7cb49675", "lat": 38.892208, "fusion_lon": 0.0, "fusion_lat": 0.0, "type": "electric_scooter", "name": "493a62cd5f4d7303de989aac7cb49675", "is_disabled": 0, "rental_uris": {"ios": "https://dc.lft.to/lastmile_qr_scan", "android": "https://dc.lft.to/lastmile_qr_scan"}, "is_reserved": 0}, {"lon": -77.04635266666666, "bike_id": "d1c7348d4236c5f95198465bd36dbe2d", "lat": 38.914264, "fusion_lon": 0.0, "fusion_lat": 0.0, "type": "electric_scooter", "name": "d1c7348d4236c5f95198465bd36dbe2d", "is_disabled": 0, "rental_uris": {"ios": "https://dc.lft.to/lastmile_qr_scan", "android": "https://dc.lft.to/lastmile_qr_scan"}, "is_reserved": 0}, {"lon": -77.04501966666666, "bike_id": "cedb89c8b02063a49f03088346cbbeec", "lat": 38.91110416666667, "fusion_lon": 0.0, "fusion_lat": 0.0, "type": "electric_scooter", "name": "cedb89c8b02063a49f03088346cbbeec", "is_disabled": 0, "rental_uris": {"ios": "https://dc.lft.to/lastmile_qr_scan", "android": "https://dc.lft.to/lastmile_qr_scan"}, "is_reserved": 0}, {"lon": -77.0302495, "bike_id": "77e1259d41d5ee5bfea7006dcbee2427", "lat": 38.93101166666667, "fusion_lon": 0.0, "fusion_lat": 0.0, "type": "electric_scooter", "name": "77e1259d41d5ee5bfea7006dcbee2427", "is_disabled": 0, "rental_uris": {"ios": "https://dc.lft.to/lastmile_qr_scan", "android": "https://dc.lft.to/lastmile_qr_scan"}, "is_reserved": 0}, {"lon": -77.01765283333333, "bike_id": "420131deba7b3aef1e0bde459995fbb6", "lat": 38.900826333333335, "fusion_lon": 0.0, "fusion_lat": 0.0, "type": "electric_scooter", "name": "420131deba7b3aef1e0bde459995fbb6", "is_disabled": 0, "rental_uris": {"ios": "https://dc.lft.to/lastmile_qr_scan", "android": "https://dc.lft.to/lastmile_qr_scan"}, "is_reserved": 0}, {"lon": -76.99273316666667, "bike_id": "e28497c32d63df99d481852148536c39", "lat": 38.896118666666666, "fusion_lon": 0.0, "fusion_lat": 0.0, "type": "electric_scooter", "name": "e28497c32d63df99d481852148536c39", "is_disabled": 0, "rental_uris": {"ios": "https://dc.lft.to/lastmile_qr_scan", "android": "https://dc.lft.to/lastmile_qr_scan"}, "is_reserved": 0}, {"lon": -76.9732735, "bike_id": "22558f1c42f9c160080b50f4d5e7d86c", "lat": 38.904786666666666, "fusion_lon": 0.0, "fusion_lat": 0.0, "type": "electric_bike", "name": "22558f1c42f9c160080b50f4d5e7d86c", "is_disabled": 0, "rental_uris": {"ios": "https://dc.lft.to/lastmile_qr_scan", "android": "https://dc.lft.to/lastmile_qr_scan"}, "is_reserved": 0}, {"lon": -76.99792916666667, "bike_id": "e6a3cdb6f496ee42eca90c3c6aa4685c", "lat": 38.956434333333334, "fusion_lon": 0.0, "fusion_lat": 0.0, "type": "electric_bike", "name": "e6a3cdb6f496ee42eca90c3c6aa4685c", "is_disabled": 0, "rental_uris": {"ios": "https://dc.lft.to/lastmile_qr_scan", "android": "https://dc.lft.to/lastmile_qr_scan"}, "is_reserved": 0}, {"lon": -76.97906866666666, "bike_id": "363356a7b08fe171b859d68ffe7db0d6", "lat": 38.92455566666667, "fusion_lon": 0.0, "fusion_lat": 0.0, "type": "electric_bike", "name": "363356a7b08fe171b859d68ffe7db0d6", "is_disabled": 0, "rental_uris": {"ios": "https://dc.lft.to/lastmile_qr_scan", "android": "https://dc.lft.to/lastmile_qr_scan"}, "is_reserved": 0}, {"lon": -77.03291716666666, "bike_id": "5a1473bf173b7cc7e7e932986a6c3064", "lat": 38.956518, "fusion_lon": 0.0, "fusion_lat": 0.0, "type": "electric_scooter", "name": "5a1473bf173b7cc7e7e932986a6c3064", "is_disabled": 0, "rental_uris": {"ios": "https://dc.lft.to/lastmile_qr_scan", "android": "https://dc.lft.to/lastmile_qr_scan"}, "is_reserved": 0}, {"lon": -77.000581, "bike_id": "b80dbf1e123ceabeef4bfb8e04b723e6", "lat": 38.874314166666665, "fusion_lon": 0.0, "fusion_lat": 0.0, "type": "electric_scooter", "name": "b80dbf1e123ceabeef4bfb8e04b723e6", "is_disabled": 0, "rental_uris": {"ios": "https://dc.lft.to/lastmile_qr_scan", "android": "https://dc.lft.to/lastmile_qr_scan"}, "is_reserved": 0}, {"lon": -77.02398216666667, "bike_id": "647eb09fcea0881efcc03d9273bebf25", "lat": 38.881306, "fusion_lon": 0.0, "fusion_lat": 0.0, "type": "electric_scooter", "name": "647eb09fcea0881efcc03d9273bebf25", "is_disabled": 0, "rental_uris": {"ios": "https://dc.lft.to/lastmile_qr_scan", "android": "https://dc.lft.to/lastmile_qr_scan"}, "is_reserved": 0}, {"lon": -77.04715433333334, "bike_id": "35f6b277db585a0dac30cce05e94b59d", "lat": 38.899545, "fusion_lon": 0.0, "fusion_lat": 0.0, "type": "electric_scooter", "name": "35f6b277db585a0dac30cce05e94b59d", "is_disabled": 0, "rental_uris": {"ios": "https://dc.lft.to/lastmile_qr_scan", "android": "https://dc.lft.to/lastmile_qr_scan"}, "is_reserved": 0}, {"lon": -77.04878383333333, "bike_id": "5c9e80207b9b23b6f00f6211d6e14f7c", "lat": 38.892320833333336, "fusion_lon": 0.0, "fusion_lat": 0.0, "type": "electric_scooter", "name": "5c9e80207b9b23b6f00f6211d6e14f7c", "is_disabled": 0, "rental_uris": {"ios": "https://dc.lft.to/lastmile_qr_scan", "android": "https://dc.lft.to/lastmile_qr_scan"}, "is_reserved": 0}, {"lon": -76.981076, "bike_id": "5a5898c51f5ec0c3304836e7cef287c4", "lat": 38.9052785, "fusion_lon": 0.0, "fusion_lat": 0.0, "type": "electric_scooter", "name": "5a5898c51f5ec0c3304836e7cef287c4", "is_disabled": 0, "rental_uris": {"ios": "https://dc.lft.to/lastmile_qr_scan", "android": "https://dc.lft.to/lastmile_qr_scan"}, "is_reserved": 0}, {"lon": -77.0700635, "bike_id": "a9be14809ebec35ed20dc8aa049af6e5", "lat": 38.95847533333333, "fusion_lon": 0.0, "fusion_lat": 0.0, "type": "electric_scooter", "name": "a9be14809ebec35ed20dc8aa049af6e5", "is_disabled": 0, "rental_uris": {"ios": "https://dc.lft.to/lastmile_qr_scan", "android": "https://dc.lft.to/lastmile_qr_scan"}, "is_reserved": 0}, {"lon": -77.03905966666666, "bike_id": "a3ebad195c3286303ae794a10813dd54", "lat": 38.900399, "fusion_lon": 0.0, "fusion_lat": 0.0, "type": "electric_scooter", "name": "a3ebad195c3286303ae794a10813dd54", "is_disabled": 0, "rental_uris": {"ios": "https://dc.lft.to/lastmile_qr_scan", "android": "https://dc.lft.to/lastmile_qr_scan"}, "is_reserved": 0}, {"lon": -76.99373333333334, "bike_id": "4667b03cac0cdcef78cf9c8a89d5c906", "lat": 38.97185266666666, "fusion_lon": 0.0, "fusion_lat": 0.0, "type": "electric_bike", "name": "4667b03cac0cdcef78cf9c8a89d5c906", "is_disabled": 0, "rental_uris": {"ios": "https://dc.lft.to/lastmile_qr_scan", "android": "https://dc.lft.to/lastmile_qr_scan"}, "is_reserved": 0}, {"lon": -76.99955183333333, "bike_id": "4f6d443d4f4492edfbc5e7bf16b123b4", "lat": 38.89822266666667, "fusion_lon": 0.0, "fusion_lat": 0.0, "type": "electric_scooter", "name": "4f6d443d4f4492edfbc5e7bf16b123b4", "is_disabled": 0, "rental_uris": {"ios": "https://dc.lft.to/lastmile_qr_scan", "android": "https://dc.lft.to/lastmile_qr_scan"}, "is_reserved": 0}, {"lon": -77.0058125, "bike_id": "1b34cc621511346bfb52d288c5f4853d", "lat": 38.835892666666666, "fusion_lon": 0.0, "fusion_lat": 0.0, "type": "electric_scooter", "name": "1b34cc621511346bfb52d288c5f4853d", "is_disabled": 0, "rental_uris": {"ios": "https://dc.lft.to/lastmile_qr_scan", "android": "https://dc.lft.to/lastmile_qr_scan"}, "is_reserved": 0}, {"lon": -77.013055, "bike_id": "be3fc1e174b989bfb600af3746b564ee", "lat": 38.943234833333335, "fusion_lon": 0.0, "fusion_lat": 0.0, "type": "electric_scooter", "name": "be3fc1e174b989bfb600af3746b564ee", "is_disabled": 0, "rental_uris": {"ios": "https://dc.lft.to/lastmile_qr_scan", "android": "https://dc.lft.to/lastmile_qr_scan"}, "is_reserved": 0}, {"lon": -77.03205666666666, "bike_id": "7cccccca7b1181d4a288250e690fcc2e", "lat": 38.919135, "fusion_lon": 0.0, "fusion_lat": 0.0, "type": "electric_scooter", "name": "7cccccca7b1181d4a288250e690fcc2e", "is_disabled": 0, "rental_uris": {"ios": "https://dc.lft.to/lastmile_qr_scan", "android": "https://dc.lft.to/lastmile_qr_scan"}, "is_reserved": 0}, {"lon": -77.03664483333333, "bike_id": "1df28a66b2928146f0222dbb51fc1f8e", "lat": 38.92319483333333, "fusion_lon": 0.0, "fusion_lat": 0.0, "type": "electric_scooter", "name": "1df28a66b2928146f0222dbb51fc1f8e", "is_disabled": 0, "rental_uris": {"ios": "https://dc.lft.to/lastmile_qr_scan", "android": "https://dc.lft.to/lastmile_qr_scan"}, "is_reserved": 0}, {"lon": -77.03215633333333, "bike_id": "8c214f32d0a1dce819f403d3ca0d17b6", "lat": 38.90713083333333, "fusion_lon": 0.0, "fusion_lat": 0.0, "type": "electric_scooter", "name": "8c214f32d0a1dce819f403d3ca0d17b6", "is_disabled": 0, "rental_uris": {"ios": "https://dc.lft.to/lastmile_qr_scan", "android": "https://dc.lft.to/lastmile_qr_scan"}, "is_reserved": 0}, {"lon": -77.02192183333334, "bike_id": "58fb76b437195a44c8c96045980466e6", "lat": 38.909508333333335, "fusion_lon": 0.0, "fusion_lat": 0.0, "type": "electric_scooter", "name": "58fb76b437195a44c8c96045980466e6", "is_disabled": 0, "rental_uris": {"ios": "https://dc.lft.to/lastmile_qr_scan", "android": "https://dc.lft.to/lastmile_qr_scan"}, "is_reserved": 0}, {"lon": -77.02403516666666, "bike_id": "d49d37bb914ae5de649cf371b0d40c27", "lat": 38.88286933333333, "fusion_lon": 0.0, "fusion_lat": 0.0, "type": "electric_scooter", "name": "d49d37bb914ae5de649cf371b0d40c27", "is_disabled": 0, "rental_uris": {"ios": "https://dc.lft.to/lastmile_qr_scan", "android": "https://dc.lft.to/lastmile_qr_scan"}, "is_reserved": 0}, {"lon": -77.0366395, "bike_id": "ee82a17be848dc8ba628496805af89a4", "lat": 38.918092666666666, "fusion_lon": 0.0, "fusion_lat": 0.0, "type": "electric_scooter", "name": "ee82a17be848dc8ba628496805af89a4", "is_disabled": 0, "rental_uris": {"ios": "https://dc.lft.to/lastmile_qr_scan", "android": "https://dc.lft.to/lastmile_qr_scan"}, "is_reserved": 0}, {"lon": -77.03803666666667, "bike_id": "9f1db752c85f2a12bd41b4c40ba7bf51", "lat": 38.936057, "fusion_lon": 0.0, "fusion_lat": 0.0, "type": "electric_scooter", "name": "9f1db752c85f2a12bd41b4c40ba7bf51", "is_disabled": 0, "rental_uris": {"ios": "https://dc.lft.to/lastmile_qr_scan", "android": "https://dc.lft.to/lastmile_qr_scan"}, "is_reserved": 0}, {"lon": -77.036744, "bike_id": "496d877c5851694c4ffff132f6889882", "lat": 38.90832183333333, "fusion_lon": 0.0, "fusion_lat": 0.0, "type": "electric_scooter", "name": "496d877c5851694c4ffff132f6889882", "is_disabled": 0, "rental_uris": {"ios": "https://dc.lft.to/lastmile_qr_scan", "android": "https://dc.lft.to/lastmile_qr_scan"}, "is_reserved": 0}, {"lon": -77.01035983333334, "bike_id": "84ec06f75e2030a397e7e37609a6c9f9", "lat": 38.921346166666666, "fusion_lon": 0.0, "fusion_lat": 0.0, "type": "electric_scooter", "name": "84ec06f75e2030a397e7e37609a6c9f9", "is_disabled": 0, "rental_uris": {"ios": "https://dc.lft.to/lastmile_qr_scan", "android": "https://dc.lft.to/lastmile_qr_scan"}, "is_reserved": 0}, {"lon": -77.04670216666666, "bike_id": "cc486c7323339ffad56b926c123729bf", "lat": 38.9054505, "fusion_lon": 0.0, "fusion_lat": 0.0, "type": "electric_scooter", "name": "cc486c7323339ffad56b926c123729bf", "is_disabled": 0, "rental_uris": {"ios": "https://dc.lft.to/lastmile_qr_scan", "android": "https://dc.lft.to/lastmile_qr_scan"}, "is_reserved": 0}, {"lon": -76.96601316666667, "bike_id": "3b74f081d73dbe4ca3d11a5b19ad9c3d", "lat": 38.87116316666667, "fusion_lon": 0.0, "fusion_lat": 0.0, "type": "electric_scooter", "name": "3b74f081d73dbe4ca3d11a5b19ad9c3d", "is_disabled": 0, "rental_uris": {"ios": "https://dc.lft.to/lastmile_qr_scan", "android": "https://dc.lft.to/lastmile_qr_scan"}, "is_reserved": 0}, {"lon": -77.021663, "bike_id": "d90d20761d48ed8943a3410f5026c8af", "lat": 38.89748083333333, "fusion_lon": 0.0, "fusion_lat": 0.0, "type": "electric_scooter", "name": "d90d20761d48ed8943a3410f5026c8af", "is_disabled": 0, "rental_uris": {"ios": "https://dc.lft.to/lastmile_qr_scan", "android": "https://dc.lft.to/lastmile_qr_scan"}, "is_reserved": 0}, {"lon": -76.97248016666667, "bike_id": "14e408a161d37c35d3643750528e507b", "lat": 38.90345883333333, "fusion_lon": 0.0, "fusion_lat": 0.0, "type": "electric_scooter", "name": "14e408a161d37c35d3643750528e507b", "is_disabled": 0, "rental_uris": {"ios": "https://dc.lft.to/lastmile_qr_scan", "android": "https://dc.lft.to/lastmile_qr_scan"}, "is_reserved": 0}, {"lon": -77.0199835, "bike_id": "a7c1b21fdbacf5137c78bd122e8681fc", "lat": 38.8859135, "fusion_lon": 0.0, "fusion_lat": 0.0, "type": "electric_scooter", "name": "a7c1b21fdbacf5137c78bd122e8681fc", "is_disabled": 0, "rental_uris": {"ios": "https://dc.lft.to/lastmile_qr_scan", "android": "https://dc.lft.to/lastmile_qr_scan"}, "is_reserved": 0}, {"lon": -76.98334366666667, "bike_id": "94e2341c2c20ac41c0b07242e4afc283", "lat": 38.89544716666666, "fusion_lon": 0.0, "fusion_lat": 0.0, "type": "electric_scooter", "name": "94e2341c2c20ac41c0b07242e4afc283", "is_disabled": 0, "rental_uris": {"ios": "https://dc.lft.to/lastmile_qr_scan", "android": "https://dc.lft.to/lastmile_qr_scan"}, "is_reserved": 0}, {"lon": -76.99711383333333, "bike_id": "8a147155e5c182f32f2e4d122ac44534", "lat": 38.892571833333335, "fusion_lon": 0.0, "fusion_lat": 0.0, "type": "electric_scooter", "name": "8a147155e5c182f32f2e4d122ac44534", "is_disabled": 0, "rental_uris": {"ios": "https://dc.lft.to/lastmile_qr_scan", "android": "https://dc.lft.to/lastmile_qr_scan"}, "is_reserved": 0}, {"lon": -77.0383245, "bike_id": "857df56af24a65a9517f34c022c5eec8", "lat": 38.91110833333333, "fusion_lon": 0.0, "fusion_lat": 0.0, "type": "electric_scooter", "name": "857df56af24a65a9517f34c022c5eec8", "is_disabled": 0, "rental_uris": {"ios": "https://dc.lft.to/lastmile_qr_scan", "android": "https://dc.lft.to/lastmile_qr_scan"}, "is_reserved": 0}, {"lon": -77.015118, "bike_id": "21f585705ef766e48362c3ac99565f87", "lat": 38.918615333333335, "fusion_lon": 0.0, "fusion_lat": 0.0, "type": "electric_scooter", "name": "21f585705ef766e48362c3ac99565f87", "is_disabled": 0, "rental_uris": {"ios": "https://dc.lft.to/lastmile_qr_scan", "android": "https://dc.lft.to/lastmile_qr_scan"}, "is_reserved": 0}, {"lon": -77.0183735, "bike_id": "fea9d0f41baaa0728994c181d24cf6f3", "lat": 38.909324166666664, "fusion_lon": 0.0, "fusion_lat": 0.0, "type": "electric_scooter", "name": "fea9d0f41baaa0728994c181d24cf6f3", "is_disabled": 0, "rental_uris": {"ios": "https://dc.lft.to/lastmile_qr_scan", "android": "https://dc.lft.to/lastmile_qr_scan"}, "is_reserved": 0}, {"lon": -77.01702666666667, "bike_id": "06bac22d01b492daef1122ed45ca4b6f", "lat": 38.90449683333333, "fusion_lon": 0.0, "fusion_lat": 0.0, "type": "electric_scooter", "name": "06bac22d01b492daef1122ed45ca4b6f", "is_disabled": 0, "rental_uris": {"ios": "https://dc.lft.to/lastmile_qr_scan", "android": "https://dc.lft.to/lastmile_qr_scan"}, "is_reserved": 0}, {"lon": -77.03214316666667, "bike_id": "114b21bdac2d322c6c2cf8c1fb2bd118", "lat": 38.911046166666665, "fusion_lon": 0.0, "fusion_lat": 0.0, "type": "electric_scooter", "name": "114b21bdac2d322c6c2cf8c1fb2bd118", "is_disabled": 0, "rental_uris": {"ios": "https://dc.lft.to/lastmile_qr_scan", "android": "https://dc.lft.to/lastmile_qr_scan"}, "is_reserved": 0}, {"lon": -76.98020883333334, "bike_id": "4632f7779724571ff5aa6a1a2f54a86f", "lat": 38.85317883333333, "fusion_lon": 0.0, "fusion_lat": 0.0, "type": "electric_bike", "name": "4632f7779724571ff5aa6a1a2f54a86f", "is_disabled": 0, "rental_uris": {"ios": "https://dc.lft.to/lastmile_qr_scan", "android": "https://dc.lft.to/lastmile_qr_scan"}, "is_reserved": 0}, {"lon": -77.0350715, "bike_id": "1df9d9702f30e47d176c28b866b97290", "lat": 38.92150866666667, "fusion_lon": 0.0, "fusion_lat": 0.0, "type": "electric_scooter", "name": "1df9d9702f30e47d176c28b866b97290", "is_disabled": 0, "rental_uris": {"ios": "https://dc.lft.to/lastmile_qr_scan", "android": "https://dc.lft.to/lastmile_qr_scan"}, "is_reserved": 0}, {"lon": -77.023322, "bike_id": "3b1e09c0850f3cd46dd30b9ccab8ab1d", "lat": 38.919694666666665, "fusion_lon": 0.0, "fusion_lat": 0.0, "type": "electric_scooter", "name": "3b1e09c0850f3cd46dd30b9ccab8ab1d", "is_disabled": 0, "rental_uris": {"ios": "https://dc.lft.to/lastmile_qr_scan", "android": "https://dc.lft.to/lastmile_qr_scan"}, "is_reserved": 0}, {"lon": -76.98985966666666, "bike_id": "e2038c0b00f1adf19191bda2ec90ec39", "lat": 38.93359, "fusion_lon": 0.0, "fusion_lat": 0.0, "type": "electric_scooter", "name": "e2038c0b00f1adf19191bda2ec90ec39", "is_disabled": 0, "rental_uris": {"ios": "https://dc.lft.to/lastmile_qr_scan", "android": "https://dc.lft.to/lastmile_qr_scan"}, "is_reserved": 0}, {"lon": -77.02002533333334, "bike_id": "d728ab4dc57a5c0b6556fd37aa550a8b", "lat": 38.92412483333333, "fusion_lon": 0.0, "fusion_lat": 0.0, "type": "electric_scooter", "name": "d728ab4dc57a5c0b6556fd37aa550a8b", "is_disabled": 0, "rental_uris": {"ios": "https://dc.lft.to/lastmile_qr_scan", "android": "https://dc.lft.to/lastmile_qr_scan"}, "is_reserved": 0}, {"lon": -77.0345645, "bike_id": "3e03cd8d537d27aaa731f933527b2885", "lat": 38.908364666666664, "fusion_lon": 0.0, "fusion_lat": 0.0, "type": "electric_scooter", "name": "3e03cd8d537d27aaa731f933527b2885", "is_disabled": 0, "rental_uris": {"ios": "https://dc.lft.to/lastmile_qr_scan", "android": "https://dc.lft.to/lastmile_qr_scan"}, "is_reserved": 0}, {"lon": -77.02157283333334, "bike_id": "e89d4df23937f589092237336cc9c037", "lat": 38.95073983333333, "fusion_lon": 0.0, "fusion_lat": 0.0, "type": "electric_scooter", "name": "e89d4df23937f589092237336cc9c037", "is_disabled": 0, "rental_uris": {"ios": "https://dc.lft.to/lastmile_qr_scan", "android": "https://dc.lft.to/lastmile_qr_scan"}, "is_reserved": 0}, {"lon": -77.06750416666667, "bike_id": "4cea8660ce917f0dc54344f84e0a13d1", "lat": 38.90364666666667, "fusion_lon": 0.0, "fusion_lat": 0.0, "type": "electric_bike", "name": "4cea8660ce917f0dc54344f84e0a13d1", "is_disabled": 0, "rental_uris": {"ios": "https://dc.lft.to/lastmile_qr_scan", "android": "https://dc.lft.to/lastmile_qr_scan"}, "is_reserved": 0}, {"lon": -76.99518833333333, "bike_id": "c9ffdd406620888979266046d54d8b01", "lat": 38.862569666666666, "fusion_lon": 0.0, "fusion_lat": 0.0, "type": "electric_scooter", "name": "c9ffdd406620888979266046d54d8b01", "is_disabled": 0, "rental_uris": {"ios": "https://dc.lft.to/lastmile_qr_scan", "android": "https://dc.lft.to/lastmile_qr_scan"}, "is_reserved": 0}, {"lon": -77.03841433333334, "bike_id": "c7664bad436fd75f53a022d80f64b02d", "lat": 38.92105933333333, "fusion_lon": 0.0, "fusion_lat": 0.0, "type": "electric_scooter", "name": "c7664bad436fd75f53a022d80f64b02d", "is_disabled": 0, "rental_uris": {"ios": "https://dc.lft.to/lastmile_qr_scan", "android": "https://dc.lft.to/lastmile_qr_scan"}, "is_reserved": 0}, {"lon": -77.034179, "bike_id": "69d30581a72282dbfe3d7c3fa051bf32", "lat": 38.902587, "fusion_lon": 0.0, "fusion_lat": 0.0, "type": "electric_scooter", "name": "69d30581a72282dbfe3d7c3fa051bf32", "is_disabled": 0, "rental_uris": {"ios": "https://dc.lft.to/lastmile_qr_scan", "android": "https://dc.lft.to/lastmile_qr_scan"}, "is_reserved": 0}, {"lon": -77.05234366666667, "bike_id": "b9ee53c47cce772f642fa344a276b721", "lat": 38.92463933333333, "fusion_lon": 0.0, "fusion_lat": 0.0, "type": "electric_scooter", "name": "b9ee53c47cce772f642fa344a276b721", "is_disabled": 0, "rental_uris": {"ios": "https://dc.lft.to/lastmile_qr_scan", "android": "https://dc.lft.to/lastmile_qr_scan"}, "is_reserved": 0}, {"lon": -77.016402, "bike_id": "21dff2e934e24a1f63299d65376d8add", "lat": 38.903695166666665, "fusion_lon": 0.0, "fusion_lat": 0.0, "type": "electric_scooter", "name": "21dff2e934e24a1f63299d65376d8add", "is_disabled": 0, "rental_uris": {"ios": "https://dc.lft.to/lastmile_qr_scan", "android": "https://dc.lft.to/lastmile_qr_scan"}, "is_reserved": 0}, {"lon": -76.99075266666667, "bike_id": "090ac6391f145f33e54b6230088dc3ce", "lat": 38.898063666666665, "fusion_lon": 0.0, "fusion_lat": 0.0, "type": "electric_bike", "name": "090ac6391f145f33e54b6230088dc3ce", "is_disabled": 0, "rental_uris": {"ios": "https://dc.lft.to/lastmile_qr_scan", "android": "https://dc.lft.to/lastmile_qr_scan"}, "is_reserved": 0}, {"lon": -77.05879666666667, "bike_id": "b48d5c3f46e959ebe650c6d98beb7dd4", "lat": 38.862844, "fusion_lon": 0.0, "fusion_lat": 0.0, "type": "electric_bike", "name": "b48d5c3f46e959ebe650c6d98beb7dd4", "is_disabled": 0, "rental_uris": {"ios": "https://dc.lft.to/lastmile_qr_scan", "android": "https://dc.lft.to/lastmile_qr_scan"}, "is_reserved": 0}, {"lon": -77.03429083333333, "bike_id": "a68d6207224c2718b06d86dd0fb6e066", "lat": 38.919303, "fusion_lon": 0.0, "fusion_lat": 0.0, "type": "electric_scooter", "name": "a68d6207224c2718b06d86dd0fb6e066", "is_disabled": 0, "rental_uris": {"ios": "https://dc.lft.to/lastmile_qr_scan", "android": "https://dc.lft.to/lastmile_qr_scan"}, "is_reserved": 0}, {"lon": -77.02535016666667, "bike_id": "429ec25cb13a95344bc983fbab059e02", "lat": 38.9274615, "fusion_lon": 0.0, "fusion_lat": 0.0, "type": "electric_scooter", "name": "429ec25cb13a95344bc983fbab059e02", "is_disabled": 0, "rental_uris": {"ios": "https://dc.lft.to/lastmile_qr_scan", "android": "https://dc.lft.to/lastmile_qr_scan"}, "is_reserved": 0}, {"lon": -77.01019966666667, "bike_id": "122667ad7b502075138d73d38b8e1ac4", "lat": 38.89491116666667, "fusion_lon": 0.0, "fusion_lat": 0.0, "type": "electric_scooter", "name": "122667ad7b502075138d73d38b8e1ac4", "is_disabled": 0, "rental_uris": {"ios": "https://dc.lft.to/lastmile_qr_scan", "android": "https://dc.lft.to/lastmile_qr_scan"}, "is_reserved": 0}, {"lon": -77.04228683333334, "bike_id": "cd761e13c7f254168ecb7c58beeca9e1", "lat": 38.916900166666665, "fusion_lon": 0.0, "fusion_lat": 0.0, "type": "electric_scooter", "name": "cd761e13c7f254168ecb7c58beeca9e1", "is_disabled": 0, "rental_uris": {"ios": "https://dc.lft.to/lastmile_qr_scan", "android": "https://dc.lft.to/lastmile_qr_scan"}, "is_reserved": 0}, {"lon": -76.995329, "bike_id": "4f401a0ab8c36f8314f7278774d616e5", "lat": 38.88363533333333, "fusion_lon": 0.0, "fusion_lat": 0.0, "type": "electric_scooter", "name": "4f401a0ab8c36f8314f7278774d616e5", "is_disabled": 0, "rental_uris": {"ios": "https://dc.lft.to/lastmile_qr_scan", "android": "https://dc.lft.to/lastmile_qr_scan"}, "is_reserved": 0}, {"lon": -77.019119, "bike_id": "00f40076039b1e0d85ccde76082991a7", "lat": 38.886322166666666, "fusion_lon": 0.0, "fusion_lat": 0.0, "type": "electric_scooter", "name": "00f40076039b1e0d85ccde76082991a7", "is_disabled": 0, "rental_uris": {"ios": "https://dc.lft.to/lastmile_qr_scan", "android": "https://dc.lft.to/lastmile_qr_scan"}, "is_reserved": 0}, {"lon": -77.02626033333334, "bike_id": "f0253a836c04f2dd1d9a0de9926e68dc", "lat": 38.96226716666666, "fusion_lon": 0.0, "fusion_lat": 0.0, "type": "electric_bike", "name": "f0253a836c04f2dd1d9a0de9926e68dc", "is_disabled": 0, "rental_uris": {"ios": "https://dc.lft.to/lastmile_qr_scan", "android": "https://dc.lft.to/lastmile_qr_scan"}, "is_reserved": 0}, {"lon": -77.01845833333333, "bike_id": "637509fd9405c78683828fd32fb5a8e4", "lat": 38.91251533333333, "fusion_lon": 0.0, "fusion_lat": 0.0, "type": "electric_scooter", "name": "637509fd9405c78683828fd32fb5a8e4", "is_disabled": 0, "rental_uris": {"ios": "https://dc.lft.to/lastmile_qr_scan", "android": "https://dc.lft.to/lastmile_qr_scan"}, "is_reserved": 0}, {"lon": -76.98605583333334, "bike_id": "532c4fdd5650b6d5d0f1c402ef1726a0", "lat": 38.906241, "fusion_lon": 0.0, "fusion_lat": 0.0, "type": "electric_bike", "name": "532c4fdd5650b6d5d0f1c402ef1726a0", "is_disabled": 0, "rental_uris": {"ios": "https://dc.lft.to/lastmile_qr_scan", "android": "https://dc.lft.to/lastmile_qr_scan"}, "is_reserved": 0}, {"lon": -77.06086316666666, "bike_id": "c4ce646524f983e564f1f2ee91dc80cd", "lat": 38.91285533333333, "fusion_lon": 0.0, "fusion_lat": 0.0, "type": "electric_scooter", "name": "c4ce646524f983e564f1f2ee91dc80cd", "is_disabled": 0, "rental_uris": {"ios": "https://dc.lft.to/lastmile_qr_scan", "android": "https://dc.lft.to/lastmile_qr_scan"}, "is_reserved": 0}, {"lon": -77.03203533333334, "bike_id": "2781370344095bdf92c18d8d7a20f777", "lat": 38.91742816666667, "fusion_lon": 0.0, "fusion_lat": 0.0, "type": "electric_scooter", "name": "2781370344095bdf92c18d8d7a20f777", "is_disabled": 0, "rental_uris": {"ios": "https://dc.lft.to/lastmile_qr_scan", "android": "https://dc.lft.to/lastmile_qr_scan"}, "is_reserved": 0}, {"lon": -77.04379966666667, "bike_id": "f461c785e20f79b0cca4a104fe47bce7", "lat": 38.918661, "fusion_lon": 0.0, "fusion_lat": 0.0, "type": "electric_scooter", "name": "f461c785e20f79b0cca4a104fe47bce7", "is_disabled": 0, "rental_uris": {"ios": "https://dc.lft.to/lastmile_qr_scan", "android": "https://dc.lft.to/lastmile_qr_scan"}, "is_reserved": 0}, {"lon": -77.02407333333333, "bike_id": "38994e84ee7d081819dc764bfd00255c", "lat": 38.92084633333333, "fusion_lon": 0.0, "fusion_lat": 0.0, "type": "electric_scooter", "name": "38994e84ee7d081819dc764bfd00255c", "is_disabled": 0, "rental_uris": {"ios": "https://dc.lft.to/lastmile_qr_scan", "android": "https://dc.lft.to/lastmile_qr_scan"}, "is_reserved": 0}, {"lon": -77.0342225, "bike_id": "6b7a2a56763ad8c3a6e3e405e8e2c2dc", "lat": 38.902612500000004, "fusion_lon": 0.0, "fusion_lat": 0.0, "type": "electric_scooter", "name": "6b7a2a56763ad8c3a6e3e405e8e2c2dc", "is_disabled": 0, "rental_uris": {"ios": "https://dc.lft.to/lastmile_qr_scan", "android": "https://dc.lft.to/lastmile_qr_scan"}, "is_reserved": 0}, {"lon": -77.00056166666667, "bike_id": "95380d54e68d062d2e03f9294e0fb9e4", "lat": 38.89986016666667, "fusion_lon": 0.0, "fusion_lat": 0.0, "type": "electric_scooter", "name": "95380d54e68d062d2e03f9294e0fb9e4", "is_disabled": 0, "rental_uris": {"ios": "https://dc.lft.to/lastmile_qr_scan", "android": "https://dc.lft.to/lastmile_qr_scan"}, "is_reserved": 0}, {"lon": -77.01096733333334, "bike_id": "6084606f662185f06645682f13426b2c", "lat": 38.903711333333334, "fusion_lon": 0.0, "fusion_lat": 0.0, "type": "electric_scooter", "name": "6084606f662185f06645682f13426b2c", "is_disabled": 0, "rental_uris": {"ios": "https://dc.lft.to/lastmile_qr_scan", "android": "https://dc.lft.to/lastmile_qr_scan"}, "is_reserved": 0}, {"lon": -77.048656, "bike_id": "74e818043f7bd31d6e258786c7f39923", "lat": 38.916179, "fusion_lon": 0.0, "fusion_lat": 0.0, "type": "electric_scooter", "name": "74e818043f7bd31d6e258786c7f39923", "is_disabled": 0, "rental_uris": {"ios": "https://dc.lft.to/lastmile_qr_scan", "android": "https://dc.lft.to/lastmile_qr_scan"}, "is_reserved": 0}, {"lon": -77.04677216666667, "bike_id": "e421b7fab8ddfe610e374104e3620fca", "lat": 38.9054345, "fusion_lon": 0.0, "fusion_lat": 0.0, "type": "electric_scooter", "name": "e421b7fab8ddfe610e374104e3620fca", "is_disabled": 0, "rental_uris": {"ios": "https://dc.lft.to/lastmile_qr_scan", "android": "https://dc.lft.to/lastmile_qr_scan"}, "is_reserved": 0}, {"lon": -76.93012733333333, "bike_id": "8b646c630a88fa1f38ab1bcb948ca9f9", "lat": 38.89196366666667, "fusion_lon": 0.0, "fusion_lat": 0.0, "type": "electric_scooter", "name": "8b646c630a88fa1f38ab1bcb948ca9f9", "is_disabled": 0, "rental_uris": {"ios": "https://dc.lft.to/lastmile_qr_scan", "android": "https://dc.lft.to/lastmile_qr_scan"}, "is_reserved": 0}, {"lon": -77.11160666666666, "bike_id": "0c558592f9015df0dc5b7934ae5a76c6", "lat": 38.855019666666664, "fusion_lon": 0.0, "fusion_lat": 0.0, "type": "electric_bike", "name": "0c558592f9015df0dc5b7934ae5a76c6", "is_disabled": 0, "rental_uris": {"ios": "https://dc.lft.to/lastmile_qr_scan", "android": "https://dc.lft.to/lastmile_qr_scan"}, "is_reserved": 0}, {"lon": -77.05694133333333, "bike_id": "e6941481889919c7e0a496c7a27d43f5", "lat": 38.937182, "fusion_lon": 0.0, "fusion_lat": 0.0, "type": "electric_scooter", "name": "e6941481889919c7e0a496c7a27d43f5", "is_disabled": 0, "rental_uris": {"ios": "https://dc.lft.to/lastmile_qr_scan", "android": "https://dc.lft.to/lastmile_qr_scan"}, "is_reserved": 0}, {"lon": -77.00629583333334, "bike_id": "f44212685881ffd6d7dd81951713eb7a", "lat": 38.91259766666667, "fusion_lon": 0.0, "fusion_lat": 0.0, "type": "electric_scooter", "name": "f44212685881ffd6d7dd81951713eb7a", "is_disabled": 0, "rental_uris": {"ios": "https://dc.lft.to/lastmile_qr_scan", "android": "https://dc.lft.to/lastmile_qr_scan"}, "is_reserved": 0}, {"lon": -77.0552235, "bike_id": "75c90cb28245af5b6c0f498dab359598", "lat": 38.899522833333336, "fusion_lon": 0.0, "fusion_lat": 0.0, "type": "electric_scooter", "name": "75c90cb28245af5b6c0f498dab359598", "is_disabled": 0, "rental_uris": {"ios": "https://dc.lft.to/lastmile_qr_scan", "android": "https://dc.lft.to/lastmile_qr_scan"}, "is_reserved": 0}, {"lon": -77.10491733333333, "bike_id": "926c1ba858fcceff17d7e1fe94c81bcc", "lat": 38.85603616666667, "fusion_lon": 0.0, "fusion_lat": 0.0, "type": "electric_bike", "name": "926c1ba858fcceff17d7e1fe94c81bcc", "is_disabled": 0, "rental_uris": {"ios": "https://dc.lft.to/lastmile_qr_scan", "android": "https://dc.lft.to/lastmile_qr_scan"}, "is_reserved": 0}, {"lon": -76.9823155, "bike_id": "1c9cfd2e479016633c5d07df198cf28d", "lat": 38.886478833333335, "fusion_lon": 0.0, "fusion_lat": 0.0, "type": "electric_scooter", "name": "1c9cfd2e479016633c5d07df198cf28d", "is_disabled": 0, "rental_uris": {"ios": "https://dc.lft.to/lastmile_qr_scan", "android": "https://dc.lft.to/lastmile_qr_scan"}, "is_reserved": 0}, {"lon": -77.0572595, "bike_id": "097e626feea06648e7cfc2ab13772c6a", "lat": 38.93366283333334, "fusion_lon": 0.0, "fusion_lat": 0.0, "type": "electric_scooter", "name": "097e626feea06648e7cfc2ab13772c6a", "is_disabled": 0, "rental_uris": {"ios": "https://dc.lft.to/lastmile_qr_scan", "android": "https://dc.lft.to/lastmile_qr_scan"}, "is_reserved": 0}, {"lon": -76.99532383333333, "bike_id": "602bd30de9b2c331b015e2df5d904f0d", "lat": 38.883626666666665, "fusion_lon": 0.0, "fusion_lat": 0.0, "type": "electric_scooter", "name": "602bd30de9b2c331b015e2df5d904f0d", "is_disabled": 0, "rental_uris": {"ios": "https://dc.lft.to/lastmile_qr_scan", "android": "https://dc.lft.to/lastmile_qr_scan"}, "is_reserved": 0}, {"lon": -77.04407583333334, "bike_id": "3451f896f57a4604432b42c684af3b26", "lat": 38.92125983333333, "fusion_lon": 0.0, "fusion_lat": 0.0, "type": "electric_scooter", "name": "3451f896f57a4604432b42c684af3b26", "is_disabled": 0, "rental_uris": {"ios": "https://dc.lft.to/lastmile_qr_scan", "android": "https://dc.lft.to/lastmile_qr_scan"}, "is_reserved": 0}, {"lon": -77.00054816666666, "bike_id": "d3c5987b6f0876091ab407b0905c2d90", "lat": 38.894919, "fusion_lon": 0.0, "fusion_lat": 0.0, "type": "electric_scooter", "name": "d3c5987b6f0876091ab407b0905c2d90", "is_disabled": 0, "rental_uris": {"ios": "https://dc.lft.to/lastmile_qr_scan", "android": "https://dc.lft.to/lastmile_qr_scan"}, "is_reserved": 0}, {"lon": -76.995105, "bike_id": "bbbaf40ce47df4ffc2307bf86ced4ede", "lat": 38.8778005, "fusion_lon": 0.0, "fusion_lat": 0.0, "type": "electric_scooter", "name": "bbbaf40ce47df4ffc2307bf86ced4ede", "is_disabled": 0, "rental_uris": {"ios": "https://dc.lft.to/lastmile_qr_scan", "android": "https://dc.lft.to/lastmile_qr_scan"}, "is_reserved": 0}, {"lon": -77.03760816666667, "bike_id": "7c67ca4ddb40db0fe40c0c6fcad1cb16", "lat": 38.90783166666667, "fusion_lon": 0.0, "fusion_lat": 0.0, "type": "electric_scooter", "name": "7c67ca4ddb40db0fe40c0c6fcad1cb16", "is_disabled": 0, "rental_uris": {"ios": "https://dc.lft.to/lastmile_qr_scan", "android": "https://dc.lft.to/lastmile_qr_scan"}, "is_reserved": 0}, {"lon": -77.03097683333333, "bike_id": "eef3b48e0fb8801f07c3eaf4671d0165", "lat": 38.92862616666667, "fusion_lon": 0.0, "fusion_lat": 0.0, "type": "electric_scooter", "name": "eef3b48e0fb8801f07c3eaf4671d0165", "is_disabled": 0, "rental_uris": {"ios": "https://dc.lft.to/lastmile_qr_scan", "android": "https://dc.lft.to/lastmile_qr_scan"}, "is_reserved": 0}, {"lon": -77.01214, "bike_id": "b89535bd89a18830e6254e8a4a6720ee", "lat": 38.92123333333333, "fusion_lon": 0.0, "fusion_lat": 0.0, "type": "electric_scooter", "name": "b89535bd89a18830e6254e8a4a6720ee", "is_disabled": 0, "rental_uris": {"ios": "https://dc.lft.to/lastmile_qr_scan", "android": "https://dc.lft.to/lastmile_qr_scan"}, "is_reserved": 0}, {"lon": -77.0317965, "bike_id": "e81816dbca82d4e815399b13800ea186", "lat": 38.93691483333333, "fusion_lon": 0.0, "fusion_lat": 0.0, "type": "electric_scooter", "name": "e81816dbca82d4e815399b13800ea186", "is_disabled": 0, "rental_uris": {"ios": "https://dc.lft.to/lastmile_qr_scan", "android": "https://dc.lft.to/lastmile_qr_scan"}, "is_reserved": 0}, {"lon": -77.02573033333333, "bike_id": "e12f115cef6f4eab5117fbb57b45ab02", "lat": 38.93081983333333, "fusion_lon": 0.0, "fusion_lat": 0.0, "type": "electric_scooter", "name": "e12f115cef6f4eab5117fbb57b45ab02", "is_disabled": 0, "rental_uris": {"ios": "https://dc.lft.to/lastmile_qr_scan", "android": "https://dc.lft.to/lastmile_qr_scan"}, "is_reserved": 0}, {"lon": -77.07259466666666, "bike_id": "9eebe13a191d92a24352ba0c147ac827", "lat": 38.93463666666667, "fusion_lon": 0.0, "fusion_lat": 0.0, "type": "electric_scooter", "name": "9eebe13a191d92a24352ba0c147ac827", "is_disabled": 0, "rental_uris": {"ios": "https://dc.lft.to/lastmile_qr_scan", "android": "https://dc.lft.to/lastmile_qr_scan"}, "is_reserved": 0}, {"lon": -77.05158233333333, "bike_id": "0c13bc16dc52b80b0bc921f5c2e3b474", "lat": 39.0430245, "fusion_lon": 0.0, "fusion_lat": 0.0, "type": "electric_bike", "name": "0c13bc16dc52b80b0bc921f5c2e3b474", "is_disabled": 0, "rental_uris": {"ios": "https://dc.lft.to/lastmile_qr_scan", "android": "https://dc.lft.to/lastmile_qr_scan"}, "is_reserved": 0}, {"lon": -77.0187375, "bike_id": "e67ef5c2451ed9fdd6de1589bfbde72b", "lat": 38.91825, "fusion_lon": 0.0, "fusion_lat": 0.0, "type": "electric_scooter", "name": "e67ef5c2451ed9fdd6de1589bfbde72b", "is_disabled": 0, "rental_uris": {"ios": "https://dc.lft.to/lastmile_qr_scan", "android": "https://dc.lft.to/lastmile_qr_scan"}, "is_reserved": 0}, {"lon": -77.04245833333333, "bike_id": "d47f5c48aea66129e0ba48418a794a92", "lat": 38.916490833333334, "fusion_lon": 0.0, "fusion_lat": 0.0, "type": "electric_scooter", "name": "d47f5c48aea66129e0ba48418a794a92", "is_disabled": 0, "rental_uris": {"ios": "https://dc.lft.to/lastmile_qr_scan", "android": "https://dc.lft.to/lastmile_qr_scan"}, "is_reserved": 0}, {"lon": -77.02946233333333, "bike_id": "8ca2085adba31c44a0ac3da2c21892e4", "lat": 38.907359666666665, "fusion_lon": 0.0, "fusion_lat": 0.0, "type": "electric_scooter", "name": "8ca2085adba31c44a0ac3da2c21892e4", "is_disabled": 0, "rental_uris": {"ios": "https://dc.lft.to/lastmile_qr_scan", "android": "https://dc.lft.to/lastmile_qr_scan"}, "is_reserved": 0}, {"lon": -77.00589616666667, "bike_id": "6ac2678d70b8aa0bb231f7081c562e98", "lat": 38.90560266666667, "fusion_lon": 0.0, "fusion_lat": 0.0, "type": "electric_scooter", "name": "6ac2678d70b8aa0bb231f7081c562e98", "is_disabled": 0, "rental_uris": {"ios": "https://dc.lft.to/lastmile_qr_scan", "android": "https://dc.lft.to/lastmile_qr_scan"}, "is_reserved": 0}, {"lon": -77.05611266666666, "bike_id": "de87d507d24a6313fdc2d5f1d9fa93ac", "lat": 38.93162233333334, "fusion_lon": 0.0, "fusion_lat": 0.0, "type": "electric_scooter", "name": "de87d507d24a6313fdc2d5f1d9fa93ac", "is_disabled": 0, "rental_uris": {"ios": "https://dc.lft.to/lastmile_qr_scan", "android": "https://dc.lft.to/lastmile_qr_scan"}, "is_reserved": 0}, {"lon": -77.00335533333333, "bike_id": "3f155645269d162dd836921f6a0cf582", "lat": 38.891907333333336, "fusion_lon": 0.0, "fusion_lat": 0.0, "type": "electric_scooter", "name": "3f155645269d162dd836921f6a0cf582", "is_disabled": 0, "rental_uris": {"ios": "https://dc.lft.to/lastmile_qr_scan", "android": "https://dc.lft.to/lastmile_qr_scan"}, "is_reserved": 0}, {"lon": -76.98377766666667, "bike_id": "be967b73e743e611af9defd1c64716c9", "lat": 38.89138466666667, "fusion_lon": 0.0, "fusion_lat": 0.0, "type": "electric_scooter", "name": "be967b73e743e611af9defd1c64716c9", "is_disabled": 0, "rental_uris": {"ios": "https://dc.lft.to/lastmile_qr_scan", "android": "https://dc.lft.to/lastmile_qr_scan"}, "is_reserved": 0}, {"lon": -77.02386816666667, "bike_id": "d236b72a08440eb1bff9d1bb22167280", "lat": 38.9199095, "fusion_lon": 0.0, "fusion_lat": 0.0, "type": "electric_scooter", "name": "d236b72a08440eb1bff9d1bb22167280", "is_disabled": 0, "rental_uris": {"ios": "https://dc.lft.to/lastmile_qr_scan", "android": "https://dc.lft.to/lastmile_qr_scan"}, "is_reserved": 0}, {"lon": -76.98832183333333, "bike_id": "fde9d8c5fc9d82467d4d4e4dea2ef48c", "lat": 38.90084616666667, "fusion_lon": 0.0, "fusion_lat": 0.0, "type": "electric_scooter", "name": "fde9d8c5fc9d82467d4d4e4dea2ef48c", "is_disabled": 0, "rental_uris": {"ios": "https://dc.lft.to/lastmile_qr_scan", "android": "https://dc.lft.to/lastmile_qr_scan"}, "is_reserved": 0}, {"lon": -76.99481533333334, "bike_id": "c420b84446dd978560d2686df8dfce41", "lat": 38.862158666666666, "fusion_lon": 0.0, "fusion_lat": 0.0, "type": "electric_scooter", "name": "c420b84446dd978560d2686df8dfce41", "is_disabled": 0, "rental_uris": {"ios": "https://dc.lft.to/lastmile_qr_scan", "android": "https://dc.lft.to/lastmile_qr_scan"}, "is_reserved": 0}, {"lon": -77.06131333333333, "bike_id": "97c5f30e7f5b77ccb7d5a0f74c1bba28", "lat": 38.943703166666666, "fusion_lon": 0.0, "fusion_lat": 0.0, "type": "electric_scooter", "name": "97c5f30e7f5b77ccb7d5a0f74c1bba28", "is_disabled": 0, "rental_uris": {"ios": "https://dc.lft.to/lastmile_qr_scan", "android": "https://dc.lft.to/lastmile_qr_scan"}, "is_reserved": 0}, {"lon": -77.03185933333333, "bike_id": "d248c4fab145b78f3693036194478cef", "lat": 38.936110666666664, "fusion_lon": 0.0, "fusion_lat": 0.0, "type": "electric_scooter", "name": "d248c4fab145b78f3693036194478cef", "is_disabled": 0, "rental_uris": {"ios": "https://dc.lft.to/lastmile_qr_scan", "android": "https://dc.lft.to/lastmile_qr_scan"}, "is_reserved": 0}, {"lon": -77.03216733333333, "bike_id": "48591871bdd8e838c1e0af10ad8d2a4f", "lat": 38.8921705, "fusion_lon": 0.0, "fusion_lat": 0.0, "type": "electric_scooter", "name": "48591871bdd8e838c1e0af10ad8d2a4f", "is_disabled": 0, "rental_uris": {"ios": "https://dc.lft.to/lastmile_qr_scan", "android": "https://dc.lft.to/lastmile_qr_scan"}, "is_reserved": 0}, {"lon": -77.01528866666666, "bike_id": "36471a75a5ef3c97c1f7f81d4924132a", "lat": 38.8850245, "fusion_lon": 0.0, "fusion_lat": 0.0, "type": "electric_scooter", "name": "36471a75a5ef3c97c1f7f81d4924132a", "is_disabled": 0, "rental_uris": {"ios": "https://dc.lft.to/lastmile_qr_scan", "android": "https://dc.lft.to/lastmile_qr_scan"}, "is_reserved": 0}, {"lon": -77.03512616666667, "bike_id": "3d062618d6ef94ca6afe0ccd5725772a", "lat": 38.921496833333336, "fusion_lon": 0.0, "fusion_lat": 0.0, "type": "electric_scooter", "name": "3d062618d6ef94ca6afe0ccd5725772a", "is_disabled": 0, "rental_uris": {"ios": "https://dc.lft.to/lastmile_qr_scan", "android": "https://dc.lft.to/lastmile_qr_scan"}, "is_reserved": 0}, {"lon": -77.04180783333334, "bike_id": "fe68299f84c44544448712aa9ce39227", "lat": 38.90556183333333, "fusion_lon": 0.0, "fusion_lat": 0.0, "type": "electric_scooter", "name": "fe68299f84c44544448712aa9ce39227", "is_disabled": 0, "rental_uris": {"ios": "https://dc.lft.to/lastmile_qr_scan", "android": "https://dc.lft.to/lastmile_qr_scan"}, "is_reserved": 0}, {"lon": -77.04586283333333, "bike_id": "7ef895bd4e324660822aec82d61bbdc3", "lat": 38.91355716666666, "fusion_lon": 0.0, "fusion_lat": 0.0, "type": "electric_scooter", "name": "7ef895bd4e324660822aec82d61bbdc3", "is_disabled": 0, "rental_uris": {"ios": "https://dc.lft.to/lastmile_qr_scan", "android": "https://dc.lft.to/lastmile_qr_scan"}, "is_reserved": 0}, {"lon": -77.02402933333333, "bike_id": "8edf647cded010448f8f78baf7e1c67d", "lat": 38.9208545, "fusion_lon": 0.0, "fusion_lat": 0.0, "type": "electric_scooter", "name": "8edf647cded010448f8f78baf7e1c67d", "is_disabled": 0, "rental_uris": {"ios": "https://dc.lft.to/lastmile_qr_scan", "android": "https://dc.lft.to/lastmile_qr_scan"}, "is_reserved": 0}, {"lon": -77.0056285, "bike_id": "77edd2975064955fc71d0595edaa51ee", "lat": 38.90545083333333, "fusion_lon": 0.0, "fusion_lat": 0.0, "type": "electric_scooter", "name": "77edd2975064955fc71d0595edaa51ee", "is_disabled": 0, "rental_uris": {"ios": "https://dc.lft.to/lastmile_qr_scan", "android": "https://dc.lft.to/lastmile_qr_scan"}, "is_reserved": 0}, {"lon": -77.02180483333333, "bike_id": "9a5d58dc12eceaa4e3222bc75a70d92f", "lat": 38.893593, "fusion_lon": 0.0, "fusion_lat": 0.0, "type": "electric_scooter", "name": "9a5d58dc12eceaa4e3222bc75a70d92f", "is_disabled": 0, "rental_uris": {"ios": "https://dc.lft.to/lastmile_qr_scan", "android": "https://dc.lft.to/lastmile_qr_scan"}, "is_reserved": 0}, {"lon": -77.00006766666667, "bike_id": "48cb6f3cce8e127833ee3089882ba46d", "lat": 38.8974545, "fusion_lon": 0.0, "fusion_lat": 0.0, "type": "electric_scooter", "name": "48cb6f3cce8e127833ee3089882ba46d", "is_disabled": 0, "rental_uris": {"ios": "https://dc.lft.to/lastmile_qr_scan", "android": "https://dc.lft.to/lastmile_qr_scan"}, "is_reserved": 0}, {"lon": -77.108039, "bike_id": "4464b87b66bb6d2ae496923be4863749", "lat": 38.81204733333333, "fusion_lon": 0.0, "fusion_lat": 0.0, "type": "electric_bike", "name": "4464b87b66bb6d2ae496923be4863749", "is_disabled": 0, "rental_uris": {"ios": "https://dc.lft.to/lastmile_qr_scan", "android": "https://dc.lft.to/lastmile_qr_scan"}, "is_reserved": 0}, {"lon": -76.97422416666667, "bike_id": "8f4ee8cda53528d7653cc46f5523df81", "lat": 38.90393683333333, "fusion_lon": 0.0, "fusion_lat": 0.0, "type": "electric_scooter", "name": "8f4ee8cda53528d7653cc46f5523df81", "is_disabled": 0, "rental_uris": {"ios": "https://dc.lft.to/lastmile_qr_scan", "android": "https://dc.lft.to/lastmile_qr_scan"}, "is_reserved": 0}, {"lon": -77.03343433333333, "bike_id": "30331630a524dc4949b1699e0db025f8", "lat": 38.90700983333333, "fusion_lon": 0.0, "fusion_lat": 0.0, "type": "electric_scooter", "name": "30331630a524dc4949b1699e0db025f8", "is_disabled": 0, "rental_uris": {"ios": "https://dc.lft.to/lastmile_qr_scan", "android": "https://dc.lft.to/lastmile_qr_scan"}, "is_reserved": 0}, {"lon": -77.03164266666667, "bike_id": "878ec229187ca790452cd81cf73a7014", "lat": 38.902941, "fusion_lon": 0.0, "fusion_lat": 0.0, "type": "electric_scooter", "name": "878ec229187ca790452cd81cf73a7014", "is_disabled": 0, "rental_uris": {"ios": "https://dc.lft.to/lastmile_qr_scan", "android": "https://dc.lft.to/lastmile_qr_scan"}, "is_reserved": 0}, {"lon": -77.03439, "bike_id": "0192de5fc677d0e830fe40a2d9b853da", "lat": 38.909768, "fusion_lon": 0.0, "fusion_lat": 0.0, "type": "electric_scooter", "name": "0192de5fc677d0e830fe40a2d9b853da", "is_disabled": 0, "rental_uris": {"ios": "https://dc.lft.to/lastmile_qr_scan", "android": "https://dc.lft.to/lastmile_qr_scan"}, "is_reserved": 0}, {"lon": -77.02703416666667, "bike_id": "fe495f5587616533e5d5ea0f5c306f19", "lat": 38.906623, "fusion_lon": 0.0, "fusion_lat": 0.0, "type": "electric_scooter", "name": "fe495f5587616533e5d5ea0f5c306f19", "is_disabled": 0, "rental_uris": {"ios": "https://dc.lft.to/lastmile_qr_scan", "android": "https://dc.lft.to/lastmile_qr_scan"}, "is_reserved": 0}, {"lon": -77.018899, "bike_id": "23622cd19d64e39f83c18c7bb33194c9", "lat": 38.874632166666665, "fusion_lon": 0.0, "fusion_lat": 0.0, "type": "electric_scooter", "name": "23622cd19d64e39f83c18c7bb33194c9", "is_disabled": 0, "rental_uris": {"ios": "https://dc.lft.to/lastmile_qr_scan", "android": "https://dc.lft.to/lastmile_qr_scan"}, "is_reserved": 0}, {"lon": -77.002563, "bike_id": "599f05e6006194551729f5abb0a9b010", "lat": 38.918207833333334, "fusion_lon": 0.0, "fusion_lat": 0.0, "type": "electric_scooter", "name": "599f05e6006194551729f5abb0a9b010", "is_disabled": 0, "rental_uris": {"ios": "https://dc.lft.to/lastmile_qr_scan", "android": "https://dc.lft.to/lastmile_qr_scan"}, "is_reserved": 0}, {"lon": -77.04036, "bike_id": "1348bc6033b97d89d93ddd7c9565e440", "lat": 38.90008666666667, "fusion_lon": 0.0, "fusion_lat": 0.0, "type": "electric_scooter", "name": "1348bc6033b97d89d93ddd7c9565e440", "is_disabled": 0, "rental_uris": {"ios": "https://dc.lft.to/lastmile_qr_scan", "android": "https://dc.lft.to/lastmile_qr_scan"}, "is_reserved": 0}, {"lon": -77.00104066666667, "bike_id": "3e7a743e48993de8e80852830f6eeb4c", "lat": 38.9169925, "fusion_lon": 0.0, "fusion_lat": 0.0, "type": "electric_scooter", "name": "3e7a743e48993de8e80852830f6eeb4c", "is_disabled": 0, "rental_uris": {"ios": "https://dc.lft.to/lastmile_qr_scan", "android": "https://dc.lft.to/lastmile_qr_scan"}, "is_reserved": 0}, {"lon": -77.0327145, "bike_id": "5a537d60e6938b18d9a7a59a0f92f525", "lat": 38.93254966666667, "fusion_lon": 0.0, "fusion_lat": 0.0, "type": "electric_scooter", "name": "5a537d60e6938b18d9a7a59a0f92f525", "is_disabled": 0, "rental_uris": {"ios": "https://dc.lft.to/lastmile_qr_scan", "android": "https://dc.lft.to/lastmile_qr_scan"}, "is_reserved": 0}, {"lon": -77.03714516666666, "bike_id": "957eae7e782ea4de3657764944afff0b", "lat": 38.914793, "fusion_lon": 0.0, "fusion_lat": 0.0, "type": "electric_scooter", "name": "957eae7e782ea4de3657764944afff0b", "is_disabled": 0, "rental_uris": {"ios": "https://dc.lft.to/lastmile_qr_scan", "android": "https://dc.lft.to/lastmile_qr_scan"}, "is_reserved": 0}, {"lon": -77.06420716666666, "bike_id": "a28553903d20391d397c81ac4e17e47b", "lat": 38.90883133333333, "fusion_lon": 0.0, "fusion_lat": 0.0, "type": "electric_scooter", "name": "a28553903d20391d397c81ac4e17e47b", "is_disabled": 0, "rental_uris": {"ios": "https://dc.lft.to/lastmile_qr_scan", "android": "https://dc.lft.to/lastmile_qr_scan"}, "is_reserved": 0}, {"lon": -77.03406416666667, "bike_id": "61d90913cb6c8f7fe317cce5bd627db7", "lat": 38.960288, "fusion_lon": 0.0, "fusion_lat": 0.0, "type": "electric_bike", "name": "61d90913cb6c8f7fe317cce5bd627db7", "is_disabled": 0, "rental_uris": {"ios": "https://dc.lft.to/lastmile_qr_scan", "android": "https://dc.lft.to/lastmile_qr_scan"}, "is_reserved": 0}, {"lon": -76.99851633333333, "bike_id": "6fe94baff1c0ec057c8f4814fac709cf", "lat": 38.8415925, "fusion_lon": 0.0, "fusion_lat": 0.0, "type": "electric_scooter", "name": "6fe94baff1c0ec057c8f4814fac709cf", "is_disabled": 0, "rental_uris": {"ios": "https://dc.lft.to/lastmile_qr_scan", "android": "https://dc.lft.to/lastmile_qr_scan"}, "is_reserved": 0}, {"lon": -77.02474916666667, "bike_id": "3e57a0ae8c0faf87cd0e6e0bd5963561", "lat": 38.93847183333333, "fusion_lon": 0.0, "fusion_lat": 0.0, "type": "electric_scooter", "name": "3e57a0ae8c0faf87cd0e6e0bd5963561", "is_disabled": 0, "rental_uris": {"ios": "https://dc.lft.to/lastmile_qr_scan", "android": "https://dc.lft.to/lastmile_qr_scan"}, "is_reserved": 0}, {"lon": -77.00283183333333, "bike_id": "fd379a6f505a6efcff88e1049cbb8540", "lat": 38.957120333333336, "fusion_lon": 0.0, "fusion_lat": 0.0, "type": "electric_bike", "name": "fd379a6f505a6efcff88e1049cbb8540", "is_disabled": 0, "rental_uris": {"ios": "https://dc.lft.to/lastmile_qr_scan", "android": "https://dc.lft.to/lastmile_qr_scan"}, "is_reserved": 0}, {"lon": -77.05770283333334, "bike_id": "e171fdc76d3bf25e183d70ffdad6325b", "lat": 38.93613166666667, "fusion_lon": 0.0, "fusion_lat": 0.0, "type": "electric_scooter", "name": "e171fdc76d3bf25e183d70ffdad6325b", "is_disabled": 0, "rental_uris": {"ios": "https://dc.lft.to/lastmile_qr_scan", "android": "https://dc.lft.to/lastmile_qr_scan"}, "is_reserved": 0}, {"lon": -77.0020905, "bike_id": "3df068cd591ac02f7bdebce54a5716da", "lat": 38.90036416666667, "fusion_lon": 0.0, "fusion_lat": 0.0, "type": "electric_scooter", "name": "3df068cd591ac02f7bdebce54a5716da", "is_disabled": 0, "rental_uris": {"ios": "https://dc.lft.to/lastmile_qr_scan", "android": "https://dc.lft.to/lastmile_qr_scan"}, "is_reserved": 0}, {"lon": -77.0450715, "bike_id": "f5692b378577c5c8cd48b69c343d94e0", "lat": 38.9110515, "fusion_lon": 0.0, "fusion_lat": 0.0, "type": "electric_scooter", "name": "f5692b378577c5c8cd48b69c343d94e0", "is_disabled": 0, "rental_uris": {"ios": "https://dc.lft.to/lastmile_qr_scan", "android": "https://dc.lft.to/lastmile_qr_scan"}, "is_reserved": 0}, {"lon": -77.03417266666666, "bike_id": "5099165441eae66aa0d50684560454f7", "lat": 38.92739266666667, "fusion_lon": 0.0, "fusion_lat": 0.0, "type": "electric_scooter", "name": "5099165441eae66aa0d50684560454f7", "is_disabled": 0, "rental_uris": {"ios": "https://dc.lft.to/lastmile_qr_scan", "android": "https://dc.lft.to/lastmile_qr_scan"}, "is_reserved": 0}, {"lon": -77.03299783333334, "bike_id": "e18ac0cc1e073aa91831670edd38846a", "lat": 38.911100166666664, "fusion_lon": 0.0, "fusion_lat": 0.0, "type": "electric_scooter", "name": "e18ac0cc1e073aa91831670edd38846a", "is_disabled": 0, "rental_uris": {"ios": "https://dc.lft.to/lastmile_qr_scan", "android": "https://dc.lft.to/lastmile_qr_scan"}, "is_reserved": 0}, {"lon": -77.02718016666667, "bike_id": "fa6f0423807f62e200013a27138a57ab", "lat": 38.934767666666666, "fusion_lon": 0.0, "fusion_lat": 0.0, "type": "electric_scooter", "name": "fa6f0423807f62e200013a27138a57ab", "is_disabled": 0, "rental_uris": {"ios": "https://dc.lft.to/lastmile_qr_scan", "android": "https://dc.lft.to/lastmile_qr_scan"}, "is_reserved": 0}, {"lon": -77.12493583333334, "bike_id": "ababece8e462877e1d67629feaa779bc", "lat": 38.8278765, "fusion_lon": 0.0, "fusion_lat": 0.0, "type": "electric_bike", "name": "ababece8e462877e1d67629feaa779bc", "is_disabled": 0, "rental_uris": {"ios": "https://dc.lft.to/lastmile_qr_scan", "android": "https://dc.lft.to/lastmile_qr_scan"}, "is_reserved": 0}, {"lon": -76.96583616666666, "bike_id": "d663a2184ead2d885a1162ab6a97144f", "lat": 38.8713155, "fusion_lon": 0.0, "fusion_lat": 0.0, "type": "electric_scooter", "name": "d663a2184ead2d885a1162ab6a97144f", "is_disabled": 0, "rental_uris": {"ios": "https://dc.lft.to/lastmile_qr_scan", "android": "https://dc.lft.to/lastmile_qr_scan"}, "is_reserved": 0}, {"lon": -76.9961185, "bike_id": "f27af66a97f95771fb8735d317433d1c", "lat": 38.88714066666667, "fusion_lon": 0.0, "fusion_lat": 0.0, "type": "electric_scooter", "name": "f27af66a97f95771fb8735d317433d1c", "is_disabled": 0, "rental_uris": {"ios": "https://dc.lft.to/lastmile_qr_scan", "android": "https://dc.lft.to/lastmile_qr_scan"}, "is_reserved": 0}, {"lon": -77.04321866666666, "bike_id": "ebe84c68597d9ac6628a9b94576f46e8", "lat": 38.918754, "fusion_lon": 0.0, "fusion_lat": 0.0, "type": "electric_scooter", "name": "ebe84c68597d9ac6628a9b94576f46e8", "is_disabled": 0, "rental_uris": {"ios": "https://dc.lft.to/lastmile_qr_scan", "android": "https://dc.lft.to/lastmile_qr_scan"}, "is_reserved": 0}, {"lon": -76.9927375, "bike_id": "09b864f3c72f532bc18de1a01fc6a252", "lat": 38.897656166666664, "fusion_lon": 0.0, "fusion_lat": 0.0, "type": "electric_scooter", "name": "09b864f3c72f532bc18de1a01fc6a252", "is_disabled": 0, "rental_uris": {"ios": "https://dc.lft.to/lastmile_qr_scan", "android": "https://dc.lft.to/lastmile_qr_scan"}, "is_reserved": 0}, {"lon": -76.98331183333333, "bike_id": "ed11c65541223e7c0c11a41e35a42420", "lat": 38.9008775, "fusion_lon": 0.0, "fusion_lat": 0.0, "type": "electric_scooter", "name": "ed11c65541223e7c0c11a41e35a42420", "is_disabled": 0, "rental_uris": {"ios": "https://dc.lft.to/lastmile_qr_scan", "android": "https://dc.lft.to/lastmile_qr_scan"}, "is_reserved": 0}, {"lon": -76.94891833333334, "bike_id": "74ff6235b8c119fa58d2cec971a2d274", "lat": 38.895327333333334, "fusion_lon": 0.0, "fusion_lat": 0.0, "type": "electric_scooter", "name": "74ff6235b8c119fa58d2cec971a2d274", "is_disabled": 0, "rental_uris": {"ios": "https://dc.lft.to/lastmile_qr_scan", "android": "https://dc.lft.to/lastmile_qr_scan"}, "is_reserved": 0}, {"lon": -77.03188133333333, "bike_id": "4c5d7799554f7cf17b6bd9c1e0f39dd5", "lat": 38.91912383333333, "fusion_lon": 0.0, "fusion_lat": 0.0, "type": "electric_scooter", "name": "4c5d7799554f7cf17b6bd9c1e0f39dd5", "is_disabled": 0, "rental_uris": {"ios": "https://dc.lft.to/lastmile_qr_scan", "android": "https://dc.lft.to/lastmile_qr_scan"}, "is_reserved": 0}, {"lon": -77.00280983333333, "bike_id": "f87bb02d521326faca73b70750354677", "lat": 38.9521465, "fusion_lon": 0.0, "fusion_lat": 0.0, "type": "electric_bike", "name": "f87bb02d521326faca73b70750354677", "is_disabled": 0, "rental_uris": {"ios": "https://dc.lft.to/lastmile_qr_scan", "android": "https://dc.lft.to/lastmile_qr_scan"}, "is_reserved": 0}, {"lon": -77.0183465, "bike_id": "05354de7fe2edf54435b4e70d267d9e8", "lat": 38.90146516666667, "fusion_lon": 0.0, "fusion_lat": 0.0, "type": "electric_scooter", "name": "05354de7fe2edf54435b4e70d267d9e8", "is_disabled": 0, "rental_uris": {"ios": "https://dc.lft.to/lastmile_qr_scan", "android": "https://dc.lft.to/lastmile_qr_scan"}, "is_reserved": 0}, {"lon": -77.08821233333333, "bike_id": "fe3b6c0361e0a37499792437ff7ee590", "lat": 38.90968183333333, "fusion_lon": 0.0, "fusion_lat": 0.0, "type": "electric_scooter", "name": "fe3b6c0361e0a37499792437ff7ee590", "is_disabled": 0, "rental_uris": {"ios": "https://dc.lft.to/lastmile_qr_scan", "android": "https://dc.lft.to/lastmile_qr_scan"}, "is_reserved": 0}, {"lon": -77.00206616666667, "bike_id": "1edcf7e8e560488b3caf979f485bbd93", "lat": 38.900351, "fusion_lon": 0.0, "fusion_lat": 0.0, "type": "electric_scooter", "name": "1edcf7e8e560488b3caf979f485bbd93", "is_disabled": 0, "rental_uris": {"ios": "https://dc.lft.to/lastmile_qr_scan", "android": "https://dc.lft.to/lastmile_qr_scan"}, "is_reserved": 0}, {"lon": -77.02401383333333, "bike_id": "f4778efb6a9478384183da578820a0fb", "lat": 38.90985283333333, "fusion_lon": 0.0, "fusion_lat": 0.0, "type": "electric_scooter", "name": "f4778efb6a9478384183da578820a0fb", "is_disabled": 0, "rental_uris": {"ios": "https://dc.lft.to/lastmile_qr_scan", "android": "https://dc.lft.to/lastmile_qr_scan"}, "is_reserved": 0}, {"lon": -77.02088983333333, "bike_id": "d5a55bf9f537fb4f3f3ced54db31fc88", "lat": 38.92916016666667, "fusion_lon": 0.0, "fusion_lat": 0.0, "type": "electric_scooter", "name": "d5a55bf9f537fb4f3f3ced54db31fc88", "is_disabled": 0, "rental_uris": {"ios": "https://dc.lft.to/lastmile_qr_scan", "android": "https://dc.lft.to/lastmile_qr_scan"}, "is_reserved": 0}, {"lon": -77.0635995, "bike_id": "761ba3daf76e315fe1ce0385a436c686", "lat": 38.907867333333336, "fusion_lon": 0.0, "fusion_lat": 0.0, "type": "electric_scooter", "name": "761ba3daf76e315fe1ce0385a436c686", "is_disabled": 0, "rental_uris": {"ios": "https://dc.lft.to/lastmile_qr_scan", "android": "https://dc.lft.to/lastmile_qr_scan"}, "is_reserved": 0}, {"lon": -76.97562016666667, "bike_id": "e4d6de8e2d6489fd430b92bfb0e9db95", "lat": 38.92460766666667, "fusion_lon": 0.0, "fusion_lat": 0.0, "type": "electric_bike", "name": "e4d6de8e2d6489fd430b92bfb0e9db95", "is_disabled": 0, "rental_uris": {"ios": "https://dc.lft.to/lastmile_qr_scan", "android": "https://dc.lft.to/lastmile_qr_scan"}, "is_reserved": 0}, {"lon": -77.023302, "bike_id": "9e264d598c774f1913b120a5b26f50ba", "lat": 38.93535766666667, "fusion_lon": 0.0, "fusion_lat": 0.0, "type": "electric_scooter", "name": "9e264d598c774f1913b120a5b26f50ba", "is_disabled": 0, "rental_uris": {"ios": "https://dc.lft.to/lastmile_qr_scan", "android": "https://dc.lft.to/lastmile_qr_scan"}, "is_reserved": 0}, {"lon": -76.95016316666667, "bike_id": "adcb6703fb1b35ce21221507edf21bcb", "lat": 38.89376633333333, "fusion_lon": 0.0, "fusion_lat": 0.0, "type": "electric_scooter", "name": "adcb6703fb1b35ce21221507edf21bcb", "is_disabled": 0, "rental_uris": {"ios": "https://dc.lft.to/lastmile_qr_scan", "android": "https://dc.lft.to/lastmile_qr_scan"}, "is_reserved": 0}, {"lon": -77.03263683333333, "bike_id": "589cc4654e51d7941893c4cd4e7110d6", "lat": 38.937743, "fusion_lon": 0.0, "fusion_lat": 0.0, "type": "electric_scooter", "name": "589cc4654e51d7941893c4cd4e7110d6", "is_disabled": 0, "rental_uris": {"ios": "https://dc.lft.to/lastmile_qr_scan", "android": "https://dc.lft.to/lastmile_qr_scan"}, "is_reserved": 0}, {"lon": -77.03260983333334, "bike_id": "ae1668594f715e2ba1f54037d4bb19fd", "lat": 38.93134283333333, "fusion_lon": 0.0, "fusion_lat": 0.0, "type": "electric_scooter", "name": "ae1668594f715e2ba1f54037d4bb19fd", "is_disabled": 0, "rental_uris": {"ios": "https://dc.lft.to/lastmile_qr_scan", "android": "https://dc.lft.to/lastmile_qr_scan"}, "is_reserved": 0}, {"lon": -77.01564316666666, "bike_id": "fc62cb5736d0e9969faad88fbb55354d", "lat": 38.8831355, "fusion_lon": 0.0, "fusion_lat": 0.0, "type": "electric_scooter", "name": "fc62cb5736d0e9969faad88fbb55354d", "is_disabled": 0, "rental_uris": {"ios": "https://dc.lft.to/lastmile_qr_scan", "android": "https://dc.lft.to/lastmile_qr_scan"}, "is_reserved": 0}, {"lon": -77.0143885, "bike_id": "ad7abd17790ae27f1cdc21b2234894ca", "lat": 38.905384, "fusion_lon": 0.0, "fusion_lat": 0.0, "type": "electric_scooter", "name": "ad7abd17790ae27f1cdc21b2234894ca", "is_disabled": 0, "rental_uris": {"ios": "https://dc.lft.to/lastmile_qr_scan", "android": "https://dc.lft.to/lastmile_qr_scan"}, "is_reserved": 0}, {"lon": -76.97859583333333, "bike_id": "52509be9cfc2ff44b43079afe8c7a3de", "lat": 38.90724, "fusion_lon": 0.0, "fusion_lat": 0.0, "type": "electric_scooter", "name": "52509be9cfc2ff44b43079afe8c7a3de", "is_disabled": 0, "rental_uris": {"ios": "https://dc.lft.to/lastmile_qr_scan", "android": "https://dc.lft.to/lastmile_qr_scan"}, "is_reserved": 0}, {"lon": -77.01099633333334, "bike_id": "8389d9ecb97fe92ff6d817e48451bbef", "lat": 38.9083935, "fusion_lon": 0.0, "fusion_lat": 0.0, "type": "electric_scooter", "name": "8389d9ecb97fe92ff6d817e48451bbef", "is_disabled": 0, "rental_uris": {"ios": "https://dc.lft.to/lastmile_qr_scan", "android": "https://dc.lft.to/lastmile_qr_scan"}, "is_reserved": 0}, {"lon": -76.9975665, "bike_id": "de971c2aeec59970e1605c08db4c5023", "lat": 38.950115833333335, "fusion_lon": 0.0, "fusion_lat": 0.0, "type": "electric_bike", "name": "de971c2aeec59970e1605c08db4c5023", "is_disabled": 0, "rental_uris": {"ios": "https://dc.lft.to/lastmile_qr_scan", "android": "https://dc.lft.to/lastmile_qr_scan"}, "is_reserved": 0}, {"lon": -77.02386183333333, "bike_id": "410a3a0e2377b27b0bffc63f087e82fa", "lat": 38.919902666666665, "fusion_lon": 0.0, "fusion_lat": 0.0, "type": "electric_scooter", "name": "410a3a0e2377b27b0bffc63f087e82fa", "is_disabled": 0, "rental_uris": {"ios": "https://dc.lft.to/lastmile_qr_scan", "android": "https://dc.lft.to/lastmile_qr_scan"}, "is_reserved": 0}, {"lon": -77.18563166666667, "bike_id": "b3c08881e2b4b00de93f120ab4b43520", "lat": 39.09976066666667, "fusion_lon": 0.0, "fusion_lat": 0.0, "type": "electric_bike", "name": "b3c08881e2b4b00de93f120ab4b43520", "is_disabled": 0, "rental_uris": {"ios": "https://dc.lft.to/lastmile_qr_scan", "android": "https://dc.lft.to/lastmile_qr_scan"}, "is_reserved": 0}, {"lon": -77.03169266666667, "bike_id": "5eb6146b37aa09f086d08f729ec87171", "lat": 38.93604916666666, "fusion_lon": 0.0, "fusion_lat": 0.0, "type": "electric_scooter", "name": "5eb6146b37aa09f086d08f729ec87171", "is_disabled": 0, "rental_uris": {"ios": "https://dc.lft.to/lastmile_qr_scan", "android": "https://dc.lft.to/lastmile_qr_scan"}, "is_reserved": 0}, {"lon": -77.031757, "bike_id": "3e50a8f097d4f3a0cd9f504e0074debe", "lat": 38.92892716666667, "fusion_lon": 0.0, "fusion_lat": 0.0, "type": "electric_scooter", "name": "3e50a8f097d4f3a0cd9f504e0074debe", "is_disabled": 0, "rental_uris": {"ios": "https://dc.lft.to/lastmile_qr_scan", "android": "https://dc.lft.to/lastmile_qr_scan"}, "is_reserved": 0}, {"lon": -77.03450983333333, "bike_id": "6e6d022e77be5dffc020d04c368b939c", "lat": 38.9100685, "fusion_lon": 0.0, "fusion_lat": 0.0, "type": "electric_scooter", "name": "6e6d022e77be5dffc020d04c368b939c", "is_disabled": 0, "rental_uris": {"ios": "https://dc.lft.to/lastmile_qr_scan", "android": "https://dc.lft.to/lastmile_qr_scan"}, "is_reserved": 0}, {"lon": -77.006564, "bike_id": "d41d2bd3261ee3270b8bfa1729ebfe31", "lat": 38.9446275, "fusion_lon": 0.0, "fusion_lat": 0.0, "type": "electric_scooter", "name": "d41d2bd3261ee3270b8bfa1729ebfe31", "is_disabled": 0, "rental_uris": {"ios": "https://dc.lft.to/lastmile_qr_scan", "android": "https://dc.lft.to/lastmile_qr_scan"}, "is_reserved": 0}, {"lon": -76.96260433333333, "bike_id": "1511e8e701032df1b0e227bf501f439a", "lat": 38.882470166666664, "fusion_lon": 0.0, "fusion_lat": 0.0, "type": "electric_bike", "name": "1511e8e701032df1b0e227bf501f439a", "is_disabled": 0, "rental_uris": {"ios": "https://dc.lft.to/lastmile_qr_scan", "android": "https://dc.lft.to/lastmile_qr_scan"}, "is_reserved": 0}, {"lon": -77.00212866666666, "bike_id": "cd865aa85974e0260e593e782487020f", "lat": 38.88129166666667, "fusion_lon": 0.0, "fusion_lat": 0.0, "type": "electric_scooter", "name": "cd865aa85974e0260e593e782487020f", "is_disabled": 0, "rental_uris": {"ios": "https://dc.lft.to/lastmile_qr_scan", "android": "https://dc.lft.to/lastmile_qr_scan"}, "is_reserved": 0}, {"lon": -77.0234385, "bike_id": "8cf492f8044a2cb9d1610cc1b8a348b3", "lat": 38.93533216666667, "fusion_lon": 0.0, "fusion_lat": 0.0, "type": "electric_scooter", "name": "8cf492f8044a2cb9d1610cc1b8a348b3", "is_disabled": 0, "rental_uris": {"ios": "https://dc.lft.to/lastmile_qr_scan", "android": "https://dc.lft.to/lastmile_qr_scan"}, "is_reserved": 0}, {"lon": -77.0444475, "bike_id": "51fec6bf39adbd464dc4ad88dc8c9883", "lat": 38.918781833333334, "fusion_lon": 0.0, "fusion_lat": 0.0, "type": "electric_scooter", "name": "51fec6bf39adbd464dc4ad88dc8c9883", "is_disabled": 0, "rental_uris": {"ios": "https://dc.lft.to/lastmile_qr_scan", "android": "https://dc.lft.to/lastmile_qr_scan"}, "is_reserved": 0}, {"lon": -77.02351983333334, "bike_id": "a15b2ae01875a94ae0f174eb7f9a89d2", "lat": 38.92065366666667, "fusion_lon": 0.0, "fusion_lat": 0.0, "type": "electric_scooter", "name": "a15b2ae01875a94ae0f174eb7f9a89d2", "is_disabled": 0, "rental_uris": {"ios": "https://dc.lft.to/lastmile_qr_scan", "android": "https://dc.lft.to/lastmile_qr_scan"}, "is_reserved": 0}, {"lon": -76.9335525, "bike_id": "243a9988addcb09b618810c7f6f3fd71", "lat": 38.8991065, "fusion_lon": 0.0, "fusion_lat": 0.0, "type": "electric_scooter", "name": "243a9988addcb09b618810c7f6f3fd71", "is_disabled": 0, "rental_uris": {"ios": "https://dc.lft.to/lastmile_qr_scan", "android": "https://dc.lft.to/lastmile_qr_scan"}, "is_reserved": 0}, {"lon": -77.02715433333333, "bike_id": "8a4a49bbeda5114642e508a5557e2c66", "lat": 38.9277015, "fusion_lon": 0.0, "fusion_lat": 0.0, "type": "electric_scooter", "name": "8a4a49bbeda5114642e508a5557e2c66", "is_disabled": 0, "rental_uris": {"ios": "https://dc.lft.to/lastmile_qr_scan", "android": "https://dc.lft.to/lastmile_qr_scan"}, "is_reserved": 0}, {"lon": -77.0230895, "bike_id": "1be80ada445f2ce91d5827303f3bf567", "lat": 38.9184135, "fusion_lon": 0.0, "fusion_lat": 0.0, "type": "electric_bike", "name": "1be80ada445f2ce91d5827303f3bf567", "is_disabled": 0, "rental_uris": {"ios": "https://dc.lft.to/lastmile_qr_scan", "android": "https://dc.lft.to/lastmile_qr_scan"}, "is_reserved": 0}, {"lon": -77.04791966666667, "bike_id": "96f2f9bc4337ccbe1979776fbe7afc1c", "lat": 38.90971183333333, "fusion_lon": 0.0, "fusion_lat": 0.0, "type": "electric_scooter", "name": "96f2f9bc4337ccbe1979776fbe7afc1c", "is_disabled": 0, "rental_uris": {"ios": "https://dc.lft.to/lastmile_qr_scan", "android": "https://dc.lft.to/lastmile_qr_scan"}, "is_reserved": 0}, {"lon": -76.933272, "bike_id": "b3792345d14897a371a562d089a00c0f", "lat": 38.91061333333333, "fusion_lon": 0.0, "fusion_lat": 0.0, "type": "electric_scooter", "name": "b3792345d14897a371a562d089a00c0f", "is_disabled": 0, "rental_uris": {"ios": "https://dc.lft.to/lastmile_qr_scan", "android": "https://dc.lft.to/lastmile_qr_scan"}, "is_reserved": 0}, {"lon": -76.92738966666667, "bike_id": "481e1592a00495e85fc84cad1b3968ac", "lat": 38.88963616666667, "fusion_lon": 0.0, "fusion_lat": 0.0, "type": "electric_scooter", "name": "481e1592a00495e85fc84cad1b3968ac", "is_disabled": 0, "rental_uris": {"ios": "https://dc.lft.to/lastmile_qr_scan", "android": "https://dc.lft.to/lastmile_qr_scan"}, "is_reserved": 0}, {"lon": -76.98553516666666, "bike_id": "c4936d67566aa70bd6dd03157a7bb558", "lat": 38.899488, "fusion_lon": 0.0, "fusion_lat": 0.0, "type": "electric_scooter", "name": "c4936d67566aa70bd6dd03157a7bb558", "is_disabled": 0, "rental_uris": {"ios": "https://dc.lft.to/lastmile_qr_scan", "android": "https://dc.lft.to/lastmile_qr_scan"}, "is_reserved": 0}, {"lon": -76.99108916666667, "bike_id": "209abc03d5e6bbd2a3c02577f822e68f", "lat": 38.90317066666667, "fusion_lon": 0.0, "fusion_lat": 0.0, "type": "electric_scooter", "name": "209abc03d5e6bbd2a3c02577f822e68f", "is_disabled": 0, "rental_uris": {"ios": "https://dc.lft.to/lastmile_qr_scan", "android": "https://dc.lft.to/lastmile_qr_scan"}, "is_reserved": 0}, {"lon": -76.98196083333333, "bike_id": "dec648e219373ce63bf57751eca0ce01", "lat": 38.92597833333333, "fusion_lon": 0.0, "fusion_lat": 0.0, "type": "electric_scooter", "name": "dec648e219373ce63bf57751eca0ce01", "is_disabled": 0, "rental_uris": {"ios": "https://dc.lft.to/lastmile_qr_scan", "android": "https://dc.lft.to/lastmile_qr_scan"}, "is_reserved": 0}, {"lon": -77.0481045, "bike_id": "5b2ac37174c79a549529a6946a75aa88", "lat": 38.907249166666666, "fusion_lon": 0.0, "fusion_lat": 0.0, "type": "electric_scooter", "name": "5b2ac37174c79a549529a6946a75aa88", "is_disabled": 0, "rental_uris": {"ios": "https://dc.lft.to/lastmile_qr_scan", "android": "https://dc.lft.to/lastmile_qr_scan"}, "is_reserved": 0}, {"lon": -77.12652716666666, "bike_id": "176323197310fd1c5b6aef8346bc0438", "lat": 38.815185, "fusion_lon": 0.0, "fusion_lat": 0.0, "type": "electric_bike", "name": "176323197310fd1c5b6aef8346bc0438", "is_disabled": 0, "rental_uris": {"ios": "https://dc.lft.to/lastmile_qr_scan", "android": "https://dc.lft.to/lastmile_qr_scan"}, "is_reserved": 0}, {"lon": -77.04637516666666, "bike_id": "60067d2b2ac3310da3cb7ed682ac4abf", "lat": 38.91900833333333, "fusion_lon": 0.0, "fusion_lat": 0.0, "type": "electric_scooter", "name": "60067d2b2ac3310da3cb7ed682ac4abf", "is_disabled": 0, "rental_uris": {"ios": "https://dc.lft.to/lastmile_qr_scan", "android": "https://dc.lft.to/lastmile_qr_scan"}, "is_reserved": 0}, {"lon": -77.04484366666667, "bike_id": "9bb33a49f796e58d9ec095b409dcb340", "lat": 38.91617516666667, "fusion_lon": 0.0, "fusion_lat": 0.0, "type": "electric_scooter", "name": "9bb33a49f796e58d9ec095b409dcb340", "is_disabled": 0, "rental_uris": {"ios": "https://dc.lft.to/lastmile_qr_scan", "android": "https://dc.lft.to/lastmile_qr_scan"}, "is_reserved": 0}, {"lon": -77.0220795, "bike_id": "895f55c3048f395f77b79c03a91070fc", "lat": 38.89480866666667, "fusion_lon": 0.0, "fusion_lat": 0.0, "type": "electric_scooter", "name": "895f55c3048f395f77b79c03a91070fc", "is_disabled": 0, "rental_uris": {"ios": "https://dc.lft.to/lastmile_qr_scan", "android": "https://dc.lft.to/lastmile_qr_scan"}, "is_reserved": 0}, {"lon": -76.9870845, "bike_id": "f92e31404c0d68da3559caae92342f0f", "lat": 38.866976, "fusion_lon": 0.0, "fusion_lat": 0.0, "type": "electric_scooter", "name": "f92e31404c0d68da3559caae92342f0f", "is_disabled": 0, "rental_uris": {"ios": "https://dc.lft.to/lastmile_qr_scan", "android": "https://dc.lft.to/lastmile_qr_scan"}, "is_reserved": 0}, {"lon": -77.02118833333333, "bike_id": "ce3af711e5e2fdc06165abc4e88ac555", "lat": 38.935727666666665, "fusion_lon": 0.0, "fusion_lat": 0.0, "type": "electric_bike", "name": "ce3af711e5e2fdc06165abc4e88ac555", "is_disabled": 0, "rental_uris": {"ios": "https://dc.lft.to/lastmile_qr_scan", "android": "https://dc.lft.to/lastmile_qr_scan"}, "is_reserved": 0}, {"lon": -77.0174055, "bike_id": "355dd6276783566114e928de2e43af43", "lat": 38.902226166666665, "fusion_lon": 0.0, "fusion_lat": 0.0, "type": "electric_scooter", "name": "355dd6276783566114e928de2e43af43", "is_disabled": 0, "rental_uris": {"ios": "https://dc.lft.to/lastmile_qr_scan", "android": "https://dc.lft.to/lastmile_qr_scan"}, "is_reserved": 0}, {"lon": -77.03033, "bike_id": "0e0c0dc070c15f6085c44e567f316ef7", "lat": 38.91687066666667, "fusion_lon": 0.0, "fusion_lat": 0.0, "type": "electric_scooter", "name": "0e0c0dc070c15f6085c44e567f316ef7", "is_disabled": 0, "rental_uris": {"ios": "https://dc.lft.to/lastmile_qr_scan", "android": "https://dc.lft.to/lastmile_qr_scan"}, "is_reserved": 0}, {"lon": -77.01208516666667, "bike_id": "0525c3a386dd9fc1a11df4fd26f0d98a", "lat": 38.9159445, "fusion_lon": 0.0, "fusion_lat": 0.0, "type": "electric_scooter", "name": "0525c3a386dd9fc1a11df4fd26f0d98a", "is_disabled": 0, "rental_uris": {"ios": "https://dc.lft.to/lastmile_qr_scan", "android": "https://dc.lft.to/lastmile_qr_scan"}, "is_reserved": 0}, {"lon": -76.98886216666666, "bike_id": "abe30aa8f09adcc3dd34944ed165f5ec", "lat": 38.8664605, "fusion_lon": 0.0, "fusion_lat": 0.0, "type": "electric_scooter", "name": "abe30aa8f09adcc3dd34944ed165f5ec", "is_disabled": 0, "rental_uris": {"ios": "https://dc.lft.to/lastmile_qr_scan", "android": "https://dc.lft.to/lastmile_qr_scan"}, "is_reserved": 0}, {"lon": -76.97670533333333, "bike_id": "003389bbac111bdf33a3d7c9ced145ac", "lat": 38.9451775, "fusion_lon": 0.0, "fusion_lat": 0.0, "type": "electric_bike", "name": "003389bbac111bdf33a3d7c9ced145ac", "is_disabled": 0, "rental_uris": {"ios": "https://dc.lft.to/lastmile_qr_scan", "android": "https://dc.lft.to/lastmile_qr_scan"}, "is_reserved": 0}, {"lon": -77.03868783333333, "bike_id": "cc0152351082fb5083edde2de314bb68", "lat": 38.90356833333333, "fusion_lon": 0.0, "fusion_lat": 0.0, "type": "electric_scooter", "name": "cc0152351082fb5083edde2de314bb68", "is_disabled": 0, "rental_uris": {"ios": "https://dc.lft.to/lastmile_qr_scan", "android": "https://dc.lft.to/lastmile_qr_scan"}, "is_reserved": 0}, {"lon": -77.03789866666666, "bike_id": "61dff1192827d6236c37ee9f0ce25398", "lat": 38.919748, "fusion_lon": 0.0, "fusion_lat": 0.0, "type": "electric_scooter", "name": "61dff1192827d6236c37ee9f0ce25398", "is_disabled": 0, "rental_uris": {"ios": "https://dc.lft.to/lastmile_qr_scan", "android": "https://dc.lft.to/lastmile_qr_scan"}, "is_reserved": 0}, {"lon": -77.03179533333333, "bike_id": "a1ccab2003ca2ab1924a229bfe5851e8", "lat": 38.9211225, "fusion_lon": 0.0, "fusion_lat": 0.0, "type": "electric_scooter", "name": "a1ccab2003ca2ab1924a229bfe5851e8", "is_disabled": 0, "rental_uris": {"ios": "https://dc.lft.to/lastmile_qr_scan", "android": "https://dc.lft.to/lastmile_qr_scan"}, "is_reserved": 0}, {"lon": -77.001965, "bike_id": "e397f1839938df9e5a026e2fd5974034", "lat": 38.9145975, "fusion_lon": 0.0, "fusion_lat": 0.0, "type": "electric_scooter", "name": "e397f1839938df9e5a026e2fd5974034", "is_disabled": 0, "rental_uris": {"ios": "https://dc.lft.to/lastmile_qr_scan", "android": "https://dc.lft.to/lastmile_qr_scan"}, "is_reserved": 0}, {"lon": -77.02813783333333, "bike_id": "07e944cae36712f6f26241f6f077907d", "lat": 38.9564755, "fusion_lon": 0.0, "fusion_lat": 0.0, "type": "electric_bike", "name": "07e944cae36712f6f26241f6f077907d", "is_disabled": 0, "rental_uris": {"ios": "https://dc.lft.to/lastmile_qr_scan", "android": "https://dc.lft.to/lastmile_qr_scan"}, "is_reserved": 0}, {"lon": -77.04480933333333, "bike_id": "1faf023bc5b310a7d7338d2cea128e8e", "lat": 38.913682, "fusion_lon": 0.0, "fusion_lat": 0.0, "type": "electric_scooter", "name": "1faf023bc5b310a7d7338d2cea128e8e", "is_disabled": 0, "rental_uris": {"ios": "https://dc.lft.to/lastmile_qr_scan", "android": "https://dc.lft.to/lastmile_qr_scan"}, "is_reserved": 0}, {"lon": -76.97331883333334, "bike_id": "d70220d8aaa5098b1ea6009408b8bc85", "lat": 38.904076833333335, "fusion_lon": 0.0, "fusion_lat": 0.0, "type": "electric_scooter", "name": "d70220d8aaa5098b1ea6009408b8bc85", "is_disabled": 0, "rental_uris": {"ios": "https://dc.lft.to/lastmile_qr_scan", "android": "https://dc.lft.to/lastmile_qr_scan"}, "is_reserved": 0}, {"lon": -77.041643, "bike_id": "a6d218149347768ed79af0a982d79c3e", "lat": 38.93153683333333, "fusion_lon": 0.0, "fusion_lat": 0.0, "type": "electric_scooter", "name": "a6d218149347768ed79af0a982d79c3e", "is_disabled": 0, "rental_uris": {"ios": "https://dc.lft.to/lastmile_qr_scan", "android": "https://dc.lft.to/lastmile_qr_scan"}, "is_reserved": 0}, {"lon": -77.026161, "bike_id": "50a9fb78c69c402a66a08f8ff9e67e09", "lat": 38.90559616666667, "fusion_lon": 0.0, "fusion_lat": 0.0, "type": "electric_scooter", "name": "50a9fb78c69c402a66a08f8ff9e67e09", "is_disabled": 0, "rental_uris": {"ios": "https://dc.lft.to/lastmile_qr_scan", "android": "https://dc.lft.to/lastmile_qr_scan"}, "is_reserved": 0}, {"lon": -77.03493416666667, "bike_id": "ff75445ae45cca2667efbde432009d61", "lat": 38.9326935, "fusion_lon": 0.0, "fusion_lat": 0.0, "type": "electric_scooter", "name": "ff75445ae45cca2667efbde432009d61", "is_disabled": 0, "rental_uris": {"ios": "https://dc.lft.to/lastmile_qr_scan", "android": "https://dc.lft.to/lastmile_qr_scan"}, "is_reserved": 0}, {"lon": -77.0635605, "bike_id": "8d96c2b366522f81a797c21ca0d38046", "lat": 38.908443166666665, "fusion_lon": 0.0, "fusion_lat": 0.0, "type": "electric_bike", "name": "8d96c2b366522f81a797c21ca0d38046", "is_disabled": 0, "rental_uris": {"ios": "https://dc.lft.to/lastmile_qr_scan", "android": "https://dc.lft.to/lastmile_qr_scan"}, "is_reserved": 0}, {"lon": -77.016255, "bike_id": "39f2f6c1cd08d2f84ed83f1bb51e529b", "lat": 38.908693166666666, "fusion_lon": 0.0, "fusion_lat": 0.0, "type": "electric_scooter", "name": "39f2f6c1cd08d2f84ed83f1bb51e529b", "is_disabled": 0, "rental_uris": {"ios": "https://dc.lft.to/lastmile_qr_scan", "android": "https://dc.lft.to/lastmile_qr_scan"}, "is_reserved": 0}, {"lon": -77.048616, "bike_id": "5cfcce1924490b041a92397f543b9ef1", "lat": 38.90957016666667, "fusion_lon": 0.0, "fusion_lat": 0.0, "type": "electric_scooter", "name": "5cfcce1924490b041a92397f543b9ef1", "is_disabled": 0, "rental_uris": {"ios": "https://dc.lft.to/lastmile_qr_scan", "android": "https://dc.lft.to/lastmile_qr_scan"}, "is_reserved": 0}, {"lon": -76.9419045, "bike_id": "569f4f180cbf27578b36413855cdeee0", "lat": 38.8930745, "fusion_lon": 0.0, "fusion_lat": 0.0, "type": "electric_bike", "name": "569f4f180cbf27578b36413855cdeee0", "is_disabled": 0, "rental_uris": {"ios": "https://dc.lft.to/lastmile_qr_scan", "android": "https://dc.lft.to/lastmile_qr_scan"}, "is_reserved": 0}, {"lon": -76.99870683333333, "bike_id": "90568e3399921750bd05651ad6b8a434", "lat": 38.90021316666667, "fusion_lon": 0.0, "fusion_lat": 0.0, "type": "electric_scooter", "name": "90568e3399921750bd05651ad6b8a434", "is_disabled": 0, "rental_uris": {"ios": "https://dc.lft.to/lastmile_qr_scan", "android": "https://dc.lft.to/lastmile_qr_scan"}, "is_reserved": 0}, {"lon": -77.01077816666667, "bike_id": "a5e217609681ed0a695ac8aa6869211b", "lat": 38.917133, "fusion_lon": 0.0, "fusion_lat": 0.0, "type": "electric_scooter", "name": "a5e217609681ed0a695ac8aa6869211b", "is_disabled": 0, "rental_uris": {"ios": "https://dc.lft.to/lastmile_qr_scan", "android": "https://dc.lft.to/lastmile_qr_scan"}, "is_reserved": 0}, {"lon": -77.0443765, "bike_id": "fb0bd62740391d031518121dd9733bce", "lat": 38.92163333333333, "fusion_lon": 0.0, "fusion_lat": 0.0, "type": "electric_scooter", "name": "fb0bd62740391d031518121dd9733bce", "is_disabled": 0, "rental_uris": {"ios": "https://dc.lft.to/lastmile_qr_scan", "android": "https://dc.lft.to/lastmile_qr_scan"}, "is_reserved": 0}, {"lon": -77.03205966666667, "bike_id": "3ca5fff0b7c20795c372fd7c5f7a703a", "lat": 38.9397015, "fusion_lon": 0.0, "fusion_lat": 0.0, "type": "electric_scooter", "name": "3ca5fff0b7c20795c372fd7c5f7a703a", "is_disabled": 0, "rental_uris": {"ios": "https://dc.lft.to/lastmile_qr_scan", "android": "https://dc.lft.to/lastmile_qr_scan"}, "is_reserved": 0}, {"lon": -77.031853, "bike_id": "b5d3b44adeb08f292bf27acede768571", "lat": 38.913447, "fusion_lon": 0.0, "fusion_lat": 0.0, "type": "electric_scooter", "name": "b5d3b44adeb08f292bf27acede768571", "is_disabled": 0, "rental_uris": {"ios": "https://dc.lft.to/lastmile_qr_scan", "android": "https://dc.lft.to/lastmile_qr_scan"}, "is_reserved": 0}, {"lon": -77.03356533333333, "bike_id": "ba933a58206599fc50db1ac2a8296fe8", "lat": 38.89982233333333, "fusion_lon": 0.0, "fusion_lat": 0.0, "type": "electric_scooter", "name": "ba933a58206599fc50db1ac2a8296fe8", "is_disabled": 0, "rental_uris": {"ios": "https://dc.lft.to/lastmile_qr_scan", "android": "https://dc.lft.to/lastmile_qr_scan"}, "is_reserved": 0}, {"lon": -77.05606916666666, "bike_id": "28513306f4acbdf8858c7a6c76728e79", "lat": 38.92310483333333, "fusion_lon": 0.0, "fusion_lat": 0.0, "type": "electric_scooter", "name": "28513306f4acbdf8858c7a6c76728e79", "is_disabled": 0, "rental_uris": {"ios": "https://dc.lft.to/lastmile_qr_scan", "android": "https://dc.lft.to/lastmile_qr_scan"}, "is_reserved": 0}, {"lon": -77.02483466666666, "bike_id": "d41b355dd5e82fad79ae770556f69feb", "lat": 38.90167116666667, "fusion_lon": 0.0, "fusion_lat": 0.0, "type": "electric_scooter", "name": "d41b355dd5e82fad79ae770556f69feb", "is_disabled": 0, "rental_uris": {"ios": "https://dc.lft.to/lastmile_qr_scan", "android": "https://dc.lft.to/lastmile_qr_scan"}, "is_reserved": 0}, {"lon": -77.01322416666666, "bike_id": "f6466239842dcdc8da79975e69e23580", "lat": 38.87152183333333, "fusion_lon": 0.0, "fusion_lat": 0.0, "type": "electric_scooter", "name": "f6466239842dcdc8da79975e69e23580", "is_disabled": 0, "rental_uris": {"ios": "https://dc.lft.to/lastmile_qr_scan", "android": "https://dc.lft.to/lastmile_qr_scan"}, "is_reserved": 0}, {"lon": -77.03746266666667, "bike_id": "6f03b06df471f0a8e9eddc21e7f1338a", "lat": 38.91806483333333, "fusion_lon": 0.0, "fusion_lat": 0.0, "type": "electric_scooter", "name": "6f03b06df471f0a8e9eddc21e7f1338a", "is_disabled": 0, "rental_uris": {"ios": "https://dc.lft.to/lastmile_qr_scan", "android": "https://dc.lft.to/lastmile_qr_scan"}, "is_reserved": 0}, {"lon": -77.0272475, "bike_id": "41963e784b25ee891d059c476737ee4c", "lat": 38.913356, "fusion_lon": 0.0, "fusion_lat": 0.0, "type": "electric_scooter", "name": "41963e784b25ee891d059c476737ee4c", "is_disabled": 0, "rental_uris": {"ios": "https://dc.lft.to/lastmile_qr_scan", "android": "https://dc.lft.to/lastmile_qr_scan"}, "is_reserved": 0}, {"lon": -77.02726683333333, "bike_id": "ef508e0bf296cc5e768de40899f8db6d", "lat": 38.897194666666664, "fusion_lon": 0.0, "fusion_lat": 0.0, "type": "electric_scooter", "name": "ef508e0bf296cc5e768de40899f8db6d", "is_disabled": 0, "rental_uris": {"ios": "https://dc.lft.to/lastmile_qr_scan", "android": "https://dc.lft.to/lastmile_qr_scan"}, "is_reserved": 0}, {"lon": -77.011272, "bike_id": "e7b62978ff945a5981bc63a3d20306ff", "lat": 38.900333833333335, "fusion_lon": 0.0, "fusion_lat": 0.0, "type": "electric_scooter", "name": "e7b62978ff945a5981bc63a3d20306ff", "is_disabled": 0, "rental_uris": {"ios": "https://dc.lft.to/lastmile_qr_scan", "android": "https://dc.lft.to/lastmile_qr_scan"}, "is_reserved": 0}, {"lon": -76.99455883333333, "bike_id": "de6af754b1db6347972c28df0897e75d", "lat": 38.966166, "fusion_lon": 0.0, "fusion_lat": 0.0, "type": "electric_bike", "name": "de6af754b1db6347972c28df0897e75d", "is_disabled": 0, "rental_uris": {"ios": "https://dc.lft.to/lastmile_qr_scan", "android": "https://dc.lft.to/lastmile_qr_scan"}, "is_reserved": 0}, {"lon": -77.04331933333333, "bike_id": "e34084f6e66f49c135106eab00ba1ca0", "lat": 38.907183, "fusion_lon": 0.0, "fusion_lat": 0.0, "type": "electric_scooter", "name": "e34084f6e66f49c135106eab00ba1ca0", "is_disabled": 0, "rental_uris": {"ios": "https://dc.lft.to/lastmile_qr_scan", "android": "https://dc.lft.to/lastmile_qr_scan"}, "is_reserved": 0}, {"lon": -76.99032, "bike_id": "e9f8d35b55c61e54326e657e741cc7ad", "lat": 38.89849683333333, "fusion_lon": 0.0, "fusion_lat": 0.0, "type": "electric_scooter", "name": "e9f8d35b55c61e54326e657e741cc7ad", "is_disabled": 0, "rental_uris": {"ios": "https://dc.lft.to/lastmile_qr_scan", "android": "https://dc.lft.to/lastmile_qr_scan"}, "is_reserved": 0}, {"lon": -76.97924283333333, "bike_id": "f48c6b93ca27545183e55ed0ca66156d", "lat": 38.905001, "fusion_lon": 0.0, "fusion_lat": 0.0, "type": "electric_scooter", "name": "f48c6b93ca27545183e55ed0ca66156d", "is_disabled": 0, "rental_uris": {"ios": "https://dc.lft.to/lastmile_qr_scan", "android": "https://dc.lft.to/lastmile_qr_scan"}, "is_reserved": 0}, {"lon": -76.99367716666667, "bike_id": "e08561f6e631e4b738fed09ac5da8d99", "lat": 38.8797525, "fusion_lon": 0.0, "fusion_lat": 0.0, "type": "electric_scooter", "name": "e08561f6e631e4b738fed09ac5da8d99", "is_disabled": 0, "rental_uris": {"ios": "https://dc.lft.to/lastmile_qr_scan", "android": "https://dc.lft.to/lastmile_qr_scan"}, "is_reserved": 0}, {"lon": -77.09862516666666, "bike_id": "4584c25d1ab24a93590e7182e436b3e2", "lat": 38.949601, "fusion_lon": 0.0, "fusion_lat": 0.0, "type": "electric_scooter", "name": "4584c25d1ab24a93590e7182e436b3e2", "is_disabled": 0, "rental_uris": {"ios": "https://dc.lft.to/lastmile_qr_scan", "android": "https://dc.lft.to/lastmile_qr_scan"}, "is_reserved": 0}, {"lon": -76.990027, "bike_id": "f9447201cb883af77d75b85742c30058", "lat": 38.86510833333333, "fusion_lon": 0.0, "fusion_lat": 0.0, "type": "electric_scooter", "name": "f9447201cb883af77d75b85742c30058", "is_disabled": 0, "rental_uris": {"ios": "https://dc.lft.to/lastmile_qr_scan", "android": "https://dc.lft.to/lastmile_qr_scan"}, "is_reserved": 0}, {"lon": -77.00060833333333, "bike_id": "1e55ca3e2a8c035bc3ce374e35d26a23", "lat": 38.923968333333335, "fusion_lon": 0.0, "fusion_lat": 0.0, "type": "electric_scooter", "name": "1e55ca3e2a8c035bc3ce374e35d26a23", "is_disabled": 0, "rental_uris": {"ios": "https://dc.lft.to/lastmile_qr_scan", "android": "https://dc.lft.to/lastmile_qr_scan"}, "is_reserved": 0}, {"lon": -76.9985445, "bike_id": "e43073fe1ba7ff7cd83c0766c271f889", "lat": 38.90009233333333, "fusion_lon": 0.0, "fusion_lat": 0.0, "type": "electric_scooter", "name": "e43073fe1ba7ff7cd83c0766c271f889", "is_disabled": 0, "rental_uris": {"ios": "https://dc.lft.to/lastmile_qr_scan", "android": "https://dc.lft.to/lastmile_qr_scan"}, "is_reserved": 0}, {"lon": -77.02168733333333, "bike_id": "319a8c3447ba6ecbde2b9ab8e21d44d0", "lat": 38.930646333333335, "fusion_lon": 0.0, "fusion_lat": 0.0, "type": "electric_scooter", "name": "319a8c3447ba6ecbde2b9ab8e21d44d0", "is_disabled": 0, "rental_uris": {"ios": "https://dc.lft.to/lastmile_qr_scan", "android": "https://dc.lft.to/lastmile_qr_scan"}, "is_reserved": 0}, {"lon": -77.03179683333333, "bike_id": "3a0409ecd83ea2db70be3ddbd0fbceae", "lat": 38.89224633333333, "fusion_lon": 0.0, "fusion_lat": 0.0, "type": "electric_scooter", "name": "3a0409ecd83ea2db70be3ddbd0fbceae", "is_disabled": 0, "rental_uris": {"ios": "https://dc.lft.to/lastmile_qr_scan", "android": "https://dc.lft.to/lastmile_qr_scan"}, "is_reserved": 0}, {"lon": -77.05727033333334, "bike_id": "b5dedc7c7219ce73fe24c959ef2babb4", "lat": 38.933655, "fusion_lon": 0.0, "fusion_lat": 0.0, "type": "electric_scooter", "name": "b5dedc7c7219ce73fe24c959ef2babb4", "is_disabled": 0, "rental_uris": {"ios": "https://dc.lft.to/lastmile_qr_scan", "android": "https://dc.lft.to/lastmile_qr_scan"}, "is_reserved": 0}, {"lon": -77.04807866666667, "bike_id": "8f7a1dc931a549cd8cf46c2e5ad5d305", "lat": 38.897558333333336, "fusion_lon": 0.0, "fusion_lat": 0.0, "type": "electric_scooter", "name": "8f7a1dc931a549cd8cf46c2e5ad5d305", "is_disabled": 0, "rental_uris": {"ios": "https://dc.lft.to/lastmile_qr_scan", "android": "https://dc.lft.to/lastmile_qr_scan"}, "is_reserved": 0}, {"lon": -77.07594833333333, "bike_id": "7f1c347bb82952b5d9aa7071904c2684", "lat": 38.912164833333335, "fusion_lon": 0.0, "fusion_lat": 0.0, "type": "electric_scooter", "name": "7f1c347bb82952b5d9aa7071904c2684", "is_disabled": 0, "rental_uris": {"ios": "https://dc.lft.to/lastmile_qr_scan", "android": "https://dc.lft.to/lastmile_qr_scan"}, "is_reserved": 0}, {"lon": -77.01269066666667, "bike_id": "4ef0c6def150c7b50a24bf792adba162", "lat": 38.8645065, "fusion_lon": 0.0, "fusion_lat": 0.0, "type": "electric_scooter", "name": "4ef0c6def150c7b50a24bf792adba162", "is_disabled": 0, "rental_uris": {"ios": "https://dc.lft.to/lastmile_qr_scan", "android": "https://dc.lft.to/lastmile_qr_scan"}, "is_reserved": 0}, {"lon": -77.02255916666667, "bike_id": "6e2a56205cbf4d80550c69c800ce875e", "lat": 38.926883333333336, "fusion_lon": 0.0, "fusion_lat": 0.0, "type": "electric_scooter", "name": "6e2a56205cbf4d80550c69c800ce875e", "is_disabled": 0, "rental_uris": {"ios": "https://dc.lft.to/lastmile_qr_scan", "android": "https://dc.lft.to/lastmile_qr_scan"}, "is_reserved": 0}, {"lon": -76.994603, "bike_id": "0ddd6c777a72513097e777f333412bf1", "lat": 38.90368983333333, "fusion_lon": 0.0, "fusion_lat": 0.0, "type": "electric_scooter", "name": "0ddd6c777a72513097e777f333412bf1", "is_disabled": 0, "rental_uris": {"ios": "https://dc.lft.to/lastmile_qr_scan", "android": "https://dc.lft.to/lastmile_qr_scan"}, "is_reserved": 0}, {"lon": -77.04700183333334, "bike_id": "597ddf6afc47dd35c7bb60a08ce17a9d", "lat": 38.91566516666666, "fusion_lon": 0.0, "fusion_lat": 0.0, "type": "electric_scooter", "name": "597ddf6afc47dd35c7bb60a08ce17a9d", "is_disabled": 0, "rental_uris": {"ios": "https://dc.lft.to/lastmile_qr_scan", "android": "https://dc.lft.to/lastmile_qr_scan"}, "is_reserved": 0}, {"lon": -77.02308983333333, "bike_id": "e3c2dbec9fde6aac520a71f1e5801593", "lat": 38.941995166666665, "fusion_lon": 0.0, "fusion_lat": 0.0, "type": "electric_scooter", "name": "e3c2dbec9fde6aac520a71f1e5801593", "is_disabled": 0, "rental_uris": {"ios": "https://dc.lft.to/lastmile_qr_scan", "android": "https://dc.lft.to/lastmile_qr_scan"}, "is_reserved": 0}, {"lon": -77.07239216666666, "bike_id": "1f7acd9e9ce9c356e21b63346e504fd2", "lat": 38.898845, "fusion_lon": 0.0, "fusion_lat": 0.0, "type": "electric_scooter", "name": "1f7acd9e9ce9c356e21b63346e504fd2", "is_disabled": 0, "rental_uris": {"ios": "https://dc.lft.to/lastmile_qr_scan", "android": "https://dc.lft.to/lastmile_qr_scan"}, "is_reserved": 0}, {"lon": -77.049251, "bike_id": "1ccec8dc89d64015f201368a053ddce9", "lat": 38.9085965, "fusion_lon": 0.0, "fusion_lat": 0.0, "type": "electric_scooter", "name": "1ccec8dc89d64015f201368a053ddce9", "is_disabled": 0, "rental_uris": {"ios": "https://dc.lft.to/lastmile_qr_scan", "android": "https://dc.lft.to/lastmile_qr_scan"}, "is_reserved": 0}, {"lon": -76.96151566666667, "bike_id": "51e3a86299b7c45f28d0555f5d1d3da2", "lat": 38.88359883333333, "fusion_lon": 0.0, "fusion_lat": 0.0, "type": "electric_scooter", "name": "51e3a86299b7c45f28d0555f5d1d3da2", "is_disabled": 0, "rental_uris": {"ios": "https://dc.lft.to/lastmile_qr_scan", "android": "https://dc.lft.to/lastmile_qr_scan"}, "is_reserved": 0}, {"lon": -76.96782516666667, "bike_id": "2df5924a6d2c9bd40720077e70dd9987", "lat": 38.8684905, "fusion_lon": 0.0, "fusion_lat": 0.0, "type": "electric_scooter", "name": "2df5924a6d2c9bd40720077e70dd9987", "is_disabled": 0, "rental_uris": {"ios": "https://dc.lft.to/lastmile_qr_scan", "android": "https://dc.lft.to/lastmile_qr_scan"}, "is_reserved": 0}, {"lon": -76.9905245, "bike_id": "cff70ee6ea856318b28029d5c9db3cdf", "lat": 38.88759483333333, "fusion_lon": 0.0, "fusion_lat": 0.0, "type": "electric_scooter", "name": "cff70ee6ea856318b28029d5c9db3cdf", "is_disabled": 0, "rental_uris": {"ios": "https://dc.lft.to/lastmile_qr_scan", "android": "https://dc.lft.to/lastmile_qr_scan"}, "is_reserved": 0}, {"lon": -77.0081085, "bike_id": "206439c29810bc539969622fbbd9e842", "lat": 38.90579533333333, "fusion_lon": 0.0, "fusion_lat": 0.0, "type": "electric_scooter", "name": "206439c29810bc539969622fbbd9e842", "is_disabled": 0, "rental_uris": {"ios": "https://dc.lft.to/lastmile_qr_scan", "android": "https://dc.lft.to/lastmile_qr_scan"}, "is_reserved": 0}, {"lon": -77.02871416666666, "bike_id": "326c5fd2fed22626771426b399ad2c87", "lat": 38.89841166666667, "fusion_lon": 0.0, "fusion_lat": 0.0, "type": "electric_scooter", "name": "326c5fd2fed22626771426b399ad2c87", "is_disabled": 0, "rental_uris": {"ios": "https://dc.lft.to/lastmile_qr_scan", "android": "https://dc.lft.to/lastmile_qr_scan"}, "is_reserved": 0}, {"lon": -77.03866433333333, "bike_id": "7c0c80aa35e4adb2dc7d401d8aa43617", "lat": 38.94506533333333, "fusion_lon": 0.0, "fusion_lat": 0.0, "type": "electric_scooter", "name": "7c0c80aa35e4adb2dc7d401d8aa43617", "is_disabled": 0, "rental_uris": {"ios": "https://dc.lft.to/lastmile_qr_scan", "android": "https://dc.lft.to/lastmile_qr_scan"}, "is_reserved": 0}, {"lon": -77.03415766666667, "bike_id": "d2dcb1452edeadfc2a576b75428867dc", "lat": 38.9025355, "fusion_lon": 0.0, "fusion_lat": 0.0, "type": "electric_scooter", "name": "d2dcb1452edeadfc2a576b75428867dc", "is_disabled": 0, "rental_uris": {"ios": "https://dc.lft.to/lastmile_qr_scan", "android": "https://dc.lft.to/lastmile_qr_scan"}, "is_reserved": 0}, {"lon": -76.93533966666666, "bike_id": "b94f2fce2c63e068c85207d302d9f4a7", "lat": 38.896759333333335, "fusion_lon": 0.0, "fusion_lat": 0.0, "type": "electric_scooter", "name": "b94f2fce2c63e068c85207d302d9f4a7", "is_disabled": 0, "rental_uris": {"ios": "https://dc.lft.to/lastmile_qr_scan", "android": "https://dc.lft.to/lastmile_qr_scan"}, "is_reserved": 0}, {"lon": -76.9810025, "bike_id": "1c9f83c3fa6894d0a1a3f8b681420e5f", "lat": 38.895514166666665, "fusion_lon": 0.0, "fusion_lat": 0.0, "type": "electric_scooter", "name": "1c9f83c3fa6894d0a1a3f8b681420e5f", "is_disabled": 0, "rental_uris": {"ios": "https://dc.lft.to/lastmile_qr_scan", "android": "https://dc.lft.to/lastmile_qr_scan"}, "is_reserved": 0}, {"lon": -77.02713883333334, "bike_id": "efb14afc2fdd81aeb2721b2fe045aba2", "lat": 38.92470733333333, "fusion_lon": 0.0, "fusion_lat": 0.0, "type": "electric_scooter", "name": "efb14afc2fdd81aeb2721b2fe045aba2", "is_disabled": 0, "rental_uris": {"ios": "https://dc.lft.to/lastmile_qr_scan", "android": "https://dc.lft.to/lastmile_qr_scan"}, "is_reserved": 0}, {"lon": -76.960595, "bike_id": "23f1af4dd3e665a7a18ed6a79f112e02", "lat": 38.88407633333333, "fusion_lon": 0.0, "fusion_lat": 0.0, "type": "electric_bike", "name": "23f1af4dd3e665a7a18ed6a79f112e02", "is_disabled": 0, "rental_uris": {"ios": "https://dc.lft.to/lastmile_qr_scan", "android": "https://dc.lft.to/lastmile_qr_scan"}, "is_reserved": 0}, {"lon": -77.0344615, "bike_id": "b235f856f22342e0a5b08a3012758985", "lat": 38.9101185, "fusion_lon": 0.0, "fusion_lat": 0.0, "type": "electric_scooter", "name": "b235f856f22342e0a5b08a3012758985", "is_disabled": 0, "rental_uris": {"ios": "https://dc.lft.to/lastmile_qr_scan", "android": "https://dc.lft.to/lastmile_qr_scan"}, "is_reserved": 0}, {"lon": -76.92769183333333, "bike_id": "efb8acb0217cfe3dff686cf7e6545bd6", "lat": 38.90083416666667, "fusion_lon": 0.0, "fusion_lat": 0.0, "type": "electric_scooter", "name": "efb8acb0217cfe3dff686cf7e6545bd6", "is_disabled": 0, "rental_uris": {"ios": "https://dc.lft.to/lastmile_qr_scan", "android": "https://dc.lft.to/lastmile_qr_scan"}, "is_reserved": 0}, {"lon": -77.01133583333333, "bike_id": "dbd4e38d2f68ef72f755cb11a434a326", "lat": 38.907307, "fusion_lon": 0.0, "fusion_lat": 0.0, "type": "electric_scooter", "name": "dbd4e38d2f68ef72f755cb11a434a326", "is_disabled": 0, "rental_uris": {"ios": "https://dc.lft.to/lastmile_qr_scan", "android": "https://dc.lft.to/lastmile_qr_scan"}, "is_reserved": 0}, {"lon": -77.02155866666666, "bike_id": "9853ebbfff7c93dc67dd2884fb2a3dc8", "lat": 38.922281166666664, "fusion_lon": 0.0, "fusion_lat": 0.0, "type": "electric_scooter", "name": "9853ebbfff7c93dc67dd2884fb2a3dc8", "is_disabled": 0, "rental_uris": {"ios": "https://dc.lft.to/lastmile_qr_scan", "android": "https://dc.lft.to/lastmile_qr_scan"}, "is_reserved": 0}, {"lon": -77.02373366666667, "bike_id": "6afe4558b593e329554997fe1c180c24", "lat": 38.9019665, "fusion_lon": 0.0, "fusion_lat": 0.0, "type": "electric_scooter", "name": "6afe4558b593e329554997fe1c180c24", "is_disabled": 0, "rental_uris": {"ios": "https://dc.lft.to/lastmile_qr_scan", "android": "https://dc.lft.to/lastmile_qr_scan"}, "is_reserved": 0}, {"lon": -77.05196366666667, "bike_id": "a9bfaf40f4398c5126c10be195482f8c", "lat": 38.92454866666667, "fusion_lon": 0.0, "fusion_lat": 0.0, "type": "electric_scooter", "name": "a9bfaf40f4398c5126c10be195482f8c", "is_disabled": 0, "rental_uris": {"ios": "https://dc.lft.to/lastmile_qr_scan", "android": "https://dc.lft.to/lastmile_qr_scan"}, "is_reserved": 0}, {"lon": -76.98885766666666, "bike_id": "f087cd648ad88d7b748fe675fa6cb2ef", "lat": 38.866486, "fusion_lon": 0.0, "fusion_lat": 0.0, "type": "electric_scooter", "name": "f087cd648ad88d7b748fe675fa6cb2ef", "is_disabled": 0, "rental_uris": {"ios": "https://dc.lft.to/lastmile_qr_scan", "android": "https://dc.lft.to/lastmile_qr_scan"}, "is_reserved": 0}, {"lon": -76.9871125, "bike_id": "db9acc65e8926829f5c55191244bab81", "lat": 38.866259166666666, "fusion_lon": 0.0, "fusion_lat": 0.0, "type": "electric_scooter", "name": "db9acc65e8926829f5c55191244bab81", "is_disabled": 0, "rental_uris": {"ios": "https://dc.lft.to/lastmile_qr_scan", "android": "https://dc.lft.to/lastmile_qr_scan"}, "is_reserved": 0}, {"lon": -77.043756, "bike_id": "d6a916dbb85f415cd6cb182a4c61649a", "lat": 38.886502, "fusion_lon": 0.0, "fusion_lat": 0.0, "type": "electric_scooter", "name": "d6a916dbb85f415cd6cb182a4c61649a", "is_disabled": 0, "rental_uris": {"ios": "https://dc.lft.to/lastmile_qr_scan", "android": "https://dc.lft.to/lastmile_qr_scan"}, "is_reserved": 0}, {"lon": -76.9949525, "bike_id": "499d62e92fd222710b9ece443afef5e3", "lat": 38.862406, "fusion_lon": 0.0, "fusion_lat": 0.0, "type": "electric_scooter", "name": "499d62e92fd222710b9ece443afef5e3", "is_disabled": 0, "rental_uris": {"ios": "https://dc.lft.to/lastmile_qr_scan", "android": "https://dc.lft.to/lastmile_qr_scan"}, "is_reserved": 0}, {"lon": -77.00205, "bike_id": "0a5c8de7ca42495b58e738de932e6627", "lat": 38.90026683333333, "fusion_lon": 0.0, "fusion_lat": 0.0, "type": "electric_scooter", "name": "0a5c8de7ca42495b58e738de932e6627", "is_disabled": 0, "rental_uris": {"ios": "https://dc.lft.to/lastmile_qr_scan", "android": "https://dc.lft.to/lastmile_qr_scan"}, "is_reserved": 0},