{"data": {"bikes": [{"lon": -77.02308333333333, "bike_id": "a3b0101d8b2bfa45a536843ea2e37360", "lat": 38.927279, "fusion_lon": 0.0, "fusion_lat": 0.0, "type": "electric_scooter", "name": "a3b0101d8b2bfa45a536843ea2e37360", "is_disabled": 0, "rental_uris": {"ios": "https://dc.lft.to/lastmile_qr_scan", "android": "https://dc.lft.to/lastmile_qr_scan"}, "is_reserved": 0}, {"lon": -77.01662883333333, "bike_id": "e4db83e31bf3f98a73427860184465a8", "lat": 38.88107266666667, "fusion_lon": 0.0, "fusion_lat": 0.0, "type": "electric_bike", "name": "e4db83e31bf3f98a73427860184465a8", "is_disabled": 0, "rental_uris": {"ios": "https://dc.lft.to/lastmile_qr_scan", "android": "https://dc.lft.to/lastmile_qr_scan"}, "is_reserved": 0}, {"lon": -77.01521683333333, "bike_id": "0e8123bd55ea74e62894925cdf585b2c", "lat": 38.8850865, "fusion_lon": 0.0, "fusion_lat": 0.0, "type": "electric_scooter", "name": "0e8123bd55ea74e62894925cdf585b2c", "is_disabled": 0, "rental_uris": {"ios": "https://dc.lft.to/lastmile_qr_scan", "android": "https://dc.lft.to/lastmile_qr_scan"}, "is_reserved": 0}, {"lon": -77.02804333333333, "bike_id": "f6587b86ec997ed5fd0e2ec550a20b2c", "lat": 38.9073665, "fusion_lon": 0.0, "fusion_lat": 0.0, "type": "electric_scooter", "name": "f6587b86ec997ed5fd0e2ec550a20b2c", "is_disabled": 0, "rental_uris": {"ios": "https://dc.lft.to/lastmile_qr_scan", "android": "https://dc.lft.to/lastmile_qr_scan"}, "is_reserved": 0}, {"lon": -77.000055, "bike_id": "3c82dba6d6895c3fdc5c7e4408aeb655", "lat": 38.897384, "fusion_lon": 0.0, "fusion_lat": 0.0, "type": "electric_scooter", "name": "3c82dba6d6895c3fdc5c7e4408aeb655", "is_disabled": 0, "rental_uris": {"ios": "https://dc.lft.to/lastmile_qr_scan", "android": "https://dc.lft.to/lastmile_qr_scan"}, "is_reserved": 0}, {"lon": -77.045154, "bike_id": "34a9f3b2f42dead6003be1003313296b", "lat": 38.919528666666665, "fusion_lon": 0.0, "fusion_lat": 0.0, "type": "electric_scooter", "name": "34a9f3b2f42dead6003be1003313296b", "is_disabled": 0, "rental_uris": {"ios": "https://dc.lft.to/lastmile_qr_scan", "android": "https://dc.lft.to/lastmile_qr_scan"}, "is_reserved": 0}, {"lon": -76.9649425, "bike_id": "bb161fb8fa8a14ce797c6784202559cf", "lat": 38.876413, "fusion_lon": 0.0, "fusion_lat": 0.0, "type": "electric_scooter", "name": "bb161fb8fa8a14ce797c6784202559cf", "is_disabled": 0, "rental_uris": {"ios": "https://dc.lft.to/lastmile_qr_scan", "android": "https://dc.lft.to/lastmile_qr_scan"}, "is_reserved": 0}, {"lon": -77.02834133333333, "bike_id": "c95766c21e82e06fe566c135b3460e3e", "lat": 38.887696, "fusion_lon": 0.0, "fusion_lat": 0.0, "type": "electric_scooter", "name": "c95766c21e82e06fe566c135b3460e3e", "is_disabled": 0, "rental_uris": {"ios": "https://dc.lft.to/lastmile_qr_scan", "android": "https://dc.lft.to/lastmile_qr_scan"}, "is_reserved": 0}, {"lon": -76.9975755, "bike_id": "126435a18c47aa3c7687c77108c5546b", "lat": 38.887671166666664, "fusion_lon": 0.0, "fusion_lat": 0.0, "type": "electric_scooter", "name": "126435a18c47aa3c7687c77108c5546b", "is_disabled": 0, "rental_uris": {"ios": "https://dc.lft.to/lastmile_qr_scan", "android": "https://dc.lft.to/lastmile_qr_scan"}, "is_reserved": 0}, {"lon": -77.0575245, "bike_id": "a599424dee923f544c2652690a4dd094", "lat": 38.92491533333333, "fusion_lon": 0.0, "fusion_lat": 0.0, "type": "electric_bike", "name": "a599424dee923f544c2652690a4dd094", "is_disabled": 0, "rental_uris": {"ios": "https://dc.lft.to/lastmile_qr_scan", "android": "https://dc.lft.to/lastmile_qr_scan"}, "is_reserved": 0}, {"lon": -77.10807283333334, "bike_id": "9718fbf6e84e336c670e21aa98753fff", "lat": 38.81204533333333, "fusion_lon": 0.0, "fusion_lat": 0.0, "type": "electric_bike", "name": "9718fbf6e84e336c670e21aa98753fff", "is_disabled": 0, "rental_uris": {"ios": "https://dc.lft.to/lastmile_qr_scan", "android": "https://dc.lft.to/lastmile_qr_scan"}, "is_reserved": 0}, {"lon": -77.03419083333333, "bike_id": "79015e27cb3f1b684cabbac1b1c2ab7f", "lat": 38.927361166666664, "fusion_lon": 0.0, "fusion_lat": 0.0, "type": "electric_scooter", "name": "79015e27cb3f1b684cabbac1b1c2ab7f", "is_disabled": 0, "rental_uris": {"ios": "https://dc.lft.to/lastmile_qr_scan", "android": "https://dc.lft.to/lastmile_qr_scan"}, "is_reserved": 0}, {"lon": -76.9854575, "bike_id": "33ad1e6f704acbf59f1dd30b61ce5871", "lat": 38.925064666666664, "fusion_lon": 0.0, "fusion_lat": 0.0, "type": "electric_bike", "name": "33ad1e6f704acbf59f1dd30b61ce5871", "is_disabled": 0, "rental_uris": {"ios": "https://dc.lft.to/lastmile_qr_scan", "android": "https://dc.lft.to/lastmile_qr_scan"}, "is_reserved": 0}, {"lon": -76.98838666666667, "bike_id": "7266aa1cd4c403d50481629b8efc7adc", "lat": 38.896659, "fusion_lon": 0.0, "fusion_lat": 0.0, "type": "electric_scooter", "name": "7266aa1cd4c403d50481629b8efc7adc", "is_disabled": 0, "rental_uris": {"ios": "https://dc.lft.to/lastmile_qr_scan", "android": "https://dc.lft.to/lastmile_qr_scan"}, "is_reserved": 0}, {"lon": -77.031842, "bike_id": "6a69c5cad647c703afe806860aea5f77", "lat": 38.91415033333333, "fusion_lon": 0.0, "fusion_lat": 0.0, "type": "electric_scooter", "name": "6a69c5cad647c703afe806860aea5f77", "is_disabled": 0, "rental_uris": {"ios": "https://dc.lft.to/lastmile_qr_scan", "android": "https://dc.lft.to/lastmile_qr_scan"}, "is_reserved": 0}, {"lon": -76.99846433333333, "bike_id": "f498e30003f37c115fa5f3467dc78d11", "lat": 38.9073395, "fusion_lon": 0.0, "fusion_lat": 0.0, "type": "electric_scooter", "name": "f498e30003f37c115fa5f3467dc78d11", "is_disabled": 0, "rental_uris": {"ios": "https://dc.lft.to/lastmile_qr_scan", "android": "https://dc.lft.to/lastmile_qr_scan"}, "is_reserved": 0}, {"lon": -77.025944, "bike_id": "d6f198515a485a0d0d2c2d75b7566fdb", "lat": 38.90516933333333, "fusion_lon": 0.0, "fusion_lat": 0.0, "type": "electric_scooter", "name": "d6f198515a485a0d0d2c2d75b7566fdb", "is_disabled": 0, "rental_uris": {"ios": "https://dc.lft.to/lastmile_qr_scan", "android": "https://dc.lft.to/lastmile_qr_scan"}, "is_reserved": 0}, {"lon": -77.0433305, "bike_id": "fec94e7d5c0f0d6bdf8e91d0bb4a8951", "lat": 38.907991, "fusion_lon": 0.0, "fusion_lat": 0.0, "type": "electric_scooter", "name": "fec94e7d5c0f0d6bdf8e91d0bb4a8951", "is_disabled": 0, "rental_uris": {"ios": "https://dc.lft.to/lastmile_qr_scan", "android": "https://dc.lft.to/lastmile_qr_scan"}, "is_reserved": 0}, {"lon": -77.00005, "bike_id": "67b87dde507c8ccd935d77f6d6e38247", "lat": 38.874712833333334, "fusion_lon": 0.0, "fusion_lat": 0.0, "type": "electric_scooter", "name": "67b87dde507c8ccd935d77f6d6e38247", "is_disabled": 0, "rental_uris": {"ios": "https://dc.lft.to/lastmile_qr_scan", "android": "https://dc.lft.to/lastmile_qr_scan"}, "is_reserved": 0}, {"lon": -77.02168283333333, "bike_id": "ab1c81dcd71ce701f014133722786d53", "lat": 38.9019575, "fusion_lon": 0.0, "fusion_lat": 0.0, "type": "electric_scooter", "name": "ab1c81dcd71ce701f014133722786d53", "is_disabled": 0, "rental_uris": {"ios": "https://dc.lft.to/lastmile_qr_scan", "android": "https://dc.lft.to/lastmile_qr_scan"}, "is_reserved": 0}, {"lon": -77.073445, "bike_id": "29dd0b05c7f0b8f9203b93bb340dda19", "lat": 38.910987666666664, "fusion_lon": 0.0, "fusion_lat": 0.0, "type": "electric_scooter", "name": "29dd0b05c7f0b8f9203b93bb340dda19", "is_disabled": 0, "rental_uris": {"ios": "https://dc.lft.to/lastmile_qr_scan", "android": "https://dc.lft.to/lastmile_qr_scan"}, "is_reserved": 0}, {"lon": -77.02468183333333, "bike_id": "25f434fca37b45539c10f07acf7924a8", "lat": 38.903914666666665, "fusion_lon": 0.0, "fusion_lat": 0.0, "type": "electric_scooter", "name": "25f434fca37b45539c10f07acf7924a8", "is_disabled": 0, "rental_uris": {"ios": "https://dc.lft.to/lastmile_qr_scan", "android": "https://dc.lft.to/lastmile_qr_scan"}, "is_reserved": 0}, {"lon": -77.05860516666667, "bike_id": "3f68a185f7cd6d802c7b10ea653ae952", "lat": 38.93603133333333, "fusion_lon": 0.0, "fusion_lat": 0.0, "type": "electric_scooter", "name": "3f68a185f7cd6d802c7b10ea653ae952", "is_disabled": 0, "rental_uris": {"ios": "https://dc.lft.to/lastmile_qr_scan", "android": "https://dc.lft.to/lastmile_qr_scan"}, "is_reserved": 0}, {"lon": -77.01860566666667, "bike_id": "87eb0b651d84cdb5f0230125dc997b56", "lat": 38.91487033333333, "fusion_lon": 0.0, "fusion_lat": 0.0, "type": "electric_scooter", "name": "87eb0b651d84cdb5f0230125dc997b56", "is_disabled": 0, "rental_uris": {"ios": "https://dc.lft.to/lastmile_qr_scan", "android": "https://dc.lft.to/lastmile_qr_scan"}, "is_reserved": 0}, {"lon": -76.9904885, "bike_id": "24a5c506e667525ee0f8d70d9019ef16", "lat": 38.884147666666664, "fusion_lon": 0.0, "fusion_lat": 0.0, "type": "electric_scooter", "name": "24a5c506e667525ee0f8d70d9019ef16", "is_disabled": 0, "rental_uris": {"ios": "https://dc.lft.to/lastmile_qr_scan", "android": "https://dc.lft.to/lastmile_qr_scan"}, "is_reserved": 0}, {"lon": -76.98227916666667, "bike_id": "a3603a1b7de4c2680cff2d9ac9b47538", "lat": 38.8661635, "fusion_lon": 0.0, "fusion_lat": 0.0, "type": "electric_scooter", "name": "a3603a1b7de4c2680cff2d9ac9b47538", "is_disabled": 0, "rental_uris": {"ios": "https://dc.lft.to/lastmile_qr_scan", "android": "https://dc.lft.to/lastmile_qr_scan"}, "is_reserved": 0}, {"lon": -77.04559916666666, "bike_id": "d55dd12e067e46e787a0f175d1ae7592", "lat": 38.91827216666667, "fusion_lon": 0.0, "fusion_lat": 0.0, "type": "electric_scooter", "name": "d55dd12e067e46e787a0f175d1ae7592", "is_disabled": 0, "rental_uris": {"ios": "https://dc.lft.to/lastmile_qr_scan", "android": "https://dc.lft.to/lastmile_qr_scan"}, "is_reserved": 0}, {"lon": -77.02940983333333, "bike_id": "058a8a73d78e64af5084d91708236b24", "lat": 38.9071465, "fusion_lon": 0.0, "fusion_lat": 0.0, "type": "electric_scooter", "name": "058a8a73d78e64af5084d91708236b24", "is_disabled": 0, "rental_uris": {"ios": "https://dc.lft.to/lastmile_qr_scan", "android": "https://dc.lft.to/lastmile_qr_scan"}, "is_reserved": 0}, {"lon": -76.97808916666666, "bike_id": "e354b63033f7458c83afab18add46243", "lat": 38.9067245, "fusion_lon": 0.0, "fusion_lat": 0.0, "type": "electric_scooter", "name": "e354b63033f7458c83afab18add46243", "is_disabled": 0, "rental_uris": {"ios": "https://dc.lft.to/lastmile_qr_scan", "android": "https://dc.lft.to/lastmile_qr_scan"}, "is_reserved": 0}, {"lon": -77.040047, "bike_id": "6a705f1bab8aa2c5da5b138800bc673a", "lat": 38.909988, "fusion_lon": 0.0, "fusion_lat": 0.0, "type": "electric_scooter", "name": "6a705f1bab8aa2c5da5b138800bc673a", "is_disabled": 0, "rental_uris": {"ios": "https://dc.lft.to/lastmile_qr_scan", "android": "https://dc.lft.to/lastmile_qr_scan"}, "is_reserved": 0}, {"lon": -77.03176433333333, "bike_id": "f32938bfa3ffd91d3d5c65703b7cddd3", "lat": 38.887275333333335, "fusion_lon": 0.0, "fusion_lat": 0.0, "type": "electric_scooter", "name": "f32938bfa3ffd91d3d5c65703b7cddd3", "is_disabled": 0, "rental_uris": {"ios": "https://dc.lft.to/lastmile_qr_scan", "android": "https://dc.lft.to/lastmile_qr_scan"}, "is_reserved": 0}, {"lon": -77.05595066666666, "bike_id": "c290bcf87fac60bd79b7666467a3e9b1", "lat": 38.916164333333334, "fusion_lon": 0.0, "fusion_lat": 0.0, "type": "electric_scooter", "name": "c290bcf87fac60bd79b7666467a3e9b1", "is_disabled": 0, "rental_uris": {"ios": "https://dc.lft.to/lastmile_qr_scan", "android": "https://dc.lft.to/lastmile_qr_scan"}, "is_reserved": 0}, {"lon": -77.03843033333334, "bike_id": "679c785a32a42a3741613f7fcb796323", "lat": 38.90769566666667, "fusion_lon": 0.0, "fusion_lat": 0.0, "type": "electric_scooter", "name": "679c785a32a42a3741613f7fcb796323", "is_disabled": 0, "rental_uris": {"ios": "https://dc.lft.to/lastmile_qr_scan", "android": "https://dc.lft.to/lastmile_qr_scan"}, "is_reserved": 0}, {"lon": -77.053357, "bike_id": "9bfde40fb5cc55694bf494aa0c9feccb", "lat": 38.907145666666665, "fusion_lon": 0.0, "fusion_lat": 0.0, "type": "electric_scooter", "name": "9bfde40fb5cc55694bf494aa0c9feccb", "is_disabled": 0, "rental_uris": {"ios": "https://dc.lft.to/lastmile_qr_scan", "android": "https://dc.lft.to/lastmile_qr_scan"}, "is_reserved": 0}, {"lon": -77.03483166666666, "bike_id": "4aa88851dc097bd658a09613b8e0b9ee", "lat": 38.919169, "fusion_lon": 0.0, "fusion_lat": 0.0, "type": "electric_scooter", "name": "4aa88851dc097bd658a09613b8e0b9ee", "is_disabled": 0, "rental_uris": {"ios": "https://dc.lft.to/lastmile_qr_scan", "android": "https://dc.lft.to/lastmile_qr_scan"}, "is_reserved": 0}, {"lon": -77.00113966666666, "bike_id": "15b2c4699281e93e7da0348d0216b076", "lat": 38.9170405, "fusion_lon": 0.0, "fusion_lat": 0.0, "type": "electric_scooter", "name": "15b2c4699281e93e7da0348d0216b076", "is_disabled": 0, "rental_uris": {"ios": "https://dc.lft.to/lastmile_qr_scan", "android": "https://dc.lft.to/lastmile_qr_scan"}, "is_reserved": 0}, {"lon": -77.0283585, "bike_id": "473f6c99fd8ff254a9b733fef8dd468e", "lat": 38.887716166666664, "fusion_lon": 0.0, "fusion_lat": 0.0, "type": "electric_scooter", "name": "473f6c99fd8ff254a9b733fef8dd468e", "is_disabled": 0, "rental_uris": {"ios": "https://dc.lft.to/lastmile_qr_scan", "android": "https://dc.lft.to/lastmile_qr_scan"}, "is_reserved": 0}, {"lon": -76.89534516666667, "bike_id": "c6ad80cf3d0d105d26bcbf2e979c4d55", "lat": 38.945493, "fusion_lon": 0.0, "fusion_lat": 0.0, "type": "electric_bike", "name": "c6ad80cf3d0d105d26bcbf2e979c4d55", "is_disabled": 0, "rental_uris": {"ios": "https://dc.lft.to/lastmile_qr_scan", "android": "https://dc.lft.to/lastmile_qr_scan"}, "is_reserved": 0}, {"lon": -77.03841683333333, "bike_id": "8e8494e9386a264f27da0b945c29e10e", "lat": 38.91090066666667, "fusion_lon": 0.0, "fusion_lat": 0.0, "type": "electric_scooter", "name": "8e8494e9386a264f27da0b945c29e10e", "is_disabled": 0, "rental_uris": {"ios": "https://dc.lft.to/lastmile_qr_scan", "android": "https://dc.lft.to/lastmile_qr_scan"}, "is_reserved": 0}, {"lon": -77.03541066666666, "bike_id": "a7d376cf5611bc6b20c6ed0f5e1a30e1", "lat": 38.91833916666667, "fusion_lon": 0.0, "fusion_lat": 0.0, "type": "electric_scooter", "name": "a7d376cf5611bc6b20c6ed0f5e1a30e1", "is_disabled": 0, "rental_uris": {"ios": "https://dc.lft.to/lastmile_qr_scan", "android": "https://dc.lft.to/lastmile_qr_scan"}, "is_reserved": 0}, {"lon": -77.027315, "bike_id": "ced6c3d8d86bd5afb350b6d01fbe59c8", "lat": 38.94086216666667, "fusion_lon": 0.0, "fusion_lat": 0.0, "type": "electric_scooter", "name": "ced6c3d8d86bd5afb350b6d01fbe59c8", "is_disabled": 0, "rental_uris": {"ios": "https://dc.lft.to/lastmile_qr_scan", "android": "https://dc.lft.to/lastmile_qr_scan"}, "is_reserved": 0}, {"lon": -77.01988333333334, "bike_id": "d6d16c3a3ad57d218396639ca954f246", "lat": 38.91499616666667, "fusion_lon": 0.0, "fusion_lat": 0.0, "type": "electric_scooter", "name": "d6d16c3a3ad57d218396639ca954f246", "is_disabled": 0, "rental_uris": {"ios": "https://dc.lft.to/lastmile_qr_scan", "android": "https://dc.lft.to/lastmile_qr_scan"}, "is_reserved": 0}, {"lon": -77.00457816666666, "bike_id": "3a4a4b1634f53ce870ccf1be04baf9cd", "lat": 38.89716466666667, "fusion_lon": 0.0, "fusion_lat": 0.0, "type": "electric_bike", "name": "3a4a4b1634f53ce870ccf1be04baf9cd", "is_disabled": 0, "rental_uris": {"ios": "https://dc.lft.to/lastmile_qr_scan", "android": "https://dc.lft.to/lastmile_qr_scan"}, "is_reserved": 0}, {"lon": -77.02159733333333, "bike_id": "c8913efed5bf97c11bdb5c331f697274", "lat": 38.89220483333333, "fusion_lon": 0.0, "fusion_lat": 0.0, "type": "electric_scooter", "name": "c8913efed5bf97c11bdb5c331f697274", "is_disabled": 0, "rental_uris": {"ios": "https://dc.lft.to/lastmile_qr_scan", "android": "https://dc.lft.to/lastmile_qr_scan"}, "is_reserved": 0}, {"lon": -77.00933833333333, "bike_id": "2e05b3802036cd7bd8d3fa4fedf025f0", "lat": 38.895975, "fusion_lon": 0.0, "fusion_lat": 0.0, "type": "electric_scooter", "name": "2e05b3802036cd7bd8d3fa4fedf025f0", "is_disabled": 0, "rental_uris": {"ios": "https://dc.lft.to/lastmile_qr_scan", "android": "https://dc.lft.to/lastmile_qr_scan"}, "is_reserved": 0}, {"lon": -77.02196466666666, "bike_id": "24e4e6ccb5d28f04fac6e7aeb710cc73", "lat": 38.892602, "fusion_lon": 0.0, "fusion_lat": 0.0, "type": "electric_scooter", "name": "24e4e6ccb5d28f04fac6e7aeb710cc73", "is_disabled": 0, "rental_uris": {"ios": "https://dc.lft.to/lastmile_qr_scan", "android": "https://dc.lft.to/lastmile_qr_scan"}, "is_reserved": 0}, {"lon": -77.032611, "bike_id": "4c1067d9e158f9e18ee0fcf470e7e4f9", "lat": 38.93734033333333, "fusion_lon": 0.0, "fusion_lat": 0.0, "type": "electric_scooter", "name": "4c1067d9e158f9e18ee0fcf470e7e4f9", "is_disabled": 0, "rental_uris": {"ios": "https://dc.lft.to/lastmile_qr_scan", "android": "https://dc.lft.to/lastmile_qr_scan"}, "is_reserved": 0}, {"lon": -76.987641, "bike_id": "d404ac8147b0f83c2d1c98c2d58e202f", "lat": 38.85764, "fusion_lon": 0.0, "fusion_lat": 0.0, "type": "electric_bike", "name": "d404ac8147b0f83c2d1c98c2d58e202f", "is_disabled": 0, "rental_uris": {"ios": "https://dc.lft.to/lastmile_qr_scan", "android": "https://dc.lft.to/lastmile_qr_scan"}, "is_reserved": 0}, {"lon": -77.02766866666667, "bike_id": "4ed86b58c15edb190326fbcef5e6e19f", "lat": 38.95425516666667, "fusion_lon": 0.0, "fusion_lat": 0.0, "type": "electric_scooter", "name": "4ed86b58c15edb190326fbcef5e6e19f", "is_disabled": 0, "rental_uris": {"ios": "https://dc.lft.to/lastmile_qr_scan", "android": "https://dc.lft.to/lastmile_qr_scan"}, "is_reserved": 0}, {"lon": -77.067261, "bike_id": "bdd4d678b3f999fba293015ff81c5232", "lat": 38.91490733333333, "fusion_lon": 0.0, "fusion_lat": 0.0, "type": "electric_scooter", "name": "bdd4d678b3f999fba293015ff81c5232", "is_disabled": 0, "rental_uris": {"ios": "https://dc.lft.to/lastmile_qr_scan", "android": "https://dc.lft.to/lastmile_qr_scan"}, "is_reserved": 0}, {"lon": -77.003351, "bike_id": "03b6131c2a19e824393d70ad51699018", "lat": 38.8973035, "fusion_lon": 0.0, "fusion_lat": 0.0, "type": "electric_scooter", "name": "03b6131c2a19e824393d70ad51699018", "is_disabled": 0, "rental_uris": {"ios": "https://dc.lft.to/lastmile_qr_scan", "android": "https://dc.lft.to/lastmile_qr_scan"}, "is_reserved": 0}, {"lon": -77.03868883333334, "bike_id": "3184a108d995181aaf49d2a39eb72850", "lat": 38.91413983333333, "fusion_lon": 0.0, "fusion_lat": 0.0, "type": "electric_scooter", "name": "3184a108d995181aaf49d2a39eb72850", "is_disabled": 0, "rental_uris": {"ios": "https://dc.lft.to/lastmile_qr_scan", "android": "https://dc.lft.to/lastmile_qr_scan"}, "is_reserved": 0}, {"lon": -76.98085533333334, "bike_id": "bef7423b35e417231f9263df68b9a2ef", "lat": 38.90706516666667, "fusion_lon": 0.0, "fusion_lat": 0.0, "type": "electric_scooter", "name": "bef7423b35e417231f9263df68b9a2ef", "is_disabled": 0, "rental_uris": {"ios": "https://dc.lft.to/lastmile_qr_scan", "android": "https://dc.lft.to/lastmile_qr_scan"}, "is_reserved": 0}, {"lon": -77.03281583333333, "bike_id": "06025bd5e26d1fcca6e9932bfaee8b3b", "lat": 38.94173383333333, "fusion_lon": 0.0, "fusion_lat": 0.0, "type": "electric_scooter", "name": "06025bd5e26d1fcca6e9932bfaee8b3b", "is_disabled": 0, "rental_uris": {"ios": "https://dc.lft.to/lastmile_qr_scan", "android": "https://dc.lft.to/lastmile_qr_scan"}, "is_reserved": 0}, {"lon": -77.03317783333334, "bike_id": "cdcef0c61373e71637ae0df1d9a452fb", "lat": 38.915649333333334, "fusion_lon": 0.0, "fusion_lat": 0.0, "type": "electric_scooter", "name": "cdcef0c61373e71637ae0df1d9a452fb", "is_disabled": 0, "rental_uris": {"ios": "https://dc.lft.to/lastmile_qr_scan", "android": "https://dc.lft.to/lastmile_qr_scan"}, "is_reserved": 0}, {"lon": -77.06830766666667, "bike_id": "af5e5d9c5b9455cce95233807c07bc79", "lat": 38.80564283333333, "fusion_lon": 0.0, "fusion_lat": 0.0, "type": "electric_bike", "name": "af5e5d9c5b9455cce95233807c07bc79", "is_disabled": 0, "rental_uris": {"ios": "https://dc.lft.to/lastmile_qr_scan", "android": "https://dc.lft.to/lastmile_qr_scan"}, "is_reserved": 0}, {"lon": -77.0435585, "bike_id": "1d6ffcbd9931cf23e29335607be0ab9c", "lat": 38.90789516666667, "fusion_lon": 0.0, "fusion_lat": 0.0, "type": "electric_scooter", "name": "1d6ffcbd9931cf23e29335607be0ab9c", "is_disabled": 0, "rental_uris": {"ios": "https://dc.lft.to/lastmile_qr_scan", "android": "https://dc.lft.to/lastmile_qr_scan"}, "is_reserved": 0}, {"lon": -77.017686, "bike_id": "69efe575092cbaf09691cfefc897df4c", "lat": 38.90082233333333, "fusion_lon": 0.0, "fusion_lat": 0.0, "type": "electric_scooter", "name": "69efe575092cbaf09691cfefc897df4c", "is_disabled": 0, "rental_uris": {"ios": "https://dc.lft.to/lastmile_qr_scan", "android": "https://dc.lft.to/lastmile_qr_scan"}, "is_reserved": 0}, {"lon": -77.0230655, "bike_id": "b86c849985a0c53aef7405345a839500", "lat": 38.908869333333335, "fusion_lon": 0.0, "fusion_lat": 0.0, "type": "electric_scooter", "name": "b86c849985a0c53aef7405345a839500", "is_disabled": 0, "rental_uris": {"ios": "https://dc.lft.to/lastmile_qr_scan", "android": "https://dc.lft.to/lastmile_qr_scan"}, "is_reserved": 0}, {"lon": -76.93765966666666, "bike_id": "298ebf07875af44be42e3aec8d2a16a1", "lat": 38.899607, "fusion_lon": 0.0, "fusion_lat": 0.0, "type": "electric_scooter", "name": "298ebf07875af44be42e3aec8d2a16a1", "is_disabled": 0, "rental_uris": {"ios": "https://dc.lft.to/lastmile_qr_scan", "android": "https://dc.lft.to/lastmile_qr_scan"}, "is_reserved": 0}, {"lon": -76.998595, "bike_id": "581feb230d1ea3788375e32bbbc3a4c3", "lat": 38.894120666666666, "fusion_lon": 0.0, "fusion_lat": 0.0, "type": "electric_scooter", "name": "581feb230d1ea3788375e32bbbc3a4c3", "is_disabled": 0, "rental_uris": {"ios": "https://dc.lft.to/lastmile_qr_scan", "android": "https://dc.lft.to/lastmile_qr_scan"}, "is_reserved": 0}, {"lon": -77.049813, "bike_id": "9b568ddbb7267cad90388c30e1526fb4", "lat": 39.06294066666667, "fusion_lon": 0.0, "fusion_lat": 0.0, "type": "electric_bike", "name": "9b568ddbb7267cad90388c30e1526fb4", "is_disabled": 0, "rental_uris": {"ios": "https://dc.lft.to/lastmile_qr_scan", "android": "https://dc.lft.to/lastmile_qr_scan"}, "is_reserved": 0}, {"lon": -76.99010633333333, "bike_id": "32cb73bb872ae18539619daa7f6635c9", "lat": 38.945947833333335, "fusion_lon": 0.0, "fusion_lat": 0.0, "type": "electric_scooter", "name": "32cb73bb872ae18539619daa7f6635c9", "is_disabled": 0, "rental_uris": {"ios": "https://dc.lft.to/lastmile_qr_scan", "android": "https://dc.lft.to/lastmile_qr_scan"}, "is_reserved": 0}, {"lon": -77.05142083333334, "bike_id": "13a82686c822bca151712902e0acf992", "lat": 38.89852033333333, "fusion_lon": 0.0, "fusion_lat": 0.0, "type": "electric_scooter", "name": "13a82686c822bca151712902e0acf992", "is_disabled": 0, "rental_uris": {"ios": "https://dc.lft.to/lastmile_qr_scan", "android": "https://dc.lft.to/lastmile_qr_scan"}, "is_reserved": 0}, {"lon": -76.99365283333333, "bike_id": "9a9d179a11040c4bd273308fbe4a331c", "lat": 38.94023333333333, "fusion_lon": 0.0, "fusion_lat": 0.0, "type": "electric_scooter", "name": "9a9d179a11040c4bd273308fbe4a331c", "is_disabled": 0, "rental_uris": {"ios": "https://dc.lft.to/lastmile_qr_scan", "android": "https://dc.lft.to/lastmile_qr_scan"}, "is_reserved": 0}, {"lon": -77.03290783333334, "bike_id": "9262af8e05f916936f0ad66358314777", "lat": 38.956495, "fusion_lon": 0.0, "fusion_lat": 0.0, "type": "electric_scooter", "name": "9262af8e05f916936f0ad66358314777", "is_disabled": 0, "rental_uris": {"ios": "https://dc.lft.to/lastmile_qr_scan", "android": "https://dc.lft.to/lastmile_qr_scan"}, "is_reserved": 0}, {"lon": -77.001252, "bike_id": "e7783ef9486912ca61939cb29a48f5f9", "lat": 38.905021166666664, "fusion_lon": 0.0, "fusion_lat": 0.0, "type": "electric_scooter", "name": "e7783ef9486912ca61939cb29a48f5f9", "is_disabled": 0, "rental_uris": {"ios": "https://dc.lft.to/lastmile_qr_scan", "android": "https://dc.lft.to/lastmile_qr_scan"}, "is_reserved": 0}, {"lon": -77.0386345, "bike_id": "fac804641f74549fffe5218322ca7d88", "lat": 38.920148, "fusion_lon": 0.0, "fusion_lat": 0.0, "type": "electric_scooter", "name": "fac804641f74549fffe5218322ca7d88", "is_disabled": 0, "rental_uris": {"ios": "https://dc.lft.to/lastmile_qr_scan", "android": "https://dc.lft.to/lastmile_qr_scan"}, "is_reserved": 0}, {"lon": -76.93764616666667, "bike_id": "e72329f665a04d59d01a8412d4da5fee", "lat": 38.8785975, "fusion_lon": 0.0, "fusion_lat": 0.0, "type": "electric_scooter", "name": "e72329f665a04d59d01a8412d4da5fee", "is_disabled": 0, "rental_uris": {"ios": "https://dc.lft.to/lastmile_qr_scan", "android": "https://dc.lft.to/lastmile_qr_scan"}, "is_reserved": 0}, {"lon": -76.9450505, "bike_id": "b7be726d2d82542e2a19b9c667115b10", "lat": 38.86480183333333, "fusion_lon": 0.0, "fusion_lat": 0.0, "type": "electric_bike", "name": "b7be726d2d82542e2a19b9c667115b10", "is_disabled": 0, "rental_uris": {"ios": "https://dc.lft.to/lastmile_qr_scan", "android": "https://dc.lft.to/lastmile_qr_scan"}, "is_reserved": 0}, {"lon": -77.05268833333334, "bike_id": "2a5b0013eb9b179838d1cb3a70fca8de", "lat": 38.9101995, "fusion_lon": 0.0, "fusion_lat": 0.0, "type": "electric_scooter", "name": "2a5b0013eb9b179838d1cb3a70fca8de", "is_disabled": 0, "rental_uris": {"ios": "https://dc.lft.to/lastmile_qr_scan", "android": "https://dc.lft.to/lastmile_qr_scan"}, "is_reserved": 0}, {"lon": -77.05358783333334, "bike_id": "687f96355781be430aaf555d0992fdd7", "lat": 38.9271015, "fusion_lon": 0.0, "fusion_lat": 0.0, "type": "electric_scooter", "name": "687f96355781be430aaf555d0992fdd7", "is_disabled": 0, "rental_uris": {"ios": "https://dc.lft.to/lastmile_qr_scan", "android": "https://dc.lft.to/lastmile_qr_scan"}, "is_reserved": 0}, {"lon": -77.0059615, "bike_id": "3701c3dbe19187b123d5db3c97981c6f", "lat": 38.90632433333333, "fusion_lon": 0.0, "fusion_lat": 0.0, "type": "electric_scooter", "name": "3701c3dbe19187b123d5db3c97981c6f", "is_disabled": 0, "rental_uris": {"ios": "https://dc.lft.to/lastmile_qr_scan", "android": "https://dc.lft.to/lastmile_qr_scan"}, "is_reserved": 0}, {"lon": -77.05234516666667, "bike_id": "0e6a46e3de826a0990cad36ec728b6f3", "lat": 38.92465083333333, "fusion_lon": 0.0, "fusion_lat": 0.0, "type": "electric_scooter", "name": "0e6a46e3de826a0990cad36ec728b6f3", "is_disabled": 0, "rental_uris": {"ios": "https://dc.lft.to/lastmile_qr_scan", "android": "https://dc.lft.to/lastmile_qr_scan"}, "is_reserved": 0}, {"lon": -77.02411683333334, "bike_id": "448adad2b6fa4b0349b5bb3f146e3e98", "lat": 38.909681666666664, "fusion_lon": 0.0, "fusion_lat": 0.0, "type": "electric_scooter", "name": "448adad2b6fa4b0349b5bb3f146e3e98", "is_disabled": 0, "rental_uris": {"ios": "https://dc.lft.to/lastmile_qr_scan", "android": "https://dc.lft.to/lastmile_qr_scan"}, "is_reserved": 0}, {"lon": -77.0278985, "bike_id": "2f018f8d18fb0d06749aae446aff0199", "lat": 38.956801166666665, "fusion_lon": 0.0, "fusion_lat": 0.0, "type": "electric_scooter", "name": "2f018f8d18fb0d06749aae446aff0199", "is_disabled": 0, "rental_uris": {"ios": "https://dc.lft.to/lastmile_qr_scan", "android": "https://dc.lft.to/lastmile_qr_scan"}, "is_reserved": 0}, {"lon": -77.0228935, "bike_id": "294b9c442163c1843b18c0cc568d9beb", "lat": 38.909080333333335, "fusion_lon": 0.0, "fusion_lat": 0.0, "type": "electric_scooter", "name": "294b9c442163c1843b18c0cc568d9beb", "is_disabled": 0, "rental_uris": {"ios": "https://dc.lft.to/lastmile_qr_scan", "android": "https://dc.lft.to/lastmile_qr_scan"}, "is_reserved": 0}, {"lon": -77.05555983333333, "bike_id": "31d57d9e665b984472f6ad3cb3647fbb", "lat": 38.930298666666665, "fusion_lon": 0.0, "fusion_lat": 0.0, "type": "electric_bike", "name": "31d57d9e665b984472f6ad3cb3647fbb", "is_disabled": 0, "rental_uris": {"ios": "https://dc.lft.to/lastmile_qr_scan", "android": "https://dc.lft.to/lastmile_qr_scan"}, "is_reserved": 0}, {"lon": -77.02488983333333, "bike_id": "b696ccf8b53fda38ab6d630417875a9c", "lat": 38.93858183333333, "fusion_lon": 0.0, "fusion_lat": 0.0, "type": "electric_scooter", "name": "b696ccf8b53fda38ab6d630417875a9c", "is_disabled": 0, "rental_uris": {"ios": "https://dc.lft.to/lastmile_qr_scan", "android": "https://dc.lft.to/lastmile_qr_scan"}, "is_reserved": 0}, {"lon": -77.05130716666666, "bike_id": "13cd2f4f59d68e2d665ed1101c44e32b", "lat": 38.92361066666667, "fusion_lon": 0.0, "fusion_lat": 0.0, "type": "electric_scooter", "name": "13cd2f4f59d68e2d665ed1101c44e32b", "is_disabled": 0, "rental_uris": {"ios": "https://dc.lft.to/lastmile_qr_scan", "android": "https://dc.lft.to/lastmile_qr_scan"}, "is_reserved": 0}, {"lon": -77.01277766666666, "bike_id": "9ed9fe6387788adda70cdfbbdecfd476", "lat": 38.912612, "fusion_lon": 0.0, "fusion_lat": 0.0, "type": "electric_scooter", "name": "9ed9fe6387788adda70cdfbbdecfd476", "is_disabled": 0, "rental_uris": {"ios": "https://dc.lft.to/lastmile_qr_scan", "android": "https://dc.lft.to/lastmile_qr_scan"}, "is_reserved": 0}, {"lon": -77.00784333333333, "bike_id": "3492b2838ee575a0f9e6f9587d3e8d8a", "lat": 38.906549166666665, "fusion_lon": 0.0, "fusion_lat": 0.0, "type": "electric_scooter", "name": "3492b2838ee575a0f9e6f9587d3e8d8a", "is_disabled": 0, "rental_uris": {"ios": "https://dc.lft.to/lastmile_qr_scan", "android": "https://dc.lft.to/lastmile_qr_scan"}, "is_reserved": 0}, {"lon": -77.04398866666666, "bike_id": "0e1b2774e7f6f432724b015a7b0a4301", "lat": 38.93320083333333, "fusion_lon": 0.0, "fusion_lat": 0.0, "type": "electric_scooter", "name": "0e1b2774e7f6f432724b015a7b0a4301", "is_disabled": 0, "rental_uris": {"ios": "https://dc.lft.to/lastmile_qr_scan", "android": "https://dc.lft.to/lastmile_qr_scan"}, "is_reserved": 0}, {"lon": -76.927535, "bike_id": "f414e59c66db6f2ffe00e672df0dcf95", "lat": 38.880562, "fusion_lon": 0.0, "fusion_lat": 0.0, "type": "electric_scooter", "name": "f414e59c66db6f2ffe00e672df0dcf95", "is_disabled": 0, "rental_uris": {"ios": "https://dc.lft.to/lastmile_qr_scan", "android": "https://dc.lft.to/lastmile_qr_scan"}, "is_reserved": 0}, {"lon": -77.00313466666667, "bike_id": "e01b6380b85aa01c0b269fd762ed9d90", "lat": 38.906104, "fusion_lon": 0.0, "fusion_lat": 0.0, "type": "electric_scooter", "name": "e01b6380b85aa01c0b269fd762ed9d90", "is_disabled": 0, "rental_uris": {"ios": "https://dc.lft.to/lastmile_qr_scan", "android": "https://dc.lft.to/lastmile_qr_scan"}, "is_reserved": 0}, {"lon": -77.0242875, "bike_id": "c4c73775060a2fa0ee965306aed457d6", "lat": 38.914029666666664, "fusion_lon": 0.0, "fusion_lat": 0.0, "type": "electric_scooter", "name": "c4c73775060a2fa0ee965306aed457d6", "is_disabled": 0, "rental_uris": {"ios": "https://dc.lft.to/lastmile_qr_scan", "android": "https://dc.lft.to/lastmile_qr_scan"}, "is_reserved": 0}, {"lon": -77.021666, "bike_id": "20677e4797b875e8dd9da8afaa8796b0", "lat": 38.88743066666667, "fusion_lon": 0.0, "fusion_lat": 0.0, "type": "electric_scooter", "name": "20677e4797b875e8dd9da8afaa8796b0", "is_disabled": 0, "rental_uris": {"ios": "https://dc.lft.to/lastmile_qr_scan", "android": "https://dc.lft.to/lastmile_qr_scan"}, "is_reserved": 0}, {"lon": -77.02395116666666, "bike_id": "36d5adc7f1ca3cb3cb72a74107180018", "lat": 38.934806333333334, "fusion_lon": 0.0, "fusion_lat": 0.0, "type": "electric_scooter", "name": "36d5adc7f1ca3cb3cb72a74107180018", "is_disabled": 0, "rental_uris": {"ios": "https://dc.lft.to/lastmile_qr_scan", "android": "https://dc.lft.to/lastmile_qr_scan"}, "is_reserved": 0}, {"lon": -77.02969166666666, "bike_id": "0ffa17c540213e1791e3264066b07016", "lat": 38.91682816666667, "fusion_lon": 0.0, "fusion_lat": 0.0, "type": "electric_scooter", "name": "0ffa17c540213e1791e3264066b07016", "is_disabled": 0, "rental_uris": {"ios": "https://dc.lft.to/lastmile_qr_scan", "android": "https://dc.lft.to/lastmile_qr_scan"}, "is_reserved": 0}, {"lon": -76.9888505, "bike_id": "47f5c42384c097ea43135b0901fd1d0b", "lat": 38.86661483333334, "fusion_lon": 0.0, "fusion_lat": 0.0, "type": "electric_scooter", "name": "47f5c42384c097ea43135b0901fd1d0b", "is_disabled": 0, "rental_uris": {"ios": "https://dc.lft.to/lastmile_qr_scan", "android": "https://dc.lft.to/lastmile_qr_scan"}, "is_reserved": 0}, {"lon": -77.0318095, "bike_id": "e66a5c5cd0a49e4ab20bce1670b71b28", "lat": 38.895765, "fusion_lon": 0.0, "fusion_lat": 0.0, "type": "electric_scooter", "name": "e66a5c5cd0a49e4ab20bce1670b71b28", "is_disabled": 0, "rental_uris": {"ios": "https://dc.lft.to/lastmile_qr_scan", "android": "https://dc.lft.to/lastmile_qr_scan"}, "is_reserved": 0}, {"lon": -77.02302983333334, "bike_id": "6c5eb81173a2b71848201f6910b5efa4", "lat": 38.9409105, "fusion_lon": 0.0, "fusion_lat": 0.0, "type": "electric_scooter", "name": "6c5eb81173a2b71848201f6910b5efa4", "is_disabled": 0, "rental_uris": {"ios": "https://dc.lft.to/lastmile_qr_scan", "android": "https://dc.lft.to/lastmile_qr_scan"}, "is_reserved": 0}, {"lon": -77.04814666666667, "bike_id": "7eed9857b3f88938888e4ff7eca49df5", "lat": 38.913274, "fusion_lon": 0.0, "fusion_lat": 0.0, "type": "electric_scooter", "name": "7eed9857b3f88938888e4ff7eca49df5", "is_disabled": 0, "rental_uris": {"ios": "https://dc.lft.to/lastmile_qr_scan", "android": "https://dc.lft.to/lastmile_qr_scan"}, "is_reserved": 0}, {"lon": -77.03990116666667, "bike_id": "b6f202a8a5434b98c2f14ee61e798d8b", "lat": 38.9245545, "fusion_lon": 0.0, "fusion_lat": 0.0, "type": "electric_scooter", "name": "b6f202a8a5434b98c2f14ee61e798d8b", "is_disabled": 0, "rental_uris": {"ios": "https://dc.lft.to/lastmile_qr_scan", "android": "https://dc.lft.to/lastmile_qr_scan"}, "is_reserved": 0}, {"lon": -77.03215933333334, "bike_id": "5a2100f8989934eb427d9330a96119f8", "lat": 38.93291683333333, "fusion_lon": 0.0, "fusion_lat": 0.0, "type": "electric_bike", "name": "5a2100f8989934eb427d9330a96119f8", "is_disabled": 0, "rental_uris": {"ios": "https://dc.lft.to/lastmile_qr_scan", "android": "https://dc.lft.to/lastmile_qr_scan"}, "is_reserved": 0}, {"lon": -77.02162966666667, "bike_id": "804ceffbad2cd6122892b382a832804a", "lat": 38.8922005, "fusion_lon": 0.0, "fusion_lat": 0.0, "type": "electric_scooter", "name": "804ceffbad2cd6122892b382a832804a", "is_disabled": 0, "rental_uris": {"ios": "https://dc.lft.to/lastmile_qr_scan", "android": "https://dc.lft.to/lastmile_qr_scan"}, "is_reserved": 0}, {"lon": -77.02398133333334, "bike_id": "d269e9c51e07936a755e780283b881a9", "lat": 38.9199385, "fusion_lon": 0.0, "fusion_lat": 0.0, "type": "electric_scooter", "name": "d269e9c51e07936a755e780283b881a9", "is_disabled": 0, "rental_uris": {"ios": "https://dc.lft.to/lastmile_qr_scan", "android": "https://dc.lft.to/lastmile_qr_scan"}, "is_reserved": 0}, {"lon": -77.05089016666666, "bike_id": "0c54217c25f6dc561bd6853d7dba8c1a", "lat": 39.0367385, "fusion_lon": 0.0, "fusion_lat": 0.0, "type": "electric_bike", "name": "0c54217c25f6dc561bd6853d7dba8c1a", "is_disabled": 0, "rental_uris": {"ios": "https://dc.lft.to/lastmile_qr_scan", "android": "https://dc.lft.to/lastmile_qr_scan"}, "is_reserved": 0}, {"lon": -77.00741066666667, "bike_id": "a1b47f8323403306354d7f91adca3830", "lat": 38.89844433333333, "fusion_lon": 0.0, "fusion_lat": 0.0, "type": "electric_bike", "name": "a1b47f8323403306354d7f91adca3830", "is_disabled": 0, "rental_uris": {"ios": "https://dc.lft.to/lastmile_qr_scan", "android": "https://dc.lft.to/lastmile_qr_scan"}, "is_reserved": 0}, {"lon": -77.04659983333333, "bike_id": "13f08d3625fb5116fe5d7c0fd74430b7", "lat": 38.903197166666665, "fusion_lon": 0.0, "fusion_lat": 0.0, "type": "electric_scooter", "name": "13f08d3625fb5116fe5d7c0fd74430b7", "is_disabled": 0, "rental_uris": {"ios": "https://dc.lft.to/lastmile_qr_scan", "android": "https://dc.lft.to/lastmile_qr_scan"}, "is_reserved": 0}, {"lon": -77.02601183333333, "bike_id": "050913e5ec6b93ad93ee1af33ee51e0c", "lat": 38.92656, "fusion_lon": 0.0, "fusion_lat": 0.0, "type": "electric_scooter", "name": "050913e5ec6b93ad93ee1af33ee51e0c", "is_disabled": 0, "rental_uris": {"ios": "https://dc.lft.to/lastmile_qr_scan", "android": "https://dc.lft.to/lastmile_qr_scan"}, "is_reserved": 0}, {"lon": -77.03983083333334, "bike_id": "7950d6d3fc558fde4516d3a32f7be214", "lat": 38.923160833333334, "fusion_lon": 0.0, "fusion_lat": 0.0, "type": "electric_scooter", "name": "7950d6d3fc558fde4516d3a32f7be214", "is_disabled": 0, "rental_uris": {"ios": "https://dc.lft.to/lastmile_qr_scan", "android": "https://dc.lft.to/lastmile_qr_scan"}, "is_reserved": 0}, {"lon": -77.019088, "bike_id": "81c092f9aabcfe19b615a4f49d300fbf", "lat": 38.88611133333333, "fusion_lon": 0.0, "fusion_lat": 0.0, "type": "electric_scooter", "name": "81c092f9aabcfe19b615a4f49d300fbf", "is_disabled": 0, "rental_uris": {"ios": "https://dc.lft.to/lastmile_qr_scan", "android": "https://dc.lft.to/lastmile_qr_scan"}, "is_reserved": 0}, {"lon": -77.04902983333334, "bike_id": "56f837c671f880801c5abc54252dcba3", "lat": 38.905223666666664, "fusion_lon": 0.0, "fusion_lat": 0.0, "type": "electric_scooter", "name": "56f837c671f880801c5abc54252dcba3", "is_disabled": 0, "rental_uris": {"ios": "https://dc.lft.to/lastmile_qr_scan", "android": "https://dc.lft.to/lastmile_qr_scan"}, "is_reserved": 0}, {"lon": -77.04327766666667, "bike_id": "476dec5aec86a9accdc67860bcf997ee", "lat": 38.90555483333333, "fusion_lon": 0.0, "fusion_lat": 0.0, "type": "electric_scooter", "name": "476dec5aec86a9accdc67860bcf997ee", "is_disabled": 0, "rental_uris": {"ios": "https://dc.lft.to/lastmile_qr_scan", "android": "https://dc.lft.to/lastmile_qr_scan"}, "is_reserved": 0}, {"lon": -77.0385875, "bike_id": "2007100f39bf91ce49071752bca92207", "lat": 38.9125545, "fusion_lon": 0.0, "fusion_lat": 0.0, "type": "electric_scooter", "name": "2007100f39bf91ce49071752bca92207", "is_disabled": 0, "rental_uris": {"ios": "https://dc.lft.to/lastmile_qr_scan", "android": "https://dc.lft.to/lastmile_qr_scan"}, "is_reserved": 0}, {"lon": -77.05339166666667, "bike_id": "79a0895bebf29e6a7a7c02f6bfdc03f5", "lat": 38.927131833333334, "fusion_lon": 0.0, "fusion_lat": 0.0, "type": "electric_scooter", "name": "79a0895bebf29e6a7a7c02f6bfdc03f5", "is_disabled": 0, "rental_uris": {"ios": "https://dc.lft.to/lastmile_qr_scan", "android": "https://dc.lft.to/lastmile_qr_scan"}, "is_reserved": 0}, {"lon": -77.0281815, "bike_id": "6d1a95838464ff050931024490514824", "lat": 38.92467766666667, "fusion_lon": 0.0, "fusion_lat": 0.0, "type": "electric_scooter", "name": "6d1a95838464ff050931024490514824", "is_disabled": 0, "rental_uris": {"ios": "https://dc.lft.to/lastmile_qr_scan", "android": "https://dc.lft.to/lastmile_qr_scan"}, "is_reserved": 0}, {"lon": -77.024667, "bike_id": "a426da16ba6766f1cf861360b730825d", "lat": 38.897247166666666, "fusion_lon": 0.0, "fusion_lat": 0.0, "type": "electric_scooter", "name": "a426da16ba6766f1cf861360b730825d", "is_disabled": 0, "rental_uris": {"ios": "https://dc.lft.to/lastmile_qr_scan", "android": "https://dc.lft.to/lastmile_qr_scan"}, "is_reserved": 0}, {"lon": -77.03181366666666, "bike_id": "bca5f86b4345060c2878ead9612fcec0", "lat": 38.914172, "fusion_lon": 0.0, "fusion_lat": 0.0, "type": "electric_scooter", "name": "bca5f86b4345060c2878ead9612fcec0", "is_disabled": 0, "rental_uris": {"ios": "https://dc.lft.to/lastmile_qr_scan", "android": "https://dc.lft.to/lastmile_qr_scan"}, "is_reserved": 0}, {"lon": -77.01298983333334, "bike_id": "99770f9eed957631e320b9ceb8fba92e", "lat": 38.90078466666667, "fusion_lon": 0.0, "fusion_lat": 0.0, "type": "electric_scooter", "name": "99770f9eed957631e320b9ceb8fba92e", "is_disabled": 0, "rental_uris": {"ios": "https://dc.lft.to/lastmile_qr_scan", "android": "https://dc.lft.to/lastmile_qr_scan"}, "is_reserved": 0}, {"lon": -76.93009766666667, "bike_id": "3fc1377f57465dbe7a79145bc39efc02", "lat": 38.896444333333335, "fusion_lon": 0.0, "fusion_lat": 0.0, "type": "electric_bike", "name": "3fc1377f57465dbe7a79145bc39efc02", "is_disabled": 0, "rental_uris": {"ios": "https://dc.lft.to/lastmile_qr_scan", "android": "https://dc.lft.to/lastmile_qr_scan"}, "is_reserved": 0}, {"lon": -77.01726283333333, "bike_id": "cb8a70c115291dfcd9a13690574b7b36", "lat": 38.94312716666666, "fusion_lon": 0.0, "fusion_lat": 0.0, "type": "electric_scooter", "name": "cb8a70c115291dfcd9a13690574b7b36", "is_disabled": 0, "rental_uris": {"ios": "https://dc.lft.to/lastmile_qr_scan", "android": "https://dc.lft.to/lastmile_qr_scan"}, "is_reserved": 0}, {"lon": -76.9317555, "bike_id": "86b5a0989087d6c55ca9f8f8edfc3f30", "lat": 38.8988175, "fusion_lon": 0.0, "fusion_lat": 0.0, "type": "electric_scooter", "name": "86b5a0989087d6c55ca9f8f8edfc3f30", "is_disabled": 0, "rental_uris": {"ios": "https://dc.lft.to/lastmile_qr_scan", "android": "https://dc.lft.to/lastmile_qr_scan"}, "is_reserved": 0}, {"lon": -77.04372383333333, "bike_id": "aeb2ddbc461358df80122ae59ba25f60", "lat": 38.90249766666667, "fusion_lon": 0.0, "fusion_lat": 0.0, "type": "electric_scooter", "name": "aeb2ddbc461358df80122ae59ba25f60", "is_disabled": 0, "rental_uris": {"ios": "https://dc.lft.to/lastmile_qr_scan", "android": "https://dc.lft.to/lastmile_qr_scan"}, "is_reserved": 0}, {"lon": -77.00836866666667, "bike_id": "dd7339d98414b4c64deae9f6d95d3753", "lat": 38.877987166666664, "fusion_lon": 0.0, "fusion_lat": 0.0, "type": "electric_bike", "name": "dd7339d98414b4c64deae9f6d95d3753", "is_disabled": 0, "rental_uris": {"ios": "https://dc.lft.to/lastmile_qr_scan", "android": "https://dc.lft.to/lastmile_qr_scan"}, "is_reserved": 0}, {"lon": -77.0328765, "bike_id": "c09e5153ebc634867f66058a5d181a5e", "lat": 38.95650666666667, "fusion_lon": 0.0, "fusion_lat": 0.0, "type": "electric_scooter", "name": "c09e5153ebc634867f66058a5d181a5e", "is_disabled": 0, "rental_uris": {"ios": "https://dc.lft.to/lastmile_qr_scan", "android": "https://dc.lft.to/lastmile_qr_scan"}, "is_reserved": 0}, {"lon": -77.0381295, "bike_id": "882b8bc93e8d0f8f6512cb32653c2093", "lat": 38.92060716666667, "fusion_lon": 0.0, "fusion_lat": 0.0, "type": "electric_scooter", "name": "882b8bc93e8d0f8f6512cb32653c2093", "is_disabled": 0, "rental_uris": {"ios": "https://dc.lft.to/lastmile_qr_scan", "android": "https://dc.lft.to/lastmile_qr_scan"}, "is_reserved": 0}, {"lon": -77.02360083333333, "bike_id": "b33a91e5a5e3d0beb838636ff6e6506f", "lat": 38.9353825, "fusion_lon": 0.0, "fusion_lat": 0.0, "type": "electric_scooter", "name": "b33a91e5a5e3d0beb838636ff6e6506f", "is_disabled": 0, "rental_uris": {"ios": "https://dc.lft.to/lastmile_qr_scan", "android": "https://dc.lft.to/lastmile_qr_scan"}, "is_reserved": 0}, {"lon": -76.93642683333333, "bike_id": "1c27d7d091585c2de70dc49364343642", "lat": 38.90060366666667, "fusion_lon": 0.0, "fusion_lat": 0.0, "type": "electric_scooter", "name": "1c27d7d091585c2de70dc49364343642", "is_disabled": 0, "rental_uris": {"ios": "https://dc.lft.to/lastmile_qr_scan", "android": "https://dc.lft.to/lastmile_qr_scan"}, "is_reserved": 0}, {"lon": -77.04265733333334, "bike_id": "2c1aa406863181edce20270f9d7c6d08", "lat": 38.917762, "fusion_lon": 0.0, "fusion_lat": 0.0, "type": "electric_scooter", "name": "2c1aa406863181edce20270f9d7c6d08", "is_disabled": 0, "rental_uris": {"ios": "https://dc.lft.to/lastmile_qr_scan", "android": "https://dc.lft.to/lastmile_qr_scan"}, "is_reserved": 0}, {"lon": -77.00062333333334, "bike_id": "55d865cfba920194f39c6022f9e9f43d", "lat": 38.924279166666665, "fusion_lon": 0.0, "fusion_lat": 0.0, "type": "electric_scooter", "name": "55d865cfba920194f39c6022f9e9f43d", "is_disabled": 0, "rental_uris": {"ios": "https://dc.lft.to/lastmile_qr_scan", "android": "https://dc.lft.to/lastmile_qr_scan"}, "is_reserved": 0}, {"lon": -76.98227733333333, "bike_id": "2566948ccdb03cda0d3cb59f9a847660", "lat": 38.9163685, "fusion_lon": 0.0, "fusion_lat": 0.0, "type": "electric_scooter", "name": "2566948ccdb03cda0d3cb59f9a847660", "is_disabled": 0, "rental_uris": {"ios": "https://dc.lft.to/lastmile_qr_scan", "android": "https://dc.lft.to/lastmile_qr_scan"}, "is_reserved": 0}, {"lon": -77.05208566666667, "bike_id": "4baf26eb9e89be1c02656cc6c76f6f30", "lat": 38.90009033333333, "fusion_lon": 0.0, "fusion_lat": 0.0, "type": "electric_scooter", "name": "4baf26eb9e89be1c02656cc6c76f6f30", "is_disabled": 0, "rental_uris": {"ios": "https://dc.lft.to/lastmile_qr_scan", "android": "https://dc.lft.to/lastmile_qr_scan"}, "is_reserved": 0}, {"lon": -76.936107, "bike_id": "bf79e01bfffe7a3b6922e54224803b66", "lat": 38.896789, "fusion_lon": 0.0, "fusion_lat": 0.0, "type": "electric_scooter", "name": "bf79e01bfffe7a3b6922e54224803b66", "is_disabled": 0, "rental_uris": {"ios": "https://dc.lft.to/lastmile_qr_scan", "android": "https://dc.lft.to/lastmile_qr_scan"}, "is_reserved": 0}, {"lon": -77.02405, "bike_id": "b8eff9083fb9ba92d73942caa899420f", "lat": 38.91760683333333, "fusion_lon": 0.0, "fusion_lat": 0.0, "type": "electric_scooter", "name": "b8eff9083fb9ba92d73942caa899420f", "is_disabled": 0, "rental_uris": {"ios": "https://dc.lft.to/lastmile_qr_scan", "android": "https://dc.lft.to/lastmile_qr_scan"}, "is_reserved": 0}, {"lon": -77.028959, "bike_id": "b02cfa0656652bdb36ae2d4bfa830bed", "lat": 38.90384916666667, "fusion_lon": 0.0, "fusion_lat": 0.0, "type": "electric_scooter", "name": "b02cfa0656652bdb36ae2d4bfa830bed", "is_disabled": 0, "rental_uris": {"ios": "https://dc.lft.to/lastmile_qr_scan", "android": "https://dc.lft.to/lastmile_qr_scan"}, "is_reserved": 0}, {"lon": -76.97615433333333, "bike_id": "06a3e27c37703e104ca884d948f21fc5", "lat": 38.903827666666665, "fusion_lon": 0.0, "fusion_lat": 0.0, "type": "electric_scooter", "name": "06a3e27c37703e104ca884d948f21fc5", "is_disabled": 0, "rental_uris": {"ios": "https://dc.lft.to/lastmile_qr_scan", "android": "https://dc.lft.to/lastmile_qr_scan"}, "is_reserved": 0}, {"lon": -76.99161633333334, "bike_id": "4155221b347760952bce899f471edf80", "lat": 38.8896565, "fusion_lon": 0.0, "fusion_lat": 0.0, "type": "electric_scooter", "name": "4155221b347760952bce899f471edf80", "is_disabled": 0, "rental_uris": {"ios": "https://dc.lft.to/lastmile_qr_scan", "android": "https://dc.lft.to/lastmile_qr_scan"}, "is_reserved": 0}, {"lon": -77.025022, "bike_id": "2aef35b9d9baafb08f5032ec8114c8a6", "lat": 38.919229666666666, "fusion_lon": 0.0, "fusion_lat": 0.0, "type": "electric_scooter", "name": "2aef35b9d9baafb08f5032ec8114c8a6", "is_disabled": 0, "rental_uris": {"ios": "https://dc.lft.to/lastmile_qr_scan", "android": "https://dc.lft.to/lastmile_qr_scan"}, "is_reserved": 0}, {"lon": -76.98667366666666, "bike_id": "221e780fe62c1fb3eff1ad236574b0b6", "lat": 38.902537333333335, "fusion_lon": 0.0, "fusion_lat": 0.0, "type": "electric_scooter", "name": "221e780fe62c1fb3eff1ad236574b0b6", "is_disabled": 0, "rental_uris": {"ios": "https://dc.lft.to/lastmile_qr_scan", "android": "https://dc.lft.to/lastmile_qr_scan"}, "is_reserved": 0}, {"lon": -77.03848516666666, "bike_id": "ca78a14420dff898f6dc2b9ac60b5242", "lat": 38.906794, "fusion_lon": 0.0, "fusion_lat": 0.0, "type": "electric_scooter", "name": "ca78a14420dff898f6dc2b9ac60b5242", "is_disabled": 0, "rental_uris": {"ios": "https://dc.lft.to/lastmile_qr_scan", "android": "https://dc.lft.to/lastmile_qr_scan"}, "is_reserved": 0}, {"lon": -77.04719516666667, "bike_id": "565af60c41623410300528ccd23da6f2", "lat": 38.92235866666667, "fusion_lon": 0.0, "fusion_lat": 0.0, "type": "electric_scooter", "name": "565af60c41623410300528ccd23da6f2", "is_disabled": 0, "rental_uris": {"ios": "https://dc.lft.to/lastmile_qr_scan", "android": "https://dc.lft.to/lastmile_qr_scan"}, "is_reserved": 0}, {"lon": -77.0280095, "bike_id": "d6113efc233b9f4a1ec2ee9f84a50622", "lat": 38.920121, "fusion_lon": 0.0, "fusion_lat": 0.0, "type": "electric_scooter", "name": "d6113efc233b9f4a1ec2ee9f84a50622", "is_disabled": 0, "rental_uris": {"ios": "https://dc.lft.to/lastmile_qr_scan", "android": "https://dc.lft.to/lastmile_qr_scan"}, "is_reserved": 0}, {"lon": -77.0432135, "bike_id": "1814cbf4c28e947aa47c47b746a2e00f", "lat": 38.91877316666667, "fusion_lon": 0.0, "fusion_lat": 0.0, "type": "electric_scooter", "name": "1814cbf4c28e947aa47c47b746a2e00f", "is_disabled": 0, "rental_uris": {"ios": "https://dc.lft.to/lastmile_qr_scan", "android": "https://dc.lft.to/lastmile_qr_scan"}, "is_reserved": 0}, {"lon": -77.02690383333334, "bike_id": "ed2e000122f828119cb4529f13c3298a", "lat": 38.94889116666667, "fusion_lon": 0.0, "fusion_lat": 0.0, "type": "electric_scooter", "name": "ed2e000122f828119cb4529f13c3298a", "is_disabled": 0, "rental_uris": {"ios": "https://dc.lft.to/lastmile_qr_scan", "android": "https://dc.lft.to/lastmile_qr_scan"}, "is_reserved": 0}, {"lon": -76.98541283333333, "bike_id": "1c2bf5e23c077a446ae0c0a24b0933da", "lat": 38.910209333333334, "fusion_lon": 0.0, "fusion_lat": 0.0, "type": "electric_scooter", "name": "1c2bf5e23c077a446ae0c0a24b0933da", "is_disabled": 0, "rental_uris": {"ios": "https://dc.lft.to/lastmile_qr_scan", "android": "https://dc.lft.to/lastmile_qr_scan"}, "is_reserved": 0}, {"lon": -77.03658666666666, "bike_id": "c084fff7e261a4a8f9f4c03832cbafc9", "lat": 38.92102466666667, "fusion_lon": 0.0, "fusion_lat": 0.0, "type": "electric_scooter", "name": "c084fff7e261a4a8f9f4c03832cbafc9", "is_disabled": 0, "rental_uris": {"ios": "https://dc.lft.to/lastmile_qr_scan", "android": "https://dc.lft.to/lastmile_qr_scan"}, "is_reserved": 0}, {"lon": -77.026839, "bike_id": "51752c0c7217f4d9565c343630459cde", "lat": 38.98486233333333, "fusion_lon": 0.0, "fusion_lat": 0.0, "type": "electric_scooter", "name": "51752c0c7217f4d9565c343630459cde", "is_disabled": 0, "rental_uris": {"ios": "https://dc.lft.to/lastmile_qr_scan", "android": "https://dc.lft.to/lastmile_qr_scan"}, "is_reserved": 0}, {"lon": -77.01542633333334, "bike_id": "3ec9d13a6a9aed900c204bcd601b96b0", "lat": 38.88341416666667, "fusion_lon": 0.0, "fusion_lat": 0.0, "type": "electric_scooter", "name": "3ec9d13a6a9aed900c204bcd601b96b0", "is_disabled": 0, "rental_uris": {"ios": "https://dc.lft.to/lastmile_qr_scan", "android": "https://dc.lft.to/lastmile_qr_scan"}, "is_reserved": 0}, {"lon": -77.02153633333333, "bike_id": "04e2d27fe54e4e0ef76941d3bdea60e3", "lat": 38.92601233333333, "fusion_lon": 0.0, "fusion_lat": 0.0, "type": "electric_scooter", "name": "04e2d27fe54e4e0ef76941d3bdea60e3", "is_disabled": 0, "rental_uris": {"ios": "https://dc.lft.to/lastmile_qr_scan", "android": "https://dc.lft.to/lastmile_qr_scan"}, "is_reserved": 0}, {"lon": -77.0634475, "bike_id": "509b24d62cc20e4a6daefdf6ed280724", "lat": 38.94451466666666, "fusion_lon": 0.0, "fusion_lat": 0.0, "type": "electric_scooter", "name": "509b24d62cc20e4a6daefdf6ed280724", "is_disabled": 0, "rental_uris": {"ios": "https://dc.lft.to/lastmile_qr_scan", "android": "https://dc.lft.to/lastmile_qr_scan"}, "is_reserved": 0}, {"lon": -77.0269345, "bike_id": "d7e829fb0820ea9b064372ba3cdbe9d7", "lat": 38.90668633333333, "fusion_lon": 0.0, "fusion_lat": 0.0, "type": "electric_scooter", "name": "d7e829fb0820ea9b064372ba3cdbe9d7", "is_disabled": 0, "rental_uris": {"ios": "https://dc.lft.to/lastmile_qr_scan", "android": "https://dc.lft.to/lastmile_qr_scan"}, "is_reserved": 0}, {"lon": -77.044738, "bike_id": "d24b00c4be663903f4c66027f95dbb83", "lat": 38.9005135, "fusion_lon": 0.0, "fusion_lat": 0.0, "type": "electric_scooter", "name": "d24b00c4be663903f4c66027f95dbb83", "is_disabled": 0, "rental_uris": {"ios": "https://dc.lft.to/lastmile_qr_scan", "android": "https://dc.lft.to/lastmile_qr_scan"}, "is_reserved": 0}, {"lon": -77.01531366666667, "bike_id": "c6552269925886828ecb51c1c8e22766", "lat": 38.9268405, "fusion_lon": 0.0, "fusion_lat": 0.0, "type": "electric_scooter", "name": "c6552269925886828ecb51c1c8e22766", "is_disabled": 0, "rental_uris": {"ios": "https://dc.lft.to/lastmile_qr_scan", "android": "https://dc.lft.to/lastmile_qr_scan"}, "is_reserved": 0}, {"lon": -77.00272866666667, "bike_id": "20b1b147440ac0de3cc8735a155bb983", "lat": 38.9116535, "fusion_lon": 0.0, "fusion_lat": 0.0, "type": "electric_bike", "name": "20b1b147440ac0de3cc8735a155bb983", "is_disabled": 0, "rental_uris": {"ios": "https://dc.lft.to/lastmile_qr_scan", "android": "https://dc.lft.to/lastmile_qr_scan"}, "is_reserved": 0}, {"lon": -77.04502983333333, "bike_id": "7ab506558d9329bf6a7a9061c4df95de", "lat": 38.90742916666667, "fusion_lon": 0.0, "fusion_lat": 0.0, "type": "electric_scooter", "name": "7ab506558d9329bf6a7a9061c4df95de", "is_disabled": 0, "rental_uris": {"ios": "https://dc.lft.to/lastmile_qr_scan", "android": "https://dc.lft.to/lastmile_qr_scan"}, "is_reserved": 0}, {"lon": -77.00140866666666, "bike_id": "3440da388001b6b0ee6e984d6b605f74", "lat": 38.84281716666667, "fusion_lon": 0.0, "fusion_lat": 0.0, "type": "electric_scooter", "name": "3440da388001b6b0ee6e984d6b605f74", "is_disabled": 0, "rental_uris": {"ios": "https://dc.lft.to/lastmile_qr_scan", "android": "https://dc.lft.to/lastmile_qr_scan"}, "is_reserved": 0}, {"lon": -76.93175133333334, "bike_id": "60537c4cf560123fca2abffd6b6312a1", "lat": 38.8988435, "fusion_lon": 0.0, "fusion_lat": 0.0, "type": "electric_scooter", "name": "60537c4cf560123fca2abffd6b6312a1", "is_disabled": 0, "rental_uris": {"ios": "https://dc.lft.to/lastmile_qr_scan", "android": "https://dc.lft.to/lastmile_qr_scan"}, "is_reserved": 0}, {"lon": -76.98614566666667, "bike_id": "38bb8a5e0b2db1cd1214148928f33d54", "lat": 38.90578516666667, "fusion_lon": 0.0, "fusion_lat": 0.0, "type": "electric_scooter", "name": "38bb8a5e0b2db1cd1214148928f33d54", "is_disabled": 0, "rental_uris": {"ios": "https://dc.lft.to/lastmile_qr_scan", "android": "https://dc.lft.to/lastmile_qr_scan"}, "is_reserved": 0}, {"lon": -77.0321335, "bike_id": "2073636f674fe2d900473208df45f1cd", "lat": 38.8842785, "fusion_lon": 0.0, "fusion_lat": 0.0, "type": "electric_scooter", "name": "2073636f674fe2d900473208df45f1cd", "is_disabled": 0, "rental_uris": {"ios": "https://dc.lft.to/lastmile_qr_scan", "android": "https://dc.lft.to/lastmile_qr_scan"}, "is_reserved": 0}, {"lon": -77.02171683333333, "bike_id": "16b210c1680a2167cd349160ba803464", "lat": 38.942894333333335, "fusion_lon": 0.0, "fusion_lat": 0.0, "type": "electric_scooter", "name": "16b210c1680a2167cd349160ba803464", "is_disabled": 0, "rental_uris": {"ios": "https://dc.lft.to/lastmile_qr_scan", "android": "https://dc.lft.to/lastmile_qr_scan"}, "is_reserved": 0}, {"lon": -76.95008283333334, "bike_id": "20060ba7460a1d9204d1f7a0ef28092f", "lat": 38.893935166666665, "fusion_lon": 0.0, "fusion_lat": 0.0, "type": "electric_scooter", "name": "20060ba7460a1d9204d1f7a0ef28092f", "is_disabled": 0, "rental_uris": {"ios": "https://dc.lft.to/lastmile_qr_scan", "android": "https://dc.lft.to/lastmile_qr_scan"}, "is_reserved": 0}, {"lon": -77.01409866666667, "bike_id": "087c0c3467caf55174c7b725c367d175", "lat": 38.92803166666667, "fusion_lon": 0.0, "fusion_lat": 0.0, "type": "electric_scooter", "name": "087c0c3467caf55174c7b725c367d175", "is_disabled": 0, "rental_uris": {"ios": "https://dc.lft.to/lastmile_qr_scan", "android": "https://dc.lft.to/lastmile_qr_scan"}, "is_reserved": 0}, {"lon": -77.03246966666667, "bike_id": "e2857977b5bb1903a27be6baf18eec7c", "lat": 38.8970995, "fusion_lon": 0.0, "fusion_lat": 0.0, "type": "electric_bike", "name": "e2857977b5bb1903a27be6baf18eec7c", "is_disabled": 0, "rental_uris": {"ios": "https://dc.lft.to/lastmile_qr_scan", "android": "https://dc.lft.to/lastmile_qr_scan"}, "is_reserved": 0}, {"lon": -77.0320045, "bike_id": "a808418d7185fef5e8c55049e7aa1fb6", "lat": 38.9228495, "fusion_lon": 0.0, "fusion_lat": 0.0, "type": "electric_scooter", "name": "a808418d7185fef5e8c55049e7aa1fb6", "is_disabled": 0, "rental_uris": {"ios": "https://dc.lft.to/lastmile_qr_scan", "android": "https://dc.lft.to/lastmile_qr_scan"}, "is_reserved": 0}, {"lon": -77.04495783333333, "bike_id": "9aea2d89993e962b9c3a8019c420590c", "lat": 38.907256333333336, "fusion_lon": 0.0, "fusion_lat": 0.0, "type": "electric_scooter", "name": "9aea2d89993e962b9c3a8019c420590c", "is_disabled": 0, "rental_uris": {"ios": "https://dc.lft.to/lastmile_qr_scan", "android": "https://dc.lft.to/lastmile_qr_scan"}, "is_reserved": 0}, {"lon": -77.02474983333333, "bike_id": "a56f47056696f96c37e6ecc1c92712c2", "lat": 38.91701716666667, "fusion_lon": 0.0, "fusion_lat": 0.0, "type": "electric_scooter", "name": "a56f47056696f96c37e6ecc1c92712c2", "is_disabled": 0, "rental_uris": {"ios": "https://dc.lft.to/lastmile_qr_scan", "android": "https://dc.lft.to/lastmile_qr_scan"}, "is_reserved": 0}, {"lon": -77.02555483333333, "bike_id": "3db63cba07b44f543d0dfe92b0ba44de", "lat": 38.901468333333334, "fusion_lon": 0.0, "fusion_lat": 0.0, "type": "electric_scooter", "name": "3db63cba07b44f543d0dfe92b0ba44de", "is_disabled": 0, "rental_uris": {"ios": "https://dc.lft.to/lastmile_qr_scan", "android": "https://dc.lft.to/lastmile_qr_scan"}, "is_reserved": 0}, {"lon": -77.06131333333333, "bike_id": "3d54c14d0200c1459413b4e134c981f8", "lat": 38.943672166666666, "fusion_lon": 0.0, "fusion_lat": 0.0, "type": "electric_scooter", "name": "3d54c14d0200c1459413b4e134c981f8", "is_disabled": 0, "rental_uris": {"ios": "https://dc.lft.to/lastmile_qr_scan", "android": "https://dc.lft.to/lastmile_qr_scan"}, "is_reserved": 0}, {"lon": -76.98372916666666, "bike_id": "766a9fea832d994fcf3bc4f9fc73f9fb", "lat": 38.89141716666666, "fusion_lon": 0.0, "fusion_lat": 0.0, "type": "electric_scooter", "name": "766a9fea832d994fcf3bc4f9fc73f9fb", "is_disabled": 0, "rental_uris": {"ios": "https://dc.lft.to/lastmile_qr_scan", "android": "https://dc.lft.to/lastmile_qr_scan"}, "is_reserved": 0}, {"lon": -77.019234, "bike_id": "bf368dfa37f0dc833bc81554b814a78a", "lat": 38.89240866666667, "fusion_lon": 0.0, "fusion_lat": 0.0, "type": "electric_scooter", "name": "bf368dfa37f0dc833bc81554b814a78a", "is_disabled": 0, "rental_uris": {"ios": "https://dc.lft.to/lastmile_qr_scan", "android": "https://dc.lft.to/lastmile_qr_scan"}, "is_reserved": 0}, {"lon": -76.98569016666667, "bike_id": "f700f1750bf9386dcda7e1f8dc20f366", "lat": 38.896161, "fusion_lon": 0.0, "fusion_lat": 0.0, "type": "electric_scooter", "name": "f700f1750bf9386dcda7e1f8dc20f366", "is_disabled": 0, "rental_uris": {"ios": "https://dc.lft.to/lastmile_qr_scan", "android": "https://dc.lft.to/lastmile_qr_scan"}, "is_reserved": 0}, {"lon": -77.03179066666667, "bike_id": "3fd3ffbd3d99ebbd01dc877d706e8ba1", "lat": 38.93610116666667, "fusion_lon": 0.0, "fusion_lat": 0.0, "type": "electric_scooter", "name": "3fd3ffbd3d99ebbd01dc877d706e8ba1", "is_disabled": 0, "rental_uris": {"ios": "https://dc.lft.to/lastmile_qr_scan", "android": "https://dc.lft.to/lastmile_qr_scan"}, "is_reserved": 0}, {"lon": -77.009188, "bike_id": "e57fe80ca5728fb3ecd431266bd66b94", "lat": 38.9106585, "fusion_lon": 0.0, "fusion_lat": 0.0, "type": "electric_scooter", "name": "e57fe80ca5728fb3ecd431266bd66b94", "is_disabled": 0, "rental_uris": {"ios": "https://dc.lft.to/lastmile_qr_scan", "android": "https://dc.lft.to/lastmile_qr_scan"}, "is_reserved": 0}, {"lon": -76.988385, "bike_id": "ca26479567ea9cfa323e03b92ab74a54", "lat": 38.9006855, "fusion_lon": 0.0, "fusion_lat": 0.0, "type": "electric_scooter", "name": "ca26479567ea9cfa323e03b92ab74a54", "is_disabled": 0, "rental_uris": {"ios": "https://dc.lft.to/lastmile_qr_scan", "android": "https://dc.lft.to/lastmile_qr_scan"}, "is_reserved": 0}, {"lon": -77.038663, "bike_id": "5ebaddab861d7af01c1fa63bc4719454", "lat": 38.91710283333333, "fusion_lon": 0.0, "fusion_lat": 0.0, "type": "electric_scooter", "name": "5ebaddab861d7af01c1fa63bc4719454", "is_disabled": 0, "rental_uris": {"ios": "https://dc.lft.to/lastmile_qr_scan", "android": "https://dc.lft.to/lastmile_qr_scan"}, "is_reserved": 0}, {"lon": -77.02181766666666, "bike_id": "6ec14f65bacd481dd7079b4bf9bd93f3", "lat": 38.90194533333333, "fusion_lon": 0.0, "fusion_lat": 0.0, "type": "electric_scooter", "name": "6ec14f65bacd481dd7079b4bf9bd93f3", "is_disabled": 0, "rental_uris": {"ios": "https://dc.lft.to/lastmile_qr_scan", "android": "https://dc.lft.to/lastmile_qr_scan"}, "is_reserved": 0}, {"lon": -77.03763233333333, "bike_id": "cd1af2216b15494b4814321ba85c6537", "lat": 38.92570533333333, "fusion_lon": 0.0, "fusion_lat": 0.0, "type": "electric_scooter", "name": "cd1af2216b15494b4814321ba85c6537", "is_disabled": 0, "rental_uris": {"ios": "https://dc.lft.to/lastmile_qr_scan", "android": "https://dc.lft.to/lastmile_qr_scan"}, "is_reserved": 0}, {"lon": -77.04020566666667, "bike_id": "0bee37c8b45eb85c934ef9c9b6605d9f", "lat": 38.91614216666667, "fusion_lon": 0.0, "fusion_lat": 0.0, "type": "electric_scooter", "name": "0bee37c8b45eb85c934ef9c9b6605d9f", "is_disabled": 0, "rental_uris": {"ios": "https://dc.lft.to/lastmile_qr_scan", "android": "https://dc.lft.to/lastmile_qr_scan"}, "is_reserved": 0}, {"lon": -77.029451, "bike_id": "a1899b319a15f304da309498a328b082", "lat": 38.9206175, "fusion_lon": 0.0, "fusion_lat": 0.0, "type": "electric_scooter", "name": "a1899b319a15f304da309498a328b082", "is_disabled": 0, "rental_uris": {"ios": "https://dc.lft.to/lastmile_qr_scan", "android": "https://dc.lft.to/lastmile_qr_scan"}, "is_reserved": 0}, {"lon": -77.01115766666666, "bike_id": "4edf695affe4f7418efcf126633edc09", "lat": 38.885499, "fusion_lon": 0.0, "fusion_lat": 0.0, "type": "electric_scooter", "name": "4edf695affe4f7418efcf126633edc09", "is_disabled": 0, "rental_uris": {"ios": "https://dc.lft.to/lastmile_qr_scan", "android": "https://dc.lft.to/lastmile_qr_scan"}, "is_reserved": 0}, {"lon": -77.05626083333334, "bike_id": "4d0210759952585da4c0cf522ff286ff", "lat": 38.960695333333334, "fusion_lon": 0.0, "fusion_lat": 0.0, "type": "electric_scooter", "name": "4d0210759952585da4c0cf522ff286ff", "is_disabled": 0, "rental_uris": {"ios": "https://dc.lft.to/lastmile_qr_scan", "android": "https://dc.lft.to/lastmile_qr_scan"}, "is_reserved": 0}, {"lon": -77.09597483333333, "bike_id": "1670f6b12b997dee3ca0355cdd3fb427", "lat": 39.02890583333333, "fusion_lon": 0.0, "fusion_lat": 0.0, "type": "electric_bike", "name": "1670f6b12b997dee3ca0355cdd3fb427", "is_disabled": 0, "rental_uris": {"ios": "https://dc.lft.to/lastmile_qr_scan", "android": "https://dc.lft.to/lastmile_qr_scan"}, "is_reserved": 0}, {"lon": -77.13102866666667, "bike_id": "cb28d7f10862a404ce0d57c038dabcd0", "lat": 39.024327666666665, "fusion_lon": 0.0, "fusion_lat": 0.0, "type": "electric_bike", "name": "cb28d7f10862a404ce0d57c038dabcd0", "is_disabled": 0, "rental_uris": {"ios": "https://dc.lft.to/lastmile_qr_scan", "android": "https://dc.lft.to/lastmile_qr_scan"}, "is_reserved": 0}, {"lon": -77.04486466666667, "bike_id": "a6c96a77f93a68e040207e2b6e5d4268", "lat": 38.9000885, "fusion_lon": 0.0, "fusion_lat": 0.0, "type": "electric_scooter", "name": "a6c96a77f93a68e040207e2b6e5d4268", "is_disabled": 0, "rental_uris": {"ios": "https://dc.lft.to/lastmile_qr_scan", "android": "https://dc.lft.to/lastmile_qr_scan"}, "is_reserved": 0}, {"lon": -77.03467683333334, "bike_id": "5f0255bb7375746a8a45d2acafb779dd", "lat": 38.90732216666667, "fusion_lon": 0.0, "fusion_lat": 0.0, "type": "electric_scooter", "name": "5f0255bb7375746a8a45d2acafb779dd", "is_disabled": 0, "rental_uris": {"ios": "https://dc.lft.to/lastmile_qr_scan", "android": "https://dc.lft.to/lastmile_qr_scan"}, "is_reserved": 0}, {"lon": -77.00343616666666, "bike_id": "61a0f5b9863c2baa5937aa6d4e48c731", "lat": 38.88713, "fusion_lon": 0.0, "fusion_lat": 0.0, "type": "electric_scooter", "name": "61a0f5b9863c2baa5937aa6d4e48c731", "is_disabled": 0, "rental_uris": {"ios": "https://dc.lft.to/lastmile_qr_scan", "android": "https://dc.lft.to/lastmile_qr_scan"}, "is_reserved": 0}, {"lon": -77.0354245, "bike_id": "4e6967abd2d93abed0301af4444be18e", "lat": 38.924224, "fusion_lon": 0.0, "fusion_lat": 0.0, "type": "electric_scooter", "name": "4e6967abd2d93abed0301af4444be18e", "is_disabled": 0, "rental_uris": {"ios": "https://dc.lft.to/lastmile_qr_scan", "android": "https://dc.lft.to/lastmile_qr_scan"}, "is_reserved": 0}, {"lon": -77.01022783333333, "bike_id": "51d2980e4d425f71591f9f022ba1390b", "lat": 38.9084925, "fusion_lon": 0.0, "fusion_lat": 0.0, "type": "electric_scooter", "name": "51d2980e4d425f71591f9f022ba1390b", "is_disabled": 0, "rental_uris": {"ios": "https://dc.lft.to/lastmile_qr_scan", "android": "https://dc.lft.to/lastmile_qr_scan"}, "is_reserved": 0}, {"lon": -77.03940483333334, "bike_id": "1914f1b36ecdaa591808891a2a52b379", "lat": 38.91568083333333, "fusion_lon": 0.0, "fusion_lat": 0.0, "type": "electric_scooter", "name": "1914f1b36ecdaa591808891a2a52b379", "is_disabled": 0, "rental_uris": {"ios": "https://dc.lft.to/lastmile_qr_scan", "android": "https://dc.lft.to/lastmile_qr_scan"}, "is_reserved": 0}, {"lon": -77.02259383333333, "bike_id": "228959bb907bd126dda08d83464bd95a", "lat": 38.9273245, "fusion_lon": 0.0, "fusion_lat": 0.0, "type": "electric_scooter", "name": "228959bb907bd126dda08d83464bd95a", "is_disabled": 0, "rental_uris": {"ios": "https://dc.lft.to/lastmile_qr_scan", "android": "https://dc.lft.to/lastmile_qr_scan"}, "is_reserved": 0}, {"lon": -76.9806145, "bike_id": "1c49c3ab26433055709166ea78b340d8", "lat": 38.8848955, "fusion_lon": 0.0, "fusion_lat": 0.0, "type": "electric_scooter", "name": "1c49c3ab26433055709166ea78b340d8", "is_disabled": 0, "rental_uris": {"ios": "https://dc.lft.to/lastmile_qr_scan", "android": "https://dc.lft.to/lastmile_qr_scan"}, "is_reserved": 0}, {"lon": -77.02486916666666, "bike_id": "8ab5c937ce9ae61840bef20d52b4358a", "lat": 38.918919, "fusion_lon": 0.0, "fusion_lat": 0.0, "type": "electric_scooter", "name": "8ab5c937ce9ae61840bef20d52b4358a", "is_disabled": 0, "rental_uris": {"ios": "https://dc.lft.to/lastmile_qr_scan", "android": "https://dc.lft.to/lastmile_qr_scan"}, "is_reserved": 0}, {"lon": -77.02613583333333, "bike_id": "73e677608ab559aee023ec750a58035d", "lat": 38.916896, "fusion_lon": 0.0, "fusion_lat": 0.0, "type": "electric_scooter", "name": "73e677608ab559aee023ec750a58035d", "is_disabled": 0, "rental_uris": {"ios": "https://dc.lft.to/lastmile_qr_scan", "android": "https://dc.lft.to/lastmile_qr_scan"}, "is_reserved": 0}, {"lon": -76.97397633333334, "bike_id": "cee7799c633f7c4cbb3326cbb772c9ac", "lat": 38.90300333333333, "fusion_lon": 0.0, "fusion_lat": 0.0, "type": "electric_scooter", "name": "cee7799c633f7c4cbb3326cbb772c9ac", "is_disabled": 0, "rental_uris": {"ios": "https://dc.lft.to/lastmile_qr_scan", "android": "https://dc.lft.to/lastmile_qr_scan"}, "is_reserved": 0}, {"lon": -76.99507566666666, "bike_id": "27a3ce6ad78f19004db88d82f0ab9095", "lat": 38.88250266666667, "fusion_lon": 0.0, "fusion_lat": 0.0, "type": "electric_scooter", "name": "27a3ce6ad78f19004db88d82f0ab9095", "is_disabled": 0, "rental_uris": {"ios": "https://dc.lft.to/lastmile_qr_scan", "android": "https://dc.lft.to/lastmile_qr_scan"}, "is_reserved": 0}, {"lon": -76.9459325, "bike_id": "35094f6d6689e7fb97877fde50963db9", "lat": 38.90147266666666, "fusion_lon": 0.0, "fusion_lat": 0.0, "type": "electric_scooter", "name": "35094f6d6689e7fb97877fde50963db9", "is_disabled": 0, "rental_uris": {"ios": "https://dc.lft.to/lastmile_qr_scan", "android": "https://dc.lft.to/lastmile_qr_scan"}, "is_reserved": 0}, {"lon": -77.0280865, "bike_id": "f27deeba70f55603b7d1e8405a327375", "lat": 38.90221833333333, "fusion_lon": 0.0, "fusion_lat": 0.0, "type": "electric_scooter", "name": "f27deeba70f55603b7d1e8405a327375", "is_disabled": 0, "rental_uris": {"ios": "https://dc.lft.to/lastmile_qr_scan", "android": "https://dc.lft.to/lastmile_qr_scan"}, "is_reserved": 0}, {"lon": -77.08808966666666, "bike_id": "f0fa75e8c6b2a1a61137eddcd72aef8d", "lat": 38.91174316666667, "fusion_lon": 0.0, "fusion_lat": 0.0, "type": "electric_scooter", "name": "f0fa75e8c6b2a1a61137eddcd72aef8d", "is_disabled": 0, "rental_uris": {"ios": "https://dc.lft.to/lastmile_qr_scan", "android": "https://dc.lft.to/lastmile_qr_scan"}, "is_reserved": 0}, {"lon": -77.03036, "bike_id": "e8b17122755ece53f45582046132daa9", "lat": 38.93718366666667, "fusion_lon": 0.0, "fusion_lat": 0.0, "type": "electric_scooter", "name": "e8b17122755ece53f45582046132daa9", "is_disabled": 0, "rental_uris": {"ios": "https://dc.lft.to/lastmile_qr_scan", "android": "https://dc.lft.to/lastmile_qr_scan"}, "is_reserved": 0}, {"lon": -76.98915816666667, "bike_id": "6cb2abd70d590ce01ac8b6d571ecb68c", "lat": 38.86493566666667, "fusion_lon": 0.0, "fusion_lat": 0.0, "type": "electric_scooter", "name": "6cb2abd70d590ce01ac8b6d571ecb68c", "is_disabled": 0, "rental_uris": {"ios": "https://dc.lft.to/lastmile_qr_scan", "android": "https://dc.lft.to/lastmile_qr_scan"}, "is_reserved": 0}, {"lon": -77.09040416666667, "bike_id": "05084e7e7122a46162b2ef34c2f89bbd", "lat": 38.849709833333335, "fusion_lon": 0.0, "fusion_lat": 0.0, "type": "electric_bike", "name": "05084e7e7122a46162b2ef34c2f89bbd", "is_disabled": 0, "rental_uris": {"ios": "https://dc.lft.to/lastmile_qr_scan", "android": "https://dc.lft.to/lastmile_qr_scan"}, "is_reserved": 0}, {"lon": -77.03993166666666, "bike_id": "aba76a1d943ea35c09de90c66c4d8c57", "lat": 38.934323666666664, "fusion_lon": 0.0, "fusion_lat": 0.0, "type": "electric_scooter", "name": "aba76a1d943ea35c09de90c66c4d8c57", "is_disabled": 0, "rental_uris": {"ios": "https://dc.lft.to/lastmile_qr_scan", "android": "https://dc.lft.to/lastmile_qr_scan"}, "is_reserved": 0}, {"lon": -77.01611816666667, "bike_id": "d922f7595c2710ad48f8f0cf284c43bc", "lat": 38.90343033333333, "fusion_lon": 0.0, "fusion_lat": 0.0, "type": "electric_scooter", "name": "d922f7595c2710ad48f8f0cf284c43bc", "is_disabled": 0, "rental_uris": {"ios": "https://dc.lft.to/lastmile_qr_scan", "android": "https://dc.lft.to/lastmile_qr_scan"}, "is_reserved": 0}, {"lon": -77.024249, "bike_id": "a26d878e48b0adec62458cc5b7d4d645", "lat": 38.93714383333333, "fusion_lon": 0.0, "fusion_lat": 0.0, "type": "electric_scooter", "name": "a26d878e48b0adec62458cc5b7d4d645", "is_disabled": 0, "rental_uris": {"ios": "https://dc.lft.to/lastmile_qr_scan", "android": "https://dc.lft.to/lastmile_qr_scan"}, "is_reserved": 0}, {"lon": -77.07411633333334, "bike_id": "af746b38b793abaf8e86c7033bb49024", "lat": 38.92886016666667, "fusion_lon": 0.0, "fusion_lat": 0.0, "type": "electric_scooter", "name": "af746b38b793abaf8e86c7033bb49024", "is_disabled": 0, "rental_uris": {"ios": "https://dc.lft.to/lastmile_qr_scan", "android": "https://dc.lft.to/lastmile_qr_scan"}, "is_reserved": 0}, {"lon": -77.00295166666666, "bike_id": "ef14a7dc7219d4e80c9901f53fd1db4a", "lat": 38.9088895, "fusion_lon": 0.0, "fusion_lat": 0.0, "type": "electric_scooter", "name": "ef14a7dc7219d4e80c9901f53fd1db4a", "is_disabled": 0, "rental_uris": {"ios": "https://dc.lft.to/lastmile_qr_scan", "android": "https://dc.lft.to/lastmile_qr_scan"}, "is_reserved": 0}, {"lon": -77.04324066666666, "bike_id": "91b3b7a2e9a03f670f7012a33a3ab068", "lat": 38.918767, "fusion_lon": 0.0, "fusion_lat": 0.0, "type": "electric_scooter", "name": "91b3b7a2e9a03f670f7012a33a3ab068", "is_disabled": 0, "rental_uris": {"ios": "https://dc.lft.to/lastmile_qr_scan", "android": "https://dc.lft.to/lastmile_qr_scan"}, "is_reserved": 0}, {"lon": -77.01750883333334, "bike_id": "66eeace0abd0e719272880bc51d0c92e", "lat": 38.8766675, "fusion_lon": 0.0, "fusion_lat": 0.0, "type": "electric_scooter", "name": "66eeace0abd0e719272880bc51d0c92e", "is_disabled": 0, "rental_uris": {"ios": "https://dc.lft.to/lastmile_qr_scan", "android": "https://dc.lft.to/lastmile_qr_scan"}, "is_reserved": 0}, {"lon": -77.0423625, "bike_id": "579dc80d92c5bf939919a02af6a6bbda", "lat": 38.92217983333333, "fusion_lon": 0.0, "fusion_lat": 0.0, "type": "electric_scooter", "name": "579dc80d92c5bf939919a02af6a6bbda", "is_disabled": 0, "rental_uris": {"ios": "https://dc.lft.to/lastmile_qr_scan", "android": "https://dc.lft.to/lastmile_qr_scan"}, "is_reserved": 0}, {"lon": -77.03866316666667, "bike_id": "9d1744c1e1244cda5f6fa8d0b5c319a5", "lat": 38.91413766666667, "fusion_lon": 0.0, "fusion_lat": 0.0, "type": "electric_scooter", "name": "9d1744c1e1244cda5f6fa8d0b5c319a5", "is_disabled": 0, "rental_uris": {"ios": "https://dc.lft.to/lastmile_qr_scan", "android": "https://dc.lft.to/lastmile_qr_scan"}, "is_reserved": 0}, {"lon": -76.94567133333334, "bike_id": "d6c9ad4e7ccbfcc10f01d3b8f6e31a06", "lat": 38.93746866666667, "fusion_lon": 0.0, "fusion_lat": 0.0, "type": "electric_bike", "name": "d6c9ad4e7ccbfcc10f01d3b8f6e31a06", "is_disabled": 0, "rental_uris": {"ios": "https://dc.lft.to/lastmile_qr_scan", "android": "https://dc.lft.to/lastmile_qr_scan"}, "is_reserved": 0}, {"lon": -77.0209415, "bike_id": "fb19c695ec677983ad50c6aaa4cb1558", "lat": 38.881821333333335, "fusion_lon": 0.0, "fusion_lat": 0.0, "type": "electric_scooter", "name": "fb19c695ec677983ad50c6aaa4cb1558", "is_disabled": 0, "rental_uris": {"ios": "https://dc.lft.to/lastmile_qr_scan", "android": "https://dc.lft.to/lastmile_qr_scan"}, "is_reserved": 0}, {"lon": -77.002088, "bike_id": "218f7f6e4a761b3954e6ed1198b8e718", "lat": 38.900329166666666, "fusion_lon": 0.0, "fusion_lat": 0.0, "type": "electric_scooter", "name": "218f7f6e4a761b3954e6ed1198b8e718", "is_disabled": 0, "rental_uris": {"ios": "https://dc.lft.to/lastmile_qr_scan", "android": "https://dc.lft.to/lastmile_qr_scan"}, "is_reserved": 0}, {"lon": -76.98504866666667, "bike_id": "369dbe8192bf32bab964ac1f2db0c3a7", "lat": 38.903431166666664, "fusion_lon": 0.0, "fusion_lat": 0.0, "type": "electric_scooter", "name": "369dbe8192bf32bab964ac1f2db0c3a7", "is_disabled": 0, "rental_uris": {"ios": "https://dc.lft.to/lastmile_qr_scan", "android": "https://dc.lft.to/lastmile_qr_scan"}, "is_reserved": 0}, {"lon": -77.0387695, "bike_id": "09b8b5cf97e8579c43b81f9b5ac5cb2e", "lat": 38.90707733333333, "fusion_lon": 0.0, "fusion_lat": 0.0, "type": "electric_scooter", "name": "09b8b5cf97e8579c43b81f9b5ac5cb2e", "is_disabled": 0, "rental_uris": {"ios": "https://dc.lft.to/lastmile_qr_scan", "android": "https://dc.lft.to/lastmile_qr_scan"}, "is_reserved": 0}, {"lon": -77.023809, "bike_id": "d7980750a160044ca9b10ca031726911", "lat": 38.9063425, "fusion_lon": 0.0, "fusion_lat": 0.0, "type": "electric_scooter", "name": "d7980750a160044ca9b10ca031726911", "is_disabled": 0, "rental_uris": {"ios": "https://dc.lft.to/lastmile_qr_scan", "android": "https://dc.lft.to/lastmile_qr_scan"}, "is_reserved": 0}, {"lon": -77.02712216666667, "bike_id": "15e646444d84b84903559841e4feb3b8", "lat": 38.918076, "fusion_lon": 0.0, "fusion_lat": 0.0, "type": "electric_scooter", "name": "15e646444d84b84903559841e4feb3b8", "is_disabled": 0, "rental_uris": {"ios": "https://dc.lft.to/lastmile_qr_scan", "android": "https://dc.lft.to/lastmile_qr_scan"}, "is_reserved": 0}, {"lon": -77.0231745, "bike_id": "73c50c21218e2c97b5cc9e54389c23dc", "lat": 38.95522916666667, "fusion_lon": 0.0, "fusion_lat": 0.0, "type": "electric_scooter", "name": "73c50c21218e2c97b5cc9e54389c23dc", "is_disabled": 0, "rental_uris": {"ios": "https://dc.lft.to/lastmile_qr_scan", "android": "https://dc.lft.to/lastmile_qr_scan"}, "is_reserved": 0}, {"lon": -77.04040916666666, "bike_id": "1067c7fe45b21d1c212b3ea51866b9cf", "lat": 38.9126585, "fusion_lon": 0.0, "fusion_lat": 0.0, "type": "electric_scooter", "name": "1067c7fe45b21d1c212b3ea51866b9cf", "is_disabled": 0, "rental_uris": {"ios": "https://dc.lft.to/lastmile_qr_scan", "android": "https://dc.lft.to/lastmile_qr_scan"}, "is_reserved": 0}, {"lon": -77.03460633333333, "bike_id": "1147da96063ae48a5f4c84b3c38048dd", "lat": 38.916667, "fusion_lon": 0.0, "fusion_lat": 0.0, "type": "electric_scooter", "name": "1147da96063ae48a5f4c84b3c38048dd", "is_disabled": 0, "rental_uris": {"ios": "https://dc.lft.to/lastmile_qr_scan", "android": "https://dc.lft.to/lastmile_qr_scan"}, "is_reserved": 0}, {"lon": -77.04328766666667, "bike_id": "d7f4c158622d023e957f2ccd1ca81a31", "lat": 38.90803433333333, "fusion_lon": 0.0, "fusion_lat": 0.0, "type": "electric_scooter", "name": "d7f4c158622d023e957f2ccd1ca81a31", "is_disabled": 0, "rental_uris": {"ios": "https://dc.lft.to/lastmile_qr_scan", "android": "https://dc.lft.to/lastmile_qr_scan"}, "is_reserved": 0}, {"lon": -77.01977283333333, "bike_id": "8194d0f4a1aa24c4ce1eb80406fb05fb", "lat": 38.9039165, "fusion_lon": 0.0, "fusion_lat": 0.0, "type": "electric_scooter", "name": "8194d0f4a1aa24c4ce1eb80406fb05fb", "is_disabled": 0, "rental_uris": {"ios": "https://dc.lft.to/lastmile_qr_scan", "android": "https://dc.lft.to/lastmile_qr_scan"}, "is_reserved": 0}, {"lon": -77.041186, "bike_id": "5d2eefcafefac43eb7c97f4e1e498b6a", "lat": 38.925472166666665, "fusion_lon": 0.0, "fusion_lat": 0.0, "type": "electric_scooter", "name": "5d2eefcafefac43eb7c97f4e1e498b6a", "is_disabled": 0, "rental_uris": {"ios": "https://dc.lft.to/lastmile_qr_scan", "android": "https://dc.lft.to/lastmile_qr_scan"}, "is_reserved": 0}, {"lon": -77.03382583333334, "bike_id": "2653a8a33e867056507d672e993b833d", "lat": 38.909664166666666, "fusion_lon": 0.0, "fusion_lat": 0.0, "type": "electric_scooter", "name": "2653a8a33e867056507d672e993b833d", "is_disabled": 0, "rental_uris": {"ios": "https://dc.lft.to/lastmile_qr_scan", "android": "https://dc.lft.to/lastmile_qr_scan"}, "is_reserved": 0}, {"lon": -77.04359083333334, "bike_id": "b4dc0f0d9fed8e88c847435fcc015b99", "lat": 38.921618, "fusion_lon": 0.0, "fusion_lat": 0.0, "type": "electric_scooter", "name": "b4dc0f0d9fed8e88c847435fcc015b99", "is_disabled": 0, "rental_uris": {"ios": "https://dc.lft.to/lastmile_qr_scan", "android": "https://dc.lft.to/lastmile_qr_scan"}, "is_reserved": 0}, {"lon": -76.9519275, "bike_id": "b72fafaa520cbabfe819f290d7758e87", "lat": 38.89998716666667, "fusion_lon": 0.0, "fusion_lat": 0.0, "type": "electric_scooter", "name": "b72fafaa520cbabfe819f290d7758e87", "is_disabled": 0, "rental_uris": {"ios": "https://dc.lft.to/lastmile_qr_scan", "android": "https://dc.lft.to/lastmile_qr_scan"}, "is_reserved": 0}, {"lon": -77.04103583333334, "bike_id": "01bbf1c4ca09acf7e9f5a090a182c4c2", "lat": 38.9185135, "fusion_lon": 0.0, "fusion_lat": 0.0, "type": "electric_scooter", "name": "01bbf1c4ca09acf7e9f5a090a182c4c2", "is_disabled": 0, "rental_uris": {"ios": "https://dc.lft.to/lastmile_qr_scan", "android": "https://dc.lft.to/lastmile_qr_scan"}, "is_reserved": 0}, {"lon": -76.98092583333333, "bike_id": "3432b6e157fd5c82ca1d1d7cac62d891", "lat": 38.881326333333334, "fusion_lon": 0.0, "fusion_lat": 0.0, "type": "electric_bike", "name": "3432b6e157fd5c82ca1d1d7cac62d891", "is_disabled": 0, "rental_uris": {"ios": "https://dc.lft.to/lastmile_qr_scan", "android": "https://dc.lft.to/lastmile_qr_scan"}, "is_reserved": 0}, {"lon": -77.0218875, "bike_id": "513ef9e55b041dae7c462d12c9f4def0", "lat": 38.91137666666667, "fusion_lon": 0.0, "fusion_lat": 0.0, "type": "electric_scooter", "name": "513ef9e55b041dae7c462d12c9f4def0", "is_disabled": 0, "rental_uris": {"ios": "https://dc.lft.to/lastmile_qr_scan", "android": "https://dc.lft.to/lastmile_qr_scan"}, "is_reserved": 0}, {"lon": -77.00069816666667, "bike_id": "41311f4b51f2766c41f6e3cd9db90070", "lat": 38.87546, "fusion_lon": 0.0, "fusion_lat": 0.0, "type": "electric_scooter", "name": "41311f4b51f2766c41f6e3cd9db90070", "is_disabled": 0, "rental_uris": {"ios": "https://dc.lft.to/lastmile_qr_scan", "android": "https://dc.lft.to/lastmile_qr_scan"}, "is_reserved": 0}, {"lon": -77.02961516666667, "bike_id": "2d42594576887a4a1aaf9e42a110aedc", "lat": 38.92566633333333, "fusion_lon": 0.0, "fusion_lat": 0.0, "type": "electric_scooter", "name": "2d42594576887a4a1aaf9e42a110aedc", "is_disabled": 0, "rental_uris": {"ios": "https://dc.lft.to/lastmile_qr_scan", "android": "https://dc.lft.to/lastmile_qr_scan"}, "is_reserved": 0}, {"lon": -77.04454083333333, "bike_id": "eea47f4b39388881f0e993fd8ab8cb04", "lat": 38.91936416666667, "fusion_lon": 0.0, "fusion_lat": 0.0, "type": "electric_scooter", "name": "eea47f4b39388881f0e993fd8ab8cb04", "is_disabled": 0, "rental_uris": {"ios": "https://dc.lft.to/lastmile_qr_scan", "android": "https://dc.lft.to/lastmile_qr_scan"}, "is_reserved": 0}, {"lon": -76.99834716666666, "bike_id": "4972490c4e1287165dd2de00e6cde5ba", "lat": 38.90234616666667, "fusion_lon": 0.0, "fusion_lat": 0.0, "type": "electric_scooter", "name": "4972490c4e1287165dd2de00e6cde5ba", "is_disabled": 0, "rental_uris": {"ios": "https://dc.lft.to/lastmile_qr_scan", "android": "https://dc.lft.to/lastmile_qr_scan"}, "is_reserved": 0}, {"lon": -77.034779, "bike_id": "b0ea0bc6e06f1902fc9e6ee3b53a0a74", "lat": 38.92866733333334, "fusion_lon": 0.0, "fusion_lat": 0.0, "type": "electric_scooter", "name": "b0ea0bc6e06f1902fc9e6ee3b53a0a74", "is_disabled": 0, "rental_uris": {"ios": "https://dc.lft.to/lastmile_qr_scan", "android": "https://dc.lft.to/lastmile_qr_scan"}, "is_reserved": 0}, {"lon": -76.93175583333333, "bike_id": "29ca1381b7e3ba70458dcc3c4889b266", "lat": 38.898822333333335, "fusion_lon": 0.0, "fusion_lat": 0.0, "type": "electric_scooter", "name": "29ca1381b7e3ba70458dcc3c4889b266", "is_disabled": 0, "rental_uris": {"ios": "https://dc.lft.to/lastmile_qr_scan", "android": "https://dc.lft.to/lastmile_qr_scan"}, "is_reserved": 0}, {"lon": -76.94958483333333, "bike_id": "5663a891dddacc1d733509241bd5d14e", "lat": 38.89440716666667, "fusion_lon": 0.0, "fusion_lat": 0.0, "type": "electric_scooter", "name": "5663a891dddacc1d733509241bd5d14e", "is_disabled": 0, "rental_uris": {"ios": "https://dc.lft.to/lastmile_qr_scan", "android": "https://dc.lft.to/lastmile_qr_scan"}, "is_reserved": 0}, {"lon": -76.99474433333333, "bike_id": "1d4c18d9dfad3e22d9535dd940f7c9b1", "lat": 38.862143, "fusion_lon": 0.0, "fusion_lat": 0.0, "type": "electric_scooter", "name": "1d4c18d9dfad3e22d9535dd940f7c9b1", "is_disabled": 0, "rental_uris": {"ios": "https://dc.lft.to/lastmile_qr_scan", "android": "https://dc.lft.to/lastmile_qr_scan"}, "is_reserved": 0}, {"lon": -77.0332575, "bike_id": "5d57caa533760552d1fa51f97b3f5bb0", "lat": 38.94716016666667, "fusion_lon": 0.0, "fusion_lat": 0.0, "type": "electric_scooter", "name": "5d57caa533760552d1fa51f97b3f5bb0", "is_disabled": 0, "rental_uris": {"ios": "https://dc.lft.to/lastmile_qr_scan", "android": "https://dc.lft.to/lastmile_qr_scan"}, "is_reserved": 0}, {"lon": -76.99616566666667, "bike_id": "e671421d75668085e330ede54e988ec3", "lat": 38.88312583333333, "fusion_lon": 0.0, "fusion_lat": 0.0, "type": "electric_scooter", "name": "e671421d75668085e330ede54e988ec3", "is_disabled": 0, "rental_uris": {"ios": "https://dc.lft.to/lastmile_qr_scan", "android": "https://dc.lft.to/lastmile_qr_scan"}, "is_reserved": 0}, {"lon": -77.01138366666666, "bike_id": "3ca6953f311d8803f0d0901cb6e70352", "lat": 38.912586833333336, "fusion_lon": 0.0, "fusion_lat": 0.0, "type": "electric_scooter", "name": "3ca6953f311d8803f0d0901cb6e70352", "is_disabled": 0, "rental_uris": {"ios": "https://dc.lft.to/lastmile_qr_scan", "android": "https://dc.lft.to/lastmile_qr_scan"}, "is_reserved": 0}, {"lon": -77.03857716666667, "bike_id": "5eba55869e5d1246023b7604900773d9", "lat": 38.907740833333335, "fusion_lon": 0.0, "fusion_lat": 0.0, "type": "electric_scooter", "name": "5eba55869e5d1246023b7604900773d9", "is_disabled": 0, "rental_uris": {"ios": "https://dc.lft.to/lastmile_qr_scan", "android": "https://dc.lft.to/lastmile_qr_scan"}, "is_reserved": 0}, {"lon": -76.93366833333333, "bike_id": "c15b577b91a5578909d0958e03e741df", "lat": 38.899159833333336, "fusion_lon": 0.0, "fusion_lat": 0.0, "type": "electric_scooter", "name": "c15b577b91a5578909d0958e03e741df", "is_disabled": 0, "rental_uris": {"ios": "https://dc.lft.to/lastmile_qr_scan", "android": "https://dc.lft.to/lastmile_qr_scan"}, "is_reserved": 0}, {"lon": -76.9373215, "bike_id": "af55a7fe2fd5bb8cff6565d11e144459", "lat": 38.890023, "fusion_lon": 0.0, "fusion_lat": 0.0, "type": "electric_scooter", "name": "af55a7fe2fd5bb8cff6565d11e144459", "is_disabled": 0, "rental_uris": {"ios": "https://dc.lft.to/lastmile_qr_scan", "android": "https://dc.lft.to/lastmile_qr_scan"}, "is_reserved": 0}, {"lon": -76.99502566666666, "bike_id": "3cf59626597b75cb9b69a9244d342de5", "lat": 38.92262816666667, "fusion_lon": 0.0, "fusion_lat": 0.0, "type": "electric_scooter", "name": "3cf59626597b75cb9b69a9244d342de5", "is_disabled": 0, "rental_uris": {"ios": "https://dc.lft.to/lastmile_qr_scan", "android": "https://dc.lft.to/lastmile_qr_scan"}, "is_reserved": 0}, {"lon": -77.024634, "bike_id": "c028a0ec903dc5dab790a259757dcac8", "lat": 38.93881783333333, "fusion_lon": 0.0, "fusion_lat": 0.0, "type": "electric_scooter", "name": "c028a0ec903dc5dab790a259757dcac8", "is_disabled": 0, "rental_uris": {"ios": "https://dc.lft.to/lastmile_qr_scan", "android": "https://dc.lft.to/lastmile_qr_scan"}, "is_reserved": 0}, {"lon": -77.064806, "bike_id": "c44bd7cb3d6a22cb14bab260b1af8936", "lat": 38.946494333333334, "fusion_lon": 0.0, "fusion_lat": 0.0, "type": "electric_scooter", "name": "c44bd7cb3d6a22cb14bab260b1af8936", "is_disabled": 0, "rental_uris": {"ios": "https://dc.lft.to/lastmile_qr_scan", "android": "https://dc.lft.to/lastmile_qr_scan"}, "is_reserved": 0}, {"lon": -76.97607316666667, "bike_id": "218e17a56f06d0dd5dcf0438be50a7f0", "lat": 38.905676, "fusion_lon": 0.0, "fusion_lat": 0.0, "type": "electric_scooter", "name": "218e17a56f06d0dd5dcf0438be50a7f0", "is_disabled": 0, "rental_uris": {"ios": "https://dc.lft.to/lastmile_qr_scan", "android": "https://dc.lft.to/lastmile_qr_scan"}, "is_reserved": 0}, {"lon": -77.0075535, "bike_id": "9ec0467d7608734a15fa3354cdf50ac6", "lat": 38.89726316666667, "fusion_lon": 0.0, "fusion_lat": 0.0, "type": "electric_scooter", "name": "9ec0467d7608734a15fa3354cdf50ac6", "is_disabled": 0, "rental_uris": {"ios": "https://dc.lft.to/lastmile_qr_scan", "android": "https://dc.lft.to/lastmile_qr_scan"}, "is_reserved": 0}, {"lon": -77.001024, "bike_id": "89ece6893e4b0bbf0cc35242429777a8", "lat": 38.90002883333333, "fusion_lon": 0.0, "fusion_lat": 0.0, "type": "electric_scooter", "name": "89ece6893e4b0bbf0cc35242429777a8", "is_disabled": 0, "rental_uris": {"ios": "https://dc.lft.to/lastmile_qr_scan", "android": "https://dc.lft.to/lastmile_qr_scan"}, "is_reserved": 0}, {"lon": -77.02279583333333, "bike_id": "a2fe8faabfbbd3a11f4b373eaea651a7", "lat": 38.91649966666667, "fusion_lon": 0.0, "fusion_lat": 0.0, "type": "electric_scooter", "name": "a2fe8faabfbbd3a11f4b373eaea651a7", "is_disabled": 0, "rental_uris": {"ios": "https://dc.lft.to/lastmile_qr_scan", "android": "https://dc.lft.to/lastmile_qr_scan"}, "is_reserved": 0}, {"lon": -77.005315, "bike_id": "87e2a08d5781c1f9caecadc62e1e9253", "lat": 38.92974366666667, "fusion_lon": 0.0, "fusion_lat": 0.0, "type": "electric_scooter", "name": "87e2a08d5781c1f9caecadc62e1e9253", "is_disabled": 0, "rental_uris": {"ios": "https://dc.lft.to/lastmile_qr_scan", "android": "https://dc.lft.to/lastmile_qr_scan"}, "is_reserved": 0}, {"lon": -77.00207466666667, "bike_id": "fb7b58f0c1c018bf99070c8060695862", "lat": 38.895392, "fusion_lon": 0.0, "fusion_lat": 0.0, "type": "electric_scooter", "name": "fb7b58f0c1c018bf99070c8060695862", "is_disabled": 0, "rental_uris": {"ios": "https://dc.lft.to/lastmile_qr_scan", "android": "https://dc.lft.to/lastmile_qr_scan"}, "is_reserved": 0}, {"lon": -77.04652416666667, "bike_id": "392422712e6dce44df121a6c105c413b", "lat": 38.909693833333336, "fusion_lon": 0.0, "fusion_lat": 0.0, "type": "electric_scooter", "name": "392422712e6dce44df121a6c105c413b", "is_disabled": 0, "rental_uris": {"ios": "https://dc.lft.to/lastmile_qr_scan", "android": "https://dc.lft.to/lastmile_qr_scan"}, "is_reserved": 0}, {"lon": -76.98692783333334, "bike_id": "1b2267544cfa3d6e6f29665d98414bf4", "lat": 38.862495, "fusion_lon": 0.0, "fusion_lat": 0.0, "type": "electric_scooter", "name": "1b2267544cfa3d6e6f29665d98414bf4", "is_disabled": 0, "rental_uris": {"ios": "https://dc.lft.to/lastmile_qr_scan", "android": "https://dc.lft.to/lastmile_qr_scan"}, "is_reserved": 0}, {"lon": -77.02648216666667, "bike_id": "2467a529ee24c2e4e0210f0ccf27d0f6", "lat": 38.89214833333333, "fusion_lon": 0.0, "fusion_lat": 0.0, "type": "electric_scooter", "name": "2467a529ee24c2e4e0210f0ccf27d0f6", "is_disabled": 0, "rental_uris": {"ios": "https://dc.lft.to/lastmile_qr_scan", "android": "https://dc.lft.to/lastmile_qr_scan"}, "is_reserved": 0}, {"lon": -77.03449183333333, "bike_id": "15fe56b55a41ee09c75483ba4be6ca80", "lat": 38.9174925, "fusion_lon": 0.0, "fusion_lat": 0.0, "type": "electric_scooter", "name": "15fe56b55a41ee09c75483ba4be6ca80", "is_disabled": 0, "rental_uris": {"ios": "https://dc.lft.to/lastmile_qr_scan", "android": "https://dc.lft.to/lastmile_qr_scan"}, "is_reserved": 0}, {"lon": -77.03955533333334, "bike_id": "0dbd5b628b67fd0770b515a2fd6eba7e", "lat": 38.9216665, "fusion_lon": 0.0, "fusion_lat": 0.0, "type": "electric_bike", "name": "0dbd5b628b67fd0770b515a2fd6eba7e", "is_disabled": 0, "rental_uris": {"ios": "https://dc.lft.to/lastmile_qr_scan", "android": "https://dc.lft.to/lastmile_qr_scan"}, "is_reserved": 0}, {"lon": -77.02826, "bike_id": "5aaffe6f2f7f6d4734c08d13b0ab2714", "lat": 38.8873375, "fusion_lon": 0.0, "fusion_lat": 0.0, "type": "electric_scooter", "name": "5aaffe6f2f7f6d4734c08d13b0ab2714", "is_disabled": 0, "rental_uris": {"ios": "https://dc.lft.to/lastmile_qr_scan", "android": "https://dc.lft.to/lastmile_qr_scan"}, "is_reserved": 0}, {"lon": -77.02205266666667, "bike_id": "4a28b66dbe7b512c45e0a370487aab8b", "lat": 38.9130625, "fusion_lon": 0.0, "fusion_lat": 0.0, "type": "electric_scooter", "name": "4a28b66dbe7b512c45e0a370487aab8b", "is_disabled": 0, "rental_uris": {"ios": "https://dc.lft.to/lastmile_qr_scan", "android": "https://dc.lft.to/lastmile_qr_scan"}, "is_reserved": 0}, {"lon": -76.98592516666666, "bike_id": "6a02ad8eea9b568371961221284bb058", "lat": 38.86239233333333, "fusion_lon": 0.0, "fusion_lat": 0.0, "type": "electric_scooter", "name": "6a02ad8eea9b568371961221284bb058", "is_disabled": 0, "rental_uris": {"ios": "https://dc.lft.to/lastmile_qr_scan", "android": "https://dc.lft.to/lastmile_qr_scan"}, "is_reserved": 0}, {"lon": -77.03204166666667, "bike_id": "073f9ce8a4780d56ee503a7a6e3be200", "lat": 38.90968866666667, "fusion_lon": 0.0, "fusion_lat": 0.0, "type": "electric_scooter", "name": "073f9ce8a4780d56ee503a7a6e3be200", "is_disabled": 0, "rental_uris": {"ios": "https://dc.lft.to/lastmile_qr_scan", "android": "https://dc.lft.to/lastmile_qr_scan"}, "is_reserved": 0}, {"lon": -77.03322666666666, "bike_id": "ef52af22c5589f317d50e7fee395d435", "lat": 38.8900975, "fusion_lon": 0.0, "fusion_lat": 0.0, "type": "electric_scooter", "name": "ef52af22c5589f317d50e7fee395d435", "is_disabled": 0, "rental_uris": {"ios": "https://dc.lft.to/lastmile_qr_scan", "android": "https://dc.lft.to/lastmile_qr_scan"}, "is_reserved": 0}, {"lon": -77.02963433333333, "bike_id": "07962b9bd3a4dfa4f77e8fa010a559d3", "lat": 38.93196283333333, "fusion_lon": 0.0, "fusion_lat": 0.0, "type": "electric_scooter", "name": "07962b9bd3a4dfa4f77e8fa010a559d3", "is_disabled": 0, "rental_uris": {"ios": "https://dc.lft.to/lastmile_qr_scan", "android": "https://dc.lft.to/lastmile_qr_scan"}, "is_reserved": 0}, {"lon": -76.961565, "bike_id": "a59487c16401c787f61081c71ca60e17", "lat": 38.883586666666666, "fusion_lon": 0.0, "fusion_lat": 0.0, "type": "electric_scooter", "name": "a59487c16401c787f61081c71ca60e17", "is_disabled": 0, "rental_uris": {"ios": "https://dc.lft.to/lastmile_qr_scan", "android": "https://dc.lft.to/lastmile_qr_scan"}, "is_reserved": 0}, {"lon": -76.98535933333334, "bike_id": "35f93aba110ad8478239eeca70abd0be", "lat": 38.910196166666665, "fusion_lon": 0.0, "fusion_lat": 0.0, "type": "electric_scooter", "name": "35f93aba110ad8478239eeca70abd0be", "is_disabled": 0, "rental_uris": {"ios": "https://dc.lft.to/lastmile_qr_scan", "android": "https://dc.lft.to/lastmile_qr_scan"}, "is_reserved": 0}, {"lon": -76.996228, "bike_id": "116f95eb20936d71403d06d3ee8702da", "lat": 38.900566, "fusion_lon": 0.0, "fusion_lat": 0.0, "type": "electric_scooter", "name": "116f95eb20936d71403d06d3ee8702da", "is_disabled": 0, "rental_uris": {"ios": "https://dc.lft.to/lastmile_qr_scan", "android": "https://dc.lft.to/lastmile_qr_scan"}, "is_reserved": 0}, {"lon": -77.03856366666666, "bike_id": "9787ad185a34ea984bc030acc6c5b434", "lat": 38.90270966666667, "fusion_lon": 0.0, "fusion_lat": 0.0, "type": "electric_scooter", "name": "9787ad185a34ea984bc030acc6c5b434", "is_disabled": 0, "rental_uris": {"ios": "https://dc.lft.to/lastmile_qr_scan", "android": "https://dc.lft.to/lastmile_qr_scan"}, "is_reserved": 0}, {"lon": -76.991803, "bike_id": "e5891b880618b4035fe27142fd5ea397", "lat": 38.9050685, "fusion_lon": 0.0, "fusion_lat": 0.0, "type": "electric_scooter", "name": "e5891b880618b4035fe27142fd5ea397", "is_disabled": 0, "rental_uris": {"ios": "https://dc.lft.to/lastmile_qr_scan", "android": "https://dc.lft.to/lastmile_qr_scan"}, "is_reserved": 0}, {"lon": -77.03408216666666, "bike_id": "f042d50c4a87082d94abdb4da34dbf59", "lat": 38.93415516666666, "fusion_lon": 0.0, "fusion_lat": 0.0, "type": "electric_scooter", "name": "f042d50c4a87082d94abdb4da34dbf59", "is_disabled": 0, "rental_uris": {"ios": "https://dc.lft.to/lastmile_qr_scan", "android": "https://dc.lft.to/lastmile_qr_scan"}, "is_reserved": 0}, {"lon": -76.98726633333334, "bike_id": "2d620d3deada00333f1b469a17a52132", "lat": 38.867124, "fusion_lon": 0.0, "fusion_lat": 0.0, "type": "electric_scooter", "name": "2d620d3deada00333f1b469a17a52132", "is_disabled": 0, "rental_uris": {"ios": "https://dc.lft.to/lastmile_qr_scan", "android": "https://dc.lft.to/lastmile_qr_scan"}, "is_reserved": 0}, {"lon": -77.029794, "bike_id": "2b981679289c6a246b3df1e63aa5c5bc", "lat": 38.947380333333335, "fusion_lon": 0.0, "fusion_lat": 0.0, "type": "electric_scooter", "name": "2b981679289c6a246b3df1e63aa5c5bc", "is_disabled": 0, "rental_uris": {"ios": "https://dc.lft.to/lastmile_qr_scan", "android": "https://dc.lft.to/lastmile_qr_scan"}, "is_reserved": 0}, {"lon": -77.03154483333333, "bike_id": "b3a69259ce6f2f8b068e7e3a3d680ac6", "lat": 38.91693333333333, "fusion_lon": 0.0, "fusion_lat": 0.0, "type": "electric_scooter", "name": "b3a69259ce6f2f8b068e7e3a3d680ac6", "is_disabled": 0, "rental_uris": {"ios": "https://dc.lft.to/lastmile_qr_scan", "android": "https://dc.lft.to/lastmile_qr_scan"}, "is_reserved": 0}, {"lon": -77.046857, "bike_id": "104970a083051b624bfaa1e63fbe4056", "lat": 38.921178, "fusion_lon": 0.0, "fusion_lat": 0.0, "type": "electric_scooter", "name": "104970a083051b624bfaa1e63fbe4056", "is_disabled": 0, "rental_uris": {"ios": "https://dc.lft.to/lastmile_qr_scan", "android": "https://dc.lft.to/lastmile_qr_scan"}, "is_reserved": 0}, {"lon": -77.03117566666667, "bike_id": "76e97836ff4d624a2e9589c2cd5df116", "lat": 38.917065, "fusion_lon": 0.0, "fusion_lat": 0.0, "type": "electric_scooter", "name": "76e97836ff4d624a2e9589c2cd5df116", "is_disabled": 0, "rental_uris": {"ios": "https://dc.lft.to/lastmile_qr_scan", "android": "https://dc.lft.to/lastmile_qr_scan"}, "is_reserved": 0}, {"lon": -77.03465483333333, "bike_id": "3962f6119f57c0808e65cca420241622", "lat": 38.934345, "fusion_lon": 0.0, "fusion_lat": 0.0, "type": "electric_scooter", "name": "3962f6119f57c0808e65cca420241622", "is_disabled": 0, "rental_uris": {"ios": "https://dc.lft.to/lastmile_qr_scan", "android": "https://dc.lft.to/lastmile_qr_scan"}, "is_reserved": 0}, {"lon": -77.03442833333334, "bike_id": "5520f3f28bee2190c2f60edc020b0798", "lat": 38.909469666666666, "fusion_lon": 0.0, "fusion_lat": 0.0, "type": "electric_scooter", "name": "5520f3f28bee2190c2f60edc020b0798", "is_disabled": 0, "rental_uris": {"ios": "https://dc.lft.to/lastmile_qr_scan", "android": "https://dc.lft.to/lastmile_qr_scan"}, "is_reserved": 0}, {"lon": -77.03467516666667, "bike_id": "341c393e1439171f660a0e283b545bc4", "lat": 38.908350166666665, "fusion_lon": 0.0, "fusion_lat": 0.0, "type": "electric_scooter", "name": "341c393e1439171f660a0e283b545bc4", "is_disabled": 0, "rental_uris": {"ios": "https://dc.lft.to/lastmile_qr_scan", "android": "https://dc.lft.to/lastmile_qr_scan"}, "is_reserved": 0}, {"lon": -77.03444916666666, "bike_id": "31b59175f3a6e6ed13aec227f399cf16", "lat": 38.91667366666667, "fusion_lon": 0.0, "fusion_lat": 0.0, "type": "electric_scooter", "name": "31b59175f3a6e6ed13aec227f399cf16", "is_disabled": 0, "rental_uris": {"ios": "https://dc.lft.to/lastmile_qr_scan", "android": "https://dc.lft.to/lastmile_qr_scan"}, "is_reserved": 0}, {"lon": -77.04834216666667, "bike_id": "ba735adb24102bde0435f8d3a0bfecdb", "lat": 38.8975035, "fusion_lon": 0.0, "fusion_lat": 0.0, "type": "electric_scooter", "name": "ba735adb24102bde0435f8d3a0bfecdb", "is_disabled": 0, "rental_uris": {"ios": "https://dc.lft.to/lastmile_qr_scan", "android": "https://dc.lft.to/lastmile_qr_scan"}, "is_reserved": 0}, {"lon": -77.04504083333333, "bike_id": "fcbddb5f653ab8e39431117414ee20ae", "lat": 38.911085166666666, "fusion_lon": 0.0, "fusion_lat": 0.0, "type": "electric_scooter", "name": "fcbddb5f653ab8e39431117414ee20ae", "is_disabled": 0, "rental_uris": {"ios": "https://dc.lft.to/lastmile_qr_scan", "android": "https://dc.lft.to/lastmile_qr_scan"}, "is_reserved": 0}, {"lon": -77.02187533333333, "bike_id": "3a0e41cfb51391f6548e1e09d84b144c", "lat": 38.9105325, "fusion_lon": 0.0, "fusion_lat": 0.0, "type": "electric_scooter", "name": "3a0e41cfb51391f6548e1e09d84b144c", "is_disabled": 0, "rental_uris": {"ios": "https://dc.lft.to/lastmile_qr_scan", "android": "https://dc.lft.to/lastmile_qr_scan"}, "is_reserved": 0}, {"lon": -76.99680916666667, "bike_id": "fae5d8b5891459f8069fbb89adfa9375", "lat": 38.881172166666666, "fusion_lon": 0.0, "fusion_lat": 0.0, "type": "electric_scooter", "name": "fae5d8b5891459f8069fbb89adfa9375", "is_disabled": 0, "rental_uris": {"ios": "https://dc.lft.to/lastmile_qr_scan", "android": "https://dc.lft.to/lastmile_qr_scan"}, "is_reserved": 0}, {"lon": -76.98226883333334, "bike_id": "e337902b315c00eb40f25f555f1e10b4", "lat": 38.91645166666667, "fusion_lon": 0.0, "fusion_lat": 0.0, "type": "electric_scooter", "name": "e337902b315c00eb40f25f555f1e10b4", "is_disabled": 0, "rental_uris": {"ios": "https://dc.lft.to/lastmile_qr_scan", "android": "https://dc.lft.to/lastmile_qr_scan"}, "is_reserved": 0}, {"lon": -77.01243083333334, "bike_id": "39d0705289690f07bb976f3ee4449841", "lat": 38.91569, "fusion_lon": 0.0, "fusion_lat": 0.0, "type": "electric_scooter", "name": "39d0705289690f07bb976f3ee4449841", "is_disabled": 0, "rental_uris": {"ios": "https://dc.lft.to/lastmile_qr_scan", "android": "https://dc.lft.to/lastmile_qr_scan"}, "is_reserved": 0}, {"lon": -77.032143, "bike_id": "d4ca3651e821e73ba2c834123d74acae", "lat": 38.916839, "fusion_lon": 0.0, "fusion_lat": 0.0, "type": "electric_scooter", "name": "d4ca3651e821e73ba2c834123d74acae", "is_disabled": 0, "rental_uris": {"ios": "https://dc.lft.to/lastmile_qr_scan", "android": "https://dc.lft.to/lastmile_qr_scan"}, "is_reserved": 0}, {"lon": -77.0384835, "bike_id": "251f01e8d056cf8df4c934433bc96045", "lat": 38.916597833333334, "fusion_lon": 0.0, "fusion_lat": 0.0, "type": "electric_scooter", "name": "251f01e8d056cf8df4c934433bc96045", "is_disabled": 0, "rental_uris": {"ios": "https://dc.lft.to/lastmile_qr_scan", "android": "https://dc.lft.to/lastmile_qr_scan"}, "is_reserved": 0}, {"lon": -76.9220185, "bike_id": "a41868142a683f6908f7f7bc968386fe", "lat": 38.895055166666666, "fusion_lon": 0.0, "fusion_lat": 0.0, "type": "electric_bike", "name": "a41868142a683f6908f7f7bc968386fe", "is_disabled": 0, "rental_uris": {"ios": "https://dc.lft.to/lastmile_qr_scan", "android": "https://dc.lft.to/lastmile_qr_scan"}, "is_reserved": 0}, {"lon": -77.02276566666667, "bike_id": "bbadb340428d256a41ef4d6c25f64a07", "lat": 38.9095505, "fusion_lon": 0.0, "fusion_lat": 0.0, "type": "electric_scooter", "name": "bbadb340428d256a41ef4d6c25f64a07", "is_disabled": 0, "rental_uris": {"ios": "https://dc.lft.to/lastmile_qr_scan", "android": "https://dc.lft.to/lastmile_qr_scan"}, "is_reserved": 0}, {"lon": -77.0190755, "bike_id": "fad2037823173e67d0c7191a11d9dd53", "lat": 38.91265216666667, "fusion_lon": 0.0, "fusion_lat": 0.0, "type": "electric_scooter", "name": "fad2037823173e67d0c7191a11d9dd53", "is_disabled": 0, "rental_uris": {"ios": "https://dc.lft.to/lastmile_qr_scan", "android": "https://dc.lft.to/lastmile_qr_scan"}, "is_reserved": 0}, {"lon": -77.06401216666667, "bike_id": "ce04a4588bab2a3dc2167b8d01b1a4b9", "lat": 38.94320483333333, "fusion_lon": 0.0, "fusion_lat": 0.0, "type": "electric_scooter", "name": "ce04a4588bab2a3dc2167b8d01b1a4b9", "is_disabled": 0, "rental_uris": {"ios": "https://dc.lft.to/lastmile_qr_scan", "android": "https://dc.lft.to/lastmile_qr_scan"}, "is_reserved": 0},