{"data": {"bikes": [{"is_reserved": 0, "type": "electric_scooter", "bike_id": "eca929c4e63841b67456098a58417267", "lat": 38.915799166666666, "lon": -77.01233716666667, "rental_uris": {"android": "https://dc.lft.to/lastmile_qr_scan", "ios": "https://dc.lft.to/lastmile_qr_scan"}, "is_disabled": 0, "fusion_lat": 0.0, "name": "eca929c4e63841b67456098a58417267", "fusion_lon": 0.0}, {"is_reserved": 0, "type": "electric_scooter", "bike_id": "d35b59ab17499d894e96a1dbe860271b", "lat": 38.9110925, "lon": -77.03831933333333, "rental_uris": {"android": "https://dc.lft.to/lastmile_qr_scan", "ios": "https://dc.lft.to/lastmile_qr_scan"}, "is_disabled": 0, "fusion_lat": 0.0, "name": "d35b59ab17499d894e96a1dbe860271b", "fusion_lon": 0.0}, {"is_reserved": 0, "type": "electric_scooter", "bike_id": "04cf2df1caced696c616244db4f918f7", "lat": 38.92687933333333, "lon": -76.997726, "rental_uris": {"android": "https://dc.lft.to/lastmile_qr_scan", "ios": "https://dc.lft.to/lastmile_qr_scan"}, "is_disabled": 0, "fusion_lat": 0.0, "name": "04cf2df1caced696c616244db4f918f7", "fusion_lon": 0.0}, {"is_reserved": 0, "type": "electric_scooter", "bike_id": "5c6190d0e7f4da6e693b00be5ab1f87a", "lat": 38.904593, "lon": -77.0311355, "rental_uris": {"android": "https://dc.lft.to/lastmile_qr_scan", "ios": "https://dc.lft.to/lastmile_qr_scan"}, "is_disabled": 0, "fusion_lat": 0.0, "name": "5c6190d0e7f4da6e693b00be5ab1f87a", "fusion_lon": 0.0}, {"is_reserved": 0, "type": "electric_scooter", "bike_id": "dc94c79b056ac35edd2ee641849b5ae3", "lat": 38.905591666666666, "lon": -77.00605883333333, "rental_uris": {"android": "https://dc.lft.to/lastmile_qr_scan", "ios": "https://dc.lft.to/lastmile_qr_scan"}, "is_disabled": 0, "fusion_lat": 0.0, "name": "dc94c79b056ac35edd2ee641849b5ae3", "fusion_lon": 0.0}, {"is_reserved": 0, "type": "electric_bike", "bike_id": "8a49ed997a735a18a04bf6710e45efd8", "lat": 39.084914833333336, "lon": -76.9506455, "rental_uris": {"android": "https://dc.lft.to/lastmile_qr_scan", "ios": "https://dc.lft.to/lastmile_qr_scan"}, "is_disabled": 0, "fusion_lat": 0.0, "name": "8a49ed997a735a18a04bf6710e45efd8", "fusion_lon": 0.0}, {"is_reserved": 0, "type": "electric_scooter", "bike_id": "ce6634f8ee9a400733082407788657ec", "lat": 38.899942, "lon": -77.02286233333334, "rental_uris": {"android": "https://dc.lft.to/lastmile_qr_scan", "ios": "https://dc.lft.to/lastmile_qr_scan"}, "is_disabled": 0, "fusion_lat": 0.0, "name": "ce6634f8ee9a400733082407788657ec", "fusion_lon": 0.0}, {"is_reserved": 0, "type": "electric_scooter", "bike_id": "b4878003b9c6ca61544d659c48d242e4", "lat": 38.920316666666665, "lon": -77.01216516666666, "rental_uris": {"android": "https://dc.lft.to/lastmile_qr_scan", "ios": "https://dc.lft.to/lastmile_qr_scan"}, "is_disabled": 0, "fusion_lat": 0.0, "name": "b4878003b9c6ca61544d659c48d242e4", "fusion_lon": 0.0}, {"is_reserved": 0, "type": "electric_scooter", "bike_id": "83b7c46f4ddf1c680186db34c01df177", "lat": 38.9443235, "lon": -76.97961566666666, "rental_uris": {"android": "https://dc.lft.to/lastmile_qr_scan", "ios": "https://dc.lft.to/lastmile_qr_scan"}, "is_disabled": 0, "fusion_lat": 0.0, "name": "83b7c46f4ddf1c680186db34c01df177", "fusion_lon": 0.0}, {"is_reserved": 0, "type": "electric_scooter", "bike_id": "f8f52d5dba6f18c0b8d1b5745ca197fc", "lat": 38.92377, "lon": -77.04110666666666, "rental_uris": {"android": "https://dc.lft.to/lastmile_qr_scan", "ios": "https://dc.lft.to/lastmile_qr_scan"}, "is_disabled": 0, "fusion_lat": 0.0, "name": "f8f52d5dba6f18c0b8d1b5745ca197fc", "fusion_lon": 0.0}, {"is_reserved": 0, "type": "electric_scooter", "bike_id": "5506d81a883b0fbaa682af628d0b9dc9", "lat": 38.92591216666667, "lon": -77.0260325, "rental_uris": {"android": "https://dc.lft.to/lastmile_qr_scan", "ios": "https://dc.lft.to/lastmile_qr_scan"}, "is_disabled": 0, "fusion_lat": 0.0, "name": "5506d81a883b0fbaa682af628d0b9dc9", "fusion_lon": 0.0}, {"is_reserved": 0, "type": "electric_scooter", "bike_id": "73649b4fcc9ad5cb0f60d630568b1e3a", "lat": 38.92618383333333, "lon": -77.04332083333334, "rental_uris": {"android": "https://dc.lft.to/lastmile_qr_scan", "ios": "https://dc.lft.to/lastmile_qr_scan"}, "is_disabled": 0, "fusion_lat": 0.0, "name": "73649b4fcc9ad5cb0f60d630568b1e3a", "fusion_lon": 0.0}, {"is_reserved": 0, "type": "electric_scooter", "bike_id": "28cb2d0169669655ab9a1a98d22a0acf", "lat": 38.895482333333334, "lon": -76.98338633333333, "rental_uris": {"android": "https://dc.lft.to/lastmile_qr_scan", "ios": "https://dc.lft.to/lastmile_qr_scan"}, "is_disabled": 0, "fusion_lat": 0.0, "name": "28cb2d0169669655ab9a1a98d22a0acf", "fusion_lon": 0.0}, {"is_reserved": 0, "type": "electric_scooter", "bike_id": "5f762757985628c1109d31fa7afdcb27", "lat": 38.87505083333333, "lon": -77.00049283333334, "rental_uris": {"android": "https://dc.lft.to/lastmile_qr_scan", "ios": "https://dc.lft.to/lastmile_qr_scan"}, "is_disabled": 0, "fusion_lat": 0.0, "name": "5f762757985628c1109d31fa7afdcb27", "fusion_lon": 0.0}, {"is_reserved": 0, "type": "electric_scooter", "bike_id": "740c3b762b6245bd5d8c1f0df048bb73", "lat": 38.91947783333333, "lon": -77.028878, "rental_uris": {"android": "https://dc.lft.to/lastmile_qr_scan", "ios": "https://dc.lft.to/lastmile_qr_scan"}, "is_disabled": 0, "fusion_lat": 0.0, "name": "740c3b762b6245bd5d8c1f0df048bb73", "fusion_lon": 0.0}, {"is_reserved": 0, "type": "electric_scooter", "bike_id": "fb00e2638de705782e21594e67817cd0", "lat": 38.921162833333334, "lon": -77.03182116666666, "rental_uris": {"android": "https://dc.lft.to/lastmile_qr_scan", "ios": "https://dc.lft.to/lastmile_qr_scan"}, "is_disabled": 0, "fusion_lat": 0.0, "name": "fb00e2638de705782e21594e67817cd0", "fusion_lon": 0.0}, {"is_reserved": 0, "type": "electric_scooter", "bike_id": "d82c0a62a73de2fee858ae25cbd6814c", "lat": 38.9403145, "lon": -77.02523366666667, "rental_uris": {"android": "https://dc.lft.to/lastmile_qr_scan", "ios": "https://dc.lft.to/lastmile_qr_scan"}, "is_disabled": 0, "fusion_lat": 0.0, "name": "d82c0a62a73de2fee858ae25cbd6814c", "fusion_lon": 0.0}, {"is_reserved": 0, "type": "electric_scooter", "bike_id": "6096a9e81d0d96af97aa2c2fbf93e0fa", "lat": 38.9167015, "lon": -77.03176466666666, "rental_uris": {"android": "https://dc.lft.to/lastmile_qr_scan", "ios": "https://dc.lft.to/lastmile_qr_scan"}, "is_disabled": 0, "fusion_lat": 0.0, "name": "6096a9e81d0d96af97aa2c2fbf93e0fa", "fusion_lon": 0.0}, {"is_reserved": 0, "type": "electric_bike", "bike_id": "fa9b74cdcc60572d595a67bb6aa8f783", "lat": 38.906952833333335, "lon": -76.95251983333333, "rental_uris": {"android": "https://dc.lft.to/lastmile_qr_scan", "ios": "https://dc.lft.to/lastmile_qr_scan"}, "is_disabled": 0, "fusion_lat": 0.0, "name": "fa9b74cdcc60572d595a67bb6aa8f783", "fusion_lon": 0.0}, {"is_reserved": 0, "type": "electric_scooter", "bike_id": "fe1942cb557b8a3fb47c6bdf885feab9", "lat": 38.9398, "lon": -77.0547615, "rental_uris": {"android": "https://dc.lft.to/lastmile_qr_scan", "ios": "https://dc.lft.to/lastmile_qr_scan"}, "is_disabled": 0, "fusion_lat": 0.0, "name": "fe1942cb557b8a3fb47c6bdf885feab9", "fusion_lon": 0.0}, {"is_reserved": 0, "type": "electric_scooter", "bike_id": "553280511455172b767de9d5e2df19c4", "lat": 38.9287085, "lon": -77.0566245, "rental_uris": {"android": "https://dc.lft.to/lastmile_qr_scan", "ios": "https://dc.lft.to/lastmile_qr_scan"}, "is_disabled": 0, "fusion_lat": 0.0, "name": "553280511455172b767de9d5e2df19c4", "fusion_lon": 0.0}, {"is_reserved": 0, "type": "electric_scooter", "bike_id": "575e62f62ef335d74bd7d7dc93a1df70", "lat": 38.91796883333333, "lon": -77.02709783333333, "rental_uris": {"android": "https://dc.lft.to/lastmile_qr_scan", "ios": "https://dc.lft.to/lastmile_qr_scan"}, "is_disabled": 0, "fusion_lat": 0.0, "name": "575e62f62ef335d74bd7d7dc93a1df70", "fusion_lon": 0.0}, {"is_reserved": 0, "type": "electric_scooter", "bike_id": "a8715d990af089cff48f61b6cf17c508", "lat": 38.926557333333335, "lon": -77.02698383333333, "rental_uris": {"android": "https://dc.lft.to/lastmile_qr_scan", "ios": "https://dc.lft.to/lastmile_qr_scan"}, "is_disabled": 0, "fusion_lat": 0.0, "name": "a8715d990af089cff48f61b6cf17c508", "fusion_lon": 0.0}, {"is_reserved": 0, "type": "electric_scooter", "bike_id": "ade5f01fcde6dc514020c643a4fc16bd", "lat": 38.91995383333333, "lon": -77.017833, "rental_uris": {"android": "https://dc.lft.to/lastmile_qr_scan", "ios": "https://dc.lft.to/lastmile_qr_scan"}, "is_disabled": 0, "fusion_lat": 0.0, "name": "ade5f01fcde6dc514020c643a4fc16bd", "fusion_lon": 0.0}, {"is_reserved": 0, "type": "electric_scooter", "bike_id": "ebc8cf4a25e5fb92cc1efaa9b80e7852", "lat": 38.917124666666666, "lon": -77.03860316666666, "rental_uris": {"android": "https://dc.lft.to/lastmile_qr_scan", "ios": "https://dc.lft.to/lastmile_qr_scan"}, "is_disabled": 0, "fusion_lat": 0.0, "name": "ebc8cf4a25e5fb92cc1efaa9b80e7852", "fusion_lon": 0.0}, {"is_reserved": 0, "type": "electric_scooter", "bike_id": "304c6e33c4452da8c6aa0d3595cfa97d", "lat": 38.920302, "lon": -77.01854566666667, "rental_uris": {"android": "https://dc.lft.to/lastmile_qr_scan", "ios": "https://dc.lft.to/lastmile_qr_scan"}, "is_disabled": 0, "fusion_lat": 0.0, "name": "304c6e33c4452da8c6aa0d3595cfa97d", "fusion_lon": 0.0}, {"is_reserved": 0, "type": "electric_scooter", "bike_id": "69f07e3321ef532bd5564505fe8832ae", "lat": 38.90098366666667, "lon": -76.9810555, "rental_uris": {"android": "https://dc.lft.to/lastmile_qr_scan", "ios": "https://dc.lft.to/lastmile_qr_scan"}, "is_disabled": 0, "fusion_lat": 0.0, "name": "69f07e3321ef532bd5564505fe8832ae", "fusion_lon": 0.0}, {"is_reserved": 0, "type": "electric_scooter", "bike_id": "cfb22ace19a8b1d4c6d0aa147b8f5075", "lat": 38.8962315, "lon": -76.997348, "rental_uris": {"android": "https://dc.lft.to/lastmile_qr_scan", "ios": "https://dc.lft.to/lastmile_qr_scan"}, "is_disabled": 0, "fusion_lat": 0.0, "name": "cfb22ace19a8b1d4c6d0aa147b8f5075", "fusion_lon": 0.0}, {"is_reserved": 0, "type": "electric_bike", "bike_id": "1e147b18eeef410d7e896993d5eb0b69", "lat": 38.94564533333333, "lon": -76.95842266666666, "rental_uris": {"android": "https://dc.lft.to/lastmile_qr_scan", "ios": "https://dc.lft.to/lastmile_qr_scan"}, "is_disabled": 0, "fusion_lat": 0.0, "name": "1e147b18eeef410d7e896993d5eb0b69", "fusion_lon": 0.0}, {"is_reserved": 0, "type": "electric_scooter", "bike_id": "951438d7c9f76a1a4c0e81cacbd72492", "lat": 38.900915166666664, "lon": -77.01880183333333, "rental_uris": {"android": "https://dc.lft.to/lastmile_qr_scan", "ios": "https://dc.lft.to/lastmile_qr_scan"}, "is_disabled": 0, "fusion_lat": 0.0, "name": "951438d7c9f76a1a4c0e81cacbd72492", "fusion_lon": 0.0}, {"is_reserved": 0, "type": "electric_scooter", "bike_id": "a9bec8906d13d27e54031e0085136fe5", "lat": 38.936336833333336, "lon": -77.05906416666667, "rental_uris": {"android": "https://dc.lft.to/lastmile_qr_scan", "ios": "https://dc.lft.to/lastmile_qr_scan"}, "is_disabled": 0, "fusion_lat": 0.0, "name": "a9bec8906d13d27e54031e0085136fe5", "fusion_lon": 0.0}, {"is_reserved": 0, "type": "electric_scooter", "bike_id": "5d777c8d410823e1e7b689c9204c08e3", "lat": 38.900161, "lon": -76.991764, "rental_uris": {"android": "https://dc.lft.to/lastmile_qr_scan", "ios": "https://dc.lft.to/lastmile_qr_scan"}, "is_disabled": 0, "fusion_lat": 0.0, "name": "5d777c8d410823e1e7b689c9204c08e3", "fusion_lon": 0.0}, {"is_reserved": 0, "type": "electric_bike", "bike_id": "266f58715e63ef6d8351e144e16f8faa", "lat": 38.958819, "lon": -76.9705175, "rental_uris": {"android": "https://dc.lft.to/lastmile_qr_scan", "ios": "https://dc.lft.to/lastmile_qr_scan"}, "is_disabled": 0, "fusion_lat": 0.0, "name": "266f58715e63ef6d8351e144e16f8faa", "fusion_lon": 0.0}, {"is_reserved": 0, "type": "electric_scooter", "bike_id": "099579bb947bcd2d8712db08eae27b8c", "lat": 38.907961666666665, "lon": -77.028201, "rental_uris": {"android": "https://dc.lft.to/lastmile_qr_scan", "ios": "https://dc.lft.to/lastmile_qr_scan"}, "is_disabled": 0, "fusion_lat": 0.0, "name": "099579bb947bcd2d8712db08eae27b8c", "fusion_lon": 0.0}, {"is_reserved": 0, "type": "electric_scooter", "bike_id": "c3ef2bf1470421d6d39774398edd811b", "lat": 38.90224883333333, "lon": -77.04137783333333, "rental_uris": {"android": "https://dc.lft.to/lastmile_qr_scan", "ios": "https://dc.lft.to/lastmile_qr_scan"}, "is_disabled": 0, "fusion_lat": 0.0, "name": "c3ef2bf1470421d6d39774398edd811b", "fusion_lon": 0.0}, {"is_reserved": 0, "type": "electric_scooter", "bike_id": "a1612184b88c367f327a16935abe08b6", "lat": 38.902206666666665, "lon": -77.051201, "rental_uris": {"android": "https://dc.lft.to/lastmile_qr_scan", "ios": "https://dc.lft.to/lastmile_qr_scan"}, "is_disabled": 0, "fusion_lat": 0.0, "name": "a1612184b88c367f327a16935abe08b6", "fusion_lon": 0.0}, {"is_reserved": 0, "type": "electric_scooter", "bike_id": "894c396e9cf068af4d7d2d02a561ee0e", "lat": 38.879410666666665, "lon": -77.0166445, "rental_uris": {"android": "https://dc.lft.to/lastmile_qr_scan", "ios": "https://dc.lft.to/lastmile_qr_scan"}, "is_disabled": 0, "fusion_lat": 0.0, "name": "894c396e9cf068af4d7d2d02a561ee0e", "fusion_lon": 0.0}, {"is_reserved": 0, "type": "electric_scooter", "bike_id": "8933751b0f6979f88a45bfd331e34f36", "lat": 38.92022333333333, "lon": -77.03202033333334, "rental_uris": {"android": "https://dc.lft.to/lastmile_qr_scan", "ios": "https://dc.lft.to/lastmile_qr_scan"}, "is_disabled": 0, "fusion_lat": 0.0, "name": "8933751b0f6979f88a45bfd331e34f36", "fusion_lon": 0.0}, {"is_reserved": 0, "type": "electric_scooter", "bike_id": "9a6a9f6684d190350ba2e3ff8ef7a37d", "lat": 38.9312105, "lon": -77.02318616666666, "rental_uris": {"android": "https://dc.lft.to/lastmile_qr_scan", "ios": "https://dc.lft.to/lastmile_qr_scan"}, "is_disabled": 0, "fusion_lat": 0.0, "name": "9a6a9f6684d190350ba2e3ff8ef7a37d", "fusion_lon": 0.0}, {"is_reserved": 0, "type": "electric_scooter", "bike_id": "27af1d7cd7641d040715893fad83d571", "lat": 38.88767166666667, "lon": -76.99161766666667, "rental_uris": {"android": "https://dc.lft.to/lastmile_qr_scan", "ios": "https://dc.lft.to/lastmile_qr_scan"}, "is_disabled": 0, "fusion_lat": 0.0, "name": "27af1d7cd7641d040715893fad83d571", "fusion_lon": 0.0}, {"is_reserved": 0, "type": "electric_bike", "bike_id": "05099624f2d4d16cd7aa8ac4d2b2529f", "lat": 38.84110033333333, "lon": -77.08947533333334, "rental_uris": {"android": "https://dc.lft.to/lastmile_qr_scan", "ios": "https://dc.lft.to/lastmile_qr_scan"}, "is_disabled": 0, "fusion_lat": 0.0, "name": "05099624f2d4d16cd7aa8ac4d2b2529f", "fusion_lon": 0.0}, {"is_reserved": 0, "type": "electric_scooter", "bike_id": "1b87faf079a2366531f8632402c55135", "lat": 38.874699166666666, "lon": -77.00548466666666, "rental_uris": {"android": "https://dc.lft.to/lastmile_qr_scan", "ios": "https://dc.lft.to/lastmile_qr_scan"}, "is_disabled": 0, "fusion_lat": 0.0, "name": "1b87faf079a2366531f8632402c55135", "fusion_lon": 0.0}, {"is_reserved": 0, "type": "electric_scooter", "bike_id": "8d05e44456a111acaa6cf30b668c521a", "lat": 38.883022833333335, "lon": -76.94855166666666, "rental_uris": {"android": "https://dc.lft.to/lastmile_qr_scan", "ios": "https://dc.lft.to/lastmile_qr_scan"}, "is_disabled": 0, "fusion_lat": 0.0, "name": "8d05e44456a111acaa6cf30b668c521a", "fusion_lon": 0.0}, {"is_reserved": 0, "type": "electric_scooter", "bike_id": "c2db10f067cdb8a5e936f38d1236f610", "lat": 38.91004366666667, "lon": -76.99414133333333, "rental_uris": {"android": "https://dc.lft.to/lastmile_qr_scan", "ios": "https://dc.lft.to/lastmile_qr_scan"}, "is_disabled": 0, "fusion_lat": 0.0, "name": "c2db10f067cdb8a5e936f38d1236f610", "fusion_lon": 0.0}, {"is_reserved": 0, "type": "electric_scooter", "bike_id": "79754e318dc634646e39513a15b035fb", "lat": 38.919363833333335, "lon": -77.0462455, "rental_uris": {"android": "https://dc.lft.to/lastmile_qr_scan", "ios": "https://dc.lft.to/lastmile_qr_scan"}, "is_disabled": 0, "fusion_lat": 0.0, "name": "79754e318dc634646e39513a15b035fb", "fusion_lon": 0.0}, {"is_reserved": 0, "type": "electric_scooter", "bike_id": "06c3cdc3695ed80f7b5c8c9a238b7985", "lat": 38.92406033333334, "lon": -77.050546, "rental_uris": {"android": "https://dc.lft.to/lastmile_qr_scan", "ios": "https://dc.lft.to/lastmile_qr_scan"}, "is_disabled": 0, "fusion_lat": 0.0, "name": "06c3cdc3695ed80f7b5c8c9a238b7985", "fusion_lon": 0.0}, {"is_reserved": 0, "type": "electric_scooter", "bike_id": "d249210d1b0cd1ec61f558551f1d5f71", "lat": 38.899538166666666, "lon": -77.05393433333333, "rental_uris": {"android": "https://dc.lft.to/lastmile_qr_scan", "ios": "https://dc.lft.to/lastmile_qr_scan"}, "is_disabled": 0, "fusion_lat": 0.0, "name": "d249210d1b0cd1ec61f558551f1d5f71", "fusion_lon": 0.0}, {"is_reserved": 0, "type": "electric_scooter", "bike_id": "344abfc5ad6df6056c24f010407cd2b5", "lat": 38.8972645, "lon": -77.02167066666667, "rental_uris": {"android": "https://dc.lft.to/lastmile_qr_scan", "ios": "https://dc.lft.to/lastmile_qr_scan"}, "is_disabled": 0, "fusion_lat": 0.0, "name": "344abfc5ad6df6056c24f010407cd2b5", "fusion_lon": 0.0}, {"is_reserved": 0, "type": "electric_scooter", "bike_id": "8d9dbefe8cd9b5b79a9acaba8238d57f", "lat": 38.92384966666667, "lon": -77.02892833333334, "rental_uris": {"android": "https://dc.lft.to/lastmile_qr_scan", "ios": "https://dc.lft.to/lastmile_qr_scan"}, "is_disabled": 0, "fusion_lat": 0.0, "name": "8d9dbefe8cd9b5b79a9acaba8238d57f", "fusion_lon": 0.0}, {"is_reserved": 0, "type": "electric_scooter", "bike_id": "5fea69745208bb2f3e8d8c3de8e68ebe", "lat": 38.919971833333335, "lon": -77.03325033333333, "rental_uris": {"android": "https://dc.lft.to/lastmile_qr_scan", "ios": "https://dc.lft.to/lastmile_qr_scan"}, "is_disabled": 0, "fusion_lat": 0.0, "name": "5fea69745208bb2f3e8d8c3de8e68ebe", "fusion_lon": 0.0}, {"is_reserved": 0, "type": "electric_scooter", "bike_id": "15790fdcc56a5d02dd9a4237c3812671", "lat": 38.92019166666667, "lon": -77.02951533333334, "rental_uris": {"android": "https://dc.lft.to/lastmile_qr_scan", "ios": "https://dc.lft.to/lastmile_qr_scan"}, "is_disabled": 0, "fusion_lat": 0.0, "name": "15790fdcc56a5d02dd9a4237c3812671", "fusion_lon": 0.0}, {"is_reserved": 0, "type": "electric_scooter", "bike_id": "1dc28933e7e1c425ecca442b4e522c30", "lat": 38.89603916666667, "lon": -77.04702083333333, "rental_uris": {"android": "https://dc.lft.to/lastmile_qr_scan", "ios": "https://dc.lft.to/lastmile_qr_scan"}, "is_disabled": 0, "fusion_lat": 0.0, "name": "1dc28933e7e1c425ecca442b4e522c30", "fusion_lon": 0.0}, {"is_reserved": 0, "type": "electric_scooter", "bike_id": "8d7fac2201ca99e6880e85786a544f3d", "lat": 38.8927175, "lon": -76.95258683333333, "rental_uris": {"android": "https://dc.lft.to/lastmile_qr_scan", "ios": "https://dc.lft.to/lastmile_qr_scan"}, "is_disabled": 0, "fusion_lat": 0.0, "name": "8d7fac2201ca99e6880e85786a544f3d", "fusion_lon": 0.0}, {"is_reserved": 0, "type": "electric_scooter", "bike_id": "5598339c85863c6b9dde8f2cda155e72", "lat": 38.89617333333333, "lon": -77.02586566666666, "rental_uris": {"android": "https://dc.lft.to/lastmile_qr_scan", "ios": "https://dc.lft.to/lastmile_qr_scan"}, "is_disabled": 0, "fusion_lat": 0.0, "name": "5598339c85863c6b9dde8f2cda155e72", "fusion_lon": 0.0}, {"is_reserved": 0, "type": "electric_scooter", "bike_id": "49e699148704b56777af673629fe37b2", "lat": 38.929974666666666, "lon": -77.02172733333333, "rental_uris": {"android": "https://dc.lft.to/lastmile_qr_scan", "ios": "https://dc.lft.to/lastmile_qr_scan"}, "is_disabled": 0, "fusion_lat": 0.0, "name": "49e699148704b56777af673629fe37b2", "fusion_lon": 0.0}, {"is_reserved": 0, "type": "electric_scooter", "bike_id": "55a2c4003e8afb8af1fcd38b13cce426", "lat": 38.8863535, "lon": -77.01284966666667, "rental_uris": {"android": "https://dc.lft.to/lastmile_qr_scan", "ios": "https://dc.lft.to/lastmile_qr_scan"}, "is_disabled": 0, "fusion_lat": 0.0, "name": "55a2c4003e8afb8af1fcd38b13cce426", "fusion_lon": 0.0}, {"is_reserved": 0, "type": "electric_bike", "bike_id": "4d6399f8adf078547d9726f25d34227b", "lat": 38.86289383333333, "lon": -76.980109, "rental_uris": {"android": "https://dc.lft.to/lastmile_qr_scan", "ios": "https://dc.lft.to/lastmile_qr_scan"}, "is_disabled": 0, "fusion_lat": 0.0, "name": "4d6399f8adf078547d9726f25d34227b", "fusion_lon": 0.0}, {"is_reserved": 0, "type": "electric_scooter", "bike_id": "ae7009165882cd4438e4c35a413933d9", "lat": 38.9224295, "lon": -77.02237433333333, "rental_uris": {"android": "https://dc.lft.to/lastmile_qr_scan", "ios": "https://dc.lft.to/lastmile_qr_scan"}, "is_disabled": 0, "fusion_lat": 0.0, "name": "ae7009165882cd4438e4c35a413933d9", "fusion_lon": 0.0}, {"is_reserved": 0, "type": "electric_scooter", "bike_id": "7a33a5f1c63f2f8453948dc0b029351a", "lat": 38.929291666666664, "lon": -77.0201115, "rental_uris": {"android": "https://dc.lft.to/lastmile_qr_scan", "ios": "https://dc.lft.to/lastmile_qr_scan"}, "is_disabled": 0, "fusion_lat": 0.0, "name": "7a33a5f1c63f2f8453948dc0b029351a", "fusion_lon": 0.0}, {"is_reserved": 0, "type": "electric_scooter", "bike_id": "ea2428672bf374711d83ee3719d018bf", "lat": 38.923890166666666, "lon": -77.036672, "rental_uris": {"android": "https://dc.lft.to/lastmile_qr_scan", "ios": "https://dc.lft.to/lastmile_qr_scan"}, "is_disabled": 0, "fusion_lat": 0.0, "name": "ea2428672bf374711d83ee3719d018bf", "fusion_lon": 0.0}, {"is_reserved": 0, "type": "electric_scooter", "bike_id": "afbcafac6e426a95f06a0e670a871479", "lat": 38.887381500000004, "lon": -77.01355716666667, "rental_uris": {"android": "https://dc.lft.to/lastmile_qr_scan", "ios": "https://dc.lft.to/lastmile_qr_scan"}, "is_disabled": 0, "fusion_lat": 0.0, "name": "afbcafac6e426a95f06a0e670a871479", "fusion_lon": 0.0}, {"is_reserved": 0, "type": "electric_scooter", "bike_id": "3e950f6b08c7512f1bf58b73b255a441", "lat": 38.944382166666664, "lon": -77.02917833333333, "rental_uris": {"android": "https://dc.lft.to/lastmile_qr_scan", "ios": "https://dc.lft.to/lastmile_qr_scan"}, "is_disabled": 0, "fusion_lat": 0.0, "name": "3e950f6b08c7512f1bf58b73b255a441", "fusion_lon": 0.0}, {"is_reserved": 0, "type": "electric_scooter", "bike_id": "b22176ecc925a6c1ae1f0f6d8f926489", "lat": 38.90018833333333, "lon": -77.00698266666667, "rental_uris": {"android": "https://dc.lft.to/lastmile_qr_scan", "ios": "https://dc.lft.to/lastmile_qr_scan"}, "is_disabled": 0, "fusion_lat": 0.0, "name": "b22176ecc925a6c1ae1f0f6d8f926489", "fusion_lon": 0.0}, {"is_reserved": 0, "type": "electric_scooter", "bike_id": "385fff21b2f73393b287f4a7eda9a9c8", "lat": 38.903412833333334, "lon": -77.031796, "rental_uris": {"android": "https://dc.lft.to/lastmile_qr_scan", "ios": "https://dc.lft.to/lastmile_qr_scan"}, "is_disabled": 0, "fusion_lat": 0.0, "name": "385fff21b2f73393b287f4a7eda9a9c8", "fusion_lon": 0.0}, {"is_reserved": 0, "type": "electric_scooter", "bike_id": "4055b9b04aecefb0a5fc28669e13a572", "lat": 38.9265, "lon": -77.04125216666667, "rental_uris": {"android": "https://dc.lft.to/lastmile_qr_scan", "ios": "https://dc.lft.to/lastmile_qr_scan"}, "is_disabled": 0, "fusion_lat": 0.0, "name": "4055b9b04aecefb0a5fc28669e13a572", "fusion_lon": 0.0}, {"is_reserved": 0, "type": "electric_scooter", "bike_id": "6bf79098a2a78ee266f12216ba8b277e", "lat": 38.885062833333336, "lon": -77.02095116666666, "rental_uris": {"android": "https://dc.lft.to/lastmile_qr_scan", "ios": "https://dc.lft.to/lastmile_qr_scan"}, "is_disabled": 0, "fusion_lat": 0.0, "name": "6bf79098a2a78ee266f12216ba8b277e", "fusion_lon": 0.0}, {"is_reserved": 0, "type": "electric_scooter", "bike_id": "e3ea21aebea8bc9bbca57033e3643813", "lat": 38.91579516666667, "lon": -77.01241883333333, "rental_uris": {"android": "https://dc.lft.to/lastmile_qr_scan", "ios": "https://dc.lft.to/lastmile_qr_scan"}, "is_disabled": 0, "fusion_lat": 0.0, "name": "e3ea21aebea8bc9bbca57033e3643813", "fusion_lon": 0.0}, {"is_reserved": 0, "type": "electric_scooter", "bike_id": "08d330837b0c4dfb04df27804eb5c09a", "lat": 38.905059333333334, "lon": -77.02955, "rental_uris": {"android": "https://dc.lft.to/lastmile_qr_scan", "ios": "https://dc.lft.to/lastmile_qr_scan"}, "is_disabled": 0, "fusion_lat": 0.0, "name": "08d330837b0c4dfb04df27804eb5c09a", "fusion_lon": 0.0}, {"is_reserved": 0, "type": "electric_scooter", "bike_id": "7da370a8f9dc0651e3c6b1537d361394", "lat": 38.919871, "lon": -77.028812, "rental_uris": {"android": "https://dc.lft.to/lastmile_qr_scan", "ios": "https://dc.lft.to/lastmile_qr_scan"}, "is_disabled": 0, "fusion_lat": 0.0, "name": "7da370a8f9dc0651e3c6b1537d361394", "fusion_lon": 0.0}, {"is_reserved": 0, "type": "electric_scooter", "bike_id": "adb29cecded8cee69c09b64571086016", "lat": 38.914157, "lon": -77.03820033333334, "rental_uris": {"android": "https://dc.lft.to/lastmile_qr_scan", "ios": "https://dc.lft.to/lastmile_qr_scan"}, "is_disabled": 0, "fusion_lat": 0.0, "name": "adb29cecded8cee69c09b64571086016", "fusion_lon": 0.0}, {"is_reserved": 0, "type": "electric_scooter", "bike_id": "f953139665efc683c816dc3f63f2d378", "lat": 38.884054666666664, "lon": -76.98984766666666, "rental_uris": {"android": "https://dc.lft.to/lastmile_qr_scan", "ios": "https://dc.lft.to/lastmile_qr_scan"}, "is_disabled": 0, "fusion_lat": 0.0, "name": "f953139665efc683c816dc3f63f2d378", "fusion_lon": 0.0}, {"is_reserved": 0, "type": "electric_scooter", "bike_id": "99ea2b2942c2e8ee2874d957469cf321", "lat": 38.94074716666667, "lon": -77.03330666666666, "rental_uris": {"android": "https://dc.lft.to/lastmile_qr_scan", "ios": "https://dc.lft.to/lastmile_qr_scan"}, "is_disabled": 0, "fusion_lat": 0.0, "name": "99ea2b2942c2e8ee2874d957469cf321", "fusion_lon": 0.0}, {"is_reserved": 0, "type": "electric_scooter", "bike_id": "f13403bb490bf1a379dc872cf1acbc8f", "lat": 38.918059666666664, "lon": -77.040309, "rental_uris": {"android": "https://dc.lft.to/lastmile_qr_scan", "ios": "https://dc.lft.to/lastmile_qr_scan"}, "is_disabled": 0, "fusion_lat": 0.0, "name": "f13403bb490bf1a379dc872cf1acbc8f", "fusion_lon": 0.0}, {"is_reserved": 0, "type": "electric_scooter", "bike_id": "8d8b5f2c49670ee38757d0df646db193", "lat": 38.92112016666667, "lon": -77.01771, "rental_uris": {"android": "https://dc.lft.to/lastmile_qr_scan", "ios": "https://dc.lft.to/lastmile_qr_scan"}, "is_disabled": 0, "fusion_lat": 0.0, "name": "8d8b5f2c49670ee38757d0df646db193", "fusion_lon": 0.0}, {"is_reserved": 0, "type": "electric_scooter", "bike_id": "a9286e22e243b15aadaf8f6a691269c8", "lat": 38.94241733333333, "lon": -77.03585783333334, "rental_uris": {"android": "https://dc.lft.to/lastmile_qr_scan", "ios": "https://dc.lft.to/lastmile_qr_scan"}, "is_disabled": 0, "fusion_lat": 0.0, "name": "a9286e22e243b15aadaf8f6a691269c8", "fusion_lon": 0.0}, {"is_reserved": 0, "type": "electric_scooter", "bike_id": "cf0429052eab83813676f3eef37a53a7", "lat": 38.877537, "lon": -76.99424716666667, "rental_uris": {"android": "https://dc.lft.to/lastmile_qr_scan", "ios": "https://dc.lft.to/lastmile_qr_scan"}, "is_disabled": 0, "fusion_lat": 0.0, "name": "cf0429052eab83813676f3eef37a53a7", "fusion_lon": 0.0}, {"is_reserved": 0, "type": "electric_scooter", "bike_id": "c4d70583eda1dbf19230e61524f995da", "lat": 38.89884833333333, "lon": -76.9318135, "rental_uris": {"android": "https://dc.lft.to/lastmile_qr_scan", "ios": "https://dc.lft.to/lastmile_qr_scan"}, "is_disabled": 0, "fusion_lat": 0.0, "name": "c4d70583eda1dbf19230e61524f995da", "fusion_lon": 0.0}, {"is_reserved": 0, "type": "electric_scooter", "bike_id": "93cb6e775ed4d970b8431d956915ecee", "lat": 38.900642833333336, "lon": -76.92745883333333, "rental_uris": {"android": "https://dc.lft.to/lastmile_qr_scan", "ios": "https://dc.lft.to/lastmile_qr_scan"}, "is_disabled": 0, "fusion_lat": 0.0, "name": "93cb6e775ed4d970b8431d956915ecee", "fusion_lon": 0.0}, {"is_reserved": 0, "type": "electric_scooter", "bike_id": "dd48cd3a299cd54eb79110919d51fe16", "lat": 38.915791666666664, "lon": -77.01233616666667, "rental_uris": {"android": "https://dc.lft.to/lastmile_qr_scan", "ios": "https://dc.lft.to/lastmile_qr_scan"}, "is_disabled": 0, "fusion_lat": 0.0, "name": "dd48cd3a299cd54eb79110919d51fe16", "fusion_lon": 0.0}, {"is_reserved": 0, "type": "electric_scooter", "bike_id": "c1e1a6844b7f0aae76eaf9a31ba2ccdb", "lat": 38.877602833333334, "lon": -77.0190025, "rental_uris": {"android": "https://dc.lft.to/lastmile_qr_scan", "ios": "https://dc.lft.to/lastmile_qr_scan"}, "is_disabled": 0, "fusion_lat": 0.0, "name": "c1e1a6844b7f0aae76eaf9a31ba2ccdb", "fusion_lon": 0.0}, {"is_reserved": 0, "type": "electric_scooter", "bike_id": "fa9f8ec11836274532cd18884d0fcf18", "lat": 38.87515466666667, "lon": -77.00355166666667, "rental_uris": {"android": "https://dc.lft.to/lastmile_qr_scan", "ios": "https://dc.lft.to/lastmile_qr_scan"}, "is_disabled": 0, "fusion_lat": 0.0, "name": "fa9f8ec11836274532cd18884d0fcf18", "fusion_lon": 0.0}, {"is_reserved": 0, "type": "electric_scooter", "bike_id": "fe3a7bb57c5b0114091564fae160f85c", "lat": 38.92458933333333, "lon": -77.03297083333334, "rental_uris": {"android": "https://dc.lft.to/lastmile_qr_scan", "ios": "https://dc.lft.to/lastmile_qr_scan"}, "is_disabled": 0, "fusion_lat": 0.0, "name": "fe3a7bb57c5b0114091564fae160f85c", "fusion_lon": 0.0}, {"is_reserved": 0, "type": "electric_scooter", "bike_id": "585f3fc87eef5f5c001523556b4b2fa8", "lat": 38.889782, "lon": -76.999448, "rental_uris": {"android": "https://dc.lft.to/lastmile_qr_scan", "ios": "https://dc.lft.to/lastmile_qr_scan"}, "is_disabled": 0, "fusion_lat": 0.0, "name": "585f3fc87eef5f5c001523556b4b2fa8", "fusion_lon": 0.0}, {"is_reserved": 0, "type": "electric_scooter", "bike_id": "fa12710520862c9a650e8c7dff166c66", "lat": 38.89234833333333, "lon": -77.04489816666667, "rental_uris": {"android": "https://dc.lft.to/lastmile_qr_scan", "ios": "https://dc.lft.to/lastmile_qr_scan"}, "is_disabled": 0, "fusion_lat": 0.0, "name": "fa12710520862c9a650e8c7dff166c66", "fusion_lon": 0.0}, {"is_reserved": 0, "type": "electric_scooter", "bike_id": "a36645e3b2fa7b0c7f82bd8c8a96ebbe", "lat": 38.892315833333335, "lon": -77.03184683333333, "rental_uris": {"android": "https://dc.lft.to/lastmile_qr_scan", "ios": "https://dc.lft.to/lastmile_qr_scan"}, "is_disabled": 0, "fusion_lat": 0.0, "name": "a36645e3b2fa7b0c7f82bd8c8a96ebbe", "fusion_lon": 0.0}, {"is_reserved": 0, "type": "electric_scooter", "bike_id": "8d49a9e129e01027728226bb33489094", "lat": 38.900011166666665, "lon": -76.99844133333333, "rental_uris": {"android": "https://dc.lft.to/lastmile_qr_scan", "ios": "https://dc.lft.to/lastmile_qr_scan"}, "is_disabled": 0, "fusion_lat": 0.0, "name": "8d49a9e129e01027728226bb33489094", "fusion_lon": 0.0}, {"is_reserved": 0, "type": "electric_scooter", "bike_id": "4151e52e9f41328a1392abf43e4e1077", "lat": 38.915560166666666, "lon": -77.033124, "rental_uris": {"android": "https://dc.lft.to/lastmile_qr_scan", "ios": "https://dc.lft.to/lastmile_qr_scan"}, "is_disabled": 0, "fusion_lat": 0.0, "name": "4151e52e9f41328a1392abf43e4e1077", "fusion_lon": 0.0}, {"is_reserved": 0, "type": "electric_scooter", "bike_id": "b722f771b85ba95d514f2593c30f4c14", "lat": 38.881668, "lon": -76.99491133333333, "rental_uris": {"android": "https://dc.lft.to/lastmile_qr_scan", "ios": "https://dc.lft.to/lastmile_qr_scan"}, "is_disabled": 0, "fusion_lat": 0.0, "name": "b722f771b85ba95d514f2593c30f4c14", "fusion_lon": 0.0}, {"is_reserved": 0, "type": "electric_scooter", "bike_id": "332aed08ee1e8ba1550dd1841b315992", "lat": 38.89914983333333, "lon": -77.03208383333333, "rental_uris": {"android": "https://dc.lft.to/lastmile_qr_scan", "ios": "https://dc.lft.to/lastmile_qr_scan"}, "is_disabled": 0, "fusion_lat": 0.0, "name": "332aed08ee1e8ba1550dd1841b315992", "fusion_lon": 0.0}, {"is_reserved": 0, "type": "electric_scooter", "bike_id": "50802bc2f1d40ad4f8efbf7919113964", "lat": 38.923778666666664, "lon": -77.03055833333333, "rental_uris": {"android": "https://dc.lft.to/lastmile_qr_scan", "ios": "https://dc.lft.to/lastmile_qr_scan"}, "is_disabled": 0, "fusion_lat": 0.0, "name": "50802bc2f1d40ad4f8efbf7919113964", "fusion_lon": 0.0}, {"is_reserved": 0, "type": "electric_scooter", "bike_id": "0c488c1708c81462184d0ae041a67006", "lat": 38.89735866666667, "lon": -77.02377516666667, "rental_uris": {"android": "https://dc.lft.to/lastmile_qr_scan", "ios": "https://dc.lft.to/lastmile_qr_scan"}, "is_disabled": 0, "fusion_lat": 0.0, "name": "0c488c1708c81462184d0ae041a67006", "fusion_lon": 0.0}, {"is_reserved": 0, "type": "electric_scooter", "bike_id": "29771336f99a8484f1c371f0b082972b", "lat": 38.920838333333336, "lon": -77.076986, "rental_uris": {"android": "https://dc.lft.to/lastmile_qr_scan", "ios": "https://dc.lft.to/lastmile_qr_scan"}, "is_disabled": 0, "fusion_lat": 0.0, "name": "29771336f99a8484f1c371f0b082972b", "fusion_lon": 0.0}, {"is_reserved": 0, "type": "electric_scooter", "bike_id": "ce5dba305e6728eed2716fb1923805b0", "lat": 38.92655833333333, "lon": -77.04068616666666, "rental_uris": {"android": "https://dc.lft.to/lastmile_qr_scan", "ios": "https://dc.lft.to/lastmile_qr_scan"}, "is_disabled": 0, "fusion_lat": 0.0, "name": "ce5dba305e6728eed2716fb1923805b0", "fusion_lon": 0.0}, {"is_reserved": 0, "type": "electric_scooter", "bike_id": "b0d35cb74ce914f3a0f32ee1edb8554a", "lat": 38.92150683333333, "lon": -77.03869283333333, "rental_uris": {"android": "https://dc.lft.to/lastmile_qr_scan", "ios": "https://dc.lft.to/lastmile_qr_scan"}, "is_disabled": 0, "fusion_lat": 0.0, "name": "b0d35cb74ce914f3a0f32ee1edb8554a", "fusion_lon": 0.0}, {"is_reserved": 0, "type": "electric_scooter", "bike_id": "ea0e3e77765fc64e6bb6da0280e12af9", "lat": 38.89382116666667, "lon": -76.97820916666667, "rental_uris": {"android": "https://dc.lft.to/lastmile_qr_scan", "ios": "https://dc.lft.to/lastmile_qr_scan"}, "is_disabled": 0, "fusion_lat": 0.0, "name": "ea0e3e77765fc64e6bb6da0280e12af9", "fusion_lon": 0.0}, {"is_reserved": 0, "type": "electric_scooter", "bike_id": "d149c6f738efb2a5c2926e7db93f27f9", "lat": 38.90121883333333, "lon": -77.05121366666667, "rental_uris": {"android": "https://dc.lft.to/lastmile_qr_scan", "ios": "https://dc.lft.to/lastmile_qr_scan"}, "is_disabled": 0, "fusion_lat": 0.0, "name": "d149c6f738efb2a5c2926e7db93f27f9", "fusion_lon": 0.0}, {"is_reserved": 0, "type": "electric_scooter", "bike_id": "0890e2dae1ef4c3498805013db3d1c28", "lat": 38.9217745, "lon": -77.010405, "rental_uris": {"android": "https://dc.lft.to/lastmile_qr_scan", "ios": "https://dc.lft.to/lastmile_qr_scan"}, "is_disabled": 0, "fusion_lat": 0.0, "name": "0890e2dae1ef4c3498805013db3d1c28", "fusion_lon": 0.0}, {"is_reserved": 0, "type": "electric_scooter", "bike_id": "3b5b7bb8de8322a2f72da2d5229dc7ae", "lat": 38.91782966666667, "lon": -77.0297585, "rental_uris": {"android": "https://dc.lft.to/lastmile_qr_scan", "ios": "https://dc.lft.to/lastmile_qr_scan"}, "is_disabled": 0, "fusion_lat": 0.0, "name": "3b5b7bb8de8322a2f72da2d5229dc7ae", "fusion_lon": 0.0}, {"is_reserved": 0, "type": "electric_bike", "bike_id": "646be35d29f33899471b8efd23244aad", "lat": 38.9493925, "lon": -77.01610116666667, "rental_uris": {"android": "https://dc.lft.to/lastmile_qr_scan", "ios": "https://dc.lft.to/lastmile_qr_scan"}, "is_disabled": 0, "fusion_lat": 0.0, "name": "646be35d29f33899471b8efd23244aad", "fusion_lon": 0.0}, {"is_reserved": 0, "type": "electric_scooter", "bike_id": "dce82ac381271a92825ac75f833ad202", "lat": 38.8802705, "lon": -77.00553016666667, "rental_uris": {"android": "https://dc.lft.to/lastmile_qr_scan", "ios": "https://dc.lft.to/lastmile_qr_scan"}, "is_disabled": 0, "fusion_lat": 0.0, "name": "dce82ac381271a92825ac75f833ad202", "fusion_lon": 0.0}, {"is_reserved": 0, "type": "electric_scooter", "bike_id": "af410ffd69239e780e053dee3570bfde", "lat": 38.9249485, "lon": -77.03198166666667, "rental_uris": {"android": "https://dc.lft.to/lastmile_qr_scan", "ios": "https://dc.lft.to/lastmile_qr_scan"}, "is_disabled": 0, "fusion_lat": 0.0, "name": "af410ffd69239e780e053dee3570bfde", "fusion_lon": 0.0}, {"is_reserved": 0, "type": "electric_scooter", "bike_id": "9cec15fa3481981da546d3ca8112167d", "lat": 38.899668166666665, "lon": -76.99036583333333, "rental_uris": {"android": "https://dc.lft.to/lastmile_qr_scan", "ios": "https://dc.lft.to/lastmile_qr_scan"}, "is_disabled": 0, "fusion_lat": 0.0, "name": "9cec15fa3481981da546d3ca8112167d", "fusion_lon": 0.0}, {"is_reserved": 0, "type": "electric_scooter", "bike_id": "c24dc97e4962b28b11178fa907fda50f", "lat": 38.926887, "lon": -77.02583316666667, "rental_uris": {"android": "https://dc.lft.to/lastmile_qr_scan", "ios": "https://dc.lft.to/lastmile_qr_scan"}, "is_disabled": 0, "fusion_lat": 0.0, "name": "c24dc97e4962b28b11178fa907fda50f", "fusion_lon": 0.0}, {"is_reserved": 0, "type": "electric_bike", "bike_id": "09602074c624acc610b42f77978b6cc0", "lat": 38.84540666666667, "lon": -77.0764575, "rental_uris": {"android": "https://dc.lft.to/lastmile_qr_scan", "ios": "https://dc.lft.to/lastmile_qr_scan"}, "is_disabled": 0, "fusion_lat": 0.0, "name": "09602074c624acc610b42f77978b6cc0", "fusion_lon": 0.0}, {"is_reserved": 0, "type": "electric_scooter", "bike_id": "34e5f8e6be83be3f2c65bf4c8a2b920a", "lat": 38.917114, "lon": -77.03859733333333, "rental_uris": {"android": "https://dc.lft.to/lastmile_qr_scan", "ios": "https://dc.lft.to/lastmile_qr_scan"}, "is_disabled": 0, "fusion_lat": 0.0, "name": "34e5f8e6be83be3f2c65bf4c8a2b920a", "fusion_lon": 0.0}, {"is_reserved": 0, "type": "electric_scooter", "bike_id": "1da2dbc39696d3ef17a3e14720a9c877", "lat": 38.90122933333333, "lon": -77.03185083333334, "rental_uris": {"android": "https://dc.lft.to/lastmile_qr_scan", "ios": "https://dc.lft.to/lastmile_qr_scan"}, "is_disabled": 0, "fusion_lat": 0.0, "name": "1da2dbc39696d3ef17a3e14720a9c877", "fusion_lon": 0.0}, {"is_reserved": 0, "type": "electric_scooter", "bike_id": "a0b7775a8dc5169bf93eccabd8039940", "lat": 38.92481566666667, "lon": -77.02275983333334, "rental_uris": {"android": "https://dc.lft.to/lastmile_qr_scan", "ios": "https://dc.lft.to/lastmile_qr_scan"}, "is_disabled": 0, "fusion_lat": 0.0, "name": "a0b7775a8dc5169bf93eccabd8039940", "fusion_lon": 0.0}, {"is_reserved": 0, "type": "electric_scooter", "bike_id": "5a49f8dde77a24176a1394ea4728ee7f", "lat": 38.9241735, "lon": -77.03539183333334, "rental_uris": {"android": "https://dc.lft.to/lastmile_qr_scan", "ios": "https://dc.lft.to/lastmile_qr_scan"}, "is_disabled": 0, "fusion_lat": 0.0, "name": "5a49f8dde77a24176a1394ea4728ee7f", "fusion_lon": 0.0}, {"is_reserved": 0, "type": "electric_scooter", "bike_id": "6df7119daf4a15e0947f4bf35c4dab8a", "lat": 38.927356833333334, "lon": -77.05258783333333, "rental_uris": {"android": "https://dc.lft.to/lastmile_qr_scan", "ios": "https://dc.lft.to/lastmile_qr_scan"}, "is_disabled": 0, "fusion_lat": 0.0, "name": "6df7119daf4a15e0947f4bf35c4dab8a", "fusion_lon": 0.0}, {"is_reserved": 0, "type": "electric_scooter", "bike_id": "baff168db0d7c0356ca0f50ba345aa15", "lat": 38.92028066666666, "lon": -77.01883433333333, "rental_uris": {"android": "https://dc.lft.to/lastmile_qr_scan", "ios": "https://dc.lft.to/lastmile_qr_scan"}, "is_disabled": 0, "fusion_lat": 0.0, "name": "baff168db0d7c0356ca0f50ba345aa15", "fusion_lon": 0.0}, {"is_reserved": 0, "type": "electric_scooter", "bike_id": "3801f2be86b91967ade94a0f4bd7f62d", "lat": 38.93063466666667, "lon": -77.02971916666667, "rental_uris": {"android": "https://dc.lft.to/lastmile_qr_scan", "ios": "https://dc.lft.to/lastmile_qr_scan"}, "is_disabled": 0, "fusion_lat": 0.0, "name": "3801f2be86b91967ade94a0f4bd7f62d", "fusion_lon": 0.0}, {"is_reserved": 0, "type": "electric_scooter", "bike_id": "8bb0ebb770b350bf9edbdf29fabab025", "lat": 38.945161, "lon": -77.02975483333333, "rental_uris": {"android": "https://dc.lft.to/lastmile_qr_scan", "ios": "https://dc.lft.to/lastmile_qr_scan"}, "is_disabled": 0, "fusion_lat": 0.0, "name": "8bb0ebb770b350bf9edbdf29fabab025", "fusion_lon": 0.0}, {"is_reserved": 0, "type": "electric_scooter", "bike_id": "5bb0aaf9efabb91db98f93095d7ad69c", "lat": 38.89769233333333, "lon": -77.0089835, "rental_uris": {"android": "https://dc.lft.to/lastmile_qr_scan", "ios": "https://dc.lft.to/lastmile_qr_scan"}, "is_disabled": 0, "fusion_lat": 0.0, "name": "5bb0aaf9efabb91db98f93095d7ad69c", "fusion_lon": 0.0}, {"is_reserved": 0, "type": "electric_scooter", "bike_id": "14da905858845662519e16d98692b4a1", "lat": 38.949808, "lon": -77.02022733333334, "rental_uris": {"android": "https://dc.lft.to/lastmile_qr_scan", "ios": "https://dc.lft.to/lastmile_qr_scan"}, "is_disabled": 0, "fusion_lat": 0.0, "name": "14da905858845662519e16d98692b4a1", "fusion_lon": 0.0}, {"is_reserved": 0, "type": "electric_scooter", "bike_id": "5749cbb28bf3fec988287987d7a3148e", "lat": 38.8923045, "lon": -77.04903433333334, "rental_uris": {"android": "https://dc.lft.to/lastmile_qr_scan", "ios": "https://dc.lft.to/lastmile_qr_scan"}, "is_disabled": 0, "fusion_lat": 0.0, "name": "5749cbb28bf3fec988287987d7a3148e", "fusion_lon": 0.0}, {"is_reserved": 0, "type": "electric_scooter", "bike_id": "1107543bcbba0fb1cdc92f9bb57ada47", "lat": 38.922002666666664, "lon": -77.04245766666666, "rental_uris": {"android": "https://dc.lft.to/lastmile_qr_scan", "ios": "https://dc.lft.to/lastmile_qr_scan"}, "is_disabled": 0, "fusion_lat": 0.0, "name": "1107543bcbba0fb1cdc92f9bb57ada47", "fusion_lon": 0.0}, {"is_reserved": 0, "type": "electric_scooter", "bike_id": "b054aea7d7fa013d762609d10f53ac48", "lat": 38.9077725, "lon": -77.00004166666666, "rental_uris": {"android": "https://dc.lft.to/lastmile_qr_scan", "ios": "https://dc.lft.to/lastmile_qr_scan"}, "is_disabled": 0, "fusion_lat": 0.0, "name": "b054aea7d7fa013d762609d10f53ac48", "fusion_lon": 0.0}, {"is_reserved": 0, "type": "electric_scooter", "bike_id": "88afdfb00f488bf793fb7ba2341ced36", "lat": 38.90510166666667, "lon": -77.06843233333333, "rental_uris": {"android": "https://dc.lft.to/lastmile_qr_scan", "ios": "https://dc.lft.to/lastmile_qr_scan"}, "is_disabled": 0, "fusion_lat": 0.0, "name": "88afdfb00f488bf793fb7ba2341ced36", "fusion_lon": 0.0}, {"is_reserved": 0, "type": "electric_scooter", "bike_id": "7815c6f45d67b885399b2bf975b43f20", "lat": 38.900001, "lon": -77.0306015, "rental_uris": {"android": "https://dc.lft.to/lastmile_qr_scan", "ios": "https://dc.lft.to/lastmile_qr_scan"}, "is_disabled": 0, "fusion_lat": 0.0, "name": "7815c6f45d67b885399b2bf975b43f20", "fusion_lon": 0.0}, {"is_reserved": 0, "type": "electric_scooter", "bike_id": "430a0f1f1f7ac2c2b63df177c4db884c", "lat": 38.9248455, "lon": -77.03187916666667, "rental_uris": {"android": "https://dc.lft.to/lastmile_qr_scan", "ios": "https://dc.lft.to/lastmile_qr_scan"}, "is_disabled": 0, "fusion_lat": 0.0, "name": "430a0f1f1f7ac2c2b63df177c4db884c", "fusion_lon": 0.0}, {"is_reserved": 0, "type": "electric_scooter", "bike_id": "0c3ba0c0035ca6bf9bcb2d50fb298817", "lat": 38.92834033333333, "lon": -77.00605433333334, "rental_uris": {"android": "https://dc.lft.to/lastmile_qr_scan", "ios": "https://dc.lft.to/lastmile_qr_scan"}, "is_disabled": 0, "fusion_lat": 0.0, "name": "0c3ba0c0035ca6bf9bcb2d50fb298817", "fusion_lon": 0.0}, {"is_reserved": 0, "type": "electric_scooter", "bike_id": "1999ceb065fc39d041fb4b3ed2c16c47", "lat": 38.9737355, "lon": -77.01818333333334, "rental_uris": {"android": "https://dc.lft.to/lastmile_qr_scan", "ios": "https://dc.lft.to/lastmile_qr_scan"}, "is_disabled": 0, "fusion_lat": 0.0, "name": "1999ceb065fc39d041fb4b3ed2c16c47", "fusion_lon": 0.0}, {"is_reserved": 0, "type": "electric_scooter", "bike_id": "e369d0c7c367e8119af6d82fb9143865", "lat": 38.92096333333333, "lon": -77.04691916666667, "rental_uris": {"android": "https://dc.lft.to/lastmile_qr_scan", "ios": "https://dc.lft.to/lastmile_qr_scan"}, "is_disabled": 0, "fusion_lat": 0.0, "name": "e369d0c7c367e8119af6d82fb9143865", "fusion_lon": 0.0}, {"is_reserved": 0, "type": "electric_scooter", "bike_id": "6117a60876e9c58ecd9363d85e64b19a", "lat": 38.90142616666667, "lon": -77.031763, "rental_uris": {"android": "https://dc.lft.to/lastmile_qr_scan", "ios": "https://dc.lft.to/lastmile_qr_scan"}, "is_disabled": 0, "fusion_lat": 0.0, "name": "6117a60876e9c58ecd9363d85e64b19a", "fusion_lon": 0.0}, {"is_reserved": 0, "type": "electric_scooter", "bike_id": "b11d01b9354362fc190757d7f768c61f", "lat": 38.933910833333336, "lon": -77.02388966666666, "rental_uris": {"android": "https://dc.lft.to/lastmile_qr_scan", "ios": "https://dc.lft.to/lastmile_qr_scan"}, "is_disabled": 0, "fusion_lat": 0.0, "name": "b11d01b9354362fc190757d7f768c61f", "fusion_lon": 0.0}, {"is_reserved": 0, "type": "electric_scooter", "bike_id": "1afee867db12dcc83396972b2a8bda39", "lat": 38.9070045, "lon": -77.034459, "rental_uris": {"android": "https://dc.lft.to/lastmile_qr_scan", "ios": "https://dc.lft.to/lastmile_qr_scan"}, "is_disabled": 0, "fusion_lat": 0.0, "name": "1afee867db12dcc83396972b2a8bda39", "fusion_lon": 0.0}, {"is_reserved": 0, "type": "electric_scooter", "bike_id": "9d33cbf76a07e38876d06e8b9c8c4fea", "lat": 38.905430833333334, "lon": -77.056918, "rental_uris": {"android": "https://dc.lft.to/lastmile_qr_scan", "ios": "https://dc.lft.to/lastmile_qr_scan"}, "is_disabled": 0, "fusion_lat": 0.0, "name": "9d33cbf76a07e38876d06e8b9c8c4fea", "fusion_lon": 0.0}, {"is_reserved": 0, "type": "electric_bike", "bike_id": "78c58f50f92b21a9bd344fe4788050ce", "lat": 38.83935683333333, "lon": -77.07903133333333, "rental_uris": {"android": "https://dc.lft.to/lastmile_qr_scan", "ios": "https://dc.lft.to/lastmile_qr_scan"}, "is_disabled": 0, "fusion_lat": 0.0, "name": "78c58f50f92b21a9bd344fe4788050ce", "fusion_lon": 0.0}, {"is_reserved": 0, "type": "electric_scooter", "bike_id": "8264538b64ce157268bbf25e94eefb04", "lat": 38.87684133333333, "lon": -76.996298, "rental_uris": {"android": "https://dc.lft.to/lastmile_qr_scan", "ios": "https://dc.lft.to/lastmile_qr_scan"}, "is_disabled": 0, "fusion_lat": 0.0, "name": "8264538b64ce157268bbf25e94eefb04", "fusion_lon": 0.0}, {"is_reserved": 0, "type": "electric_scooter", "bike_id": "f163f08ff6c841248e3ce4c9637d7572", "lat": 38.9194145, "lon": -77.03647, "rental_uris": {"android": "https://dc.lft.to/lastmile_qr_scan", "ios": "https://dc.lft.to/lastmile_qr_scan"}, "is_disabled": 0, "fusion_lat": 0.0, "name": "f163f08ff6c841248e3ce4c9637d7572", "fusion_lon": 0.0}, {"is_reserved": 0, "type": "electric_scooter", "bike_id": "16cbd1219095b7528cd8e264d22f5fb6", "lat": 38.898997333333334, "lon": -77.039682, "rental_uris": {"android": "https://dc.lft.to/lastmile_qr_scan", "ios": "https://dc.lft.to/lastmile_qr_scan"}, "is_disabled": 0, "fusion_lat": 0.0, "name": "16cbd1219095b7528cd8e264d22f5fb6", "fusion_lon": 0.0}, {"is_reserved": 0, "type": "electric_scooter", "bike_id": "02fa04aace52c1607f9a2e6a5f58282b", "lat": 38.92151783333333, "lon": -77.035132, "rental_uris": {"android": "https://dc.lft.to/lastmile_qr_scan", "ios": "https://dc.lft.to/lastmile_qr_scan"}, "is_disabled": 0, "fusion_lat": 0.0, "name": "02fa04aace52c1607f9a2e6a5f58282b", "fusion_lon": 0.0}, {"is_reserved": 0, "type": "electric_bike", "bike_id": "44a39a9a96bd9073746ccaef781eb5fb", "lat": 38.8405535, "lon": -77.05600616666666, "rental_uris": {"android": "https://dc.lft.to/lastmile_qr_scan", "ios": "https://dc.lft.to/lastmile_qr_scan"}, "is_disabled": 0, "fusion_lat": 0.0, "name": "44a39a9a96bd9073746ccaef781eb5fb", "fusion_lon": 0.0}, {"is_reserved": 0, "type": "electric_scooter", "bike_id": "59f9c8621b21bb7baeb5ce1231b3a4ad", "lat": 38.89921566666666, "lon": -77.03201133333333, "rental_uris": {"android": "https://dc.lft.to/lastmile_qr_scan", "ios": "https://dc.lft.to/lastmile_qr_scan"}, "is_disabled": 0, "fusion_lat": 0.0, "name": "59f9c8621b21bb7baeb5ce1231b3a4ad", "fusion_lon": 0.0}, {"is_reserved": 0, "type": "electric_scooter", "bike_id": "8f4f0494de5d9b5fd69b5d791363f243", "lat": 38.9258355, "lon": -77.01223533333334, "rental_uris": {"android": "https://dc.lft.to/lastmile_qr_scan", "ios": "https://dc.lft.to/lastmile_qr_scan"}, "is_disabled": 0, "fusion_lat": 0.0, "name": "8f4f0494de5d9b5fd69b5d791363f243", "fusion_lon": 0.0}, {"is_reserved": 0, "type": "electric_scooter", "bike_id": "0917348bbbb70f1cf319dcbe2d33b345", "lat": 38.9357055, "lon": -77.03263633333333, "rental_uris": {"android": "https://dc.lft.to/lastmile_qr_scan", "ios": "https://dc.lft.to/lastmile_qr_scan"}, "is_disabled": 0, "fusion_lat": 0.0, "name": "0917348bbbb70f1cf319dcbe2d33b345", "fusion_lon": 0.0}, {"is_reserved": 0, "type": "electric_scooter", "bike_id": "474d948f51c491ba59df62417cedd850", "lat": 38.9182215, "lon": -77.04182933333334, "rental_uris": {"android": "https://dc.lft.to/lastmile_qr_scan", "ios": "https://dc.lft.to/lastmile_qr_scan"}, "is_disabled": 0, "fusion_lat": 0.0, "name": "474d948f51c491ba59df62417cedd850", "fusion_lon": 0.0}, {"is_reserved": 0, "type": "electric_scooter", "bike_id": "6789b8746d53217623f3e9031f5d737a", "lat": 38.92361733333333, "lon": -77.03660816666667, "rental_uris": {"android": "https://dc.lft.to/lastmile_qr_scan", "ios": "https://dc.lft.to/lastmile_qr_scan"}, "is_disabled": 0, "fusion_lat": 0.0, "name": "6789b8746d53217623f3e9031f5d737a", "fusion_lon": 0.0}, {"is_reserved": 0, "type": "electric_scooter", "bike_id": "a3416695677e04345a2700d3879f7451", "lat": 38.917711, "lon": -77.04739466666666, "rental_uris": {"android": "https://dc.lft.to/lastmile_qr_scan", "ios": "https://dc.lft.to/lastmile_qr_scan"}, "is_disabled": 0, "fusion_lat": 0.0, "name": "a3416695677e04345a2700d3879f7451", "fusion_lon": 0.0}, {"is_reserved": 0, "type": "electric_scooter", "bike_id": "c49957b151f00b9d42cb8b21a6217ed4", "lat": 38.9040355, "lon": -77.00433116666666, "rental_uris": {"android": "https://dc.lft.to/lastmile_qr_scan", "ios": "https://dc.lft.to/lastmile_qr_scan"}, "is_disabled": 0, "fusion_lat": 0.0, "name": "c49957b151f00b9d42cb8b21a6217ed4", "fusion_lon": 0.0}, {"is_reserved": 0, "type": "electric_scooter", "bike_id": "1be07adcd02f60617e7a44c386f82310", "lat": 38.92909183333333, "lon": -77.02214566666666, "rental_uris": {"android": "https://dc.lft.to/lastmile_qr_scan", "ios": "https://dc.lft.to/lastmile_qr_scan"}, "is_disabled": 0, "fusion_lat": 0.0, "name": "1be07adcd02f60617e7a44c386f82310", "fusion_lon": 0.0}, {"is_reserved": 0, "type": "electric_scooter", "bike_id": "7d54555ae59d406c2037fa791c9007b9", "lat": 38.905008, "lon": -77.0295445, "rental_uris": {"android": "https://dc.lft.to/lastmile_qr_scan", "ios": "https://dc.lft.to/lastmile_qr_scan"}, "is_disabled": 0, "fusion_lat": 0.0, "name": "7d54555ae59d406c2037fa791c9007b9", "fusion_lon": 0.0}, {"is_reserved": 0, "type": "electric_scooter", "bike_id": "a0ba1138a63d9df43b2463edbcd9b28b", "lat": 38.920336, "lon": -77.0272075, "rental_uris": {"android": "https://dc.lft.to/lastmile_qr_scan", "ios": "https://dc.lft.to/lastmile_qr_scan"}, "is_disabled": 0, "fusion_lat": 0.0, "name": "a0ba1138a63d9df43b2463edbcd9b28b", "fusion_lon": 0.0}, {"is_reserved": 0, "type": "electric_scooter", "bike_id": "5ef77dfdfe72c8176c929bb8416acabe", "lat": 38.930344166666664, "lon": -77.02966383333333, "rental_uris": {"android": "https://dc.lft.to/lastmile_qr_scan", "ios": "https://dc.lft.to/lastmile_qr_scan"}, "is_disabled": 0, "fusion_lat": 0.0, "name": "5ef77dfdfe72c8176c929bb8416acabe", "fusion_lon": 0.0}, {"is_reserved": 0, "type": "electric_scooter", "bike_id": "594a937c80693be268524303b05fea54", "lat": 38.90027766666667, "lon": -77.01183533333334, "rental_uris": {"android": "https://dc.lft.to/lastmile_qr_scan", "ios": "https://dc.lft.to/lastmile_qr_scan"}, "is_disabled": 0, "fusion_lat": 0.0, "name": "594a937c80693be268524303b05fea54", "fusion_lon": 0.0}, {"is_reserved": 0, "type": "electric_bike", "bike_id": "2df13b215bca55059d120c4dca777b94", "lat": 38.88391416666666, "lon": -76.95449666666667, "rental_uris": {"android": "https://dc.lft.to/lastmile_qr_scan", "ios": "https://dc.lft.to/lastmile_qr_scan"}, "is_disabled": 0, "fusion_lat": 0.0, "name": "2df13b215bca55059d120c4dca777b94", "fusion_lon": 0.0}, {"is_reserved": 0, "type": "electric_scooter", "bike_id": "59fd60fbfecdd72282eca41afda0fed0", "lat": 38.90536683333333, "lon": -77.05848966666667, "rental_uris": {"android": "https://dc.lft.to/lastmile_qr_scan", "ios": "https://dc.lft.to/lastmile_qr_scan"}, "is_disabled": 0, "fusion_lat": 0.0, "name": "59fd60fbfecdd72282eca41afda0fed0", "fusion_lon": 0.0}, {"is_reserved": 0, "type": "electric_scooter", "bike_id": "e1de82e8a6c57061b1ee5aff709e2fa4", "lat": 38.908061833333335, "lon": -77.03457016666667, "rental_uris": {"android": "https://dc.lft.to/lastmile_qr_scan", "ios": "https://dc.lft.to/lastmile_qr_scan"}, "is_disabled": 0, "fusion_lat": 0.0, "name": "e1de82e8a6c57061b1ee5aff709e2fa4", "fusion_lon": 0.0}, {"is_reserved": 0, "type": "electric_scooter", "bike_id": "88ce69c3d469bd8043e20592bb0f1609", "lat": 38.90237333333334, "lon": -77.01648, "rental_uris": {"android": "https://dc.lft.to/lastmile_qr_scan", "ios": "https://dc.lft.to/lastmile_qr_scan"}, "is_disabled": 0, "fusion_lat": 0.0, "name": "88ce69c3d469bd8043e20592bb0f1609", "fusion_lon": 0.0}, {"is_reserved": 0, "type": "electric_bike", "bike_id": "fdbf071b58694d1a976e1fe5b4d4d064", "lat": 38.832424, "lon": -76.946242, "rental_uris": {"android": "https://dc.lft.to/lastmile_qr_scan", "ios": "https://dc.lft.to/lastmile_qr_scan"}, "is_disabled": 0, "fusion_lat": 0.0, "name": "fdbf071b58694d1a976e1fe5b4d4d064", "fusion_lon": 0.0}, {"is_reserved": 0, "type": "electric_bike", "bike_id": "c4b35c070317ede4d915d31cfdf9463b", "lat": 38.823370833333335, "lon": -77.05818983333333, "rental_uris": {"android": "https://dc.lft.to/lastmile_qr_scan", "ios": "https://dc.lft.to/lastmile_qr_scan"}, "is_disabled": 0, "fusion_lat": 0.0, "name": "c4b35c070317ede4d915d31cfdf9463b", "fusion_lon": 0.0}, {"is_reserved": 0, "type": "electric_scooter", "bike_id": "569b20bde91fc7095a54118dba90a57a", "lat": 38.90752766666667, "lon": -76.99873033333333, "rental_uris": {"android": "https://dc.lft.to/lastmile_qr_scan", "ios": "https://dc.lft.to/lastmile_qr_scan"}, "is_disabled": 0, "fusion_lat": 0.0, "name": "569b20bde91fc7095a54118dba90a57a", "fusion_lon": 0.0}, {"is_reserved": 0, "type": "electric_scooter", "bike_id": "6360657dc1c445163e7011ad69f3eec4", "lat": 38.9001255, "lon": -77.00669633333334, "rental_uris": {"android": "https://dc.lft.to/lastmile_qr_scan", "ios": "https://dc.lft.to/lastmile_qr_scan"}, "is_disabled": 0, "fusion_lat": 0.0, "name": "6360657dc1c445163e7011ad69f3eec4", "fusion_lon": 0.0}, {"is_reserved": 0, "type": "electric_scooter", "bike_id": "4722d910f2f703af054c89f9da33c42a", "lat": 38.905435833333335, "lon": -77.05924616666667, "rental_uris": {"android": "https://dc.lft.to/lastmile_qr_scan", "ios": "https://dc.lft.to/lastmile_qr_scan"}, "is_disabled": 0, "fusion_lat": 0.0, "name": "4722d910f2f703af054c89f9da33c42a", "fusion_lon": 0.0}, {"is_reserved": 0, "type": "electric_scooter", "bike_id": "664c86b72cf940cd018767c53fdbee64", "lat": 38.92750566666667, "lon": -77.0341975, "rental_uris": {"android": "https://dc.lft.to/lastmile_qr_scan", "ios": "https://dc.lft.to/lastmile_qr_scan"}, "is_disabled": 0, "fusion_lat": 0.0, "name": "664c86b72cf940cd018767c53fdbee64", "fusion_lon": 0.0}, {"is_reserved": 0, "type": "electric_scooter", "bike_id": "d003bc2d74da2c998cdf75e3558b7a81", "lat": 38.9208045, "lon": -77.02343016666667, "rental_uris": {"android": "https://dc.lft.to/lastmile_qr_scan", "ios": "https://dc.lft.to/lastmile_qr_scan"}, "is_disabled": 0, "fusion_lat": 0.0, "name": "d003bc2d74da2c998cdf75e3558b7a81", "fusion_lon": 0.0}, {"is_reserved": 0, "type": "electric_scooter", "bike_id": "84f901bd24e85faab1e8c1259f632ee7", "lat": 38.936369666666664, "lon": -77.08324366666666, "rental_uris": {"android": "https://dc.lft.to/lastmile_qr_scan", "ios": "https://dc.lft.to/lastmile_qr_scan"}, "is_disabled": 0, "fusion_lat": 0.0, "name": "84f901bd24e85faab1e8c1259f632ee7", "fusion_lon": 0.0}, {"is_reserved": 0, "type": "electric_scooter", "bike_id": "6e7445de6cba1daa42ae071970dc78ae", "lat": 38.90781166666667, "lon": -77.04809833333333, "rental_uris": {"android": "https://dc.lft.to/lastmile_qr_scan", "ios": "https://dc.lft.to/lastmile_qr_scan"}, "is_disabled": 0, "fusion_lat": 0.0, "name": "6e7445de6cba1daa42ae071970dc78ae", "fusion_lon": 0.0}, {"is_reserved": 0, "type": "electric_scooter", "bike_id": "a3336eb01860b511a8846eee4c1ed61c", "lat": 38.8928675, "lon": -77.03222383333333, "rental_uris": {"android": "https://dc.lft.to/lastmile_qr_scan", "ios": "https://dc.lft.to/lastmile_qr_scan"}, "is_disabled": 0, "fusion_lat": 0.0, "name": "a3336eb01860b511a8846eee4c1ed61c", "fusion_lon": 0.0}, {"is_reserved": 0, "type": "electric_scooter", "bike_id": "484c265611b50a878c1d7f628aaef606", "lat": 38.92870583333333, "lon": -77.05358033333333, "rental_uris": {"android": "https://dc.lft.to/lastmile_qr_scan", "ios": "https://dc.lft.to/lastmile_qr_scan"}, "is_disabled": 0, "fusion_lat": 0.0, "name": "484c265611b50a878c1d7f628aaef606", "fusion_lon": 0.0}, {"is_reserved": 0, "type": "electric_scooter", "bike_id": "ee96b3d7621c0330faabada52998fa19", "lat": 38.90535216666667, "lon": -77.05815483333333, "rental_uris": {"android": "https://dc.lft.to/lastmile_qr_scan", "ios": "https://dc.lft.to/lastmile_qr_scan"}, "is_disabled": 0, "fusion_lat": 0.0, "name": "ee96b3d7621c0330faabada52998fa19", "fusion_lon": 0.0}, {"is_reserved": 0, "type": "electric_scooter", "bike_id": "50a0139c4e4bea153769f215c1f1c160", "lat": 38.9111955, "lon": -77.04365183333333, "rental_uris": {"android": "https://dc.lft.to/lastmile_qr_scan", "ios": "https://dc.lft.to/lastmile_qr_scan"}, "is_disabled": 0, "fusion_lat": 0.0, "name": "50a0139c4e4bea153769f215c1f1c160", "fusion_lon": 0.0}, {"is_reserved": 0, "type": "electric_scooter", "bike_id": "03d8af762e25884201b22f9253047059", "lat": 38.92787633333333, "lon": -77.03605516666667, "rental_uris": {"android": "https://dc.lft.to/lastmile_qr_scan", "ios": "https://dc.lft.to/lastmile_qr_scan"}, "is_disabled": 0, "fusion_lat": 0.0, "name": "03d8af762e25884201b22f9253047059", "fusion_lon": 0.0}, {"is_reserved": 0, "type": "electric_scooter", "bike_id": "d0b9c0d713cd0678028fa697b4491e31", "lat": 38.87625583333333, "lon": -77.002445, "rental_uris": {"android": "https://dc.lft.to/lastmile_qr_scan", "ios": "https://dc.lft.to/lastmile_qr_scan"}, "is_disabled": 0, "fusion_lat": 0.0, "name": "d0b9c0d713cd0678028fa697b4491e31", "fusion_lon": 0.0}, {"is_reserved": 0, "type": "electric_scooter", "bike_id": "43dd1a523ffab8106283c1c3a128a0d0", "lat": 38.9217755, "lon": -77.018289, "rental_uris": {"android": "https://dc.lft.to/lastmile_qr_scan", "ios": "https://dc.lft.to/lastmile_qr_scan"}, "is_disabled": 0, "fusion_lat": 0.0, "name": "43dd1a523ffab8106283c1c3a128a0d0", "fusion_lon": 0.0}, {"is_reserved": 0, "type": "electric_scooter", "bike_id": "a1a78d7e1d5ac50716469e5d42348414", "lat": 38.927458333333334, "lon": -77.0696005, "rental_uris": {"android": "https://dc.lft.to/lastmile_qr_scan", "ios": "https://dc.lft.to/lastmile_qr_scan"}, "is_disabled": 0, "fusion_lat": 0.0, "name": "a1a78d7e1d5ac50716469e5d42348414", "fusion_lon": 0.0}, {"is_reserved": 0, "type": "electric_scooter", "bike_id": "0e93fdbe43c9d6828fc2fbf2cb58c9d0", "lat": 38.91559066666667, "lon": -77.03174583333333, "rental_uris": {"android": "https://dc.lft.to/lastmile_qr_scan", "ios": "https://dc.lft.to/lastmile_qr_scan"}, "is_disabled": 0, "fusion_lat": 0.0, "name": "0e93fdbe43c9d6828fc2fbf2cb58c9d0", "fusion_lon": 0.0}, {"is_reserved": 0, "type": "electric_scooter", "bike_id": "86236af1076405ed73fc7c31bc96a097", "lat": 38.864502333333334, "lon": -76.99115966666666, "rental_uris": {"android": "https://dc.lft.to/lastmile_qr_scan", "ios": "https://dc.lft.to/lastmile_qr_scan"}, "is_disabled": 0, "fusion_lat": 0.0, "name": "86236af1076405ed73fc7c31bc96a097", "fusion_lon": 0.0}, {"is_reserved": 0, "type": "electric_scooter", "bike_id": "d38b6c23de4fdb3ca4a0cefacb697571", "lat": 38.905590833333335, "lon": -77.05123616666667, "rental_uris": {"android": "https://dc.lft.to/lastmile_qr_scan", "ios": "https://dc.lft.to/lastmile_qr_scan"}, "is_disabled": 0, "fusion_lat": 0.0, "name": "d38b6c23de4fdb3ca4a0cefacb697571", "fusion_lon": 0.0}, {"is_reserved": 0, "type": "electric_scooter", "bike_id": "29c39a64980b684ccc1e52d758139297", "lat": 38.97290783333333, "lon": -77.03628566666667, "rental_uris": {"android": "https://dc.lft.to/lastmile_qr_scan", "ios": "https://dc.lft.to/lastmile_qr_scan"}, "is_disabled": 0, "fusion_lat": 0.0, "name": "29c39a64980b684ccc1e52d758139297", "fusion_lon": 0.0}, {"is_reserved": 0, "type": "electric_scooter", "bike_id": "bfcbe9c2f4ba1e65efd0a77ef5f7446e", "lat": 38.91826233333333, "lon": -77.0321875, "rental_uris": {"android": "https://dc.lft.to/lastmile_qr_scan", "ios": "https://dc.lft.to/lastmile_qr_scan"}, "is_disabled": 0, "fusion_lat": 0.0, "name": "bfcbe9c2f4ba1e65efd0a77ef5f7446e", "fusion_lon": 0.0}, {"is_reserved": 0, "type": "electric_scooter", "bike_id": "fa428f6859470768a7ccc6b811b07bf0", "lat": 38.90983716666667, "lon": -77.03460416666667, "rental_uris": {"android": "https://dc.lft.to/lastmile_qr_scan", "ios": "https://dc.lft.to/lastmile_qr_scan"}, "is_disabled": 0, "fusion_lat": 0.0, "name": "fa428f6859470768a7ccc6b811b07bf0", "fusion_lon": 0.0}, {"is_reserved": 0, "type": "electric_scooter", "bike_id": "84cd7ba6d4186ef3c6c69c4aedc40e62", "lat": 38.89167333333333, "lon": -77.0469195, "rental_uris": {"android": "https://dc.lft.to/lastmile_qr_scan", "ios": "https://dc.lft.to/lastmile_qr_scan"}, "is_disabled": 0, "fusion_lat": 0.0, "name": "84cd7ba6d4186ef3c6c69c4aedc40e62", "fusion_lon": 0.0}, {"is_reserved": 0, "type": "electric_scooter", "bike_id": "16b0834cd1ac2fead2ec4a08d298a4c4", "lat": 38.930201333333336, "lon": -77.03786116666667, "rental_uris": {"android": "https://dc.lft.to/lastmile_qr_scan", "ios": "https://dc.lft.to/lastmile_qr_scan"}, "is_disabled": 0, "fusion_lat": 0.0, "name": "16b0834cd1ac2fead2ec4a08d298a4c4", "fusion_lon": 0.0}, {"is_reserved": 0, "type": "electric_scooter", "bike_id": "439a88273da0a2f40fe5cd4226f3deb9", "lat": 38.8845745, "lon": -76.9262565, "rental_uris": {"android": "https://dc.lft.to/lastmile_qr_scan", "ios": "https://dc.lft.to/lastmile_qr_scan"}, "is_disabled": 0, "fusion_lat": 0.0, "name": "439a88273da0a2f40fe5cd4226f3deb9", "fusion_lon": 0.0}, {"is_reserved": 0, "type": "electric_scooter", "bike_id": "ebba300e39d91a00800a9aeb06425a54", "lat": 38.921043, "lon": -77.0178275, "rental_uris": {"android": "https://dc.lft.to/lastmile_qr_scan", "ios": "https://dc.lft.to/lastmile_qr_scan"}, "is_disabled": 0, "fusion_lat": 0.0, "name": "ebba300e39d91a00800a9aeb06425a54", "fusion_lon": 0.0}, {"is_reserved": 0, "type": "electric_scooter", "bike_id": "a07fbb572f4fcdcce0ed0141d357db0c", "lat": 38.919257, "lon": -77.01977783333334, "rental_uris": {"android": "https://dc.lft.to/lastmile_qr_scan", "ios": "https://dc.lft.to/lastmile_qr_scan"}, "is_disabled": 0, "fusion_lat": 0.0, "name": "a07fbb572f4fcdcce0ed0141d357db0c", "fusion_lon": 0.0}, {"is_reserved": 0, "type": "electric_scooter", "bike_id": "37182b8c5a46c40720435d2c8eafe0b6", "lat": 38.90509816666667, "lon": -77.05034633333334, "rental_uris": {"android": "https://dc.lft.to/lastmile_qr_scan", "ios": "https://dc.lft.to/lastmile_qr_scan"}, "is_disabled": 0, "fusion_lat": 0.0, "name": "37182b8c5a46c40720435d2c8eafe0b6", "fusion_lon": 0.0}, {"is_reserved": 0, "type": "electric_scooter", "bike_id": "6070b602de632770baa5c63bcb76c0c6", "lat": 38.904227166666665, "lon": -77.0346645, "rental_uris": {"android": "https://dc.lft.to/lastmile_qr_scan", "ios": "https://dc.lft.to/lastmile_qr_scan"}, "is_disabled": 0, "fusion_lat": 0.0, "name": "6070b602de632770baa5c63bcb76c0c6", "fusion_lon": 0.0}, {"is_reserved": 0, "type": "electric_bike", "bike_id": "d5188291c05b4d6832049ac674e6bad6", "lat": 38.898529, "lon": -76.93192183333333, "rental_uris": {"android": "https://dc.lft.to/lastmile_qr_scan", "ios": "https://dc.lft.to/lastmile_qr_scan"}, "is_disabled": 0, "fusion_lat": 0.0, "name": "d5188291c05b4d6832049ac674e6bad6", "fusion_lon": 0.0}, {"is_reserved": 0, "type": "electric_bike", "bike_id": "bfb455ed0d821a02f1c7f42fbfa1f721", "lat": 39.09451933333333, "lon": -77.13462733333333, "rental_uris": {"android": "https://dc.lft.to/lastmile_qr_scan", "ios": "https://dc.lft.to/lastmile_qr_scan"}, "is_disabled": 0, "fusion_lat": 0.0, "name": "bfb455ed0d821a02f1c7f42fbfa1f721", "fusion_lon": 0.0}, {"is_reserved": 0, "type": "electric_scooter", "bike_id": "4a5c93f599313269573189920890f7ce", "lat": 38.93069666666667, "lon": -77.042221, "rental_uris": {"android": "https://dc.lft.to/lastmile_qr_scan", "ios": "https://dc.lft.to/lastmile_qr_scan"}, "is_disabled": 0, "fusion_lat": 0.0, "name": "4a5c93f599313269573189920890f7ce", "fusion_lon": 0.0}, {"is_reserved": 0, "type": "electric_bike", "bike_id": "e06196155bb59510de9627d6372cac44", "lat": 38.891906, "lon": -76.98561483333333, "rental_uris": {"android": "https://dc.lft.to/lastmile_qr_scan", "ios": "https://dc.lft.to/lastmile_qr_scan"}, "is_disabled": 0, "fusion_lat": 0.0, "name": "e06196155bb59510de9627d6372cac44", "fusion_lon": 0.0}, {"is_reserved": 0, "type": "electric_scooter", "bike_id": "a4adeeeb3b436f263504e799501a0f13", "lat": 38.911493166666666, "lon": -77.021915, "rental_uris": {"android": "https://dc.lft.to/lastmile_qr_scan", "ios": "https://dc.lft.to/lastmile_qr_scan"}, "is_disabled": 0, "fusion_lat": 0.0, "name": "a4adeeeb3b436f263504e799501a0f13", "fusion_lon": 0.0}, {"is_reserved": 0, "type": "electric_scooter", "bike_id": "cddbaeac2ab5cc601f3f5d4974203269", "lat": 38.91768183333333, "lon": -77.00451333333334, "rental_uris": {"android": "https://dc.lft.to/lastmile_qr_scan", "ios": "https://dc.lft.to/lastmile_qr_scan"}, "is_disabled": 0, "fusion_lat": 0.0, "name": "cddbaeac2ab5cc601f3f5d4974203269", "fusion_lon": 0.0}, {"is_reserved": 0, "type": "electric_bike", "bike_id": "3318e6738de47affcd0c2010161922e2", "lat": 38.9213725, "lon": -77.00403316666667, "rental_uris": {"android": "https://dc.lft.to/lastmile_qr_scan", "ios": "https://dc.lft.to/lastmile_qr_scan"}, "is_disabled": 0, "fusion_lat": 0.0, "name": "3318e6738de47affcd0c2010161922e2", "fusion_lon": 0.0}, {"is_reserved": 0, "type": "electric_scooter", "bike_id": "a4fc37c96cd77d82ebe6c821383ad629", "lat": 38.9332845, "lon": -77.0291075, "rental_uris": {"android": "https://dc.lft.to/lastmile_qr_scan", "ios": "https://dc.lft.to/lastmile_qr_scan"}, "is_disabled": 0, "fusion_lat": 0.0, "name": "a4fc37c96cd77d82ebe6c821383ad629", "fusion_lon": 0.0}, {"is_reserved": 0, "type": "electric_scooter", "bike_id": "4cdfec32b5e20f1e3e5aa89cf9375f59", "lat": 38.90806633333333, "lon": -77.04889016666667, "rental_uris": {"android": "https://dc.lft.to/lastmile_qr_scan", "ios": "https://dc.lft.to/lastmile_qr_scan"}, "is_disabled": 0, "fusion_lat": 0.0, "name": "4cdfec32b5e20f1e3e5aa89cf9375f59", "fusion_lon": 0.0}, {"is_reserved": 0, "type": "electric_scooter", "bike_id": "858226ad58e2009ad350924c05625962", "lat": 38.94981, "lon": -77.02449, "rental_uris": {"android": "https://dc.lft.to/lastmile_qr_scan", "ios": "https://dc.lft.to/lastmile_qr_scan"}, "is_disabled": 0, "fusion_lat": 0.0, "name": "858226ad58e2009ad350924c05625962", "fusion_lon": 0.0}, {"is_reserved": 0, "type": "electric_scooter", "bike_id": "237015218ee7e51fa8bf5dd1781fd114", "lat": 38.916312, "lon": -77.04264616666667, "rental_uris": {"android": "https://dc.lft.to/lastmile_qr_scan", "ios": "https://dc.lft.to/lastmile_qr_scan"}, "is_disabled": 0, "fusion_lat": 0.0, "name": "237015218ee7e51fa8bf5dd1781fd114", "fusion_lon": 0.0}, {"is_reserved": 0, "type": "electric_scooter", "bike_id": "2ac091b9e797a9ffba0d30dd9cb29278", "lat": 38.9079145, "lon": -77.00970216666667, "rental_uris": {"android": "https://dc.lft.to/lastmile_qr_scan", "ios": "https://dc.lft.to/lastmile_qr_scan"}, "is_disabled": 0, "fusion_lat": 0.0, "name": "2ac091b9e797a9ffba0d30dd9cb29278", "fusion_lon": 0.0}, {"is_reserved": 0, "type": "electric_scooter", "bike_id": "7bd370d8534252d3c042f0e963d55baf", "lat": 38.87981166666667, "lon": -77.00847866666666, "rental_uris": {"android": "https://dc.lft.to/lastmile_qr_scan", "ios": "https://dc.lft.to/lastmile_qr_scan"}, "is_disabled": 0, "fusion_lat": 0.0, "name": "7bd370d8534252d3c042f0e963d55baf", "fusion_lon": 0.0}, {"is_reserved": 0, "type": "electric_scooter", "bike_id": "90497ac4de8aaf530eebca00bd91ba3c", "lat": 38.90240033333333, "lon": -77.01645133333334, "rental_uris": {"android": "https://dc.lft.to/lastmile_qr_scan", "ios": "https://dc.lft.to/lastmile_qr_scan"}, "is_disabled": 0, "fusion_lat": 0.0, "name": "90497ac4de8aaf530eebca00bd91ba3c", "fusion_lon": 0.0}, {"is_reserved": 0, "type": "electric_scooter", "bike_id": "b430495e85a705257a978e30d8dfa3e4", "lat": 38.90737433333334, "lon": -77.010933, "rental_uris": {"android": "https://dc.lft.to/lastmile_qr_scan", "ios": "https://dc.lft.to/lastmile_qr_scan"}, "is_disabled": 0, "fusion_lat": 0.0, "name": "b430495e85a705257a978e30d8dfa3e4", "fusion_lon": 0.0}, {"is_reserved": 0, "type": "electric_bike", "bike_id": "1006cd20705489b2dcaba441e7c178f9", "lat": 38.92866566666667, "lon": -77.03370516666666, "rental_uris": {"android": "https://dc.lft.to/lastmile_qr_scan", "ios": "https://dc.lft.to/lastmile_qr_scan"}, "is_disabled": 0, "fusion_lat": 0.0, "name": "1006cd20705489b2dcaba441e7c178f9", "fusion_lon": 0.0}, {"is_reserved": 0, "type": "electric_scooter", "bike_id": "2ffbd8d4171179115f02e07cb14747d7", "lat": 38.89635616666666, "lon": -76.928033, "rental_uris": {"android": "https://dc.lft.to/lastmile_qr_scan", "ios": "https://dc.lft.to/lastmile_qr_scan"}, "is_disabled": 0, "fusion_lat": 0.0, "name": "2ffbd8d4171179115f02e07cb14747d7", "fusion_lon": 0.0}, {"is_reserved": 0, "type": "electric_bike", "bike_id": "422383d2a9a6d5f669a6b6a44d349cdd", "lat": 38.92440283333333, "lon": -77.05725233333334, "rental_uris": {"android": "https://dc.lft.to/lastmile_qr_scan", "ios": "https://dc.lft.to/lastmile_qr_scan"}, "is_disabled": 0, "fusion_lat": 0.0, "name": "422383d2a9a6d5f669a6b6a44d349cdd", "fusion_lon": 0.0}, {"is_reserved": 0, "type": "electric_scooter", "bike_id": "c12abc8d6b24ce026d90a8ee23af2e99", "lat": 38.912588, "lon": -77.015566, "rental_uris": {"android": "https://dc.lft.to/lastmile_qr_scan", "ios": "https://dc.lft.to/lastmile_qr_scan"}, "is_disabled": 0, "fusion_lat": 0.0, "name": "c12abc8d6b24ce026d90a8ee23af2e99", "fusion_lon": 0.0}, {"is_reserved": 0, "type": "electric_bike", "bike_id": "36a7d9024bf17fd0de5cdc9e242521fb", "lat": 38.94261383333333, "lon": -76.990727, "rental_uris": {"android": "https://dc.lft.to/lastmile_qr_scan", "ios": "https://dc.lft.to/lastmile_qr_scan"}, "is_disabled": 0, "fusion_lat": 0.0, "name": "36a7d9024bf17fd0de5cdc9e242521fb", "fusion_lon": 0.0}, {"is_reserved": 0, "type": "electric_scooter", "bike_id": "2bd5fdf5245d6f50ab2a10ff4d5d634e", "lat": 38.927479, "lon": -77.02539216666666, "rental_uris": {"android": "https://dc.lft.to/lastmile_qr_scan", "ios": "https://dc.lft.to/lastmile_qr_scan"}, "is_disabled": 0, "fusion_lat": 0.0, "name": "2bd5fdf5245d6f50ab2a10ff4d5d634e", "fusion_lon": 0.0}, {"is_reserved": 0, "type": "electric_scooter", "bike_id": "8cb46ca2f8266ba11536783ddf7f33f1", "lat": 38.95914833333333, "lon": -77.00015666666667, "rental_uris": {"android": "https://dc.lft.to/lastmile_qr_scan", "ios": "https://dc.lft.to/lastmile_qr_scan"}, "is_disabled": 0, "fusion_lat": 0.0, "name": "8cb46ca2f8266ba11536783ddf7f33f1", "fusion_lon": 0.0}, {"is_reserved": 0, "type": "electric_scooter", "bike_id": "919b1a356e44c6af68a4c8ecb16a7724", "lat": 38.91507566666667, "lon": -77.04552983333333, "rental_uris": {"android": "https://dc.lft.to/lastmile_qr_scan", "ios": "https://dc.lft.to/lastmile_qr_scan"}, "is_disabled": 0, "fusion_lat": 0.0, "name": "919b1a356e44c6af68a4c8ecb16a7724", "fusion_lon": 0.0}, {"is_reserved": 0, "type": "electric_scooter", "bike_id": "c80e1d002058e873c4d3560af045af61", "lat": 38.942301666666665, "lon": -77.07154933333334, "rental_uris": {"android": "https://dc.lft.to/lastmile_qr_scan", "ios": "https://dc.lft.to/lastmile_qr_scan"}, "is_disabled": 0, "fusion_lat": 0.0, "name": "c80e1d002058e873c4d3560af045af61", "fusion_lon": 0.0}, {"is_reserved": 0, "type": "electric_scooter", "bike_id": "f760b408bb917a05fa8411053979bd18", "lat": 38.903961833333334, "lon": -77.048962, "rental_uris": {"android": "https://dc.lft.to/lastmile_qr_scan", "ios": "https://dc.lft.to/lastmile_qr_scan"}, "is_disabled": 0, "fusion_lat": 0.0, "name": "f760b408bb917a05fa8411053979bd18", "fusion_lon": 0.0}, {"is_reserved": 0, "type": "electric_scooter", "bike_id": "e31ff82c1e8d0bb23d023c64007d552e", "lat": 38.9150955, "lon": -77.0218305, "rental_uris": {"android": "https://dc.lft.to/lastmile_qr_scan", "ios": "https://dc.lft.to/lastmile_qr_scan"}, "is_disabled": 0, "fusion_lat": 0.0, "name": "e31ff82c1e8d0bb23d023c64007d552e", "fusion_lon": 0.0}, {"is_reserved": 0, "type": "electric_bike", "bike_id": "d5624d85849542343530694d4597b3ca", "lat": 38.96547433333333, "lon": -77.01625433333334, "rental_uris": {"android": "https://dc.lft.to/lastmile_qr_scan", "ios": "https://dc.lft.to/lastmile_qr_scan"}, "is_disabled": 0, "fusion_lat": 0.0, "name": "d5624d85849542343530694d4597b3ca", "fusion_lon": 0.0}, {"is_reserved": 0, "type": "electric_scooter", "bike_id": "5190614118c60a1b922f5d9ef51c9924", "lat": 38.90625933333333, "lon": -77.02822366666666, "rental_uris": {"android": "https://dc.lft.to/lastmile_qr_scan", "ios": "https://dc.lft.to/lastmile_qr_scan"}, "is_disabled": 0, "fusion_lat": 0.0, "name": "5190614118c60a1b922f5d9ef51c9924", "fusion_lon": 0.0}, {"is_reserved": 0, "type": "electric_scooter", "bike_id": "080c42c940500348737c6368cfd611a3", "lat": 38.8985245, "lon": -76.990356, "rental_uris": {"android": "https://dc.lft.to/lastmile_qr_scan", "ios": "https://dc.lft.to/lastmile_qr_scan"}, "is_disabled": 0, "fusion_lat": 0.0, "name": "080c42c940500348737c6368cfd611a3", "fusion_lon": 0.0}, {"is_reserved": 0, "type": "electric_scooter", "bike_id": "4c63b7f0a06fb3e26cf60715c9f35715", "lat": 38.931216166666665, "lon": -77.0387945, "rental_uris": {"android": "https://dc.lft.to/lastmile_qr_scan", "ios": "https://dc.lft.to/lastmile_qr_scan"}, "is_disabled": 0, "fusion_lat": 0.0, "name": "4c63b7f0a06fb3e26cf60715c9f35715", "fusion_lon": 0.0}, {"is_reserved": 0, "type": "electric_scooter", "bike_id": "16affb6afa5c113d2b90a2979148d51d", "lat": 38.921568, "lon": -77.07221333333334, "rental_uris": {"android": "https://dc.lft.to/lastmile_qr_scan", "ios": "https://dc.lft.to/lastmile_qr_scan"}, "is_disabled": 0, "fusion_lat": 0.0, "name": "16affb6afa5c113d2b90a2979148d51d", "fusion_lon": 0.0}, {"is_reserved": 0, "type": "electric_bike", "bike_id": "3b1447cb347d11e9e556541008abecdc", "lat": 38.857922333333335, "lon": -77.09969316666667, "rental_uris": {"android": "https://dc.lft.to/lastmile_qr_scan", "ios": "https://dc.lft.to/lastmile_qr_scan"}, "is_disabled": 0, "fusion_lat": 0.0, "name": "3b1447cb347d11e9e556541008abecdc", "fusion_lon": 0.0}, {"is_reserved": 0, "type": "electric_scooter", "bike_id": "ac0408b6f5ebd035d67c4da594350189", "lat": 38.901861833333335, "lon": -76.9300675, "rental_uris": {"android": "https://dc.lft.to/lastmile_qr_scan", "ios": "https://dc.lft.to/lastmile_qr_scan"}, "is_disabled": 0, "fusion_lat": 0.0, "name": "ac0408b6f5ebd035d67c4da594350189", "fusion_lon": 0.0}, {"is_reserved": 0, "type": "electric_scooter", "bike_id": "f5a69c9d67387b5d719d7ae387e42eed", "lat": 38.898204, "lon": -77.0481455, "rental_uris": {"android": "https://dc.lft.to/lastmile_qr_scan", "ios": "https://dc.lft.to/lastmile_qr_scan"}, "is_disabled": 0, "fusion_lat": 0.0, "name": "f5a69c9d67387b5d719d7ae387e42eed", "fusion_lon": 0.0}, {"is_reserved": 0, "type": "electric_scooter", "bike_id": "ce584b1d7fde6d824c9a6103eb9f951b", "lat": 38.89967383333333, "lon": -77.02624533333334, "rental_uris": {"android": "https://dc.lft.to/lastmile_qr_scan", "ios": "https://dc.lft.to/lastmile_qr_scan"}, "is_disabled": 0, "fusion_lat": 0.0, "name": "ce584b1d7fde6d824c9a6103eb9f951b", "fusion_lon": 0.0}, {"is_reserved": 0, "type": "electric_scooter", "bike_id": "f1b75dfabdf01ad7988f0c8ac5698f8e", "lat": 38.905125, "lon": -77.0483065, "rental_uris": {"android": "https://dc.lft.to/lastmile_qr_scan", "ios": "https://dc.lft.to/lastmile_qr_scan"}, "is_disabled": 0, "fusion_lat": 0.0, "name": "f1b75dfabdf01ad7988f0c8ac5698f8e", "fusion_lon": 0.0}, {"is_reserved": 0, "type": "electric_scooter", "bike_id": "aeeba95687160aa3f41deadd838cedfd", "lat": 38.901289, "lon": -77.01627783333333, "rental_uris": {"android": "https://dc.lft.to/lastmile_qr_scan", "ios": "https://dc.lft.to/lastmile_qr_scan"}, "is_disabled": 0, "fusion_lat": 0.0, "name": "aeeba95687160aa3f41deadd838cedfd", "fusion_lon": 0.0}, {"is_reserved": 0, "type": "electric_scooter", "bike_id": "646398828180d743cbbff0bcafefc8d3", "lat": 38.911104, "lon": -77.0485225, "rental_uris": {"android": "https://dc.lft.to/lastmile_qr_scan", "ios": "https://dc.lft.to/lastmile_qr_scan"}, "is_disabled": 0, "fusion_lat": 0.0, "name": "646398828180d743cbbff0bcafefc8d3", "fusion_lon": 0.0}, {"is_reserved": 0, "type": "electric_scooter", "bike_id": "f984f10ad417c9e5c2832e793c948378", "lat": 38.93144566666667, "lon": -77.07852316666667, "rental_uris": {"android": "https://dc.lft.to/lastmile_qr_scan", "ios": "https://dc.lft.to/lastmile_qr_scan"}, "is_disabled": 0, "fusion_lat": 0.0, "name": "f984f10ad417c9e5c2832e793c948378", "fusion_lon": 0.0}, {"is_reserved": 0, "type": "electric_scooter", "bike_id": "0103965b466587830412d00816246e5d", "lat": 38.89696083333333, "lon": -77.0434185, "rental_uris": {"android": "https://dc.lft.to/lastmile_qr_scan", "ios": "https://dc.lft.to/lastmile_qr_scan"}, "is_disabled": 0, "fusion_lat": 0.0, "name": "0103965b466587830412d00816246e5d", "fusion_lon": 0.0}, {"is_reserved": 0, "type": "electric_scooter", "bike_id": "45b4a56397ed1fc595ddb14697378ed8", "lat": 38.903193333333334, "lon": -77.010855, "rental_uris": {"android": "https://dc.lft.to/lastmile_qr_scan", "ios": "https://dc.lft.to/lastmile_qr_scan"}, "is_disabled": 0, "fusion_lat": 0.0, "name": "45b4a56397ed1fc595ddb14697378ed8", "fusion_lon": 0.0}, {"is_reserved": 0, "type": "electric_scooter", "bike_id": "58b4ae68574b5ab375e0c1281fef2d66", "lat": 38.919252, "lon": -77.00987316666667, "rental_uris": {"android": "https://dc.lft.to/lastmile_qr_scan", "ios": "https://dc.lft.to/lastmile_qr_scan"}, "is_disabled": 0, "fusion_lat": 0.0, "name": "58b4ae68574b5ab375e0c1281fef2d66", "fusion_lon": 0.0}, {"is_reserved": 0, "type": "electric_scooter", "bike_id": "f9da368b31c1e4109fa02ccd57e5f7f6", "lat": 38.891950666666666, "lon": -77.02227016666667, "rental_uris": {"android": "https://dc.lft.to/lastmile_qr_scan", "ios": "https://dc.lft.to/lastmile_qr_scan"}, "is_disabled": 0, "fusion_lat": 0.0, "name": "f9da368b31c1e4109fa02ccd57e5f7f6", "fusion_lon": 0.0}, {"is_reserved": 0, "type": "electric_scooter", "bike_id": "68aed32a1541bf824d000ecd3baebb33", "lat": 38.91757783333333, "lon": -77.00452816666666, "rental_uris": {"android": "https://dc.lft.to/lastmile_qr_scan", "ios": "https://dc.lft.to/lastmile_qr_scan"}, "is_disabled": 0, "fusion_lat": 0.0, "name": "68aed32a1541bf824d000ecd3baebb33", "fusion_lon": 0.0}, {"is_reserved": 0, "type": "electric_bike", "bike_id": "5c9c96c419b0e979fef142ba4c72d9f6", "lat": 38.917075, "lon": -77.0572105, "rental_uris": {"android": "https://dc.lft.to/lastmile_qr_scan", "ios": "https://dc.lft.to/lastmile_qr_scan"}, "is_disabled": 0, "fusion_lat": 0.0, "name": "5c9c96c419b0e979fef142ba4c72d9f6", "fusion_lon": 0.0}, {"is_reserved": 0, "type": "electric_scooter", "bike_id": "b7a55674478e0cfbb76fe313253d9efd", "lat": 38.9268535, "lon": -77.0323345, "rental_uris": {"android": "https://dc.lft.to/lastmile_qr_scan", "ios": "https://dc.lft.to/lastmile_qr_scan"}, "is_disabled": 0, "fusion_lat": 0.0, "name": "b7a55674478e0cfbb76fe313253d9efd", "fusion_lon": 0.0}, {"is_reserved": 0, "type": "electric_scooter", "bike_id": "dcd6357118812f72f6522325d46a5771", "lat": 38.882926166666664, "lon": -77.02368816666667, "rental_uris": {"android": "https://dc.lft.to/lastmile_qr_scan", "ios": "https://dc.lft.to/lastmile_qr_scan"}, "is_disabled": 0, "fusion_lat": 0.0, "name": "dcd6357118812f72f6522325d46a5771", "fusion_lon": 0.0}, {"is_reserved": 0, "type": "electric_scooter", "bike_id": "1fa446ff9a42754a252db5e26f14c378", "lat": 38.89222066666667, "lon": -77.04368166666667, "rental_uris": {"android": "https://dc.lft.to/lastmile_qr_scan", "ios": "https://dc.lft.to/lastmile_qr_scan"}, "is_disabled": 0, "fusion_lat": 0.0, "name": "1fa446ff9a42754a252db5e26f14c378", "fusion_lon": 0.0}, {"is_reserved": 0, "type": "electric_bike", "bike_id": "3d1546c34b6aa0a7e51a21a3b708af0c", "lat": 38.920383333333334, "lon": -76.97959333333333, "rental_uris": {"android": "https://dc.lft.to/lastmile_qr_scan", "ios": "https://dc.lft.to/lastmile_qr_scan"}, "is_disabled": 0, "fusion_lat": 0.0, "name": "3d1546c34b6aa0a7e51a21a3b708af0c", "fusion_lon": 0.0}, {"is_reserved": 0, "type": "electric_bike", "bike_id": "3df210a4dfb984ae6c934d1ac8385f9f", "lat": 38.920662, "lon": -76.995861, "rental_uris": {"android": "https://dc.lft.to/lastmile_qr_scan", "ios": "https://dc.lft.to/lastmile_qr_scan"}, "is_disabled": 0, "fusion_lat": 0.0, "name": "3df210a4dfb984ae6c934d1ac8385f9f", "fusion_lon": 0.0}, {"is_reserved": 0, "type": "electric_scooter", "bike_id": "9ffb19fced3c470353b4537cd77d00b5", "lat": 38.934917166666665, "lon": -77.04454016666666, "rental_uris": {"android": "https://dc.lft.to/lastmile_qr_scan", "ios": "https://dc.lft.to/lastmile_qr_scan"}, "is_disabled": 0, "fusion_lat": 0.0, "name": "9ffb19fced3c470353b4537cd77d00b5", "fusion_lon": 0.0}, {"is_reserved": 0, "type": "electric_scooter", "bike_id": "ef42613b266d90a78c0978fa0bd00ad5", "lat": 38.9047305, "lon": -77.007276, "rental_uris": {"android": "https://dc.lft.to/lastmile_qr_scan", "ios": "https://dc.lft.to/lastmile_qr_scan"}, "is_disabled": 0, "fusion_lat": 0.0, "name": "ef42613b266d90a78c0978fa0bd00ad5", "fusion_lon": 0.0}, {"is_reserved": 0, "type": "electric_scooter", "bike_id": "77c34808446a52546aa65ddf915cd506", "lat": 38.914176833333336, "lon": -77.02214666666667, "rental_uris": {"android": "https://dc.lft.to/lastmile_qr_scan", "ios": "https://dc.lft.to/lastmile_qr_scan"}, "is_disabled": 0, "fusion_lat": 0.0, "name": "77c34808446a52546aa65ddf915cd506", "fusion_lon": 0.0}, {"is_reserved": 0, "type": "electric_scooter", "bike_id": "a11f29ee340ab05833679dea6e1eea1e", "lat": 38.8936665, "lon": -76.98685116666667, "rental_uris": {"android": "https://dc.lft.to/lastmile_qr_scan", "ios": "https://dc.lft.to/lastmile_qr_scan"}, "is_disabled": 0, "fusion_lat": 0.0, "name": "a11f29ee340ab05833679dea6e1eea1e", "fusion_lon": 0.0}, {"is_reserved": 0, "type": "electric_scooter", "bike_id": "d3c02c9a252f500207a65b5ab37b91ac", "lat": 38.906093, "lon": -77.0091975, "rental_uris": {"android": "https://dc.lft.to/lastmile_qr_scan", "ios": "https://dc.lft.to/lastmile_qr_scan"}, "is_disabled": 0, "fusion_lat": 0.0, "name": "d3c02c9a252f500207a65b5ab37b91ac", "fusion_lon": 0.0}, {"is_reserved": 0, "type": "electric_scooter", "bike_id": "cc1401b38063f59365b155811eb85f1c", "lat": 38.90733083333333, "lon": -77.00712916666667, "rental_uris": {"android": "https://dc.lft.to/lastmile_qr_scan", "ios": "https://dc.lft.to/lastmile_qr_scan"}, "is_disabled": 0, "fusion_lat": 0.0, "name": "cc1401b38063f59365b155811eb85f1c", "fusion_lon": 0.0}, {"is_reserved": 0, "type": "electric_scooter", "bike_id": "c2f5bb09e3217246183c894f2742c3c3", "lat": 38.92284733333334, "lon": -77.03658333333334, "rental_uris": {"android": "https://dc.lft.to/lastmile_qr_scan", "ios": "https://dc.lft.to/lastmile_qr_scan"}, "is_disabled": 0, "fusion_lat": 0.0, "name": "c2f5bb09e3217246183c894f2742c3c3", "fusion_lon": 0.0}, {"is_reserved": 0, "type": "electric_scooter", "bike_id": "c38fb9c60b5ceed4c611a4a978268bb3", "lat": 38.989892166666664, "lon": -77.03362916666667, "rental_uris": {"android": "https://dc.lft.to/lastmile_qr_scan", "ios": "https://dc.lft.to/lastmile_qr_scan"}, "is_disabled": 0, "fusion_lat": 0.0, "name": "c38fb9c60b5ceed4c611a4a978268bb3", "fusion_lon": 0.0}, {"is_reserved": 0, "type": "electric_scooter", "bike_id": "09c4d235c5b80e8150e7ba64cb5778c7", "lat": 38.894909166666665, "lon": -76.92790983333333, "rental_uris": {"android": "https://dc.lft.to/lastmile_qr_scan", "ios": "https://dc.lft.to/lastmile_qr_scan"}, "is_disabled": 0, "fusion_lat": 0.0, "name": "09c4d235c5b80e8150e7ba64cb5778c7", "fusion_lon": 0.0}, {"is_reserved": 0, "type": "electric_scooter", "bike_id": "6ac9346c0fecf8dfbc45d1ac236876db", "lat": 38.9471765, "lon": -77.0270055, "rental_uris": {"android": "https://dc.lft.to/lastmile_qr_scan", "ios": "https://dc.lft.to/lastmile_qr_scan"}, "is_disabled": 0, "fusion_lat": 0.0, "name": "6ac9346c0fecf8dfbc45d1ac236876db", "fusion_lon": 0.0}, {"is_reserved": 0, "type": "electric_scooter", "bike_id": "76a91b1e028f99facc8604977fa7b3f2", "lat": 38.898764666666665, "lon": -76.93186383333334, "rental_uris": {"android": "https://dc.lft.to/lastmile_qr_scan", "ios": "https://dc.lft.to/lastmile_qr_scan"}, "is_disabled": 0, "fusion_lat": 0.0, "name": "76a91b1e028f99facc8604977fa7b3f2", "fusion_lon": 0.0}, {"is_reserved": 0, "type": "electric_bike", "bike_id": "ce98aed047a99100e03e47d88ce632a8", "lat": 38.93175333333333, "lon": -77.02860666666666, "rental_uris": {"android": "https://dc.lft.to/lastmile_qr_scan", "ios": "https://dc.lft.to/lastmile_qr_scan"}, "is_disabled": 0, "fusion_lat": 0.0, "name": "ce98aed047a99100e03e47d88ce632a8", "fusion_lon": 0.0}, {"is_reserved": 0, "type": "electric_scooter", "bike_id": "fc1e016dff5b0bca497c474504220c97", "lat": 38.887409, "lon": -77.013571, "rental_uris": {"android": "https://dc.lft.to/lastmile_qr_scan", "ios": "https://dc.lft.to/lastmile_qr_scan"}, "is_disabled": 0, "fusion_lat": 0.0, "name": "fc1e016dff5b0bca497c474504220c97", "fusion_lon": 0.0}, {"is_reserved": 0, "type": "electric_bike", "bike_id": "6eee4da17e3d7a6d7e7ad74c746455da", "lat": 38.9051645, "lon": -77.04195083333333, "rental_uris": {"android": "https://dc.lft.to/lastmile_qr_scan", "ios": "https://dc.lft.to/lastmile_qr_scan"}, "is_disabled": 0, "fusion_lat": 0.0, "name": "6eee4da17e3d7a6d7e7ad74c746455da", "fusion_lon": 0.0}, {"is_reserved": 0, "type": "electric_scooter", "bike_id": "59b908f42b025ffeb2ac57bc1dc33098", "lat": 38.916953, "lon": -77.0258775, "rental_uris": {"android": "https://dc.lft.to/lastmile_qr_scan", "ios": "https://dc.lft.to/lastmile_qr_scan"}, "is_disabled": 0, "fusion_lat": 0.0, "name": "59b908f42b025ffeb2ac57bc1dc33098", "fusion_lon": 0.0}, {"is_reserved": 0, "type": "electric_scooter", "bike_id": "028e758eab04306a13be6b422a0a5170", "lat": 38.92629983333333, "lon": -77.03509533333333, "rental_uris": {"android": "https://dc.lft.to/lastmile_qr_scan", "ios": "https://dc.lft.to/lastmile_qr_scan"}, "is_disabled": 0, "fusion_lat": 0.0, "name": "028e758eab04306a13be6b422a0a5170", "fusion_lon": 0.0}, {"is_reserved": 0, "type": "electric_scooter", "bike_id": "46f6fd7bc2b299fd413c6b44435bfb8c", "lat": 38.966465666666664, "lon": -77.00891716666666, "rental_uris": {"android": "https://dc.lft.to/lastmile_qr_scan", "ios": "https://dc.lft.to/lastmile_qr_scan"}, "is_disabled": 0, "fusion_lat": 0.0, "name": "46f6fd7bc2b299fd413c6b44435bfb8c", "fusion_lon": 0.0}, {"is_reserved": 0, "type": "electric_bike", "bike_id": "34e5acb6480f4dc7f0099c2edfe8b573", "lat": 38.8945215, "lon": -77.01997266666666, "rental_uris": {"android": "https://dc.lft.to/lastmile_qr_scan", "ios": "https://dc.lft.to/lastmile_qr_scan"}, "is_disabled": 0, "fusion_lat": 0.0, "name": "34e5acb6480f4dc7f0099c2edfe8b573", "fusion_lon": 0.0}, {"is_reserved": 0, "type": "electric_scooter", "bike_id": "042ccef7afc8ea6b6f106f40a73caccf", "lat": 38.95264683333333, "lon": -77.024051, "rental_uris": {"android": "https://dc.lft.to/lastmile_qr_scan", "ios": "https://dc.lft.to/lastmile_qr_scan"}, "is_disabled": 0, "fusion_lat": 0.0, "name": "042ccef7afc8ea6b6f106f40a73caccf", "fusion_lon": 0.0}, {"is_reserved": 0, "type": "electric_scooter", "bike_id": "414985de73baf9d26ffb01b61c190ad3", "lat": 38.923938666666665, "lon": -77.05043816666667, "rental_uris": {"android": "https://dc.lft.to/lastmile_qr_scan", "ios": "https://dc.lft.to/lastmile_qr_scan"}, "is_disabled": 0, "fusion_lat": 0.0, "name": "414985de73baf9d26ffb01b61c190ad3", "fusion_lon": 0.0}, {"is_reserved": 0, "type": "electric_scooter", "bike_id": "b7b709ab379612ca9dda00f40cb5e2cd", "lat": 38.88251833333333, "lon": -77.006292, "rental_uris": {"android": "https://dc.lft.to/lastmile_qr_scan", "ios": "https://dc.lft.to/lastmile_qr_scan"}, "is_disabled": 0, "fusion_lat": 0.0, "name": "b7b709ab379612ca9dda00f40cb5e2cd", "fusion_lon": 0.0}, {"is_reserved": 0, "type": "electric_scooter", "bike_id": "cf495a89f55dbc8f38b5ee778a445c23", "lat": 38.926068666666666, "lon": -77.039657, "rental_uris": {"android": "https://dc.lft.to/lastmile_qr_scan", "ios": "https://dc.lft.to/lastmile_qr_scan"}, "is_disabled": 0, "fusion_lat": 0.0, "name": "cf495a89f55dbc8f38b5ee778a445c23", "fusion_lon": 0.0}, {"is_reserved": 0, "type": "electric_scooter", "bike_id": "61f53aca674b5b57ce2148e3da4c0149", "lat": 38.935288666666665, "lon": -77.02489283333334, "rental_uris": {"android": "https://dc.lft.to/lastmile_qr_scan", "ios": "https://dc.lft.to/lastmile_qr_scan"}, "is_disabled": 0, "fusion_lat": 0.0, "name": "61f53aca674b5b57ce2148e3da4c0149", "fusion_lon": 0.0}, {"is_reserved": 0, "type": "electric_scooter", "bike_id": "0c141bbbf3f820a4e906e067d5b3c2d8", "lat": 38.89984416666667, "lon": -77.0271055, "rental_uris": {"android": "https://dc.lft.to/lastmile_qr_scan", "ios": "https://dc.lft.to/lastmile_qr_scan"}, "is_disabled": 0, "fusion_lat": 0.0, "name": "0c141bbbf3f820a4e906e067d5b3c2d8", "fusion_lon": 0.0}, {"is_reserved": 0, "type": "electric_bike", "bike_id": "1c227906240c67b9aa19c9c287478382", "lat": 38.995382666666664, "lon": -77.07447166666667, "rental_uris": {"android": "https://dc.lft.to/lastmile_qr_scan", "ios": "https://dc.lft.to/lastmile_qr_scan"}, "is_disabled": 0, "fusion_lat": 0.0, "name": "1c227906240c67b9aa19c9c287478382", "fusion_lon": 0.0}, {"is_reserved": 0, "type": "electric_scooter", "bike_id": "81fbe9a45e5bce9ca19086907db13be2", "lat": 38.91198283333333, "lon": -77.00445166666667, "rental_uris": {"android": "https://dc.lft.to/lastmile_qr_scan", "ios": "https://dc.lft.to/lastmile_qr_scan"}, "is_disabled": 0, "fusion_lat": 0.0, "name": "81fbe9a45e5bce9ca19086907db13be2", "fusion_lon": 0.0}, {"is_reserved": 0, "type": "electric_scooter", "bike_id": "5cff546b47a130f1adb3cfe38e9ee269", "lat": 38.9518565, "lon": -77.0261835, "rental_uris": {"android": "https://dc.lft.to/lastmile_qr_scan", "ios": "https://dc.lft.to/lastmile_qr_scan"}, "is_disabled": 0, "fusion_lat": 0.0, "name": "5cff546b47a130f1adb3cfe38e9ee269", "fusion_lon": 0.0}, {"is_reserved": 0, "type": "electric_scooter", "bike_id": "4c37a54938498c55b154320d287edf1e", "lat": 38.903824, "lon": -77.01770183333333, "rental_uris": {"android": "https://dc.lft.to/lastmile_qr_scan", "ios": "https://dc.lft.to/lastmile_qr_scan"}, "is_disabled": 0, "fusion_lat": 0.0, "name": "4c37a54938498c55b154320d287edf1e", "fusion_lon": 0.0}, {"is_reserved": 0, "type": "electric_scooter", "bike_id": "5f6c9c0219461a90769c80500a18b91c", "lat": 38.9053435, "lon": -77.00605416666667, "rental_uris": {"android": "https://dc.lft.to/lastmile_qr_scan", "ios": "https://dc.lft.to/lastmile_qr_scan"}, "is_disabled": 0, "fusion_lat": 0.0, "name": "5f6c9c0219461a90769c80500a18b91c", "fusion_lon": 0.0}, {"is_reserved": 0, "type": "electric_scooter", "bike_id": "61f70d4242ae0046eca2799def80617f", "lat": 38.916327, "lon": -77.015708, "rental_uris": {"android": "https://dc.lft.to/lastmile_qr_scan", "ios": "https://dc.lft.to/lastmile_qr_scan"}, "is_disabled": 0, "fusion_lat": 0.0, "name": "61f70d4242ae0046eca2799def80617f", "fusion_lon": 0.0}, {"is_reserved": 0, "type": "electric_scooter", "bike_id": "8c8b035d3820ea04fe26b4acf20ca63c", "lat": 38.9141275, "lon": -77.04364683333333, "rental_uris": {"android": "https://dc.lft.to/lastmile_qr_scan", "ios": "https://dc.lft.to/lastmile_qr_scan"}, "is_disabled": 0, "fusion_lat": 0.0, "name": "8c8b035d3820ea04fe26b4acf20ca63c", "fusion_lon": 0.0}, {"is_reserved": 0, "type": "electric_scooter", "bike_id": "999463f52649edcfc780a05b1e3f6760", "lat": 38.8832395, "lon": -77.00960633333334, "rental_uris": {"android": "https://dc.lft.to/lastmile_qr_scan", "ios": "https://dc.lft.to/lastmile_qr_scan"}, "is_disabled": 0, "fusion_lat": 0.0, "name": "999463f52649edcfc780a05b1e3f6760", "fusion_lon": 0.0}, {"is_reserved": 0, "type": "electric_bike", "bike_id": "b8db782c83e21fdef0dfe94109794176", "lat": 38.7840135, "lon": -77.12061516666667, "rental_uris": {"android": "https://dc.lft.to/lastmile_qr_scan", "ios": "https://dc.lft.to/lastmile_qr_scan"}, "is_disabled": 0, "fusion_lat": 0.0, "name": "b8db782c83e21fdef0dfe94109794176", "fusion_lon": 0.0}, {"is_reserved": 0, "type": "electric_scooter", "bike_id": "963bbc27e2a7e6ec99c6c1406e2a05fe", "lat": 38.903730333333336, "lon": -77.03165483333333, "rental_uris": {"android": "https://dc.lft.to/lastmile_qr_scan", "ios": "https://dc.lft.to/lastmile_qr_scan"}, "is_disabled": 0, "fusion_lat": 0.0, "name": "963bbc27e2a7e6ec99c6c1406e2a05fe", "fusion_lon": 0.0}, {"is_reserved": 0, "type": "electric_scooter", "bike_id": "d7e50d424241ea4b90320ed7b45b8c26", "lat": 38.913937, "lon": -77.0198095, "rental_uris": {"android": "https://dc.lft.to/lastmile_qr_scan", "ios": "https://dc.lft.to/lastmile_qr_scan"}, "is_disabled": 0, "fusion_lat": 0.0, "name": "d7e50d424241ea4b90320ed7b45b8c26", "fusion_lon": 0.0}, {"is_reserved": 0, "type": "electric_scooter", "bike_id": "ad2a0bf1957b559b48e2b8c17bc1ad05", "lat": 38.91268, "lon": -77.00513033333333, "rental_uris": {"android": "https://dc.lft.to/lastmile_qr_scan", "ios": "https://dc.lft.to/lastmile_qr_scan"}, "is_disabled": 0, "fusion_lat": 0.0, "name": "ad2a0bf1957b559b48e2b8c17bc1ad05", "fusion_lon": 0.0}, {"is_reserved": 0, "type": "electric_scooter", "bike_id": "85ffef82f78b136d61101ba8bafb4496", "lat": 38.9156135, "lon": -77.03181233333333, "rental_uris": {"android": "https://dc.lft.to/lastmile_qr_scan", "ios": "https://dc.lft.to/lastmile_qr_scan"}, "is_disabled": 0, "fusion_lat": 0.0, "name": "85ffef82f78b136d61101ba8bafb4496", "fusion_lon": 0.0}, {"is_reserved": 0, "type": "electric_scooter", "bike_id": "1b33137168acd1eb8a3f920bb32b9b5d", "lat": 38.92231133333333, "lon": -77.02333316666666, "rental_uris": {"android": "https://dc.lft.to/lastmile_qr_scan", "ios": "https://dc.lft.to/lastmile_qr_scan"}, "is_disabled": 0, "fusion_lat": 0.0, "name": "1b33137168acd1eb8a3f920bb32b9b5d", "fusion_lon": 0.0}, {"is_reserved": 0, "type": "electric_scooter", "bike_id": "00accc4ced5bb8f9980790b341e37bc7", "lat": 38.92486383333333, "lon": -77.02273733333334, "rental_uris": {"android": "https://dc.lft.to/lastmile_qr_scan", "ios": "https://dc.lft.to/lastmile_qr_scan"}, "is_disabled": 0, "fusion_lat": 0.0, "name": "00accc4ced5bb8f9980790b341e37bc7", "fusion_lon": 0.0}, {"is_reserved": 0, "type": "electric_scooter", "bike_id": "af4e7e3e6dffa4930a8598b488cec94f", "lat": 38.899436666666666, "lon": -76.981919, "rental_uris": {"android": "https://dc.lft.to/lastmile_qr_scan", "ios": "https://dc.lft.to/lastmile_qr_scan"}, "is_disabled": 0, "fusion_lat": 0.0, "name": "af4e7e3e6dffa4930a8598b488cec94f", "fusion_lon": 0.0}, {"is_reserved": 0, "type": "electric_scooter", "bike_id": "f3e64c3c56418adff2f439167cc04842", "lat": 38.90415333333333, "lon": -77.02605616666666, "rental_uris": {"android": "https://dc.lft.to/lastmile_qr_scan", "ios": "https://dc.lft.to/lastmile_qr_scan"}, "is_disabled": 0, "fusion_lat": 0.0, "name": "f3e64c3c56418adff2f439167cc04842", "fusion_lon": 0.0}, {"is_reserved": 0, "type": "electric_scooter", "bike_id": "1d89f78786f13c38c18ecc9a0e0867ca", "lat": 38.921390833333334, "lon": -77.04705383333334, "rental_uris": {"android": "https://dc.lft.to/lastmile_qr_scan", "ios": "https://dc.lft.to/lastmile_qr_scan"}, "is_disabled": 0, "fusion_lat": 0.0, "name": "1d89f78786f13c38c18ecc9a0e0867ca", "fusion_lon": 0.0}, {"is_reserved": 0, "type": "electric_scooter", "bike_id": "c87adc4bb8b07be2e9a5c670a0b812ce", "lat": 38.9035595, "lon": -77.0539645, "rental_uris": {"android": "https://dc.lft.to/lastmile_qr_scan", "ios": "https://dc.lft.to/lastmile_qr_scan"}, "is_disabled": 0, "fusion_lat": 0.0, "name": "c87adc4bb8b07be2e9a5c670a0b812ce", "fusion_lon": 0.0}, {"is_reserved": 0, "type": "electric_scooter", "bike_id": "2ac1b3fddeab24beeb67152e34415737", "lat": 38.9802695, "lon": -77.026689, "rental_uris": {"android": "https://dc.lft.to/lastmile_qr_scan", "ios": "https://dc.lft.to/lastmile_qr_scan"}, "is_disabled": 0, "fusion_lat": 0.0, "name": "2ac1b3fddeab24beeb67152e34415737", "fusion_lon": 0.0}, {"is_reserved": 0, "type": "electric_scooter", "bike_id": "caa341b0ff69f582e0dc78bf99d20754", "lat": 38.919222500000004, "lon": -77.03432183333334, "rental_uris": {"android": "https://dc.lft.to/lastmile_qr_scan", "ios": "https://dc.lft.to/lastmile_qr_scan"}, "is_disabled": 0, "fusion_lat": 0.0, "name": "caa341b0ff69f582e0dc78bf99d20754", "fusion_lon": 0.0}, {"is_reserved": 0, "type": "electric_scooter", "bike_id": "4277a4c8e469b2362ce38e18328b5102", "lat": 38.89985033333333, "lon": -77.05119783333333, "rental_uris": {"android": "https://dc.lft.to/lastmile_qr_scan", "ios": "https://dc.lft.to/lastmile_qr_scan"}, "is_disabled": 0, "fusion_lat": 0.0, "name": "4277a4c8e469b2362ce38e18328b5102", "fusion_lon": 0.0}, {"is_reserved": 0, "type": "electric_scooter", "bike_id": "3ad9915a678616064b294cb62432b8e0", "lat": 38.89545316666667, "lon": -77.01099983333333, "rental_uris": {"android": "https://dc.lft.to/lastmile_qr_scan", "ios": "https://dc.lft.to/lastmile_qr_scan"}, "is_disabled": 0, "fusion_lat": 0.0, "name": "3ad9915a678616064b294cb62432b8e0", "fusion_lon": 0.0}, {"is_reserved": 0, "type": "electric_scooter", "bike_id": "54b2272d56ff53d6bcb950e80aa23fbd", "lat": 38.9333755, "lon": -77.081977, "rental_uris": {"android": "https://dc.lft.to/lastmile_qr_scan", "ios": "https://dc.lft.to/lastmile_qr_scan"}, "is_disabled": 0, "fusion_lat": 0.0, "name": "54b2272d56ff53d6bcb950e80aa23fbd", "fusion_lon": 0.0}, {"is_reserved": 0, "type": "electric_scooter", "bike_id": "a134a932cc4cfd726aa53479e44f4aa0", "lat": 38.91302783333333, "lon": -77.0364365, "rental_uris": {"android": "https://dc.lft.to/lastmile_qr_scan", "ios": "https://dc.lft.to/lastmile_qr_scan"}, "is_disabled": 0, "fusion_lat": 0.0, "name": "a134a932cc4cfd726aa53479e44f4aa0", "fusion_lon": 0.0}, {"is_reserved": 0, "type": "electric_scooter", "bike_id": "c39878d3515834d26e4e71f931741b03", "lat": 38.89225583333333, "lon": -77.02427666666667, "rental_uris": {"android": "https://dc.lft.to/lastmile_qr_scan", "ios": "https://dc.lft.to/lastmile_qr_scan"}, "is_disabled": 0, "fusion_lat": 0.0, "name": "c39878d3515834d26e4e71f931741b03", "fusion_lon": 0.0}, {"is_reserved": 0, "type": "electric_scooter", "bike_id": "9d968938a860a0328b599280998e2adb", "lat": 38.914045, "lon": -77.02754016666667, "rental_uris": {"android": "https://dc.lft.to/lastmile_qr_scan", "ios": "https://dc.lft.to/lastmile_qr_scan"}, "is_disabled": 0, "fusion_lat": 0.0, "name": "9d968938a860a0328b599280998e2adb", "fusion_lon": 0.0}, {"is_reserved": 0, "type": "electric_scooter", "bike_id": "fd9ba4cd85ea49909958b69a4ee6c4d3", "lat": 38.8954085, "lon": -77.0113675, "rental_uris": {"android": "https://dc.lft.to/lastmile_qr_scan", "ios": "https://dc.lft.to/lastmile_qr_scan"}, "is_disabled": 0, "fusion_lat": 0.0, "name": "fd9ba4cd85ea49909958b69a4ee6c4d3", "fusion_lon": 0.0}, {"is_reserved": 0, "type": "electric_scooter", "bike_id": "8c8097e988ff660546dad5a9c5a2bbed", "lat": 38.88408316666667, "lon": -77.02586483333333, "rental_uris": {"android": "https://dc.lft.to/lastmile_qr_scan", "ios": "https://dc.lft.to/lastmile_qr_scan"}, "is_disabled": 0, "fusion_lat": 0.0, "name": "8c8097e988ff660546dad5a9c5a2bbed", "fusion_lon": 0.0},