{"data": {"bikes": [{"is_reserved": 0, "type": "electric_scooter", "bike_id": "620063de35822a13e04efa2a22a2d25f", "lat": 38.92114466666666, "lon": -77.017769, "rental_uris": {"android": "https://dc.lft.to/lastmile_qr_scan", "ios": "https://dc.lft.to/lastmile_qr_scan"}, "is_disabled": 0, "fusion_lat": 0.0, "name": "620063de35822a13e04efa2a22a2d25f", "fusion_lon": 0.0}, {"is_reserved": 0, "type": "electric_scooter", "bike_id": "b8907df5f08c1e051572281f94deb04d", "lat": 38.9192875, "lon": -77.01978333333334, "rental_uris": {"android": "https://dc.lft.to/lastmile_qr_scan", "ios": "https://dc.lft.to/lastmile_qr_scan"}, "is_disabled": 0, "fusion_lat": 0.0, "name": "b8907df5f08c1e051572281f94deb04d", "fusion_lon": 0.0}, {"is_reserved": 0, "type": "electric_scooter", "bike_id": "c39b076a71e9817f472aa05acea88c97", "lat": 38.905021833333336, "lon": -77.050299, "rental_uris": {"android": "https://dc.lft.to/lastmile_qr_scan", "ios": "https://dc.lft.to/lastmile_qr_scan"}, "is_disabled": 0, "fusion_lat": 0.0, "name": "c39b076a71e9817f472aa05acea88c97", "fusion_lon": 0.0}, {"is_reserved": 0, "type": "electric_scooter", "bike_id": "5ea5cb00e981a407479c60e0282cea46", "lat": 38.904259, "lon": -77.03464483333333, "rental_uris": {"android": "https://dc.lft.to/lastmile_qr_scan", "ios": "https://dc.lft.to/lastmile_qr_scan"}, "is_disabled": 0, "fusion_lat": 0.0, "name": "5ea5cb00e981a407479c60e0282cea46", "fusion_lon": 0.0}, {"is_reserved": 0, "type": "electric_bike", "bike_id": "196aa1d46644909bcc1e89570b4e2b8f", "lat": 39.0945545, "lon": -77.13461133333334, "rental_uris": {"android": "https://dc.lft.to/lastmile_qr_scan", "ios": "https://dc.lft.to/lastmile_qr_scan"}, "is_disabled": 0, "fusion_lat": 0.0, "name": "196aa1d46644909bcc1e89570b4e2b8f", "fusion_lon": 0.0}, {"is_reserved": 0, "type": "electric_bike", "bike_id": "bc84a12045956ff1dc0330212212a3a9", "lat": 38.89850766666667, "lon": -76.93190266666667, "rental_uris": {"android": "https://dc.lft.to/lastmile_qr_scan", "ios": "https://dc.lft.to/lastmile_qr_scan"}, "is_disabled": 0, "fusion_lat": 0.0, "name": "bc84a12045956ff1dc0330212212a3a9", "fusion_lon": 0.0}, {"is_reserved": 0, "type": "electric_scooter", "bike_id": "559f3c011b72ce77589486cc3d3c6c4e", "lat": 38.930648166666664, "lon": -77.04221016666666, "rental_uris": {"android": "https://dc.lft.to/lastmile_qr_scan", "ios": "https://dc.lft.to/lastmile_qr_scan"}, "is_disabled": 0, "fusion_lat": 0.0, "name": "559f3c011b72ce77589486cc3d3c6c4e", "fusion_lon": 0.0}, {"is_reserved": 0, "type": "electric_scooter", "bike_id": "470e169a465e7790c06a73deeb957a7a", "lat": 38.9218925, "lon": -77.018328, "rental_uris": {"android": "https://dc.lft.to/lastmile_qr_scan", "ios": "https://dc.lft.to/lastmile_qr_scan"}, "is_disabled": 0, "fusion_lat": 0.0, "name": "470e169a465e7790c06a73deeb957a7a", "fusion_lon": 0.0}, {"is_reserved": 0, "type": "electric_scooter", "bike_id": "6519f6be533b683e2f51640728d6c9db", "lat": 38.9279655, "lon": -77.03604333333334, "rental_uris": {"android": "https://dc.lft.to/lastmile_qr_scan", "ios": "https://dc.lft.to/lastmile_qr_scan"}, "is_disabled": 0, "fusion_lat": 0.0, "name": "6519f6be533b683e2f51640728d6c9db", "fusion_lon": 0.0}, {"is_reserved": 0, "type": "electric_scooter", "bike_id": "23f156905825c0357e4cd0f1d5be9e04", "lat": 38.8760145, "lon": -77.002451, "rental_uris": {"android": "https://dc.lft.to/lastmile_qr_scan", "ios": "https://dc.lft.to/lastmile_qr_scan"}, "is_disabled": 0, "fusion_lat": 0.0, "name": "23f156905825c0357e4cd0f1d5be9e04", "fusion_lon": 0.0}, {"is_reserved": 0, "type": "electric_scooter", "bike_id": "7695978e1be1d757e2be999bd20a0969", "lat": 38.927444666666666, "lon": -77.06958216666666, "rental_uris": {"android": "https://dc.lft.to/lastmile_qr_scan", "ios": "https://dc.lft.to/lastmile_qr_scan"}, "is_disabled": 0, "fusion_lat": 0.0, "name": "7695978e1be1d757e2be999bd20a0969", "fusion_lon": 0.0}, {"is_reserved": 0, "type": "electric_scooter", "bike_id": "66489118d5093ac73b970eb100827ed0", "lat": 38.8645305, "lon": -76.99128483333334, "rental_uris": {"android": "https://dc.lft.to/lastmile_qr_scan", "ios": "https://dc.lft.to/lastmile_qr_scan"}, "is_disabled": 0, "fusion_lat": 0.0, "name": "66489118d5093ac73b970eb100827ed0", "fusion_lon": 0.0}, {"is_reserved": 0, "type": "electric_scooter", "bike_id": "5976af35ab9053db4452395ad1d93028", "lat": 38.90562583333333, "lon": -77.05137433333333, "rental_uris": {"android": "https://dc.lft.to/lastmile_qr_scan", "ios": "https://dc.lft.to/lastmile_qr_scan"}, "is_disabled": 0, "fusion_lat": 0.0, "name": "5976af35ab9053db4452395ad1d93028", "fusion_lon": 0.0}, {"is_reserved": 0, "type": "electric_scooter", "bike_id": "3d8f6962380aeeb7fbdc1ec3c751decc", "lat": 38.97296766666667, "lon": -77.03626616666666, "rental_uris": {"android": "https://dc.lft.to/lastmile_qr_scan", "ios": "https://dc.lft.to/lastmile_qr_scan"}, "is_disabled": 0, "fusion_lat": 0.0, "name": "3d8f6962380aeeb7fbdc1ec3c751decc", "fusion_lon": 0.0}, {"is_reserved": 0, "type": "electric_scooter", "bike_id": "8431ce698dd86a756d52d9c263d4a9c9", "lat": 38.911294833333336, "lon": -77.03308216666667, "rental_uris": {"android": "https://dc.lft.to/lastmile_qr_scan", "ios": "https://dc.lft.to/lastmile_qr_scan"}, "is_disabled": 0, "fusion_lat": 0.0, "name": "8431ce698dd86a756d52d9c263d4a9c9", "fusion_lon": 0.0}, {"is_reserved": 0, "type": "electric_scooter", "bike_id": "1830f391a81f5e7c2de7ff68b90fbffd", "lat": 38.91843133333333, "lon": -77.0319695, "rental_uris": {"android": "https://dc.lft.to/lastmile_qr_scan", "ios": "https://dc.lft.to/lastmile_qr_scan"}, "is_disabled": 0, "fusion_lat": 0.0, "name": "1830f391a81f5e7c2de7ff68b90fbffd", "fusion_lon": 0.0}, {"is_reserved": 0, "type": "electric_scooter", "bike_id": "682c54e90b091d30050f085e873fdbde", "lat": 38.909828833333336, "lon": -77.03466433333334, "rental_uris": {"android": "https://dc.lft.to/lastmile_qr_scan", "ios": "https://dc.lft.to/lastmile_qr_scan"}, "is_disabled": 0, "fusion_lat": 0.0, "name": "682c54e90b091d30050f085e873fdbde", "fusion_lon": 0.0}, {"is_reserved": 0, "type": "electric_scooter", "bike_id": "fd3cc2de74fffe8a911d085bd5dd2a20", "lat": 38.9302485, "lon": -77.03785683333334, "rental_uris": {"android": "https://dc.lft.to/lastmile_qr_scan", "ios": "https://dc.lft.to/lastmile_qr_scan"}, "is_disabled": 0, "fusion_lat": 0.0, "name": "fd3cc2de74fffe8a911d085bd5dd2a20", "fusion_lon": 0.0}, {"is_reserved": 0, "type": "electric_scooter", "bike_id": "44abac7a6849ba5ad243963ea461452b", "lat": 38.88458083333333, "lon": -76.926249, "rental_uris": {"android": "https://dc.lft.to/lastmile_qr_scan", "ios": "https://dc.lft.to/lastmile_qr_scan"}, "is_disabled": 0, "fusion_lat": 0.0, "name": "44abac7a6849ba5ad243963ea461452b", "fusion_lon": 0.0}, {"is_reserved": 0, "type": "electric_scooter", "bike_id": "26dc82f253610ac9b2dbf22d5e136b8a", "lat": 38.9120615, "lon": -77.02002, "rental_uris": {"android": "https://dc.lft.to/lastmile_qr_scan", "ios": "https://dc.lft.to/lastmile_qr_scan"}, "is_disabled": 0, "fusion_lat": 0.0, "name": "26dc82f253610ac9b2dbf22d5e136b8a", "fusion_lon": 0.0}, {"is_reserved": 0, "type": "electric_scooter", "bike_id": "265ee1330c42ab72fe625e70ad32b896", "lat": 38.94375766666667, "lon": -77.023575, "rental_uris": {"android": "https://dc.lft.to/lastmile_qr_scan", "ios": "https://dc.lft.to/lastmile_qr_scan"}, "is_disabled": 0, "fusion_lat": 0.0, "name": "265ee1330c42ab72fe625e70ad32b896", "fusion_lon": 0.0}, {"is_reserved": 0, "type": "electric_scooter", "bike_id": "4cbb7828dd1e141d45745580a195ee70", "lat": 38.90038766666667, "lon": -77.00216666666667, "rental_uris": {"android": "https://dc.lft.to/lastmile_qr_scan", "ios": "https://dc.lft.to/lastmile_qr_scan"}, "is_disabled": 0, "fusion_lat": 0.0, "name": "4cbb7828dd1e141d45745580a195ee70", "fusion_lon": 0.0}, {"is_reserved": 0, "type": "electric_scooter", "bike_id": "071fcf51ac0fce09bf8affbb92587b91", "lat": 38.9024905, "lon": -77.01742716666666, "rental_uris": {"android": "https://dc.lft.to/lastmile_qr_scan", "ios": "https://dc.lft.to/lastmile_qr_scan"}, "is_disabled": 0, "fusion_lat": 0.0, "name": "071fcf51ac0fce09bf8affbb92587b91", "fusion_lon": 0.0}, {"is_reserved": 0, "type": "electric_scooter", "bike_id": "7ff13d689010c3de2b5e8f5e44408627", "lat": 38.90861783333333, "lon": -77.01943616666667, "rental_uris": {"android": "https://dc.lft.to/lastmile_qr_scan", "ios": "https://dc.lft.to/lastmile_qr_scan"}, "is_disabled": 0, "fusion_lat": 0.0, "name": "7ff13d689010c3de2b5e8f5e44408627", "fusion_lon": 0.0}, {"is_reserved": 0, "type": "electric_scooter", "bike_id": "8f1b5a0e2a762b147c4a3268ac485fcc", "lat": 38.92728616666667, "lon": -77.03556116666667, "rental_uris": {"android": "https://dc.lft.to/lastmile_qr_scan", "ios": "https://dc.lft.to/lastmile_qr_scan"}, "is_disabled": 0, "fusion_lat": 0.0, "name": "8f1b5a0e2a762b147c4a3268ac485fcc", "fusion_lon": 0.0}, {"is_reserved": 0, "type": "electric_scooter", "bike_id": "102a3988ffe6b5ba2f368723203d706b", "lat": 38.92855633333333, "lon": -77.027429, "rental_uris": {"android": "https://dc.lft.to/lastmile_qr_scan", "ios": "https://dc.lft.to/lastmile_qr_scan"}, "is_disabled": 0, "fusion_lat": 0.0, "name": "102a3988ffe6b5ba2f368723203d706b", "fusion_lon": 0.0}, {"is_reserved": 0, "type": "electric_scooter", "bike_id": "6c634e4425e4cd5597e9ddb3dab90388", "lat": 38.86529383333333, "lon": -76.969144, "rental_uris": {"android": "https://dc.lft.to/lastmile_qr_scan", "ios": "https://dc.lft.to/lastmile_qr_scan"}, "is_disabled": 0, "fusion_lat": 0.0, "name": "6c634e4425e4cd5597e9ddb3dab90388", "fusion_lon": 0.0}, {"is_reserved": 0, "type": "electric_scooter", "bike_id": "01fd54d4fd8c6e5a29029682bca34cec", "lat": 38.896192166666665, "lon": -77.04411766666666, "rental_uris": {"android": "https://dc.lft.to/lastmile_qr_scan", "ios": "https://dc.lft.to/lastmile_qr_scan"}, "is_disabled": 0, "fusion_lat": 0.0, "name": "01fd54d4fd8c6e5a29029682bca34cec", "fusion_lon": 0.0}, {"is_reserved": 0, "type": "electric_scooter", "bike_id": "2b5ed152cc90f1e5a902c9784e814ead", "lat": 38.9095475, "lon": -77.045758, "rental_uris": {"android": "https://dc.lft.to/lastmile_qr_scan", "ios": "https://dc.lft.to/lastmile_qr_scan"}, "is_disabled": 0, "fusion_lat": 0.0, "name": "2b5ed152cc90f1e5a902c9784e814ead", "fusion_lon": 0.0}, {"is_reserved": 0, "type": "electric_scooter", "bike_id": "d3ba439bb54d79b07c9502752f535c19", "lat": 38.92918133333333, "lon": -77.02093616666667, "rental_uris": {"android": "https://dc.lft.to/lastmile_qr_scan", "ios": "https://dc.lft.to/lastmile_qr_scan"}, "is_disabled": 0, "fusion_lat": 0.0, "name": "d3ba439bb54d79b07c9502752f535c19", "fusion_lon": 0.0}, {"is_reserved": 0, "type": "electric_bike", "bike_id": "0f07c9272fce12206ec98217f954eba6", "lat": 38.802506666666666, "lon": -77.114447, "rental_uris": {"android": "https://dc.lft.to/lastmile_qr_scan", "ios": "https://dc.lft.to/lastmile_qr_scan"}, "is_disabled": 0, "fusion_lat": 0.0, "name": "0f07c9272fce12206ec98217f954eba6", "fusion_lon": 0.0}, {"is_reserved": 0, "type": "electric_scooter", "bike_id": "5393c034a395481f7ac5164359581761", "lat": 38.9215455, "lon": -77.03492683333333, "rental_uris": {"android": "https://dc.lft.to/lastmile_qr_scan", "ios": "https://dc.lft.to/lastmile_qr_scan"}, "is_disabled": 0, "fusion_lat": 0.0, "name": "5393c034a395481f7ac5164359581761", "fusion_lon": 0.0}, {"is_reserved": 0, "type": "electric_scooter", "bike_id": "b2e735989da05ec2992011a08f2136b4", "lat": 38.8976915, "lon": -77.00899716666666, "rental_uris": {"android": "https://dc.lft.to/lastmile_qr_scan", "ios": "https://dc.lft.to/lastmile_qr_scan"}, "is_disabled": 0, "fusion_lat": 0.0, "name": "b2e735989da05ec2992011a08f2136b4", "fusion_lon": 0.0}, {"is_reserved": 0, "type": "electric_scooter", "bike_id": "1afb2928f94aed138c33f6273282b52e", "lat": 38.94981383333333, "lon": -77.02023866666667, "rental_uris": {"android": "https://dc.lft.to/lastmile_qr_scan", "ios": "https://dc.lft.to/lastmile_qr_scan"}, "is_disabled": 0, "fusion_lat": 0.0, "name": "1afb2928f94aed138c33f6273282b52e", "fusion_lon": 0.0}, {"is_reserved": 0, "type": "electric_scooter", "bike_id": "54437836d8b8e9272b7e084621b01f15", "lat": 38.89229683333333, "lon": -77.049049, "rental_uris": {"android": "https://dc.lft.to/lastmile_qr_scan", "ios": "https://dc.lft.to/lastmile_qr_scan"}, "is_disabled": 0, "fusion_lat": 0.0, "name": "54437836d8b8e9272b7e084621b01f15", "fusion_lon": 0.0}, {"is_reserved": 0, "type": "electric_scooter", "bike_id": "e4ebb54b5542a2a376fc94f282677a18", "lat": 38.92189233333333, "lon": -77.042516, "rental_uris": {"android": "https://dc.lft.to/lastmile_qr_scan", "ios": "https://dc.lft.to/lastmile_qr_scan"}, "is_disabled": 0, "fusion_lat": 0.0, "name": "e4ebb54b5542a2a376fc94f282677a18", "fusion_lon": 0.0}, {"is_reserved": 0, "type": "electric_scooter", "bike_id": "ea4f3c4d0ceb7b2d2edd47cf291b7582", "lat": 38.90781666666667, "lon": -77.000019, "rental_uris": {"android": "https://dc.lft.to/lastmile_qr_scan", "ios": "https://dc.lft.to/lastmile_qr_scan"}, "is_disabled": 0, "fusion_lat": 0.0, "name": "ea4f3c4d0ceb7b2d2edd47cf291b7582", "fusion_lon": 0.0}, {"is_reserved": 0, "type": "electric_scooter", "bike_id": "1bf7b804355f1c82e37ff3980cdf7e5a", "lat": 38.92737616666667, "lon": -77.0525695, "rental_uris": {"android": "https://dc.lft.to/lastmile_qr_scan", "ios": "https://dc.lft.to/lastmile_qr_scan"}, "is_disabled": 0, "fusion_lat": 0.0, "name": "1bf7b804355f1c82e37ff3980cdf7e5a", "fusion_lon": 0.0}, {"is_reserved": 0, "type": "electric_scooter", "bike_id": "4d63be0d637055f0fab5239c94e7af70", "lat": 38.920260166666665, "lon": -77.01880916666667, "rental_uris": {"android": "https://dc.lft.to/lastmile_qr_scan", "ios": "https://dc.lft.to/lastmile_qr_scan"}, "is_disabled": 0, "fusion_lat": 0.0, "name": "4d63be0d637055f0fab5239c94e7af70", "fusion_lon": 0.0}, {"is_reserved": 0, "type": "electric_scooter", "bike_id": "eb00c07f72df8d38ad2f085a540b3cdd", "lat": 38.930824, "lon": -77.02973216666666, "rental_uris": {"android": "https://dc.lft.to/lastmile_qr_scan", "ios": "https://dc.lft.to/lastmile_qr_scan"}, "is_disabled": 0, "fusion_lat": 0.0, "name": "eb00c07f72df8d38ad2f085a540b3cdd", "fusion_lon": 0.0}, {"is_reserved": 0, "type": "electric_scooter", "bike_id": "48436cb525b54c1e23c96fbf7d92bb45", "lat": 38.945172, "lon": -77.0297895, "rental_uris": {"android": "https://dc.lft.to/lastmile_qr_scan", "ios": "https://dc.lft.to/lastmile_qr_scan"}, "is_disabled": 0, "fusion_lat": 0.0, "name": "48436cb525b54c1e23c96fbf7d92bb45", "fusion_lon": 0.0}, {"is_reserved": 0, "type": "electric_scooter", "bike_id": "789ebcd555f420003e630cb5d6653798", "lat": 38.8964905, "lon": -77.03312183333334, "rental_uris": {"android": "https://dc.lft.to/lastmile_qr_scan", "ios": "https://dc.lft.to/lastmile_qr_scan"}, "is_disabled": 0, "fusion_lat": 0.0, "name": "789ebcd555f420003e630cb5d6653798", "fusion_lon": 0.0}, {"is_reserved": 0, "type": "electric_scooter", "bike_id": "920cf61270487a3d97db3381e4545b1f", "lat": 38.95957583333333, "lon": -77.07263483333334, "rental_uris": {"android": "https://dc.lft.to/lastmile_qr_scan", "ios": "https://dc.lft.to/lastmile_qr_scan"}, "is_disabled": 0, "fusion_lat": 0.0, "name": "920cf61270487a3d97db3381e4545b1f", "fusion_lon": 0.0}, {"is_reserved": 0, "type": "electric_scooter", "bike_id": "0e52a968bb9c61bb837d9fd6f6d22971", "lat": 38.889253, "lon": -76.993832, "rental_uris": {"android": "https://dc.lft.to/lastmile_qr_scan", "ios": "https://dc.lft.to/lastmile_qr_scan"}, "is_disabled": 0, "fusion_lat": 0.0, "name": "0e52a968bb9c61bb837d9fd6f6d22971", "fusion_lon": 0.0}, {"is_reserved": 0, "type": "electric_bike", "bike_id": "5af9fa6d98a8a9a27486647de1bcad86", "lat": 38.939635833333334, "lon": -77.0275505, "rental_uris": {"android": "https://dc.lft.to/lastmile_qr_scan", "ios": "https://dc.lft.to/lastmile_qr_scan"}, "is_disabled": 0, "fusion_lat": 0.0, "name": "5af9fa6d98a8a9a27486647de1bcad86", "fusion_lon": 0.0}, {"is_reserved": 0, "type": "electric_scooter", "bike_id": "499415eeb5c01c83130bb772db0f6b67", "lat": 38.90019266666667, "lon": -77.01187616666667, "rental_uris": {"android": "https://dc.lft.to/lastmile_qr_scan", "ios": "https://dc.lft.to/lastmile_qr_scan"}, "is_disabled": 0, "fusion_lat": 0.0, "name": "499415eeb5c01c83130bb772db0f6b67", "fusion_lon": 0.0}, {"is_reserved": 0, "type": "electric_scooter", "bike_id": "1a7498cb88212f3b7b9a4181e304afee", "lat": 38.882035, "lon": -77.00604183333333, "rental_uris": {"android": "https://dc.lft.to/lastmile_qr_scan", "ios": "https://dc.lft.to/lastmile_qr_scan"}, "is_disabled": 0, "fusion_lat": 0.0, "name": "1a7498cb88212f3b7b9a4181e304afee", "fusion_lon": 0.0}, {"is_reserved": 0, "type": "electric_scooter", "bike_id": "e9bc13f99f81b317a3dc19f73df54754", "lat": 38.922924333333334, "lon": -77.03194783333333, "rental_uris": {"android": "https://dc.lft.to/lastmile_qr_scan", "ios": "https://dc.lft.to/lastmile_qr_scan"}, "is_disabled": 0, "fusion_lat": 0.0, "name": "e9bc13f99f81b317a3dc19f73df54754", "fusion_lon": 0.0}, {"is_reserved": 0, "type": "electric_scooter", "bike_id": "6b681808966bd303e51a330a514cbed1", "lat": 38.921147833333336, "lon": -77.03926316666667, "rental_uris": {"android": "https://dc.lft.to/lastmile_qr_scan", "ios": "https://dc.lft.to/lastmile_qr_scan"}, "is_disabled": 0, "fusion_lat": 0.0, "name": "6b681808966bd303e51a330a514cbed1", "fusion_lon": 0.0}, {"is_reserved": 0, "type": "electric_scooter", "bike_id": "a1796097ded41341c2b0e8b462ab1db5", "lat": 38.94734116666667, "lon": -77.02460066666667, "rental_uris": {"android": "https://dc.lft.to/lastmile_qr_scan", "ios": "https://dc.lft.to/lastmile_qr_scan"}, "is_disabled": 0, "fusion_lat": 0.0, "name": "a1796097ded41341c2b0e8b462ab1db5", "fusion_lon": 0.0}, {"is_reserved": 0, "type": "electric_scooter", "bike_id": "b6459d601aadc3bb7f360163f6461840", "lat": 38.9337035, "lon": -77.05732783333333, "rental_uris": {"android": "https://dc.lft.to/lastmile_qr_scan", "ios": "https://dc.lft.to/lastmile_qr_scan"}, "is_disabled": 0, "fusion_lat": 0.0, "name": "b6459d601aadc3bb7f360163f6461840", "fusion_lon": 0.0}, {"is_reserved": 0, "type": "electric_scooter", "bike_id": "45b94d4fb87e905c5603b416232f5c16", "lat": 38.92242316666667, "lon": -77.02124033333334, "rental_uris": {"android": "https://dc.lft.to/lastmile_qr_scan", "ios": "https://dc.lft.to/lastmile_qr_scan"}, "is_disabled": 0, "fusion_lat": 0.0, "name": "45b94d4fb87e905c5603b416232f5c16", "fusion_lon": 0.0}, {"is_reserved": 0, "type": "electric_scooter", "bike_id": "d017aff8dedc195f1de65671089cbb5c", "lat": 38.911748, "lon": -77.00497416666667, "rental_uris": {"android": "https://dc.lft.to/lastmile_qr_scan", "ios": "https://dc.lft.to/lastmile_qr_scan"}, "is_disabled": 0, "fusion_lat": 0.0, "name": "d017aff8dedc195f1de65671089cbb5c", "fusion_lon": 0.0}, {"is_reserved": 0, "type": "electric_scooter", "bike_id": "3a9df3816ebb5853253979dae185569c", "lat": 38.923286, "lon": -77.0361985, "rental_uris": {"android": "https://dc.lft.to/lastmile_qr_scan", "ios": "https://dc.lft.to/lastmile_qr_scan"}, "is_disabled": 0, "fusion_lat": 0.0, "name": "3a9df3816ebb5853253979dae185569c", "fusion_lon": 0.0}, {"is_reserved": 0, "type": "electric_scooter", "bike_id": "40cbe2f3bba9ec78ee8c6910ac3d7599", "lat": 38.900039166666666, "lon": -77.02283616666666, "rental_uris": {"android": "https://dc.lft.to/lastmile_qr_scan", "ios": "https://dc.lft.to/lastmile_qr_scan"}, "is_disabled": 0, "fusion_lat": 0.0, "name": "40cbe2f3bba9ec78ee8c6910ac3d7599", "fusion_lon": 0.0}, {"is_reserved": 0, "type": "electric_scooter", "bike_id": "d075874d8af999ca362181fa59720f72", "lat": 38.92566033333333, "lon": -76.97005533333333, "rental_uris": {"android": "https://dc.lft.to/lastmile_qr_scan", "ios": "https://dc.lft.to/lastmile_qr_scan"}, "is_disabled": 0, "fusion_lat": 0.0, "name": "d075874d8af999ca362181fa59720f72", "fusion_lon": 0.0}, {"is_reserved": 0, "type": "electric_scooter", "bike_id": "20f1d14000b96c7f47530fcf91c46c52", "lat": 38.900388666666665, "lon": -76.99159583333334, "rental_uris": {"android": "https://dc.lft.to/lastmile_qr_scan", "ios": "https://dc.lft.to/lastmile_qr_scan"}, "is_disabled": 0, "fusion_lat": 0.0, "name": "20f1d14000b96c7f47530fcf91c46c52", "fusion_lon": 0.0}, {"is_reserved": 0, "type": "electric_scooter", "bike_id": "3187437b920e0875c9451bea6e28fa67", "lat": 38.89217166666667, "lon": -77.0231755, "rental_uris": {"android": "https://dc.lft.to/lastmile_qr_scan", "ios": "https://dc.lft.to/lastmile_qr_scan"}, "is_disabled": 0, "fusion_lat": 0.0, "name": "3187437b920e0875c9451bea6e28fa67", "fusion_lon": 0.0}, {"is_reserved": 0, "type": "electric_scooter", "bike_id": "fe7744c943da2b1fc21922340dd839ad", "lat": 38.93097516666667, "lon": -77.034451, "rental_uris": {"android": "https://dc.lft.to/lastmile_qr_scan", "ios": "https://dc.lft.to/lastmile_qr_scan"}, "is_disabled": 0, "fusion_lat": 0.0, "name": "fe7744c943da2b1fc21922340dd839ad", "fusion_lon": 0.0}, {"is_reserved": 0, "type": "electric_bike", "bike_id": "30a00ad16841fec93d4b3dbb50ed1c47", "lat": 38.9513175, "lon": -76.96595116666667, "rental_uris": {"android": "https://dc.lft.to/lastmile_qr_scan", "ios": "https://dc.lft.to/lastmile_qr_scan"}, "is_disabled": 0, "fusion_lat": 0.0, "name": "30a00ad16841fec93d4b3dbb50ed1c47", "fusion_lon": 0.0}, {"is_reserved": 0, "type": "electric_scooter", "bike_id": "02f4a584278550f6646a44ea2f25c69d", "lat": 38.89918633333333, "lon": -77.03202366666666, "rental_uris": {"android": "https://dc.lft.to/lastmile_qr_scan", "ios": "https://dc.lft.to/lastmile_qr_scan"}, "is_disabled": 0, "fusion_lat": 0.0, "name": "02f4a584278550f6646a44ea2f25c69d", "fusion_lon": 0.0}, {"is_reserved": 0, "type": "electric_scooter", "bike_id": "a1a00be45f995b33c8c8ea909a9cc4e2", "lat": 38.89361733333333, "lon": -76.94108066666666, "rental_uris": {"android": "https://dc.lft.to/lastmile_qr_scan", "ios": "https://dc.lft.to/lastmile_qr_scan"}, "is_disabled": 0, "fusion_lat": 0.0, "name": "a1a00be45f995b33c8c8ea909a9cc4e2", "fusion_lon": 0.0}, {"is_reserved": 0, "type": "electric_scooter", "bike_id": "435de740a992f1b37eb0b6e79974caf4", "lat": 38.9224465, "lon": -76.99753183333333, "rental_uris": {"android": "https://dc.lft.to/lastmile_qr_scan", "ios": "https://dc.lft.to/lastmile_qr_scan"}, "is_disabled": 0, "fusion_lat": 0.0, "name": "435de740a992f1b37eb0b6e79974caf4", "fusion_lon": 0.0}, {"is_reserved": 0, "type": "electric_scooter", "bike_id": "6ff7eccab52907efa90c2f9e0df92a2b", "lat": 38.929643166666665, "lon": -77.02340883333333, "rental_uris": {"android": "https://dc.lft.to/lastmile_qr_scan", "ios": "https://dc.lft.to/lastmile_qr_scan"}, "is_disabled": 0, "fusion_lat": 0.0, "name": "6ff7eccab52907efa90c2f9e0df92a2b", "fusion_lon": 0.0}, {"is_reserved": 0, "type": "electric_scooter", "bike_id": "4abbb49ab5d806e19355661bc5863e1e", "lat": 38.94692633333333, "lon": -77.022471, "rental_uris": {"android": "https://dc.lft.to/lastmile_qr_scan", "ios": "https://dc.lft.to/lastmile_qr_scan"}, "is_disabled": 0, "fusion_lat": 0.0, "name": "4abbb49ab5d806e19355661bc5863e1e", "fusion_lon": 0.0}, {"is_reserved": 0, "type": "electric_scooter", "bike_id": "be3e288437210c93581b1ccb754d2d93", "lat": 38.8986245, "lon": -76.977651, "rental_uris": {"android": "https://dc.lft.to/lastmile_qr_scan", "ios": "https://dc.lft.to/lastmile_qr_scan"}, "is_disabled": 0, "fusion_lat": 0.0, "name": "be3e288437210c93581b1ccb754d2d93", "fusion_lon": 0.0}, {"is_reserved": 0, "type": "electric_scooter", "bike_id": "4406ff67d92d403b7a239a2035d30961", "lat": 38.9340365, "lon": -77.04130083333334, "rental_uris": {"android": "https://dc.lft.to/lastmile_qr_scan", "ios": "https://dc.lft.to/lastmile_qr_scan"}, "is_disabled": 0, "fusion_lat": 0.0, "name": "4406ff67d92d403b7a239a2035d30961", "fusion_lon": 0.0}, {"is_reserved": 0, "type": "electric_scooter", "bike_id": "78606fb2350bde2daf041129d1128614", "lat": 38.90556483333334, "lon": -77.03505333333334, "rental_uris": {"android": "https://dc.lft.to/lastmile_qr_scan", "ios": "https://dc.lft.to/lastmile_qr_scan"}, "is_disabled": 0, "fusion_lat": 0.0, "name": "78606fb2350bde2daf041129d1128614", "fusion_lon": 0.0}, {"is_reserved": 0, "type": "electric_scooter", "bike_id": "a14c8478b503d7a2ce43e37c5005338e", "lat": 38.90403833333333, "lon": -76.98941816666667, "rental_uris": {"android": "https://dc.lft.to/lastmile_qr_scan", "ios": "https://dc.lft.to/lastmile_qr_scan"}, "is_disabled": 0, "fusion_lat": 0.0, "name": "a14c8478b503d7a2ce43e37c5005338e", "fusion_lon": 0.0}, {"is_reserved": 0, "type": "electric_scooter", "bike_id": "67ded35facd096b981c4f0e6da42b054", "lat": 38.90006283333334, "lon": -77.01885233333333, "rental_uris": {"android": "https://dc.lft.to/lastmile_qr_scan", "ios": "https://dc.lft.to/lastmile_qr_scan"}, "is_disabled": 0, "fusion_lat": 0.0, "name": "67ded35facd096b981c4f0e6da42b054", "fusion_lon": 0.0}, {"is_reserved": 0, "type": "electric_scooter", "bike_id": "e0b7b034dbb9302c641023646826462e", "lat": 38.88539216666667, "lon": -76.99827983333333, "rental_uris": {"android": "https://dc.lft.to/lastmile_qr_scan", "ios": "https://dc.lft.to/lastmile_qr_scan"}, "is_disabled": 0, "fusion_lat": 0.0, "name": "e0b7b034dbb9302c641023646826462e", "fusion_lon": 0.0}, {"is_reserved": 0, "type": "electric_bike", "bike_id": "22d47a7b25d7e283166dc2a9b64728c2", "lat": 38.94320183333333, "lon": -76.990139, "rental_uris": {"android": "https://dc.lft.to/lastmile_qr_scan", "ios": "https://dc.lft.to/lastmile_qr_scan"}, "is_disabled": 0, "fusion_lat": 0.0, "name": "22d47a7b25d7e283166dc2a9b64728c2", "fusion_lon": 0.0}, {"is_reserved": 0, "type": "electric_bike", "bike_id": "f22e26b0e547b6d33d0a8be7d4920ad3", "lat": 38.864590666666665, "lon": -76.97756766666667, "rental_uris": {"android": "https://dc.lft.to/lastmile_qr_scan", "ios": "https://dc.lft.to/lastmile_qr_scan"}, "is_disabled": 0, "fusion_lat": 0.0, "name": "f22e26b0e547b6d33d0a8be7d4920ad3", "fusion_lon": 0.0}, {"is_reserved": 0, "type": "electric_scooter", "bike_id": "69bfea75d96762dd6bf87dd27bf1520c", "lat": 38.91811333333333, "lon": -77.04031083333334, "rental_uris": {"android": "https://dc.lft.to/lastmile_qr_scan", "ios": "https://dc.lft.to/lastmile_qr_scan"}, "is_disabled": 0, "fusion_lat": 0.0, "name": "69bfea75d96762dd6bf87dd27bf1520c", "fusion_lon": 0.0}, {"is_reserved": 0, "type": "electric_scooter", "bike_id": "cf5bf16048d0636e777c0f45e7fe2d43", "lat": 38.88519566666667, "lon": -77.0174895, "rental_uris": {"android": "https://dc.lft.to/lastmile_qr_scan", "ios": "https://dc.lft.to/lastmile_qr_scan"}, "is_disabled": 0, "fusion_lat": 0.0, "name": "cf5bf16048d0636e777c0f45e7fe2d43", "fusion_lon": 0.0}, {"is_reserved": 0, "type": "electric_bike", "bike_id": "2c8cf1305568c3ab8c776ec13d153fae", "lat": 38.872108833333336, "lon": -77.11743216666666, "rental_uris": {"android": "https://dc.lft.to/lastmile_qr_scan", "ios": "https://dc.lft.to/lastmile_qr_scan"}, "is_disabled": 0, "fusion_lat": 0.0, "name": "2c8cf1305568c3ab8c776ec13d153fae", "fusion_lon": 0.0}, {"is_reserved": 0, "type": "electric_bike", "bike_id": "85c2429c23a4950611e698811be56fda", "lat": 38.85785, "lon": -76.987617, "rental_uris": {"android": "https://dc.lft.to/lastmile_qr_scan", "ios": "https://dc.lft.to/lastmile_qr_scan"}, "is_disabled": 0, "fusion_lat": 0.0, "name": "85c2429c23a4950611e698811be56fda", "fusion_lon": 0.0}, {"is_reserved": 0, "type": "electric_scooter", "bike_id": "07f45bebad3cd73fac38d83eb6dcb80e", "lat": 38.935661833333334, "lon": -77.0326405, "rental_uris": {"android": "https://dc.lft.to/lastmile_qr_scan", "ios": "https://dc.lft.to/lastmile_qr_scan"}, "is_disabled": 0, "fusion_lat": 0.0, "name": "07f45bebad3cd73fac38d83eb6dcb80e", "fusion_lon": 0.0}, {"is_reserved": 0, "type": "electric_scooter", "bike_id": "f5f3d9c49dd8caf0496b25552bebe38d", "lat": 38.9182425, "lon": -77.0417175, "rental_uris": {"android": "https://dc.lft.to/lastmile_qr_scan", "ios": "https://dc.lft.to/lastmile_qr_scan"}, "is_disabled": 0, "fusion_lat": 0.0, "name": "f5f3d9c49dd8caf0496b25552bebe38d", "fusion_lon": 0.0}, {"is_reserved": 0, "type": "electric_scooter", "bike_id": "2f4a34ee78bf40211ce67ba5d1c1ae00", "lat": 38.923672, "lon": -77.03664316666666, "rental_uris": {"android": "https://dc.lft.to/lastmile_qr_scan", "ios": "https://dc.lft.to/lastmile_qr_scan"}, "is_disabled": 0, "fusion_lat": 0.0, "name": "2f4a34ee78bf40211ce67ba5d1c1ae00", "fusion_lon": 0.0}, {"is_reserved": 0, "type": "electric_scooter", "bike_id": "7993217fc5cae49fdc905f79f9a5458e", "lat": 38.921530833333335, "lon": -77.03507733333333, "rental_uris": {"android": "https://dc.lft.to/lastmile_qr_scan", "ios": "https://dc.lft.to/lastmile_qr_scan"}, "is_disabled": 0, "fusion_lat": 0.0, "name": "7993217fc5cae49fdc905f79f9a5458e", "fusion_lon": 0.0}, {"is_reserved": 0, "type": "electric_bike", "bike_id": "0dddf397ed5768b3bcb10569380ae7cd", "lat": 38.840536666666665, "lon": -77.05601816666666, "rental_uris": {"android": "https://dc.lft.to/lastmile_qr_scan", "ios": "https://dc.lft.to/lastmile_qr_scan"}, "is_disabled": 0, "fusion_lat": 0.0, "name": "0dddf397ed5768b3bcb10569380ae7cd", "fusion_lon": 0.0}, {"is_reserved": 0, "type": "electric_scooter", "bike_id": "11be3bf6db6fda95637ce6c6981b1191", "lat": 38.89918816666667, "lon": -77.03198283333333, "rental_uris": {"android": "https://dc.lft.to/lastmile_qr_scan", "ios": "https://dc.lft.to/lastmile_qr_scan"}, "is_disabled": 0, "fusion_lat": 0.0, "name": "11be3bf6db6fda95637ce6c6981b1191", "fusion_lon": 0.0}, {"is_reserved": 0, "type": "electric_scooter", "bike_id": "06bf5d9ad9039841f2dd6ed3da789ff8", "lat": 38.9258445, "lon": -77.0122505, "rental_uris": {"android": "https://dc.lft.to/lastmile_qr_scan", "ios": "https://dc.lft.to/lastmile_qr_scan"}, "is_disabled": 0, "fusion_lat": 0.0, "name": "06bf5d9ad9039841f2dd6ed3da789ff8", "fusion_lon": 0.0}, {"is_reserved": 0, "type": "electric_scooter", "bike_id": "f91d47150e0d5e518cea41f07a76f721", "lat": 38.8990015, "lon": -77.0332635, "rental_uris": {"android": "https://dc.lft.to/lastmile_qr_scan", "ios": "https://dc.lft.to/lastmile_qr_scan"}, "is_disabled": 0, "fusion_lat": 0.0, "name": "f91d47150e0d5e518cea41f07a76f721", "fusion_lon": 0.0}, {"is_reserved": 0, "type": "electric_scooter", "bike_id": "8487aff27485a2063425342b37ce4140", "lat": 38.90727316666667, "lon": -77.04509433333334, "rental_uris": {"android": "https://dc.lft.to/lastmile_qr_scan", "ios": "https://dc.lft.to/lastmile_qr_scan"}, "is_disabled": 0, "fusion_lat": 0.0, "name": "8487aff27485a2063425342b37ce4140", "fusion_lon": 0.0}, {"is_reserved": 0, "type": "electric_scooter", "bike_id": "c9b256029da5a288bde1e13b207fd5a0", "lat": 38.89879033333333, "lon": -77.01979133333333, "rental_uris": {"android": "https://dc.lft.to/lastmile_qr_scan", "ios": "https://dc.lft.to/lastmile_qr_scan"}, "is_disabled": 0, "fusion_lat": 0.0, "name": "c9b256029da5a288bde1e13b207fd5a0", "fusion_lon": 0.0}, {"is_reserved": 0, "type": "electric_scooter", "bike_id": "e8ff699e4e456f5170a0b900126cfffa", "lat": 38.907241, "lon": -77.047573, "rental_uris": {"android": "https://dc.lft.to/lastmile_qr_scan", "ios": "https://dc.lft.to/lastmile_qr_scan"}, "is_disabled": 0, "fusion_lat": 0.0, "name": "e8ff699e4e456f5170a0b900126cfffa", "fusion_lon": 0.0}, {"is_reserved": 0, "type": "electric_scooter", "bike_id": "307b912a055d875a2601dc1c0da921e0", "lat": 38.88995083333333, "lon": -77.00162483333334, "rental_uris": {"android": "https://dc.lft.to/lastmile_qr_scan", "ios": "https://dc.lft.to/lastmile_qr_scan"}, "is_disabled": 0, "fusion_lat": 0.0, "name": "307b912a055d875a2601dc1c0da921e0", "fusion_lon": 0.0}, {"is_reserved": 0, "type": "electric_scooter", "bike_id": "f7d7fd84f543c76ff89777327a0cbecd", "lat": 38.92912283333333, "lon": -77.02187816666667, "rental_uris": {"android": "https://dc.lft.to/lastmile_qr_scan", "ios": "https://dc.lft.to/lastmile_qr_scan"}, "is_disabled": 0, "fusion_lat": 0.0, "name": "f7d7fd84f543c76ff89777327a0cbecd", "fusion_lon": 0.0}, {"is_reserved": 0, "type": "electric_scooter", "bike_id": "5a15b778991aa8ef0fb83e8356d03a33", "lat": 38.92445583333333, "lon": -77.04035033333334, "rental_uris": {"android": "https://dc.lft.to/lastmile_qr_scan", "ios": "https://dc.lft.to/lastmile_qr_scan"}, "is_disabled": 0, "fusion_lat": 0.0, "name": "5a15b778991aa8ef0fb83e8356d03a33", "fusion_lon": 0.0}, {"is_reserved": 0, "type": "electric_bike", "bike_id": "b5fa4350f1a9067fc57c45a0074da8c1", "lat": 38.9122725, "lon": -77.06601166666667, "rental_uris": {"android": "https://dc.lft.to/lastmile_qr_scan", "ios": "https://dc.lft.to/lastmile_qr_scan"}, "is_disabled": 0, "fusion_lat": 0.0, "name": "b5fa4350f1a9067fc57c45a0074da8c1", "fusion_lon": 0.0}, {"is_reserved": 0, "type": "electric_scooter", "bike_id": "42b144d2857f0a7bbc91aa31db66d05f", "lat": 38.91454783333333, "lon": -77.002117, "rental_uris": {"android": "https://dc.lft.to/lastmile_qr_scan", "ios": "https://dc.lft.to/lastmile_qr_scan"}, "is_disabled": 0, "fusion_lat": 0.0, "name": "42b144d2857f0a7bbc91aa31db66d05f", "fusion_lon": 0.0}, {"is_reserved": 0, "type": "electric_scooter", "bike_id": "3ef4581e69c35ffbdf7a6de76f37c693", "lat": 38.91906083333333, "lon": -77.03588366666666, "rental_uris": {"android": "https://dc.lft.to/lastmile_qr_scan", "ios": "https://dc.lft.to/lastmile_qr_scan"}, "is_disabled": 0, "fusion_lat": 0.0, "name": "3ef4581e69c35ffbdf7a6de76f37c693", "fusion_lon": 0.0}, {"is_reserved": 0, "type": "electric_scooter", "bike_id": "a75a2b1d674dc994e37a40898a1c1bf8", "lat": 38.88216083333333, "lon": -77.00614466666667, "rental_uris": {"android": "https://dc.lft.to/lastmile_qr_scan", "ios": "https://dc.lft.to/lastmile_qr_scan"}, "is_disabled": 0, "fusion_lat": 0.0, "name": "a75a2b1d674dc994e37a40898a1c1bf8", "fusion_lon": 0.0}, {"is_reserved": 0, "type": "electric_bike", "bike_id": "eba42d11bb57d7960f28f3c25c7baa5d", "lat": 38.895679666666666, "lon": -77.1273965, "rental_uris": {"android": "https://dc.lft.to/lastmile_qr_scan", "ios": "https://dc.lft.to/lastmile_qr_scan"}, "is_disabled": 0, "fusion_lat": 0.0, "name": "eba42d11bb57d7960f28f3c25c7baa5d", "fusion_lon": 0.0}, {"is_reserved": 0, "type": "electric_scooter", "bike_id": "b4b1ebca7dd8a939d950f57844de2406", "lat": 38.900540166666666, "lon": -76.98659183333334, "rental_uris": {"android": "https://dc.lft.to/lastmile_qr_scan", "ios": "https://dc.lft.to/lastmile_qr_scan"}, "is_disabled": 0, "fusion_lat": 0.0, "name": "b4b1ebca7dd8a939d950f57844de2406", "fusion_lon": 0.0}, {"is_reserved": 0, "type": "electric_scooter", "bike_id": "32a6976fa154758a57dd917e3d1cc1ac", "lat": 38.9376695, "lon": -77.03156683333333, "rental_uris": {"android": "https://dc.lft.to/lastmile_qr_scan", "ios": "https://dc.lft.to/lastmile_qr_scan"}, "is_disabled": 0, "fusion_lat": 0.0, "name": "32a6976fa154758a57dd917e3d1cc1ac", "fusion_lon": 0.0}, {"is_reserved": 0, "type": "electric_scooter", "bike_id": "7341b4da0d1fd8e40f396713a14ec291", "lat": 38.892387166666666, "lon": -77.04488566666667, "rental_uris": {"android": "https://dc.lft.to/lastmile_qr_scan", "ios": "https://dc.lft.to/lastmile_qr_scan"}, "is_disabled": 0, "fusion_lat": 0.0, "name": "7341b4da0d1fd8e40f396713a14ec291", "fusion_lon": 0.0}, {"is_reserved": 0, "type": "electric_scooter", "bike_id": "8f8fc07317cf97713296898f20902d89", "lat": 38.896370833333336, "lon": -77.02617616666667, "rental_uris": {"android": "https://dc.lft.to/lastmile_qr_scan", "ios": "https://dc.lft.to/lastmile_qr_scan"}, "is_disabled": 0, "fusion_lat": 0.0, "name": "8f8fc07317cf97713296898f20902d89", "fusion_lon": 0.0}, {"is_reserved": 0, "type": "electric_scooter", "bike_id": "ebb754cb85d6da0df5b07b8e9a36a219", "lat": 38.92104066666667, "lon": -77.0178605, "rental_uris": {"android": "https://dc.lft.to/lastmile_qr_scan", "ios": "https://dc.lft.to/lastmile_qr_scan"}, "is_disabled": 0, "fusion_lat": 0.0, "name": "ebb754cb85d6da0df5b07b8e9a36a219", "fusion_lon": 0.0}, {"is_reserved": 0, "type": "electric_scooter", "bike_id": "9a59312e4d47015a925a1894dd1edb2f", "lat": 38.94033116666667, "lon": -77.026418, "rental_uris": {"android": "https://dc.lft.to/lastmile_qr_scan", "ios": "https://dc.lft.to/lastmile_qr_scan"}, "is_disabled": 0, "fusion_lat": 0.0, "name": "9a59312e4d47015a925a1894dd1edb2f", "fusion_lon": 0.0}, {"is_reserved": 0, "type": "electric_scooter", "bike_id": "3ec56735ab1716e398b062db5c16cab6", "lat": 38.90343216666667, "lon": -77.011222, "rental_uris": {"android": "https://dc.lft.to/lastmile_qr_scan", "ios": "https://dc.lft.to/lastmile_qr_scan"}, "is_disabled": 0, "fusion_lat": 0.0, "name": "3ec56735ab1716e398b062db5c16cab6", "fusion_lon": 0.0}, {"is_reserved": 0, "type": "electric_scooter", "bike_id": "dca7b2b18dbf39022629987b220a72f3", "lat": 38.90722433333333, "lon": -77.045539, "rental_uris": {"android": "https://dc.lft.to/lastmile_qr_scan", "ios": "https://dc.lft.to/lastmile_qr_scan"}, "is_disabled": 0, "fusion_lat": 0.0, "name": "dca7b2b18dbf39022629987b220a72f3", "fusion_lon": 0.0}, {"is_reserved": 0, "type": "electric_scooter", "bike_id": "9d6fdab9017b96927e287ca366991936", "lat": 38.88771666666667, "lon": -76.932641, "rental_uris": {"android": "https://dc.lft.to/lastmile_qr_scan", "ios": "https://dc.lft.to/lastmile_qr_scan"}, "is_disabled": 0, "fusion_lat": 0.0, "name": "9d6fdab9017b96927e287ca366991936", "fusion_lon": 0.0}, {"is_reserved": 0, "type": "electric_bike", "bike_id": "251071060e5a3fb16e507a6e37827f25", "lat": 38.867603, "lon": -76.9453465, "rental_uris": {"android": "https://dc.lft.to/lastmile_qr_scan", "ios": "https://dc.lft.to/lastmile_qr_scan"}, "is_disabled": 0, "fusion_lat": 0.0, "name": "251071060e5a3fb16e507a6e37827f25", "fusion_lon": 0.0}, {"is_reserved": 0, "type": "electric_scooter", "bike_id": "2964065d32a439b04e44b947cb5cd397", "lat": 38.919101833333336, "lon": -77.00995066666667, "rental_uris": {"android": "https://dc.lft.to/lastmile_qr_scan", "ios": "https://dc.lft.to/lastmile_qr_scan"}, "is_disabled": 0, "fusion_lat": 0.0, "name": "2964065d32a439b04e44b947cb5cd397", "fusion_lon": 0.0}, {"is_reserved": 0, "type": "electric_scooter", "bike_id": "c7ab4aaa6b2a378647c842da18bd710e", "lat": 38.9056505, "lon": -77.0185095, "rental_uris": {"android": "https://dc.lft.to/lastmile_qr_scan", "ios": "https://dc.lft.to/lastmile_qr_scan"}, "is_disabled": 0, "fusion_lat": 0.0, "name": "c7ab4aaa6b2a378647c842da18bd710e", "fusion_lon": 0.0}, {"is_reserved": 0, "type": "electric_scooter", "bike_id": "e34836ec5c0359938e479daef69cbd8a", "lat": 38.9126255, "lon": -77.0184095, "rental_uris": {"android": "https://dc.lft.to/lastmile_qr_scan", "ios": "https://dc.lft.to/lastmile_qr_scan"}, "is_disabled": 0, "fusion_lat": 0.0, "name": "e34836ec5c0359938e479daef69cbd8a", "fusion_lon": 0.0}, {"is_reserved": 0, "type": "electric_bike", "bike_id": "3578538cf555e997b59dd20d0f991b4c", "lat": 38.8922115, "lon": -77.069754, "rental_uris": {"android": "https://dc.lft.to/lastmile_qr_scan", "ios": "https://dc.lft.to/lastmile_qr_scan"}, "is_disabled": 0, "fusion_lat": 0.0, "name": "3578538cf555e997b59dd20d0f991b4c", "fusion_lon": 0.0}, {"is_reserved": 0, "type": "electric_scooter", "bike_id": "a6dda1861eb80f6f018f63ba9c58bf93", "lat": 38.892192666666666, "lon": -77.02423266666666, "rental_uris": {"android": "https://dc.lft.to/lastmile_qr_scan", "ios": "https://dc.lft.to/lastmile_qr_scan"}, "is_disabled": 0, "fusion_lat": 0.0, "name": "a6dda1861eb80f6f018f63ba9c58bf93", "fusion_lon": 0.0}, {"is_reserved": 0, "type": "electric_scooter", "bike_id": "d9dc5f8709e0cacb1577a536fb9e4bb7", "lat": 38.88122833333333, "lon": -77.0197625, "rental_uris": {"android": "https://dc.lft.to/lastmile_qr_scan", "ios": "https://dc.lft.to/lastmile_qr_scan"}, "is_disabled": 0, "fusion_lat": 0.0, "name": "d9dc5f8709e0cacb1577a536fb9e4bb7", "fusion_lon": 0.0}, {"is_reserved": 0, "type": "electric_scooter", "bike_id": "27a68a058ec90b6199e1940578a37281", "lat": 38.9096225, "lon": -77.03250016666667, "rental_uris": {"android": "https://dc.lft.to/lastmile_qr_scan", "ios": "https://dc.lft.to/lastmile_qr_scan"}, "is_disabled": 0, "fusion_lat": 0.0, "name": "27a68a058ec90b6199e1940578a37281", "fusion_lon": 0.0}, {"is_reserved": 0, "type": "electric_scooter", "bike_id": "71cbbe3f7ea5b6b1cf01b3e7ed661271", "lat": 38.920235, "lon": -77.02051933333334, "rental_uris": {"android": "https://dc.lft.to/lastmile_qr_scan", "ios": "https://dc.lft.to/lastmile_qr_scan"}, "is_disabled": 0, "fusion_lat": 0.0, "name": "71cbbe3f7ea5b6b1cf01b3e7ed661271", "fusion_lon": 0.0}, {"is_reserved": 0, "type": "electric_scooter", "bike_id": "d1beb719e99be4cd35290dd695db0ac7", "lat": 38.897288, "lon": -76.995153, "rental_uris": {"android": "https://dc.lft.to/lastmile_qr_scan", "ios": "https://dc.lft.to/lastmile_qr_scan"}, "is_disabled": 0, "fusion_lat": 0.0, "name": "d1beb719e99be4cd35290dd695db0ac7", "fusion_lon": 0.0}, {"is_reserved": 0, "type": "electric_scooter", "bike_id": "d8a7fc23eb343c82fcdd9e30539ca3d2", "lat": 38.9073275, "lon": -77.0070665, "rental_uris": {"android": "https://dc.lft.to/lastmile_qr_scan", "ios": "https://dc.lft.to/lastmile_qr_scan"}, "is_disabled": 0, "fusion_lat": 0.0, "name": "d8a7fc23eb343c82fcdd9e30539ca3d2", "fusion_lon": 0.0}, {"is_reserved": 0, "type": "electric_bike", "bike_id": "8a08c80948eeb928d7bab19217736bf7", "lat": 38.82429616666667, "lon": -77.12035866666666, "rental_uris": {"android": "https://dc.lft.to/lastmile_qr_scan", "ios": "https://dc.lft.to/lastmile_qr_scan"}, "is_disabled": 0, "fusion_lat": 0.0, "name": "8a08c80948eeb928d7bab19217736bf7", "fusion_lon": 0.0}, {"is_reserved": 0, "type": "electric_scooter", "bike_id": "0daae20679f48351a653b7a17cc4d8f8", "lat": 38.89224216666667, "lon": -77.0468365, "rental_uris": {"android": "https://dc.lft.to/lastmile_qr_scan", "ios": "https://dc.lft.to/lastmile_qr_scan"}, "is_disabled": 0, "fusion_lat": 0.0, "name": "0daae20679f48351a653b7a17cc4d8f8", "fusion_lon": 0.0}, {"is_reserved": 0, "type": "electric_scooter", "bike_id": "3b26e57f2010651ee19cb5eaf926e207", "lat": 38.934492666666664, "lon": -77.03497783333333, "rental_uris": {"android": "https://dc.lft.to/lastmile_qr_scan", "ios": "https://dc.lft.to/lastmile_qr_scan"}, "is_disabled": 0, "fusion_lat": 0.0, "name": "3b26e57f2010651ee19cb5eaf926e207", "fusion_lon": 0.0}, {"is_reserved": 0, "type": "electric_bike", "bike_id": "f0225e7d12ab90a00fe436f374b293a8", "lat": 38.845056166666666, "lon": -76.9935535, "rental_uris": {"android": "https://dc.lft.to/lastmile_qr_scan", "ios": "https://dc.lft.to/lastmile_qr_scan"}, "is_disabled": 0, "fusion_lat": 0.0, "name": "f0225e7d12ab90a00fe436f374b293a8", "fusion_lon": 0.0}, {"is_reserved": 0, "type": "electric_scooter", "bike_id": "b4d225a72d499f356614d1e2d18e06e9", "lat": 38.92334, "lon": -77.03624616666667, "rental_uris": {"android": "https://dc.lft.to/lastmile_qr_scan", "ios": "https://dc.lft.to/lastmile_qr_scan"}, "is_disabled": 0, "fusion_lat": 0.0, "name": "b4d225a72d499f356614d1e2d18e06e9", "fusion_lon": 0.0}, {"is_reserved": 0, "type": "electric_bike", "bike_id": "28e29b8c835858a2a4ce7a3bf436d7ce", "lat": 38.9495175, "lon": -77.01609016666667, "rental_uris": {"android": "https://dc.lft.to/lastmile_qr_scan", "ios": "https://dc.lft.to/lastmile_qr_scan"}, "is_disabled": 0, "fusion_lat": 0.0, "name": "28e29b8c835858a2a4ce7a3bf436d7ce", "fusion_lon": 0.0}, {"is_reserved": 0, "type": "electric_scooter", "bike_id": "48c60fa4276d681f1d26d6785d3df430", "lat": 38.879960833333335, "lon": -77.005301, "rental_uris": {"android": "https://dc.lft.to/lastmile_qr_scan", "ios": "https://dc.lft.to/lastmile_qr_scan"}, "is_disabled": 0, "fusion_lat": 0.0, "name": "48c60fa4276d681f1d26d6785d3df430", "fusion_lon": 0.0}, {"is_reserved": 0, "type": "electric_scooter", "bike_id": "cbd94654480b1fbb4f73388079efe0a4", "lat": 38.92485516666667, "lon": -77.03196166666666, "rental_uris": {"android": "https://dc.lft.to/lastmile_qr_scan", "ios": "https://dc.lft.to/lastmile_qr_scan"}, "is_disabled": 0, "fusion_lat": 0.0, "name": "cbd94654480b1fbb4f73388079efe0a4", "fusion_lon": 0.0}, {"is_reserved": 0, "type": "electric_scooter", "bike_id": "d4525849bf0807f65d18cfa2d5a0fd21", "lat": 38.899655, "lon": -76.99035883333333, "rental_uris": {"android": "https://dc.lft.to/lastmile_qr_scan", "ios": "https://dc.lft.to/lastmile_qr_scan"}, "is_disabled": 0, "fusion_lat": 0.0, "name": "d4525849bf0807f65d18cfa2d5a0fd21", "fusion_lon": 0.0}, {"is_reserved": 0, "type": "electric_scooter", "bike_id": "14c7bd9fcd2ef9fd42b6adb2ab1a84c8", "lat": 38.926921, "lon": -77.02577483333333, "rental_uris": {"android": "https://dc.lft.to/lastmile_qr_scan", "ios": "https://dc.lft.to/lastmile_qr_scan"}, "is_disabled": 0, "fusion_lat": 0.0, "name": "14c7bd9fcd2ef9fd42b6adb2ab1a84c8", "fusion_lon": 0.0}, {"is_reserved": 0, "type": "electric_scooter", "bike_id": "87565c3932889ac6b8f236db11981bdc", "lat": 38.91706033333333, "lon": -77.03856883333333, "rental_uris": {"android": "https://dc.lft.to/lastmile_qr_scan", "ios": "https://dc.lft.to/lastmile_qr_scan"}, "is_disabled": 0, "fusion_lat": 0.0, "name": "87565c3932889ac6b8f236db11981bdc", "fusion_lon": 0.0}, {"is_reserved": 0, "type": "electric_bike", "bike_id": "3ba14df1cf708180953e25d2671a8043", "lat": 38.845373, "lon": -77.07648033333334, "rental_uris": {"android": "https://dc.lft.to/lastmile_qr_scan", "ios": "https://dc.lft.to/lastmile_qr_scan"}, "is_disabled": 0, "fusion_lat": 0.0, "name": "3ba14df1cf708180953e25d2671a8043", "fusion_lon": 0.0}, {"is_reserved": 0, "type": "electric_scooter", "bike_id": "49e608e28536dc6515b38e1bb8465f54", "lat": 38.901364666666666, "lon": -77.03188883333333, "rental_uris": {"android": "https://dc.lft.to/lastmile_qr_scan", "ios": "https://dc.lft.to/lastmile_qr_scan"}, "is_disabled": 0, "fusion_lat": 0.0, "name": "49e608e28536dc6515b38e1bb8465f54", "fusion_lon": 0.0}, {"is_reserved": 0, "type": "electric_scooter", "bike_id": "973a6ad17d1f82f9d77d80236cf8c197", "lat": 38.92484566666667, "lon": -77.022755, "rental_uris": {"android": "https://dc.lft.to/lastmile_qr_scan", "ios": "https://dc.lft.to/lastmile_qr_scan"}, "is_disabled": 0, "fusion_lat": 0.0, "name": "973a6ad17d1f82f9d77d80236cf8c197", "fusion_lon": 0.0}, {"is_reserved": 0, "type": "electric_scooter", "bike_id": "e3cce6e9a191aa6f127f32f6c7add342", "lat": 38.924145333333335, "lon": -77.03543, "rental_uris": {"android": "https://dc.lft.to/lastmile_qr_scan", "ios": "https://dc.lft.to/lastmile_qr_scan"}, "is_disabled": 0, "fusion_lat": 0.0, "name": "e3cce6e9a191aa6f127f32f6c7add342", "fusion_lon": 0.0}, {"is_reserved": 0, "type": "electric_scooter", "bike_id": "8c19e70e05bb577e0b17c9804393641d", "lat": 38.9015235, "lon": -77.05108516666667, "rental_uris": {"android": "https://dc.lft.to/lastmile_qr_scan", "ios": "https://dc.lft.to/lastmile_qr_scan"}, "is_disabled": 0, "fusion_lat": 0.0, "name": "8c19e70e05bb577e0b17c9804393641d", "fusion_lon": 0.0}, {"is_reserved": 0, "type": "electric_scooter", "bike_id": "14fe0b28f6aeb936cb6226483a4d8fdf", "lat": 38.921796666666665, "lon": -77.01038316666667, "rental_uris": {"android": "https://dc.lft.to/lastmile_qr_scan", "ios": "https://dc.lft.to/lastmile_qr_scan"}, "is_disabled": 0, "fusion_lat": 0.0, "name": "14fe0b28f6aeb936cb6226483a4d8fdf", "fusion_lon": 0.0}, {"is_reserved": 0, "type": "electric_scooter", "bike_id": "d31a4d1780f079bb38e6025dc99695fb", "lat": 38.917841333333335, "lon": -77.029688, "rental_uris": {"android": "https://dc.lft.to/lastmile_qr_scan", "ios": "https://dc.lft.to/lastmile_qr_scan"}, "is_disabled": 0, "fusion_lat": 0.0, "name": "d31a4d1780f079bb38e6025dc99695fb", "fusion_lon": 0.0}, {"is_reserved": 0, "type": "electric_scooter", "bike_id": "3fdeb98fc30d3675e45134b23a7416f0", "lat": 38.905617166666666, "lon": -77.04156483333334, "rental_uris": {"android": "https://dc.lft.to/lastmile_qr_scan", "ios": "https://dc.lft.to/lastmile_qr_scan"}, "is_disabled": 0, "fusion_lat": 0.0, "name": "3fdeb98fc30d3675e45134b23a7416f0", "fusion_lon": 0.0}, {"is_reserved": 0, "type": "electric_scooter", "bike_id": "f5debb659a0f27eaeb845143c9f4fee8", "lat": 38.967912, "lon": -77.02431283333334, "rental_uris": {"android": "https://dc.lft.to/lastmile_qr_scan", "ios": "https://dc.lft.to/lastmile_qr_scan"}, "is_disabled": 0, "fusion_lat": 0.0, "name": "f5debb659a0f27eaeb845143c9f4fee8", "fusion_lon": 0.0}, {"is_reserved": 0, "type": "electric_scooter", "bike_id": "02c6ffac67c1d75c441e65f891dd2162", "lat": 38.927686, "lon": -77.0278805, "rental_uris": {"android": "https://dc.lft.to/lastmile_qr_scan", "ios": "https://dc.lft.to/lastmile_qr_scan"}, "is_disabled": 0, "fusion_lat": 0.0, "name": "02c6ffac67c1d75c441e65f891dd2162", "fusion_lon": 0.0}, {"is_reserved": 0, "type": "electric_scooter", "bike_id": "000bfaec181afad57627baa555f28c30", "lat": 38.92320083333333, "lon": -77.02903616666667, "rental_uris": {"android": "https://dc.lft.to/lastmile_qr_scan", "ios": "https://dc.lft.to/lastmile_qr_scan"}, "is_disabled": 0, "fusion_lat": 0.0, "name": "000bfaec181afad57627baa555f28c30", "fusion_lon": 0.0}, {"is_reserved": 0, "type": "electric_scooter", "bike_id": "34ee399b9063cd5303649d1805f8bea9", "lat": 38.9340335, "lon": -77.0327, "rental_uris": {"android": "https://dc.lft.to/lastmile_qr_scan", "ios": "https://dc.lft.to/lastmile_qr_scan"}, "is_disabled": 0, "fusion_lat": 0.0, "name": "34ee399b9063cd5303649d1805f8bea9", "fusion_lon": 0.0}, {"is_reserved": 0, "type": "electric_scooter", "bike_id": "08ed36eab70faeb9aa5dc9e7b006203f", "lat": 38.91099783333333, "lon": -77.05068733333333, "rental_uris": {"android": "https://dc.lft.to/lastmile_qr_scan", "ios": "https://dc.lft.to/lastmile_qr_scan"}, "is_disabled": 0, "fusion_lat": 0.0, "name": "08ed36eab70faeb9aa5dc9e7b006203f", "fusion_lon": 0.0}, {"is_reserved": 0, "type": "electric_bike", "bike_id": "fd3869e2ea5ecfaced297d842a981098", "lat": 38.883444833333336, "lon": -76.93626183333333, "rental_uris": {"android": "https://dc.lft.to/lastmile_qr_scan", "ios": "https://dc.lft.to/lastmile_qr_scan"}, "is_disabled": 0, "fusion_lat": 0.0, "name": "fd3869e2ea5ecfaced297d842a981098", "fusion_lon": 0.0}, {"is_reserved": 0, "type": "electric_scooter", "bike_id": "6bf9e844aaf9c0ae68a624cc31b181be", "lat": 38.9191675, "lon": -77.0342825, "rental_uris": {"android": "https://dc.lft.to/lastmile_qr_scan", "ios": "https://dc.lft.to/lastmile_qr_scan"}, "is_disabled": 0, "fusion_lat": 0.0, "name": "6bf9e844aaf9c0ae68a624cc31b181be", "fusion_lon": 0.0}, {"is_reserved": 0, "type": "electric_scooter", "bike_id": "e6d682951f748e3c495bb527cf30f6c6", "lat": 38.9238265, "lon": -77.02956583333334, "rental_uris": {"android": "https://dc.lft.to/lastmile_qr_scan", "ios": "https://dc.lft.to/lastmile_qr_scan"}, "is_disabled": 0, "fusion_lat": 0.0, "name": "e6d682951f748e3c495bb527cf30f6c6", "fusion_lon": 0.0}, {"is_reserved": 0, "type": "electric_scooter", "bike_id": "7b30d58c249756456c8273a8ec1c364f", "lat": 38.93454716666667, "lon": -77.0295105, "rental_uris": {"android": "https://dc.lft.to/lastmile_qr_scan", "ios": "https://dc.lft.to/lastmile_qr_scan"}, "is_disabled": 0, "fusion_lat": 0.0, "name": "7b30d58c249756456c8273a8ec1c364f", "fusion_lon": 0.0}, {"is_reserved": 0, "type": "electric_scooter", "bike_id": "011bf9669507dcb90fdb276286afb806", "lat": 38.92310833333333, "lon": -77.03028283333333, "rental_uris": {"android": "https://dc.lft.to/lastmile_qr_scan", "ios": "https://dc.lft.to/lastmile_qr_scan"}, "is_disabled": 0, "fusion_lat": 0.0, "name": "011bf9669507dcb90fdb276286afb806", "fusion_lon": 0.0}, {"is_reserved": 0, "type": "electric_scooter", "bike_id": "15c73bdaa4e36659244ea6e3b8960994", "lat": 38.9372135, "lon": -77.03638016666666, "rental_uris": {"android": "https://dc.lft.to/lastmile_qr_scan", "ios": "https://dc.lft.to/lastmile_qr_scan"}, "is_disabled": 0, "fusion_lat": 0.0, "name": "15c73bdaa4e36659244ea6e3b8960994", "fusion_lon": 0.0}, {"is_reserved": 0, "type": "electric_scooter", "bike_id": "4d11589dbb530a333c41e03e998b18ad", "lat": 38.907113, "lon": -77.032035, "rental_uris": {"android": "https://dc.lft.to/lastmile_qr_scan", "ios": "https://dc.lft.to/lastmile_qr_scan"}, "is_disabled": 0, "fusion_lat": 0.0, "name": "4d11589dbb530a333c41e03e998b18ad", "fusion_lon": 0.0}, {"is_reserved": 0, "type": "electric_scooter", "bike_id": "83961cc57600ff92cd7218072df034c5", "lat": 38.89245866666667, "lon": -77.03345233333333, "rental_uris": {"android": "https://dc.lft.to/lastmile_qr_scan", "ios": "https://dc.lft.to/lastmile_qr_scan"}, "is_disabled": 0, "fusion_lat": 0.0, "name": "83961cc57600ff92cd7218072df034c5", "fusion_lon": 0.0}, {"is_reserved": 0, "type": "electric_scooter", "bike_id": "efd8ee0e87bd108adb639c1e3b270af2", "lat": 38.90080316666667, "lon": -77.04964183333334, "rental_uris": {"android": "https://dc.lft.to/lastmile_qr_scan", "ios": "https://dc.lft.to/lastmile_qr_scan"}, "is_disabled": 0, "fusion_lat": 0.0, "name": "efd8ee0e87bd108adb639c1e3b270af2", "fusion_lon": 0.0}, {"is_reserved": 0, "type": "electric_scooter", "bike_id": "3c7afcd0f1cb9420ae93cc2dc7651ecc", "lat": 38.899856166666666, "lon": -77.02720266666667, "rental_uris": {"android": "https://dc.lft.to/lastmile_qr_scan", "ios": "https://dc.lft.to/lastmile_qr_scan"}, "is_disabled": 0, "fusion_lat": 0.0, "name": "3c7afcd0f1cb9420ae93cc2dc7651ecc", "fusion_lon": 0.0}, {"is_reserved": 0, "type": "electric_scooter", "bike_id": "afc57876adb7850f219d853f54ba3bbe", "lat": 38.92059616666667, "lon": -77.02439233333334, "rental_uris": {"android": "https://dc.lft.to/lastmile_qr_scan", "ios": "https://dc.lft.to/lastmile_qr_scan"}, "is_disabled": 0, "fusion_lat": 0.0, "name": "afc57876adb7850f219d853f54ba3bbe", "fusion_lon": 0.0}, {"is_reserved": 0, "type": "electric_scooter", "bike_id": "21ac21171c3c336c5733f6d02e13073a", "lat": 38.93064116666667, "lon": -77.03819566666667, "rental_uris": {"android": "https://dc.lft.to/lastmile_qr_scan", "ios": "https://dc.lft.to/lastmile_qr_scan"}, "is_disabled": 0, "fusion_lat": 0.0, "name": "21ac21171c3c336c5733f6d02e13073a", "fusion_lon": 0.0}, {"is_reserved": 0, "type": "electric_scooter", "bike_id": "4856484bbf444ce399602cb74e949bf4", "lat": 38.88646816666667, "lon": -76.99611083333333, "rental_uris": {"android": "https://dc.lft.to/lastmile_qr_scan", "ios": "https://dc.lft.to/lastmile_qr_scan"}, "is_disabled": 0, "fusion_lat": 0.0, "name": "4856484bbf444ce399602cb74e949bf4", "fusion_lon": 0.0}, {"is_reserved": 0, "type": "electric_scooter", "bike_id": "3e8eef8f2e4a2dfd1cb762c191be27f2", "lat": 38.883949666666666, "lon": -77.01938016666666, "rental_uris": {"android": "https://dc.lft.to/lastmile_qr_scan", "ios": "https://dc.lft.to/lastmile_qr_scan"}, "is_disabled": 0, "fusion_lat": 0.0, "name": "3e8eef8f2e4a2dfd1cb762c191be27f2", "fusion_lon": 0.0}, {"is_reserved": 0, "type": "electric_scooter", "bike_id": "eb1e0fb07f04312a24648027c9c76c66", "lat": 38.91251316666666, "lon": -77.037076, "rental_uris": {"android": "https://dc.lft.to/lastmile_qr_scan", "ios": "https://dc.lft.to/lastmile_qr_scan"}, "is_disabled": 0, "fusion_lat": 0.0, "name": "eb1e0fb07f04312a24648027c9c76c66", "fusion_lon": 0.0}, {"is_reserved": 0, "type": "electric_scooter", "bike_id": "53fc41581bb42ff20b2b59e5e5a5622a", "lat": 38.92091166666667, "lon": -77.03177016666666, "rental_uris": {"android": "https://dc.lft.to/lastmile_qr_scan", "ios": "https://dc.lft.to/lastmile_qr_scan"}, "is_disabled": 0, "fusion_lat": 0.0, "name": "53fc41581bb42ff20b2b59e5e5a5622a", "fusion_lon": 0.0}, {"is_reserved": 0, "type": "electric_scooter", "bike_id": "e57ac24dce1f2cbfd82f355fe4cdb00c", "lat": 38.90353416666667, "lon": -77.02214266666667, "rental_uris": {"android": "https://dc.lft.to/lastmile_qr_scan", "ios": "https://dc.lft.to/lastmile_qr_scan"}, "is_disabled": 0, "fusion_lat": 0.0, "name": "e57ac24dce1f2cbfd82f355fe4cdb00c", "fusion_lon": 0.0}, {"is_reserved": 0, "type": "electric_bike", "bike_id": "d291cf1fd1ca2fa8237205c744a2c83e", "lat": 38.94801, "lon": -76.94256883333334, "rental_uris": {"android": "https://dc.lft.to/lastmile_qr_scan", "ios": "https://dc.lft.to/lastmile_qr_scan"}, "is_disabled": 0, "fusion_lat": 0.0, "name": "d291cf1fd1ca2fa8237205c744a2c83e", "fusion_lon": 0.0}, {"is_reserved": 0, "type": "electric_scooter", "bike_id": "e7a2b7bbfd16f7c16e109223b61736bd", "lat": 38.92864633333333, "lon": -77.037134, "rental_uris": {"android": "https://dc.lft.to/lastmile_qr_scan", "ios": "https://dc.lft.to/lastmile_qr_scan"}, "is_disabled": 0, "fusion_lat": 0.0, "name": "e7a2b7bbfd16f7c16e109223b61736bd", "fusion_lon": 0.0}, {"is_reserved": 0, "type": "electric_scooter", "bike_id": "55de815ca94ccf6a13d5348a9c192a71", "lat": 38.90541783333333, "lon": -77.00723333333333, "rental_uris": {"android": "https://dc.lft.to/lastmile_qr_scan", "ios": "https://dc.lft.to/lastmile_qr_scan"}, "is_disabled": 0, "fusion_lat": 0.0, "name": "55de815ca94ccf6a13d5348a9c192a71", "fusion_lon": 0.0}, {"is_reserved": 0, "type": "electric_bike", "bike_id": "e62a6b58d02c7a6a4e739d1db59eb94f", "lat": 38.80560283333333, "lon": -77.13229716666666, "rental_uris": {"android": "https://dc.lft.to/lastmile_qr_scan", "ios": "https://dc.lft.to/lastmile_qr_scan"}, "is_disabled": 0, "fusion_lat": 0.0, "name": "e62a6b58d02c7a6a4e739d1db59eb94f", "fusion_lon": 0.0}, {"is_reserved": 0, "type": "electric_scooter", "bike_id": "fd4ef24459376965ba1c9c42aee6babb", "lat": 38.895444166666664, "lon": -76.98337583333333, "rental_uris": {"android": "https://dc.lft.to/lastmile_qr_scan", "ios": "https://dc.lft.to/lastmile_qr_scan"}, "is_disabled": 0, "fusion_lat": 0.0, "name": "fd4ef24459376965ba1c9c42aee6babb", "fusion_lon": 0.0}, {"is_reserved": 0, "type": "electric_scooter", "bike_id": "7a0c5708100ffdfbd1676e1297da1edc", "lat": 38.93634466666666, "lon": -77.0816895, "rental_uris": {"android": "https://dc.lft.to/lastmile_qr_scan", "ios": "https://dc.lft.to/lastmile_qr_scan"}, "is_disabled": 0, "fusion_lat": 0.0, "name": "7a0c5708100ffdfbd1676e1297da1edc", "fusion_lon": 0.0}, {"is_reserved": 0, "type": "electric_bike", "bike_id": "1465fa2221e12915b4c2696ab11af377", "lat": 38.9871555, "lon": -76.9458305, "rental_uris": {"android": "https://dc.lft.to/lastmile_qr_scan", "ios": "https://dc.lft.to/lastmile_qr_scan"}, "is_disabled": 0, "fusion_lat": 0.0, "name": "1465fa2221e12915b4c2696ab11af377", "fusion_lon": 0.0}, {"is_reserved": 0, "type": "electric_scooter", "bike_id": "155f03232044fcba6bb08fec063e0d6a", "lat": 38.9069095, "lon": -77.01022883333333, "rental_uris": {"android": "https://dc.lft.to/lastmile_qr_scan", "ios": "https://dc.lft.to/lastmile_qr_scan"}, "is_disabled": 0, "fusion_lat": 0.0, "name": "155f03232044fcba6bb08fec063e0d6a", "fusion_lon": 0.0}, {"is_reserved": 0, "type": "electric_scooter", "bike_id": "0cd9f7be29cd7637897cd0c0cd34a022", "lat": 38.895240666666666, "lon": -77.01097616666667, "rental_uris": {"android": "https://dc.lft.to/lastmile_qr_scan", "ios": "https://dc.lft.to/lastmile_qr_scan"}, "is_disabled": 0, "fusion_lat": 0.0, "name": "0cd9f7be29cd7637897cd0c0cd34a022", "fusion_lon": 0.0}, {"is_reserved": 0, "type": "electric_scooter", "bike_id": "e0c730a700db2e0f51f7393e45e34530", "lat": 38.881730833333336, "lon": -77.01771966666666, "rental_uris": {"android": "https://dc.lft.to/lastmile_qr_scan", "ios": "https://dc.lft.to/lastmile_qr_scan"}, "is_disabled": 0, "fusion_lat": 0.0, "name": "e0c730a700db2e0f51f7393e45e34530", "fusion_lon": 0.0}, {"is_reserved": 0, "type": "electric_scooter", "bike_id": "b3e846c97aeb6715e2fce9b68bae6b67", "lat": 38.900539333333334, "lon": -77.04831216666666, "rental_uris": {"android": "https://dc.lft.to/lastmile_qr_scan", "ios": "https://dc.lft.to/lastmile_qr_scan"}, "is_disabled": 0, "fusion_lat": 0.0, "name": "b3e846c97aeb6715e2fce9b68bae6b67", "fusion_lon": 0.0}, {"is_reserved": 0, "type": "electric_scooter", "bike_id": "700e7d00d5e68349af35cb97140b8fcb", "lat": 38.920316166666666, "lon": -77.01036266666667, "rental_uris": {"android": "https://dc.lft.to/lastmile_qr_scan", "ios": "https://dc.lft.to/lastmile_qr_scan"}, "is_disabled": 0, "fusion_lat": 0.0, "name": "700e7d00d5e68349af35cb97140b8fcb", "fusion_lon": 0.0}, {"is_reserved": 0, "type": "electric_scooter", "bike_id": "f55fb49b56dbadab7946bb0066772491", "lat": 38.913338, "lon": -77.0500865, "rental_uris": {"android": "https://dc.lft.to/lastmile_qr_scan", "ios": "https://dc.lft.to/lastmile_qr_scan"}, "is_disabled": 0, "fusion_lat": 0.0, "name": "f55fb49b56dbadab7946bb0066772491", "fusion_lon": 0.0}, {"is_reserved": 0, "type": "electric_scooter", "bike_id": "c234eb1e41015ff97930a6158332c574", "lat": 38.92071133333334, "lon": -77.074623, "rental_uris": {"android": "https://dc.lft.to/lastmile_qr_scan", "ios": "https://dc.lft.to/lastmile_qr_scan"}, "is_disabled": 0, "fusion_lat": 0.0, "name": "c234eb1e41015ff97930a6158332c574", "fusion_lon": 0.0}, {"is_reserved": 0, "type": "electric_scooter", "bike_id": "14f25983ca68866641115593a05d829e", "lat": 38.92097016666666, "lon": -77.03720333333334, "rental_uris": {"android": "https://dc.lft.to/lastmile_qr_scan", "ios": "https://dc.lft.to/lastmile_qr_scan"}, "is_disabled": 0, "fusion_lat": 0.0, "name": "14f25983ca68866641115593a05d829e", "fusion_lon": 0.0}, {"is_reserved": 0, "type": "electric_scooter", "bike_id": "19eb8d1caab0f1c2dc333e23870999b9", "lat": 38.8995965, "lon": -77.0270555, "rental_uris": {"android": "https://dc.lft.to/lastmile_qr_scan", "ios": "https://dc.lft.to/lastmile_qr_scan"}, "is_disabled": 0, "fusion_lat": 0.0, "name": "19eb8d1caab0f1c2dc333e23870999b9", "fusion_lon": 0.0}, {"is_reserved": 0, "type": "electric_scooter", "bike_id": "2a27514736c8e9656be7f25188963ca7", "lat": 38.90388433333333, "lon": -77.02505, "rental_uris": {"android": "https://dc.lft.to/lastmile_qr_scan", "ios": "https://dc.lft.to/lastmile_qr_scan"}, "is_disabled": 0, "fusion_lat": 0.0, "name": "2a27514736c8e9656be7f25188963ca7", "fusion_lon": 0.0}, {"is_reserved": 0, "type": "electric_scooter", "bike_id": "df86730c5938f1fa9c047753e5653f22", "lat": 38.91254083333333, "lon": -77.03034416666667, "rental_uris": {"android": "https://dc.lft.to/lastmile_qr_scan", "ios": "https://dc.lft.to/lastmile_qr_scan"}, "is_disabled": 0, "fusion_lat": 0.0, "name": "df86730c5938f1fa9c047753e5653f22", "fusion_lon": 0.0}, {"is_reserved": 0, "type": "electric_scooter", "bike_id": "cf69392418e267cd3ea2044ecef626fb", "lat": 38.94977433333333, "lon": -77.02444333333334, "rental_uris": {"android": "https://dc.lft.to/lastmile_qr_scan", "ios": "https://dc.lft.to/lastmile_qr_scan"}, "is_disabled": 0, "fusion_lat": 0.0, "name": "cf69392418e267cd3ea2044ecef626fb", "fusion_lon": 0.0}, {"is_reserved": 0, "type": "electric_scooter", "bike_id": "9df475556fb35cdc7caf935ad9d22487", "lat": 38.889064833333336, "lon": -76.97732816666667, "rental_uris": {"android": "https://dc.lft.to/lastmile_qr_scan", "ios": "https://dc.lft.to/lastmile_qr_scan"}, "is_disabled": 0, "fusion_lat": 0.0, "name": "9df475556fb35cdc7caf935ad9d22487", "fusion_lon": 0.0}, {"is_reserved": 0, "type": "electric_scooter", "bike_id": "263e453045e73337ad1ddc1e30ff8532", "lat": 38.900390333333334, "lon": -77.002014, "rental_uris": {"android": "https://dc.lft.to/lastmile_qr_scan", "ios": "https://dc.lft.to/lastmile_qr_scan"}, "is_disabled": 0, "fusion_lat": 0.0, "name": "263e453045e73337ad1ddc1e30ff8532", "fusion_lon": 0.0}, {"is_reserved": 0, "type": "electric_scooter", "bike_id": "606292791d35393919f412c06cb8b423", "lat": 38.924034666666664, "lon": -77.02983966666666, "rental_uris": {"android": "https://dc.lft.to/lastmile_qr_scan", "ios": "https://dc.lft.to/lastmile_qr_scan"}, "is_disabled": 0, "fusion_lat": 0.0, "name": "606292791d35393919f412c06cb8b423", "fusion_lon": 0.0}, {"is_reserved": 0, "type": "electric_scooter", "bike_id": "e83f5f372b500a6ba3e26afeef1cf915", "lat": 38.910373666666665, "lon": -77.03090416666667, "rental_uris": {"android": "https://dc.lft.to/lastmile_qr_scan", "ios": "https://dc.lft.to/lastmile_qr_scan"}, "is_disabled": 0, "fusion_lat": 0.0, "name": "e83f5f372b500a6ba3e26afeef1cf915", "fusion_lon": 0.0}, {"is_reserved": 0, "type": "electric_scooter", "bike_id": "0d21f93c666460dfd7ad97e424d90960", "lat": 38.9197445, "lon": -77.02720633333334, "rental_uris": {"android": "https://dc.lft.to/lastmile_qr_scan", "ios": "https://dc.lft.to/lastmile_qr_scan"}, "is_disabled": 0, "fusion_lat": 0.0, "name": "0d21f93c666460dfd7ad97e424d90960", "fusion_lon": 0.0}, {"is_reserved": 0, "type": "electric_scooter", "bike_id": "4b83066b86014023247f27391e6a03fc", "lat": 38.924593333333334, "lon": -77.00854433333333, "rental_uris": {"android": "https://dc.lft.to/lastmile_qr_scan", "ios": "https://dc.lft.to/lastmile_qr_scan"}, "is_disabled": 0, "fusion_lat": 0.0, "name": "4b83066b86014023247f27391e6a03fc", "fusion_lon": 0.0}, {"is_reserved": 0, "type": "electric_scooter", "bike_id": "e978d71fb914043e6bfb0fe1c5fe0953", "lat": 38.90596633333333, "lon": -77.06422983333333, "rental_uris": {"android": "https://dc.lft.to/lastmile_qr_scan", "ios": "https://dc.lft.to/lastmile_qr_scan"}, "is_disabled": 0, "fusion_lat": 0.0, "name": "e978d71fb914043e6bfb0fe1c5fe0953", "fusion_lon": 0.0}, {"is_reserved": 0, "type": "electric_scooter", "bike_id": "4ea5c6e18e6cadd3fb058d2b6b6475df", "lat": 38.8939945, "lon": -77.02974133333333, "rental_uris": {"android": "https://dc.lft.to/lastmile_qr_scan", "ios": "https://dc.lft.to/lastmile_qr_scan"}, "is_disabled": 0, "fusion_lat": 0.0, "name": "4ea5c6e18e6cadd3fb058d2b6b6475df", "fusion_lon": 0.0}, {"is_reserved": 0, "type": "electric_scooter", "bike_id": "201364893865f8497704cb854b5f434d", "lat": 38.908449833333336, "lon": -77.00272266666667, "rental_uris": {"android": "https://dc.lft.to/lastmile_qr_scan", "ios": "https://dc.lft.to/lastmile_qr_scan"}, "is_disabled": 0, "fusion_lat": 0.0, "name": "201364893865f8497704cb854b5f434d", "fusion_lon": 0.0}, {"is_reserved": 0, "type": "electric_scooter", "bike_id": "36266540a22924668c390bbeb218791b", "lat": 38.92092183333333, "lon": -77.07178733333333, "rental_uris": {"android": "https://dc.lft.to/lastmile_qr_scan", "ios": "https://dc.lft.to/lastmile_qr_scan"}, "is_disabled": 0, "fusion_lat": 0.0, "name": "36266540a22924668c390bbeb218791b", "fusion_lon": 0.0}, {"is_reserved": 0, "type": "electric_scooter", "bike_id": "8c7ff6d986a55489e2ac5f7cce1e6a11", "lat": 38.87761833333333, "lon": -76.99537566666666, "rental_uris": {"android": "https://dc.lft.to/lastmile_qr_scan", "ios": "https://dc.lft.to/lastmile_qr_scan"}, "is_disabled": 0, "fusion_lat": 0.0, "name": "8c7ff6d986a55489e2ac5f7cce1e6a11", "fusion_lon": 0.0}, {"is_reserved": 0, "type": "electric_scooter", "bike_id": "8a3c21b15dbc4e983a4e2e0a0e0b682b", "lat": 38.916054333333335, "lon": -77.00280133333334, "rental_uris": {"android": "https://dc.lft.to/lastmile_qr_scan", "ios": "https://dc.lft.to/lastmile_qr_scan"}, "is_disabled": 0, "fusion_lat": 0.0, "name": "8a3c21b15dbc4e983a4e2e0a0e0b682b", "fusion_lon": 0.0}, {"is_reserved": 0, "type": "electric_scooter", "bike_id": "6d581764a6d4f1a3f460e598d28ba5e4", "lat": 38.952951, "lon": -77.06860033333334, "rental_uris": {"android": "https://dc.lft.to/lastmile_qr_scan", "ios": "https://dc.lft.to/lastmile_qr_scan"}, "is_disabled": 0, "fusion_lat": 0.0, "name": "6d581764a6d4f1a3f460e598d28ba5e4", "fusion_lon": 0.0}, {"is_reserved": 0, "type": "electric_scooter", "bike_id": "f99fbbf35c7d418551fefa9e088b05b3", "lat": 38.93530783333333, "lon": -77.0249685, "rental_uris": {"android": "https://dc.lft.to/lastmile_qr_scan", "ios": "https://dc.lft.to/lastmile_qr_scan"}, "is_disabled": 0, "fusion_lat": 0.0, "name": "f99fbbf35c7d418551fefa9e088b05b3", "fusion_lon": 0.0}, {"is_reserved": 0, "type": "electric_scooter", "bike_id": "cc275970337b23be4e9165f9185b18bd", "lat": 38.899970833333334, "lon": -77.02711533333333, "rental_uris": {"android": "https://dc.lft.to/lastmile_qr_scan", "ios": "https://dc.lft.to/lastmile_qr_scan"}, "is_disabled": 0, "fusion_lat": 0.0, "name": "cc275970337b23be4e9165f9185b18bd", "fusion_lon": 0.0}, {"is_reserved": 0, "type": "electric_scooter", "bike_id": "498a7d215fc955fc57ae9ed95e2cabae", "lat": 38.911878, "lon": -77.0047035, "rental_uris": {"android": "https://dc.lft.to/lastmile_qr_scan", "ios": "https://dc.lft.to/lastmile_qr_scan"}, "is_disabled": 0, "fusion_lat": 0.0, "name": "498a7d215fc955fc57ae9ed95e2cabae", "fusion_lon": 0.0}, {"is_reserved": 0, "type": "electric_bike", "bike_id": "3299294b570f452a5c9ee9864552d6ba", "lat": 38.949175333333336, "lon": -77.00795583333333, "rental_uris": {"android": "https://dc.lft.to/lastmile_qr_scan", "ios": "https://dc.lft.to/lastmile_qr_scan"}, "is_disabled": 0, "fusion_lat": 0.0, "name": "3299294b570f452a5c9ee9864552d6ba", "fusion_lon": 0.0}, {"is_reserved": 0, "type": "electric_bike", "bike_id": "de52f0dbd375331c01a28f00a9b94297", "lat": 38.995560166666664, "lon": -77.07492683333334, "rental_uris": {"android": "https://dc.lft.to/lastmile_qr_scan", "ios": "https://dc.lft.to/lastmile_qr_scan"}, "is_disabled": 0, "fusion_lat": 0.0, "name": "de52f0dbd375331c01a28f00a9b94297", "fusion_lon": 0.0}, {"is_reserved": 0, "type": "electric_scooter", "bike_id": "78e44f3b6d54dbf925ffc9094bd39b96", "lat": 38.95182416666667, "lon": -77.02611133333333, "rental_uris": {"android": "https://dc.lft.to/lastmile_qr_scan", "ios": "https://dc.lft.to/lastmile_qr_scan"}, "is_disabled": 0, "fusion_lat": 0.0, "name": "78e44f3b6d54dbf925ffc9094bd39b96", "fusion_lon": 0.0}, {"is_reserved": 0, "type": "electric_scooter", "bike_id": "91d88d77d44bd31cbc4e71cfd8c0bea8", "lat": 38.90374216666667, "lon": -77.01751966666667, "rental_uris": {"android": "https://dc.lft.to/lastmile_qr_scan", "ios": "https://dc.lft.to/lastmile_qr_scan"}, "is_disabled": 0, "fusion_lat": 0.0, "name": "91d88d77d44bd31cbc4e71cfd8c0bea8", "fusion_lon": 0.0}, {"is_reserved": 0, "type": "electric_scooter", "bike_id": "4a40de567af578e4fc63111f589354dc", "lat": 38.9055135, "lon": -77.0059885, "rental_uris": {"android": "https://dc.lft.to/lastmile_qr_scan", "ios": "https://dc.lft.to/lastmile_qr_scan"}, "is_disabled": 0, "fusion_lat": 0.0, "name": "4a40de567af578e4fc63111f589354dc", "fusion_lon": 0.0}, {"is_reserved": 0, "type": "electric_scooter", "bike_id": "86090b41d6af997ad356c5b224d4d802", "lat": 38.916303166666665, "lon": -77.01568783333333, "rental_uris": {"android": "https://dc.lft.to/lastmile_qr_scan", "ios": "https://dc.lft.to/lastmile_qr_scan"}, "is_disabled": 0, "fusion_lat": 0.0, "name": "86090b41d6af997ad356c5b224d4d802", "fusion_lon": 0.0}, {"is_reserved": 0, "type": "electric_scooter", "bike_id": "7a2ae65180ae6f97fb10851a0ebb4216", "lat": 38.91403833333333, "lon": -77.043649, "rental_uris": {"android": "https://dc.lft.to/lastmile_qr_scan", "ios": "https://dc.lft.to/lastmile_qr_scan"}, "is_disabled": 0, "fusion_lat": 0.0, "name": "7a2ae65180ae6f97fb10851a0ebb4216", "fusion_lon": 0.0}, {"is_reserved": 0, "type": "electric_bike", "bike_id": "4447bb35d0b68ed9207eb1192c0242c8", "lat": 38.8945975, "lon": -77.019989, "rental_uris": {"android": "https://dc.lft.to/lastmile_qr_scan", "ios": "https://dc.lft.to/lastmile_qr_scan"}, "is_disabled": 0, "fusion_lat": 0.0, "name": "4447bb35d0b68ed9207eb1192c0242c8", "fusion_lon": 0.0}, {"is_reserved": 0, "type": "electric_scooter", "bike_id": "3e5397ca1fef831533245de623b07f50", "lat": 38.952667, "lon": -77.0240055, "rental_uris": {"android": "https://dc.lft.to/lastmile_qr_scan", "ios": "https://dc.lft.to/lastmile_qr_scan"}, "is_disabled": 0, "fusion_lat": 0.0, "name": "3e5397ca1fef831533245de623b07f50", "fusion_lon": 0.0}, {"is_reserved": 0, "type": "electric_scooter", "bike_id": "64c5231abb9ba0ce513c82471e826bdb", "lat": 38.92390833333333, "lon": -77.0504105, "rental_uris": {"android": "https://dc.lft.to/lastmile_qr_scan", "ios": "https://dc.lft.to/lastmile_qr_scan"}, "is_disabled": 0, "fusion_lat": 0.0, "name": "64c5231abb9ba0ce513c82471e826bdb", "fusion_lon": 0.0}, {"is_reserved": 0, "type": "electric_scooter", "bike_id": "c38ab263d727da75a6c94ca00198d54a", "lat": 38.9261065, "lon": -77.03952733333334, "rental_uris": {"android": "https://dc.lft.to/lastmile_qr_scan", "ios": "https://dc.lft.to/lastmile_qr_scan"}, "is_disabled": 0, "fusion_lat": 0.0, "name": "c38ab263d727da75a6c94ca00198d54a", "fusion_lon": 0.0}, {"is_reserved": 0, "type": "electric_scooter", "bike_id": "eaa7fcc877440ddae17ea1d5af27753d", "lat": 38.882499833333334, "lon": -77.0062535, "rental_uris": {"android": "https://dc.lft.to/lastmile_qr_scan", "ios": "https://dc.lft.to/lastmile_qr_scan"}, "is_disabled": 0, "fusion_lat": 0.0, "name": "eaa7fcc877440ddae17ea1d5af27753d", "fusion_lon": 0.0}, {"is_reserved": 0, "type": "electric_scooter", "bike_id": "8ab569d9fe2812bdd815814c30946d14", "lat": 38.89804266666667, "lon": -76.99510383333333, "rental_uris": {"android": "https://dc.lft.to/lastmile_qr_scan", "ios": "https://dc.lft.to/lastmile_qr_scan"}, "is_disabled": 0, "fusion_lat": 0.0, "name": "8ab569d9fe2812bdd815814c30946d14", "fusion_lon": 0.0}, {"is_reserved": 0, "type": "electric_bike", "bike_id": "815f1df83e2ccaadaa91cd554eb2b39a", "lat": 38.958494333333334, "lon": -76.986013, "rental_uris": {"android": "https://dc.lft.to/lastmile_qr_scan", "ios": "https://dc.lft.to/lastmile_qr_scan"}, "is_disabled": 0, "fusion_lat": 0.0, "name": "815f1df83e2ccaadaa91cd554eb2b39a", "fusion_lon": 0.0}, {"is_reserved": 0, "type": "electric_scooter", "bike_id": "06b413bd8094a03e422ab3b1ff07d143", "lat": 38.9417925, "lon": -77.0256815, "rental_uris": {"android": "https://dc.lft.to/lastmile_qr_scan", "ios": "https://dc.lft.to/lastmile_qr_scan"}, "is_disabled": 0, "fusion_lat": 0.0, "name": "06b413bd8094a03e422ab3b1ff07d143", "fusion_lon": 0.0}, {"is_reserved": 0, "type": "electric_scooter", "bike_id": "48afe05696fa78d46036609cee1d044d", "lat": 38.90740733333333, "lon": -77.00749683333333, "rental_uris": {"android": "https://dc.lft.to/lastmile_qr_scan", "ios": "https://dc.lft.to/lastmile_qr_scan"}, "is_disabled": 0, "fusion_lat": 0.0, "name": "48afe05696fa78d46036609cee1d044d", "fusion_lon": 0.0}, {"is_reserved": 0, "type": "electric_scooter", "bike_id": "ecb5d462d1d1e936d0ea03e77dc39ce5", "lat": 38.9215055, "lon": -77.03328516666667, "rental_uris": {"android": "https://dc.lft.to/lastmile_qr_scan", "ios": "https://dc.lft.to/lastmile_qr_scan"}, "is_disabled": 0, "fusion_lat": 0.0, "name": "ecb5d462d1d1e936d0ea03e77dc39ce5", "fusion_lon": 0.0}, {"is_reserved": 0, "type": "electric_scooter", "bike_id": "6407a1bed6a6a3a7d5d22503db45b9ca", "lat": 38.9072615, "lon": -77.03208833333333, "rental_uris": {"android": "https://dc.lft.to/lastmile_qr_scan", "ios": "https://dc.lft.to/lastmile_qr_scan"}, "is_disabled": 0, "fusion_lat": 0.0, "name": "6407a1bed6a6a3a7d5d22503db45b9ca", "fusion_lon": 0.0}, {"is_reserved": 0, "type": "electric_scooter", "bike_id": "14aa902eed3036065a0c79dbb80e6a6c", "lat": 38.9244275, "lon": -77.0203455, "rental_uris": {"android": "https://dc.lft.to/lastmile_qr_scan", "ios": "https://dc.lft.to/lastmile_qr_scan"}, "is_disabled": 0, "fusion_lat": 0.0, "name": "14aa902eed3036065a0c79dbb80e6a6c", "fusion_lon": 0.0}, {"is_reserved": 0, "type": "electric_bike", "bike_id": "e0eec1ed48ca3d7a29b263da8579e3c1", "lat": 38.92118833333333, "lon": -76.98879583333333, "rental_uris": {"android": "https://dc.lft.to/lastmile_qr_scan", "ios": "https://dc.lft.to/lastmile_qr_scan"}, "is_disabled": 0, "fusion_lat": 0.0, "name": "e0eec1ed48ca3d7a29b263da8579e3c1", "fusion_lon": 0.0}, {"is_reserved": 0, "type": "electric_scooter", "bike_id": "6e2f0b739cf7e3c7902a080b1ed65338", "lat": 38.9182425, "lon": -77.04521066666666, "rental_uris": {"android": "https://dc.lft.to/lastmile_qr_scan", "ios": "https://dc.lft.to/lastmile_qr_scan"}, "is_disabled": 0, "fusion_lat": 0.0, "name": "6e2f0b739cf7e3c7902a080b1ed65338", "fusion_lon": 0.0}, {"is_reserved": 0, "type": "electric_scooter", "bike_id": "d17aa2783c0406c8cd954beccd079467", "lat": 38.9203045, "lon": -77.018571, "rental_uris": {"android": "https://dc.lft.to/lastmile_qr_scan", "ios": "https://dc.lft.to/lastmile_qr_scan"}, "is_disabled": 0, "fusion_lat": 0.0, "name": "d17aa2783c0406c8cd954beccd079467", "fusion_lon": 0.0}, {"is_reserved": 0, "type": "electric_scooter", "bike_id": "aef95c290cd0061ef9ca0cfb4c880179", "lat": 38.913050166666665, "lon": -77.0364275, "rental_uris": {"android": "https://dc.lft.to/lastmile_qr_scan", "ios": "https://dc.lft.to/lastmile_qr_scan"}, "is_disabled": 0, "fusion_lat": 0.0, "name": "aef95c290cd0061ef9ca0cfb4c880179", "fusion_lon": 0.0}, {"is_reserved": 0, "type": "electric_scooter", "bike_id": "522517434401b5d1d2eec853987db89d", "lat": 38.908634166666666, "lon": -77.04590933333333, "rental_uris": {"android": "https://dc.lft.to/lastmile_qr_scan", "ios": "https://dc.lft.to/lastmile_qr_scan"}, "is_disabled": 0, "fusion_lat": 0.0, "name": "522517434401b5d1d2eec853987db89d", "fusion_lon": 0.0}, {"is_reserved": 0, "type": "electric_scooter", "bike_id": "4ab9c39a37dff9d2d2f055822745aa56", "lat": 38.94164216666667, "lon": -77.0182245, "rental_uris": {"android": "https://dc.lft.to/lastmile_qr_scan", "ios": "https://dc.lft.to/lastmile_qr_scan"}, "is_disabled": 0, "fusion_lat": 0.0, "name": "4ab9c39a37dff9d2d2f055822745aa56", "fusion_lon": 0.0}, {"is_reserved": 0, "type": "electric_scooter", "bike_id": "ed572b9cd995997826b23cd24f7bdccf", "lat": 38.922002, "lon": -77.03907166666667, "rental_uris": {"android": "https://dc.lft.to/lastmile_qr_scan", "ios": "https://dc.lft.to/lastmile_qr_scan"}, "is_disabled": 0, "fusion_lat": 0.0, "name": "ed572b9cd995997826b23cd24f7bdccf", "fusion_lon": 0.0}, {"is_reserved": 0, "type": "electric_scooter", "bike_id": "41edfbe7f310f547e395d5f02958222f", "lat": 38.907229, "lon": -77.048004, "rental_uris": {"android": "https://dc.lft.to/lastmile_qr_scan", "ios": "https://dc.lft.to/lastmile_qr_scan"}, "is_disabled": 0, "fusion_lat": 0.0, "name": "41edfbe7f310f547e395d5f02958222f", "fusion_lon": 0.0}, {"is_reserved": 0, "type": "electric_scooter", "bike_id": "14de929b91686f7b564cb14bbc0e28a8", "lat": 38.90058033333333, "lon": -76.98571533333333, "rental_uris": {"android": "https://dc.lft.to/lastmile_qr_scan", "ios": "https://dc.lft.to/lastmile_qr_scan"}, "is_disabled": 0, "fusion_lat": 0.0, "name": "14de929b91686f7b564cb14bbc0e28a8", "fusion_lon": 0.0}, {"is_reserved": 0, "type": "electric_scooter", "bike_id": "c45d32678be1c7c36b1cd5a668250680", "lat": 38.911097833333336, "lon": -77.0382575, "rental_uris": {"android": "https://dc.lft.to/lastmile_qr_scan", "ios": "https://dc.lft.to/lastmile_qr_scan"}, "is_disabled": 0, "fusion_lat": 0.0, "name": "c45d32678be1c7c36b1cd5a668250680", "fusion_lon": 0.0}, {"is_reserved": 0, "type": "electric_scooter", "bike_id": "394262d1627776c34fe0cd82d023949b", "lat": 38.91784166666667, "lon": -77.0217295, "rental_uris": {"android": "https://dc.lft.to/lastmile_qr_scan", "ios": "https://dc.lft.to/lastmile_qr_scan"}, "is_disabled": 0, "fusion_lat": 0.0, "name": "394262d1627776c34fe0cd82d023949b", "fusion_lon": 0.0}, {"is_reserved": 0, "type": "electric_scooter", "bike_id": "42417f29b318316df4e849e43082bf37", "lat": 38.924584, "lon": -77.0203805, "rental_uris": {"android": "https://dc.lft.to/lastmile_qr_scan", "ios": "https://dc.lft.to/lastmile_qr_scan"}, "is_disabled": 0, "fusion_lat": 0.0, "name": "42417f29b318316df4e849e43082bf37", "fusion_lon": 0.0}, {"is_reserved": 0, "type": "electric_scooter", "bike_id": "6815711b6fc4de2cb7510bd679bb43bf", "lat": 38.93325466666667, "lon": -77.029085, "rental_uris": {"android": "https://dc.lft.to/lastmile_qr_scan", "ios": "https://dc.lft.to/lastmile_qr_scan"}, "is_disabled": 0, "fusion_lat": 0.0, "name": "6815711b6fc4de2cb7510bd679bb43bf", "fusion_lon": 0.0}, {"is_reserved": 0, "type": "electric_scooter", "bike_id": "d93f13ec03b44dda1f9ea17e09681d16", "lat": 38.919231333333336, "lon": -77.048107, "rental_uris": {"android": "https://dc.lft.to/lastmile_qr_scan", "ios": "https://dc.lft.to/lastmile_qr_scan"}, "is_disabled": 0, "fusion_lat": 0.0, "name": "d93f13ec03b44dda1f9ea17e09681d16", "fusion_lon": 0.0}, {"is_reserved": 0, "type": "electric_scooter", "bike_id": "4bcc088381d8312d0214bc3e42537dba", "lat": 38.8981795, "lon": -77.0221125, "rental_uris": {"android": "https://dc.lft.to/lastmile_qr_scan", "ios": "https://dc.lft.to/lastmile_qr_scan"}, "is_disabled": 0, "fusion_lat": 0.0, "name": "4bcc088381d8312d0214bc3e42537dba", "fusion_lon": 0.0}, {"is_reserved": 0, "type": "electric_scooter", "bike_id": "591d84dd95f7707cda29b23fa60afb85", "lat": 38.91176133333333, "lon": -77.0230415, "rental_uris": {"android": "https://dc.lft.to/lastmile_qr_scan", "ios": "https://dc.lft.to/lastmile_qr_scan"}, "is_disabled": 0, "fusion_lat": 0.0, "name": "591d84dd95f7707cda29b23fa60afb85", "fusion_lon": 0.0}, {"is_reserved": 0, "type": "electric_scooter", "bike_id": "2f4423c063eda832638a68fe1ca8ab52", "lat": 38.906226, "lon": -77.065121, "rental_uris": {"android": "https://dc.lft.to/lastmile_qr_scan", "ios": "https://dc.lft.to/lastmile_qr_scan"}, "is_disabled": 0, "fusion_lat": 0.0, "name": "2f4423c063eda832638a68fe1ca8ab52", "fusion_lon": 0.0}, {"is_reserved": 0, "type": "electric_scooter", "bike_id": "e49b4fc3d00abdc3cfe8e9f645d83a8f", "lat": 38.900015833333335, "lon": -76.9984175, "rental_uris": {"android": "https://dc.lft.to/lastmile_qr_scan", "ios": "https://dc.lft.to/lastmile_qr_scan"}, "is_disabled": 0, "fusion_lat": 0.0, "name": "e49b4fc3d00abdc3cfe8e9f645d83a8f", "fusion_lon": 0.0}, {"is_reserved": 0, "type": "electric_scooter", "bike_id": "43f0bc83e097be5c284814fb5244d7b9", "lat": 38.915585, "lon": -77.03312133333333, "rental_uris": {"android": "https://dc.lft.to/lastmile_qr_scan", "ios": "https://dc.lft.to/lastmile_qr_scan"}, "is_disabled": 0, "fusion_lat": 0.0, "name": "43f0bc83e097be5c284814fb5244d7b9", "fusion_lon": 0.0}, {"is_reserved": 0, "type": "electric_scooter", "bike_id": "6a2a9798561ffd3c89fda86dcd45cadb", "lat": 38.8815415, "lon": -76.99512366666667, "rental_uris": {"android": "https://dc.lft.to/lastmile_qr_scan", "ios": "https://dc.lft.to/lastmile_qr_scan"}, "is_disabled": 0, "fusion_lat": 0.0, "name": "6a2a9798561ffd3c89fda86dcd45cadb", "fusion_lon": 0.0}, {"is_reserved": 0, "type": "electric_scooter", "bike_id": "07d4d3e1187b739270d46d75e12dd71e", "lat": 38.89912966666667, "lon": -77.03209866666667, "rental_uris": {"android": "https://dc.lft.to/lastmile_qr_scan", "ios": "https://dc.lft.to/lastmile_qr_scan"}, "is_disabled": 0, "fusion_lat": 0.0, "name": "07d4d3e1187b739270d46d75e12dd71e", "fusion_lon": 0.0}, {"is_reserved": 0, "type": "electric_scooter", "bike_id": "a0b5006b33cb6416c8f3625e7b742f43", "lat": 38.923776, "lon": -77.03058583333333, "rental_uris": {"android": "https://dc.lft.to/lastmile_qr_scan", "ios": "https://dc.lft.to/lastmile_qr_scan"}, "is_disabled": 0, "fusion_lat": 0.0, "name": "a0b5006b33cb6416c8f3625e7b742f43", "fusion_lon": 0.0}, {"is_reserved": 0, "type": "electric_scooter", "bike_id": "4fc8fe7c1d05a61a2876dea704d40538", "lat": 38.87725783333333, "lon": -77.01908833333333, "rental_uris": {"android": "https://dc.lft.to/lastmile_qr_scan", "ios": "https://dc.lft.to/lastmile_qr_scan"}, "is_disabled": 0, "fusion_lat": 0.0, "name": "4fc8fe7c1d05a61a2876dea704d40538", "fusion_lon": 0.0}, {"is_reserved": 0, "type": "electric_scooter", "bike_id": "941ae9a4f2c04646baa0b03eaac3ec53", "lat": 38.874844, "lon": -77.00357083333333, "rental_uris": {"android": "https://dc.lft.to/lastmile_qr_scan", "ios": "https://dc.lft.to/lastmile_qr_scan"}, "is_disabled": 0, "fusion_lat": 0.0, "name": "941ae9a4f2c04646baa0b03eaac3ec53", "fusion_lon": 0.0}, {"is_reserved": 0, "type": "electric_scooter", "bike_id": "17fe5b2b8b32592834ec3a23f2f73933", "lat": 38.92440783333333, "lon": -77.03296166666667, "rental_uris": {"android": "https://dc.lft.to/lastmile_qr_scan", "ios": "https://dc.lft.to/lastmile_qr_scan"}, "is_disabled": 0, "fusion_lat": 0.0, "name": "17fe5b2b8b32592834ec3a23f2f73933", "fusion_lon": 0.0}, {"is_reserved": 0, "type": "electric_scooter", "bike_id": "5dd7977bfdb6ca5cada3997ae3239ad1", "lat": 38.889787, "lon": -76.999438, "rental_uris": {"android": "https://dc.lft.to/lastmile_qr_scan", "ios": "https://dc.lft.to/lastmile_qr_scan"}, "is_disabled": 0, "fusion_lat": 0.0, "name": "5dd7977bfdb6ca5cada3997ae3239ad1", "fusion_lon": 0.0}, {"is_reserved": 0, "type": "electric_scooter", "bike_id": "3f5bb1a0c93b7cfd2a64952759c500a0", "lat": 38.892368166666664, "lon": -77.04490933333334, "rental_uris": {"android": "https://dc.lft.to/lastmile_qr_scan", "ios": "https://dc.lft.to/lastmile_qr_scan"}, "is_disabled": 0, "fusion_lat": 0.0, "name": "3f5bb1a0c93b7cfd2a64952759c500a0", "fusion_lon": 0.0}, {"is_reserved": 0, "type": "electric_scooter", "bike_id": "3661c6a64211a13b3c65042e60319514", "lat": 38.89232166666667, "lon": -77.03183333333334, "rental_uris": {"android": "https://dc.lft.to/lastmile_qr_scan", "ios": "https://dc.lft.to/lastmile_qr_scan"}, "is_disabled": 0, "fusion_lat": 0.0, "name": "3661c6a64211a13b3c65042e60319514", "fusion_lon": 0.0}, {"is_reserved": 0, "type": "electric_bike", "bike_id": "e4cefe2f3ff0a47118cef36bf7d03034", "lat": 38.99100633333333, "lon": -76.88155016666667, "rental_uris": {"android": "https://dc.lft.to/lastmile_qr_scan", "ios": "https://dc.lft.to/lastmile_qr_scan"}, "is_disabled": 0, "fusion_lat": 0.0, "name": "e4cefe2f3ff0a47118cef36bf7d03034", "fusion_lon": 0.0}, {"is_reserved": 0, "type": "electric_bike", "bike_id": "abb9a14431e2dbfc5f206c9dc74b98d2", "lat": 38.84339033333333, "lon": -76.99734916666667, "rental_uris": {"android": "https://dc.lft.to/lastmile_qr_scan", "ios": "https://dc.lft.to/lastmile_qr_scan"}, "is_disabled": 0, "fusion_lat": 0.0, "name": "abb9a14431e2dbfc5f206c9dc74b98d2", "fusion_lon": 0.0}, {"is_reserved": 0, "type": "electric_scooter", "bike_id": "18fa80c70f6811b8aae913b1eed57cd4", "lat": 38.88604483333334, "lon": -77.00405833333333, "rental_uris": {"android": "https://dc.lft.to/lastmile_qr_scan", "ios": "https://dc.lft.to/lastmile_qr_scan"}, "is_disabled": 0, "fusion_lat": 0.0, "name": "18fa80c70f6811b8aae913b1eed57cd4", "fusion_lon": 0.0}, {"is_reserved": 0, "type": "electric_scooter", "bike_id": "88d27dddfe88c43cf20bbe62e7ca3347", "lat": 38.924797, "lon": -77.0292445, "rental_uris": {"android": "https://dc.lft.to/lastmile_qr_scan", "ios": "https://dc.lft.to/lastmile_qr_scan"}, "is_disabled": 0, "fusion_lat": 0.0, "name": "88d27dddfe88c43cf20bbe62e7ca3347", "fusion_lon": 0.0}, {"is_reserved": 0, "type": "electric_scooter", "bike_id": "5175f6ca5801e1563a108c78471056be", "lat": 38.9419645, "lon": -77.025152, "rental_uris": {"android": "https://dc.lft.to/lastmile_qr_scan", "ios": "https://dc.lft.to/lastmile_qr_scan"}, "is_disabled": 0, "fusion_lat": 0.0, "name": "5175f6ca5801e1563a108c78471056be", "fusion_lon": 0.0}, {"is_reserved": 0, "type": "electric_scooter", "bike_id": "729f441a54c538e5533a562cbdfd382b", "lat": 38.9240995, "lon": -77.0355125, "rental_uris": {"android": "https://dc.lft.to/lastmile_qr_scan", "ios": "https://dc.lft.to/lastmile_qr_scan"}, "is_disabled": 0, "fusion_lat": 0.0, "name": "729f441a54c538e5533a562cbdfd382b", "fusion_lon": 0.0}, {"is_reserved": 0, "type": "electric_scooter", "bike_id": "9b7f1c4c88fad9eb6c3d2e71d2cb1074", "lat": 38.920039, "lon": -76.985101, "rental_uris": {"android": "https://dc.lft.to/lastmile_qr_scan", "ios": "https://dc.lft.to/lastmile_qr_scan"}, "is_disabled": 0, "fusion_lat": 0.0, "name": "9b7f1c4c88fad9eb6c3d2e71d2cb1074", "fusion_lon": 0.0}, {"is_reserved": 0, "type": "electric_scooter", "bike_id": "8131d4f3ee3ebbc5e960771954ba343e", "lat": 38.915742333333334, "lon": -77.02002083333333, "rental_uris": {"android": "https://dc.lft.to/lastmile_qr_scan", "ios": "https://dc.lft.to/lastmile_qr_scan"}, "is_disabled": 0, "fusion_lat": 0.0, "name": "8131d4f3ee3ebbc5e960771954ba343e", "fusion_lon": 0.0}, {"is_reserved": 0, "type": "electric_scooter", "bike_id": "303902be852416c363f55c86ee7adbdd", "lat": 38.93092866666667, "lon": -77.02487, "rental_uris": {"android": "https://dc.lft.to/lastmile_qr_scan", "ios": "https://dc.lft.to/lastmile_qr_scan"}, "is_disabled": 0, "fusion_lat": 0.0, "name": "303902be852416c363f55c86ee7adbdd", "fusion_lon": 0.0}, {"is_reserved": 0, "type": "electric_scooter", "bike_id": "ae7b86166183d9b7f6e01077a676bbb8", "lat": 38.90829216666667, "lon": -76.98719116666666, "rental_uris": {"android": "https://dc.lft.to/lastmile_qr_scan", "ios": "https://dc.lft.to/lastmile_qr_scan"}, "is_disabled": 0, "fusion_lat": 0.0, "name": "ae7b86166183d9b7f6e01077a676bbb8", "fusion_lon": 0.0}, {"is_reserved": 0, "type": "electric_scooter", "bike_id": "9f8b0ef221957446b7b8b83187dda400", "lat": 38.90556983333333, "lon": -77.005964, "rental_uris": {"android": "https://dc.lft.to/lastmile_qr_scan", "ios": "https://dc.lft.to/lastmile_qr_scan"}, "is_disabled": 0, "fusion_lat": 0.0, "name": "9f8b0ef221957446b7b8b83187dda400", "fusion_lon": 0.0}, {"is_reserved": 0, "type": "electric_scooter", "bike_id": "e8d2ed8926336327089517e042d8d95d", "lat": 38.91822, "lon": -77.031692, "rental_uris": {"android": "https://dc.lft.to/lastmile_qr_scan", "ios": "https://dc.lft.to/lastmile_qr_scan"}, "is_disabled": 0, "fusion_lat": 0.0, "name": "e8d2ed8926336327089517e042d8d95d", "fusion_lon": 0.0}, {"is_reserved": 0, "type": "electric_scooter", "bike_id": "7bab1c92f20e444f60534a868e353c9a", "lat": 38.886335, "lon": -77.01537766666667, "rental_uris": {"android": "https://dc.lft.to/lastmile_qr_scan", "ios": "https://dc.lft.to/lastmile_qr_scan"}, "is_disabled": 0, "fusion_lat": 0.0, "name": "7bab1c92f20e444f60534a868e353c9a", "fusion_lon": 0.0}, {"is_reserved": 0, "type": "electric_scooter", "bike_id": "a573b18556f3ef1e550e4dac56f56b34", "lat": 38.926073833333334, "lon": -77.05185383333334, "rental_uris": {"android": "https://dc.lft.to/lastmile_qr_scan", "ios": "https://dc.lft.to/lastmile_qr_scan"}, "is_disabled": 0, "fusion_lat": 0.0, "name": "a573b18556f3ef1e550e4dac56f56b34", "fusion_lon": 0.0}, {"is_reserved": 0, "type": "electric_scooter", "bike_id": "ce20e56d4333538a595c9825ce1fc72e", "lat": 38.88509116666667, "lon": -77.011154, "rental_uris": {"android": "https://dc.lft.to/lastmile_qr_scan", "ios": "https://dc.lft.to/lastmile_qr_scan"}, "is_disabled": 0, "fusion_lat": 0.0, "name": "ce20e56d4333538a595c9825ce1fc72e", "fusion_lon": 0.0}, {"is_reserved": 0, "type": "electric_bike", "bike_id": "65f77cc01a63547f3c914e8e71b7b11c", "lat": 38.990358, "lon": -77.025496, "rental_uris": {"android": "https://dc.lft.to/lastmile_qr_scan", "ios": "https://dc.lft.to/lastmile_qr_scan"}, "is_disabled": 0, "fusion_lat": 0.0, "name": "65f77cc01a63547f3c914e8e71b7b11c", "fusion_lon": 0.0}, {"is_reserved": 0, "type": "electric_scooter", "bike_id": "3b2d657cf0169d2906dc9f8453f87ce7", "lat": 38.90748133333334, "lon": -76.99876216666667, "rental_uris": {"android": "https://dc.lft.to/lastmile_qr_scan", "ios": "https://dc.lft.to/lastmile_qr_scan"}, "is_disabled": 0, "fusion_lat": 0.0, "name": "3b2d657cf0169d2906dc9f8453f87ce7", "fusion_lon": 0.0}, {"is_reserved": 0, "type": "electric_scooter", "bike_id": "df0d551a085f071f81b5616dc11f9d86", "lat": 38.938761666666664, "lon": -77.029313, "rental_uris": {"android": "https://dc.lft.to/lastmile_qr_scan", "ios": "https://dc.lft.to/lastmile_qr_scan"}, "is_disabled": 0, "fusion_lat": 0.0, "name": "df0d551a085f071f81b5616dc11f9d86", "fusion_lon": 0.0}, {"is_reserved": 0, "type": "electric_scooter", "bike_id": "2103b5e9347c8d0768dd01faa44ff822", "lat": 38.927971166666666, "lon": -77.04067016666667, "rental_uris": {"android": "https://dc.lft.to/lastmile_qr_scan", "ios": "https://dc.lft.to/lastmile_qr_scan"}, "is_disabled": 0, "fusion_lat": 0.0, "name": "2103b5e9347c8d0768dd01faa44ff822", "fusion_lon": 0.0}, {"is_reserved": 0, "type": "electric_scooter", "bike_id": "a320697b09b076bd62d9f1fd8125464a", "lat": 38.95630216666667, "lon": -77.03564466666667, "rental_uris": {"android": "https://dc.lft.to/lastmile_qr_scan", "ios": "https://dc.lft.to/lastmile_qr_scan"}, "is_disabled": 0, "fusion_lat": 0.0, "name": "a320697b09b076bd62d9f1fd8125464a", "fusion_lon": 0.0}, {"is_reserved": 0, "type": "electric_scooter", "bike_id": "45efdab8df1efc1883192bcdf498917f", "lat": 38.91105366666667, "lon": -77.0383525, "rental_uris": {"android": "https://dc.lft.to/lastmile_qr_scan", "ios": "https://dc.lft.to/lastmile_qr_scan"}, "is_disabled": 0, "fusion_lat": 0.0, "name": "45efdab8df1efc1883192bcdf498917f", "fusion_lon": 0.0}, {"is_reserved": 0, "type": "electric_scooter", "bike_id": "68d406e2b2660bdfe03784682d17ef43", "lat": 38.9251375, "lon": -77.02166933333334, "rental_uris": {"android": "https://dc.lft.to/lastmile_qr_scan", "ios": "https://dc.lft.to/lastmile_qr_scan"}, "is_disabled": 0, "fusion_lat": 0.0, "name": "68d406e2b2660bdfe03784682d17ef43", "fusion_lon": 0.0}, {"is_reserved": 0, "type": "electric_scooter", "bike_id": "b2f714a56bd1d16060ed438db6fc6469", "lat": 38.879321, "lon": -77.0166285, "rental_uris": {"android": "https://dc.lft.to/lastmile_qr_scan", "ios": "https://dc.lft.to/lastmile_qr_scan"}, "is_disabled": 0, "fusion_lat": 0.0, "name": "b2f714a56bd1d16060ed438db6fc6469", "fusion_lon": 0.0}, {"is_reserved": 0, "type": "electric_scooter", "bike_id": "1837756ee7cf13b859d770a4d959eb47", "lat": 38.915324166666664, "lon": -77.00341883333333, "rental_uris": {"android": "https://dc.lft.to/lastmile_qr_scan", "ios": "https://dc.lft.to/lastmile_qr_scan"}, "is_disabled": 0, "fusion_lat": 0.0, "name": "1837756ee7cf13b859d770a4d959eb47", "fusion_lon": 0.0}, {"is_reserved": 0, "type": "electric_scooter", "bike_id": "2e77b34ba934ec1842a358c0e23fa4f1", "lat": 38.927685, "lon": -77.02883366666667, "rental_uris": {"android": "https://dc.lft.to/lastmile_qr_scan", "ios": "https://dc.lft.to/lastmile_qr_scan"}, "is_disabled": 0, "fusion_lat": 0.0, "name": "2e77b34ba934ec1842a358c0e23fa4f1", "fusion_lon": 0.0}, {"is_reserved": 0, "type": "electric_scooter", "bike_id": "757460f92642bb1e7beaaa528e19df0e", "lat": 38.84810316666667, "lon": -76.97821533333334, "rental_uris": {"android": "https://dc.lft.to/lastmile_qr_scan", "ios": "https://dc.lft.to/lastmile_qr_scan"}, "is_disabled": 0, "fusion_lat": 0.0, "name": "757460f92642bb1e7beaaa528e19df0e", "fusion_lon": 0.0}, {"is_reserved": 0, "type": "electric_scooter", "bike_id": "556090120e13d62fdda912fdd3533970", "lat": 38.92630416666667, "lon": -77.03787833333334, "rental_uris": {"android": "https://dc.lft.to/lastmile_qr_scan", "ios": "https://dc.lft.to/lastmile_qr_scan"}, "is_disabled": 0, "fusion_lat": 0.0, "name": "556090120e13d62fdda912fdd3533970", "fusion_lon": 0.0}, {"is_reserved": 0, "type": "electric_scooter", "bike_id": "6e08e00339f9570cdd71bcd7a43a5baf", "lat": 38.92538733333333, "lon": -77.0326265, "rental_uris": {"android": "https://dc.lft.to/lastmile_qr_scan", "ios": "https://dc.lft.to/lastmile_qr_scan"}, "is_disabled": 0, "fusion_lat": 0.0, "name": "6e08e00339f9570cdd71bcd7a43a5baf", "fusion_lon": 0.0}, {"is_reserved": 0, "type": "electric_scooter", "bike_id": "a7565bb55a690765b3fd2144c41ce7d2", "lat": 38.89229683333333, "lon": -77.0315105, "rental_uris": {"android": "https://dc.lft.to/lastmile_qr_scan", "ios": "https://dc.lft.to/lastmile_qr_scan"}, "is_disabled": 0, "fusion_lat": 0.0, "name": "a7565bb55a690765b3fd2144c41ce7d2", "fusion_lon": 0.0}, {"is_reserved": 0, "type": "electric_bike", "bike_id": "63af3450ecf2411a05e2648b7c486dd1", "lat": 38.80382983333333, "lon": -76.98816966666666, "rental_uris": {"android": "https://dc.lft.to/lastmile_qr_scan", "ios": "https://dc.lft.to/lastmile_qr_scan"}, "is_disabled": 0, "fusion_lat": 0.0, "name": "63af3450ecf2411a05e2648b7c486dd1", "fusion_lon": 0.0}, {"is_reserved": 0, "type": "electric_scooter", "bike_id": "403311842fbf68e761e860a907354b63", "lat": 38.90383833333333, "lon": -77.04186433333334, "rental_uris": {"android": "https://dc.lft.to/lastmile_qr_scan", "ios": "https://dc.lft.to/lastmile_qr_scan"}, "is_disabled": 0, "fusion_lat": 0.0, "name": "403311842fbf68e761e860a907354b63", "fusion_lon": 0.0}, {"is_reserved": 0, "type": "electric_scooter", "bike_id": "350310b0df72b5fa549d24413ffef982", "lat": 38.907191833333336, "lon": -77.04886833333333, "rental_uris": {"android": "https://dc.lft.to/lastmile_qr_scan", "ios": "https://dc.lft.to/lastmile_qr_scan"}, "is_disabled": 0, "fusion_lat": 0.0, "name": "350310b0df72b5fa549d24413ffef982", "fusion_lon": 0.0}, {"is_reserved": 0, "type": "electric_bike", "bike_id": "a1c6dd316fd5fb7c81765b0a9aa3ae31", "lat": 38.80867516666667, "lon": -77.11258283333333, "rental_uris": {"android": "https://dc.lft.to/lastmile_qr_scan", "ios": "https://dc.lft.to/lastmile_qr_scan"}, "is_disabled": 0, "fusion_lat": 0.0, "name": "a1c6dd316fd5fb7c81765b0a9aa3ae31", "fusion_lon": 0.0}, {"is_reserved": 0, "type": "electric_scooter", "bike_id": "671cbed6dbf662f79ab0d581cb283454", "lat": 38.893486333333335, "lon": -77.0283685, "rental_uris": {"android": "https://dc.lft.to/lastmile_qr_scan", "ios": "https://dc.lft.to/lastmile_qr_scan"}, "is_disabled": 0, "fusion_lat": 0.0, "name": "671cbed6dbf662f79ab0d581cb283454", "fusion_lon": 0.0}, {"is_reserved": 0, "type": "electric_scooter", "bike_id": "d6be7d26e4bd95be665e133f3ac5fe9d", "lat": 38.911284, "lon": -77.04367633333334, "rental_uris": {"android": "https://dc.lft.to/lastmile_qr_scan", "ios": "https://dc.lft.to/lastmile_qr_scan"}, "is_disabled": 0, "fusion_lat": 0.0, "name": "d6be7d26e4bd95be665e133f3ac5fe9d", "fusion_lon": 0.0}, {"is_reserved": 0, "type": "electric_scooter", "bike_id": "ae769f10463fc5c50df47223025c7018", "lat": 38.900869, "lon": -77.05740466666667, "rental_uris": {"android": "https://dc.lft.to/lastmile_qr_scan", "ios": "https://dc.lft.to/lastmile_qr_scan"}, "is_disabled": 0, "fusion_lat": 0.0, "name": "ae769f10463fc5c50df47223025c7018", "fusion_lon": 0.0}, {"is_reserved": 0, "type": "electric_scooter", "bike_id": "a840148f37f57b0d3d54cd5a3520f99a", "lat": 38.905882166666665, "lon": -77.04188766666667, "rental_uris": {"android": "https://dc.lft.to/lastmile_qr_scan", "ios": "https://dc.lft.to/lastmile_qr_scan"}, "is_disabled": 0, "fusion_lat": 0.0, "name": "a840148f37f57b0d3d54cd5a3520f99a", "fusion_lon": 0.0}, {"is_reserved": 0, "type": "electric_scooter", "bike_id": "cf6a3c8d5e0b1e2e9f07e76afdf7d84a", "lat": 38.900914, "lon": -77.01617216666666, "rental_uris": {"android": "https://dc.lft.to/lastmile_qr_scan", "ios": "https://dc.lft.to/lastmile_qr_scan"}, "is_disabled": 0, "fusion_lat": 0.0, "name": "cf6a3c8d5e0b1e2e9f07e76afdf7d84a", "fusion_lon": 0.0}, {"is_reserved": 0, "type": "electric_scooter", "bike_id": "17c021bb631f7498cedc48b4da89bb3f", "lat": 38.905151333333336, "lon": -77.05668333333334, "rental_uris": {"android": "https://dc.lft.to/lastmile_qr_scan", "ios": "https://dc.lft.to/lastmile_qr_scan"}, "is_disabled": 0, "fusion_lat": 0.0, "name": "17c021bb631f7498cedc48b4da89bb3f", "fusion_lon": 0.0}, {"is_reserved": 0, "type": "electric_scooter", "bike_id": "46aa6e73cc1da13b642b36931a8e4bd4", "lat": 38.871466, "lon": -77.01314316666667, "rental_uris": {"android": "https://dc.lft.to/lastmile_qr_scan", "ios": "https://dc.lft.to/lastmile_qr_scan"}, "is_disabled": 0, "fusion_lat": 0.0, "name": "46aa6e73cc1da13b642b36931a8e4bd4", "fusion_lon": 0.0}, {"is_reserved": 0, "type": "electric_scooter", "bike_id": "a8b84e3bec2020d2fcd398c0c761e593", "lat": 38.872730833333335, "lon": -77.01712283333333, "rental_uris": {"android": "https://dc.lft.to/lastmile_qr_scan", "ios": "https://dc.lft.to/lastmile_qr_scan"}, "is_disabled": 0, "fusion_lat": 0.0, "name": "a8b84e3bec2020d2fcd398c0c761e593", "fusion_lon": 0.0}, {"is_reserved": 0, "type": "electric_scooter", "bike_id": "438af993f80d7f5241479358c474d7de", "lat": 38.90696166666667, "lon": -77.05630666666667, "rental_uris": {"android": "https://dc.lft.to/lastmile_qr_scan", "ios": "https://dc.lft.to/lastmile_qr_scan"}, "is_disabled": 0, "fusion_lat": 0.0, "name": "438af993f80d7f5241479358c474d7de", "fusion_lon": 0.0}, {"is_reserved": 0, "type": "electric_scooter", "bike_id": "166f0a8ab12921e6cb292e96dda78796", "lat": 38.903732, "lon": -77.01849166666666, "rental_uris": {"android": "https://dc.lft.to/lastmile_qr_scan", "ios": "https://dc.lft.to/lastmile_qr_scan"}, "is_disabled": 0, "fusion_lat": 0.0, "name": "166f0a8ab12921e6cb292e96dda78796", "fusion_lon": 0.0}, {"is_reserved": 0, "type": "electric_bike", "bike_id": "b88944e3449ecced3b0feda565c46e94", "lat": 38.9497265, "lon": -76.96092383333334, "rental_uris": {"android": "https://dc.lft.to/lastmile_qr_scan", "ios": "https://dc.lft.to/lastmile_qr_scan"},