{"data": {"bikes": [{"lon": -77.03342466666666, "fusion_lon": 0.0, "bike_id": "bc689c76170809777c35d35f9082c2fe", "type": "electric_scooter", "name": "bc689c76170809777c35d35f9082c2fe", "rental_uris": {"android": "https://dc.lft.to/lastmile_qr_scan", "ios": "https://dc.lft.to/lastmile_qr_scan"}, "is_disabled": 0, "fusion_lat": 0.0, "lat": 38.916976, "is_reserved": 0}, {"lon": -77.03039183333334, "fusion_lon": 0.0, "bike_id": "fe46edf42dbf238c823be4b5a409929b", "type": "electric_scooter", "name": "fe46edf42dbf238c823be4b5a409929b", "rental_uris": {"android": "https://dc.lft.to/lastmile_qr_scan", "ios": "https://dc.lft.to/lastmile_qr_scan"}, "is_disabled": 0, "fusion_lat": 0.0, "lat": 38.9021665, "is_reserved": 0}, {"lon": -77.001342, "fusion_lon": 0.0, "bike_id": "c75d7778aa7ef867dfd8061a4b2c21d8", "type": "electric_scooter", "name": "c75d7778aa7ef867dfd8061a4b2c21d8", "rental_uris": {"android": "https://dc.lft.to/lastmile_qr_scan", "ios": "https://dc.lft.to/lastmile_qr_scan"}, "is_disabled": 0, "fusion_lat": 0.0, "lat": 38.87496683333333, "is_reserved": 0}, {"lon": -77.031236, "fusion_lon": 0.0, "bike_id": "b04e44df2e25ae66974e113280b52e1a", "type": "electric_scooter", "name": "b04e44df2e25ae66974e113280b52e1a", "rental_uris": {"android": "https://dc.lft.to/lastmile_qr_scan", "ios": "https://dc.lft.to/lastmile_qr_scan"}, "is_disabled": 0, "fusion_lat": 0.0, "lat": 38.916110833333335, "is_reserved": 0}, {"lon": -77.026233, "fusion_lon": 0.0, "bike_id": "9d1512700d187f2333cc503b76d07357", "type": "electric_scooter", "name": "9d1512700d187f2333cc503b76d07357", "rental_uris": {"android": "https://dc.lft.to/lastmile_qr_scan", "ios": "https://dc.lft.to/lastmile_qr_scan"}, "is_disabled": 0, "fusion_lat": 0.0, "lat": 38.944061166666664, "is_reserved": 0}, {"lon": -76.9827495, "fusion_lon": 0.0, "bike_id": "658166302d18b5384956977ecc3178bd", "type": "electric_scooter", "name": "658166302d18b5384956977ecc3178bd", "rental_uris": {"android": "https://dc.lft.to/lastmile_qr_scan", "ios": "https://dc.lft.to/lastmile_qr_scan"}, "is_disabled": 0, "fusion_lat": 0.0, "lat": 38.885476833333335, "is_reserved": 0}, {"lon": -76.9897055, "fusion_lon": 0.0, "bike_id": "594ab5d7e40112c4977a5bc9ab75c1c2", "type": "electric_scooter", "name": "594ab5d7e40112c4977a5bc9ab75c1c2", "rental_uris": {"android": "https://dc.lft.to/lastmile_qr_scan", "ios": "https://dc.lft.to/lastmile_qr_scan"}, "is_disabled": 0, "fusion_lat": 0.0, "lat": 38.86536983333333, "is_reserved": 0}, {"lon": -76.94703983333333, "fusion_lon": 0.0, "bike_id": "ac1fe1eaf4a51b303ce057590ebb45d7", "type": "electric_scooter", "name": "ac1fe1eaf4a51b303ce057590ebb45d7", "rental_uris": {"android": "https://dc.lft.to/lastmile_qr_scan", "ios": "https://dc.lft.to/lastmile_qr_scan"}, "is_disabled": 0, "fusion_lat": 0.0, "lat": 38.89363733333333, "is_reserved": 0}, {"lon": -77.04332516666666, "fusion_lon": 0.0, "bike_id": "1f75e107dc32eb0fb4954761022d60d4", "type": "electric_scooter", "name": "1f75e107dc32eb0fb4954761022d60d4", "rental_uris": {"android": "https://dc.lft.to/lastmile_qr_scan", "ios": "https://dc.lft.to/lastmile_qr_scan"}, "is_disabled": 0, "fusion_lat": 0.0, "lat": 38.926144, "is_reserved": 0}, {"lon": -77.03664516666667, "fusion_lon": 0.0, "bike_id": "ddbb88ce39358c42e6673b6455acc77c", "type": "electric_scooter", "name": "ddbb88ce39358c42e6673b6455acc77c", "rental_uris": {"android": "https://dc.lft.to/lastmile_qr_scan", "ios": "https://dc.lft.to/lastmile_qr_scan"}, "is_disabled": 0, "fusion_lat": 0.0, "lat": 38.92271366666667, "is_reserved": 0}, {"lon": -77.0356215, "fusion_lon": 0.0, "bike_id": "f5d748150b310996bb28c227ea1dab79", "type": "electric_scooter", "name": "f5d748150b310996bb28c227ea1dab79", "rental_uris": {"android": "https://dc.lft.to/lastmile_qr_scan", "ios": "https://dc.lft.to/lastmile_qr_scan"}, "is_disabled": 0, "fusion_lat": 0.0, "lat": 38.90475083333333, "is_reserved": 0}, {"lon": -77.234113, "fusion_lon": 0.0, "bike_id": "d338c31d265c3d938878dc1fff56cc7a", "type": "electric_bike", "name": "d338c31d265c3d938878dc1fff56cc7a", "rental_uris": {"android": "https://dc.lft.to/lastmile_qr_scan", "ios": "https://dc.lft.to/lastmile_qr_scan"}, "is_disabled": 0, "fusion_lat": 0.0, "lat": 38.8758045, "is_reserved": 0}, {"lon": -77.05344516666666, "fusion_lon": 0.0, "bike_id": "7f02549c3b21ad05ec879eeef3a27f10", "type": "electric_scooter", "name": "7f02549c3b21ad05ec879eeef3a27f10", "rental_uris": {"android": "https://dc.lft.to/lastmile_qr_scan", "ios": "https://dc.lft.to/lastmile_qr_scan"}, "is_disabled": 0, "fusion_lat": 0.0, "lat": 38.90421166666667, "is_reserved": 0}, {"lon": -77.00988166666667, "fusion_lon": 0.0, "bike_id": "c612b1cad739c194ac271fd583e1d752", "type": "electric_scooter", "name": "c612b1cad739c194ac271fd583e1d752", "rental_uris": {"android": "https://dc.lft.to/lastmile_qr_scan", "ios": "https://dc.lft.to/lastmile_qr_scan"}, "is_disabled": 0, "fusion_lat": 0.0, "lat": 38.872845166666664, "is_reserved": 0}, {"lon": -77.01146583333333, "fusion_lon": 0.0, "bike_id": "c470c9b59736e3515ed48ba8de87d660", "type": "electric_scooter", "name": "c470c9b59736e3515ed48ba8de87d660", "rental_uris": {"android": "https://dc.lft.to/lastmile_qr_scan", "ios": "https://dc.lft.to/lastmile_qr_scan"}, "is_disabled": 0, "fusion_lat": 0.0, "lat": 38.900027, "is_reserved": 0}, {"lon": -76.9464055, "fusion_lon": 0.0, "bike_id": "1c0889dfd00612cd2069d191431e7466", "type": "electric_scooter", "name": "1c0889dfd00612cd2069d191431e7466", "rental_uris": {"android": "https://dc.lft.to/lastmile_qr_scan", "ios": "https://dc.lft.to/lastmile_qr_scan"}, "is_disabled": 0, "fusion_lat": 0.0, "lat": 38.89861166666667, "is_reserved": 0}, {"lon": -76.985452, "fusion_lon": 0.0, "bike_id": "0d037c06d9e60a6dad62ce261e341191", "type": "electric_scooter", "name": "0d037c06d9e60a6dad62ce261e341191", "rental_uris": {"android": "https://dc.lft.to/lastmile_qr_scan", "ios": "https://dc.lft.to/lastmile_qr_scan"}, "is_disabled": 0, "fusion_lat": 0.0, "lat": 38.866890166666664, "is_reserved": 0}, {"lon": -77.03172033333334, "fusion_lon": 0.0, "bike_id": "6343abf31cad69f405f949861e02f7f1", "type": "electric_scooter", "name": "6343abf31cad69f405f949861e02f7f1", "rental_uris": {"android": "https://dc.lft.to/lastmile_qr_scan", "ios": "https://dc.lft.to/lastmile_qr_scan"}, "is_disabled": 0, "fusion_lat": 0.0, "lat": 38.9155285, "is_reserved": 0}, {"lon": -76.99248083333333, "fusion_lon": 0.0, "bike_id": "4033b214d0816eb432b22d89f21be019", "type": "electric_bike", "name": "4033b214d0816eb432b22d89f21be019", "rental_uris": {"android": "https://dc.lft.to/lastmile_qr_scan", "ios": "https://dc.lft.to/lastmile_qr_scan"}, "is_disabled": 0, "fusion_lat": 0.0, "lat": 38.794676833333334, "is_reserved": 0}, {"lon": -77.02082866666667, "fusion_lon": 0.0, "bike_id": "7e0fffb9d12ee327afe2bade9fc4e684", "type": "electric_scooter", "name": "7e0fffb9d12ee327afe2bade9fc4e684", "rental_uris": {"android": "https://dc.lft.to/lastmile_qr_scan", "ios": "https://dc.lft.to/lastmile_qr_scan"}, "is_disabled": 0, "fusion_lat": 0.0, "lat": 38.92703233333334, "is_reserved": 0}, {"lon": -77.07704566666666, "fusion_lon": 0.0, "bike_id": "c41ad955e257f5bd9316ef200e8e0c21", "type": "electric_scooter", "name": "c41ad955e257f5bd9316ef200e8e0c21", "rental_uris": {"android": "https://dc.lft.to/lastmile_qr_scan", "ios": "https://dc.lft.to/lastmile_qr_scan"}, "is_disabled": 0, "fusion_lat": 0.0, "lat": 38.9438185, "is_reserved": 0}, {"lon": -77.0222555, "fusion_lon": 0.0, "bike_id": "7b08d5713f155e43e82173b2afac5d8e", "type": "electric_scooter", "name": "7b08d5713f155e43e82173b2afac5d8e", "rental_uris": {"android": "https://dc.lft.to/lastmile_qr_scan", "ios": "https://dc.lft.to/lastmile_qr_scan"}, "is_disabled": 0, "fusion_lat": 0.0, "lat": 38.9246895, "is_reserved": 0}, {"lon": -77.014296, "fusion_lon": 0.0, "bike_id": "c907456ea2dc724454cfff9678428734", "type": "electric_bike", "name": "c907456ea2dc724454cfff9678428734", "rental_uris": {"android": "https://dc.lft.to/lastmile_qr_scan", "ios": "https://dc.lft.to/lastmile_qr_scan"}, "is_disabled": 0, "fusion_lat": 0.0, "lat": 38.9721935, "is_reserved": 0}, {"lon": -77.02144066666666, "fusion_lon": 0.0, "bike_id": "575a66ea01e05c0d549eca9a5a6b5442", "type": "electric_scooter", "name": "575a66ea01e05c0d549eca9a5a6b5442", "rental_uris": {"android": "https://dc.lft.to/lastmile_qr_scan", "ios": "https://dc.lft.to/lastmile_qr_scan"}, "is_disabled": 0, "fusion_lat": 0.0, "lat": 38.87724333333333, "is_reserved": 0}, {"lon": -76.98183316666666, "fusion_lon": 0.0, "bike_id": "f089fae62d35b411890e1cdc44418e7e", "type": "electric_scooter", "name": "f089fae62d35b411890e1cdc44418e7e", "rental_uris": {"android": "https://dc.lft.to/lastmile_qr_scan", "ios": "https://dc.lft.to/lastmile_qr_scan"}, "is_disabled": 0, "fusion_lat": 0.0, "lat": 38.89578483333333, "is_reserved": 0}, {"lon": -77.0318515, "fusion_lon": 0.0, "bike_id": "97d8b5791c124934d7bd4a5192e97f19", "type": "electric_scooter", "name": "97d8b5791c124934d7bd4a5192e97f19", "rental_uris": {"android": "https://dc.lft.to/lastmile_qr_scan", "ios": "https://dc.lft.to/lastmile_qr_scan"}, "is_disabled": 0, "fusion_lat": 0.0, "lat": 38.89383016666667, "is_reserved": 0}, {"lon": -77.12658416666666, "fusion_lon": 0.0, "bike_id": "3a8915af68946215a8b076d53e19a653", "type": "electric_bike", "name": "3a8915af68946215a8b076d53e19a653", "rental_uris": {"android": "https://dc.lft.to/lastmile_qr_scan", "ios": "https://dc.lft.to/lastmile_qr_scan"}, "is_disabled": 0, "fusion_lat": 0.0, "lat": 38.81508, "is_reserved": 0}, {"lon": -77.00865133333333, "fusion_lon": 0.0, "bike_id": "131222fa9c170e354e11cccb5be7cd81", "type": "electric_scooter", "name": "131222fa9c170e354e11cccb5be7cd81", "rental_uris": {"android": "https://dc.lft.to/lastmile_qr_scan", "ios": "https://dc.lft.to/lastmile_qr_scan"}, "is_disabled": 0, "fusion_lat": 0.0, "lat": 38.879489166666666, "is_reserved": 0}, {"lon": -76.95421, "fusion_lon": 0.0, "bike_id": "6a2135412059e47ab0e15a276531cb57", "type": "electric_bike", "name": "6a2135412059e47ab0e15a276531cb57", "rental_uris": {"android": "https://dc.lft.to/lastmile_qr_scan", "ios": "https://dc.lft.to/lastmile_qr_scan"}, "is_disabled": 0, "fusion_lat": 0.0, "lat": 38.88394666666667, "is_reserved": 0}, {"lon": -76.9980015, "fusion_lon": 0.0, "bike_id": "1783baeb2b9e4c2f86ba249175724a87", "type": "electric_scooter", "name": "1783baeb2b9e4c2f86ba249175724a87", "rental_uris": {"android": "https://dc.lft.to/lastmile_qr_scan", "ios": "https://dc.lft.to/lastmile_qr_scan"}, "is_disabled": 0, "fusion_lat": 0.0, "lat": 38.908693, "is_reserved": 0}, {"lon": -77.05841433333333, "fusion_lon": 0.0, "bike_id": "c947fd7c0f596ec5d857f0de776f271d", "type": "electric_scooter", "name": "c947fd7c0f596ec5d857f0de776f271d", "rental_uris": {"android": "https://dc.lft.to/lastmile_qr_scan", "ios": "https://dc.lft.to/lastmile_qr_scan"}, "is_disabled": 0, "fusion_lat": 0.0, "lat": 38.93052733333333, "is_reserved": 0}, {"lon": -76.988906, "fusion_lon": 0.0, "bike_id": "6d8766c3317ae560f540db3b3f264daf", "type": "electric_scooter", "name": "6d8766c3317ae560f540db3b3f264daf", "rental_uris": {"android": "https://dc.lft.to/lastmile_qr_scan", "ios": "https://dc.lft.to/lastmile_qr_scan"}, "is_disabled": 0, "fusion_lat": 0.0, "lat": 38.8666675, "is_reserved": 0}, {"lon": -77.0219485, "fusion_lon": 0.0, "bike_id": "8e8b23b9ba50f46fc917067a74e2f07e", "type": "electric_scooter", "name": "8e8b23b9ba50f46fc917067a74e2f07e", "rental_uris": {"android": "https://dc.lft.to/lastmile_qr_scan", "ios": "https://dc.lft.to/lastmile_qr_scan"}, "is_disabled": 0, "fusion_lat": 0.0, "lat": 38.91210683333333, "is_reserved": 0}, {"lon": -77.03460783333334, "fusion_lon": 0.0, "bike_id": "cbbcc421838f7945609fe548d97b73b4", "type": "electric_scooter", "name": "cbbcc421838f7945609fe548d97b73b4", "rental_uris": {"android": "https://dc.lft.to/lastmile_qr_scan", "ios": "https://dc.lft.to/lastmile_qr_scan"}, "is_disabled": 0, "fusion_lat": 0.0, "lat": 38.90697566666667, "is_reserved": 0}, {"lon": -77.02961433333333, "fusion_lon": 0.0, "bike_id": "8dc665a2f5f65a77bbe5fdbbb8e75117", "type": "electric_scooter", "name": "8dc665a2f5f65a77bbe5fdbbb8e75117", "rental_uris": {"android": "https://dc.lft.to/lastmile_qr_scan", "ios": "https://dc.lft.to/lastmile_qr_scan"}, "is_disabled": 0, "fusion_lat": 0.0, "lat": 38.9165905, "is_reserved": 0}, {"lon": -77.03057316666667, "fusion_lon": 0.0, "bike_id": "e784def368ba6380bb5f5faca1ea12c5", "type": "electric_scooter", "name": "e784def368ba6380bb5f5faca1ea12c5", "rental_uris": {"android": "https://dc.lft.to/lastmile_qr_scan", "ios": "https://dc.lft.to/lastmile_qr_scan"}, "is_disabled": 0, "fusion_lat": 0.0, "lat": 38.905111833333336, "is_reserved": 0}, {"lon": -77.04160366666666, "fusion_lon": 0.0, "bike_id": "431abe9217bb48179cb881c21f182700", "type": "electric_scooter", "name": "431abe9217bb48179cb881c21f182700", "rental_uris": {"android": "https://dc.lft.to/lastmile_qr_scan", "ios": "https://dc.lft.to/lastmile_qr_scan"}, "is_disabled": 0, "fusion_lat": 0.0, "lat": 38.91902833333333, "is_reserved": 0}, {"lon": -77.02737, "fusion_lon": 0.0, "bike_id": "37f1895a45b8d674be150b35908faf52", "type": "electric_scooter", "name": "37f1895a45b8d674be150b35908faf52", "rental_uris": {"android": "https://dc.lft.to/lastmile_qr_scan", "ios": "https://dc.lft.to/lastmile_qr_scan"}, "is_disabled": 0, "fusion_lat": 0.0, "lat": 38.895007166666666, "is_reserved": 0}, {"lon": -77.03858983333333, "fusion_lon": 0.0, "bike_id": "268c8023a75cfe2a3839b7a1205cd342", "type": "electric_scooter", "name": "268c8023a75cfe2a3839b7a1205cd342", "rental_uris": {"android": "https://dc.lft.to/lastmile_qr_scan", "ios": "https://dc.lft.to/lastmile_qr_scan"}, "is_disabled": 0, "fusion_lat": 0.0, "lat": 38.91545416666666, "is_reserved": 0}, {"lon": -77.02104, "fusion_lon": 0.0, "bike_id": "781215e7c9f3eee6b317589216669ec5", "type": "electric_scooter", "name": "781215e7c9f3eee6b317589216669ec5", "rental_uris": {"android": "https://dc.lft.to/lastmile_qr_scan", "ios": "https://dc.lft.to/lastmile_qr_scan"}, "is_disabled": 0, "fusion_lat": 0.0, "lat": 38.885112, "is_reserved": 0}, {"lon": -77.02735916666667, "fusion_lon": 0.0, "bike_id": "4b2bbf1ed92d33b3d7aecee613963de9", "type": "electric_scooter", "name": "4b2bbf1ed92d33b3d7aecee613963de9", "rental_uris": {"android": "https://dc.lft.to/lastmile_qr_scan", "ios": "https://dc.lft.to/lastmile_qr_scan"}, "is_disabled": 0, "fusion_lat": 0.0, "lat": 38.902530666666664, "is_reserved": 0}, {"lon": -77.038585, "fusion_lon": 0.0, "bike_id": "e43921b1c28b2032c87e8a18c85c38b2", "type": "electric_scooter", "name": "e43921b1c28b2032c87e8a18c85c38b2", "rental_uris": {"android": "https://dc.lft.to/lastmile_qr_scan", "ios": "https://dc.lft.to/lastmile_qr_scan"}, "is_disabled": 0, "fusion_lat": 0.0, "lat": 38.91018016666666, "is_reserved": 0}, {"lon": -77.06187433333334, "fusion_lon": 0.0, "bike_id": "e1965cede2276a9351af58fc0f77e926", "type": "electric_scooter", "name": "e1965cede2276a9351af58fc0f77e926", "rental_uris": {"android": "https://dc.lft.to/lastmile_qr_scan", "ios": "https://dc.lft.to/lastmile_qr_scan"}, "is_disabled": 0, "fusion_lat": 0.0, "lat": 38.903365666666666, "is_reserved": 0}, {"lon": -76.98604516666667, "fusion_lon": 0.0, "bike_id": "83e7e17cc76749f0dd58a4006b2001c9", "type": "electric_scooter", "name": "83e7e17cc76749f0dd58a4006b2001c9", "rental_uris": {"android": "https://dc.lft.to/lastmile_qr_scan", "ios": "https://dc.lft.to/lastmile_qr_scan"}, "is_disabled": 0, "fusion_lat": 0.0, "lat": 38.860097833333334, "is_reserved": 0}, {"lon": -77.0272615, "fusion_lon": 0.0, "bike_id": "6e7e8ea9eca276b725e9f55e292e5fcc", "type": "electric_scooter", "name": "6e7e8ea9eca276b725e9f55e292e5fcc", "rental_uris": {"android": "https://dc.lft.to/lastmile_qr_scan", "ios": "https://dc.lft.to/lastmile_qr_scan"}, "is_disabled": 0, "fusion_lat": 0.0, "lat": 38.92792883333333, "is_reserved": 0}, {"lon": -77.03100583333334, "fusion_lon": 0.0, "bike_id": "92f7507113c2f727cb235c8c61327bb1", "type": "electric_scooter", "name": "92f7507113c2f727cb235c8c61327bb1", "rental_uris": {"android": "https://dc.lft.to/lastmile_qr_scan", "ios": "https://dc.lft.to/lastmile_qr_scan"}, "is_disabled": 0, "fusion_lat": 0.0, "lat": 38.91922566666667, "is_reserved": 0}, {"lon": -77.032877, "fusion_lon": 0.0, "bike_id": "7e814c96d4727a16bfe8bb12da92603a", "type": "electric_scooter", "name": "7e814c96d4727a16bfe8bb12da92603a", "rental_uris": {"android": "https://dc.lft.to/lastmile_qr_scan", "ios": "https://dc.lft.to/lastmile_qr_scan"}, "is_disabled": 0, "fusion_lat": 0.0, "lat": 38.910275166666665, "is_reserved": 0}, {"lon": -77.02521616666667, "fusion_lon": 0.0, "bike_id": "8cd6c2ab957585a552f1ed81d5252fb9", "type": "electric_scooter", "name": "8cd6c2ab957585a552f1ed81d5252fb9", "rental_uris": {"android": "https://dc.lft.to/lastmile_qr_scan", "ios": "https://dc.lft.to/lastmile_qr_scan"}, "is_disabled": 0, "fusion_lat": 0.0, "lat": 38.919241666666665, "is_reserved": 0}, {"lon": -77.0243415, "fusion_lon": 0.0, "bike_id": "114b97fbc23a4d1810dc6298cf2d13d4", "type": "electric_scooter", "name": "114b97fbc23a4d1810dc6298cf2d13d4", "rental_uris": {"android": "https://dc.lft.to/lastmile_qr_scan", "ios": "https://dc.lft.to/lastmile_qr_scan"}, "is_disabled": 0, "fusion_lat": 0.0, "lat": 38.926453333333335, "is_reserved": 0}, {"lon": -77.05226916666666, "fusion_lon": 0.0, "bike_id": "0310e0a26fba4cb96c1ecd294c79ccf2", "type": "electric_scooter", "name": "0310e0a26fba4cb96c1ecd294c79ccf2", "rental_uris": {"android": "https://dc.lft.to/lastmile_qr_scan", "ios": "https://dc.lft.to/lastmile_qr_scan"}, "is_disabled": 0, "fusion_lat": 0.0, "lat": 38.92515216666666, "is_reserved": 0}, {"lon": -76.95972116666667, "fusion_lon": 0.0, "bike_id": "09e1a13deb31bb6f4999b0fb83d065f3", "type": "electric_bike", "name": "09e1a13deb31bb6f4999b0fb83d065f3", "rental_uris": {"android": "https://dc.lft.to/lastmile_qr_scan", "ios": "https://dc.lft.to/lastmile_qr_scan"}, "is_disabled": 0, "fusion_lat": 0.0, "lat": 38.948041833333335, "is_reserved": 0}, {"lon": -77.0540385, "fusion_lon": 0.0, "bike_id": "de28114545398c29d8ffd5d8ad703a7f", "type": "electric_scooter", "name": "de28114545398c29d8ffd5d8ad703a7f", "rental_uris": {"android": "https://dc.lft.to/lastmile_qr_scan", "ios": "https://dc.lft.to/lastmile_qr_scan"}, "is_disabled": 0, "fusion_lat": 0.0, "lat": 38.90127866666667, "is_reserved": 0}, {"lon": -77.0013365, "fusion_lon": 0.0, "bike_id": "ec6ba0a60ba123ed3e22f0bd7519dffc", "type": "electric_scooter", "name": "ec6ba0a60ba123ed3e22f0bd7519dffc", "rental_uris": {"android": "https://dc.lft.to/lastmile_qr_scan", "ios": "https://dc.lft.to/lastmile_qr_scan"}, "is_disabled": 0, "fusion_lat": 0.0, "lat": 38.878811, "is_reserved": 0}, {"lon": -77.03758366666666, "fusion_lon": 0.0, "bike_id": "f77db89e74bac33fd259e33a95a1c4c4", "type": "electric_scooter", "name": "f77db89e74bac33fd259e33a95a1c4c4", "rental_uris": {"android": "https://dc.lft.to/lastmile_qr_scan", "ios": "https://dc.lft.to/lastmile_qr_scan"}, "is_disabled": 0, "fusion_lat": 0.0, "lat": 38.930854, "is_reserved": 0}, {"lon": -77.03724316666667, "fusion_lon": 0.0, "bike_id": "2e6d049d428506eb1fd61574c9b8150d", "type": "electric_scooter", "name": "2e6d049d428506eb1fd61574c9b8150d", "rental_uris": {"android": "https://dc.lft.to/lastmile_qr_scan", "ios": "https://dc.lft.to/lastmile_qr_scan"}, "is_disabled": 0, "fusion_lat": 0.0, "lat": 38.910998, "is_reserved": 0}, {"lon": -76.93341533333333, "fusion_lon": 0.0, "bike_id": "8737f7eedde60c0bc2903d92f353c4ae", "type": "electric_scooter", "name": "8737f7eedde60c0bc2903d92f353c4ae", "rental_uris": {"android": "https://dc.lft.to/lastmile_qr_scan", "ios": "https://dc.lft.to/lastmile_qr_scan"}, "is_disabled": 0, "fusion_lat": 0.0, "lat": 38.90863983333333, "is_reserved": 0}, {"lon": -77.021755, "fusion_lon": 0.0, "bike_id": "41bba79e1b8bf8a1cf7f6dab2e88a433", "type": "electric_scooter", "name": "41bba79e1b8bf8a1cf7f6dab2e88a433", "rental_uris": {"android": "https://dc.lft.to/lastmile_qr_scan", "ios": "https://dc.lft.to/lastmile_qr_scan"}, "is_disabled": 0, "fusion_lat": 0.0, "lat": 38.905720333333335, "is_reserved": 0}, {"lon": -77.01962883333333, "fusion_lon": 0.0, "bike_id": "645cec0b54a8330766475e167a18e6d5", "type": "electric_scooter", "name": "645cec0b54a8330766475e167a18e6d5", "rental_uris": {"android": "https://dc.lft.to/lastmile_qr_scan", "ios": "https://dc.lft.to/lastmile_qr_scan"}, "is_disabled": 0, "fusion_lat": 0.0, "lat": 38.923242, "is_reserved": 0}, {"lon": -77.017668, "fusion_lon": 0.0, "bike_id": "e1ed4fe41a18f787b2ebe181ab689384", "type": "electric_scooter", "name": "e1ed4fe41a18f787b2ebe181ab689384", "rental_uris": {"android": "https://dc.lft.to/lastmile_qr_scan", "ios": "https://dc.lft.to/lastmile_qr_scan"}, "is_disabled": 0, "fusion_lat": 0.0, "lat": 38.8775325, "is_reserved": 0}, {"lon": -77.0382675, "fusion_lon": 0.0, "bike_id": "b717c0b9756f0c7acc6a12e100d567f2", "type": "electric_scooter", "name": "b717c0b9756f0c7acc6a12e100d567f2", "rental_uris": {"android": "https://dc.lft.to/lastmile_qr_scan", "ios": "https://dc.lft.to/lastmile_qr_scan"}, "is_disabled": 0, "fusion_lat": 0.0, "lat": 38.907967, "is_reserved": 0}, {"lon": -77.00255333333334, "fusion_lon": 0.0, "bike_id": "5ffb6fdfbd04e04f2a028294099d1a21", "type": "electric_scooter", "name": "5ffb6fdfbd04e04f2a028294099d1a21", "rental_uris": {"android": "https://dc.lft.to/lastmile_qr_scan", "ios": "https://dc.lft.to/lastmile_qr_scan"}, "is_disabled": 0, "fusion_lat": 0.0, "lat": 38.90580533333333, "is_reserved": 0}, {"lon": -77.01534983333333, "fusion_lon": 0.0, "bike_id": "0053bb3908ba2ef99a2ec166cfe8ccc8", "type": "electric_scooter", "name": "0053bb3908ba2ef99a2ec166cfe8ccc8", "rental_uris": {"android": "https://dc.lft.to/lastmile_qr_scan", "ios": "https://dc.lft.to/lastmile_qr_scan"}, "is_disabled": 0, "fusion_lat": 0.0, "lat": 38.8873855, "is_reserved": 0}, {"lon": -76.969133, "fusion_lon": 0.0, "bike_id": "df51423fa71b3934a8482f74640647a2", "type": "electric_bike", "name": "df51423fa71b3934a8482f74640647a2", "rental_uris": {"android": "https://dc.lft.to/lastmile_qr_scan", "ios": "https://dc.lft.to/lastmile_qr_scan"}, "is_disabled": 0, "fusion_lat": 0.0, "lat": 38.8461115, "is_reserved": 0}, {"lon": -77.0332135, "fusion_lon": 0.0, "bike_id": "556b9b96176d8fe942435d9db59aee68", "type": "electric_scooter", "name": "556b9b96176d8fe942435d9db59aee68", "rental_uris": {"android": "https://dc.lft.to/lastmile_qr_scan", "ios": "https://dc.lft.to/lastmile_qr_scan"}, "is_disabled": 0, "fusion_lat": 0.0, "lat": 38.928753666666665, "is_reserved": 0}, {"lon": -77.01428983333334, "fusion_lon": 0.0, "bike_id": "cc348f95cd443f3c13d18b17d0848bd9", "type": "electric_scooter", "name": "cc348f95cd443f3c13d18b17d0848bd9", "rental_uris": {"android": "https://dc.lft.to/lastmile_qr_scan", "ios": "https://dc.lft.to/lastmile_qr_scan"}, "is_disabled": 0, "fusion_lat": 0.0, "lat": 38.909575, "is_reserved": 0}, {"lon": -77.01974, "fusion_lon": 0.0, "bike_id": "47aa6d52fb0fd487931d0f9e37895b3e", "type": "electric_scooter", "name": "47aa6d52fb0fd487931d0f9e37895b3e", "rental_uris": {"android": "https://dc.lft.to/lastmile_qr_scan", "ios": "https://dc.lft.to/lastmile_qr_scan"}, "is_disabled": 0, "fusion_lat": 0.0, "lat": 38.88031733333333, "is_reserved": 0}, {"lon": -77.0486765, "fusion_lon": 0.0, "bike_id": "02b1b8e930e07265524634ae982e7f1a", "type": "electric_scooter", "name": "02b1b8e930e07265524634ae982e7f1a", "rental_uris": {"android": "https://dc.lft.to/lastmile_qr_scan", "ios": "https://dc.lft.to/lastmile_qr_scan"}, "is_disabled": 0, "fusion_lat": 0.0, "lat": 38.9031375, "is_reserved": 0}, {"lon": -77.0358965, "fusion_lon": 0.0, "bike_id": "85a226b1abbbe84a1c5a491586660f3a", "type": "electric_scooter", "name": "85a226b1abbbe84a1c5a491586660f3a", "rental_uris": {"android": "https://dc.lft.to/lastmile_qr_scan", "ios": "https://dc.lft.to/lastmile_qr_scan"}, "is_disabled": 0, "fusion_lat": 0.0, "lat": 38.936701, "is_reserved": 0}, {"lon": -77.017773, "fusion_lon": 0.0, "bike_id": "b9105410115c89177f81a72d81d34bf4", "type": "electric_scooter", "name": "b9105410115c89177f81a72d81d34bf4", "rental_uris": {"android": "https://dc.lft.to/lastmile_qr_scan", "ios": "https://dc.lft.to/lastmile_qr_scan"}, "is_disabled": 0, "fusion_lat": 0.0, "lat": 38.88715066666666, "is_reserved": 0}, {"lon": -77.0364525, "fusion_lon": 0.0, "bike_id": "b3330d3e3efbdbaf59ad399683b3a995", "type": "electric_scooter", "name": "b3330d3e3efbdbaf59ad399683b3a995", "rental_uris": {"android": "https://dc.lft.to/lastmile_qr_scan", "ios": "https://dc.lft.to/lastmile_qr_scan"}, "is_disabled": 0, "fusion_lat": 0.0, "lat": 38.93061266666667, "is_reserved": 0}, {"lon": -76.96051466666667, "fusion_lon": 0.0, "bike_id": "4cb388dbc4e6ef1da89ffeb3228cace1", "type": "electric_bike", "name": "4cb388dbc4e6ef1da89ffeb3228cace1", "rental_uris": {"android": "https://dc.lft.to/lastmile_qr_scan", "ios": "https://dc.lft.to/lastmile_qr_scan"}, "is_disabled": 0, "fusion_lat": 0.0, "lat": 38.96738966666667, "is_reserved": 0}, {"lon": -77.02714083333333, "fusion_lon": 0.0, "bike_id": "580f42954f9c694a73a2372e95c44311", "type": "electric_scooter", "name": "580f42954f9c694a73a2372e95c44311", "rental_uris": {"android": "https://dc.lft.to/lastmile_qr_scan", "ios": "https://dc.lft.to/lastmile_qr_scan"}, "is_disabled": 0, "fusion_lat": 0.0, "lat": 38.90673783333333, "is_reserved": 0}, {"lon": -76.99066766666667, "fusion_lon": 0.0, "bike_id": "02683cf279ba74f170f78faccd0f19ae", "type": "electric_scooter", "name": "02683cf279ba74f170f78faccd0f19ae", "rental_uris": {"android": "https://dc.lft.to/lastmile_qr_scan", "ios": "https://dc.lft.to/lastmile_qr_scan"}, "is_disabled": 0, "fusion_lat": 0.0, "lat": 38.8637435, "is_reserved": 0}, {"lon": -77.00595866666667, "fusion_lon": 0.0, "bike_id": "05beac8f9ed54305363fd1d25bdcdb60", "type": "electric_scooter", "name": "05beac8f9ed54305363fd1d25bdcdb60", "rental_uris": {"android": "https://dc.lft.to/lastmile_qr_scan", "ios": "https://dc.lft.to/lastmile_qr_scan"}, "is_disabled": 0, "fusion_lat": 0.0, "lat": 38.8756055, "is_reserved": 0}, {"lon": -77.01948516666667, "fusion_lon": 0.0, "bike_id": "c863eb46f601de2ad721e4bf4919ef36", "type": "electric_scooter", "name": "c863eb46f601de2ad721e4bf4919ef36", "rental_uris": {"android": "https://dc.lft.to/lastmile_qr_scan", "ios": "https://dc.lft.to/lastmile_qr_scan"}, "is_disabled": 0, "fusion_lat": 0.0, "lat": 38.924178833333336, "is_reserved": 0}, {"lon": -77.025124, "fusion_lon": 0.0, "bike_id": "3981c3e47296fb1b0800c2466295b770", "type": "electric_scooter", "name": "3981c3e47296fb1b0800c2466295b770", "rental_uris": {"android": "https://dc.lft.to/lastmile_qr_scan", "ios": "https://dc.lft.to/lastmile_qr_scan"}, "is_disabled": 0, "fusion_lat": 0.0, "lat": 38.91953683333333, "is_reserved": 0}, {"lon": -77.00056416666666, "fusion_lon": 0.0, "bike_id": "bc4ad5629b9b911244655011d9b06ed3", "type": "electric_scooter", "name": "bc4ad5629b9b911244655011d9b06ed3", "rental_uris": {"android": "https://dc.lft.to/lastmile_qr_scan", "ios": "https://dc.lft.to/lastmile_qr_scan"}, "is_disabled": 0, "fusion_lat": 0.0, "lat": 38.89436333333333, "is_reserved": 0}, {"lon": -77.02099366666667, "fusion_lon": 0.0, "bike_id": "e2dea25d63a5ec41b8a2d45d4586ef48", "type": "electric_scooter", "name": "e2dea25d63a5ec41b8a2d45d4586ef48", "rental_uris": {"android": "https://dc.lft.to/lastmile_qr_scan", "ios": "https://dc.lft.to/lastmile_qr_scan"}, "is_disabled": 0, "fusion_lat": 0.0, "lat": 38.911719, "is_reserved": 0}, {"lon": -76.97170466666667, "fusion_lon": 0.0, "bike_id": "c2d97b3951e1897a38e28d1db716ec5d", "type": "electric_scooter", "name": "c2d97b3951e1897a38e28d1db716ec5d", "rental_uris": {"android": "https://dc.lft.to/lastmile_qr_scan", "ios": "https://dc.lft.to/lastmile_qr_scan"}, "is_disabled": 0, "fusion_lat": 0.0, "lat": 38.878177666666666, "is_reserved": 0}, {"lon": -77.03763616666667, "fusion_lon": 0.0, "bike_id": "99035a99c52d0b19eefffae3a5635172", "type": "electric_bike", "name": "99035a99c52d0b19eefffae3a5635172", "rental_uris": {"android": "https://dc.lft.to/lastmile_qr_scan", "ios": "https://dc.lft.to/lastmile_qr_scan"}, "is_disabled": 0, "fusion_lat": 0.0, "lat": 38.916957333333336, "is_reserved": 0}, {"lon": -77.02809983333333, "fusion_lon": 0.0, "bike_id": "f54721e7363db3ea585eef6311086344", "type": "electric_scooter", "name": "f54721e7363db3ea585eef6311086344", "rental_uris": {"android": "https://dc.lft.to/lastmile_qr_scan", "ios": "https://dc.lft.to/lastmile_qr_scan"}, "is_disabled": 0, "fusion_lat": 0.0, "lat": 38.930812833333334, "is_reserved": 0}, {"lon": -77.03212, "fusion_lon": 0.0, "bike_id": "d99db773b0f74618a8b10d5ead837932", "type": "electric_scooter", "name": "d99db773b0f74618a8b10d5ead837932", "rental_uris": {"android": "https://dc.lft.to/lastmile_qr_scan", "ios": "https://dc.lft.to/lastmile_qr_scan"}, "is_disabled": 0, "fusion_lat": 0.0, "lat": 38.901110833333334, "is_reserved": 0}, {"lon": -77.03322016666667, "fusion_lon": 0.0, "bike_id": "9f49880b24c47492990cd7d9f28bf3b8", "type": "electric_scooter", "name": "9f49880b24c47492990cd7d9f28bf3b8", "rental_uris": {"android": "https://dc.lft.to/lastmile_qr_scan", "ios": "https://dc.lft.to/lastmile_qr_scan"}, "is_disabled": 0, "fusion_lat": 0.0, "lat": 38.898102, "is_reserved": 0}, {"lon": -76.98566683333334, "fusion_lon": 0.0, "bike_id": "15d415e43fc10386119cea0afe7e17b5", "type": "electric_scooter", "name": "15d415e43fc10386119cea0afe7e17b5", "rental_uris": {"android": "https://dc.lft.to/lastmile_qr_scan", "ios": "https://dc.lft.to/lastmile_qr_scan"}, "is_disabled": 0, "fusion_lat": 0.0, "lat": 38.8668005, "is_reserved": 0}, {"lon": -77.02062083333334, "fusion_lon": 0.0, "bike_id": "86cc1290fa4a68625b0ce694b0ca0c6b", "type": "electric_bike", "name": "86cc1290fa4a68625b0ce694b0ca0c6b", "rental_uris": {"android": "https://dc.lft.to/lastmile_qr_scan", "ios": "https://dc.lft.to/lastmile_qr_scan"}, "is_disabled": 0, "fusion_lat": 0.0, "lat": 38.9329905, "is_reserved": 0}, {"lon": -76.93733866666666, "fusion_lon": 0.0, "bike_id": "fbd88e58ca7e17938641ceaff6273b79", "type": "electric_scooter", "name": "fbd88e58ca7e17938641ceaff6273b79", "rental_uris": {"android": "https://dc.lft.to/lastmile_qr_scan", "ios": "https://dc.lft.to/lastmile_qr_scan"}, "is_disabled": 0, "fusion_lat": 0.0, "lat": 38.89014183333333, "is_reserved": 0}, {"lon": -76.98194783333334, "fusion_lon": 0.0, "bike_id": "5526db83d3a8131f8a2dd9243c9d0498", "type": "electric_scooter", "name": "5526db83d3a8131f8a2dd9243c9d0498", "rental_uris": {"android": "https://dc.lft.to/lastmile_qr_scan", "ios": "https://dc.lft.to/lastmile_qr_scan"}, "is_disabled": 0, "fusion_lat": 0.0, "lat": 38.92059166666667, "is_reserved": 0}, {"lon": -76.99372766666667, "fusion_lon": 0.0, "bike_id": "f6eba0c90900b47d7c1a2677fbe2a0bd", "type": "electric_bike", "name": "f6eba0c90900b47d7c1a2677fbe2a0bd", "rental_uris": {"android": "https://dc.lft.to/lastmile_qr_scan", "ios": "https://dc.lft.to/lastmile_qr_scan"}, "is_disabled": 0, "fusion_lat": 0.0, "lat": 38.99096383333333, "is_reserved": 0}, {"lon": -77.01553, "fusion_lon": 0.0, "bike_id": "ef79e7dce6cde0ca9e3f7f19efcdc190", "type": "electric_scooter", "name": "ef79e7dce6cde0ca9e3f7f19efcdc190", "rental_uris": {"android": "https://dc.lft.to/lastmile_qr_scan", "ios": "https://dc.lft.to/lastmile_qr_scan"}, "is_disabled": 0, "fusion_lat": 0.0, "lat": 38.916003, "is_reserved": 0}, {"lon": -77.02031, "fusion_lon": 0.0, "bike_id": "9d95b7e271e27894ea265a9913f05fda", "type": "electric_scooter", "name": "9d95b7e271e27894ea265a9913f05fda", "rental_uris": {"android": "https://dc.lft.to/lastmile_qr_scan", "ios": "https://dc.lft.to/lastmile_qr_scan"}, "is_disabled": 0, "fusion_lat": 0.0, "lat": 38.90158983333333, "is_reserved": 0}, {"lon": -77.0237175, "fusion_lon": 0.0, "bike_id": "5548d3ef79e75da7a86071909d5896ea", "type": "electric_scooter", "name": "5548d3ef79e75da7a86071909d5896ea", "rental_uris": {"android": "https://dc.lft.to/lastmile_qr_scan", "ios": "https://dc.lft.to/lastmile_qr_scan"}, "is_disabled": 0, "fusion_lat": 0.0, "lat": 38.90686766666666, "is_reserved": 0}, {"lon": -77.0445755, "fusion_lon": 0.0, "bike_id": "48caa98ee1651a804fff41394bf35f72", "type": "electric_bike", "name": "48caa98ee1651a804fff41394bf35f72", "rental_uris": {"android": "https://dc.lft.to/lastmile_qr_scan", "ios": "https://dc.lft.to/lastmile_qr_scan"}, "is_disabled": 0, "fusion_lat": 0.0, "lat": 38.91546833333334, "is_reserved": 0}, {"lon": -76.929066, "fusion_lon": 0.0, "bike_id": "fb8abb3db579b78a4ae05e2a87466572", "type": "electric_scooter", "name": "fb8abb3db579b78a4ae05e2a87466572", "rental_uris": {"android": "https://dc.lft.to/lastmile_qr_scan", "ios": "https://dc.lft.to/lastmile_qr_scan"}, "is_disabled": 0, "fusion_lat": 0.0, "lat": 38.90184766666667, "is_reserved": 0}, {"lon": -76.948275, "fusion_lon": 0.0, "bike_id": "a445be179dd5f0b9e47f454892a6bd2b", "type": "electric_scooter", "name": "a445be179dd5f0b9e47f454892a6bd2b", "rental_uris": {"android": "https://dc.lft.to/lastmile_qr_scan", "ios": "https://dc.lft.to/lastmile_qr_scan"}, "is_disabled": 0, "fusion_lat": 0.0, "lat": 38.88411, "is_reserved": 0}, {"lon": -77.029866, "fusion_lon": 0.0, "bike_id": "02ab70bd137cf02a0a6439fc408dd98f", "type": "electric_scooter", "name": "02ab70bd137cf02a0a6439fc408dd98f", "rental_uris": {"android": "https://dc.lft.to/lastmile_qr_scan", "ios": "https://dc.lft.to/lastmile_qr_scan"}, "is_disabled": 0, "fusion_lat": 0.0, "lat": 38.89756333333333, "is_reserved": 0}, {"lon": -77.023842, "fusion_lon": 0.0, "bike_id": "85fe5987e7a27a700e38d9e90103d8a0", "type": "electric_scooter", "name": "85fe5987e7a27a700e38d9e90103d8a0", "rental_uris": {"android": "https://dc.lft.to/lastmile_qr_scan", "ios": "https://dc.lft.to/lastmile_qr_scan"}, "is_disabled": 0, "fusion_lat": 0.0, "lat": 38.89197433333333, "is_reserved": 0}, {"lon": -77.01437933333334, "fusion_lon": 0.0, "bike_id": "72922661ff61402ab860a6d080503998", "type": "electric_scooter", "name": "72922661ff61402ab860a6d080503998", "rental_uris": {"android": "https://dc.lft.to/lastmile_qr_scan", "ios": "https://dc.lft.to/lastmile_qr_scan"}, "is_disabled": 0, "fusion_lat": 0.0, "lat": 38.919579666666664, "is_reserved": 0}, {"lon": -77.02953633333334, "fusion_lon": 0.0, "bike_id": "6accab8f7a898e7c7bfc4c3007901cb6", "type": "electric_scooter", "name": "6accab8f7a898e7c7bfc4c3007901cb6", "rental_uris": {"android": "https://dc.lft.to/lastmile_qr_scan", "ios": "https://dc.lft.to/lastmile_qr_scan"}, "is_disabled": 0, "fusion_lat": 0.0, "lat": 38.907348, "is_reserved": 0}, {"lon": -77.03663766666666, "fusion_lon": 0.0, "bike_id": "465ce3393798a540a853303ee407a32d", "type": "electric_scooter", "name": "465ce3393798a540a853303ee407a32d", "rental_uris": {"android": "https://dc.lft.to/lastmile_qr_scan", "ios": "https://dc.lft.to/lastmile_qr_scan"}, "is_disabled": 0, "fusion_lat": 0.0, "lat": 38.9298405, "is_reserved": 0}, {"lon": -77.04290566666667, "fusion_lon": 0.0, "bike_id": "92960bffc9f457055909c0c04049d297", "type": "electric_bike", "name": "92960bffc9f457055909c0c04049d297", "rental_uris": {"android": "https://dc.lft.to/lastmile_qr_scan", "ios": "https://dc.lft.to/lastmile_qr_scan"}, "is_disabled": 0, "fusion_lat": 0.0, "lat": 38.8309555, "is_reserved": 0}, {"lon": -77.02758483333334, "fusion_lon": 0.0, "bike_id": "508a759a83dd8b83dd7bb8c94dc0ec57", "type": "electric_scooter", "name": "508a759a83dd8b83dd7bb8c94dc0ec57", "rental_uris": {"android": "https://dc.lft.to/lastmile_qr_scan", "ios": "https://dc.lft.to/lastmile_qr_scan"}, "is_disabled": 0, "fusion_lat": 0.0, "lat": 38.93460283333334, "is_reserved": 0}, {"lon": -77.00220166666666, "fusion_lon": 0.0, "bike_id": "3e275e981b3c9359b83bbc963600cc03", "type": "electric_scooter", "name": "3e275e981b3c9359b83bbc963600cc03", "rental_uris": {"android": "https://dc.lft.to/lastmile_qr_scan", "ios": "https://dc.lft.to/lastmile_qr_scan"}, "is_disabled": 0, "fusion_lat": 0.0, "lat": 38.908635, "is_reserved": 0}, {"lon": -77.02608033333334, "fusion_lon": 0.0, "bike_id": "b0555dc1cb081754d213b98955ce3fe9", "type": "electric_scooter", "name": "b0555dc1cb081754d213b98955ce3fe9", "rental_uris": {"android": "https://dc.lft.to/lastmile_qr_scan", "ios": "https://dc.lft.to/lastmile_qr_scan"}, "is_disabled": 0, "fusion_lat": 0.0, "lat": 38.91718616666667, "is_reserved": 0}, {"lon": -77.02287316666667, "fusion_lon": 0.0, "bike_id": "b415db721d2603f4e631dd4cdb304459", "type": "electric_scooter", "name": "b415db721d2603f4e631dd4cdb304459", "rental_uris": {"android": "https://dc.lft.to/lastmile_qr_scan", "ios": "https://dc.lft.to/lastmile_qr_scan"}, "is_disabled": 0, "fusion_lat": 0.0, "lat": 38.90168283333333, "is_reserved": 0}, {"lon": -77.01356316666667, "fusion_lon": 0.0, "bike_id": "b5dd8747ec8734399296712f357c23fc", "type": "electric_scooter", "name": "b5dd8747ec8734399296712f357c23fc", "rental_uris": {"android": "https://dc.lft.to/lastmile_qr_scan", "ios": "https://dc.lft.to/lastmile_qr_scan"}, "is_disabled": 0, "fusion_lat": 0.0, "lat": 38.919120666666664, "is_reserved": 0}, {"lon": -77.01227833333333, "fusion_lon": 0.0, "bike_id": "9b2f2bf8356b82561c7b4983c4548c57", "type": "electric_scooter", "name": "9b2f2bf8356b82561c7b4983c4548c57", "rental_uris": {"android": "https://dc.lft.to/lastmile_qr_scan", "ios": "https://dc.lft.to/lastmile_qr_scan"}, "is_disabled": 0, "fusion_lat": 0.0, "lat": 38.91402166666666, "is_reserved": 0}, {"lon": -77.04669666666666, "fusion_lon": 0.0, "bike_id": "2c2ec2df0f6d45ba301e376edc1da125", "type": "electric_scooter", "name": "2c2ec2df0f6d45ba301e376edc1da125", "rental_uris": {"android": "https://dc.lft.to/lastmile_qr_scan", "ios": "https://dc.lft.to/lastmile_qr_scan"}, "is_disabled": 0, "fusion_lat": 0.0, "lat": 38.91415, "is_reserved": 0}, {"lon": -77.04466966666666, "fusion_lon": 0.0, "bike_id": "908b6d183f36b7de0cf45ae267f4acd5", "type": "electric_scooter", "name": "908b6d183f36b7de0cf45ae267f4acd5", "rental_uris": {"android": "https://dc.lft.to/lastmile_qr_scan", "ios": "https://dc.lft.to/lastmile_qr_scan"}, "is_disabled": 0, "fusion_lat": 0.0, "lat": 38.909119, "is_reserved": 0}, {"lon": -77.022408, "fusion_lon": 0.0, "bike_id": "016a0c007ce64ca1a15672fb7ada0594", "type": "electric_scooter", "name": "016a0c007ce64ca1a15672fb7ada0594", "rental_uris": {"android": "https://dc.lft.to/lastmile_qr_scan", "ios": "https://dc.lft.to/lastmile_qr_scan"}, "is_disabled": 0, "fusion_lat": 0.0, "lat": 38.8919405, "is_reserved": 0}, {"lon": -76.98503816666667, "fusion_lon": 0.0, "bike_id": "03d3dc73e0c60720b8d76317a7dcb378", "type": "electric_scooter", "name": "03d3dc73e0c60720b8d76317a7dcb378", "rental_uris": {"android": "https://dc.lft.to/lastmile_qr_scan", "ios": "https://dc.lft.to/lastmile_qr_scan"}, "is_disabled": 0, "fusion_lat": 0.0, "lat": 38.91330166666667, "is_reserved": 0}, {"lon": -77.00800166666667, "fusion_lon": 0.0, "bike_id": "b24692557c7e7c00f5a70d074e4cadcf", "type": "electric_scooter", "name": "b24692557c7e7c00f5a70d074e4cadcf", "rental_uris": {"android": "https://dc.lft.to/lastmile_qr_scan", "ios": "https://dc.lft.to/lastmile_qr_scan"}, "is_disabled": 0, "fusion_lat": 0.0, "lat": 38.9156115, "is_reserved": 0}, {"lon": -77.02655666666666, "fusion_lon": 0.0, "bike_id": "90da869711d85efea6db3e798bea37f6", "type": "electric_scooter", "name": "90da869711d85efea6db3e798bea37f6", "rental_uris": {"android": "https://dc.lft.to/lastmile_qr_scan", "ios": "https://dc.lft.to/lastmile_qr_scan"}, "is_disabled": 0, "fusion_lat": 0.0, "lat": 38.881006, "is_reserved": 0}, {"lon": -77.0248615, "fusion_lon": 0.0, "bike_id": "5cebc4272ac81f8dcca0d786adb9b02f", "type": "electric_scooter", "name": "5cebc4272ac81f8dcca0d786adb9b02f", "rental_uris": {"android": "https://dc.lft.to/lastmile_qr_scan", "ios": "https://dc.lft.to/lastmile_qr_scan"}, "is_disabled": 0, "fusion_lat": 0.0, "lat": 38.93882583333333, "is_reserved": 0}, {"lon": -77.035036, "fusion_lon": 0.0, "bike_id": "aad9a0866f8c27919cf56f8823fb3112", "type": "electric_scooter", "name": "aad9a0866f8c27919cf56f8823fb3112", "rental_uris": {"android": "https://dc.lft.to/lastmile_qr_scan", "ios": "https://dc.lft.to/lastmile_qr_scan"}, "is_disabled": 0, "fusion_lat": 0.0, "lat": 38.9315955, "is_reserved": 0}, {"lon": -76.995543, "fusion_lon": 0.0, "bike_id": "ac6ddd2772d6e0974a9e99db214f0b89", "type": "electric_scooter", "name": "ac6ddd2772d6e0974a9e99db214f0b89", "rental_uris": {"android": "https://dc.lft.to/lastmile_qr_scan", "ios": "https://dc.lft.to/lastmile_qr_scan"}, "is_disabled": 0, "fusion_lat": 0.0, "lat": 38.8842245, "is_reserved": 0}, {"lon": -77.02490083333333, "fusion_lon": 0.0, "bike_id": "03f4bebf2e66bbe51e4ebf25856d9de9", "type": "electric_scooter", "name": "03f4bebf2e66bbe51e4ebf25856d9de9", "rental_uris": {"android": "https://dc.lft.to/lastmile_qr_scan", "ios": "https://dc.lft.to/lastmile_qr_scan"}, "is_disabled": 0, "fusion_lat": 0.0, "lat": 38.919196, "is_reserved": 0}, {"lon": -76.99819983333333, "fusion_lon": 0.0, "bike_id": "d7d3987b254851dd9fc8f533d15059aa", "type": "electric_scooter", "name": "d7d3987b254851dd9fc8f533d15059aa", "rental_uris": {"android": "https://dc.lft.to/lastmile_qr_scan", "ios": "https://dc.lft.to/lastmile_qr_scan"}, "is_disabled": 0, "fusion_lat": 0.0, "lat": 38.90720066666667, "is_reserved": 0}, {"lon": -77.03859133333333, "fusion_lon": 0.0, "bike_id": "0789782dc5b053c67bf495c51fd797fc", "type": "electric_scooter", "name": "0789782dc5b053c67bf495c51fd797fc", "rental_uris": {"android": "https://dc.lft.to/lastmile_qr_scan", "ios": "https://dc.lft.to/lastmile_qr_scan"}, "is_disabled": 0, "fusion_lat": 0.0, "lat": 38.915512166666666, "is_reserved": 0}, {"lon": -76.97058316666667, "fusion_lon": 0.0, "bike_id": "ad07365ad9d6acd864c5e12a9b9b99e4", "type": "electric_bike", "name": "ad07365ad9d6acd864c5e12a9b9b99e4", "rental_uris": {"android": "https://dc.lft.to/lastmile_qr_scan", "ios": "https://dc.lft.to/lastmile_qr_scan"}, "is_disabled": 0, "fusion_lat": 0.0, "lat": 38.9845935, "is_reserved": 0}, {"lon": -77.03890683333333, "fusion_lon": 0.0, "bike_id": "29cd9d0fe2d6e8a8cc862664b51fd07f", "type": "electric_scooter", "name": "29cd9d0fe2d6e8a8cc862664b51fd07f", "rental_uris": {"android": "https://dc.lft.to/lastmile_qr_scan", "ios": "https://dc.lft.to/lastmile_qr_scan"}, "is_disabled": 0, "fusion_lat": 0.0, "lat": 38.92253983333333, "is_reserved": 0}, {"lon": -77.036688, "fusion_lon": 0.0, "bike_id": "7a50cf27efaed7dff0a108b55067c152", "type": "electric_scooter", "name": "7a50cf27efaed7dff0a108b55067c152", "rental_uris": {"android": "https://dc.lft.to/lastmile_qr_scan", "ios": "https://dc.lft.to/lastmile_qr_scan"}, "is_disabled": 0, "fusion_lat": 0.0, "lat": 38.9100445, "is_reserved": 0}, {"lon": -76.98621933333334, "fusion_lon": 0.0, "bike_id": "bd705613e2e18e0e1b5fdb22b99cd888", "type": "electric_scooter", "name": "bd705613e2e18e0e1b5fdb22b99cd888", "rental_uris": {"android": "https://dc.lft.to/lastmile_qr_scan", "ios": "https://dc.lft.to/lastmile_qr_scan"}, "is_disabled": 0, "fusion_lat": 0.0, "lat": 38.93287383333333, "is_reserved": 0}, {"lon": -77.0854035, "fusion_lon": 0.0, "bike_id": "23c3d3cd1a2181f00ed7caca39c78c17", "type": "electric_scooter", "name": "23c3d3cd1a2181f00ed7caca39c78c17", "rental_uris": {"android": "https://dc.lft.to/lastmile_qr_scan", "ios": "https://dc.lft.to/lastmile_qr_scan"}, "is_disabled": 0, "fusion_lat": 0.0, "lat": 38.9160855, "is_reserved": 0}, {"lon": -77.03804683333334, "fusion_lon": 0.0, "bike_id": "3675e22de959acfa90b514c365d2fc84", "type": "electric_scooter", "name": "3675e22de959acfa90b514c365d2fc84", "rental_uris": {"android": "https://dc.lft.to/lastmile_qr_scan", "ios": "https://dc.lft.to/lastmile_qr_scan"}, "is_disabled": 0, "fusion_lat": 0.0, "lat": 38.902505, "is_reserved": 0}, {"lon": -77.03245083333333, "fusion_lon": 0.0, "bike_id": "6c368c7534fe42161e1e5b195e4b8b23", "type": "electric_scooter", "name": "6c368c7534fe42161e1e5b195e4b8b23", "rental_uris": {"android": "https://dc.lft.to/lastmile_qr_scan", "ios": "https://dc.lft.to/lastmile_qr_scan"}, "is_disabled": 0, "fusion_lat": 0.0, "lat": 38.90131616666667, "is_reserved": 0}, {"lon": -76.97343183333334, "fusion_lon": 0.0, "bike_id": "042124bec208a0f04d0856222bd3801a", "type": "electric_bike", "name": "042124bec208a0f04d0856222bd3801a", "rental_uris": {"android": "https://dc.lft.to/lastmile_qr_scan", "ios": "https://dc.lft.to/lastmile_qr_scan"}, "is_disabled": 0, "fusion_lat": 0.0, "lat": 38.89727966666667, "is_reserved": 0}, {"lon": -77.0123485, "fusion_lon": 0.0, "bike_id": "31b4bd818c0369b28675bfcf17092158", "type": "electric_scooter", "name": "31b4bd818c0369b28675bfcf17092158", "rental_uris": {"android": "https://dc.lft.to/lastmile_qr_scan", "ios": "https://dc.lft.to/lastmile_qr_scan"}, "is_disabled": 0, "fusion_lat": 0.0, "lat": 38.8721395, "is_reserved": 0}, {"lon": -77.0589305, "fusion_lon": 0.0, "bike_id": "b5e4b28c332247627fc22130366c3339", "type": "electric_scooter", "name": "b5e4b28c332247627fc22130366c3339", "rental_uris": {"android": "https://dc.lft.to/lastmile_qr_scan", "ios": "https://dc.lft.to/lastmile_qr_scan"}, "is_disabled": 0, "fusion_lat": 0.0, "lat": 38.902677833333335, "is_reserved": 0}, {"lon": -77.02840683333334, "fusion_lon": 0.0, "bike_id": "e03acb7e3b1eb14d522a49f9b0bc3560", "type": "electric_scooter", "name": "e03acb7e3b1eb14d522a49f9b0bc3560", "rental_uris": {"android": "https://dc.lft.to/lastmile_qr_scan", "ios": "https://dc.lft.to/lastmile_qr_scan"}, "is_disabled": 0, "fusion_lat": 0.0, "lat": 38.893734333333335, "is_reserved": 0}, {"lon": -77.0145865, "fusion_lon": 0.0, "bike_id": "63c60191e20b8fd5bc9756d1b62f7f5e", "type": "electric_scooter", "name": "63c60191e20b8fd5bc9756d1b62f7f5e", "rental_uris": {"android": "https://dc.lft.to/lastmile_qr_scan", "ios": "https://dc.lft.to/lastmile_qr_scan"}, "is_disabled": 0, "fusion_lat": 0.0, "lat": 38.91587616666666, "is_reserved": 0}, {"lon": -77.001984, "fusion_lon": 0.0, "bike_id": "954d8553ae0283e899c4a5f4235f8e7b", "type": "electric_scooter", "name": "954d8553ae0283e899c4a5f4235f8e7b", "rental_uris": {"android": "https://dc.lft.to/lastmile_qr_scan", "ios": "https://dc.lft.to/lastmile_qr_scan"}, "is_disabled": 0, "fusion_lat": 0.0, "lat": 38.9023855, "is_reserved": 0}, {"lon": -77.03204166666667, "fusion_lon": 0.0, "bike_id": "37e13276a030391e9adb7a023b4e9bb4", "type": "electric_scooter", "name": "37e13276a030391e9adb7a023b4e9bb4", "rental_uris": {"android": "https://dc.lft.to/lastmile_qr_scan", "ios": "https://dc.lft.to/lastmile_qr_scan"}, "is_disabled": 0, "fusion_lat": 0.0, "lat": 38.918571666666665, "is_reserved": 0}, {"lon": -77.02226583333334, "fusion_lon": 0.0, "bike_id": "1adf988446a60b9224400c17f2007264", "type": "electric_scooter", "name": "1adf988446a60b9224400c17f2007264", "rental_uris": {"android": "https://dc.lft.to/lastmile_qr_scan", "ios": "https://dc.lft.to/lastmile_qr_scan"}, "is_disabled": 0, "fusion_lat": 0.0, "lat": 38.892222833333335, "is_reserved": 0}, {"lon": -77.039157, "fusion_lon": 0.0, "bike_id": "2593a30f3d152343a58e2fc0559bd0b5", "type": "electric_scooter", "name": "2593a30f3d152343a58e2fc0559bd0b5", "rental_uris": {"android": "https://dc.lft.to/lastmile_qr_scan", "ios": "https://dc.lft.to/lastmile_qr_scan"}, "is_disabled": 0, "fusion_lat": 0.0, "lat": 38.912669666666666, "is_reserved": 0}, {"lon": -77.0384305, "fusion_lon": 0.0, "bike_id": "acde0d336aa349f205a718afa4c4c9af", "type": "electric_scooter", "name": "acde0d336aa349f205a718afa4c4c9af", "rental_uris": {"android": "https://dc.lft.to/lastmile_qr_scan", "ios": "https://dc.lft.to/lastmile_qr_scan"}, "is_disabled": 0, "fusion_lat": 0.0, "lat": 38.94189983333333, "is_reserved": 0}, {"lon": -76.99819016666666, "fusion_lon": 0.0, "bike_id": "39e95ea03a117bcddc3c853bab7e7129", "type": "electric_bike", "name": "39e95ea03a117bcddc3c853bab7e7129", "rental_uris": {"android": "https://dc.lft.to/lastmile_qr_scan", "ios": "https://dc.lft.to/lastmile_qr_scan"}, "is_disabled": 0, "fusion_lat": 0.0, "lat": 38.9240025, "is_reserved": 0}, {"lon": -77.00016066666667, "fusion_lon": 0.0, "bike_id": "9f7fbed1c19882b58f2fe351d7fa3165", "type": "electric_scooter", "name": "9f7fbed1c19882b58f2fe351d7fa3165", "rental_uris": {"android": "https://dc.lft.to/lastmile_qr_scan", "ios": "https://dc.lft.to/lastmile_qr_scan"}, "is_disabled": 0, "fusion_lat": 0.0, "lat": 38.906745, "is_reserved": 0}, {"lon": -77.04713683333334, "fusion_lon": 0.0, "bike_id": "48334b09756cf89f093b74cc49c81487", "type": "electric_scooter", "name": "48334b09756cf89f093b74cc49c81487", "rental_uris": {"android": "https://dc.lft.to/lastmile_qr_scan", "ios": "https://dc.lft.to/lastmile_qr_scan"}, "is_disabled": 0, "fusion_lat": 0.0, "lat": 38.92185683333334, "is_reserved": 0}, {"lon": -77.02977666666666, "fusion_lon": 0.0, "bike_id": "0f50cb9ac6992c0d9cd705786a0a4937", "type": "electric_scooter", "name": "0f50cb9ac6992c0d9cd705786a0a4937", "rental_uris": {"android": "https://dc.lft.to/lastmile_qr_scan", "ios": "https://dc.lft.to/lastmile_qr_scan"}, "is_disabled": 0, "fusion_lat": 0.0, "lat": 38.890388333333334, "is_reserved": 0}, {"lon": -77.005927, "fusion_lon": 0.0, "bike_id": "7ecb0d79a85f2939e24647b5550f1c7a", "type": "electric_scooter", "name": "7ecb0d79a85f2939e24647b5550f1c7a", "rental_uris": {"android": "https://dc.lft.to/lastmile_qr_scan", "ios": "https://dc.lft.to/lastmile_qr_scan"}, "is_disabled": 0, "fusion_lat": 0.0, "lat": 38.876568166666665, "is_reserved": 0}, {"lon": -77.04358033333334, "fusion_lon": 0.0, "bike_id": "feab2a3035c606801a78375b5f8c9566", "type": "electric_scooter", "name": "feab2a3035c606801a78375b5f8c9566", "rental_uris": {"android": "https://dc.lft.to/lastmile_qr_scan", "ios": "https://dc.lft.to/lastmile_qr_scan"}, "is_disabled": 0, "fusion_lat": 0.0, "lat": 38.9076615, "is_reserved": 0}, {"lon": -77.03250833333334, "fusion_lon": 0.0, "bike_id": "ca9153f6e8e2ebf99231f16ffa55995b", "type": "electric_scooter", "name": "ca9153f6e8e2ebf99231f16ffa55995b", "rental_uris": {"android": "https://dc.lft.to/lastmile_qr_scan", "ios": "https://dc.lft.to/lastmile_qr_scan"}, "is_disabled": 0, "fusion_lat": 0.0, "lat": 38.905512, "is_reserved": 0}, {"lon": -77.01758783333334, "fusion_lon": 0.0, "bike_id": "1805b1eeb64d167c1b46f689aaaef378", "type": "electric_scooter", "name": "1805b1eeb64d167c1b46f689aaaef378", "rental_uris": {"android": "https://dc.lft.to/lastmile_qr_scan", "ios": "https://dc.lft.to/lastmile_qr_scan"}, "is_disabled": 0, "fusion_lat": 0.0, "lat": 38.90257233333333, "is_reserved": 0}, {"lon": -77.02481683333333, "fusion_lon": 0.0, "bike_id": "c2929e74e65acf1a9e8411599b9b8e20", "type": "electric_scooter", "name": "c2929e74e65acf1a9e8411599b9b8e20", "rental_uris": {"android": "https://dc.lft.to/lastmile_qr_scan", "ios": "https://dc.lft.to/lastmile_qr_scan"}, "is_disabled": 0, "fusion_lat": 0.0, "lat": 38.93879783333333, "is_reserved": 0}, {"lon": -76.995385, "fusion_lon": 0.0, "bike_id": "5fce4c2d144e5837fec85a36a1cc199d", "type": "electric_scooter", "name": "5fce4c2d144e5837fec85a36a1cc199d", "rental_uris": {"android": "https://dc.lft.to/lastmile_qr_scan", "ios": "https://dc.lft.to/lastmile_qr_scan"}, "is_disabled": 0, "fusion_lat": 0.0, "lat": 38.9337895, "is_reserved": 0}, {"lon": -76.99947533333334, "fusion_lon": 0.0, "bike_id": "68923c39ff9947fa648f469293aaf8b2", "type": "electric_scooter", "name": "68923c39ff9947fa648f469293aaf8b2", "rental_uris": {"android": "https://dc.lft.to/lastmile_qr_scan", "ios": "https://dc.lft.to/lastmile_qr_scan"}, "is_disabled": 0, "fusion_lat": 0.0, "lat": 38.842917666666665, "is_reserved": 0}, {"lon": -76.9740895, "fusion_lon": 0.0, "bike_id": "3fb12bd741edf7c999de0bbb2f1f2e08", "type": "electric_bike", "name": "3fb12bd741edf7c999de0bbb2f1f2e08", "rental_uris": {"android": "https://dc.lft.to/lastmile_qr_scan", "ios": "https://dc.lft.to/lastmile_qr_scan"}, "is_disabled": 0, "fusion_lat": 0.0, "lat": 38.902050833333334, "is_reserved": 0}, {"lon": -77.02423916666666, "fusion_lon": 0.0, "bike_id": "d9c17575c68e37729201251da0bb322b", "type": "electric_scooter", "name": "d9c17575c68e37729201251da0bb322b", "rental_uris": {"android": "https://dc.lft.to/lastmile_qr_scan", "ios": "https://dc.lft.to/lastmile_qr_scan"}, "is_disabled": 0, "fusion_lat": 0.0, "lat": 38.87990666666666, "is_reserved": 0}, {"lon": -76.98426683333334, "fusion_lon": 0.0, "bike_id": "f3d494521b4c0c3fd5da4aeaadec3430", "type": "electric_bike", "name": "f3d494521b4c0c3fd5da4aeaadec3430", "rental_uris": {"android": "https://dc.lft.to/lastmile_qr_scan", "ios": "https://dc.lft.to/lastmile_qr_scan"}, "is_disabled": 0, "fusion_lat": 0.0, "lat": 38.92639166666667, "is_reserved": 0}, {"lon": -76.95509566666667, "fusion_lon": 0.0, "bike_id": "b42cf38232052b6e29df16bf074fab9d", "type": "electric_bike", "name": "b42cf38232052b6e29df16bf074fab9d", "rental_uris": {"android": "https://dc.lft.to/lastmile_qr_scan", "ios": "https://dc.lft.to/lastmile_qr_scan"}, "is_disabled": 0, "fusion_lat": 0.0, "lat": 38.9391755, "is_reserved": 0}, {"lon": -77.02375716666667, "fusion_lon": 0.0, "bike_id": "c2b8afa0361ea7bf970ac3d14afac2ec", "type": "electric_scooter", "name": "c2b8afa0361ea7bf970ac3d14afac2ec", "rental_uris": {"android": "https://dc.lft.to/lastmile_qr_scan", "ios": "https://dc.lft.to/lastmile_qr_scan"}, "is_disabled": 0, "fusion_lat": 0.0, "lat": 38.919138833333335, "is_reserved": 0}, {"lon": -77.04254983333334, "fusion_lon": 0.0, "bike_id": "8e216a39b562d319a8351506ff1432f6", "type": "electric_scooter", "name": "8e216a39b562d319a8351506ff1432f6", "rental_uris": {"android": "https://dc.lft.to/lastmile_qr_scan", "ios": "https://dc.lft.to/lastmile_qr_scan"}, "is_disabled": 0, "fusion_lat": 0.0, "lat": 38.908684666666666, "is_reserved": 0}, {"lon": -77.03175433333334, "fusion_lon": 0.0, "bike_id": "5f04f38c54579ac16557f3700a0d7841", "type": "electric_scooter", "name": "5f04f38c54579ac16557f3700a0d7841", "rental_uris": {"android": "https://dc.lft.to/lastmile_qr_scan", "ios": "https://dc.lft.to/lastmile_qr_scan"}, "is_disabled": 0, "fusion_lat": 0.0, "lat": 38.91418916666667, "is_reserved": 0}, {"lon": -77.023634, "fusion_lon": 0.0, "bike_id": "acf55611dfac4c3bac7168705b1ce7f7", "type": "electric_scooter", "name": "acf55611dfac4c3bac7168705b1ce7f7", "rental_uris": {"android": "https://dc.lft.to/lastmile_qr_scan", "ios": "https://dc.lft.to/lastmile_qr_scan"}, "is_disabled": 0, "fusion_lat": 0.0, "lat": 38.93533983333333, "is_reserved": 0}, {"lon": -77.0006515, "fusion_lon": 0.0, "bike_id": "c2bc82a497a5e3f5b4705181f7b1015e", "type": "electric_scooter", "name": "c2bc82a497a5e3f5b4705181f7b1015e", "rental_uris": {"android": "https://dc.lft.to/lastmile_qr_scan", "ios": "https://dc.lft.to/lastmile_qr_scan"}, "is_disabled": 0, "fusion_lat": 0.0, "lat": 38.9254385, "is_reserved": 0}, {"lon": -77.0395755, "fusion_lon": 0.0, "bike_id": "e3265b4fd4190143a69d57f8b713d334", "type": "electric_scooter", "name": "e3265b4fd4190143a69d57f8b713d334", "rental_uris": {"android": "https://dc.lft.to/lastmile_qr_scan", "ios": "https://dc.lft.to/lastmile_qr_scan"}, "is_disabled": 0, "fusion_lat": 0.0, "lat": 38.917066, "is_reserved": 0}, {"lon": -77.03322633333333, "fusion_lon": 0.0, "bike_id": "9c0233fc194cb54e5f523e1124cb2d4f", "type": "electric_scooter", "name": "9c0233fc194cb54e5f523e1124cb2d4f", "rental_uris": {"android": "https://dc.lft.to/lastmile_qr_scan", "ios": "https://dc.lft.to/lastmile_qr_scan"}, "is_disabled": 0, "fusion_lat": 0.0, "lat": 38.8901005, "is_reserved": 0}, {"lon": -77.01668566666666, "fusion_lon": 0.0, "bike_id": "a033798046cfda701294faa3c1c27e0b", "type": "electric_scooter", "name": "a033798046cfda701294faa3c1c27e0b", "rental_uris": {"android": "https://dc.lft.to/lastmile_qr_scan", "ios": "https://dc.lft.to/lastmile_qr_scan"}, "is_disabled": 0, "fusion_lat": 0.0, "lat": 38.88110066666667, "is_reserved": 0}, {"lon": -77.03070666666666, "fusion_lon": 0.0, "bike_id": "e0551b06838a6ca53aecb77e300aad5f", "type": "electric_scooter", "name": "e0551b06838a6ca53aecb77e300aad5f", "rental_uris": {"android": "https://dc.lft.to/lastmile_qr_scan", "ios": "https://dc.lft.to/lastmile_qr_scan"}, "is_disabled": 0, "fusion_lat": 0.0, "lat": 38.92248333333333, "is_reserved": 0}, {"lon": -76.985437, "fusion_lon": 0.0, "bike_id": "a37b889eff79a6b29f3df8dcc25e9975", "type": "electric_scooter", "name": "a37b889eff79a6b29f3df8dcc25e9975", "rental_uris": {"android": "https://dc.lft.to/lastmile_qr_scan", "ios": "https://dc.lft.to/lastmile_qr_scan"}, "is_disabled": 0, "fusion_lat": 0.0, "lat": 38.86689766666667, "is_reserved": 0}, {"lon": -77.037363, "fusion_lon": 0.0, "bike_id": "b9b0aa335e649159ef4ed3eca1cbea7d", "type": "electric_scooter", "name": "b9b0aa335e649159ef4ed3eca1cbea7d", "rental_uris": {"android": "https://dc.lft.to/lastmile_qr_scan", "ios": "https://dc.lft.to/lastmile_qr_scan"}, "is_disabled": 0, "fusion_lat": 0.0, "lat": 38.9287655, "is_reserved": 0}, {"lon": -76.99698816666667, "fusion_lon": 0.0, "bike_id": "af37a00918ea7fd8f72b7f40889ad7f5", "type": "electric_scooter", "name": "af37a00918ea7fd8f72b7f40889ad7f5", "rental_uris": {"android": "https://dc.lft.to/lastmile_qr_scan", "ios": "https://dc.lft.to/lastmile_qr_scan"}, "is_disabled": 0, "fusion_lat": 0.0, "lat": 38.8842125, "is_reserved": 0}, {"lon": -76.99735066666666, "fusion_lon": 0.0, "bike_id": "f9c2422bb1e1cc6d82317f0696ace1d1", "type": "electric_scooter", "name": "f9c2422bb1e1cc6d82317f0696ace1d1", "rental_uris": {"android": "https://dc.lft.to/lastmile_qr_scan", "ios": "https://dc.lft.to/lastmile_qr_scan"}, "is_disabled": 0, "fusion_lat": 0.0, "lat": 38.8992965, "is_reserved": 0}, {"lon": -77.03181616666667, "fusion_lon": 0.0, "bike_id": "d92a7d6464ad39cb8f43155520396ee4", "type": "electric_scooter", "name": "d92a7d6464ad39cb8f43155520396ee4", "rental_uris": {"android": "https://dc.lft.to/lastmile_qr_scan", "ios": "https://dc.lft.to/lastmile_qr_scan"}, "is_disabled": 0, "fusion_lat": 0.0, "lat": 38.917880833333335, "is_reserved": 0}, {"lon": -76.9462945, "fusion_lon": 0.0, "bike_id": "bc0a5fbd1daa2cb7c6213375a93826ba", "type": "electric_scooter", "name": "bc0a5fbd1daa2cb7c6213375a93826ba", "rental_uris": {"android": "https://dc.lft.to/lastmile_qr_scan", "ios": "https://dc.lft.to/lastmile_qr_scan"}, "is_disabled": 0, "fusion_lat": 0.0, "lat": 38.898243666666666, "is_reserved": 0}, {"lon": -77.02179033333333, "fusion_lon": 0.0, "bike_id": "756619d67b21af43d50af94823b5990b", "type": "electric_scooter", "name": "756619d67b21af43d50af94823b5990b", "rental_uris": {"android": "https://dc.lft.to/lastmile_qr_scan", "ios": "https://dc.lft.to/lastmile_qr_scan"}, "is_disabled": 0, "fusion_lat": 0.0, "lat": 38.9429245, "is_reserved": 0}, {"lon": -77.1078855, "fusion_lon": 0.0, "bike_id": "5705fe2e3b24b06b93f68e01927cd1f7", "type": "electric_bike", "name": "5705fe2e3b24b06b93f68e01927cd1f7", "rental_uris": {"android": "https://dc.lft.to/lastmile_qr_scan", "ios": "https://dc.lft.to/lastmile_qr_scan"}, "is_disabled": 0, "fusion_lat": 0.0, "lat": 38.85246933333333, "is_reserved": 0}, {"lon": -77.0318025, "fusion_lon": 0.0, "bike_id": "31e7349b2b14ec3a6afadf172da1dfce", "type": "electric_scooter", "name": "31e7349b2b14ec3a6afadf172da1dfce", "rental_uris": {"android": "https://dc.lft.to/lastmile_qr_scan", "ios": "https://dc.lft.to/lastmile_qr_scan"}, "is_disabled": 0, "fusion_lat": 0.0, "lat": 38.91913433333333, "is_reserved": 0}, {"lon": -76.997666, "fusion_lon": 0.0, "bike_id": "c8260a348a1c304c8f8e88c4c862b4d2", "type": "electric_scooter", "name": "c8260a348a1c304c8f8e88c4c862b4d2", "rental_uris": {"android": "https://dc.lft.to/lastmile_qr_scan", "ios": "https://dc.lft.to/lastmile_qr_scan"}, "is_disabled": 0, "fusion_lat": 0.0, "lat": 38.90898766666667, "is_reserved": 0}, {"lon": -77.03880066666666, "fusion_lon": 0.0, "bike_id": "ad35e1aa966b272f55a6bc8a56ce0e29", "type": "electric_scooter", "name": "ad35e1aa966b272f55a6bc8a56ce0e29", "rental_uris": {"android": "https://dc.lft.to/lastmile_qr_scan", "ios": "https://dc.lft.to/lastmile_qr_scan"}, "is_disabled": 0, "fusion_lat": 0.0, "lat": 38.91467683333333, "is_reserved": 0}, {"lon": -77.03436533333333, "fusion_lon": 0.0, "bike_id": "71cecc7c8842a5d6f75d0680dd8444e2", "type": "electric_scooter", "name": "71cecc7c8842a5d6f75d0680dd8444e2", "rental_uris": {"android": "https://dc.lft.to/lastmile_qr_scan", "ios": "https://dc.lft.to/lastmile_qr_scan"}, "is_disabled": 0, "fusion_lat": 0.0, "lat": 38.9098105, "is_reserved": 0}, {"lon": -77.04496483333334, "fusion_lon": 0.0, "bike_id": "49f903b7b864d5a7219eb2e2956bbd29", "type": "electric_scooter", "name": "49f903b7b864d5a7219eb2e2956bbd29", "rental_uris": {"android": "https://dc.lft.to/lastmile_qr_scan", "ios": "https://dc.lft.to/lastmile_qr_scan"}, "is_disabled": 0, "fusion_lat": 0.0, "lat": 38.911041, "is_reserved": 0}, {"lon": -77.05041566666667, "fusion_lon": 0.0, "bike_id": "93d461cfaa6ae89440e5019337e7fe57", "type": "electric_scooter", "name": "93d461cfaa6ae89440e5019337e7fe57", "rental_uris": {"android": "https://dc.lft.to/lastmile_qr_scan", "ios": "https://dc.lft.to/lastmile_qr_scan"}, "is_disabled": 0, "fusion_lat": 0.0, "lat": 38.92342416666666, "is_reserved": 0}, {"lon": -76.9952115, "fusion_lon": 0.0, "bike_id": "2ea235a5f014e1ba298bf6e1d0a05cd0", "type": "electric_bike", "name": "2ea235a5f014e1ba298bf6e1d0a05cd0", "rental_uris": {"android": "https://dc.lft.to/lastmile_qr_scan", "ios": "https://dc.lft.to/lastmile_qr_scan"}, "is_disabled": 0, "fusion_lat": 0.0, "lat": 38.82172033333333, "is_reserved": 0}, {"lon": -77.04495266666666, "fusion_lon": 0.0, "bike_id": "7a35fd1c001596f358c4a20dc12ac513", "type": "electric_scooter", "name": "7a35fd1c001596f358c4a20dc12ac513", "rental_uris": {"android": "https://dc.lft.to/lastmile_qr_scan", "ios": "https://dc.lft.to/lastmile_qr_scan"}, "is_disabled": 0, "fusion_lat": 0.0, "lat": 38.89943516666666, "is_reserved": 0}, {"lon": -76.99132616666667, "fusion_lon": 0.0, "bike_id": "fa53b4d8fb29d3c6e56697ea21bbdfeb", "type": "electric_scooter", "name": "fa53b4d8fb29d3c6e56697ea21bbdfeb", "rental_uris": {"android": "https://dc.lft.to/lastmile_qr_scan", "ios": "https://dc.lft.to/lastmile_qr_scan"}, "is_disabled": 0, "fusion_lat": 0.0, "lat": 38.84640866666667, "is_reserved": 0}, {"lon": -76.94935916666667, "fusion_lon": 0.0, "bike_id": "df3af7b36a00ec8d5b4301e210250288", "type": "electric_scooter", "name": "df3af7b36a00ec8d5b4301e210250288", "rental_uris": {"android": "https://dc.lft.to/lastmile_qr_scan", "ios": "https://dc.lft.to/lastmile_qr_scan"}, "is_disabled": 0, "fusion_lat": 0.0, "lat": 38.89344716666667, "is_reserved": 0}, {"lon": -77.02093333333333, "fusion_lon": 0.0, "bike_id": "1f94e92ea319d284c80fa69e942f9c92", "type": "electric_scooter", "name": "1f94e92ea319d284c80fa69e942f9c92", "rental_uris": {"android": "https://dc.lft.to/lastmile_qr_scan", "ios": "https://dc.lft.to/lastmile_qr_scan"}, "is_disabled": 0, "fusion_lat": 0.0, "lat": 38.966494833333336, "is_reserved": 0}, {"lon": -76.95833266666666, "fusion_lon": 0.0, "bike_id": "f2ba563b38ee7d1b28787162e0d8da06", "type": "electric_bike", "name": "f2ba563b38ee7d1b28787162e0d8da06", "rental_uris": {"android": "https://dc.lft.to/lastmile_qr_scan", "ios": "https://dc.lft.to/lastmile_qr_scan"}, "is_disabled": 0, "fusion_lat": 0.0, "lat": 38.930456, "is_reserved": 0}, {"lon": -77.03919766666667, "fusion_lon": 0.0, "bike_id": "f3e3f72b9e64a5f1a60b9e5b698e24ce", "type": "electric_scooter", "name": "f3e3f72b9e64a5f1a60b9e5b698e24ce", "rental_uris": {"android": "https://dc.lft.to/lastmile_qr_scan", "ios": "https://dc.lft.to/lastmile_qr_scan"}, "is_disabled": 0, "fusion_lat": 0.0, "lat": 38.90351416666667, "is_reserved": 0}, {"lon": -77.04226166666666, "fusion_lon": 0.0, "bike_id": "68d32a9926d8a3fc89e08a502f86f991", "type": "electric_scooter", "name": "68d32a9926d8a3fc89e08a502f86f991", "rental_uris": {"android": "https://dc.lft.to/lastmile_qr_scan", "ios": "https://dc.lft.to/lastmile_qr_scan"}, "is_disabled": 0, "fusion_lat": 0.0, "lat": 38.91412566666666, "is_reserved": 0}, {"lon": -77.051486, "fusion_lon": 0.0, "bike_id": "38d0bef02c39c238acc60af6aacb1d90", "type": "electric_scooter", "name": "38d0bef02c39c238acc60af6aacb1d90", "rental_uris": {"android": "https://dc.lft.to/lastmile_qr_scan", "ios": "https://dc.lft.to/lastmile_qr_scan"}, "is_disabled": 0, "fusion_lat": 0.0, "lat": 38.9237805, "is_reserved": 0}, {"lon": -77.09961616666666, "fusion_lon": 0.0, "bike_id": "930ee6923b5d9aa8a2af1c15618df0af", "type": "electric_bike", "name": "930ee6923b5d9aa8a2af1c15618df0af", "rental_uris": {"android": "https://dc.lft.to/lastmile_qr_scan", "ios": "https://dc.lft.to/lastmile_qr_scan"}, "is_disabled": 0, "fusion_lat": 0.0, "lat": 38.857926666666664, "is_reserved": 0}, {"lon": -77.02864566666666, "fusion_lon": 0.0, "bike_id": "76acb567c21c2d6e2189a3d3e39dc05a", "type": "electric_scooter", "name": "76acb567c21c2d6e2189a3d3e39dc05a", "rental_uris": {"android": "https://dc.lft.to/lastmile_qr_scan", "ios": "https://dc.lft.to/lastmile_qr_scan"}, "is_disabled": 0, "fusion_lat": 0.0, "lat": 38.893658, "is_reserved": 0}, {"lon": -76.972374, "fusion_lon": 0.0, "bike_id": "c15f997933edb1c134c108d72f30761e", "type": "electric_bike", "name": "c15f997933edb1c134c108d72f30761e", "rental_uris": {"android": "https://dc.lft.to/lastmile_qr_scan", "ios": "https://dc.lft.to/lastmile_qr_scan"}, "is_disabled": 0, "fusion_lat": 0.0, "lat": 38.9042115, "is_reserved": 0}, {"lon": -76.9876515, "fusion_lon": 0.0, "bike_id": "c0a130351b0cebba120149ece61e7786", "type": "electric_scooter", "name": "c0a130351b0cebba120149ece61e7786", "rental_uris": {"android": "https://dc.lft.to/lastmile_qr_scan", "ios": "https://dc.lft.to/lastmile_qr_scan"}, "is_disabled": 0, "fusion_lat": 0.0, "lat": 38.90029, "is_reserved": 0}, {"lon": -77.03125566666667, "fusion_lon": 0.0, "bike_id": "ad757f0e39f61e12cc375b4e78fba562", "type": "electric_scooter", "name": "ad757f0e39f61e12cc375b4e78fba562", "rental_uris": {"android": "https://dc.lft.to/lastmile_qr_scan", "ios": "https://dc.lft.to/lastmile_qr_scan"}, "is_disabled": 0, "fusion_lat": 0.0, "lat": 38.916932833333334, "is_reserved": 0}, {"lon": -77.006094, "fusion_lon": 0.0, "bike_id": "ff337353b8a9ecd38ec6f7c527a8a9fb", "type": "electric_scooter", "name": "ff337353b8a9ecd38ec6f7c527a8a9fb", "rental_uris": {"android": "https://dc.lft.to/lastmile_qr_scan", "ios": "https://dc.lft.to/lastmile_qr_scan"}, "is_disabled": 0, "fusion_lat": 0.0, "lat": 38.871795166666665, "is_reserved": 0}, {"lon": -77.04540566666667, "fusion_lon": 0.0, "bike_id": "aec21a53d6e63116cb1a38058bbc4336", "type": "electric_bike", "name": "aec21a53d6e63116cb1a38058bbc4336", "rental_uris": {"android": "https://dc.lft.to/lastmile_qr_scan", "ios": "https://dc.lft.to/lastmile_qr_scan"}, "is_disabled": 0, "fusion_lat": 0.0, "lat": 39.033067, "is_reserved": 0}, {"lon": -76.97097916666667, "fusion_lon": 0.0, "bike_id": "111eb7a559013fd6af9f3f8d4da78a3c", "type": "electric_scooter", "name": "111eb7a559013fd6af9f3f8d4da78a3c", "rental_uris": {"android": "https://dc.lft.to/lastmile_qr_scan", "ios": "https://dc.lft.to/lastmile_qr_scan"}, "is_disabled": 0, "fusion_lat": 0.0, "lat": 38.87064516666667, "is_reserved": 0}, {"lon": -77.02232233333334, "fusion_lon": 0.0, "bike_id": "770ef1475d71bf12b3de0a37139aca53", "type": "electric_scooter", "name": "770ef1475d71bf12b3de0a37139aca53", "rental_uris": {"android": "https://dc.lft.to/lastmile_qr_scan", "ios": "https://dc.lft.to/lastmile_qr_scan"}, "is_disabled": 0, "fusion_lat": 0.0, "lat": 38.9347235, "is_reserved": 0}, {"lon": -77.050035, "fusion_lon": 0.0, "bike_id": "25580a4296879ccb2bd5b4227f92cd5d", "type": "electric_scooter", "name": "25580a4296879ccb2bd5b4227f92cd5d", "rental_uris": {"android": "https://dc.lft.to/lastmile_qr_scan", "ios": "https://dc.lft.to/lastmile_qr_scan"}, "is_disabled": 0, "fusion_lat": 0.0, "lat": 38.90132583333333, "is_reserved": 0}, {"lon": -76.93187883333333, "fusion_lon": 0.0, "bike_id": "9f0c871a384d84ed41986affccf83a49", "type": "electric_scooter", "name": "9f0c871a384d84ed41986affccf83a49", "rental_uris": {"android": "https://dc.lft.to/lastmile_qr_scan", "ios": "https://dc.lft.to/lastmile_qr_scan"}, "is_disabled": 0, "fusion_lat": 0.0, "lat": 38.8987565, "is_reserved": 0}, {"lon": -76.952522, "fusion_lon": 0.0, "bike_id": "b1247c3f7f0980321e269ceb32724e31", "type": "electric_bike", "name": "b1247c3f7f0980321e269ceb32724e31", "rental_uris": {"android": "https://dc.lft.to/lastmile_qr_scan", "ios": "https://dc.lft.to/lastmile_qr_scan"}, "is_disabled": 0, "fusion_lat": 0.0, "lat": 38.906954999999996, "is_reserved": 0}, {"lon": -77.20136216666667, "fusion_lon": 0.0, "bike_id": "1900eae1524db1c6934bce76e0213907", "type": "electric_bike", "name": "1900eae1524db1c6934bce76e0213907", "rental_uris": {"android": "https://dc.lft.to/lastmile_qr_scan", "ios": "https://dc.lft.to/lastmile_qr_scan"}, "is_disabled": 0, "fusion_lat": 0.0, "lat": 38.922195333333335, "is_reserved": 0}, {"lon": -76.94637583333333, "fusion_lon": 0.0, "bike_id": "f1eeb66e302ad2f008732054dbd8fb70", "type": "electric_scooter", "name": "f1eeb66e302ad2f008732054dbd8fb70", "rental_uris": {"android": "https://dc.lft.to/lastmile_qr_scan", "ios": "https://dc.lft.to/lastmile_qr_scan"}, "is_disabled": 0, "fusion_lat": 0.0, "lat": 38.89864, "is_reserved": 0}, {"lon": -77.04079583333333, "fusion_lon": 0.0, "bike_id": "f0724b756da455a7bb3bd30c356272f4", "type": "electric_scooter", "name": "f0724b756da455a7bb3bd30c356272f4", "rental_uris": {"android": "https://dc.lft.to/lastmile_qr_scan", "ios": "https://dc.lft.to/lastmile_qr_scan"}, "is_disabled": 0, "fusion_lat": 0.0, "lat": 38.903932166666664, "is_reserved": 0}, {"lon": -77.03289033333333, "fusion_lon": 0.0, "bike_id": "c27b52b8465810c204cc69cf7ac6a19d", "type": "electric_scooter", "name": "c27b52b8465810c204cc69cf7ac6a19d", "rental_uris": {"android": "https://dc.lft.to/lastmile_qr_scan", "ios": "https://dc.lft.to/lastmile_qr_scan"}, "is_disabled": 0, "fusion_lat": 0.0, "lat": 38.9227045, "is_reserved": 0}, {"lon": -77.07708683333334, "fusion_lon": 0.0, "bike_id": "99423549c4ecbcd90bdcbca4679f7e97", "type": "electric_scooter", "name": "99423549c4ecbcd90bdcbca4679f7e97", "rental_uris": {"android": "https://dc.lft.to/lastmile_qr_scan", "ios": "https://dc.lft.to/lastmile_qr_scan"}, "is_disabled": 0, "fusion_lat": 0.0, "lat": 38.943839, "is_reserved": 0}, {"lon": -77.00206533333333, "fusion_lon": 0.0, "bike_id": "dfecbcd9b7aeb3f0741905d2ee3b9365", "type": "electric_scooter", "name": "dfecbcd9b7aeb3f0741905d2ee3b9365", "rental_uris": {"android": "https://dc.lft.to/lastmile_qr_scan", "ios": "https://dc.lft.to/lastmile_qr_scan"}, "is_disabled": 0, "fusion_lat": 0.0, "lat": 38.900297333333334, "is_reserved": 0}, {"lon": -76.99527083333334, "fusion_lon": 0.0, "bike_id": "3a43aceae156414ea197a753cf3eea21", "type": "electric_scooter", "name": "3a43aceae156414ea197a753cf3eea21", "rental_uris": {"android": "https://dc.lft.to/lastmile_qr_scan", "ios": "https://dc.lft.to/lastmile_qr_scan"}, "is_disabled": 0, "fusion_lat": 0.0, "lat": 38.879259, "is_reserved": 0}, {"lon": -77.05662016666666, "fusion_lon": 0.0, "bike_id": "b498c6f0b782a4c080454d0611d4a9d4", "type": "electric_scooter", "name": "b498c6f0b782a4c080454d0611d4a9d4", "rental_uris": {"android": "https://dc.lft.to/lastmile_qr_scan", "ios": "https://dc.lft.to/lastmile_qr_scan"}, "is_disabled": 0, "fusion_lat": 0.0, "lat": 38.9060355, "is_reserved": 0}, {"lon": -76.967174, "fusion_lon": 0.0, "bike_id": "feca7c3a0d9c10962aab3adc4ef9566e", "type": "electric_scooter", "name": "feca7c3a0d9c10962aab3adc4ef9566e", "rental_uris": {"android": "https://dc.lft.to/lastmile_qr_scan", "ios": "https://dc.lft.to/lastmile_qr_scan"}, "is_disabled": 0, "fusion_lat": 0.0, "lat": 38.86032866666667, "is_reserved": 0}, {"lon": -77.031892, "fusion_lon": 0.0, "bike_id": "520754b0b82cbe9112d517c0249ac931", "type": "electric_scooter", "name": "520754b0b82cbe9112d517c0249ac931", "rental_uris": {"android": "https://dc.lft.to/lastmile_qr_scan", "ios": "https://dc.lft.to/lastmile_qr_scan"}, "is_disabled": 0, "fusion_lat": 0.0, "lat": 38.919267, "is_reserved": 0}, {"lon": -77.05734933333333, "fusion_lon": 0.0, "bike_id": "ccbaefd3a382df1f8f6aa4af0fd5abeb", "type": "electric_scooter", "name": "ccbaefd3a382df1f8f6aa4af0fd5abeb", "rental_uris": {"android": "https://dc.lft.to/lastmile_qr_scan", "ios": "https://dc.lft.to/lastmile_qr_scan"}, "is_disabled": 0, "fusion_lat": 0.0, "lat": 38.93364433333333, "is_reserved": 0}, {"lon": -77.02289116666667, "fusion_lon": 0.0, "bike_id": "0c5e4928e7aba472df87dc992acbd779", "type": "electric_scooter", "name": "0c5e4928e7aba472df87dc992acbd779", "rental_uris": {"android": "https://dc.lft.to/lastmile_qr_scan", "ios": "https://dc.lft.to/lastmile_qr_scan"}, "is_disabled": 0, "fusion_lat": 0.0, "lat": 38.89706916666667, "is_reserved": 0}, {"lon": -77.03657433333333, "fusion_lon": 0.0, "bike_id": "233ebcef13ccf8a3737243fca374e527", "type": "electric_scooter", "name": "233ebcef13ccf8a3737243fca374e527", "rental_uris": {"android": "https://dc.lft.to/lastmile_qr_scan", "ios": "https://dc.lft.to/lastmile_qr_scan"}, "is_disabled": 0, "fusion_lat": 0.0, "lat": 38.91822633333334, "is_reserved": 0}, {"lon": -77.03333583333334, "fusion_lon": 0.0, "bike_id": "97f6c6c439f90dbd358dec170d6d6261", "type": "electric_scooter", "name": "97f6c6c439f90dbd358dec170d6d6261", "rental_uris": {"android": "https://dc.lft.to/lastmile_qr_scan", "ios": "https://dc.lft.to/lastmile_qr_scan"}, "is_disabled": 0, "fusion_lat": 0.0, "lat": 38.90278083333333, "is_reserved": 0}, {"lon": -77.025538, "fusion_lon": 0.0, "bike_id": "b3e5ea7ff7cbbd03bbb98bbf75754415", "type": "electric_scooter", "name": "b3e5ea7ff7cbbd03bbb98bbf75754415", "rental_uris": {"android": "https://dc.lft.to/lastmile_qr_scan", "ios": "https://dc.lft.to/lastmile_qr_scan"}, "is_disabled": 0, "fusion_lat": 0.0, "lat": 38.909569166666664, "is_reserved": 0}, {"lon": -76.978583, "fusion_lon": 0.0, "bike_id": "f6b8a9e7cd5fddf305aaa28a016f21b8", "type": "electric_bike", "name": "f6b8a9e7cd5fddf305aaa28a016f21b8", "rental_uris": {"android": "https://dc.lft.to/lastmile_qr_scan", "ios": "https://dc.lft.to/lastmile_qr_scan"}, "is_disabled": 0, "fusion_lat": 0.0, "lat": 38.844659666666665, "is_reserved": 0}, {"lon": -77.0059415, "fusion_lon": 0.0, "bike_id": "1d7e72fa5389addcb0036b7449d8ea1d", "type": "electric_scooter", "name": "1d7e72fa5389addcb0036b7449d8ea1d", "rental_uris": {"android": "https://dc.lft.to/lastmile_qr_scan", "ios": "https://dc.lft.to/lastmile_qr_scan"}, "is_disabled": 0, "fusion_lat": 0.0, "lat": 38.87665233333333, "is_reserved": 0}, {"lon": -77.07862816666666, "fusion_lon": 0.0, "bike_id": "08d387f19b5b60ccb43d1913d0d7dd11", "type": "electric_bike", "name": "08d387f19b5b60ccb43d1913d0d7dd11", "rental_uris": {"android": "https://dc.lft.to/lastmile_qr_scan", "ios": "https://dc.lft.to/lastmile_qr_scan"}, "is_disabled": 0, "fusion_lat": 0.0, "lat": 38.89395966666667, "is_reserved": 0}, {"lon": -76.98841816666666, "fusion_lon": 0.0, "bike_id": "479f1fa7888f9952c7e9f8071b8a9457", "type": "electric_bike", "name": "479f1fa7888f9952c7e9f8071b8a9457", "rental_uris": {"android": "https://dc.lft.to/lastmile_qr_scan", "ios": "https://dc.lft.to/lastmile_qr_scan"}, "is_disabled": 0, "fusion_lat": 0.0, "lat": 38.842741333333336, "is_reserved": 0}, {"lon": -76.9973345, "fusion_lon": 0.0, "bike_id": "0b4471af1a2f953b7328a54c3774aed9", "type": "electric_scooter", "name": "0b4471af1a2f953b7328a54c3774aed9", "rental_uris": {"android": "https://dc.lft.to/lastmile_qr_scan", "ios": "https://dc.lft.to/lastmile_qr_scan"}, "is_disabled": 0, "fusion_lat": 0.0, "lat": 38.90040483333333, "is_reserved": 0}, {"lon": -77.02498183333333, "fusion_lon": 0.0, "bike_id": "8c5315a6be1bdd2fe1b28bfc5f984f13", "type": "electric_scooter", "name": "8c5315a6be1bdd2fe1b28bfc5f984f13", "rental_uris": {"android": "https://dc.lft.to/lastmile_qr_scan", "ios": "https://dc.lft.to/lastmile_qr_scan"}, "is_disabled": 0, "fusion_lat": 0.0, "lat": 38.9180685, "is_reserved": 0}, {"lon": -77.00351033333334, "fusion_lon": 0.0, "bike_id": "62d8447134dcc30bfc0d8c7d4065cc92", "type": "electric_scooter", "name": "62d8447134dcc30bfc0d8c7d4065cc92", "rental_uris": {"android": "https://dc.lft.to/lastmile_qr_scan", "ios": "https://dc.lft.to/lastmile_qr_scan"}, "is_disabled": 0, "fusion_lat": 0.0, "lat": 38.89467666666667, "is_reserved": 0}, {"lon": -76.97790216666667, "fusion_lon": 0.0, "bike_id": "bef65ca68fbdb65c1b0c23916799be8a", "type": "electric_scooter", "name": "bef65ca68fbdb65c1b0c23916799be8a", "rental_uris": {"android": "https://dc.lft.to/lastmile_qr_scan", "ios": "https://dc.lft.to/lastmile_qr_scan"}, "is_disabled": 0, "fusion_lat": 0.0, "lat": 38.9056795, "is_reserved": 0}, {"lon": -77.00068433333334, "fusion_lon": 0.0, "bike_id": "b4a2e74e0b6e4120b5eafe5648e86e95", "type": "electric_scooter", "name": "b4a2e74e0b6e4120b5eafe5648e86e95", "rental_uris": {"android": "https://dc.lft.to/lastmile_qr_scan", "ios": "https://dc.lft.to/lastmile_qr_scan"}, "is_disabled": 0, "fusion_lat": 0.0, "lat": 38.8768475, "is_reserved": 0}, {"lon": -77.02299933333333, "fusion_lon": 0.0, "bike_id": "4a523d6317967b71e851d70c32fa2af5", "type": "electric_scooter", "name": "4a523d6317967b71e851d70c32fa2af5", "rental_uris": {"android": "https://dc.lft.to/lastmile_qr_scan", "ios": "https://dc.lft.to/lastmile_qr_scan"}, "is_disabled": 0, "fusion_lat": 0.0, "lat": 38.927418833333334, "is_reserved": 0}, {"lon": -76.95669266666667, "fusion_lon": 0.0, "bike_id": "e2684380ac40f7032a19a82dfcdff005", "type": "electric_bike", "name": "e2684380ac40f7032a19a82dfcdff005", "rental_uris": {"android": "https://dc.lft.to/lastmile_qr_scan", "ios": "https://dc.lft.to/lastmile_qr_scan"}, "is_disabled": 0, "fusion_lat": 0.0, "lat": 38.884697333333335, "is_reserved": 0}, {"lon": -77.03013816666666, "fusion_lon": 0.0, "bike_id": "1d9bd2ca3a29d002c99b0b4ec270692d", "type": "electric_scooter", "name": "1d9bd2ca3a29d002c99b0b4ec270692d", "rental_uris": {"android": "https://dc.lft.to/lastmile_qr_scan", "ios": "https://dc.lft.to/lastmile_qr_scan"}, "is_disabled": 0, "fusion_lat": 0.0, "lat": 38.897181333333336, "is_reserved": 0}, {"lon": -77.03448033333333, "fusion_lon": 0.0, "bike_id": "9291a76210cd647aaebfff9e67cd0465", "type": "electric_scooter", "name": "9291a76210cd647aaebfff9e67cd0465", "rental_uris": {"android": "https://dc.lft.to/lastmile_qr_scan", "ios": "https://dc.lft.to/lastmile_qr_scan"}, "is_disabled": 0, "fusion_lat": 0.0, "lat": 38.9084115, "is_reserved": 0}, {"lon": -77.04328933333333, "fusion_lon": 0.0, "bike_id": "6549c3094f1954c83c0b335d0dee4a6c", "type": "electric_scooter", "name": "6549c3094f1954c83c0b335d0dee4a6c", "rental_uris": {"android": "https://dc.lft.to/lastmile_qr_scan", "ios": "https://dc.lft.to/lastmile_qr_scan"}, "is_disabled": 0, "fusion_lat": 0.0, "lat": 38.905075, "is_reserved": 0}, {"lon": -77.03377233333333, "fusion_lon": 0.0, "bike_id": "3836fc63918484fa253293623d538171", "type": "electric_scooter", "name": "3836fc63918484fa253293623d538171", "rental_uris": {"android": "https://dc.lft.to/lastmile_qr_scan", "ios": "https://dc.lft.to/lastmile_qr_scan"}, "is_disabled": 0, "fusion_lat": 0.0, "lat": 38.92161333333333, "is_reserved": 0}, {"lon": -77.02315433333334, "fusion_lon": 0.0, "bike_id": "2188a2f35c8999ba21259760704c1300", "type": "electric_scooter", "name": "2188a2f35c8999ba21259760704c1300", "rental_uris": {"android": "https://dc.lft.to/lastmile_qr_scan", "ios": "https://dc.lft.to/lastmile_qr_scan"}, "is_disabled": 0, "fusion_lat": 0.0, "lat": 38.918338166666665, "is_reserved": 0}, {"lon": -77.04311016666666, "fusion_lon": 0.0, "bike_id": "0545b04d868fc940aa8bfa6b89227c89", "type": "electric_bike", "name": "0545b04d868fc940aa8bfa6b89227c89", "rental_uris": {"android": "https://dc.lft.to/lastmile_qr_scan", "ios": "https://dc.lft.to/lastmile_qr_scan"}, "is_disabled": 0, "fusion_lat": 0.0, "lat": 39.034237166666664, "is_reserved": 0}, {"lon": -77.03833516666667, "fusion_lon": 0.0, "bike_id": "4186ac4e1ac104a26e9a94e2998d4a3a", "type": "electric_scooter", "name": "4186ac4e1ac104a26e9a94e2998d4a3a", "rental_uris": {"android": "https://dc.lft.to/lastmile_qr_scan", "ios": "https://dc.lft.to/lastmile_qr_scan"}, "is_disabled": 0, "fusion_lat": 0.0, "lat": 38.91105233333333, "is_reserved": 0}, {"lon": -77.02185233333333, "fusion_lon": 0.0, "bike_id": "b9cea57cccb2eda3f502506217c37afb", "type": "electric_scooter", "name": "b9cea57cccb2eda3f502506217c37afb", "rental_uris": {"android": "https://dc.lft.to/lastmile_qr_scan", "ios": "https://dc.lft.to/lastmile_qr_scan"}, "is_disabled": 0, "fusion_lat": 0.0, "lat": 38.9098205, "is_reserved": 0}, {"lon": -77.02965166666667, "fusion_lon": 0.0, "bike_id": "ad3c3d9d696e7d6c623dbee1a1e6c4ca", "type": "electric_scooter", "name": "ad3c3d9d696e7d6c623dbee1a1e6c4ca", "rental_uris": {"android": "https://dc.lft.to/lastmile_qr_scan", "ios": "https://dc.lft.to/lastmile_qr_scan"}, "is_disabled": 0, "fusion_lat": 0.0, "lat": 38.92262216666666, "is_reserved": 0}, {"lon": -77.04276683333333, "fusion_lon": 0.0, "bike_id": "9dd563124e9847ffd977313d4c65d8d7", "type": "electric_scooter", "name": "9dd563124e9847ffd977313d4c65d8d7", "rental_uris": {"android": "https://dc.lft.to/lastmile_qr_scan", "ios": "https://dc.lft.to/lastmile_qr_scan"}, "is_disabled": 0, "fusion_lat": 0.0, "lat": 38.90568666666667, "is_reserved": 0}, {"lon": -76.96528016666667, "fusion_lon": 0.0, "bike_id": "238684c9987c9686417b8e6a42e1e723", "type": "electric_scooter", "name": "238684c9987c9686417b8e6a42e1e723", "rental_uris": {"android": "https://dc.lft.to/lastmile_qr_scan", "ios": "https://dc.lft.to/lastmile_qr_scan"}, "is_disabled": 0, "fusion_lat": 0.0, "lat": 38.9184475, "is_reserved": 0}, {"lon": -77.03615983333333, "fusion_lon": 0.0, "bike_id": "45150f5fafe88d8531190375a2f2730c", "type": "electric_scooter", "name": "45150f5fafe88d8531190375a2f2730c", "rental_uris": {"android": "https://dc.lft.to/lastmile_qr_scan", "ios": "https://dc.lft.to/lastmile_qr_scan"}, "is_disabled": 0, "fusion_lat": 0.0, "lat": 38.917314833333336, "is_reserved": 0}, {"lon": -77.03641466666667, "fusion_lon": 0.0, "bike_id": "41a5051afe245826c85f72918ca0f9b0", "type": "electric_scooter", "name": "41a5051afe245826c85f72918ca0f9b0", "rental_uris": {"android": "https://dc.lft.to/lastmile_qr_scan", "ios": "https://dc.lft.to/lastmile_qr_scan"}, "is_disabled": 0, "fusion_lat": 0.0, "lat": 38.924440833333335, "is_reserved": 0}, {"lon": -77.02339033333334, "fusion_lon": 0.0, "bike_id": "0514559d9b2ffdf5d27275b2008ea8dc", "type": "electric_scooter", "name": "0514559d9b2ffdf5d27275b2008ea8dc", "rental_uris": {"android": "https://dc.lft.to/lastmile_qr_scan", "ios": "https://dc.lft.to/lastmile_qr_scan"}, "is_disabled": 0, "fusion_lat": 0.0, "lat": 38.89391766666667, "is_reserved": 0}, {"lon": -76.9336785, "fusion_lon": 0.0, "bike_id": "0cb369262a3b52e2ce949ddf1794e254", "type": "electric_scooter", "name": "0cb369262a3b52e2ce949ddf1794e254", "rental_uris": {"android": "https://dc.lft.to/lastmile_qr_scan", "ios": "https://dc.lft.to/lastmile_qr_scan"}, "is_disabled": 0, "fusion_lat": 0.0, "lat": 38.89909933333333, "is_reserved": 0}, {"lon": -77.004546, "fusion_lon": 0.0, "bike_id": "58668d82ca5beb9947b769a143705439", "type": "electric_bike", "name": "58668d82ca5beb9947b769a143705439", "rental_uris": {"android": "https://dc.lft.to/lastmile_qr_scan", "ios": "https://dc.lft.to/lastmile_qr_scan"}, "is_disabled": 0, "fusion_lat": 0.0, "lat": 38.9120065, "is_reserved": 0}, {"lon": -77.03361733333334, "fusion_lon": 0.0, "bike_id": "f680a34c4d908ebafb0b4e4b77341da5", "type": "electric_scooter", "name": "f680a34c4d908ebafb0b4e4b77341da5", "rental_uris": {"android": "https://dc.lft.to/lastmile_qr_scan", "ios": "https://dc.lft.to/lastmile_qr_scan"}, "is_disabled": 0, "fusion_lat": 0.0, "lat": 38.91920866666667, "is_reserved": 0}, {"lon": -76.98089016666667, "fusion_lon": 0.0, "bike_id": "983be28f2a52c6f55bb0b042ef0b57ee", "type": "electric_scooter", "name": "983be28f2a52c6f55bb0b042ef0b57ee", "rental_uris": {"android": "https://dc.lft.to/lastmile_qr_scan", "ios": "https://dc.lft.to/lastmile_qr_scan"}, "is_disabled": 0, "fusion_lat": 0.0, "lat": 38.92245366666667, "is_reserved": 0}, {"lon": -76.99503366666667, "fusion_lon": 0.0, "bike_id": "12d35ba9961c93bee7f44acf2c6797da", "type": "electric_scooter", "name": "12d35ba9961c93bee7f44acf2c6797da", "rental_uris": {"android": "https://dc.lft.to/lastmile_qr_scan", "ios": "https://dc.lft.to/lastmile_qr_scan"}, "is_disabled": 0, "fusion_lat": 0.0, "lat": 38.90981016666667, "is_reserved": 0}, {"lon": -77.0338465, "fusion_lon": 0.0, "bike_id": "fa80bb11c23516a8982b847f53eb6ecc", "type": "electric_scooter", "name": "fa80bb11c23516a8982b847f53eb6ecc", "rental_uris": {"android": "https://dc.lft.to/lastmile_qr_scan", "ios": "https://dc.lft.to/lastmile_qr_scan"}, "is_disabled": 0, "fusion_lat": 0.0, "lat": 38.92156216666667, "is_reserved": 0}, {"lon": -77.03443, "fusion_lon": 0.0, "bike_id": "e688af43e5288c433697efe0cd8e012a", "type": "electric_scooter", "name": "e688af43e5288c433697efe0cd8e012a", "rental_uris": {"android": "https://dc.lft.to/lastmile_qr_scan", "ios": "https://dc.lft.to/lastmile_qr_scan"}, "is_disabled": 0, "fusion_lat": 0.0, "lat": 38.90278383333333, "is_reserved": 0}, {"lon": -77.007898, "fusion_lon": 0.0, "bike_id": "558f81d544caf3f30803f9974451de02", "type": "electric_scooter", "name": "558f81d544caf3f30803f9974451de02", "rental_uris": {"android": "https://dc.lft.to/lastmile_qr_scan", "ios": "https://dc.lft.to/lastmile_qr_scan"}, "is_disabled": 0, "fusion_lat": 0.0, "lat": 38.9071505, "is_reserved": 0}, {"lon": -77.03211766666666, "fusion_lon": 0.0, "bike_id": "6bba1fce8b66b5a247b7830229d3c1fb", "type": "electric_scooter", "name": "6bba1fce8b66b5a247b7830229d3c1fb", "rental_uris": {"android": "https://dc.lft.to/lastmile_qr_scan", "ios": "https://dc.lft.to/lastmile_qr_scan"}, "is_disabled": 0, "fusion_lat": 0.0, "lat": 38.910016, "is_reserved": 0}, {"lon": -77.032522, "fusion_lon": 0.0, "bike_id": "e8c4f15c79add46f777081aea9eb5867", "type": "electric_scooter", "name": "e8c4f15c79add46f777081aea9eb5867", "rental_uris": {"android": "https://dc.lft.to/lastmile_qr_scan", "ios": "https://dc.lft.to/lastmile_qr_scan"}, "is_disabled": 0, "fusion_lat": 0.0, "lat": 38.9013945, "is_reserved": 0}, {"lon": -76.9960225, "fusion_lon": 0.0, "bike_id": "838aa5efaefe78bcafcb0f3e1a418a67", "type": "electric_scooter", "name": "838aa5efaefe78bcafcb0f3e1a418a67", "rental_uris": {"android": "https://dc.lft.to/lastmile_qr_scan", "ios": "https://dc.lft.to/lastmile_qr_scan"}, "is_disabled": 0, "fusion_lat": 0.0, "lat": 38.85688916666667, "is_reserved": 0}, {"lon": -77.02594733333333, "fusion_lon": 0.0, "bike_id": "fb1c3cdbae8689bf0384a25e63174f57", "type": "electric_scooter", "name": "fb1c3cdbae8689bf0384a25e63174f57", "rental_uris": {"android": "https://dc.lft.to/lastmile_qr_scan", "ios": "https://dc.lft.to/lastmile_qr_scan"}, "is_disabled": 0, "fusion_lat": 0.0, "lat": 38.9042035, "is_reserved": 0}, {"lon": -77.02819016666666, "fusion_lon": 0.0, "bike_id": "d4856d78fe92f1e3d53aff08f599a40b", "type": "electric_bike", "name": "d4856d78fe92f1e3d53aff08f599a40b", "rental_uris": {"android": "https://dc.lft.to/lastmile_qr_scan", "ios": "https://dc.lft.to/lastmile_qr_scan"}, "is_disabled": 0, "fusion_lat": 0.0, "lat": 38.96563616666667, "is_reserved": 0}, {"lon": -77.01625833333334, "fusion_lon": 0.0, "bike_id": "b50b0ccedb98d0b656d48c8e68acf6f5", "type": "electric_scooter", "name": "b50b0ccedb98d0b656d48c8e68acf6f5", "rental_uris": {"android": "https://dc.lft.to/lastmile_qr_scan", "ios": "https://dc.lft.to/lastmile_qr_scan"}, "is_disabled": 0, "fusion_lat": 0.0, "lat": 38.90339133333333, "is_reserved": 0}, {"lon": -76.9334445, "fusion_lon": 0.0, "bike_id": "f55cab3dbf7695ffde2fc19f60f67cf2", "type": "electric_scooter", "name": "f55cab3dbf7695ffde2fc19f60f67cf2", "rental_uris": {"android": "https://dc.lft.to/lastmile_qr_scan", "ios": "https://dc.lft.to/lastmile_qr_scan"}, "is_disabled": 0, "fusion_lat": 0.0, "lat": 38.9086635, "is_reserved": 0}, {"lon": -77.04972766666667, "fusion_lon": 0.0, "bike_id": "435df22813a8e8b74bbf84bd1582a73e", "type": "electric_scooter", "name": "435df22813a8e8b74bbf84bd1582a73e", "rental_uris": {"android": "https://dc.lft.to/lastmile_qr_scan", "ios": "https://dc.lft.to/lastmile_qr_scan"}, "is_disabled": 0, "fusion_lat": 0.0, "lat": 38.91112016666666, "is_reserved": 0}, {"lon": -77.05347283333333, "fusion_lon": 0.0, "bike_id": "50f7eadec23a05ae20eb0d82862aafed", "type": "electric_scooter", "name": "50f7eadec23a05ae20eb0d82862aafed", "rental_uris": {"android": "https://dc.lft.to/lastmile_qr_scan", "ios": "https://dc.lft.to/lastmile_qr_scan"}, "is_disabled": 0, "fusion_lat": 0.0, "lat": 38.9270625, "is_reserved": 0}, {"lon": -77.034405, "fusion_lon": 0.0, "bike_id": "b4dab0f8f5b93ab0fe3af131365c3700", "type": "electric_scooter", "name": "b4dab0f8f5b93ab0fe3af131365c3700", "rental_uris": {"android": "https://dc.lft.to/lastmile_qr_scan", "ios": "https://dc.lft.to/lastmile_qr_scan"}, "is_disabled": 0, "fusion_lat": 0.0, "lat": 38.9174035, "is_reserved": 0}, {"lon": -77.03971, "fusion_lon": 0.0, "bike_id": "a68b0eb75477774cc8961481de15b8c6", "type": "electric_scooter", "name": "a68b0eb75477774cc8961481de15b8c6", "rental_uris": {"android": "https://dc.lft.to/lastmile_qr_scan", "ios": "https://dc.lft.to/lastmile_qr_scan"}, "is_disabled": 0, "fusion_lat": 0.0, "lat": 38.89433366666667, "is_reserved": 0}, {"lon": -77.03834233333333, "fusion_lon": 0.0, "bike_id": "2d6337d42fcb2505e56eb2e9b98fd1f5", "type": "electric_scooter", "name": "2d6337d42fcb2505e56eb2e9b98fd1f5", "rental_uris": {"android": "https://dc.lft.to/lastmile_qr_scan", "ios": "https://dc.lft.to/lastmile_qr_scan"}, "is_disabled": 0, "fusion_lat": 0.0, "lat": 38.91257233333333, "is_reserved": 0}, {"lon": -77.018595, "fusion_lon": 0.0, "bike_id": "430245c98f80c8f4ad6b6a043695e52e", "type": "electric_scooter", "name": "430245c98f80c8f4ad6b6a043695e52e", "rental_uris": {"android": "https://dc.lft.to/lastmile_qr_scan", "ios": "https://dc.lft.to/lastmile_qr_scan"}, "is_disabled": 0, "fusion_lat": 0.0, "lat": 38.949199666666665, "is_reserved": 0}, {"lon": -77.0327515, "fusion_lon": 0.0, "bike_id": "3333ab301c0921d8cbd50932a5a0d74a", "type": "electric_scooter", "name": "3333ab301c0921d8cbd50932a5a0d74a", "rental_uris": {"android": "https://dc.lft.to/lastmile_qr_scan", "ios": "https://dc.lft.to/lastmile_qr_scan"}, "is_disabled": 0, "fusion_lat": 0.0, "lat": 38.933967833333334, "is_reserved": 0}, {"lon": -77.06799083333334, "fusion_lon": 0.0, "bike_id": "4252e107bb84dded7e98a7cc7831e55c", "type": "electric_scooter", "name": "4252e107bb84dded7e98a7cc7831e55c", "rental_uris": {"android": "https://dc.lft.to/lastmile_qr_scan", "ios": "https://dc.lft.to/lastmile_qr_scan"}, "is_disabled": 0, "fusion_lat": 0.0, "lat": 38.91278633333334, "is_reserved": 0}, {"lon": -77.01370666666666, "fusion_lon": 0.0, "bike_id": "53aaf7a599e2f8fabb8fe2f78eeaabc4", "type": "electric_scooter", "name": "53aaf7a599e2f8fabb8fe2f78eeaabc4", "rental_uris": {"android": "https://dc.lft.to/lastmile_qr_scan", "ios": "https://dc.lft.to/lastmile_qr_scan"}, "is_disabled": 0, "fusion_lat": 0.0, "lat": 38.919113333333335, "is_reserved": 0}, {"lon": -77.040059, "fusion_lon": 0.0, "bike_id": "f2fab46a55c4d5ad08123a667de90d27", "type": "electric_scooter", "name": "f2fab46a55c4d5ad08123a667de90d27", "rental_uris": {"android": "https://dc.lft.to/lastmile_qr_scan", "ios": "https://dc.lft.to/lastmile_qr_scan"}, "is_disabled": 0, "fusion_lat": 0.0, "lat": 38.924542, "is_reserved": 0}, {"lon": -76.97341616666667, "fusion_lon": 0.0, "bike_id": "843568508c38de30597a9a87c451415c", "type": "electric_scooter", "name": "843568508c38de30597a9a87c451415c", "rental_uris": {"android": "https://dc.lft.to/lastmile_qr_scan", "ios": "https://dc.lft.to/lastmile_qr_scan"}, "is_disabled": 0, "fusion_lat": 0.0, "lat": 38.86504766666667, "is_reserved": 0}, {"lon": -77.03209416666667, "fusion_lon": 0.0, "bike_id": "f268e9ca5d9cb19a3bb495f3b912a734", "type": "electric_scooter", "name": "f268e9ca5d9cb19a3bb495f3b912a734", "rental_uris": {"android": "https://dc.lft.to/lastmile_qr_scan", "ios": "https://dc.lft.to/lastmile_qr_scan"}, "is_disabled": 0, "fusion_lat": 0.0, "lat": 38.9142185, "is_reserved": 0}, {"lon": -77.02293666666667, "fusion_lon": 0.0, "bike_id": "aeebb42072e10c26b294774878788c01", "type": "electric_scooter", "name": "aeebb42072e10c26b294774878788c01", "rental_uris": {"android": "https://dc.lft.to/lastmile_qr_scan", "ios": "https://dc.lft.to/lastmile_qr_scan"}, "is_disabled": 0, "fusion_lat": 0.0, "lat": 38.91606016666667, "is_reserved": 0}, {"lon": -77.04402883333333, "fusion_lon": 0.0, "bike_id": "5870051785c6de455aefb006fe7647a0", "type": "electric_scooter", "name": "5870051785c6de455aefb006fe7647a0", "rental_uris": {"android": "https://dc.lft.to/lastmile_qr_scan", "ios": "https://dc.lft.to/lastmile_qr_scan"}, "is_disabled": 0, "fusion_lat": 0.0, "lat": 38.919128666666666, "is_reserved": 0}, {"lon": -76.98468516666667, "fusion_lon": 0.0, "bike_id": "98c029a886a09d0572f671f0560166d1", "type": "electric_scooter", "name": "98c029a886a09d0572f671f0560166d1", "rental_uris": {"android": "https://dc.lft.to/lastmile_qr_scan", "ios": "https://dc.lft.to/lastmile_qr_scan"}, "is_disabled": 0, "fusion_lat": 0.0, "lat": 38.903972833333334, "is_reserved": 0}, {"lon": -76.99740216666666, "fusion_lon": 0.0, "bike_id": "85a6347a83acc196fc34e7300534d5db", "type": "electric_bike", "name": "85a6347a83acc196fc34e7300534d5db", "rental_uris": {"android": "https://dc.lft.to/lastmile_qr_scan", "ios": "https://dc.lft.to/lastmile_qr_scan"}, "is_disabled": 0, "fusion_lat": 0.0, "lat": 39.042365, "is_reserved": 0}, {"lon": -77.01161433333333, "fusion_lon": 0.0, "bike_id": "55318721fe33d8445f5b9bec4b1f75b7", "type": "electric_scooter", "name": "55318721fe33d8445f5b9bec4b1f75b7", "rental_uris": {"android": "https://dc.lft.to/lastmile_qr_scan", "ios": "https://dc.lft.to/lastmile_qr_scan"}, "is_disabled": 0, "fusion_lat": 0.0, "lat": 38.912681166666665, "is_reserved": 0}, {"lon": -77.0365065, "fusion_lon": 0.0, "bike_id": "85ceca3d678ed0408337c725cca3e2a2", "type": "electric_scooter", "name": "85ceca3d678ed0408337c725cca3e2a2", "rental_uris": {"android": "https://dc.lft.to/lastmile_qr_scan", "ios": "https://dc.lft.to/lastmile_qr_scan"}, "is_disabled": 0, "fusion_lat": 0.0, "lat": 38.918198833333335, "is_reserved": 0}, {"lon": -77.01353416666667, "fusion_lon": 0.0, "bike_id": "256b11258d6f6c2672629944fa94908a", "type": "electric_scooter", "name": "256b11258d6f6c2672629944fa94908a", "rental_uris": {"android": "https://dc.lft.to/lastmile_qr_scan", "ios": "https://dc.lft.to/lastmile_qr_scan"}, "is_disabled": 0, "fusion_lat": 0.0, "lat": 38.8716055, "is_reserved": 0}, {"lon": -77.02804533333334, "fusion_lon": 0.0, "bike_id": "98b4b695292b5750441f8b7cf48569fc", "type": "electric_scooter", "name": "98b4b695292b5750441f8b7cf48569fc", "rental_uris": {"android": "https://dc.lft.to/lastmile_qr_scan", "ios": "https://dc.lft.to/lastmile_qr_scan"}, "is_disabled": 0, "fusion_lat": 0.0, "lat": 38.90472783333333, "is_reserved": 0}, {"lon": -76.99636, "fusion_lon": 0.0, "bike_id": "0d8351b667223c473cc173ebc08353fd", "type": "electric_scooter", "name": "0d8351b667223c473cc173ebc08353fd", "rental_uris": {"android": "https://dc.lft.to/lastmile_qr_scan", "ios": "https://dc.lft.to/lastmile_qr_scan"}, "is_disabled": 0, "fusion_lat": 0.0, "lat": 38.900621, "is_reserved": 0}, {"lon": -77.02595166666667, "fusion_lon": 0.0, "bike_id": "9769056f4f00d9742a2a7328eef2d9f1", "type": "electric_scooter", "name": "9769056f4f00d9742a2a7328eef2d9f1", "rental_uris": {"android": "https://dc.lft.to/lastmile_qr_scan", "ios": "https://dc.lft.to/lastmile_qr_scan"}, "is_disabled": 0, "fusion_lat": 0.0, "lat": 38.963938, "is_reserved": 0}, {"lon": -77.059131, "fusion_lon": 0.0, "bike_id": "4d7191d89bee663eaa4ee8e05964024d", "type": "electric_bike", "name": "4d7191d89bee663eaa4ee8e05964024d", "rental_uris": {"android": "https://dc.lft.to/lastmile_qr_scan", "ios": "https://dc.lft.to/lastmile_qr_scan"}, "is_disabled": 0, "fusion_lat": 0.0, "lat": 38.90536633333333, "is_reserved": 0}, {"lon": -77.0238625, "fusion_lon": 0.0, "bike_id": "505d83c34f2920298b7fd853f5d798d6", "type": "electric_scooter", "name": "505d83c34f2920298b7fd853f5d798d6", "rental_uris": {"android": "https://dc.lft.to/lastmile_qr_scan", "ios": "https://dc.lft.to/lastmile_qr_scan"}, "is_disabled": 0, "fusion_lat": 0.0, "lat": 38.89229916666667, "is_reserved": 0}, {"lon": -77.012724, "fusion_lon": 0.0, "bike_id": "e1afe6a6f8abe987fe3ba6e3d8c602e6", "type": "electric_scooter", "name": "e1afe6a6f8abe987fe3ba6e3d8c602e6", "rental_uris": {"android": "https://dc.lft.to/lastmile_qr_scan", "ios": "https://dc.lft.to/lastmile_qr_scan"}, "is_disabled": 0, "fusion_lat": 0.0, "lat": 38.872974666666664, "is_reserved": 0}, {"lon": -76.9976925, "fusion_lon": 0.0, "bike_id": "1a0ed72cf0f9ce5e6520cc796656a07a", "type": "electric_scooter", "name": "1a0ed72cf0f9ce5e6520cc796656a07a", "rental_uris": {"android": "https://dc.lft.to/lastmile_qr_scan", "ios": "https://dc.lft.to/lastmile_qr_scan"}, "is_disabled": 0, "fusion_lat": 0.0, "lat": 38.911157333333335, "is_reserved": 0}, {"lon": -77.01835516666667, "fusion_lon": 0.0, "bike_id": "3f5d4dbff7ebce95cfb2cd1e92a48292", "type": "electric_scooter", "name": "3f5d4dbff7ebce95cfb2cd1e92a48292", "rental_uris": {"android": "https://dc.lft.to/lastmile_qr_scan", "ios": "https://dc.lft.to/lastmile_qr_scan"}, "is_disabled": 0, "fusion_lat": 0.0, "lat": 38.90111866666667, "is_reserved": 0}, {"lon": -77.03919183333333, "fusion_lon": 0.0, "bike_id": "b10c2a98b02a0bf92f20615f9e3c5cb5", "type": "electric_scooter", "name": "b10c2a98b02a0bf92f20615f9e3c5cb5", "rental_uris": {"android": "https://dc.lft.to/lastmile_qr_scan", "ios": "https://dc.lft.to/lastmile_qr_scan"}, "is_disabled": 0, "fusion_lat": 0.0, "lat": 38.91109516666667, "is_reserved": 0}, {"lon": -77.03854733333333, "fusion_lon": 0.0, "bike_id": "552be46f73641432c19908d47a8eafbc", "type": "electric_scooter", "name": "552be46f73641432c19908d47a8eafbc", "rental_uris": {"android": "https://dc.lft.to/lastmile_qr_scan", "ios": "https://dc.lft.to/lastmile_qr_scan"}, "is_disabled": 0, "fusion_lat": 0.0, "lat": 38.9176715, "is_reserved": 0}, {"lon": -77.057279, "fusion_lon": 0.0, "bike_id": "1980eb62f5383e1052285db3e16f017e", "type": "electric_scooter", "name": "1980eb62f5383e1052285db3e16f017e", "rental_uris": {"android": "https://dc.lft.to/lastmile_qr_scan", "ios": "https://dc.lft.to/lastmile_qr_scan"}, "is_disabled": 0, "fusion_lat": 0.0, "lat": 38.933647666666666, "is_reserved": 0}, {"lon": -77.05861516666667, "fusion_lon": 0.0, "bike_id": "7fd38790d8bed23da94839b4e53c2557", "type": "electric_scooter", "name": "7fd38790d8bed23da94839b4e53c2557", "rental_uris": {"android": "https://dc.lft.to/lastmile_qr_scan", "ios": "https://dc.lft.to/lastmile_qr_scan"}, "is_disabled": 0, "fusion_lat": 0.0, "lat": 38.9361, "is_reserved": 0}, {"lon": -77.01777983333334, "fusion_lon": 0.0, "bike_id": "19b2282670279d39f4e1961d8a16830a", "type": "electric_scooter", "name": "19b2282670279d39f4e1961d8a16830a", "rental_uris": {"android": "https://dc.lft.to/lastmile_qr_scan", "ios": "https://dc.lft.to/lastmile_qr_scan"}, "is_disabled": 0, "fusion_lat": 0.0, "lat": 38.88714216666666, "is_reserved": 0}, {"lon": -77.096735, "fusion_lon": 0.0, "bike_id": "4395a317f011e24a713b0383d212f44d", "type": "electric_bike", "name": "4395a317f011e24a713b0383d212f44d", "rental_uris": {"android": "https://dc.lft.to/lastmile_qr_scan", "ios": "https://dc.lft.to/lastmile_qr_scan"}, "is_disabled": 0, "fusion_lat": 0.0, "lat": 38.946169166666664, "is_reserved": 0}, {"lon": -76.92598716666667, "fusion_lon": 0.0, "bike_id": "c955c419970bc664b5e2d80898e923e1", "type": "electric_scooter", "name": "c955c419970bc664b5e2d80898e923e1", "rental_uris": {"android": "https://dc.lft.to/lastmile_qr_scan", "ios": "https://dc.lft.to/lastmile_qr_scan"},