{"data": {"bikes": [{"bike_id": "4151715cf8a4909e999d1109b28e66f9", "is_reserved": 0, "fusion_lon": 0.0, "lat": 38.89230333333333, "is_disabled": 0, "name": "4151715cf8a4909e999d1109b28e66f9", "fusion_lat": 0.0, "rental_uris": {"ios": "https://dc.lft.to/lastmile_qr_scan", "android": "https://dc.lft.to/lastmile_qr_scan"}, "lon": -77.00300416666667, "type": "electric_scooter"}, {"bike_id": "d753b58c18d70b75e4a5cdbfcfce5e47", "is_reserved": 0, "fusion_lon": 0.0, "lat": 38.908327666666665, "is_disabled": 0, "name": "d753b58c18d70b75e4a5cdbfcfce5e47", "fusion_lat": 0.0, "rental_uris": {"ios": "https://dc.lft.to/lastmile_qr_scan", "android": "https://dc.lft.to/lastmile_qr_scan"}, "lon": -76.99699166666667, "type": "electric_scooter"}, {"bike_id": "0f48dc1be6e2f1752098f88d9dcf31f4", "is_reserved": 0, "fusion_lon": 0.0, "lat": 38.917887666666665, "is_disabled": 0, "name": "0f48dc1be6e2f1752098f88d9dcf31f4", "fusion_lat": 0.0, "rental_uris": {"ios": "https://dc.lft.to/lastmile_qr_scan", "android": "https://dc.lft.to/lastmile_qr_scan"}, "lon": -77.044193, "type": "electric_scooter"}, {"bike_id": "4f76cfb7fd8a15dc6ae53a30dc8551c6", "is_reserved": 0, "fusion_lon": 0.0, "lat": 38.9051875, "is_disabled": 0, "name": "4f76cfb7fd8a15dc6ae53a30dc8551c6", "fusion_lat": 0.0, "rental_uris": {"ios": "https://dc.lft.to/lastmile_qr_scan", "android": "https://dc.lft.to/lastmile_qr_scan"}, "lon": -77.06530383333333, "type": "electric_scooter"}, {"bike_id": "6efe2e1eda4bcbd16c197826cb8f39e8", "is_reserved": 0, "fusion_lon": 0.0, "lat": 38.889691, "is_disabled": 0, "name": "6efe2e1eda4bcbd16c197826cb8f39e8", "fusion_lat": 0.0, "rental_uris": {"ios": "https://dc.lft.to/lastmile_qr_scan", "android": "https://dc.lft.to/lastmile_qr_scan"}, "lon": -76.98036583333334, "type": "electric_scooter"}, {"bike_id": "d39c954dcf467007308f83b02ad120ac", "is_reserved": 0, "fusion_lon": 0.0, "lat": 38.898292833333336, "is_disabled": 0, "name": "d39c954dcf467007308f83b02ad120ac", "fusion_lat": 0.0, "rental_uris": {"ios": "https://dc.lft.to/lastmile_qr_scan", "android": "https://dc.lft.to/lastmile_qr_scan"}, "lon": -76.98028633333334, "type": "electric_scooter"}, {"bike_id": "e49705843bfe729bd4ffeb7e0fc96ce5", "is_reserved": 0, "fusion_lon": 0.0, "lat": 38.92028166666667, "is_disabled": 0, "name": "e49705843bfe729bd4ffeb7e0fc96ce5", "fusion_lat": 0.0, "rental_uris": {"ios": "https://dc.lft.to/lastmile_qr_scan", "android": "https://dc.lft.to/lastmile_qr_scan"}, "lon": -76.99586083333334, "type": "electric_scooter"}, {"bike_id": "8856d0e1c7b2949c709eb5884f2f0f59", "is_reserved": 0, "fusion_lon": 0.0, "lat": 38.8954585, "is_disabled": 0, "name": "8856d0e1c7b2949c709eb5884f2f0f59", "fusion_lat": 0.0, "rental_uris": {"ios": "https://dc.lft.to/lastmile_qr_scan", "android": "https://dc.lft.to/lastmile_qr_scan"}, "lon": -77.025748, "type": "electric_scooter"}, {"bike_id": "f68fef780d040e2e82656bca331e3611", "is_reserved": 0, "fusion_lon": 0.0, "lat": 38.933440166666664, "is_disabled": 0, "name": "f68fef780d040e2e82656bca331e3611", "fusion_lat": 0.0, "rental_uris": {"ios": "https://dc.lft.to/lastmile_qr_scan", "android": "https://dc.lft.to/lastmile_qr_scan"}, "lon": -77.05709316666666, "type": "electric_scooter"}, {"bike_id": "7a80f6955c77117a34402c188713f1da", "is_reserved": 0, "fusion_lon": 0.0, "lat": 38.899838, "is_disabled": 0, "name": "7a80f6955c77117a34402c188713f1da", "fusion_lat": 0.0, "rental_uris": {"ios": "https://dc.lft.to/lastmile_qr_scan", "android": "https://dc.lft.to/lastmile_qr_scan"}, "lon": -77.00932516666667, "type": "electric_scooter"}, {"bike_id": "d2e040d8104f1b5c86f40a715937bb14", "is_reserved": 0, "fusion_lon": 0.0, "lat": 38.89199583333333, "is_disabled": 0, "name": "d2e040d8104f1b5c86f40a715937bb14", "fusion_lat": 0.0, "rental_uris": {"ios": "https://dc.lft.to/lastmile_qr_scan", "android": "https://dc.lft.to/lastmile_qr_scan"}, "lon": -77.01551416666666, "type": "electric_scooter"}, {"bike_id": "5e0ee39302eaee6713254f56ad898019", "is_reserved": 0, "fusion_lon": 0.0, "lat": 38.94425316666667, "is_disabled": 0, "name": "5e0ee39302eaee6713254f56ad898019", "fusion_lat": 0.0, "rental_uris": {"ios": "https://dc.lft.to/lastmile_qr_scan", "android": "https://dc.lft.to/lastmile_qr_scan"}, "lon": -77.06263283333334, "type": "electric_scooter"}, {"bike_id": "8f36d67ba863b647883410d72339bcd3", "is_reserved": 0, "fusion_lon": 0.0, "lat": 39.03052616666667, "is_disabled": 0, "name": "8f36d67ba863b647883410d72339bcd3", "fusion_lat": 0.0, "rental_uris": {"ios": "https://dc.lft.to/lastmile_qr_scan", "android": "https://dc.lft.to/lastmile_qr_scan"}, "lon": -77.09483116666667, "type": "electric_bike"}, {"bike_id": "6775900821b1b50685df29dccbd55f87", "is_reserved": 0, "fusion_lon": 0.0, "lat": 38.902717333333335, "is_disabled": 0, "name": "6775900821b1b50685df29dccbd55f87", "fusion_lat": 0.0, "rental_uris": {"ios": "https://dc.lft.to/lastmile_qr_scan", "android": "https://dc.lft.to/lastmile_qr_scan"}, "lon": -77.03473616666666, "type": "electric_scooter"}, {"bike_id": "a3777eed6a3392a8cf270527979c1cd9", "is_reserved": 0, "fusion_lon": 0.0, "lat": 38.887040666666664, "is_disabled": 0, "name": "a3777eed6a3392a8cf270527979c1cd9", "fusion_lat": 0.0, "rental_uris": {"ios": "https://dc.lft.to/lastmile_qr_scan", "android": "https://dc.lft.to/lastmile_qr_scan"}, "lon": -77.0015135, "type": "electric_scooter"}, {"bike_id": "1992275fa5b25825e1a60722d02e5ebd", "is_reserved": 0, "fusion_lon": 0.0, "lat": 38.892246166666666, "is_disabled": 0, "name": "1992275fa5b25825e1a60722d02e5ebd", "fusion_lat": 0.0, "rental_uris": {"ios": "https://dc.lft.to/lastmile_qr_scan", "android": "https://dc.lft.to/lastmile_qr_scan"}, "lon": -77.0283925, "type": "electric_scooter"}, {"bike_id": "85ca0371aa10e8e3ca7e3994b616654f", "is_reserved": 0, "fusion_lon": 0.0, "lat": 38.90421583333333, "is_disabled": 0, "name": "85ca0371aa10e8e3ca7e3994b616654f", "fusion_lat": 0.0, "rental_uris": {"ios": "https://dc.lft.to/lastmile_qr_scan", "android": "https://dc.lft.to/lastmile_qr_scan"}, "lon": -77.03439133333333, "type": "electric_scooter"}, {"bike_id": "d377da84ad1e44e9c4acce432e0cb03d", "is_reserved": 0, "fusion_lon": 0.0, "lat": 38.985961833333334, "is_disabled": 0, "name": "d377da84ad1e44e9c4acce432e0cb03d", "fusion_lat": 0.0, "rental_uris": {"ios": "https://dc.lft.to/lastmile_qr_scan", "android": "https://dc.lft.to/lastmile_qr_scan"}, "lon": -77.037524, "type": "electric_bike"}, {"bike_id": "6a89d3662351ddbbc3ae4efb284a45ee", "is_reserved": 0, "fusion_lon": 0.0, "lat": 38.984651166666666, "is_disabled": 0, "name": "6a89d3662351ddbbc3ae4efb284a45ee", "fusion_lat": 0.0, "rental_uris": {"ios": "https://dc.lft.to/lastmile_qr_scan", "android": "https://dc.lft.to/lastmile_qr_scan"}, "lon": -76.95530116666667, "type": "electric_bike"}, {"bike_id": "9595553f916c91ff9f9019dce8f82785", "is_reserved": 0, "fusion_lon": 0.0, "lat": 38.892295833333336, "is_disabled": 0, "name": "9595553f916c91ff9f9019dce8f82785", "fusion_lat": 0.0, "rental_uris": {"ios": "https://dc.lft.to/lastmile_qr_scan", "android": "https://dc.lft.to/lastmile_qr_scan"}, "lon": -77.02584566666667, "type": "electric_scooter"}, {"bike_id": "d0ac7a05c29c1815640fda399880c831", "is_reserved": 0, "fusion_lon": 0.0, "lat": 38.91372533333333, "is_disabled": 0, "name": "d0ac7a05c29c1815640fda399880c831", "fusion_lat": 0.0, "rental_uris": {"ios": "https://dc.lft.to/lastmile_qr_scan", "android": "https://dc.lft.to/lastmile_qr_scan"}, "lon": -77.03977616666667, "type": "electric_scooter"}, {"bike_id": "0a24abe2a6b061bec43a047e0b6abc7b", "is_reserved": 0, "fusion_lon": 0.0, "lat": 38.9208215, "is_disabled": 0, "name": "0a24abe2a6b061bec43a047e0b6abc7b", "fusion_lat": 0.0, "rental_uris": {"ios": "https://dc.lft.to/lastmile_qr_scan", "android": "https://dc.lft.to/lastmile_qr_scan"}, "lon": -77.02523383333333, "type": "electric_scooter"}, {"bike_id": "1ae7577407ba661cbfcd2c458304b8d6", "is_reserved": 0, "fusion_lon": 0.0, "lat": 38.8974445, "is_disabled": 0, "name": "1ae7577407ba661cbfcd2c458304b8d6", "fusion_lat": 0.0, "rental_uris": {"ios": "https://dc.lft.to/lastmile_qr_scan", "android": "https://dc.lft.to/lastmile_qr_scan"}, "lon": -77.02733733333334, "type": "electric_scooter"}, {"bike_id": "d01a9ffff57940d07f46f154bf48afe0", "is_reserved": 0, "fusion_lon": 0.0, "lat": 38.902755, "is_disabled": 0, "name": "d01a9ffff57940d07f46f154bf48afe0", "fusion_lat": 0.0, "rental_uris": {"ios": "https://dc.lft.to/lastmile_qr_scan", "android": "https://dc.lft.to/lastmile_qr_scan"}, "lon": -77.040596, "type": "electric_scooter"}, {"bike_id": "fd2a72fc8ea75b00b7843e432784dcdc", "is_reserved": 0, "fusion_lon": 0.0, "lat": 38.806975666666666, "is_disabled": 0, "name": "fd2a72fc8ea75b00b7843e432784dcdc", "fusion_lat": 0.0, "rental_uris": {"ios": "https://dc.lft.to/lastmile_qr_scan", "android": "https://dc.lft.to/lastmile_qr_scan"}, "lon": -77.059654, "type": "electric_bike"}, {"bike_id": "31f85a4362a2943ccf8ef83d601d27f0", "is_reserved": 0, "fusion_lon": 0.0, "lat": 38.938854666666664, "is_disabled": 0, "name": "31f85a4362a2943ccf8ef83d601d27f0", "fusion_lat": 0.0, "rental_uris": {"ios": "https://dc.lft.to/lastmile_qr_scan", "android": "https://dc.lft.to/lastmile_qr_scan"}, "lon": -77.02826533333334, "type": "electric_scooter"}, {"bike_id": "fefd6019e2f7f8357704488aa9649be8", "is_reserved": 0, "fusion_lon": 0.0, "lat": 38.927499, "is_disabled": 0, "name": "fefd6019e2f7f8357704488aa9649be8", "fusion_lat": 0.0, "rental_uris": {"ios": "https://dc.lft.to/lastmile_qr_scan", "android": "https://dc.lft.to/lastmile_qr_scan"}, "lon": -77.0536605, "type": "electric_scooter"}, {"bike_id": "339704fb31767fa4a6fb68bd3f3be82a", "is_reserved": 0, "fusion_lon": 0.0, "lat": 38.93951633333333, "is_disabled": 0, "name": "339704fb31767fa4a6fb68bd3f3be82a", "fusion_lat": 0.0, "rental_uris": {"ios": "https://dc.lft.to/lastmile_qr_scan", "android": "https://dc.lft.to/lastmile_qr_scan"}, "lon": -77.0326715, "type": "electric_scooter"}, {"bike_id": "ffde043ace44ab7ae420bbbc2307c8b4", "is_reserved": 0, "fusion_lon": 0.0, "lat": 38.86563866666667, "is_disabled": 0, "name": "ffde043ace44ab7ae420bbbc2307c8b4", "fusion_lat": 0.0, "rental_uris": {"ios": "https://dc.lft.to/lastmile_qr_scan", "android": "https://dc.lft.to/lastmile_qr_scan"}, "lon": -76.98953183333333, "type": "electric_scooter"}, {"bike_id": "70ce9f4a3e64cbfabf2ea45de2e0315b", "is_reserved": 0, "fusion_lon": 0.0, "lat": 38.92363866666667, "is_disabled": 0, "name": "70ce9f4a3e64cbfabf2ea45de2e0315b", "fusion_lat": 0.0, "rental_uris": {"ios": "https://dc.lft.to/lastmile_qr_scan", "android": "https://dc.lft.to/lastmile_qr_scan"}, "lon": -77.01918583333334, "type": "electric_scooter"}, {"bike_id": "50cc58775ddd9ac9e85d4ec11c7773d1", "is_reserved": 0, "fusion_lon": 0.0, "lat": 38.86595166666667, "is_disabled": 0, "name": "50cc58775ddd9ac9e85d4ec11c7773d1", "fusion_lat": 0.0, "rental_uris": {"ios": "https://dc.lft.to/lastmile_qr_scan", "android": "https://dc.lft.to/lastmile_qr_scan"}, "lon": -76.9323205, "type": "electric_bike"}, {"bike_id": "084fbd5cb57208c055f8efcfeef4b59e", "is_reserved": 0, "fusion_lon": 0.0, "lat": 38.9180325, "is_disabled": 0, "name": "084fbd5cb57208c055f8efcfeef4b59e", "fusion_lat": 0.0, "rental_uris": {"ios": "https://dc.lft.to/lastmile_qr_scan", "android": "https://dc.lft.to/lastmile_qr_scan"}, "lon": -77.03191183333334, "type": "electric_scooter"}, {"bike_id": "d22423e3eb95aa883314d40ba18a485a", "is_reserved": 0, "fusion_lon": 0.0, "lat": 38.900639166666664, "is_disabled": 0, "name": "d22423e3eb95aa883314d40ba18a485a", "fusion_lat": 0.0, "rental_uris": {"ios": "https://dc.lft.to/lastmile_qr_scan", "android": "https://dc.lft.to/lastmile_qr_scan"}, "lon": -77.00741966666666, "type": "electric_scooter"}, {"bike_id": "4918fdb38768e4f553aae2bea4adea84", "is_reserved": 0, "fusion_lon": 0.0, "lat": 38.92346783333333, "is_disabled": 0, "name": "4918fdb38768e4f553aae2bea4adea84", "fusion_lat": 0.0, "rental_uris": {"ios": "https://dc.lft.to/lastmile_qr_scan", "android": "https://dc.lft.to/lastmile_qr_scan"}, "lon": -77.019071, "type": "electric_scooter"}, {"bike_id": "54fcb6fd9c97efae29e17c222e2b07f3", "is_reserved": 0, "fusion_lon": 0.0, "lat": 38.93951783333333, "is_disabled": 0, "name": "54fcb6fd9c97efae29e17c222e2b07f3", "fusion_lat": 0.0, "rental_uris": {"ios": "https://dc.lft.to/lastmile_qr_scan", "android": "https://dc.lft.to/lastmile_qr_scan"}, "lon": -77.03270866666666, "type": "electric_scooter"}, {"bike_id": "8ab943cc3a1c4dce78eb910f601441f2", "is_reserved": 0, "fusion_lon": 0.0, "lat": 38.8522615, "is_disabled": 0, "name": "8ab943cc3a1c4dce78eb910f601441f2", "fusion_lat": 0.0, "rental_uris": {"ios": "https://dc.lft.to/lastmile_qr_scan", "android": "https://dc.lft.to/lastmile_qr_scan"}, "lon": -77.12955783333334, "type": "electric_bike"}, {"bike_id": "c28fef33d472d5231e207a73998bdd15", "is_reserved": 0, "fusion_lon": 0.0, "lat": 38.87736366666667, "is_disabled": 0, "name": "c28fef33d472d5231e207a73998bdd15", "fusion_lat": 0.0, "rental_uris": {"ios": "https://dc.lft.to/lastmile_qr_scan", "android": "https://dc.lft.to/lastmile_qr_scan"}, "lon": -76.97280716666667, "type": "electric_scooter"}, {"bike_id": "baee964cce82436e5d77af50ab47845a", "is_reserved": 0, "fusion_lon": 0.0, "lat": 38.90024483333333, "is_disabled": 0, "name": "baee964cce82436e5d77af50ab47845a", "fusion_lat": 0.0, "rental_uris": {"ios": "https://dc.lft.to/lastmile_qr_scan", "android": "https://dc.lft.to/lastmile_qr_scan"}, "lon": -77.011585, "type": "electric_scooter"}, {"bike_id": "f188b946ca7237c943a4af03a1500be3", "is_reserved": 0, "fusion_lon": 0.0, "lat": 38.894830166666665, "is_disabled": 0, "name": "f188b946ca7237c943a4af03a1500be3", "fusion_lat": 0.0, "rental_uris": {"ios": "https://dc.lft.to/lastmile_qr_scan", "android": "https://dc.lft.to/lastmile_qr_scan"}, "lon": -77.050052, "type": "electric_scooter"}, {"bike_id": "eafacbf698b2951b441fd114c83546ec", "is_reserved": 0, "fusion_lon": 0.0, "lat": 38.90515383333333, "is_disabled": 0, "name": "eafacbf698b2951b441fd114c83546ec", "fusion_lat": 0.0, "rental_uris": {"ios": "https://dc.lft.to/lastmile_qr_scan", "android": "https://dc.lft.to/lastmile_qr_scan"}, "lon": -77.05017966666666, "type": "electric_scooter"}, {"bike_id": "ddf7b154ca8b94e092f7b017008697ae", "is_reserved": 0, "fusion_lon": 0.0, "lat": 38.892219833333336, "is_disabled": 0, "name": "ddf7b154ca8b94e092f7b017008697ae", "fusion_lat": 0.0, "rental_uris": {"ios": "https://dc.lft.to/lastmile_qr_scan", "android": "https://dc.lft.to/lastmile_qr_scan"}, "lon": -77.043643, "type": "electric_scooter"}, {"bike_id": "17378c4b85e23093032836a33086cdbf", "is_reserved": 0, "fusion_lon": 0.0, "lat": 38.915590333333334, "is_disabled": 0, "name": "17378c4b85e23093032836a33086cdbf", "fusion_lat": 0.0, "rental_uris": {"ios": "https://dc.lft.to/lastmile_qr_scan", "android": "https://dc.lft.to/lastmile_qr_scan"}, "lon": -77.03867116666666, "type": "electric_scooter"}, {"bike_id": "514fbe62d3379230c09a47393edefe15", "is_reserved": 0, "fusion_lon": 0.0, "lat": 38.9237325, "is_disabled": 0, "name": "514fbe62d3379230c09a47393edefe15", "fusion_lat": 0.0, "rental_uris": {"ios": "https://dc.lft.to/lastmile_qr_scan", "android": "https://dc.lft.to/lastmile_qr_scan"}, "lon": -77.0206785, "type": "electric_scooter"}, {"bike_id": "e731b2e166ce03976f10d8557827422e", "is_reserved": 0, "fusion_lon": 0.0, "lat": 38.897325, "is_disabled": 0, "name": "e731b2e166ce03976f10d8557827422e", "fusion_lat": 0.0, "rental_uris": {"ios": "https://dc.lft.to/lastmile_qr_scan", "android": "https://dc.lft.to/lastmile_qr_scan"}, "lon": -77.04637816666667, "type": "electric_scooter"}, {"bike_id": "0784b1ea800c08876380139382d72737", "is_reserved": 0, "fusion_lon": 0.0, "lat": 38.89559466666667, "is_disabled": 0, "name": "0784b1ea800c08876380139382d72737", "fusion_lat": 0.0, "rental_uris": {"ios": "https://dc.lft.to/lastmile_qr_scan", "android": "https://dc.lft.to/lastmile_qr_scan"}, "lon": -77.04674966666667, "type": "electric_scooter"}, {"bike_id": "b7f51ceef53fd67befb1f4c845fa99bc", "is_reserved": 0, "fusion_lon": 0.0, "lat": 38.905121666666666, "is_disabled": 0, "name": "b7f51ceef53fd67befb1f4c845fa99bc", "fusion_lat": 0.0, "rental_uris": {"ios": "https://dc.lft.to/lastmile_qr_scan", "android": "https://dc.lft.to/lastmile_qr_scan"}, "lon": -77.0569375, "type": "electric_bike"}, {"bike_id": "992983bee56ebb069cec6610c7e8d592", "is_reserved": 0, "fusion_lon": 0.0, "lat": 38.934993666666664, "is_disabled": 0, "name": "992983bee56ebb069cec6610c7e8d592", "fusion_lat": 0.0, "rental_uris": {"ios": "https://dc.lft.to/lastmile_qr_scan", "android": "https://dc.lft.to/lastmile_qr_scan"}, "lon": -77.027264, "type": "electric_scooter"}, {"bike_id": "b7c04dd3f414ac3cda2b2fd90125e734", "is_reserved": 0, "fusion_lon": 0.0, "lat": 38.939741, "is_disabled": 0, "name": "b7c04dd3f414ac3cda2b2fd90125e734", "fusion_lat": 0.0, "rental_uris": {"ios": "https://dc.lft.to/lastmile_qr_scan", "android": "https://dc.lft.to/lastmile_qr_scan"}, "lon": -77.03588483333333, "type": "electric_scooter"}, {"bike_id": "d2ebb09853bbc417e1a74e81c4e8a02f", "is_reserved": 0, "fusion_lon": 0.0, "lat": 38.8620585, "is_disabled": 0, "name": "d2ebb09853bbc417e1a74e81c4e8a02f", "fusion_lat": 0.0, "rental_uris": {"ios": "https://dc.lft.to/lastmile_qr_scan", "android": "https://dc.lft.to/lastmile_qr_scan"}, "lon": -76.99469083333334, "type": "electric_scooter"}, {"bike_id": "8dcce4049eb36bbb55a04647ac9c2e46", "is_reserved": 0, "fusion_lon": 0.0, "lat": 38.936714333333335, "is_disabled": 0, "name": "8dcce4049eb36bbb55a04647ac9c2e46", "fusion_lat": 0.0, "rental_uris": {"ios": "https://dc.lft.to/lastmile_qr_scan", "android": "https://dc.lft.to/lastmile_qr_scan"}, "lon": -77.059292, "type": "electric_scooter"}, {"bike_id": "2aa913cef95ce1e40ca945ceb6b213b2", "is_reserved": 0, "fusion_lon": 0.0, "lat": 38.939873166666665, "is_disabled": 0, "name": "2aa913cef95ce1e40ca945ceb6b213b2", "fusion_lat": 0.0, "rental_uris": {"ios": "https://dc.lft.to/lastmile_qr_scan", "android": "https://dc.lft.to/lastmile_qr_scan"}, "lon": -77.028886, "type": "electric_scooter"}, {"bike_id": "85600d6eb4c88c057384d1202c48b4c1", "is_reserved": 0, "fusion_lon": 0.0, "lat": 38.8596295, "is_disabled": 0, "name": "85600d6eb4c88c057384d1202c48b4c1", "fusion_lat": 0.0, "rental_uris": {"ios": "https://dc.lft.to/lastmile_qr_scan", "android": "https://dc.lft.to/lastmile_qr_scan"}, "lon": -76.99110716666667, "type": "electric_scooter"}, {"bike_id": "f0dc12cedc24a1ad18d9d895161db2b2", "is_reserved": 0, "fusion_lon": 0.0, "lat": 38.903824, "is_disabled": 0, "name": "f0dc12cedc24a1ad18d9d895161db2b2", "fusion_lat": 0.0, "rental_uris": {"ios": "https://dc.lft.to/lastmile_qr_scan", "android": "https://dc.lft.to/lastmile_qr_scan"}, "lon": -77.045198, "type": "electric_scooter"}, {"bike_id": "6b60b3ceadc21ee5192cecc3f7620d6b", "is_reserved": 0, "fusion_lon": 0.0, "lat": 38.81311616666667, "is_disabled": 0, "name": "6b60b3ceadc21ee5192cecc3f7620d6b", "fusion_lat": 0.0, "rental_uris": {"ios": "https://dc.lft.to/lastmile_qr_scan", "android": "https://dc.lft.to/lastmile_qr_scan"}, "lon": -77.05095466666667, "type": "electric_bike"}, {"bike_id": "bbe5dc05441c0a77f42c6a743898375a", "is_reserved": 0, "fusion_lon": 0.0, "lat": 38.92864566666667, "is_disabled": 0, "name": "bbe5dc05441c0a77f42c6a743898375a", "fusion_lat": 0.0, "rental_uris": {"ios": "https://dc.lft.to/lastmile_qr_scan", "android": "https://dc.lft.to/lastmile_qr_scan"}, "lon": -76.98937566666666, "type": "electric_bike"}, {"bike_id": "b7771c3d9541909d62a5b5860a90958b", "is_reserved": 0, "fusion_lon": 0.0, "lat": 38.89223, "is_disabled": 0, "name": "b7771c3d9541909d62a5b5860a90958b", "fusion_lat": 0.0, "rental_uris": {"ios": "https://dc.lft.to/lastmile_qr_scan", "android": "https://dc.lft.to/lastmile_qr_scan"}, "lon": -77.02577816666667, "type": "electric_scooter"}, {"bike_id": "93e8c946e2a8909417185b5b27a9409d", "is_reserved": 0, "fusion_lon": 0.0, "lat": 38.908057, "is_disabled": 0, "name": "93e8c946e2a8909417185b5b27a9409d", "fusion_lat": 0.0, "rental_uris": {"ios": "https://dc.lft.to/lastmile_qr_scan", "android": "https://dc.lft.to/lastmile_qr_scan"}, "lon": -77.03423516666666, "type": "electric_scooter"}, {"bike_id": "0d54c6f092be0c8bc940c01c1bdc80c0", "is_reserved": 0, "fusion_lon": 0.0, "lat": 38.92179383333333, "is_disabled": 0, "name": "0d54c6f092be0c8bc940c01c1bdc80c0", "fusion_lat": 0.0, "rental_uris": {"ios": "https://dc.lft.to/lastmile_qr_scan", "android": "https://dc.lft.to/lastmile_qr_scan"}, "lon": -77.025405, "type": "electric_scooter"}, {"bike_id": "6d899508c793b5db064681b9fdfeaafb", "is_reserved": 0, "fusion_lon": 0.0, "lat": 38.913320666666664, "is_disabled": 0, "name": "6d899508c793b5db064681b9fdfeaafb", "fusion_lat": 0.0, "rental_uris": {"ios": "https://dc.lft.to/lastmile_qr_scan", "android": "https://dc.lft.to/lastmile_qr_scan"}, "lon": -77.03257716666667, "type": "electric_scooter"}, {"bike_id": "9e1cadc959870d86f02c02d06f3a217d", "is_reserved": 0, "fusion_lon": 0.0, "lat": 38.92138766666667, "is_disabled": 0, "name": "9e1cadc959870d86f02c02d06f3a217d", "fusion_lat": 0.0, "rental_uris": {"ios": "https://dc.lft.to/lastmile_qr_scan", "android": "https://dc.lft.to/lastmile_qr_scan"}, "lon": -77.0176505, "type": "electric_scooter"}, {"bike_id": "eee183637503ca01564377f578a10a31", "is_reserved": 0, "fusion_lon": 0.0, "lat": 38.90771566666667, "is_disabled": 0, "name": "eee183637503ca01564377f578a10a31", "fusion_lat": 0.0, "rental_uris": {"ios": "https://dc.lft.to/lastmile_qr_scan", "android": "https://dc.lft.to/lastmile_qr_scan"}, "lon": -77.04262883333334, "type": "electric_scooter"}, {"bike_id": "6be30b4a85f42d1fb6a1985aa20b9aa7", "is_reserved": 0, "fusion_lon": 0.0, "lat": 38.9180805, "is_disabled": 0, "name": "6be30b4a85f42d1fb6a1985aa20b9aa7", "fusion_lat": 0.0, "rental_uris": {"ios": "https://dc.lft.to/lastmile_qr_scan", "android": "https://dc.lft.to/lastmile_qr_scan"}, "lon": -77.03300116666666, "type": "electric_scooter"}, {"bike_id": "c42521dfa3054bc94315beee8dee83e0", "is_reserved": 0, "fusion_lon": 0.0, "lat": 38.94368633333333, "is_disabled": 0, "name": "c42521dfa3054bc94315beee8dee83e0", "fusion_lat": 0.0, "rental_uris": {"ios": "https://dc.lft.to/lastmile_qr_scan", "android": "https://dc.lft.to/lastmile_qr_scan"}, "lon": -77.02177733333333, "type": "electric_scooter"}, {"bike_id": "1222b5fb8d2736bb11935000b77a870d", "is_reserved": 0, "fusion_lon": 0.0, "lat": 38.923684333333334, "is_disabled": 0, "name": "1222b5fb8d2736bb11935000b77a870d", "fusion_lat": 0.0, "rental_uris": {"ios": "https://dc.lft.to/lastmile_qr_scan", "android": "https://dc.lft.to/lastmile_qr_scan"}, "lon": -77.05027533333333, "type": "electric_scooter"}, {"bike_id": "ab07ae389839311200b837905282d9ae", "is_reserved": 0, "fusion_lon": 0.0, "lat": 38.88769533333333, "is_disabled": 0, "name": "ab07ae389839311200b837905282d9ae", "fusion_lat": 0.0, "rental_uris": {"ios": "https://dc.lft.to/lastmile_qr_scan", "android": "https://dc.lft.to/lastmile_qr_scan"}, "lon": -76.98052516666667, "type": "electric_scooter"}, {"bike_id": "21115437aede665235b7e262c57ca2c9", "is_reserved": 0, "fusion_lon": 0.0, "lat": 38.907794333333335, "is_disabled": 0, "name": "21115437aede665235b7e262c57ca2c9", "fusion_lat": 0.0, "rental_uris": {"ios": "https://dc.lft.to/lastmile_qr_scan", "android": "https://dc.lft.to/lastmile_qr_scan"}, "lon": -77.042781, "type": "electric_scooter"}, {"bike_id": "fce59e0da850ca9576aa9cf7e44042a4", "is_reserved": 0, "fusion_lon": 0.0, "lat": 38.866243833333336, "is_disabled": 0, "name": "fce59e0da850ca9576aa9cf7e44042a4", "fusion_lat": 0.0, "rental_uris": {"ios": "https://dc.lft.to/lastmile_qr_scan", "android": "https://dc.lft.to/lastmile_qr_scan"}, "lon": -76.986614, "type": "electric_scooter"}, {"bike_id": "235d183a990749b7fc94afb56156e564", "is_reserved": 0, "fusion_lon": 0.0, "lat": 38.935106, "is_disabled": 0, "name": "235d183a990749b7fc94afb56156e564", "fusion_lat": 0.0, "rental_uris": {"ios": "https://dc.lft.to/lastmile_qr_scan", "android": "https://dc.lft.to/lastmile_qr_scan"}, "lon": -77.0199715, "type": "electric_scooter"}, {"bike_id": "3679a2316dea00332caf6a2f91609fdc", "is_reserved": 0, "fusion_lon": 0.0, "lat": 38.873406, "is_disabled": 0, "name": "3679a2316dea00332caf6a2f91609fdc", "fusion_lat": 0.0, "rental_uris": {"ios": "https://dc.lft.to/lastmile_qr_scan", "android": "https://dc.lft.to/lastmile_qr_scan"}, "lon": -77.10623716666667, "type": "electric_bike"}, {"bike_id": "bbb36fd4194f48a614a9b15230127a0f", "is_reserved": 0, "fusion_lon": 0.0, "lat": 38.892231833333334, "is_disabled": 0, "name": "bbb36fd4194f48a614a9b15230127a0f", "fusion_lat": 0.0, "rental_uris": {"ios": "https://dc.lft.to/lastmile_qr_scan", "android": "https://dc.lft.to/lastmile_qr_scan"}, "lon": -77.04192, "type": "electric_scooter"}, {"bike_id": "78da1964ca1158ff1fd7a209eaf6f0b2", "is_reserved": 0, "fusion_lon": 0.0, "lat": 38.92266633333333, "is_disabled": 0, "name": "78da1964ca1158ff1fd7a209eaf6f0b2", "fusion_lat": 0.0, "rental_uris": {"ios": "https://dc.lft.to/lastmile_qr_scan", "android": "https://dc.lft.to/lastmile_qr_scan"}, "lon": -76.97429, "type": "electric_bike"}, {"bike_id": "a6e7ee2c1a2c94a2fc2cbfcc7c431f81", "is_reserved": 0, "fusion_lon": 0.0, "lat": 38.89552966666667, "is_disabled": 0, "name": "a6e7ee2c1a2c94a2fc2cbfcc7c431f81", "fusion_lat": 0.0, "rental_uris": {"ios": "https://dc.lft.to/lastmile_qr_scan", "android": "https://dc.lft.to/lastmile_qr_scan"}, "lon": -77.00913766666666, "type": "electric_scooter"}, {"bike_id": "70de06ee2f09522e2b78661c001d2af5", "is_reserved": 0, "fusion_lon": 0.0, "lat": 38.900139333333335, "is_disabled": 0, "name": "70de06ee2f09522e2b78661c001d2af5", "fusion_lat": 0.0, "rental_uris": {"ios": "https://dc.lft.to/lastmile_qr_scan", "android": "https://dc.lft.to/lastmile_qr_scan"}, "lon": -77.0465875, "type": "electric_scooter"}, {"bike_id": "31d78c55fd1220ecba1247a412696d9a", "is_reserved": 0, "fusion_lon": 0.0, "lat": 38.890890166666665, "is_disabled": 0, "name": "31d78c55fd1220ecba1247a412696d9a", "fusion_lat": 0.0, "rental_uris": {"ios": "https://dc.lft.to/lastmile_qr_scan", "android": "https://dc.lft.to/lastmile_qr_scan"}, "lon": -76.98744366666666, "type": "electric_scooter"}, {"bike_id": "1590b78c92b149e3310b44c2c58a88f1", "is_reserved": 0, "fusion_lon": 0.0, "lat": 38.89901916666667, "is_disabled": 0, "name": "1590b78c92b149e3310b44c2c58a88f1", "fusion_lat": 0.0, "rental_uris": {"ios": "https://dc.lft.to/lastmile_qr_scan", "android": "https://dc.lft.to/lastmile_qr_scan"}, "lon": -76.97739266666666, "type": "electric_scooter"}, {"bike_id": "375362acb70cc33448bb8f4659119706", "is_reserved": 0, "fusion_lon": 0.0, "lat": 38.937876833333334, "is_disabled": 0, "name": "375362acb70cc33448bb8f4659119706", "fusion_lat": 0.0, "rental_uris": {"ios": "https://dc.lft.to/lastmile_qr_scan", "android": "https://dc.lft.to/lastmile_qr_scan"}, "lon": -77.02333933333334, "type": "electric_scooter"}, {"bike_id": "28d172c45e6703c8886d43428b9d55a7", "is_reserved": 0, "fusion_lon": 0.0, "lat": 38.90090083333333, "is_disabled": 0, "name": "28d172c45e6703c8886d43428b9d55a7", "fusion_lat": 0.0, "rental_uris": {"ios": "https://dc.lft.to/lastmile_qr_scan", "android": "https://dc.lft.to/lastmile_qr_scan"}, "lon": -77.02531616666667, "type": "electric_scooter"}, {"bike_id": "db21d654fe03a89002f7ede659d100e4", "is_reserved": 0, "fusion_lon": 0.0, "lat": 38.913390666666665, "is_disabled": 0, "name": "db21d654fe03a89002f7ede659d100e4", "fusion_lat": 0.0, "rental_uris": {"ios": "https://dc.lft.to/lastmile_qr_scan", "android": "https://dc.lft.to/lastmile_qr_scan"}, "lon": -77.048332, "type": "electric_scooter"}, {"bike_id": "b263f377f136894ff7f55ddeb0668dc0", "is_reserved": 0, "fusion_lon": 0.0, "lat": 38.907218666666665, "is_disabled": 0, "name": "b263f377f136894ff7f55ddeb0668dc0", "fusion_lat": 0.0, "rental_uris": {"ios": "https://dc.lft.to/lastmile_qr_scan", "android": "https://dc.lft.to/lastmile_qr_scan"}, "lon": -77.02542133333333, "type": "electric_scooter"}, {"bike_id": "d91bc62b44c58767222829c267cf4e0a", "is_reserved": 0, "fusion_lon": 0.0, "lat": 38.86620383333333, "is_disabled": 0, "name": "d91bc62b44c58767222829c267cf4e0a", "fusion_lat": 0.0, "rental_uris": {"ios": "https://dc.lft.to/lastmile_qr_scan", "android": "https://dc.lft.to/lastmile_qr_scan"}, "lon": -76.9866815, "type": "electric_scooter"}, {"bike_id": "d5ab63a98ea44375f335e3ee96f4f96a", "is_reserved": 0, "fusion_lon": 0.0, "lat": 38.88133233333333, "is_disabled": 0, "name": "d5ab63a98ea44375f335e3ee96f4f96a", "fusion_lat": 0.0, "rental_uris": {"ios": "https://dc.lft.to/lastmile_qr_scan", "android": "https://dc.lft.to/lastmile_qr_scan"}, "lon": -77.0270865, "type": "electric_bike"}, {"bike_id": "acee0db563daad65e966dc392d0d71a6", "is_reserved": 0, "fusion_lon": 0.0, "lat": 38.913822333333336, "is_disabled": 0, "name": "acee0db563daad65e966dc392d0d71a6", "fusion_lat": 0.0, "rental_uris": {"ios": "https://dc.lft.to/lastmile_qr_scan", "android": "https://dc.lft.to/lastmile_qr_scan"}, "lon": -77.044933, "type": "electric_scooter"}, {"bike_id": "34d988df21358785c87a67ecdd530cd6", "is_reserved": 0, "fusion_lon": 0.0, "lat": 38.9014315, "is_disabled": 0, "name": "34d988df21358785c87a67ecdd530cd6", "fusion_lat": 0.0, "rental_uris": {"ios": "https://dc.lft.to/lastmile_qr_scan", "android": "https://dc.lft.to/lastmile_qr_scan"}, "lon": -77.02714433333334, "type": "electric_scooter"}, {"bike_id": "fed555b7599342de3188c2e66298330e", "is_reserved": 0, "fusion_lon": 0.0, "lat": 38.901917166666664, "is_disabled": 0, "name": "fed555b7599342de3188c2e66298330e", "fusion_lat": 0.0, "rental_uris": {"ios": "https://dc.lft.to/lastmile_qr_scan", "android": "https://dc.lft.to/lastmile_qr_scan"}, "lon": -76.92996266666667, "type": "electric_scooter"}, {"bike_id": "d58b0276dbe50fa52ba0a26e925d4ebd", "is_reserved": 0, "fusion_lon": 0.0, "lat": 38.883919166666665, "is_disabled": 0, "name": "d58b0276dbe50fa52ba0a26e925d4ebd", "fusion_lat": 0.0, "rental_uris": {"ios": "https://dc.lft.to/lastmile_qr_scan", "android": "https://dc.lft.to/lastmile_qr_scan"}, "lon": -77.02595583333333, "type": "electric_scooter"}, {"bike_id": "22256bf43220070325df10f7d1d11212", "is_reserved": 0, "fusion_lon": 0.0, "lat": 38.908426, "is_disabled": 0, "name": "22256bf43220070325df10f7d1d11212", "fusion_lat": 0.0, "rental_uris": {"ios": "https://dc.lft.to/lastmile_qr_scan", "android": "https://dc.lft.to/lastmile_qr_scan"}, "lon": -77.02593916666666, "type": "electric_scooter"}, {"bike_id": "1746a40ab413d119aa9c58eeffe234c6", "is_reserved": 0, "fusion_lon": 0.0, "lat": 38.88373966666666, "is_disabled": 0, "name": "1746a40ab413d119aa9c58eeffe234c6", "fusion_lat": 0.0, "rental_uris": {"ios": "https://dc.lft.to/lastmile_qr_scan", "android": "https://dc.lft.to/lastmile_qr_scan"}, "lon": -76.9956445, "type": "electric_scooter"}, {"bike_id": "9962fefec36a97488cfe364900ed50ab", "is_reserved": 0, "fusion_lon": 0.0, "lat": 38.905752166666666, "is_disabled": 0, "name": "9962fefec36a97488cfe364900ed50ab", "fusion_lat": 0.0, "rental_uris": {"ios": "https://dc.lft.to/lastmile_qr_scan", "android": "https://dc.lft.to/lastmile_qr_scan"}, "lon": -77.03829983333334, "type": "electric_scooter"}, {"bike_id": "e4bd2a603e62fade838e994c34325a9f", "is_reserved": 0, "fusion_lon": 0.0, "lat": 38.92500283333333, "is_disabled": 0, "name": "e4bd2a603e62fade838e994c34325a9f", "fusion_lat": 0.0, "rental_uris": {"ios": "https://dc.lft.to/lastmile_qr_scan", "android": "https://dc.lft.to/lastmile_qr_scan"}, "lon": -77.05752183333334, "type": "electric_scooter"}, {"bike_id": "dd15d5d07e11d669ef4085d8299dfab9", "is_reserved": 0, "fusion_lon": 0.0, "lat": 38.92367133333333, "is_disabled": 0, "name": "dd15d5d07e11d669ef4085d8299dfab9", "fusion_lat": 0.0, "rental_uris": {"ios": "https://dc.lft.to/lastmile_qr_scan", "android": "https://dc.lft.to/lastmile_qr_scan"}, "lon": -77.019167, "type": "electric_scooter"}, {"bike_id": "45fd272ca2dbacb25bbb5e8b45e0d9ab", "is_reserved": 0, "fusion_lon": 0.0, "lat": 38.9299295, "is_disabled": 0, "name": "45fd272ca2dbacb25bbb5e8b45e0d9ab", "fusion_lat": 0.0, "rental_uris": {"ios": "https://dc.lft.to/lastmile_qr_scan", "android": "https://dc.lft.to/lastmile_qr_scan"}, "lon": -77.079448, "type": "electric_scooter"}, {"bike_id": "4c440ee9ee5eaff66d5b2682764a6f94", "is_reserved": 0, "fusion_lon": 0.0, "lat": 38.901250833333336, "is_disabled": 0, "name": "4c440ee9ee5eaff66d5b2682764a6f94", "fusion_lat": 0.0, "rental_uris": {"ios": "https://dc.lft.to/lastmile_qr_scan", "android": "https://dc.lft.to/lastmile_qr_scan"}, "lon": -77.043455, "type": "electric_scooter"}, {"bike_id": "26e4fb716c46a8ad5376f119b55513f4", "is_reserved": 0, "fusion_lon": 0.0, "lat": 38.91633066666667, "is_disabled": 0, "name": "26e4fb716c46a8ad5376f119b55513f4", "fusion_lat": 0.0, "rental_uris": {"ios": "https://dc.lft.to/lastmile_qr_scan", "android": "https://dc.lft.to/lastmile_qr_scan"}, "lon": -77.046195, "type": "electric_scooter"}, {"bike_id": "60a9a08ebcc1be59f589a9375ce83a6e", "is_reserved": 0, "fusion_lon": 0.0, "lat": 38.922097, "is_disabled": 0, "name": "60a9a08ebcc1be59f589a9375ce83a6e", "fusion_lat": 0.0, "rental_uris": {"ios": "https://dc.lft.to/lastmile_qr_scan", "android": "https://dc.lft.to/lastmile_qr_scan"}, "lon": -77.03663266666666, "type": "electric_scooter"}, {"bike_id": "fa571f2aff807d4720619884c5298556", "is_reserved": 0, "fusion_lon": 0.0, "lat": 38.926162, "is_disabled": 0, "name": "fa571f2aff807d4720619884c5298556", "fusion_lat": 0.0, "rental_uris": {"ios": "https://dc.lft.to/lastmile_qr_scan", "android": "https://dc.lft.to/lastmile_qr_scan"}, "lon": -77.021618, "type": "electric_scooter"}, {"bike_id": "f4274f9520884228181fa10407248cb5", "is_reserved": 0, "fusion_lon": 0.0, "lat": 38.874832, "is_disabled": 0, "name": "f4274f9520884228181fa10407248cb5", "fusion_lat": 0.0, "rental_uris": {"ios": "https://dc.lft.to/lastmile_qr_scan", "android": "https://dc.lft.to/lastmile_qr_scan"}, "lon": -76.96527716666667, "type": "electric_bike"}, {"bike_id": "bc1aa6a08a345091c112851ca2b65b4d", "is_reserved": 0, "fusion_lon": 0.0, "lat": 38.92168366666667, "is_disabled": 0, "name": "bc1aa6a08a345091c112851ca2b65b4d", "fusion_lat": 0.0, "rental_uris": {"ios": "https://dc.lft.to/lastmile_qr_scan", "android": "https://dc.lft.to/lastmile_qr_scan"}, "lon": -76.993973, "type": "electric_scooter"}, {"bike_id": "0262127b4464d43182e8fe80a8746af4", "is_reserved": 0, "fusion_lon": 0.0, "lat": 38.929392166666666, "is_disabled": 0, "name": "0262127b4464d43182e8fe80a8746af4", "fusion_lat": 0.0, "rental_uris": {"ios": "https://dc.lft.to/lastmile_qr_scan", "android": "https://dc.lft.to/lastmile_qr_scan"}, "lon": -77.0232065, "type": "electric_scooter"}, {"bike_id": "84c0d209fa574fed728f53cdbcb022c0", "is_reserved": 0, "fusion_lon": 0.0, "lat": 38.905047, "is_disabled": 0, "name": "84c0d209fa574fed728f53cdbcb022c0", "fusion_lat": 0.0, "rental_uris": {"ios": "https://dc.lft.to/lastmile_qr_scan", "android": "https://dc.lft.to/lastmile_qr_scan"}, "lon": -77.06038916666667, "type": "electric_bike"}, {"bike_id": "29f5e8a78e6f9219e9a7a8b4f415a518", "is_reserved": 0, "fusion_lon": 0.0, "lat": 38.92644416666667, "is_disabled": 0, "name": "29f5e8a78e6f9219e9a7a8b4f415a518", "fusion_lat": 0.0, "rental_uris": {"ios": "https://dc.lft.to/lastmile_qr_scan", "android": "https://dc.lft.to/lastmile_qr_scan"}, "lon": -77.028406, "type": "electric_bike"}, {"bike_id": "e87df135ad1efec864932cfcc7ddfd77", "is_reserved": 0, "fusion_lon": 0.0, "lat": 38.89826266666667, "is_disabled": 0, "name": "e87df135ad1efec864932cfcc7ddfd77", "fusion_lat": 0.0, "rental_uris": {"ios": "https://dc.lft.to/lastmile_qr_scan", "android": "https://dc.lft.to/lastmile_qr_scan"}, "lon": -77.03296266666666, "type": "electric_scooter"}, {"bike_id": "a8bba92fac68205b8fa9909d9c5e455c", "is_reserved": 0, "fusion_lon": 0.0, "lat": 38.9140595, "is_disabled": 0, "name": "a8bba92fac68205b8fa9909d9c5e455c", "fusion_lat": 0.0, "rental_uris": {"ios": "https://dc.lft.to/lastmile_qr_scan", "android": "https://dc.lft.to/lastmile_qr_scan"}, "lon": -77.02839333333333, "type": "electric_scooter"}, {"bike_id": "cdd021222333b3ad3d8a093a3eeb764f", "is_reserved": 0, "fusion_lon": 0.0, "lat": 38.9217815, "is_disabled": 0, "name": "cdd021222333b3ad3d8a093a3eeb764f", "fusion_lat": 0.0, "rental_uris": {"ios": "https://dc.lft.to/lastmile_qr_scan", "android": "https://dc.lft.to/lastmile_qr_scan"}, "lon": -77.03234166666667, "type": "electric_scooter"}, {"bike_id": "615ce25bf39f0f85e7404e348b1e9adf", "is_reserved": 0, "fusion_lon": 0.0, "lat": 38.86455183333333, "is_disabled": 0, "name": "615ce25bf39f0f85e7404e348b1e9adf", "fusion_lat": 0.0, "rental_uris": {"ios": "https://dc.lft.to/lastmile_qr_scan", "android": "https://dc.lft.to/lastmile_qr_scan"}, "lon": -76.94550466666666, "type": "electric_bike"}, {"bike_id": "f1fad5b68c082118d821d7d2edc3b01a", "is_reserved": 0, "fusion_lon": 0.0, "lat": 38.91755666666667, "is_disabled": 0, "name": "f1fad5b68c082118d821d7d2edc3b01a", "fusion_lat": 0.0, "rental_uris": {"ios": "https://dc.lft.to/lastmile_qr_scan", "android": "https://dc.lft.to/lastmile_qr_scan"}, "lon": -76.98947633333333, "type": "electric_bike"}, {"bike_id": "25215e77746586c31301e470cd23342f", "is_reserved": 0, "fusion_lon": 0.0, "lat": 38.926587166666664, "is_disabled": 0, "name": "25215e77746586c31301e470cd23342f", "fusion_lat": 0.0, "rental_uris": {"ios": "https://dc.lft.to/lastmile_qr_scan", "android": "https://dc.lft.to/lastmile_qr_scan"}, "lon": -77.0372425, "type": "electric_scooter"}, {"bike_id": "9efb8bb8ad3ebf92742764ed781fb377", "is_reserved": 0, "fusion_lon": 0.0, "lat": 38.9096305, "is_disabled": 0, "name": "9efb8bb8ad3ebf92742764ed781fb377", "fusion_lat": 0.0, "rental_uris": {"ios": "https://dc.lft.to/lastmile_qr_scan", "android": "https://dc.lft.to/lastmile_qr_scan"}, "lon": -77.03459883333333, "type": "electric_scooter"}, {"bike_id": "eb6f0430b6a2b17cdf8c0fc27fb3aaba", "is_reserved": 0, "fusion_lon": 0.0, "lat": 38.906613666666665, "is_disabled": 0, "name": "eb6f0430b6a2b17cdf8c0fc27fb3aaba", "fusion_lat": 0.0, "rental_uris": {"ios": "https://dc.lft.to/lastmile_qr_scan", "android": "https://dc.lft.to/lastmile_qr_scan"}, "lon": -77.05017433333333, "type": "electric_scooter"}, {"bike_id": "67a110cae42ae20a30c182f0707f8cad", "is_reserved": 0, "fusion_lon": 0.0, "lat": 38.9039005, "is_disabled": 0, "name": "67a110cae42ae20a30c182f0707f8cad", "fusion_lat": 0.0, "rental_uris": {"ios": "https://dc.lft.to/lastmile_qr_scan", "android": "https://dc.lft.to/lastmile_qr_scan"}, "lon": -77.02988283333333, "type": "electric_scooter"}, {"bike_id": "46be3d31b8e0f1d5d06c3624e7ee165b", "is_reserved": 0, "fusion_lon": 0.0, "lat": 38.906485833333335, "is_disabled": 0, "name": "46be3d31b8e0f1d5d06c3624e7ee165b", "fusion_lat": 0.0, "rental_uris": {"ios": "https://dc.lft.to/lastmile_qr_scan", "android": "https://dc.lft.to/lastmile_qr_scan"}, "lon": -77.03893816666667, "type": "electric_scooter"}, {"bike_id": "b79543fbcaeee105b71b78f51bcafff7", "is_reserved": 0, "fusion_lon": 0.0, "lat": 38.93854683333333, "is_disabled": 0, "name": "b79543fbcaeee105b71b78f51bcafff7", "fusion_lat": 0.0, "rental_uris": {"ios": "https://dc.lft.to/lastmile_qr_scan", "android": "https://dc.lft.to/lastmile_qr_scan"}, "lon": -77.024591, "type": "electric_scooter"}, {"bike_id": "e3ba807497a661e8b4bb97f3de759e6c", "is_reserved": 0, "fusion_lon": 0.0, "lat": 38.914141666666666, "is_disabled": 0, "name": "e3ba807497a661e8b4bb97f3de759e6c", "fusion_lat": 0.0, "rental_uris": {"ios": "https://dc.lft.to/lastmile_qr_scan", "android": "https://dc.lft.to/lastmile_qr_scan"}, "lon": -77.02681683333333, "type": "electric_scooter"}, {"bike_id": "f20d93871f583ee82812ac248049ab74", "is_reserved": 0, "fusion_lon": 0.0, "lat": 38.90799033333333, "is_disabled": 0, "name": "f20d93871f583ee82812ac248049ab74", "fusion_lat": 0.0, "rental_uris": {"ios": "https://dc.lft.to/lastmile_qr_scan", "android": "https://dc.lft.to/lastmile_qr_scan"}, "lon": -77.000197, "type": "electric_scooter"}, {"bike_id": "2727eae38ce51816a6d38f5f95088ea9", "is_reserved": 0, "fusion_lon": 0.0, "lat": 38.933397166666666, "is_disabled": 0, "name": "2727eae38ce51816a6d38f5f95088ea9", "fusion_lat": 0.0, "rental_uris": {"ios": "https://dc.lft.to/lastmile_qr_scan", "android": "https://dc.lft.to/lastmile_qr_scan"}, "lon": -77.03284366666666, "type": "electric_scooter"}, {"bike_id": "3e6e595d40f1707e928b48135ecefd62", "is_reserved": 0, "fusion_lon": 0.0, "lat": 38.865240666666665, "is_disabled": 0, "name": "3e6e595d40f1707e928b48135ecefd62", "fusion_lat": 0.0, "rental_uris": {"ios": "https://dc.lft.to/lastmile_qr_scan", "android": "https://dc.lft.to/lastmile_qr_scan"}, "lon": -76.99032416666667, "type": "electric_scooter"}, {"bike_id": "fe1fd363e928b7e72f1dcec76ec07ba7", "is_reserved": 0, "fusion_lon": 0.0, "lat": 38.9046935, "is_disabled": 0, "name": "fe1fd363e928b7e72f1dcec76ec07ba7", "fusion_lat": 0.0, "rental_uris": {"ios": "https://dc.lft.to/lastmile_qr_scan", "android": "https://dc.lft.to/lastmile_qr_scan"}, "lon": -77.02977733333333, "type": "electric_scooter"}, {"bike_id": "5a0b637f6f088011b71e6aef3bc260ca", "is_reserved": 0, "fusion_lon": 0.0, "lat": 38.9288255, "is_disabled": 0, "name": "5a0b637f6f088011b71e6aef3bc260ca", "fusion_lat": 0.0, "rental_uris": {"ios": "https://dc.lft.to/lastmile_qr_scan", "android": "https://dc.lft.to/lastmile_qr_scan"}, "lon": -77.01361433333334, "type": "electric_scooter"}, {"bike_id": "9b48c6ecf907efe56c18f966fb3f9c2b", "is_reserved": 0, "fusion_lon": 0.0, "lat": 38.83487933333333, "is_disabled": 0, "name": "9b48c6ecf907efe56c18f966fb3f9c2b", "fusion_lat": 0.0, "rental_uris": {"ios": "https://dc.lft.to/lastmile_qr_scan", "android": "https://dc.lft.to/lastmile_qr_scan"}, "lon": -76.98582483333334, "type": "electric_bike"}, {"bike_id": "9fd0f8516d6468718146dfb55a894d19", "is_reserved": 0, "fusion_lon": 0.0, "lat": 38.8960375, "is_disabled": 0, "name": "9fd0f8516d6468718146dfb55a894d19", "fusion_lat": 0.0, "rental_uris": {"ios": "https://dc.lft.to/lastmile_qr_scan", "android": "https://dc.lft.to/lastmile_qr_scan"}, "lon": -77.04457183333334, "type": "electric_scooter"}, {"bike_id": "b170bf13ec7bedf35e27661ac72c00f6", "is_reserved": 0, "fusion_lon": 0.0, "lat": 38.932864333333335, "is_disabled": 0, "name": "b170bf13ec7bedf35e27661ac72c00f6", "fusion_lat": 0.0, "rental_uris": {"ios": "https://dc.lft.to/lastmile_qr_scan", "android": "https://dc.lft.to/lastmile_qr_scan"}, "lon": -77.03978383333333, "type": "electric_scooter"}, {"bike_id": "fe29b72d27b6badfba59dfff956b9853", "is_reserved": 0, "fusion_lon": 0.0, "lat": 38.9463055, "is_disabled": 0, "name": "fe29b72d27b6badfba59dfff956b9853", "fusion_lat": 0.0, "rental_uris": {"ios": "https://dc.lft.to/lastmile_qr_scan", "android": "https://dc.lft.to/lastmile_qr_scan"}, "lon": -77.0184495, "type": "electric_scooter"}, {"bike_id": "920c0aeddbde893f5eaccf97e9c5f789", "is_reserved": 0, "fusion_lon": 0.0, "lat": 38.9033275, "is_disabled": 0, "name": "920c0aeddbde893f5eaccf97e9c5f789", "fusion_lat": 0.0, "rental_uris": {"ios": "https://dc.lft.to/lastmile_qr_scan", "android": "https://dc.lft.to/lastmile_qr_scan"}, "lon": -76.97592016666667, "type": "electric_scooter"}, {"bike_id": "8b10294d3a68f84b3a53b6ff58ba65a7", "is_reserved": 0, "fusion_lon": 0.0, "lat": 38.876312666666664, "is_disabled": 0, "name": "8b10294d3a68f84b3a53b6ff58ba65a7", "fusion_lat": 0.0, "rental_uris": {"ios": "https://dc.lft.to/lastmile_qr_scan", "android": "https://dc.lft.to/lastmile_qr_scan"}, "lon": -76.9652765, "type": "electric_scooter"}, {"bike_id": "41a87699768b8a8a1e8ee3877c6606c8", "is_reserved": 0, "fusion_lon": 0.0, "lat": 38.8381155, "is_disabled": 0, "name": "41a87699768b8a8a1e8ee3877c6606c8", "fusion_lat": 0.0, "rental_uris": {"ios": "https://dc.lft.to/lastmile_qr_scan", "android": "https://dc.lft.to/lastmile_qr_scan"}, "lon": -77.0952215, "type": "electric_bike"}, {"bike_id": "5cb9c26a6d16144eb158ffb8b3a5d5ea", "is_reserved": 0, "fusion_lon": 0.0, "lat": 38.86668783333333, "is_disabled": 0, "name": "5cb9c26a6d16144eb158ffb8b3a5d5ea", "fusion_lat": 0.0, "rental_uris": {"ios": "https://dc.lft.to/lastmile_qr_scan", "android": "https://dc.lft.to/lastmile_qr_scan"}, "lon": -76.98909016666667, "type": "electric_scooter"}, {"bike_id": "af4288fa510d5c884ba9ff2723f5a102", "is_reserved": 0, "fusion_lon": 0.0, "lat": 38.897397, "is_disabled": 0, "name": "af4288fa510d5c884ba9ff2723f5a102", "fusion_lat": 0.0, "rental_uris": {"ios": "https://dc.lft.to/lastmile_qr_scan", "android": "https://dc.lft.to/lastmile_qr_scan"}, "lon": -76.93843583333333, "type": "electric_scooter"}, {"bike_id": "fee8504f03de342bd221746b00bec528", "is_reserved": 0, "fusion_lon": 0.0, "lat": 38.900639166666664, "is_disabled": 0, "name": "fee8504f03de342bd221746b00bec528", "fusion_lat": 0.0, "rental_uris": {"ios": "https://dc.lft.to/lastmile_qr_scan", "android": "https://dc.lft.to/lastmile_qr_scan"}, "lon": -77.05147416666667, "type": "electric_scooter"}, {"bike_id": "9c23887a7e07db52331ab5f88ad00fd9", "is_reserved": 0, "fusion_lon": 0.0, "lat": 38.89478866666666, "is_disabled": 0, "name": "9c23887a7e07db52331ab5f88ad00fd9", "fusion_lat": 0.0, "rental_uris": {"ios": "https://dc.lft.to/lastmile_qr_scan", "android": "https://dc.lft.to/lastmile_qr_scan"}, "lon": -77.022876, "type": "electric_scooter"}, {"bike_id": "3469d00ded0c9b938ee89cf2f27fa942", "is_reserved": 0, "fusion_lon": 0.0, "lat": 38.9051755, "is_disabled": 0, "name": "3469d00ded0c9b938ee89cf2f27fa942", "fusion_lat": 0.0, "rental_uris": {"ios": "https://dc.lft.to/lastmile_qr_scan", "android": "https://dc.lft.to/lastmile_qr_scan"}, "lon": -77.067473, "type": "electric_scooter"}, {"bike_id": "e7167908356aa2a4b69fd1b9cdcbe087", "is_reserved": 0, "fusion_lon": 0.0, "lat": 38.901288, "is_disabled": 0, "name": "e7167908356aa2a4b69fd1b9cdcbe087", "fusion_lat": 0.0, "rental_uris": {"ios": "https://dc.lft.to/lastmile_qr_scan", "android": "https://dc.lft.to/lastmile_qr_scan"}, "lon": -77.02817633333333, "type": "electric_scooter"}, {"bike_id": "bd8e9cee90f8f144d3b68bbc933dad8b", "is_reserved": 0, "fusion_lon": 0.0, "lat": 38.900946833333336, "is_disabled": 0, "name": "bd8e9cee90f8f144d3b68bbc933dad8b", "fusion_lat": 0.0, "rental_uris": {"ios": "https://dc.lft.to/lastmile_qr_scan", "android": "https://dc.lft.to/lastmile_qr_scan"}, "lon": -77.0501695, "type": "electric_scooter"}, {"bike_id": "4dd4021781eb87ffd2a6a9786fd695c7", "is_reserved": 0, "fusion_lon": 0.0, "lat": 38.866583, "is_disabled": 0, "name": "4dd4021781eb87ffd2a6a9786fd695c7", "fusion_lat": 0.0, "rental_uris": {"ios": "https://dc.lft.to/lastmile_qr_scan", "android": "https://dc.lft.to/lastmile_qr_scan"}, "lon": -76.9901475, "type": "electric_scooter"}, {"bike_id": "dcc9c9e45f420b1906fd9ca93157c0b1", "is_reserved": 0, "fusion_lon": 0.0, "lat": 38.881332, "is_disabled": 0, "name": "dcc9c9e45f420b1906fd9ca93157c0b1", "fusion_lat": 0.0, "rental_uris": {"ios": "https://dc.lft.to/lastmile_qr_scan", "android": "https://dc.lft.to/lastmile_qr_scan"}, "lon": -76.98091983333333, "type": "electric_bike"}, {"bike_id": "c1be38d3364778f1f5f154c8e7c84442", "is_reserved": 0, "fusion_lon": 0.0, "lat": 38.898362666666664, "is_disabled": 0, "name": "c1be38d3364778f1f5f154c8e7c84442", "fusion_lat": 0.0, "rental_uris": {"ios": "https://dc.lft.to/lastmile_qr_scan", "android": "https://dc.lft.to/lastmile_qr_scan"}, "lon": -77.02471866666667, "type": "electric_bike"}, {"bike_id": "f2c645779a7f2dbbc1d784b6be7da8d4", "is_reserved": 0, "fusion_lon": 0.0, "lat": 38.9027505, "is_disabled": 0, "name": "f2c645779a7f2dbbc1d784b6be7da8d4", "fusion_lat": 0.0, "rental_uris": {"ios": "https://dc.lft.to/lastmile_qr_scan", "android": "https://dc.lft.to/lastmile_qr_scan"}, "lon": -77.03933166666667, "type": "electric_scooter"}, {"bike_id": "9e926378191593ab4622bb9fbccac971", "is_reserved": 0, "fusion_lon": 0.0, "lat": 38.9308225, "is_disabled": 0, "name": "9e926378191593ab4622bb9fbccac971", "fusion_lat": 0.0, "rental_uris": {"ios": "https://dc.lft.to/lastmile_qr_scan", "android": "https://dc.lft.to/lastmile_qr_scan"}, "lon": -77.02798416666667, "type": "electric_scooter"}, {"bike_id": "e813567bbde7961cf0881c1e70135a08", "is_reserved": 0, "fusion_lon": 0.0, "lat": 38.9037095, "is_disabled": 0, "name": "e813567bbde7961cf0881c1e70135a08", "fusion_lat": 0.0, "rental_uris": {"ios": "https://dc.lft.to/lastmile_qr_scan", "android": "https://dc.lft.to/lastmile_qr_scan"}, "lon": -77.02942, "type": "electric_scooter"}, {"bike_id": "bfc49eddf26e9423a5e4bf389b782ef4", "is_reserved": 0, "fusion_lon": 0.0, "lat": 38.901217, "is_disabled": 0, "name": "bfc49eddf26e9423a5e4bf389b782ef4", "fusion_lat": 0.0, "rental_uris": {"ios": "https://dc.lft.to/lastmile_qr_scan", "android": "https://dc.lft.to/lastmile_qr_scan"}, "lon": -77.02790266666666, "type": "electric_scooter"}, {"bike_id": "e56d853a9b809576514a3e0fca0bc883", "is_reserved": 0, "fusion_lon": 0.0, "lat": 38.89824333333333, "is_disabled": 0, "name": "e56d853a9b809576514a3e0fca0bc883", "fusion_lat": 0.0, "rental_uris": {"ios": "https://dc.lft.to/lastmile_qr_scan", "android": "https://dc.lft.to/lastmile_qr_scan"}, "lon": -76.94651183333333, "type": "electric_scooter"}, {"bike_id": "026f4bcbbc5e3500c86589572d61c91f", "is_reserved": 0, "fusion_lon": 0.0, "lat": 38.9006495, "is_disabled": 0, "name": "026f4bcbbc5e3500c86589572d61c91f", "fusion_lat": 0.0, "rental_uris": {"ios": "https://dc.lft.to/lastmile_qr_scan", "android": "https://dc.lft.to/lastmile_qr_scan"}, "lon": -77.02722533333333, "type": "electric_scooter"}, {"bike_id": "20638b830cd3763844df12a64a411bb4", "is_reserved": 0, "fusion_lon": 0.0, "lat": 38.8398475, "is_disabled": 0, "name": "20638b830cd3763844df12a64a411bb4", "fusion_lat": 0.0, "rental_uris": {"ios": "https://dc.lft.to/lastmile_qr_scan", "android": "https://dc.lft.to/lastmile_qr_scan"}, "lon": -77.0057055, "type": "electric_bike"}, {"bike_id": "62a9def3b801100174770a8d790668c7", "is_reserved": 0, "fusion_lon": 0.0, "lat": 38.93853333333333, "is_disabled": 0, "name": "62a9def3b801100174770a8d790668c7", "fusion_lat": 0.0, "rental_uris": {"ios": "https://dc.lft.to/lastmile_qr_scan", "android": "https://dc.lft.to/lastmile_qr_scan"}, "lon": -77.02453716666666, "type": "electric_scooter"}, {"bike_id": "ab89b894d1df98becc06f27f2b4bd69e", "is_reserved": 0, "fusion_lon": 0.0, "lat": 38.89097016666667, "is_disabled": 0, "name": "ab89b894d1df98becc06f27f2b4bd69e", "fusion_lat": 0.0, "rental_uris": {"ios": "https://dc.lft.to/lastmile_qr_scan", "android": "https://dc.lft.to/lastmile_qr_scan"}, "lon": -76.9438665, "type": "electric_scooter"}, {"bike_id": "f0bb04d2f8aea44db19e70435b50ae32", "is_reserved": 0, "fusion_lon": 0.0, "lat": 38.92360133333333, "is_disabled": 0, "name": "f0bb04d2f8aea44db19e70435b50ae32", "fusion_lat": 0.0, "rental_uris": {"ios": "https://dc.lft.to/lastmile_qr_scan", "android": "https://dc.lft.to/lastmile_qr_scan"}, "lon": -77.019199, "type": "electric_scooter"}, {"bike_id": "da49f600830b25b64ae617e398fa3a13", "is_reserved": 0, "fusion_lon": 0.0, "lat": 38.89901316666667, "is_disabled": 0, "name": "da49f600830b25b64ae617e398fa3a13", "fusion_lat": 0.0, "rental_uris": {"ios": "https://dc.lft.to/lastmile_qr_scan", "android": "https://dc.lft.to/lastmile_qr_scan"}, "lon": -77.02982166666666, "type": "electric_scooter"}, {"bike_id": "351d16c9ef71ebf47408e5f56a24fbca", "is_reserved": 0, "fusion_lon": 0.0, "lat": 38.898994333333334, "is_disabled": 0, "name": "351d16c9ef71ebf47408e5f56a24fbca", "fusion_lat": 0.0, "rental_uris": {"ios": "https://dc.lft.to/lastmile_qr_scan", "android": "https://dc.lft.to/lastmile_qr_scan"}, "lon": -77.03965766666667, "type": "electric_scooter"}, {"bike_id": "9a72c1370f3c618648d689838e5b769d", "is_reserved": 0, "fusion_lon": 0.0, "lat": 38.92475066666667, "is_disabled": 0, "name": "9a72c1370f3c618648d689838e5b769d", "fusion_lat": 0.0, "rental_uris": {"ios": "https://dc.lft.to/lastmile_qr_scan", "android": "https://dc.lft.to/lastmile_qr_scan"}, "lon": -77.05203916666666, "type": "electric_scooter"}, {"bike_id": "a6efade274b4d89e2ab56fa793642566", "is_reserved": 0, "fusion_lon": 0.0, "lat": 38.89479383333333, "is_disabled": 0, "name": "a6efade274b4d89e2ab56fa793642566", "fusion_lat": 0.0, "rental_uris": {"ios": "https://dc.lft.to/lastmile_qr_scan", "android": "https://dc.lft.to/lastmile_qr_scan"}, "lon": -77.02157933333334, "type": "electric_bike"}, {"bike_id": "3059e8222c3ba5f3657d3c5cdcb6976c", "is_reserved": 0, "fusion_lon": 0.0, "lat": 38.900325333333335, "is_disabled": 0, "name": "3059e8222c3ba5f3657d3c5cdcb6976c", "fusion_lat": 0.0, "rental_uris": {"ios": "https://dc.lft.to/lastmile_qr_scan", "android": "https://dc.lft.to/lastmile_qr_scan"}, "lon": -77.04670533333334, "type": "electric_scooter"}, {"bike_id": "5cb41cd1cc7f9f224d63047b60bda2c5", "is_reserved": 0, "fusion_lon": 0.0, "lat": 38.88772016666667, "is_disabled": 0, "name": "5cb41cd1cc7f9f224d63047b60bda2c5", "fusion_lat": 0.0, "rental_uris": {"ios": "https://dc.lft.to/lastmile_qr_scan", "android": "https://dc.lft.to/lastmile_qr_scan"}, "lon": -76.93262666666666, "type": "electric_scooter"}, {"bike_id": "ddff33b8434734b1e652e98f8ae1b3b9", "is_reserved": 0, "fusion_lon": 0.0, "lat": 38.931622, "is_disabled": 0, "name": "ddff33b8434734b1e652e98f8ae1b3b9", "fusion_lat": 0.0, "rental_uris": {"ios": "https://dc.lft.to/lastmile_qr_scan", "android": "https://dc.lft.to/lastmile_qr_scan"}, "lon": -77.05646, "type": "electric_scooter"}, {"bike_id": "0000ea422aa74d8a70fa5324218e306f", "is_reserved": 0, "fusion_lon": 0.0, "lat": 38.897926, "is_disabled": 0, "name": "0000ea422aa74d8a70fa5324218e306f", "fusion_lat": 0.0, "rental_uris": {"ios": "https://dc.lft.to/lastmile_qr_scan", "android": "https://dc.lft.to/lastmile_qr_scan"}, "lon": -76.94689916666667, "type": "electric_scooter"}, {"bike_id": "d2344890839d4a106bc1937e2912d107", "is_reserved": 0, "fusion_lon": 0.0, "lat": 38.927662833333336, "is_disabled": 0, "name": "d2344890839d4a106bc1937e2912d107", "fusion_lat": 0.0, "rental_uris": {"ios": "https://dc.lft.to/lastmile_qr_scan", "android": "https://dc.lft.to/lastmile_qr_scan"}, "lon": -77.032455, "type": "electric_scooter"}, {"bike_id": "5532777f1b111028d42ecd03474010d3", "is_reserved": 0, "fusion_lon": 0.0, "lat": 38.8873485, "is_disabled": 0, "name": "5532777f1b111028d42ecd03474010d3", "fusion_lat": 0.0, "rental_uris": {"ios": "https://dc.lft.to/lastmile_qr_scan", "android": "https://dc.lft.to/lastmile_qr_scan"}, "lon": -77.0138685, "type": "electric_scooter"}, {"bike_id": "7425465f4c8ba3fc4533e0edf52f2853", "is_reserved": 0, "fusion_lon": 0.0, "lat": 38.896724166666665, "is_disabled": 0, "name": "7425465f4c8ba3fc4533e0edf52f2853", "fusion_lat": 0.0, "rental_uris": {"ios": "https://dc.lft.to/lastmile_qr_scan", "android": "https://dc.lft.to/lastmile_qr_scan"}, "lon": -77.026274, "type": "electric_scooter"}, {"bike_id": "440eb5197803d967de791e63e344a135", "is_reserved": 0, "fusion_lon": 0.0, "lat": 38.8878045, "is_disabled": 0, "name": "440eb5197803d967de791e63e344a135", "fusion_lat": 0.0, "rental_uris": {"ios": "https://dc.lft.to/lastmile_qr_scan", "android": "https://dc.lft.to/lastmile_qr_scan"}, "lon": -76.95532266666666, "type": "electric_scooter"}, {"bike_id": "54b3ed60a19ecdf3f34e54bc5c2700e5", "is_reserved": 0, "fusion_lon": 0.0, "lat": 38.902742833333335, "is_disabled": 0, "name": "54b3ed60a19ecdf3f34e54bc5c2700e5", "fusion_lat": 0.0, "rental_uris": {"ios": "https://dc.lft.to/lastmile_qr_scan", "android": "https://dc.lft.to/lastmile_qr_scan"}, "lon": -77.03850466666667, "type": "electric_scooter"}, {"bike_id": "9c18eeeb7c436f59ee9b1356d65197fb", "is_reserved": 0, "fusion_lon": 0.0, "lat": 38.90184333333333, "is_disabled": 0, "name": "9c18eeeb7c436f59ee9b1356d65197fb", "fusion_lat": 0.0, "rental_uris": {"ios": "https://dc.lft.to/lastmile_qr_scan", "android": "https://dc.lft.to/lastmile_qr_scan"}, "lon": -77.050991, "type": "electric_scooter"}, {"bike_id": "0d631ba0f99186fef30b6ba0874d0b44", "is_reserved": 0, "fusion_lon": 0.0, "lat": 38.89842383333333, "is_disabled": 0, "name": "0d631ba0f99186fef30b6ba0874d0b44", "fusion_lat": 0.0, "rental_uris": {"ios": "https://dc.lft.to/lastmile_qr_scan", "android": "https://dc.lft.to/lastmile_qr_scan"}, "lon": -76.99504, "type": "electric_scooter"}, {"bike_id": "ba872723341872738eec42ac96f3100d", "is_reserved": 0, "fusion_lon": 0.0, "lat": 38.9187025, "is_disabled": 0, "name": "ba872723341872738eec42ac96f3100d", "fusion_lat": 0.0, "rental_uris": {"ios": "https://dc.lft.to/lastmile_qr_scan", "android": "https://dc.lft.to/lastmile_qr_scan"}, "lon": -76.96557, "type": "electric_scooter"}, {"bike_id": "15df337f0aa02886ec03b55577107c7a", "is_reserved": 0, "fusion_lon": 0.0, "lat": 38.949734666666664, "is_disabled": 0, "name": "15df337f0aa02886ec03b55577107c7a", "fusion_lat": 0.0, "rental_uris": {"ios": "https://dc.lft.to/lastmile_qr_scan", "android": "https://dc.lft.to/lastmile_qr_scan"}, "lon": -76.97281633333333, "type": "electric_bike"}, {"bike_id": "7a364154a648b4598e17c1e453e74393", "is_reserved": 0, "fusion_lon": 0.0, "lat": 38.903779666666665, "is_disabled": 0, "name": "7a364154a648b4598e17c1e453e74393", "fusion_lat": 0.0, "rental_uris": {"ios": "https://dc.lft.to/lastmile_qr_scan", "android": "https://dc.lft.to/lastmile_qr_scan"}, "lon": -77.0450535, "type": "electric_scooter"}, {"bike_id": "80084c19b9c4914e87c06eedebd4de5c", "is_reserved": 0, "fusion_lon": 0.0, "lat": 38.86620683333334, "is_disabled": 0, "name": "80084c19b9c4914e87c06eedebd4de5c", "fusion_lat": 0.0, "rental_uris": {"ios": "https://dc.lft.to/lastmile_qr_scan", "android": "https://dc.lft.to/lastmile_qr_scan"}, "lon": -76.9457255, "type": "electric_bike"}, {"bike_id": "853e42c7ecec8cc718d2dffc41b55994", "is_reserved": 0, "fusion_lon": 0.0, "lat": 38.86007083333333, "is_disabled": 0, "name": "853e42c7ecec8cc718d2dffc41b55994", "fusion_lat": 0.0, "rental_uris": {"ios": "https://dc.lft.to/lastmile_qr_scan", "android": "https://dc.lft.to/lastmile_qr_scan"}, "lon": -77.05776733333333, "type": "electric_bike"}, {"bike_id": "33d22af2989234e4dc495346822dcc25", "is_reserved": 0, "fusion_lon": 0.0, "lat": 38.90079216666667, "is_disabled": 0, "name": "33d22af2989234e4dc495346822dcc25", "fusion_lat": 0.0, "rental_uris": {"ios": "https://dc.lft.to/lastmile_qr_scan", "android": "https://dc.lft.to/lastmile_qr_scan"}, "lon": -76.93861266666667, "type": "electric_scooter"}, {"bike_id": "e901091f987d0f56d9c088951fc8d525", "is_reserved": 0, "fusion_lon": 0.0, "lat": 38.91114066666667, "is_disabled": 0, "name": "e901091f987d0f56d9c088951fc8d525", "fusion_lat": 0.0, "rental_uris": {"ios": "https://dc.lft.to/lastmile_qr_scan", "android": "https://dc.lft.to/lastmile_qr_scan"}, "lon": -77.00600283333333, "type": "electric_scooter"}, {"bike_id": "6178f767f45b3d805892a2ac4a526266", "is_reserved": 0, "fusion_lon": 0.0, "lat": 38.903811, "is_disabled": 0, "name": "6178f767f45b3d805892a2ac4a526266", "fusion_lat": 0.0, "rental_uris": {"ios": "https://dc.lft.to/lastmile_qr_scan", "android": "https://dc.lft.to/lastmile_qr_scan"}, "lon": -77.04484333333333, "type": "electric_scooter"}, {"bike_id": "262825e2eb756d3d618d2ebce89ab51a", "is_reserved": 0, "fusion_lon": 0.0, "lat": 38.8973215, "is_disabled": 0, "name": "262825e2eb756d3d618d2ebce89ab51a", "fusion_lat": 0.0, "rental_uris": {"ios": "https://dc.lft.to/lastmile_qr_scan", "android": "https://dc.lft.to/lastmile_qr_scan"}, "lon": -77.05569816666667, "type": "electric_scooter"}, {"bike_id": "6dc46297c19380f497cf477085505701", "is_reserved": 0, "fusion_lon": 0.0, "lat": 38.88848266666667, "is_disabled": 0, "name": "6dc46297c19380f497cf477085505701", "fusion_lat": 0.0, "rental_uris": {"ios": "https://dc.lft.to/lastmile_qr_scan", "android": "https://dc.lft.to/lastmile_qr_scan"}, "lon": -76.92680283333334, "type": "electric_scooter"}, {"bike_id": "5406d3f33edb2f5a085257bd8979bf73", "is_reserved": 0, "fusion_lon": 0.0, "lat": 38.948063, "is_disabled": 0, "name": "5406d3f33edb2f5a085257bd8979bf73", "fusion_lat": 0.0, "rental_uris": {"ios": "https://dc.lft.to/lastmile_qr_scan", "android": "https://dc.lft.to/lastmile_qr_scan"}, "lon": -77.079064, "type": "electric_scooter"}, {"bike_id": "f80604ca5629b3c74c83620c8bb370dc", "is_reserved": 0, "fusion_lon": 0.0, "lat": 38.887495333333334, "is_disabled": 0, "name": "f80604ca5629b3c74c83620c8bb370dc", "fusion_lat": 0.0, "rental_uris": {"ios": "https://dc.lft.to/lastmile_qr_scan", "android": "https://dc.lft.to/lastmile_qr_scan"}, "lon": -77.0314955, "type": "electric_scooter"}, {"bike_id": "e2d3824ed9d4b0924129a2eebd64a05a", "is_reserved": 0, "fusion_lon": 0.0, "lat": 38.930968666666665, "is_disabled": 0, "name": "e2d3824ed9d4b0924129a2eebd64a05a", "fusion_lat": 0.0, "rental_uris": {"ios": "https://dc.lft.to/lastmile_qr_scan", "android": "https://dc.lft.to/lastmile_qr_scan"}, "lon": -77.03143016666667, "type": "electric_scooter"}, {"bike_id": "1f757b90b96de30b23cf2f22d08611e7", "is_reserved": 0, "fusion_lon": 0.0, "lat": 38.8922265, "is_disabled": 0, "name": "1f757b90b96de30b23cf2f22d08611e7", "fusion_lat": 0.0, "rental_uris": {"ios": "https://dc.lft.to/lastmile_qr_scan", "android": "https://dc.lft.to/lastmile_qr_scan"}, "lon": -77.02627016666666, "type": "electric_scooter"}, {"bike_id": "f6babf7f82a397f22b661f11dae6836a", "is_reserved": 0, "fusion_lon": 0.0, "lat": 38.9046735, "is_disabled": 0, "name": "f6babf7f82a397f22b661f11dae6836a", "fusion_lat": 0.0, "rental_uris": {"ios": "https://dc.lft.to/lastmile_qr_scan", "android": "https://dc.lft.to/lastmile_qr_scan"}, "lon": -77.0346635, "type": "electric_scooter"}, {"bike_id": "e24d1cd85bc294bd49ab3c40f07794ec", "is_reserved": 0, "fusion_lon": 0.0, "lat": 38.892216833333336, "is_disabled": 0, "name": "e24d1cd85bc294bd49ab3c40f07794ec", "fusion_lat": 0.0, "rental_uris": {"ios": "https://dc.lft.to/lastmile_qr_scan", "android": "https://dc.lft.to/lastmile_qr_scan"}, "lon": -77.04647316666667, "type": "electric_scooter"}, {"bike_id": "c0d7df03a63c75ca0ee114586f01e29c", "is_reserved": 0, "fusion_lon": 0.0, "lat": 38.91683616666667, "is_disabled": 0, "name": "c0d7df03a63c75ca0ee114586f01e29c", "fusion_lat": 0.0, "rental_uris": {"ios": "https://dc.lft.to/lastmile_qr_scan", "android": "https://dc.lft.to/lastmile_qr_scan"}, "lon": -77.0263565, "type": "electric_scooter"}, {"bike_id": "fcc244003e51b271ac14d83b02564b7a", "is_reserved": 0, "fusion_lon": 0.0, "lat": 38.89196233333333, "is_disabled": 0, "name": "fcc244003e51b271ac14d83b02564b7a", "fusion_lat": 0.0, "rental_uris": {"ios": "https://dc.lft.to/lastmile_qr_scan", "android": "https://dc.lft.to/lastmile_qr_scan"}, "lon": -77.02836233333333, "type": "electric_scooter"}, {"bike_id": "ae061590997bd4659cad16018552b092", "is_reserved": 0, "fusion_lon": 0.0, "lat": 38.896115, "is_disabled": 0, "name": "ae061590997bd4659cad16018552b092", "fusion_lat": 0.0, "rental_uris": {"ios": "https://dc.lft.to/lastmile_qr_scan", "android": "https://dc.lft.to/lastmile_qr_scan"}, "lon": -77.0479255, "type": "electric_scooter"}, {"bike_id": "f60c656e06955c9a3461881948bb3f40", "is_reserved": 0, "fusion_lon": 0.0, "lat": 38.959353666666665, "is_disabled": 0, "name": "f60c656e06955c9a3461881948bb3f40", "fusion_lat": 0.0, "rental_uris": {"ios": "https://dc.lft.to/lastmile_qr_scan", "android": "https://dc.lft.to/lastmile_qr_scan"}, "lon": -77.031211, "type": "electric_scooter"}, {"bike_id": "b3fe6646461ec407f9fa5641b8ca009f", "is_reserved": 0, "fusion_lon": 0.0, "lat": 38.885049, "is_disabled": 0, "name": "b3fe6646461ec407f9fa5641b8ca009f", "fusion_lat": 0.0, "rental_uris": {"ios": "https://dc.lft.to/lastmile_qr_scan", "android": "https://dc.lft.to/lastmile_qr_scan"}, "lon": -77.00569233333333, "type": "electric_scooter"}, {"bike_id": "a7662cdd3574c9e73c74fde18458f562", "is_reserved": 0, "fusion_lon": 0.0, "lat": 38.91957766666667, "is_disabled": 0, "name": "a7662cdd3574c9e73c74fde18458f562", "fusion_lat": 0.0, "rental_uris": {"ios": "https://dc.lft.to/lastmile_qr_scan", "android": "https://dc.lft.to/lastmile_qr_scan"}, "lon": -77.01476, "type": "electric_scooter"}, {"bike_id": "9d5590236278651b3e8460ad0ff72592", "is_reserved": 0, "fusion_lon": 0.0, "lat": 38.90504166666667, "is_disabled": 0, "name": "9d5590236278651b3e8460ad0ff72592", "fusion_lat": 0.0, "rental_uris": {"ios": "https://dc.lft.to/lastmile_qr_scan", "android": "https://dc.lft.to/lastmile_qr_scan"}, "lon": -76.99015833333333, "type": "electric_scooter"}, {"bike_id": "5d3334607efb27ae65503ac165f8e8f7", "is_reserved": 0, "fusion_lon": 0.0, "lat": 38.90474066666667, "is_disabled": 0, "name": "5d3334607efb27ae65503ac165f8e8f7", "fusion_lat": 0.0, "rental_uris": {"ios": "https://dc.lft.to/lastmile_qr_scan", "android": "https://dc.lft.to/lastmile_qr_scan"}, "lon": -77.04658683333334, "type": "electric_scooter"}, {"bike_id": "f05cef187886164292a42571ae0f79c9", "is_reserved": 0, "fusion_lon": 0.0, "lat": 38.90428383333333, "is_disabled": 0, "name": "f05cef187886164292a42571ae0f79c9", "fusion_lat": 0.0, "rental_uris": {"ios": "https://dc.lft.to/lastmile_qr_scan", "android": "https://dc.lft.to/lastmile_qr_scan"}, "lon": -77.0326735, "type": "electric_scooter"}, {"bike_id": "f85c6ae4e8ad973c91f902094645bcb6", "is_reserved": 0, "fusion_lon": 0.0, "lat": 38.89224216666667, "is_disabled": 0, "name": "f85c6ae4e8ad973c91f902094645bcb6", "fusion_lat": 0.0, "rental_uris": {"ios": "https://dc.lft.to/lastmile_qr_scan", "android": "https://dc.lft.to/lastmile_qr_scan"}, "lon": -77.0321995, "type": "electric_scooter"}, {"bike_id": "514b005e25f23f6f8c145f8cc727ac29", "is_reserved": 0, "fusion_lon": 0.0, "lat": 38.999427833333336, "is_disabled": 0, "name": "514b005e25f23f6f8c145f8cc727ac29", "fusion_lat": 0.0, "rental_uris": {"ios": "https://dc.lft.to/lastmile_qr_scan", "android": "https://dc.lft.to/lastmile_qr_scan"}, "lon": -77.01767266666667, "type": "electric_bike"}, {"bike_id": "b6b173db65197be6fbb2dc3767d12b95", "is_reserved": 0, "fusion_lon": 0.0, "lat": 38.899656, "is_disabled": 0, "name": "b6b173db65197be6fbb2dc3767d12b95", "fusion_lat": 0.0, "rental_uris": {"ios": "https://dc.lft.to/lastmile_qr_scan", "android": "https://dc.lft.to/lastmile_qr_scan"}, "lon": -77.03175, "type": "electric_scooter"}, {"bike_id": "23ee25b1e7edf28f6004d7fe8e290ae4", "is_reserved": 0, "fusion_lon": 0.0, "lat": 38.90973183333333, "is_disabled": 0, "name": "23ee25b1e7edf28f6004d7fe8e290ae4", "fusion_lat": 0.0, "rental_uris": {"ios": "https://dc.lft.to/lastmile_qr_scan", "android": "https://dc.lft.to/lastmile_qr_scan"}, "lon": -77.03869216666666, "type": "electric_scooter"}, {"bike_id": "5c24332298f0d6a9b90f3360ab7d6662", "is_reserved": 0, "fusion_lon": 0.0, "lat": 38.88771766666667, "is_disabled": 0, "name": "5c24332298f0d6a9b90f3360ab7d6662", "fusion_lat": 0.0, "rental_uris": {"ios": "https://dc.lft.to/lastmile_qr_scan", "android": "https://dc.lft.to/lastmile_qr_scan"}, "lon": -77.02229966666667, "type": "electric_scooter"}, {"bike_id": "5a8727469ddfb30b38cdf4a95fe6afdd", "is_reserved": 0, "fusion_lon": 0.0, "lat": 38.9398235, "is_disabled": 0, "name": "5a8727469ddfb30b38cdf4a95fe6afdd", "fusion_lat": 0.0, "rental_uris": {"ios": "https://dc.lft.to/lastmile_qr_scan", "android": "https://dc.lft.to/lastmile_qr_scan"}, "lon": -77.02893533333334, "type": "electric_scooter"}, {"bike_id": "f70cb13721c65bef28476c5e0a0f3c5a", "is_reserved": 0, "fusion_lon": 0.0, "lat": 38.96620516666667, "is_disabled": 0, "name": "f70cb13721c65bef28476c5e0a0f3c5a", "fusion_lat": 0.0, "rental_uris": {"ios": "https://dc.lft.to/lastmile_qr_scan", "android": "https://dc.lft.to/lastmile_qr_scan"}, "lon": -76.97668016666667, "type": "electric_bike"}, {"bike_id": "6d7493b22a6d075c9a2c928bf0e944bf", "is_reserved": 0, "fusion_lon": 0.0, "lat": 38.92053383333333, "is_disabled": 0, "name": "6d7493b22a6d075c9a2c928bf0e944bf", "fusion_lat": 0.0, "rental_uris": {"ios": "https://dc.lft.to/lastmile_qr_scan", "android": "https://dc.lft.to/lastmile_qr_scan"}, "lon": -77.03392, "type": "electric_scooter"}, {"bike_id": "252b9d61bcabd6d61af89cf5b307e632", "is_reserved": 0, "fusion_lon": 0.0, "lat": 38.907697666666664, "is_disabled": 0, "name": "252b9d61bcabd6d61af89cf5b307e632", "fusion_lat": 0.0, "rental_uris": {"ios": "https://dc.lft.to/lastmile_qr_scan", "android": "https://dc.lft.to/lastmile_qr_scan"}, "lon": -77.06915833333333, "type": "electric_scooter"}, {"bike_id": "e2d4ac7e710bbd22123ecfa130e392ea", "is_reserved": 0, "fusion_lon": 0.0, "lat": 38.926701, "is_disabled": 0, "name": "e2d4ac7e710bbd22123ecfa130e392ea", "fusion_lat": 0.0, "rental_uris": {"ios": "https://dc.lft.to/lastmile_qr_scan", "android": "https://dc.lft.to/lastmile_qr_scan"}, "lon": -77.0147805, "type": "electric_scooter"}, {"bike_id": "2fd768976362b1cac6d1c6033de885d4", "is_reserved": 0, "fusion_lon": 0.0, "lat": 38.8670195, "is_disabled": 0, "name": "2fd768976362b1cac6d1c6033de885d4", "fusion_lat": 0.0, "rental_uris": {"ios": "https://dc.lft.to/lastmile_qr_scan", "android": "https://dc.lft.to/lastmile_qr_scan"}, "lon": -76.98716366666666, "type": "electric_scooter"}, {"bike_id": "106d6cf7fc71719050702fd9610841ee", "is_reserved": 0, "fusion_lon": 0.0, "lat": 38.90274183333333, "is_disabled": 0, "name": "106d6cf7fc71719050702fd9610841ee", "fusion_lat": 0.0, "rental_uris": {"ios": "https://dc.lft.to/lastmile_qr_scan", "android": "https://dc.lft.to/lastmile_qr_scan"}, "lon": -77.04604933333333, "type": "electric_scooter"}, {"bike_id": "cdeef84ab6e460e128c019daa86f3ea4", "is_reserved": 0, "fusion_lon": 0.0, "lat": 38.887438833333334, "is_disabled": 0, "name": "cdeef84ab6e460e128c019daa86f3ea4", "fusion_lat": 0.0, "rental_uris": {"ios": "https://dc.lft.to/lastmile_qr_scan", "android": "https://dc.lft.to/lastmile_qr_scan"}, "lon": -77.02264716666667, "type": "electric_bike"}, {"bike_id": "d657d67c525cf114da8f67de8b88e572", "is_reserved": 0, "fusion_lon": 0.0, "lat": 38.923535666666666, "is_disabled": 0, "name": "d657d67c525cf114da8f67de8b88e572", "fusion_lat": 0.0, "rental_uris": {"ios": "https://dc.lft.to/lastmile_qr_scan", "android": "https://dc.lft.to/lastmile_qr_scan"}, "lon": -77.04153583333333, "type": "electric_scooter"}, {"bike_id": "58fdda7f448b1342f5c38b8b2f286e0c", "is_reserved": 0, "fusion_lon": 0.0, "lat": 38.898828333333334, "is_disabled": 0, "name": "58fdda7f448b1342f5c38b8b2f286e0c", "fusion_lat": 0.0, "rental_uris": {"ios": "https://dc.lft.to/lastmile_qr_scan", "android": "https://dc.lft.to/lastmile_qr_scan"}, "lon": -77.00811266666666, "type": "electric_bike"}, {"bike_id": "8403b54fc6ba022b7c3b49774458d758", "is_reserved": 0, "fusion_lon": 0.0, "lat": 38.8984695, "is_disabled": 0, "name": "8403b54fc6ba022b7c3b49774458d758", "fusion_lat": 0.0, "rental_uris": {"ios": "https://dc.lft.to/lastmile_qr_scan", "android": "https://dc.lft.to/lastmile_qr_scan"}, "lon": -77.01734183333333, "type": "electric_bike"}, {"bike_id": "2b1eb6b009d57cf8382579ef22b995f9", "is_reserved": 0, "fusion_lon": 0.0, "lat": 38.91563633333333, "is_disabled": 0, "name": "2b1eb6b009d57cf8382579ef22b995f9", "fusion_lat": 0.0, "rental_uris": {"ios": "https://dc.lft.to/lastmile_qr_scan", "android": "https://dc.lft.to/lastmile_qr_scan"}, "lon": -77.03862516666666, "type": "electric_scooter"}, {"bike_id": "5bec747efeb11fc217f0020055684b38", "is_reserved": 0, "fusion_lon": 0.0, "lat": 38.957488166666664, "is_disabled": 0, "name": "5bec747efeb11fc217f0020055684b38", "fusion_lat": 0.0, "rental_uris": {"ios": "https://dc.lft.to/lastmile_qr_scan", "android": "https://dc.lft.to/lastmile_qr_scan"}, "lon": -77.0241725, "type": "electric_scooter"}, {"bike_id": "ed10f556f100a9eab9f5c4d8581fc843", "is_reserved": 0, "fusion_lon": 0.0, "lat": 39.08858433333333, "is_disabled": 0, "name": "ed10f556f100a9eab9f5c4d8581fc843", "fusion_lat": 0.0, "rental_uris": {"ios": "https://dc.lft.to/lastmile_qr_scan", "android": "https://dc.lft.to/lastmile_qr_scan"}, "lon": -77.17843933333333, "type": "electric_bike"}, {"bike_id": "3cb1573c3dacfba88f124c939b2eea39", "is_reserved": 0, "fusion_lon": 0.0, "lat": 38.905723, "is_disabled": 0, "name": "3cb1573c3dacfba88f124c939b2eea39", "fusion_lat": 0.0, "rental_uris": {"ios": "https://dc.lft.to/lastmile_qr_scan", "android": "https://dc.lft.to/lastmile_qr_scan"}, "lon": -77.02174, "type": "electric_scooter"}, {"bike_id": "0819c34ccb0dfdf5851f16e055584ec4", "is_reserved": 0, "fusion_lon": 0.0, "lat": 38.95337633333333, "is_disabled": 0, "name": "0819c34ccb0dfdf5851f16e055584ec4", "fusion_lat": 0.0, "rental_uris": {"ios": "https://dc.lft.to/lastmile_qr_scan", "android": "https://dc.lft.to/lastmile_qr_scan"}, "lon": -77.0095875, "type": "electric_bike"}, {"bike_id": "568ace88b1bacddd3d6a06e969b14d90", "is_reserved": 0, "fusion_lon": 0.0, "lat": 38.9285295, "is_disabled": 0, "name": "568ace88b1bacddd3d6a06e969b14d90", "fusion_lat": 0.0, "rental_uris": {"ios": "https://dc.lft.to/lastmile_qr_scan", "android": "https://dc.lft.to/lastmile_qr_scan"}, "lon": -77.22217716666667, "type": "electric_bike"}, {"bike_id": "96c45380a58639f1e8ef92a4c2d9850c", "is_reserved": 0, "fusion_lon": 0.0, "lat": 38.956494666666664, "is_disabled": 0, "name": "96c45380a58639f1e8ef92a4c2d9850c", "fusion_lat": 0.0, "rental_uris": {"ios": "https://dc.lft.to/lastmile_qr_scan", "android": "https://dc.lft.to/lastmile_qr_scan"}, "lon": -77.03290433333333, "type": "electric_scooter"}, {"bike_id": "6130e9b12f562918ded8ad93a424bffa", "is_reserved": 0, "fusion_lon": 0.0, "lat": 38.91708166666667, "is_disabled": 0, "name": "6130e9b12f562918ded8ad93a424bffa", "fusion_lat": 0.0, "rental_uris": {"ios": "https://dc.lft.to/lastmile_qr_scan", "android": "https://dc.lft.to/lastmile_qr_scan"}, "lon": -77.02295916666667, "type": "electric_scooter"}, {"bike_id": "ddacccda4dabd7eea41facb10f049c9a", "is_reserved": 0, "fusion_lon": 0.0, "lat": 38.90948316666667, "is_disabled": 0, "name": "ddacccda4dabd7eea41facb10f049c9a", "fusion_lat": 0.0, "rental_uris": {"ios": "https://dc.lft.to/lastmile_qr_scan", "android": "https://dc.lft.to/lastmile_qr_scan"}, "lon": -77.048862, "type": "electric_scooter"}, {"bike_id": "8c2ccf0eb7748228315cee0395aef8c9", "is_reserved": 0, "fusion_lon": 0.0, "lat": 38.921158, "is_disabled": 0, "name": "8c2ccf0eb7748228315cee0395aef8c9", "fusion_lat": 0.0, "rental_uris": {"ios": "https://dc.lft.to/lastmile_qr_scan", "android": "https://dc.lft.to/lastmile_qr_scan"}, "lon": -77.04588383333333, "type": "electric_scooter"}, {"bike_id": "73beb128c25e7249ae0edef77571e209", "is_reserved": 0, "fusion_lon": 0.0, "lat": 38.91788566666666, "is_disabled": 0, "name": "73beb128c25e7249ae0edef77571e209", "fusion_lat": 0.0, "rental_uris": {"ios": "https://dc.lft.to/lastmile_qr_scan", "android": "https://dc.lft.to/lastmile_qr_scan"}, "lon": -77.026967, "type": "electric_scooter"}, {"bike_id": "94b73f93bf4a9a7c0c50cad6668b19f3", "is_reserved": 0, "fusion_lon": 0.0, "lat": 38.9155485, "is_disabled": 0, "name": "94b73f93bf4a9a7c0c50cad6668b19f3", "fusion_lat": 0.0, "rental_uris": {"ios": "https://dc.lft.to/lastmile_qr_scan", "android": "https://dc.lft.to/lastmile_qr_scan"}, "lon": -77.0141145, "type": "electric_scooter"}, {"bike_id": "e95b163ad9eed4c7c1cb37b2b56d310d", "is_reserved": 0, "fusion_lon": 0.0, "lat": 38.89485583333333, "is_disabled": 0, "name": "e95b163ad9eed4c7c1cb37b2b56d310d", "fusion_lat": 0.0, "rental_uris": {"ios": "https://dc.lft.to/lastmile_qr_scan", "android": "https://dc.lft.to/lastmile_qr_scan"}, "lon": -77.00223883333334, "type": "electric_scooter"}, {"bike_id": "6df311938c512e5f7b294832512974e8", "is_reserved": 0, "fusion_lon": 0.0, "lat": 38.872165333333335, "is_disabled": 0, "name": "6df311938c512e5f7b294832512974e8", "fusion_lat": 0.0, "rental_uris": {"ios": "https://dc.lft.to/lastmile_qr_scan", "android": "https://dc.lft.to/lastmile_qr_scan"}, "lon": -77.00572183333334, "type": "electric_scooter"}, {"bike_id": "03267d7fc903bc58c1844bc007ab1463", "is_reserved": 0, "fusion_lon": 0.0, "lat": 38.84427316666667, "is_disabled": 0, "name": "03267d7fc903bc58c1844bc007ab1463", "fusion_lat": 0.0, "rental_uris": {"ios": "https://dc.lft.to/lastmile_qr_scan", "android": "https://dc.lft.to/lastmile_qr_scan"}, "lon": -76.99775333333334, "type": "electric_scooter"}, {"bike_id": "9a0a0045d23aeef17643d0b1acdf7475", "is_reserved": 0, "fusion_lon": 0.0, "lat": 38.904045833333335, "is_disabled": 0, "name": "9a0a0045d23aeef17643d0b1acdf7475", "fusion_lat": 0.0, "rental_uris": {"ios": "https://dc.lft.to/lastmile_qr_scan", "android": "https://dc.lft.to/lastmile_qr_scan"}, "lon": -77.03644116666666, "type": "electric_scooter"}, {"bike_id": "63169f1b52e5d171451d26184a39f57c", "is_reserved": 0, "fusion_lon": 0.0, "lat": 38.86661933333333, "is_disabled": 0, "name": "63169f1b52e5d171451d26184a39f57c", "fusion_lat": 0.0, "rental_uris": {"ios": "https://dc.lft.to/lastmile_qr_scan", "android": "https://dc.lft.to/lastmile_qr_scan"}, "lon": -76.98880633333333, "type": "electric_scooter"}, {"bike_id": "d7de7621cd8f138a4e2d26db4318bd3e", "is_reserved": 0, "fusion_lon": 0.0, "lat": 38.8692115, "is_disabled": 0, "name": "d7de7621cd8f138a4e2d26db4318bd3e", "fusion_lat": 0.0, "rental_uris": {"ios": "https://dc.lft.to/lastmile_qr_scan", "android": "https://dc.lft.to/lastmile_qr_scan"}, "lon": -76.98307316666667, "type": "electric_scooter"}, {"bike_id": "f590ea3838b36ad4657ca9b74b9c796a", "is_reserved": 0, "fusion_lon": 0.0, "lat": 38.8850715, "is_disabled": 0, "name": "f590ea3838b36ad4657ca9b74b9c796a", "fusion_lat": 0.0, "rental_uris": {"ios": "https://dc.lft.to/lastmile_qr_scan", "android": "https://dc.lft.to/lastmile_qr_scan"}, "lon": -77.00568116666666, "type": "electric_scooter"}, {"bike_id": "c2305bb8331bb531fccea5dc94446b1c", "is_reserved": 0, "fusion_lon": 0.0, "lat": 38.903276, "is_disabled": 0, "name": "c2305bb8331bb531fccea5dc94446b1c", "fusion_lat": 0.0, "rental_uris": {"ios": "https://dc.lft.to/lastmile_qr_scan", "android": "https://dc.lft.to/lastmile_qr_scan"}, "lon": -77.043409, "type": "electric_scooter"}, {"bike_id": "d113fdc49583b51964e83042c04e0503", "is_reserved": 0, "fusion_lon": 0.0, "lat": 38.90321566666667, "is_disabled": 0, "name": "d113fdc49583b51964e83042c04e0503", "fusion_lat": 0.0, "rental_uris": {"ios": "https://dc.lft.to/lastmile_qr_scan", "android": "https://dc.lft.to/lastmile_qr_scan"}, "lon": -77.03342783333333, "type": "electric_scooter"}, {"bike_id": "9625f58eb97c0e07b14c5e588281b3bc", "is_reserved": 0, "fusion_lon": 0.0, "lat": 38.9024845, "is_disabled": 0, "name": "9625f58eb97c0e07b14c5e588281b3bc", "fusion_lat": 0.0, "rental_uris": {"ios": "https://dc.lft.to/lastmile_qr_scan", "android": "https://dc.lft.to/lastmile_qr_scan"}, "lon": -77.03951716666667, "type": "electric_scooter"}, {"bike_id": "803875212b2e6a9a402b70c59d475d5a", "is_reserved": 0, "fusion_lon": 0.0, "lat": 38.90309966666667, "is_disabled": 0, "name": "803875212b2e6a9a402b70c59d475d5a", "fusion_lat": 0.0, "rental_uris": {"ios": "https://dc.lft.to/lastmile_qr_scan", "android": "https://dc.lft.to/lastmile_qr_scan"}, "lon": -77.0288115, "type": "electric_bike"}, {"bike_id": "4fc39d9753f1abba7f0a78a677e093db", "is_reserved": 0, "fusion_lon": 0.0, "lat": 38.88048083333334, "is_disabled": 0, "name": "4fc39d9753f1abba7f0a78a677e093db", "fusion_lat": 0.0, "rental_uris": {"ios": "https://dc.lft.to/lastmile_qr_scan", "android": "https://dc.lft.to/lastmile_qr_scan"}, "lon": -77.01324683333333, "type": "electric_bike"}, {"bike_id": "c111f2925ff4c1ccde85d3e8c1726017", "is_reserved": 0, "fusion_lon": 0.0, "lat": 38.83931883333333, "is_disabled": 0, "name": "c111f2925ff4c1ccde85d3e8c1726017", "fusion_lat": 0.0, "rental_uris": {"ios": "https://dc.lft.to/lastmile_qr_scan", "android": "https://dc.lft.to/lastmile_qr_scan"}, "lon": -77.07901916666667, "type": "electric_bike"}, {"bike_id": "9a4dab0816daba85780a8b7e9e02c2b0", "is_reserved": 0, "fusion_lon": 0.0, "lat": 38.89228766666667, "is_disabled": 0, "name": "9a4dab0816daba85780a8b7e9e02c2b0", "fusion_lat": 0.0, "rental_uris": {"ios": "https://dc.lft.to/lastmile_qr_scan", "android": "https://dc.lft.to/lastmile_qr_scan"}, "lon": -77.02204616666667, "type": "electric_scooter"}, {"bike_id": "ff27f5d96a95217a44de20f663ae6369", "is_reserved": 0, "fusion_lon": 0.0, "lat": 38.90015733333333, "is_disabled": 0, "name": "ff27f5d96a95217a44de20f663ae6369", "fusion_lat": 0.0, "rental_uris": {"ios": "https://dc.lft.to/lastmile_qr_scan", "android": "https://dc.lft.to/lastmile_qr_scan"}, "lon": -77.01166483333333, "type": "electric_scooter"}, {"bike_id": "ecfa7b6ec47a8a90d416812521c95912", "is_reserved": 0, "fusion_lon": 0.0, "lat": 38.898249666666665, "is_disabled": 0, "name": "ecfa7b6ec47a8a90d416812521c95912", "fusion_lat": 0.0, "rental_uris": {"ios": "https://dc.lft.to/lastmile_qr_scan", "android": "https://dc.lft.to/lastmile_qr_scan"}, "lon": -77.03345233333333, "type": "electric_scooter"}, {"bike_id": "fb5285d026294f3fd1555faf0260e3a2", "is_reserved": 0, "fusion_lon": 0.0, "lat": 38.903568, "is_disabled": 0, "name": "fb5285d026294f3fd1555faf0260e3a2", "fusion_lat": 0.0, "rental_uris": {"ios": "https://dc.lft.to/lastmile_qr_scan", "android": "https://dc.lft.to/lastmile_qr_scan"}, "lon": -77.031808, "type": "electric_scooter"}, {"bike_id": "853a436ca80137224ab06447819bcdf9", "is_reserved": 0, "fusion_lon": 0.0, "lat": 38.89825533333333, "is_disabled": 0, "name": "853a436ca80137224ab06447819bcdf9", "fusion_lat": 0.0, "rental_uris": {"ios": "https://dc.lft.to/lastmile_qr_scan", "android": "https://dc.lft.to/lastmile_qr_scan"}, "lon": -77.03312233333334, "type": "electric_scooter"}, {"bike_id": "c16187fbc66da5c67916868f48740c98", "is_reserved": 0, "fusion_lon": 0.0, "lat": 38.84273016666667, "is_disabled": 0, "name": "c16187fbc66da5c67916868f48740c98", "fusion_lat": 0.0, "rental_uris": {"ios": "https://dc.lft.to/lastmile_qr_scan", "android": "https://dc.lft.to/lastmile_qr_scan"}, "lon": -76.98843633333334, "type": "electric_bike"}, {"bike_id": "3603c3aa696903673f1113f572b980fd", "is_reserved": 0, "fusion_lon": 0.0, "lat": 38.8849445, "is_disabled": 0, "name": "3603c3aa696903673f1113f572b980fd", "fusion_lat": 0.0, "rental_uris": {"ios": "https://dc.lft.to/lastmile_qr_scan", "android": "https://dc.lft.to/lastmile_qr_scan"}, "lon": -77.007267, "type": "electric_scooter"}, {"bike_id": "23f5a44de729738b6b0f22b0087c4908", "is_reserved": 0, "fusion_lon": 0.0, "lat": 38.922700666666664, "is_disabled": 0, "name": "23f5a44de729738b6b0f22b0087c4908", "fusion_lat": 0.0, "rental_uris": {"ios": "https://dc.lft.to/lastmile_qr_scan", "android": "https://dc.lft.to/lastmile_qr_scan"}, "lon": -77.01822383333334, "type": "electric_scooter"}, {"bike_id": "24e8345c45f02a2d29a84ce15185065d", "is_reserved": 0, "fusion_lon": 0.0, "lat": 38.905273666666666, "is_disabled": 0, "name": "24e8345c45f02a2d29a84ce15185065d", "fusion_lat": 0.0, "rental_uris": {"ios": "https://dc.lft.to/lastmile_qr_scan", "android": "https://dc.lft.to/lastmile_qr_scan"}, "lon": -77.065161, "type": "electric_scooter"}, {"bike_id": "71e7f5408358c946e37905b6d8aad27e", "is_reserved": 0, "fusion_lon": 0.0, "lat": 38.89222983333333, "is_disabled": 0, "name": "71e7f5408358c946e37905b6d8aad27e", "fusion_lat": 0.0, "rental_uris": {"ios": "https://dc.lft.to/lastmile_qr_scan", "android": "https://dc.lft.to/lastmile_qr_scan"}, "lon": -77.0487015, "type": "electric_scooter"}, {"bike_id": "2a88e767bab1c84798183c9548f9fa7d", "is_reserved": 0, "fusion_lon": 0.0, "lat": 38.9013005, "is_disabled": 0, "name": "2a88e767bab1c84798183c9548f9fa7d", "fusion_lat": 0.0, "rental_uris": {"ios": "https://dc.lft.to/lastmile_qr_scan", "android": "https://dc.lft.to/lastmile_qr_scan"}, "lon": -76.99710966666666, "type": "electric_scooter"}, {"bike_id": "9430b9f3b6a141df4f661c76a3ab0fb1", "is_reserved": 0, "fusion_lon": 0.0, "lat": 38.9271065, "is_disabled": 0, "name": "9430b9f3b6a141df4f661c76a3ab0fb1", "fusion_lat": 0.0, "rental_uris": {"ios": "https://dc.lft.to/lastmile_qr_scan", "android": "https://dc.lft.to/lastmile_qr_scan"}, "lon": -77.04047083333333, "type": "electric_scooter"}, {"bike_id": "cab22b8e6594704c9c595db939bdffab", "is_reserved": 0, "fusion_lon": 0.0, "lat": 38.8919565, "is_disabled": 0, "name": "cab22b8e6594704c9c595db939bdffab", "fusion_lat": 0.0, "rental_uris": {"ios": "https://dc.lft.to/lastmile_qr_scan", "android": "https://dc.lft.to/lastmile_qr_scan"}, "lon": -77.02216433333334, "type": "electric_scooter"}, {"bike_id": "7be792d867d519307ac0d2bf617821f4", "is_reserved": 0, "fusion_lon": 0.0, "lat": 38.90361883333333, "is_disabled": 0, "name": "7be792d867d519307ac0d2bf617821f4", "fusion_lat": 0.0, "rental_uris": {"ios": "https://dc.lft.to/lastmile_qr_scan", "android": "https://dc.lft.to/lastmile_qr_scan"}, "lon": -77.037738, "type": "electric_scooter"}, {"bike_id": "fb3d4723b5b5f56fc8653e788d526c34", "is_reserved": 0, "fusion_lon": 0.0, "lat": 38.892191333333336, "is_disabled": 0, "name": "fb3d4723b5b5f56fc8653e788d526c34", "fusion_lat": 0.0, "rental_uris": {"ios": "https://dc.lft.to/lastmile_qr_scan", "android": "https://dc.lft.to/lastmile_qr_scan"}, "lon": -77.10782366666666, "type": "electric_bike"}, {"bike_id": "b99bfc835e9da117365d9b3db56ab6f4", "is_reserved": 0, "fusion_lon": 0.0, "lat": 38.8962505, "is_disabled": 0, "name": "b99bfc835e9da117365d9b3db56ab6f4", "fusion_lat": 0.0, "rental_uris": {"ios": "https://dc.lft.to/lastmile_qr_scan", "android": "https://dc.lft.to/lastmile_qr_scan"}, "lon": -77.04801566666667, "type": "electric_scooter"}, {"bike_id": "f57a5e6d46bd736ea2ed2f942fd7a3e4", "is_reserved": 0, "fusion_lon": 0.0, "lat": 38.9045075, "is_disabled": 0, "name": "f57a5e6d46bd736ea2ed2f942fd7a3e4", "fusion_lat": 0.0, "rental_uris": {"ios": "https://dc.lft.to/lastmile_qr_scan", "android": "https://dc.lft.to/lastmile_qr_scan"}, "lon": -76.988808, "type": "electric_scooter"}, {"bike_id": "26ffe89853b1eb8bef66be22373875da", "is_reserved": 0, "fusion_lon": 0.0, "lat": 38.90379516666667, "is_disabled": 0, "name": "26ffe89853b1eb8bef66be22373875da", "fusion_lat": 0.0, "rental_uris": {"ios": "https://dc.lft.to/lastmile_qr_scan", "android": "https://dc.lft.to/lastmile_qr_scan"}, "lon": -77.0420305, "type": "electric_scooter"}, {"bike_id": "5dad520ae431d16f619f536504cd4c2a", "is_reserved": 0, "fusion_lon": 0.0, "lat": 38.908583, "is_disabled": 0, "name": "5dad520ae431d16f619f536504cd4c2a", "fusion_lat": 0.0, "rental_uris": {"ios": "https://dc.lft.to/lastmile_qr_scan", "android": "https://dc.lft.to/lastmile_qr_scan"}, "lon": -77.02731016666667, "type": "electric_scooter"}, {"bike_id": "570027e039d93344e5739404e1a211d6", "is_reserved": 0, "fusion_lon": 0.0, "lat": 38.9339365, "is_disabled": 0, "name": "570027e039d93344e5739404e1a211d6", "fusion_lat": 0.0, "rental_uris": {"ios": "https://dc.lft.to/lastmile_qr_scan", "android": "https://dc.lft.to/lastmile_qr_scan"}, "lon": -77.035829, "type": "electric_scooter"}, {"bike_id": "554ad3fc92f7b242d9f3285197626535", "is_reserved": 0, "fusion_lon": 0.0, "lat": 38.909161, "is_disabled": 0, "name": "554ad3fc92f7b242d9f3285197626535", "fusion_lat": 0.0, "rental_uris": {"ios": "https://dc.lft.to/lastmile_qr_scan", "android": "https://dc.lft.to/lastmile_qr_scan"}, "lon": -77.009228, "type": "electric_scooter"}, {"bike_id": "8aa91a5db0eca179c0fbff0c0ed06ec5", "is_reserved": 0, "fusion_lon": 0.0, "lat": 38.91272283333333, "is_disabled": 0, "name": "8aa91a5db0eca179c0fbff0c0ed06ec5", "fusion_lat": 0.0, "rental_uris": {"ios": "https://dc.lft.to/lastmile_qr_scan", "android": "https://dc.lft.to/lastmile_qr_scan"}, "lon": -77.02557533333334, "type": "electric_scooter"}, {"bike_id": "a5f793e1b4b4d45ca91d71dbbd0f0630", "is_reserved": 0, "fusion_lon": 0.0, "lat": 38.892280166666666, "is_disabled": 0, "name": "a5f793e1b4b4d45ca91d71dbbd0f0630", "fusion_lat": 0.0, "rental_uris": {"ios": "https://dc.lft.to/lastmile_qr_scan", "android": "https://dc.lft.to/lastmile_qr_scan"}, "lon": -77.02206466666667, "type": "electric_scooter"}, {"bike_id": "5e973b608aa1eafb8d5bcdd53e18df51", "is_reserved": 0, "fusion_lon": 0.0, "lat": 38.892214, "is_disabled": 0, "name": "5e973b608aa1eafb8d5bcdd53e18df51", "fusion_lat": 0.0, "rental_uris": {"ios": "https://dc.lft.to/lastmile_qr_scan", "android": "https://dc.lft.to/lastmile_qr_scan"}, "lon": -77.03214483333333, "type": "electric_scooter"}, {"bike_id": "7a6fe970db2e5ac7fea94fb838f8c0e7", "is_reserved": 0, "fusion_lon": 0.0, "lat": 38.932436833333334, "is_disabled": 0, "name": "7a6fe970db2e5ac7fea94fb838f8c0e7", "fusion_lat": 0.0, "rental_uris": {"ios": "https://dc.lft.to/lastmile_qr_scan", "android": "https://dc.lft.to/lastmile_qr_scan"}, "lon": -77.03894033333333, "type": "electric_scooter"}, {"bike_id": "fc7b230b6cf3d7ff354f9f2dfc0bbb85", "is_reserved": 0, "fusion_lon": 0.0, "lat": 38.92023366666667, "is_disabled": 0, "name": "fc7b230b6cf3d7ff354f9f2dfc0bbb85", "fusion_lat": 0.0, "rental_uris": {"ios": "https://dc.lft.to/lastmile_qr_scan", "android": "https://dc.lft.to/lastmile_qr_scan"}, "lon": -77.02796266666667, "type": "electric_scooter"}, {"bike_id": "3d53fd7e6866758c9cff573fba376926", "is_reserved": 0, "fusion_lon": 0.0, "lat": 38.90921083333333, "is_disabled": 0, "name": "3d53fd7e6866758c9cff573fba376926", "fusion_lat": 0.0, "rental_uris": {"ios": "https://dc.lft.to/lastmile_qr_scan", "android": "https://dc.lft.to/lastmile_qr_scan"}, "lon": -77.080017, "type": "electric_scooter"}, {"bike_id": "681c0eb8dd99199a8b425cc5ac89ac54", "is_reserved": 0, "fusion_lon": 0.0, "lat": 38.89218433333333, "is_disabled": 0, "name": "681c0eb8dd99199a8b425cc5ac89ac54", "fusion_lat": 0.0, "rental_uris": {"ios": "https://dc.lft.to/lastmile_qr_scan", "android": "https://dc.lft.to/lastmile_qr_scan"}, "lon": -77.04507033333333, "type": "electric_scooter"}, {"bike_id": "190c4025c0bd1dcef1965c3de40ccb28", "is_reserved": 0, "fusion_lon": 0.0, "lat": 38.92265166666667, "is_disabled": 0, "name": "190c4025c0bd1dcef1965c3de40ccb28", "fusion_lat": 0.0, "rental_uris": {"ios": "https://dc.lft.to/lastmile_qr_scan", "android": "https://dc.lft.to/lastmile_qr_scan"}, "lon": -77.018288, "type": "electric_scooter"}, {"bike_id": "4fc6a52a9b6cfa9a9fddf2744b6a81fc", "is_reserved": 0, "fusion_lon": 0.0, "lat": 38.84294366666666, "is_disabled": 0, "name": "4fc6a52a9b6cfa9a9fddf2744b6a81fc", "fusion_lat": 0.0, "rental_uris": {"ios": "https://dc.lft.to/lastmile_qr_scan", "android": "https://dc.lft.to/lastmile_qr_scan"}, "lon": -76.99947916666666, "type": "electric_scooter"}, {"bike_id": "4c88a88a39e8d8afaa95369ff4a48e6c", "is_reserved": 0, "fusion_lon": 0.0, "lat": 38.89832716666667, "is_disabled": 0, "name": "4c88a88a39e8d8afaa95369ff4a48e6c", "fusion_lat": 0.0, "rental_uris": {"ios": "https://dc.lft.to/lastmile_qr_scan", "android": "https://dc.lft.to/lastmile_qr_scan"}, "lon": -77.03335333333334, "type": "electric_scooter"}, {"bike_id": "2adc2f73b5bb780f12ac9d78a2b86891", "is_reserved": 0, "fusion_lon": 0.0, "lat": 38.9193295, "is_disabled": 0, "name": "2adc2f73b5bb780f12ac9d78a2b86891", "fusion_lat": 0.0, "rental_uris": {"ios": "https://dc.lft.to/lastmile_qr_scan", "android": "https://dc.lft.to/lastmile_qr_scan"}, "lon": -77.03177883333333, "type": "electric_scooter"}, {"bike_id": "cc065459c66e6c22c3ef5bfe752babaa", "is_reserved": 0, "fusion_lon": 0.0, "lat": 38.922991, "is_disabled": 0, "name": "cc065459c66e6c22c3ef5bfe752babaa", "fusion_lat": 0.0, "rental_uris": {"ios": "https://dc.lft.to/lastmile_qr_scan", "android": "https://dc.lft.to/lastmile_qr_scan"}, "lon": -77.04204433333334, "type": "electric_scooter"}, {"bike_id": "a5f495b3e68aebd31fb66cbdc8a381fb", "is_reserved": 0, "fusion_lon": 0.0, "lat": 38.941795, "is_disabled": 0, "name": "a5f495b3e68aebd31fb66cbdc8a381fb", "fusion_lat": 0.0, "rental_uris": {"ios": "https://dc.lft.to/lastmile_qr_scan", "android": "https://dc.lft.to/lastmile_qr_scan"}, "lon": -77.02502066666666, "type": "electric_scooter"}, {"bike_id": "10863cae9d23e90afcc1cec7be740ed8", "is_reserved": 0, "fusion_lon": 0.0, "lat": 38.907789333333334, "is_disabled": 0, "name": "10863cae9d23e90afcc1cec7be740ed8", "fusion_lat": 0.0, "rental_uris": {"ios": "https://dc.lft.to/lastmile_qr_scan", "android": "https://dc.lft.to/lastmile_qr_scan"}, "lon": -77.069239, "type": "electric_scooter"}, {"bike_id": "398c1076b4647d9e5efa4daf0d34d0a5", "is_reserved": 0, "fusion_lon": 0.0, "lat": 38.90570733333333, "is_disabled": 0, "name": "398c1076b4647d9e5efa4daf0d34d0a5", "fusion_lat": 0.0, "rental_uris": {"ios": "https://dc.lft.to/lastmile_qr_scan", "android": "https://dc.lft.to/lastmile_qr_scan"}, "lon": -77.02049733333334, "type": "electric_scooter"}, {"bike_id": "21ff40007912690aff347a533aeb41ea", "is_reserved": 0, "fusion_lon": 0.0, "lat": 38.904559666666664, "is_disabled": 0, "name": "21ff40007912690aff347a533aeb41ea", "fusion_lat": 0.0, "rental_uris": {"ios": "https://dc.lft.to/lastmile_qr_scan", "android": "https://dc.lft.to/lastmile_qr_scan"}, "lon": -76.996245, "type": "electric_scooter"}, {"bike_id": "598b46300becc69f6a7f5d18e26d565c", "is_reserved": 0, "fusion_lon": 0.0, "lat": 38.904328, "is_disabled": 0, "name": "598b46300becc69f6a7f5d18e26d565c", "fusion_lat": 0.0, "rental_uris": {"ios": "https://dc.lft.to/lastmile_qr_scan", "android": "https://dc.lft.to/lastmile_qr_scan"}, "lon": -77.04360916666667, "type": "electric_scooter"}, {"bike_id": "c6712f2d0d6fddf672d23262a59ffb96", "is_reserved": 0, "fusion_lon": 0.0, "lat": 38.8783945, "is_disabled": 0, "name": "c6712f2d0d6fddf672d23262a59ffb96", "fusion_lat": 0.0, "rental_uris": {"ios": "https://dc.lft.to/lastmile_qr_scan", "android": "https://dc.lft.to/lastmile_qr_scan"}, "lon": -76.99038083333333, "type": "electric_scooter"}, {"bike_id": "29762b9b084398c438ad2d70b9c5a772", "is_reserved": 0, "fusion_lon": 0.0, "lat": 38.90295716666667, "is_disabled": 0, "name": "29762b9b084398c438ad2d70b9c5a772", "fusion_lat": 0.0, "rental_uris": {"ios": "https://dc.lft.to/lastmile_qr_scan", "android": "https://dc.lft.to/lastmile_qr_scan"}, "lon": -76.998587, "type": "electric_scooter"}, {"bike_id": "d763969d62f3991903a9ddf338e61092", "is_reserved": 0, "fusion_lon": 0.0, "lat": 38.876296833333335, "is_disabled": 0, "name": "d763969d62f3991903a9ddf338e61092", "fusion_lat": 0.0, "rental_uris": {"ios": "https://dc.lft.to/lastmile_qr_scan", "android": "https://dc.lft.to/lastmile_qr_scan"}, "lon": -76.965249, "type": "electric_scooter"}, {"bike_id": "68a02363365ba4a3263c0f88a3dec0f7", "is_reserved": 0, "fusion_lon": 0.0, "lat": 38.90973, "is_disabled": 0, "name": "68a02363365ba4a3263c0f88a3dec0f7", "fusion_lat": 0.0, "rental_uris": {"ios": "https://dc.lft.to/lastmile_qr_scan", "android": "https://dc.lft.to/lastmile_qr_scan"}, "lon": -77.0487235, "type": "electric_scooter"}, {"bike_id": "bd036fe8ace28c55fcc2acf759659184", "is_reserved": 0, "fusion_lon": 0.0, "lat": 38.866656166666665, "is_disabled": 0, "name": "bd036fe8ace28c55fcc2acf759659184", "fusion_lat": 0.0, "rental_uris": {"ios": "https://dc.lft.to/lastmile_qr_scan", "android": "https://dc.lft.to/lastmile_qr_scan"}, "lon": -76.98910166666667, "type": "electric_scooter"}, {"bike_id": "6a5e6ec4db3d00b359a5a7ebc8c4b440", "is_reserved": 0, "fusion_lon": 0.0, "lat": 38.88524566666667, "is_disabled": 0, "name": "6a5e6ec4db3d00b359a5a7ebc8c4b440", "fusion_lat": 0.0, "rental_uris": {"ios": "https://dc.lft.to/lastmile_qr_scan", "android": "https://dc.lft.to/lastmile_qr_scan"}, "lon": -77.00577483333333, "type": "electric_scooter"}, {"bike_id": "e528f928c4ea3e40394742543820e6da", "is_reserved": 0, "fusion_lon": 0.0, "lat": 38.90562533333333, "is_disabled": 0, "name": "e528f928c4ea3e40394742543820e6da", "fusion_lat": 0.0, "rental_uris": {"ios": "https://dc.lft.to/lastmile_qr_scan", "android": "https://dc.lft.to/lastmile_qr_scan"}, "lon": -77.034418, "type": "electric_scooter"}, {"bike_id": "d98645a115184c7293887fe9829cb6dc", "is_reserved": 0, "fusion_lon": 0.0, "lat": 38.90958583333333, "is_disabled": 0, "name": "d98645a115184c7293887fe9829cb6dc", "fusion_lat": 0.0, "rental_uris": {"ios": "https://dc.lft.to/lastmile_qr_scan", "android": "https://dc.lft.to/lastmile_qr_scan"}, "lon": -77.04516466666666, "type": "electric_scooter"}, {"bike_id": "6ca934412203d187b5fab11fb9c3b2d6", "is_reserved": 0, "fusion_lon": 0.0, "lat": 38.91122283333333, "is_disabled": 0, "name": "6ca934412203d187b5fab11fb9c3b2d6", "fusion_lat": 0.0, "rental_uris": {"ios": "https://dc.lft.to/lastmile_qr_scan", "android": "https://dc.lft.to/lastmile_qr_scan"}, "lon": -77.02184966666667, "type": "electric_scooter"}, {"bike_id": "08531348d20728422852f89f560499cf", "is_reserved": 0, "fusion_lon": 0.0, "lat": 38.933581333333336, "is_disabled": 0, "name": "08531348d20728422852f89f560499cf", "fusion_lat": 0.0, "rental_uris": {"ios": "https://dc.lft.to/lastmile_qr_scan", "android": "https://dc.lft.to/lastmile_qr_scan"}, "lon": -77.06938883333333, "type": "electric_scooter"}, {"bike_id": "e26a1b067fbf2d7e5ba9abfb1c1a3778", "is_reserved": 0, "fusion_lon": 0.0, "lat": 38.899173166666664, "is_disabled": 0, "name": "e26a1b067fbf2d7e5ba9abfb1c1a3778", "fusion_lat": 0.0, "rental_uris": {"ios": "https://dc.lft.to/lastmile_qr_scan", "android": "https://dc.lft.to/lastmile_qr_scan"}, "lon": -77.03921833333334, "type": "electric_scooter"}, {"bike_id": "818049e7bf97027a9547433a97a1a56b", "is_reserved": 0, "fusion_lon": 0.0, "lat": 38.920996333333335, "is_disabled": 0, "name": "818049e7bf97027a9547433a97a1a56b", "fusion_lat": 0.0, "rental_uris": {"ios": "https://dc.lft.to/lastmile_qr_scan", "android": "https://dc.lft.to/lastmile_qr_scan"}, "lon": -77.06334233333334, "type": "electric_scooter"}, {"bike_id": "ff1135ead615ca94924ffa4b067840a0", "is_reserved": 0, "fusion_lon": 0.0, "lat": 38.9027405, "is_disabled": 0, "name": "ff1135ead615ca94924ffa4b067840a0", "fusion_lat": 0.0, "rental_uris": {"ios": "https://dc.lft.to/lastmile_qr_scan", "android": "https://dc.lft.to/lastmile_qr_scan"}, "lon": -77.03843516666667, "type": "electric_scooter"}, {"bike_id": "03f638ab6b247223730e804b448ddbe4", "is_reserved": 0, "fusion_lon": 0.0, "lat": 38.892175333333334, "is_disabled": 0, "name": "03f638ab6b247223730e804b448ddbe4", "fusion_lat": 0.0, "rental_uris": {"ios": "https://dc.lft.to/lastmile_qr_scan", "android": "https://dc.lft.to/lastmile_qr_scan"}, "lon": -77.04509183333333, "type": "electric_scooter"}, {"bike_id": "a00fcccd4443a1971a43a6b56ae71c72", "is_reserved": 0, "fusion_lon": 0.0, "lat": 38.9209285, "is_disabled": 0, "name": "a00fcccd4443a1971a43a6b56ae71c72", "fusion_lat": 0.0, "rental_uris": {"ios": "https://dc.lft.to/lastmile_qr_scan", "android": "https://dc.lft.to/lastmile_qr_scan"}, "lon": -77.0747795, "type": "electric_scooter"}, {"bike_id": "71d352dc98f53b093c2253b473d7b1c6", "is_reserved": 0, "fusion_lon": 0.0, "lat": 38.887671833333336, "is_disabled": 0, "name": "71d352dc98f53b093c2253b473d7b1c6", "fusion_lat": 0.0, "rental_uris": {"ios": "https://dc.lft.to/lastmile_qr_scan", "android": "https://dc.lft.to/lastmile_qr_scan"}, "lon": -77.030186, "type": "electric_scooter"}, {"bike_id": "8932545f2f25afccba293ba8d65cfb6d", "is_reserved": 0, "fusion_lon": 0.0, "lat": 38.898272666666664, "is_disabled": 0, "name": "8932545f2f25afccba293ba8d65cfb6d", "fusion_lat": 0.0, "rental_uris": {"ios": "https://dc.lft.to/lastmile_qr_scan", "android": "https://dc.lft.to/lastmile_qr_scan"}, "lon": -77.0334505, "type": "electric_scooter"}, {"bike_id": "3fdad9179e2b486e7da1df222044838e", "is_reserved": 0, "fusion_lon": 0.0, "lat": 38.901327333333334, "is_disabled": 0, "name": "3fdad9179e2b486e7da1df222044838e", "fusion_lat": 0.0, "rental_uris": {"ios": "https://dc.lft.to/lastmile_qr_scan", "android": "https://dc.lft.to/lastmile_qr_scan"}, "lon": -77.04486016666667, "type": "electric_scooter"}, {"bike_id": "0f84427eaa559a74860e2af0b9560260", "is_reserved": 0, "fusion_lon": 0.0, "lat": 38.905099166666666, "is_disabled": 0, "name": "0f84427eaa559a74860e2af0b9560260", "fusion_lat": 0.0, "rental_uris": {"ios": "https://dc.lft.to/lastmile_qr_scan", "android": "https://dc.lft.to/lastmile_qr_scan"}, "lon": -77.04153083333334, "type": "electric_scooter"},