{"data": {"bikes": [{"lon": -77.04796233333333, "is_reserved": 0, "is_disabled": 0, "type": "electric_scooter", "lat": 38.893744166666664, "rental_uris": {"ios": "https://dc.lft.to/lastmile_qr_scan", "android": "https://dc.lft.to/lastmile_qr_scan"}, "fusion_lat": 0.0, "fusion_lon": 0.0, "bike_id": "f32350d37d3866a69795256344db9910", "name": "f32350d37d3866a69795256344db9910"}, {"lon": -77.01360683333333, "is_reserved": 0, "is_disabled": 0, "type": "electric_scooter", "lat": 38.903804, "rental_uris": {"ios": "https://dc.lft.to/lastmile_qr_scan", "android": "https://dc.lft.to/lastmile_qr_scan"}, "fusion_lat": 0.0, "fusion_lon": 0.0, "bike_id": "1c77251d68e7765b0bdad1d2264b0732", "name": "1c77251d68e7765b0bdad1d2264b0732"}, {"lon": -76.98595333333333, "is_reserved": 0, "is_disabled": 0, "type": "electric_scooter", "lat": 38.889705666666664, "rental_uris": {"ios": "https://dc.lft.to/lastmile_qr_scan", "android": "https://dc.lft.to/lastmile_qr_scan"}, "fusion_lat": 0.0, "fusion_lon": 0.0, "bike_id": "0756bb6dc6c3097a2ca3aa38a679bd60", "name": "0756bb6dc6c3097a2ca3aa38a679bd60"}, {"lon": -77.01916533333333, "is_reserved": 0, "is_disabled": 0, "type": "electric_scooter", "lat": 38.90238933333333, "rental_uris": {"ios": "https://dc.lft.to/lastmile_qr_scan", "android": "https://dc.lft.to/lastmile_qr_scan"}, "fusion_lat": 0.0, "fusion_lon": 0.0, "bike_id": "ad1957d31421839bb492ecc3a54c411d", "name": "ad1957d31421839bb492ecc3a54c411d"}, {"lon": -77.040403, "is_reserved": 0, "is_disabled": 0, "type": "electric_bike", "lat": 38.9085395, "rental_uris": {"ios": "https://dc.lft.to/lastmile_qr_scan", "android": "https://dc.lft.to/lastmile_qr_scan"}, "fusion_lat": 0.0, "fusion_lon": 0.0, "bike_id": "8dc444cf962ea8d07012d556e48ded5c", "name": "8dc444cf962ea8d07012d556e48ded5c"}, {"lon": -76.9855985, "is_reserved": 0, "is_disabled": 0, "type": "electric_scooter", "lat": 38.9200385, "rental_uris": {"ios": "https://dc.lft.to/lastmile_qr_scan", "android": "https://dc.lft.to/lastmile_qr_scan"}, "fusion_lat": 0.0, "fusion_lon": 0.0, "bike_id": "def62b42a698c9739b6684c52a8c3838", "name": "def62b42a698c9739b6684c52a8c3838"}, {"lon": -76.9374585, "is_reserved": 0, "is_disabled": 0, "type": "electric_scooter", "lat": 38.890042666666666, "rental_uris": {"ios": "https://dc.lft.to/lastmile_qr_scan", "android": "https://dc.lft.to/lastmile_qr_scan"}, "fusion_lat": 0.0, "fusion_lon": 0.0, "bike_id": "80fd1af138e0c9c6ba895ea947065ff5", "name": "80fd1af138e0c9c6ba895ea947065ff5"}, {"lon": -77.039074, "is_reserved": 0, "is_disabled": 0, "type": "electric_scooter", "lat": 38.903686, "rental_uris": {"ios": "https://dc.lft.to/lastmile_qr_scan", "android": "https://dc.lft.to/lastmile_qr_scan"}, "fusion_lat": 0.0, "fusion_lon": 0.0, "bike_id": "a037f057ff5ca0984e18c5880abcc5a4", "name": "a037f057ff5ca0984e18c5880abcc5a4"}, {"lon": -76.997398, "is_reserved": 0, "is_disabled": 0, "type": "electric_scooter", "lat": 38.932583666666666, "rental_uris": {"ios": "https://dc.lft.to/lastmile_qr_scan", "android": "https://dc.lft.to/lastmile_qr_scan"}, "fusion_lat": 0.0, "fusion_lon": 0.0, "bike_id": "75c0a478945911e46928390246a570c2", "name": "75c0a478945911e46928390246a570c2"}, {"lon": -76.91124566666667, "is_reserved": 0, "is_disabled": 0, "type": "electric_bike", "lat": 39.01036366666667, "rental_uris": {"ios": "https://dc.lft.to/lastmile_qr_scan", "android": "https://dc.lft.to/lastmile_qr_scan"}, "fusion_lat": 0.0, "fusion_lon": 0.0, "bike_id": "a2c47c24b9883428512359976e0bf27e", "name": "a2c47c24b9883428512359976e0bf27e"}, {"lon": -77.01041116666667, "is_reserved": 0, "is_disabled": 0, "type": "electric_scooter", "lat": 38.88443183333333, "rental_uris": {"ios": "https://dc.lft.to/lastmile_qr_scan", "android": "https://dc.lft.to/lastmile_qr_scan"}, "fusion_lat": 0.0, "fusion_lon": 0.0, "bike_id": "c3248f8df7e5b99bdbb46a4a1cc3c5a5", "name": "c3248f8df7e5b99bdbb46a4a1cc3c5a5"}, {"lon": -77.05269366666667, "is_reserved": 0, "is_disabled": 0, "type": "electric_scooter", "lat": 38.927567833333335, "rental_uris": {"ios": "https://dc.lft.to/lastmile_qr_scan", "android": "https://dc.lft.to/lastmile_qr_scan"}, "fusion_lat": 0.0, "fusion_lon": 0.0, "bike_id": "8549e0f3f2120c2e8d734a241eb29763", "name": "8549e0f3f2120c2e8d734a241eb29763"}, {"lon": -77.0175135, "is_reserved": 0, "is_disabled": 0, "type": "electric_scooter", "lat": 38.88377033333333, "rental_uris": {"ios": "https://dc.lft.to/lastmile_qr_scan", "android": "https://dc.lft.to/lastmile_qr_scan"}, "fusion_lat": 0.0, "fusion_lon": 0.0, "bike_id": "366c19bfd68bac0ce89754f64c8f87bf", "name": "366c19bfd68bac0ce89754f64c8f87bf"}, {"lon": -77.06947733333334, "is_reserved": 0, "is_disabled": 0, "type": "electric_bike", "lat": 38.990404833333336, "rental_uris": {"ios": "https://dc.lft.to/lastmile_qr_scan", "android": "https://dc.lft.to/lastmile_qr_scan"}, "fusion_lat": 0.0, "fusion_lon": 0.0, "bike_id": "6a7517e0ad36920e94c8a84fc5ec36f3", "name": "6a7517e0ad36920e94c8a84fc5ec36f3"}, {"lon": -77.02739316666667, "is_reserved": 0, "is_disabled": 0, "type": "electric_scooter", "lat": 38.90322316666666, "rental_uris": {"ios": "https://dc.lft.to/lastmile_qr_scan", "android": "https://dc.lft.to/lastmile_qr_scan"}, "fusion_lat": 0.0, "fusion_lon": 0.0, "bike_id": "dba5720bfe0e8031a6b90941df1efad2", "name": "dba5720bfe0e8031a6b90941df1efad2"}, {"lon": -77.0033, "is_reserved": 0, "is_disabled": 0, "type": "electric_scooter", "lat": 38.89218366666667, "rental_uris": {"ios": "https://dc.lft.to/lastmile_qr_scan", "android": "https://dc.lft.to/lastmile_qr_scan"}, "fusion_lat": 0.0, "fusion_lon": 0.0, "bike_id": "ab41d1f04acac60cfec86e41915d8451", "name": "ab41d1f04acac60cfec86e41915d8451"}, {"lon": -77.04171266666667, "is_reserved": 0, "is_disabled": 0, "type": "electric_scooter", "lat": 38.89867366666667, "rental_uris": {"ios": "https://dc.lft.to/lastmile_qr_scan", "android": "https://dc.lft.to/lastmile_qr_scan"}, "fusion_lat": 0.0, "fusion_lon": 0.0, "bike_id": "f12db1782d732ab2c9573731a193fd0e", "name": "f12db1782d732ab2c9573731a193fd0e"}, {"lon": -77.01656083333333, "is_reserved": 0, "is_disabled": 0, "type": "electric_scooter", "lat": 38.88342883333333, "rental_uris": {"ios": "https://dc.lft.to/lastmile_qr_scan", "android": "https://dc.lft.to/lastmile_qr_scan"}, "fusion_lat": 0.0, "fusion_lon": 0.0, "bike_id": "eb21d388e9bffd52d13786cfa4f60f63", "name": "eb21d388e9bffd52d13786cfa4f60f63"}, {"lon": -76.9950575, "is_reserved": 0, "is_disabled": 0, "type": "electric_scooter", "lat": 38.88576366666667, "rental_uris": {"ios": "https://dc.lft.to/lastmile_qr_scan", "android": "https://dc.lft.to/lastmile_qr_scan"}, "fusion_lat": 0.0, "fusion_lon": 0.0, "bike_id": "bd33fab7a180ff2225ad0c55f60f4a52", "name": "bd33fab7a180ff2225ad0c55f60f4a52"}, {"lon": -77.07080416666666, "is_reserved": 0, "is_disabled": 0, "type": "electric_scooter", "lat": 38.93901916666667, "rental_uris": {"ios": "https://dc.lft.to/lastmile_qr_scan", "android": "https://dc.lft.to/lastmile_qr_scan"}, "fusion_lat": 0.0, "fusion_lon": 0.0, "bike_id": "1c56d5a1002d0a6dab6f3d3808b270f0", "name": "1c56d5a1002d0a6dab6f3d3808b270f0"}, {"lon": -77.04486433333334, "is_reserved": 0, "is_disabled": 0, "type": "electric_scooter", "lat": 38.90369283333333, "rental_uris": {"ios": "https://dc.lft.to/lastmile_qr_scan", "android": "https://dc.lft.to/lastmile_qr_scan"}, "fusion_lat": 0.0, "fusion_lon": 0.0, "bike_id": "d9d283fb6564709f0bbd7de72e1cd5e6", "name": "d9d283fb6564709f0bbd7de72e1cd5e6"}, {"lon": -77.03832066666666, "is_reserved": 0, "is_disabled": 0, "type": "electric_scooter", "lat": 38.9033225, "rental_uris": {"ios": "https://dc.lft.to/lastmile_qr_scan", "android": "https://dc.lft.to/lastmile_qr_scan"}, "fusion_lat": 0.0, "fusion_lon": 0.0, "bike_id": "0a663780dd99b11cb70da0ea3026d7ca", "name": "0a663780dd99b11cb70da0ea3026d7ca"}, {"lon": -76.996159, "is_reserved": 0, "is_disabled": 0, "type": "electric_scooter", "lat": 38.864642833333335, "rental_uris": {"ios": "https://dc.lft.to/lastmile_qr_scan", "android": "https://dc.lft.to/lastmile_qr_scan"}, "fusion_lat": 0.0, "fusion_lon": 0.0, "bike_id": "cc6451c4769bf7bdf28361d4325d2f85", "name": "cc6451c4769bf7bdf28361d4325d2f85"}, {"lon": -77.00816966666666, "is_reserved": 0, "is_disabled": 0, "type": "electric_scooter", "lat": 38.876430166666665, "rental_uris": {"ios": "https://dc.lft.to/lastmile_qr_scan", "android": "https://dc.lft.to/lastmile_qr_scan"}, "fusion_lat": 0.0, "fusion_lon": 0.0, "bike_id": "0ed79f7acfd262e669604dce20f6130d", "name": "0ed79f7acfd262e669604dce20f6130d"}, {"lon": -77.01394216666667, "is_reserved": 0, "is_disabled": 0, "type": "electric_scooter", "lat": 38.88029016666667, "rental_uris": {"ios": "https://dc.lft.to/lastmile_qr_scan", "android": "https://dc.lft.to/lastmile_qr_scan"}, "fusion_lat": 0.0, "fusion_lon": 0.0, "bike_id": "4723a3f0485c93d48c66e56eab299aaf", "name": "4723a3f0485c93d48c66e56eab299aaf"}, {"lon": -77.02811716666666, "is_reserved": 0, "is_disabled": 0, "type": "electric_scooter", "lat": 38.906193, "rental_uris": {"ios": "https://dc.lft.to/lastmile_qr_scan", "android": "https://dc.lft.to/lastmile_qr_scan"}, "fusion_lat": 0.0, "fusion_lon": 0.0, "bike_id": "0d4595bc980b452d5b8b995d0d805415", "name": "0d4595bc980b452d5b8b995d0d805415"}, {"lon": -76.99763533333333, "is_reserved": 0, "is_disabled": 0, "type": "electric_bike", "lat": 39.0059185, "rental_uris": {"ios": "https://dc.lft.to/lastmile_qr_scan", "android": "https://dc.lft.to/lastmile_qr_scan"}, "fusion_lat": 0.0, "fusion_lon": 0.0, "bike_id": "d8019fc2de1bf62b6f6f6a51a0dab736", "name": "d8019fc2de1bf62b6f6f6a51a0dab736"}, {"lon": -77.04183266666666, "is_reserved": 0, "is_disabled": 0, "type": "electric_scooter", "lat": 38.903009833333336, "rental_uris": {"ios": "https://dc.lft.to/lastmile_qr_scan", "android": "https://dc.lft.to/lastmile_qr_scan"}, "fusion_lat": 0.0, "fusion_lon": 0.0, "bike_id": "6cd41ba55411e7c0cd26ac2a5b70e04a", "name": "6cd41ba55411e7c0cd26ac2a5b70e04a"}, {"lon": -77.03067233333333, "is_reserved": 0, "is_disabled": 0, "type": "electric_scooter", "lat": 38.88044433333334, "rental_uris": {"ios": "https://dc.lft.to/lastmile_qr_scan", "android": "https://dc.lft.to/lastmile_qr_scan"}, "fusion_lat": 0.0, "fusion_lon": 0.0, "bike_id": "31316ff338db2dfc47d870172fd2a831", "name": "31316ff338db2dfc47d870172fd2a831"}, {"lon": -77.01241383333333, "is_reserved": 0, "is_disabled": 0, "type": "electric_bike", "lat": 38.88742166666667, "rental_uris": {"ios": "https://dc.lft.to/lastmile_qr_scan", "android": "https://dc.lft.to/lastmile_qr_scan"}, "fusion_lat": 0.0, "fusion_lon": 0.0, "bike_id": "a70ec07c3ea24ed9e46d7434bbb240e0", "name": "a70ec07c3ea24ed9e46d7434bbb240e0"}, {"lon": -77.036511, "is_reserved": 0, "is_disabled": 0, "type": "electric_scooter", "lat": 38.90263383333333, "rental_uris": {"ios": "https://dc.lft.to/lastmile_qr_scan", "android": "https://dc.lft.to/lastmile_qr_scan"}, "fusion_lat": 0.0, "fusion_lon": 0.0, "bike_id": "fae56b412ef2e19a82daa06e358cc216", "name": "fae56b412ef2e19a82daa06e358cc216"}, {"lon": -77.0295465, "is_reserved": 0, "is_disabled": 0, "type": "electric_scooter", "lat": 38.90411316666667, "rental_uris": {"ios": "https://dc.lft.to/lastmile_qr_scan", "android": "https://dc.lft.to/lastmile_qr_scan"}, "fusion_lat": 0.0, "fusion_lon": 0.0, "bike_id": "f114bf5114fa5ecc9e87e6a4631ad9dc", "name": "f114bf5114fa5ecc9e87e6a4631ad9dc"}, {"lon": -77.03379383333333, "is_reserved": 0, "is_disabled": 0, "type": "electric_scooter", "lat": 38.925364, "rental_uris": {"ios": "https://dc.lft.to/lastmile_qr_scan", "android": "https://dc.lft.to/lastmile_qr_scan"}, "fusion_lat": 0.0, "fusion_lon": 0.0, "bike_id": "e7a8487d3a4b1c20a634104f462056a7", "name": "e7a8487d3a4b1c20a634104f462056a7"}, {"lon": -77.01581533333334, "is_reserved": 0, "is_disabled": 0, "type": "electric_scooter", "lat": 38.8941855, "rental_uris": {"ios": "https://dc.lft.to/lastmile_qr_scan", "android": "https://dc.lft.to/lastmile_qr_scan"}, "fusion_lat": 0.0, "fusion_lon": 0.0, "bike_id": "bb4b0e71cd632f29dbb1a8dcbce8d762", "name": "bb4b0e71cd632f29dbb1a8dcbce8d762"}, {"lon": -77.027726, "is_reserved": 0, "is_disabled": 0, "type": "electric_scooter", "lat": 38.8815195, "rental_uris": {"ios": "https://dc.lft.to/lastmile_qr_scan", "android": "https://dc.lft.to/lastmile_qr_scan"}, "fusion_lat": 0.0, "fusion_lon": 0.0, "bike_id": "f3707daf1afb8180757b7f85c85e4fe4", "name": "f3707daf1afb8180757b7f85c85e4fe4"}, {"lon": -77.011898, "is_reserved": 0, "is_disabled": 0, "type": "electric_scooter", "lat": 38.87153633333333, "rental_uris": {"ios": "https://dc.lft.to/lastmile_qr_scan", "android": "https://dc.lft.to/lastmile_qr_scan"}, "fusion_lat": 0.0, "fusion_lon": 0.0, "bike_id": "fd3ab3629027b47eab65c3ef47f6fa89", "name": "fd3ab3629027b47eab65c3ef47f6fa89"}, {"lon": -77.03665166666667, "is_reserved": 0, "is_disabled": 0, "type": "electric_scooter", "lat": 38.912831, "rental_uris": {"ios": "https://dc.lft.to/lastmile_qr_scan", "android": "https://dc.lft.to/lastmile_qr_scan"}, "fusion_lat": 0.0, "fusion_lon": 0.0, "bike_id": "16ab2d73543387de607e4d0854ba1f40", "name": "16ab2d73543387de607e4d0854ba1f40"}, {"lon": -76.92956883333333, "is_reserved": 0, "is_disabled": 0, "type": "electric_scooter", "lat": 38.8987815, "rental_uris": {"ios": "https://dc.lft.to/lastmile_qr_scan", "android": "https://dc.lft.to/lastmile_qr_scan"}, "fusion_lat": 0.0, "fusion_lon": 0.0, "bike_id": "df5c4a8fd16d615566e581c4f1a22f2c", "name": "df5c4a8fd16d615566e581c4f1a22f2c"}, {"lon": -77.13178566666667, "is_reserved": 0, "is_disabled": 0, "type": "electric_bike", "lat": 38.8690305, "rental_uris": {"ios": "https://dc.lft.to/lastmile_qr_scan", "android": "https://dc.lft.to/lastmile_qr_scan"}, "fusion_lat": 0.0, "fusion_lon": 0.0, "bike_id": "11757f258ea4805af10800cb928e1a4f", "name": "11757f258ea4805af10800cb928e1a4f"}, {"lon": -77.04660666666666, "is_reserved": 0, "is_disabled": 0, "type": "electric_scooter", "lat": 38.903319, "rental_uris": {"ios": "https://dc.lft.to/lastmile_qr_scan", "android": "https://dc.lft.to/lastmile_qr_scan"}, "fusion_lat": 0.0, "fusion_lon": 0.0, "bike_id": "d0e985af5940484b737aab826c20274d", "name": "d0e985af5940484b737aab826c20274d"}, {"lon": -77.02647483333334, "is_reserved": 0, "is_disabled": 0, "type": "electric_bike", "lat": 38.988187833333335, "rental_uris": {"ios": "https://dc.lft.to/lastmile_qr_scan", "android": "https://dc.lft.to/lastmile_qr_scan"}, "fusion_lat": 0.0, "fusion_lon": 0.0, "bike_id": "5285a3dba61eff64e7e42205f729b9cb", "name": "5285a3dba61eff64e7e42205f729b9cb"}, {"lon": -77.038791, "is_reserved": 0, "is_disabled": 0, "type": "electric_scooter", "lat": 38.9197535, "rental_uris": {"ios": "https://dc.lft.to/lastmile_qr_scan", "android": "https://dc.lft.to/lastmile_qr_scan"}, "fusion_lat": 0.0, "fusion_lon": 0.0, "bike_id": "9aeec4a3b267d729298fbdb1ef90f4ce", "name": "9aeec4a3b267d729298fbdb1ef90f4ce"}, {"lon": -77.01211383333333, "is_reserved": 0, "is_disabled": 0, "type": "electric_scooter", "lat": 38.8932795, "rental_uris": {"ios": "https://dc.lft.to/lastmile_qr_scan", "android": "https://dc.lft.to/lastmile_qr_scan"}, "fusion_lat": 0.0, "fusion_lon": 0.0, "bike_id": "a0e89514b8f705042bea04a6ad098181", "name": "a0e89514b8f705042bea04a6ad098181"}, {"lon": -76.99135, "is_reserved": 0, "is_disabled": 0, "type": "electric_scooter", "lat": 38.87910016666667, "rental_uris": {"ios": "https://dc.lft.to/lastmile_qr_scan", "android": "https://dc.lft.to/lastmile_qr_scan"}, "fusion_lat": 0.0, "fusion_lon": 0.0, "bike_id": "33d196599a111c2143616d0b13501842", "name": "33d196599a111c2143616d0b13501842"}, {"lon": -77.03418683333334, "is_reserved": 0, "is_disabled": 0, "type": "electric_scooter", "lat": 38.929405333333335, "rental_uris": {"ios": "https://dc.lft.to/lastmile_qr_scan", "android": "https://dc.lft.to/lastmile_qr_scan"}, "fusion_lat": 0.0, "fusion_lon": 0.0, "bike_id": "cdcc6666d8c705a733b825175955568d", "name": "cdcc6666d8c705a733b825175955568d"}, {"lon": -77.03280116666667, "is_reserved": 0, "is_disabled": 0, "type": "electric_scooter", "lat": 38.941599333333336, "rental_uris": {"ios": "https://dc.lft.to/lastmile_qr_scan", "android": "https://dc.lft.to/lastmile_qr_scan"}, "fusion_lat": 0.0, "fusion_lon": 0.0, "bike_id": "948822b2741c089ce5d4de370246c081", "name": "948822b2741c089ce5d4de370246c081"}, {"lon": -77.02374433333334, "is_reserved": 0, "is_disabled": 0, "type": "electric_scooter", "lat": 38.90731816666667, "rental_uris": {"ios": "https://dc.lft.to/lastmile_qr_scan", "android": "https://dc.lft.to/lastmile_qr_scan"}, "fusion_lat": 0.0, "fusion_lon": 0.0, "bike_id": "a9af73dbc8dc7c81fe1e96d88250e937", "name": "a9af73dbc8dc7c81fe1e96d88250e937"}, {"lon": -77.037614, "is_reserved": 0, "is_disabled": 0, "type": "electric_scooter", "lat": 38.924741833333336, "rental_uris": {"ios": "https://dc.lft.to/lastmile_qr_scan", "android": "https://dc.lft.to/lastmile_qr_scan"}, "fusion_lat": 0.0, "fusion_lon": 0.0, "bike_id": "f6cecda4ee7bffe3d687995b7691cede", "name": "f6cecda4ee7bffe3d687995b7691cede"}, {"lon": -76.9727865, "is_reserved": 0, "is_disabled": 0, "type": "electric_scooter", "lat": 38.930839, "rental_uris": {"ios": "https://dc.lft.to/lastmile_qr_scan", "android": "https://dc.lft.to/lastmile_qr_scan"}, "fusion_lat": 0.0, "fusion_lon": 0.0, "bike_id": "c4f74fd3f11d0f85683cae7ac579e04a", "name": "c4f74fd3f11d0f85683cae7ac579e04a"}, {"lon": -77.02449833333333, "is_reserved": 0, "is_disabled": 0, "type": "electric_scooter", "lat": 38.902375166666666, "rental_uris": {"ios": "https://dc.lft.to/lastmile_qr_scan", "android": "https://dc.lft.to/lastmile_qr_scan"}, "fusion_lat": 0.0, "fusion_lon": 0.0, "bike_id": "3cd152f2189cb14759715e10e4caaaf3", "name": "3cd152f2189cb14759715e10e4caaaf3"}, {"lon": -76.9994085, "is_reserved": 0, "is_disabled": 0, "type": "electric_bike", "lat": 38.899978833333336, "rental_uris": {"ios": "https://dc.lft.to/lastmile_qr_scan", "android": "https://dc.lft.to/lastmile_qr_scan"}, "fusion_lat": 0.0, "fusion_lon": 0.0, "bike_id": "48fee0122d9bbc0a7a943b05a0808edd", "name": "48fee0122d9bbc0a7a943b05a0808edd"}, {"lon": -77.00110466666666, "is_reserved": 0, "is_disabled": 0, "type": "electric_scooter", "lat": 38.917060666666664, "rental_uris": {"ios": "https://dc.lft.to/lastmile_qr_scan", "android": "https://dc.lft.to/lastmile_qr_scan"}, "fusion_lat": 0.0, "fusion_lon": 0.0, "bike_id": "e9920706a9687d76a8b1171f050f88f3", "name": "e9920706a9687d76a8b1171f050f88f3"}, {"lon": -77.005979, "is_reserved": 0, "is_disabled": 0, "type": "electric_bike", "lat": 38.89804316666667, "rental_uris": {"ios": "https://dc.lft.to/lastmile_qr_scan", "android": "https://dc.lft.to/lastmile_qr_scan"}, "fusion_lat": 0.0, "fusion_lon": 0.0, "bike_id": "2adf5c00fe4d4066e586f432241ad636", "name": "2adf5c00fe4d4066e586f432241ad636"}, {"lon": -77.0321165, "is_reserved": 0, "is_disabled": 0, "type": "electric_scooter", "lat": 38.905173, "rental_uris": {"ios": "https://dc.lft.to/lastmile_qr_scan", "android": "https://dc.lft.to/lastmile_qr_scan"}, "fusion_lat": 0.0, "fusion_lon": 0.0, "bike_id": "282c82b0632f44fe14a272375d6e6aea", "name": "282c82b0632f44fe14a272375d6e6aea"}, {"lon": -77.05276466666666, "is_reserved": 0, "is_disabled": 0, "type": "electric_scooter", "lat": 38.92252366666666, "rental_uris": {"ios": "https://dc.lft.to/lastmile_qr_scan", "android": "https://dc.lft.to/lastmile_qr_scan"}, "fusion_lat": 0.0, "fusion_lon": 0.0, "bike_id": "aeab7d8449112793039f50cd89065c97", "name": "aeab7d8449112793039f50cd89065c97"}, {"lon": -77.02419833333333, "is_reserved": 0, "is_disabled": 0, "type": "electric_scooter", "lat": 38.957427833333334, "rental_uris": {"ios": "https://dc.lft.to/lastmile_qr_scan", "android": "https://dc.lft.to/lastmile_qr_scan"}, "fusion_lat": 0.0, "fusion_lon": 0.0, "bike_id": "8f4b3d899d87324b4177f43d8c6f98e3", "name": "8f4b3d899d87324b4177f43d8c6f98e3"}, {"lon": -76.98732966666667, "is_reserved": 0, "is_disabled": 0, "type": "electric_scooter", "lat": 38.867083666666666, "rental_uris": {"ios": "https://dc.lft.to/lastmile_qr_scan", "android": "https://dc.lft.to/lastmile_qr_scan"}, "fusion_lat": 0.0, "fusion_lon": 0.0, "bike_id": "63c1f6febd672ee0968484126170feb1", "name": "63c1f6febd672ee0968484126170feb1"}, {"lon": -77.042309, "is_reserved": 0, "is_disabled": 0, "type": "electric_scooter", "lat": 38.90936333333333, "rental_uris": {"ios": "https://dc.lft.to/lastmile_qr_scan", "android": "https://dc.lft.to/lastmile_qr_scan"}, "fusion_lat": 0.0, "fusion_lon": 0.0, "bike_id": "3ab0217816ddea9186a994c93817ccb9", "name": "3ab0217816ddea9186a994c93817ccb9"}, {"lon": -77.038763, "is_reserved": 0, "is_disabled": 0, "type": "electric_scooter", "lat": 38.9037555, "rental_uris": {"ios": "https://dc.lft.to/lastmile_qr_scan", "android": "https://dc.lft.to/lastmile_qr_scan"}, "fusion_lat": 0.0, "fusion_lon": 0.0, "bike_id": "3709e46acf5f4f0650244ce2b81b2c14", "name": "3709e46acf5f4f0650244ce2b81b2c14"}, {"lon": -76.99431133333333, "is_reserved": 0, "is_disabled": 0, "type": "electric_bike", "lat": 38.87667783333333, "rental_uris": {"ios": "https://dc.lft.to/lastmile_qr_scan", "android": "https://dc.lft.to/lastmile_qr_scan"}, "fusion_lat": 0.0, "fusion_lon": 0.0, "bike_id": "fe088675bbf5dcd3b1e25bcd9ad13889", "name": "fe088675bbf5dcd3b1e25bcd9ad13889"}, {"lon": -77.02484066666666, "is_reserved": 0, "is_disabled": 0, "type": "electric_scooter", "lat": 38.88011616666667, "rental_uris": {"ios": "https://dc.lft.to/lastmile_qr_scan", "android": "https://dc.lft.to/lastmile_qr_scan"}, "fusion_lat": 0.0, "fusion_lon": 0.0, "bike_id": "9a027573123a25893e5b14feba500274", "name": "9a027573123a25893e5b14feba500274"}, {"lon": -77.02421, "is_reserved": 0, "is_disabled": 0, "type": "electric_scooter", "lat": 38.895224666666664, "rental_uris": {"ios": "https://dc.lft.to/lastmile_qr_scan", "android": "https://dc.lft.to/lastmile_qr_scan"}, "fusion_lat": 0.0, "fusion_lon": 0.0, "bike_id": "57c1a211fcbcd078473e5f2536bfab2f", "name": "57c1a211fcbcd078473e5f2536bfab2f"}, {"lon": -77.02324233333333, "is_reserved": 0, "is_disabled": 0, "type": "electric_scooter", "lat": 38.884350833333336, "rental_uris": {"ios": "https://dc.lft.to/lastmile_qr_scan", "android": "https://dc.lft.to/lastmile_qr_scan"}, "fusion_lat": 0.0, "fusion_lon": 0.0, "bike_id": "2ca6645c535b155647b21a95bbce61cb", "name": "2ca6645c535b155647b21a95bbce61cb"}, {"lon": -77.00608783333334, "is_reserved": 0, "is_disabled": 0, "type": "electric_scooter", "lat": 38.9032955, "rental_uris": {"ios": "https://dc.lft.to/lastmile_qr_scan", "android": "https://dc.lft.to/lastmile_qr_scan"}, "fusion_lat": 0.0, "fusion_lon": 0.0, "bike_id": "b17877cc000591852c5dd90f5b688f04", "name": "b17877cc000591852c5dd90f5b688f04"}, {"lon": -77.033859, "is_reserved": 0, "is_disabled": 0, "type": "electric_scooter", "lat": 38.88662033333333, "rental_uris": {"ios": "https://dc.lft.to/lastmile_qr_scan", "android": "https://dc.lft.to/lastmile_qr_scan"}, "fusion_lat": 0.0, "fusion_lon": 0.0, "bike_id": "ede99a3b5b0f11f37c108d065e7c9051", "name": "ede99a3b5b0f11f37c108d065e7c9051"}, {"lon": -77.02522283333333, "is_reserved": 0, "is_disabled": 0, "type": "electric_scooter", "lat": 38.920867, "rental_uris": {"ios": "https://dc.lft.to/lastmile_qr_scan", "android": "https://dc.lft.to/lastmile_qr_scan"}, "fusion_lat": 0.0, "fusion_lon": 0.0, "bike_id": "ed06ff83cad259bf0ec387b40f35fe58", "name": "ed06ff83cad259bf0ec387b40f35fe58"}, {"lon": -76.94160716666667, "is_reserved": 0, "is_disabled": 0, "type": "electric_scooter", "lat": 38.883608833333334, "rental_uris": {"ios": "https://dc.lft.to/lastmile_qr_scan", "android": "https://dc.lft.to/lastmile_qr_scan"}, "fusion_lat": 0.0, "fusion_lon": 0.0, "bike_id": "f9774fe5c2251e5fc3c7c1879a3b8bac", "name": "f9774fe5c2251e5fc3c7c1879a3b8bac"}, {"lon": -77.02354833333334, "is_reserved": 0, "is_disabled": 0, "type": "electric_scooter", "lat": 38.935402333333336, "rental_uris": {"ios": "https://dc.lft.to/lastmile_qr_scan", "android": "https://dc.lft.to/lastmile_qr_scan"}, "fusion_lat": 0.0, "fusion_lon": 0.0, "bike_id": "1a0e9a6efd7d6117b99bf28e86bf2a28", "name": "1a0e9a6efd7d6117b99bf28e86bf2a28"}, {"lon": -77.04364783333334, "is_reserved": 0, "is_disabled": 0, "type": "electric_scooter", "lat": 38.892344333333334, "rental_uris": {"ios": "https://dc.lft.to/lastmile_qr_scan", "android": "https://dc.lft.to/lastmile_qr_scan"}, "fusion_lat": 0.0, "fusion_lon": 0.0, "bike_id": "45a52436425c319d792eed1361d7ca0b", "name": "45a52436425c319d792eed1361d7ca0b"}, {"lon": -76.98497766666667, "is_reserved": 0, "is_disabled": 0, "type": "electric_scooter", "lat": 38.889712333333335, "rental_uris": {"ios": "https://dc.lft.to/lastmile_qr_scan", "android": "https://dc.lft.to/lastmile_qr_scan"}, "fusion_lat": 0.0, "fusion_lon": 0.0, "bike_id": "e2b0bbf8530de87569b4a06f5208b328", "name": "e2b0bbf8530de87569b4a06f5208b328"}, {"lon": -77.034355, "is_reserved": 0, "is_disabled": 0, "type": "electric_scooter", "lat": 38.902902, "rental_uris": {"ios": "https://dc.lft.to/lastmile_qr_scan", "android": "https://dc.lft.to/lastmile_qr_scan"}, "fusion_lat": 0.0, "fusion_lon": 0.0, "bike_id": "1c33c053eec308868f9f5ea1f3e02c0a", "name": "1c33c053eec308868f9f5ea1f3e02c0a"}, {"lon": -77.022656, "is_reserved": 0, "is_disabled": 0, "type": "electric_scooter", "lat": 38.94716866666667, "rental_uris": {"ios": "https://dc.lft.to/lastmile_qr_scan", "android": "https://dc.lft.to/lastmile_qr_scan"}, "fusion_lat": 0.0, "fusion_lon": 0.0, "bike_id": "ae987041428202419ec1c028e69944e4", "name": "ae987041428202419ec1c028e69944e4"}, {"lon": -77.02201666666667, "is_reserved": 0, "is_disabled": 0, "type": "electric_scooter", "lat": 38.9153135, "rental_uris": {"ios": "https://dc.lft.to/lastmile_qr_scan", "android": "https://dc.lft.to/lastmile_qr_scan"}, "fusion_lat": 0.0, "fusion_lon": 0.0, "bike_id": "601c0ae3f0cd2c66a2c4ede7c23b9859", "name": "601c0ae3f0cd2c66a2c4ede7c23b9859"}, {"lon": -77.00431466666667, "is_reserved": 0, "is_disabled": 0, "type": "electric_scooter", "lat": 38.87673233333334, "rental_uris": {"ios": "https://dc.lft.to/lastmile_qr_scan", "android": "https://dc.lft.to/lastmile_qr_scan"}, "fusion_lat": 0.0, "fusion_lon": 0.0, "bike_id": "070a10402470cb702d85db97dc439934", "name": "070a10402470cb702d85db97dc439934"}, {"lon": -77.033911, "is_reserved": 0, "is_disabled": 0, "type": "electric_bike", "lat": 38.960259, "rental_uris": {"ios": "https://dc.lft.to/lastmile_qr_scan", "android": "https://dc.lft.to/lastmile_qr_scan"}, "fusion_lat": 0.0, "fusion_lon": 0.0, "bike_id": "823e6b1d6de3784dc0618a9099c136bf", "name": "823e6b1d6de3784dc0618a9099c136bf"}, {"lon": -77.022845, "is_reserved": 0, "is_disabled": 0, "type": "electric_scooter", "lat": 38.91606266666667, "rental_uris": {"ios": "https://dc.lft.to/lastmile_qr_scan", "android": "https://dc.lft.to/lastmile_qr_scan"}, "fusion_lat": 0.0, "fusion_lon": 0.0, "bike_id": "ef7410e02a8ea7685fcebdf59ee30c47", "name": "ef7410e02a8ea7685fcebdf59ee30c47"}, {"lon": -77.03984583333333, "is_reserved": 0, "is_disabled": 0, "type": "electric_scooter", "lat": 38.90392283333333, "rental_uris": {"ios": "https://dc.lft.to/lastmile_qr_scan", "android": "https://dc.lft.to/lastmile_qr_scan"}, "fusion_lat": 0.0, "fusion_lon": 0.0, "bike_id": "e3028a2068141fbb94225c553a757336", "name": "e3028a2068141fbb94225c553a757336"}, {"lon": -77.03454333333333, "is_reserved": 0, "is_disabled": 0, "type": "electric_scooter", "lat": 38.905119166666665, "rental_uris": {"ios": "https://dc.lft.to/lastmile_qr_scan", "android": "https://dc.lft.to/lastmile_qr_scan"}, "fusion_lat": 0.0, "fusion_lon": 0.0, "bike_id": "6548f6178d4eef513b0b7e535bff1aaf", "name": "6548f6178d4eef513b0b7e535bff1aaf"}, {"lon": -77.01364966666667, "is_reserved": 0, "is_disabled": 0, "type": "electric_scooter", "lat": 38.887058333333336, "rental_uris": {"ios": "https://dc.lft.to/lastmile_qr_scan", "android": "https://dc.lft.to/lastmile_qr_scan"}, "fusion_lat": 0.0, "fusion_lon": 0.0, "bike_id": "47bdc77d90c16e281f01fedbd6b13ebd", "name": "47bdc77d90c16e281f01fedbd6b13ebd"}, {"lon": -77.001391, "is_reserved": 0, "is_disabled": 0, "type": "electric_scooter", "lat": 38.90511083333333, "rental_uris": {"ios": "https://dc.lft.to/lastmile_qr_scan", "android": "https://dc.lft.to/lastmile_qr_scan"}, "fusion_lat": 0.0, "fusion_lon": 0.0, "bike_id": "c1c3d8bf0d5509503397cf92b90d38f5", "name": "c1c3d8bf0d5509503397cf92b90d38f5"}, {"lon": -77.01714366666667, "is_reserved": 0, "is_disabled": 0, "type": "electric_scooter", "lat": 38.905227, "rental_uris": {"ios": "https://dc.lft.to/lastmile_qr_scan", "android": "https://dc.lft.to/lastmile_qr_scan"}, "fusion_lat": 0.0, "fusion_lon": 0.0, "bike_id": "6e7a2cc19ce626c564990add3cc975a7", "name": "6e7a2cc19ce626c564990add3cc975a7"}, {"lon": -76.9960815, "is_reserved": 0, "is_disabled": 0, "type": "electric_scooter", "lat": 38.8849805, "rental_uris": {"ios": "https://dc.lft.to/lastmile_qr_scan", "android": "https://dc.lft.to/lastmile_qr_scan"}, "fusion_lat": 0.0, "fusion_lon": 0.0, "bike_id": "a1bd0f8662fcde3b8d1675568c940586", "name": "a1bd0f8662fcde3b8d1675568c940586"}, {"lon": -77.0465815, "is_reserved": 0, "is_disabled": 0, "type": "electric_scooter", "lat": 38.89338016666667, "rental_uris": {"ios": "https://dc.lft.to/lastmile_qr_scan", "android": "https://dc.lft.to/lastmile_qr_scan"}, "fusion_lat": 0.0, "fusion_lon": 0.0, "bike_id": "81e24596735cc13de9cfb4620c6f566a", "name": "81e24596735cc13de9cfb4620c6f566a"}, {"lon": -77.05132766666667, "is_reserved": 0, "is_disabled": 0, "type": "electric_scooter", "lat": 38.92364716666667, "rental_uris": {"ios": "https://dc.lft.to/lastmile_qr_scan", "android": "https://dc.lft.to/lastmile_qr_scan"}, "fusion_lat": 0.0, "fusion_lon": 0.0, "bike_id": "40b462024867bec5092b1397aafbcff7", "name": "40b462024867bec5092b1397aafbcff7"}, {"lon": -76.96671466666666, "is_reserved": 0, "is_disabled": 0, "type": "electric_bike", "lat": 38.958672166666666, "rental_uris": {"ios": "https://dc.lft.to/lastmile_qr_scan", "android": "https://dc.lft.to/lastmile_qr_scan"}, "fusion_lat": 0.0, "fusion_lon": 0.0, "bike_id": "57fd189725bbe91303cce69add969935", "name": "57fd189725bbe91303cce69add969935"}, {"lon": -77.04371216666667, "is_reserved": 0, "is_disabled": 0, "type": "electric_scooter", "lat": 38.92578533333333, "rental_uris": {"ios": "https://dc.lft.to/lastmile_qr_scan", "android": "https://dc.lft.to/lastmile_qr_scan"}, "fusion_lat": 0.0, "fusion_lon": 0.0, "bike_id": "1af8a072a5eb7ba82e288f7cba4c4e37", "name": "1af8a072a5eb7ba82e288f7cba4c4e37"}, {"lon": -77.026928, "is_reserved": 0, "is_disabled": 0, "type": "electric_scooter", "lat": 38.901627, "rental_uris": {"ios": "https://dc.lft.to/lastmile_qr_scan", "android": "https://dc.lft.to/lastmile_qr_scan"}, "fusion_lat": 0.0, "fusion_lon": 0.0, "bike_id": "42ea1137478d8c8cd4b42b151809bf18", "name": "42ea1137478d8c8cd4b42b151809bf18"}, {"lon": -77.04654733333334, "is_reserved": 0, "is_disabled": 0, "type": "electric_scooter", "lat": 38.89909266666667, "rental_uris": {"ios": "https://dc.lft.to/lastmile_qr_scan", "android": "https://dc.lft.to/lastmile_qr_scan"}, "fusion_lat": 0.0, "fusion_lon": 0.0, "bike_id": "1eb675b7692cfc973a727aa928c36ce5", "name": "1eb675b7692cfc973a727aa928c36ce5"}, {"lon": -77.02675666666667, "is_reserved": 0, "is_disabled": 0, "type": "electric_scooter", "lat": 38.910742166666665, "rental_uris": {"ios": "https://dc.lft.to/lastmile_qr_scan", "android": "https://dc.lft.to/lastmile_qr_scan"}, "fusion_lat": 0.0, "fusion_lon": 0.0, "bike_id": "2b9caabb6d0379708cae268aa7da1026", "name": "2b9caabb6d0379708cae268aa7da1026"}, {"lon": -77.02671533333333, "is_reserved": 0, "is_disabled": 0, "type": "electric_scooter", "lat": 38.8983905, "rental_uris": {"ios": "https://dc.lft.to/lastmile_qr_scan", "android": "https://dc.lft.to/lastmile_qr_scan"}, "fusion_lat": 0.0, "fusion_lon": 0.0, "bike_id": "49b74e8f0c988c833ad49f319a9dd6d0", "name": "49b74e8f0c988c833ad49f319a9dd6d0"}, {"lon": -76.99456966666666, "is_reserved": 0, "is_disabled": 0, "type": "electric_scooter", "lat": 38.85156816666667, "rental_uris": {"ios": "https://dc.lft.to/lastmile_qr_scan", "android": "https://dc.lft.to/lastmile_qr_scan"}, "fusion_lat": 0.0, "fusion_lon": 0.0, "bike_id": "16d83d8378fe585671fdadaefd65f01c", "name": "16d83d8378fe585671fdadaefd65f01c"}, {"lon": -77.031908, "is_reserved": 0, "is_disabled": 0, "type": "electric_scooter", "lat": 38.9134605, "rental_uris": {"ios": "https://dc.lft.to/lastmile_qr_scan", "android": "https://dc.lft.to/lastmile_qr_scan"}, "fusion_lat": 0.0, "fusion_lon": 0.0, "bike_id": "64a93bb70f3ee2fd75517855149963ff", "name": "64a93bb70f3ee2fd75517855149963ff"}, {"lon": -77.01159683333333, "is_reserved": 0, "is_disabled": 0, "type": "electric_scooter", "lat": 38.871989166666665, "rental_uris": {"ios": "https://dc.lft.to/lastmile_qr_scan", "android": "https://dc.lft.to/lastmile_qr_scan"}, "fusion_lat": 0.0, "fusion_lon": 0.0, "bike_id": "b510e25288936a7c608a15e998438bc2", "name": "b510e25288936a7c608a15e998438bc2"}, {"lon": -77.04616216666666, "is_reserved": 0, "is_disabled": 0, "type": "electric_scooter", "lat": 38.905354, "rental_uris": {"ios": "https://dc.lft.to/lastmile_qr_scan", "android": "https://dc.lft.to/lastmile_qr_scan"}, "fusion_lat": 0.0, "fusion_lon": 0.0, "bike_id": "6149d61ffeb608a6739c4f0ca610cf54", "name": "6149d61ffeb608a6739c4f0ca610cf54"}, {"lon": -77.01625416666667, "is_reserved": 0, "is_disabled": 0, "type": "electric_scooter", "lat": 38.906076, "rental_uris": {"ios": "https://dc.lft.to/lastmile_qr_scan", "android": "https://dc.lft.to/lastmile_qr_scan"}, "fusion_lat": 0.0, "fusion_lon": 0.0, "bike_id": "40220e844f97489d37dfee0f3306feaa", "name": "40220e844f97489d37dfee0f3306feaa"}, {"lon": -77.0139055, "is_reserved": 0, "is_disabled": 0, "type": "electric_scooter", "lat": 38.9282525, "rental_uris": {"ios": "https://dc.lft.to/lastmile_qr_scan", "android": "https://dc.lft.to/lastmile_qr_scan"}, "fusion_lat": 0.0, "fusion_lon": 0.0, "bike_id": "9e8b8f325023de2f664be5c1332869ec", "name": "9e8b8f325023de2f664be5c1332869ec"}, {"lon": -76.93748883333333, "is_reserved": 0, "is_disabled": 0, "type": "electric_scooter", "lat": 38.890125166666664, "rental_uris": {"ios": "https://dc.lft.to/lastmile_qr_scan", "android": "https://dc.lft.to/lastmile_qr_scan"}, "fusion_lat": 0.0, "fusion_lon": 0.0, "bike_id": "5937496fb6a45b636f5f961a804a5a23", "name": "5937496fb6a45b636f5f961a804a5a23"}, {"lon": -76.95109466666666, "is_reserved": 0, "is_disabled": 0, "type": "electric_scooter", "lat": 38.88792216666667, "rental_uris": {"ios": "https://dc.lft.to/lastmile_qr_scan", "android": "https://dc.lft.to/lastmile_qr_scan"}, "fusion_lat": 0.0, "fusion_lon": 0.0, "bike_id": "50812570ce8fc7400ee4a4363219d8b1", "name": "50812570ce8fc7400ee4a4363219d8b1"}, {"lon": -76.98319833333333, "is_reserved": 0, "is_disabled": 0, "type": "electric_scooter", "lat": 38.88814883333333, "rental_uris": {"ios": "https://dc.lft.to/lastmile_qr_scan", "android": "https://dc.lft.to/lastmile_qr_scan"}, "fusion_lat": 0.0, "fusion_lon": 0.0, "bike_id": "ba3e4d4aae4b6e8ed73e68feb99f842b", "name": "ba3e4d4aae4b6e8ed73e68feb99f842b"}, {"lon": -77.05189166666666, "is_reserved": 0, "is_disabled": 0, "type": "electric_scooter", "lat": 38.925458166666665, "rental_uris": {"ios": "https://dc.lft.to/lastmile_qr_scan", "android": "https://dc.lft.to/lastmile_qr_scan"}, "fusion_lat": 0.0, "fusion_lon": 0.0, "bike_id": "dbe93a3c4fd219e87a90773098b50679", "name": "dbe93a3c4fd219e87a90773098b50679"}, {"lon": -77.01881116666667, "is_reserved": 0, "is_disabled": 0, "type": "electric_scooter", "lat": 38.9027785, "rental_uris": {"ios": "https://dc.lft.to/lastmile_qr_scan", "android": "https://dc.lft.to/lastmile_qr_scan"}, "fusion_lat": 0.0, "fusion_lon": 0.0, "bike_id": "ca98d9875382e5f082c3cad3805a9365", "name": "ca98d9875382e5f082c3cad3805a9365"}, {"lon": -76.98876766666666, "is_reserved": 0, "is_disabled": 0, "type": "electric_scooter", "lat": 38.906298, "rental_uris": {"ios": "https://dc.lft.to/lastmile_qr_scan", "android": "https://dc.lft.to/lastmile_qr_scan"}, "fusion_lat": 0.0, "fusion_lon": 0.0, "bike_id": "cca08dbc40d4e86a616395e2a0a9d89e", "name": "cca08dbc40d4e86a616395e2a0a9d89e"}, {"lon": -77.08054866666667, "is_reserved": 0, "is_disabled": 0, "type": "electric_bike", "lat": 38.8483915, "rental_uris": {"ios": "https://dc.lft.to/lastmile_qr_scan", "android": "https://dc.lft.to/lastmile_qr_scan"}, "fusion_lat": 0.0, "fusion_lon": 0.0, "bike_id": "7c4ba17d3cfaa2d1f511419b97180191", "name": "7c4ba17d3cfaa2d1f511419b97180191"}, {"lon": -77.03824883333333, "is_reserved": 0, "is_disabled": 0, "type": "electric_scooter", "lat": 38.90674116666667, "rental_uris": {"ios": "https://dc.lft.to/lastmile_qr_scan", "android": "https://dc.lft.to/lastmile_qr_scan"}, "fusion_lat": 0.0, "fusion_lon": 0.0, "bike_id": "d8ac85b462d988454a94c5261c03382f", "name": "d8ac85b462d988454a94c5261c03382f"}, {"lon": -77.129796, "is_reserved": 0, "is_disabled": 0, "type": "electric_bike", "lat": 38.799847, "rental_uris": {"ios": "https://dc.lft.to/lastmile_qr_scan", "android": "https://dc.lft.to/lastmile_qr_scan"}, "fusion_lat": 0.0, "fusion_lon": 0.0, "bike_id": "6c1664a262f38f7c47e1a2f8723cda7b", "name": "6c1664a262f38f7c47e1a2f8723cda7b"}, {"lon": -77.04224183333334, "is_reserved": 0, "is_disabled": 0, "type": "electric_scooter", "lat": 38.921658666666666, "rental_uris": {"ios": "https://dc.lft.to/lastmile_qr_scan", "android": "https://dc.lft.to/lastmile_qr_scan"}, "fusion_lat": 0.0, "fusion_lon": 0.0, "bike_id": "9679a2167f6a12e1cc4caa123b9ee41f", "name": "9679a2167f6a12e1cc4caa123b9ee41f"}, {"lon": -76.94652016666667, "is_reserved": 0, "is_disabled": 0, "type": "electric_scooter", "lat": 38.898235166666666, "rental_uris": {"ios": "https://dc.lft.to/lastmile_qr_scan", "android": "https://dc.lft.to/lastmile_qr_scan"}, "fusion_lat": 0.0, "fusion_lon": 0.0, "bike_id": "c5f97b210726d39cf7ec82e0687e37b4", "name": "c5f97b210726d39cf7ec82e0687e37b4"}, {"lon": -77.03285733333334, "is_reserved": 0, "is_disabled": 0, "type": "electric_scooter", "lat": 38.946573666666666, "rental_uris": {"ios": "https://dc.lft.to/lastmile_qr_scan", "android": "https://dc.lft.to/lastmile_qr_scan"}, "fusion_lat": 0.0, "fusion_lon": 0.0, "bike_id": "814ab7d1c496c3c1ebc3db6ed53af641", "name": "814ab7d1c496c3c1ebc3db6ed53af641"}, {"lon": -77.0292925, "is_reserved": 0, "is_disabled": 0, "type": "electric_bike", "lat": 38.896164, "rental_uris": {"ios": "https://dc.lft.to/lastmile_qr_scan", "android": "https://dc.lft.to/lastmile_qr_scan"}, "fusion_lat": 0.0, "fusion_lon": 0.0, "bike_id": "f4d6df560d096effcedac44ac5124642", "name": "f4d6df560d096effcedac44ac5124642"}, {"lon": -77.02310283333334, "is_reserved": 0, "is_disabled": 0, "type": "electric_scooter", "lat": 38.901490833333334, "rental_uris": {"ios": "https://dc.lft.to/lastmile_qr_scan", "android": "https://dc.lft.to/lastmile_qr_scan"}, "fusion_lat": 0.0, "fusion_lon": 0.0, "bike_id": "44dc5278ea0e24f770304a669e848c2c", "name": "44dc5278ea0e24f770304a669e848c2c"}, {"lon": -77.07048416666666, "is_reserved": 0, "is_disabled": 0, "type": "electric_bike", "lat": 38.82443816666667, "rental_uris": {"ios": "https://dc.lft.to/lastmile_qr_scan", "android": "https://dc.lft.to/lastmile_qr_scan"}, "fusion_lat": 0.0, "fusion_lon": 0.0, "bike_id": "af9538aa61eb346a6e52ac771e1569ee", "name": "af9538aa61eb346a6e52ac771e1569ee"}, {"lon": -77.06394333333333, "is_reserved": 0, "is_disabled": 0, "type": "electric_scooter", "lat": 38.929047833333335, "rental_uris": {"ios": "https://dc.lft.to/lastmile_qr_scan", "android": "https://dc.lft.to/lastmile_qr_scan"}, "fusion_lat": 0.0, "fusion_lon": 0.0, "bike_id": "5394453949aefd873c215a092ff985e0", "name": "5394453949aefd873c215a092ff985e0"}, {"lon": -77.03964016666667, "is_reserved": 0, "is_disabled": 0, "type": "electric_scooter", "lat": 38.901571833333335, "rental_uris": {"ios": "https://dc.lft.to/lastmile_qr_scan", "android": "https://dc.lft.to/lastmile_qr_scan"}, "fusion_lat": 0.0, "fusion_lon": 0.0, "bike_id": "fb78f3ea66e31a9fe0b643ca6effeebe", "name": "fb78f3ea66e31a9fe0b643ca6effeebe"}, {"lon": -77.0729555, "is_reserved": 0, "is_disabled": 0, "type": "electric_bike", "lat": 38.92462483333333, "rental_uris": {"ios": "https://dc.lft.to/lastmile_qr_scan", "android": "https://dc.lft.to/lastmile_qr_scan"}, "fusion_lat": 0.0, "fusion_lon": 0.0, "bike_id": "c7fc4544d73ead083c95369014081518", "name": "c7fc4544d73ead083c95369014081518"}, {"lon": -77.03650566666667, "is_reserved": 0, "is_disabled": 0, "type": "electric_bike", "lat": 38.950193166666665, "rental_uris": {"ios": "https://dc.lft.to/lastmile_qr_scan", "android": "https://dc.lft.to/lastmile_qr_scan"}, "fusion_lat": 0.0, "fusion_lon": 0.0, "bike_id": "0518c710f518e2b26f0f7bdac6f8a0cf", "name": "0518c710f518e2b26f0f7bdac6f8a0cf"}, {"lon": -76.98709083333334, "is_reserved": 0, "is_disabled": 0, "type": "electric_scooter", "lat": 38.865373166666664, "rental_uris": {"ios": "https://dc.lft.to/lastmile_qr_scan", "android": "https://dc.lft.to/lastmile_qr_scan"}, "fusion_lat": 0.0, "fusion_lon": 0.0, "bike_id": "9dc11c781c871a0ed6d3076235e5e29d", "name": "9dc11c781c871a0ed6d3076235e5e29d"}, {"lon": -76.994464, "is_reserved": 0, "is_disabled": 0, "type": "electric_scooter", "lat": 38.90502033333333, "rental_uris": {"ios": "https://dc.lft.to/lastmile_qr_scan", "android": "https://dc.lft.to/lastmile_qr_scan"}, "fusion_lat": 0.0, "fusion_lon": 0.0, "bike_id": "f3ab6f08bc3c849386ff597669d2eab3", "name": "f3ab6f08bc3c849386ff597669d2eab3"}, {"lon": -76.95462383333333, "is_reserved": 0, "is_disabled": 0, "type": "electric_scooter", "lat": 38.88809083333334, "rental_uris": {"ios": "https://dc.lft.to/lastmile_qr_scan", "android": "https://dc.lft.to/lastmile_qr_scan"}, "fusion_lat": 0.0, "fusion_lon": 0.0, "bike_id": "36a6f90e7992e1d99f472809526ef2a8", "name": "36a6f90e7992e1d99f472809526ef2a8"}, {"lon": -76.9008425, "is_reserved": 0, "is_disabled": 0, "type": "electric_bike", "lat": 38.88745016666667, "rental_uris": {"ios": "https://dc.lft.to/lastmile_qr_scan", "android": "https://dc.lft.to/lastmile_qr_scan"}, "fusion_lat": 0.0, "fusion_lon": 0.0, "bike_id": "f8a627ea99a95b0c89e5b16aefbd2ee0", "name": "f8a627ea99a95b0c89e5b16aefbd2ee0"}, {"lon": -77.00131633333334, "is_reserved": 0, "is_disabled": 0, "type": "electric_scooter", "lat": 38.89487416666667, "rental_uris": {"ios": "https://dc.lft.to/lastmile_qr_scan", "android": "https://dc.lft.to/lastmile_qr_scan"}, "fusion_lat": 0.0, "fusion_lon": 0.0, "bike_id": "018f498bb154c32734e6c7bc37c07011", "name": "018f498bb154c32734e6c7bc37c07011"}, {"lon": -77.12809066666667, "is_reserved": 0, "is_disabled": 0, "type": "electric_bike", "lat": 38.8652975, "rental_uris": {"ios": "https://dc.lft.to/lastmile_qr_scan", "android": "https://dc.lft.to/lastmile_qr_scan"}, "fusion_lat": 0.0, "fusion_lon": 0.0, "bike_id": "034120426dd70d83a10e728e69199faf", "name": "034120426dd70d83a10e728e69199faf"}, {"lon": -76.954727, "is_reserved": 0, "is_disabled": 0, "type": "electric_bike", "lat": 38.935690666666666, "rental_uris": {"ios": "https://dc.lft.to/lastmile_qr_scan", "android": "https://dc.lft.to/lastmile_qr_scan"}, "fusion_lat": 0.0, "fusion_lon": 0.0, "bike_id": "fed0348ee28be23647abbad8c15adfba", "name": "fed0348ee28be23647abbad8c15adfba"}, {"lon": -77.0199545, "is_reserved": 0, "is_disabled": 0, "type": "electric_scooter", "lat": 38.88361883333334, "rental_uris": {"ios": "https://dc.lft.to/lastmile_qr_scan", "android": "https://dc.lft.to/lastmile_qr_scan"}, "fusion_lat": 0.0, "fusion_lon": 0.0, "bike_id": "5fb540673b3c588c1c53e08fe6d17b83", "name": "5fb540673b3c588c1c53e08fe6d17b83"}, {"lon": -76.97618283333334, "is_reserved": 0, "is_disabled": 0, "type": "electric_scooter", "lat": 38.93142233333333, "rental_uris": {"ios": "https://dc.lft.to/lastmile_qr_scan", "android": "https://dc.lft.to/lastmile_qr_scan"}, "fusion_lat": 0.0, "fusion_lon": 0.0, "bike_id": "78f1da66443027b2e470cf51228c9c7b", "name": "78f1da66443027b2e470cf51228c9c7b"}, {"lon": -77.0270005, "is_reserved": 0, "is_disabled": 0, "type": "electric_scooter", "lat": 38.90354216666667, "rental_uris": {"ios": "https://dc.lft.to/lastmile_qr_scan", "android": "https://dc.lft.to/lastmile_qr_scan"}, "fusion_lat": 0.0, "fusion_lon": 0.0, "bike_id": "e77007bf17b9e323c6d23d0d74ed910f", "name": "e77007bf17b9e323c6d23d0d74ed910f"}, {"lon": -77.04104433333333, "is_reserved": 0, "is_disabled": 0, "type": "electric_scooter", "lat": 38.91849966666667, "rental_uris": {"ios": "https://dc.lft.to/lastmile_qr_scan", "android": "https://dc.lft.to/lastmile_qr_scan"}, "fusion_lat": 0.0, "fusion_lon": 0.0, "bike_id": "0fd126a0ffa79299bc9576002bc95ab9", "name": "0fd126a0ffa79299bc9576002bc95ab9"}, {"lon": -76.99058483333333, "is_reserved": 0, "is_disabled": 0, "type": "electric_scooter", "lat": 38.858953666666665, "rental_uris": {"ios": "https://dc.lft.to/lastmile_qr_scan", "android": "https://dc.lft.to/lastmile_qr_scan"}, "fusion_lat": 0.0, "fusion_lon": 0.0, "bike_id": "552d7dcefc267b2aec187daa162b2522", "name": "552d7dcefc267b2aec187daa162b2522"}, {"lon": -77.01753433333333, "is_reserved": 0, "is_disabled": 0, "type": "electric_scooter", "lat": 38.878000166666666, "rental_uris": {"ios": "https://dc.lft.to/lastmile_qr_scan", "android": "https://dc.lft.to/lastmile_qr_scan"}, "fusion_lat": 0.0, "fusion_lon": 0.0, "bike_id": "e921192143a23258d61accb3ed2f06a6", "name": "e921192143a23258d61accb3ed2f06a6"}, {"lon": -77.023367, "is_reserved": 0, "is_disabled": 0, "type": "electric_scooter", "lat": 38.9156605, "rental_uris": {"ios": "https://dc.lft.to/lastmile_qr_scan", "android": "https://dc.lft.to/lastmile_qr_scan"}, "fusion_lat": 0.0, "fusion_lon": 0.0, "bike_id": "79f1b931e46233346438392c806e84cd", "name": "79f1b931e46233346438392c806e84cd"}, {"lon": -76.994808, "is_reserved": 0, "is_disabled": 0, "type": "electric_scooter", "lat": 38.862153, "rental_uris": {"ios": "https://dc.lft.to/lastmile_qr_scan", "android": "https://dc.lft.to/lastmile_qr_scan"}, "fusion_lat": 0.0, "fusion_lon": 0.0, "bike_id": "cb722610cf410b9ff4cc1fd131a6e83b", "name": "cb722610cf410b9ff4cc1fd131a6e83b"}, {"lon": -77.072371, "is_reserved": 0, "is_disabled": 0, "type": "electric_scooter", "lat": 38.93460483333333, "rental_uris": {"ios": "https://dc.lft.to/lastmile_qr_scan", "android": "https://dc.lft.to/lastmile_qr_scan"}, "fusion_lat": 0.0, "fusion_lon": 0.0, "bike_id": "9cb08731bb2639fdff436d864fde4b3c", "name": "9cb08731bb2639fdff436d864fde4b3c"}, {"lon": -77.00316016666666, "is_reserved": 0, "is_disabled": 0, "type": "electric_scooter", "lat": 38.8947275, "rental_uris": {"ios": "https://dc.lft.to/lastmile_qr_scan", "android": "https://dc.lft.to/lastmile_qr_scan"}, "fusion_lat": 0.0, "fusion_lon": 0.0, "bike_id": "54481479c8aac5fb8cd6d1bfb9e51fa3", "name": "54481479c8aac5fb8cd6d1bfb9e51fa3"}, {"lon": -76.985096, "is_reserved": 0, "is_disabled": 0, "type": "electric_scooter", "lat": 38.880803, "rental_uris": {"ios": "https://dc.lft.to/lastmile_qr_scan", "android": "https://dc.lft.to/lastmile_qr_scan"}, "fusion_lat": 0.0, "fusion_lon": 0.0, "bike_id": "582f55ec2d338c555413cf8f74520755", "name": "582f55ec2d338c555413cf8f74520755"}, {"lon": -77.04177666666666, "is_reserved": 0, "is_disabled": 0, "type": "electric_scooter", "lat": 38.91414783333333, "rental_uris": {"ios": "https://dc.lft.to/lastmile_qr_scan", "android": "https://dc.lft.to/lastmile_qr_scan"}, "fusion_lat": 0.0, "fusion_lon": 0.0, "bike_id": "abfb5a70ca7f387b696ff62ff02585f3", "name": "abfb5a70ca7f387b696ff62ff02585f3"}, {"lon": -76.94887616666666, "is_reserved": 0, "is_disabled": 0, "type": "electric_scooter", "lat": 38.8950705, "rental_uris": {"ios": "https://dc.lft.to/lastmile_qr_scan", "android": "https://dc.lft.to/lastmile_qr_scan"}, "fusion_lat": 0.0, "fusion_lon": 0.0, "bike_id": "37263b537a84035da7a35380c95c17ab", "name": "37263b537a84035da7a35380c95c17ab"}, {"lon": -77.02712983333333, "is_reserved": 0, "is_disabled": 0, "type": "electric_scooter", "lat": 38.927824333333334, "rental_uris": {"ios": "https://dc.lft.to/lastmile_qr_scan", "android": "https://dc.lft.to/lastmile_qr_scan"}, "fusion_lat": 0.0, "fusion_lon": 0.0, "bike_id": "e07189ef000dc69d2238b76443501845", "name": "e07189ef000dc69d2238b76443501845"}, {"lon": -77.00338016666667, "is_reserved": 0, "is_disabled": 0, "type": "electric_scooter", "lat": 38.893529, "rental_uris": {"ios": "https://dc.lft.to/lastmile_qr_scan", "android": "https://dc.lft.to/lastmile_qr_scan"}, "fusion_lat": 0.0, "fusion_lon": 0.0, "bike_id": "a31601975431c78e495735b261c2553f", "name": "a31601975431c78e495735b261c2553f"}, {"lon": -77.01731916666667, "is_reserved": 0, "is_disabled": 0, "type": "electric_scooter", "lat": 38.8771025, "rental_uris": {"ios": "https://dc.lft.to/lastmile_qr_scan", "android": "https://dc.lft.to/lastmile_qr_scan"}, "fusion_lat": 0.0, "fusion_lon": 0.0, "bike_id": "3718a3b36712bebaa16e17a747547143", "name": "3718a3b36712bebaa16e17a747547143"}, {"lon": -77.03189433333333, "is_reserved": 0, "is_disabled": 0, "type": "electric_scooter", "lat": 38.91220033333333, "rental_uris": {"ios": "https://dc.lft.to/lastmile_qr_scan", "android": "https://dc.lft.to/lastmile_qr_scan"}, "fusion_lat": 0.0, "fusion_lon": 0.0, "bike_id": "e8947d2eaaf06fc8ff8002bf7a6c8475", "name": "e8947d2eaaf06fc8ff8002bf7a6c8475"}, {"lon": -77.0028025, "is_reserved": 0, "is_disabled": 0, "type": "electric_scooter", "lat": 38.939208666666666, "rental_uris": {"ios": "https://dc.lft.to/lastmile_qr_scan", "android": "https://dc.lft.to/lastmile_qr_scan"}, "fusion_lat": 0.0, "fusion_lon": 0.0, "bike_id": "f7cac1f35721b8d3cd850fab2d324dfd", "name": "f7cac1f35721b8d3cd850fab2d324dfd"}, {"lon": -77.02700266666666, "is_reserved": 0, "is_disabled": 0, "type": "electric_scooter", "lat": 38.908413333333336, "rental_uris": {"ios": "https://dc.lft.to/lastmile_qr_scan", "android": "https://dc.lft.to/lastmile_qr_scan"}, "fusion_lat": 0.0, "fusion_lon": 0.0, "bike_id": "be86a84b2039e252629fe579e63c1cdf", "name": "be86a84b2039e252629fe579e63c1cdf"}, {"lon": -77.028255, "is_reserved": 0, "is_disabled": 0, "type": "electric_scooter", "lat": 38.90258733333334, "rental_uris": {"ios": "https://dc.lft.to/lastmile_qr_scan", "android": "https://dc.lft.to/lastmile_qr_scan"}, "fusion_lat": 0.0, "fusion_lon": 0.0, "bike_id": "35e8f282d4a6c02fa43bacca3ff7e4f7", "name": "35e8f282d4a6c02fa43bacca3ff7e4f7"}, {"lon": -76.93739, "is_reserved": 0, "is_disabled": 0, "type": "electric_scooter", "lat": 38.89015533333333, "rental_uris": {"ios": "https://dc.lft.to/lastmile_qr_scan", "android": "https://dc.lft.to/lastmile_qr_scan"}, "fusion_lat": 0.0, "fusion_lon": 0.0, "bike_id": "b8e7eb3ad1a859934339b07486f64cd8", "name": "b8e7eb3ad1a859934339b07486f64cd8"}, {"lon": -76.9938355, "is_reserved": 0, "is_disabled": 0, "type": "electric_scooter", "lat": 38.920958166666665, "rental_uris": {"ios": "https://dc.lft.to/lastmile_qr_scan", "android": "https://dc.lft.to/lastmile_qr_scan"}, "fusion_lat": 0.0, "fusion_lon": 0.0, "bike_id": "3cd7c21c2a32ac7e7488256ad4c7763a", "name": "3cd7c21c2a32ac7e7488256ad4c7763a"}, {"lon": -77.047843, "is_reserved": 0, "is_disabled": 0, "type": "electric_scooter", "lat": 38.91227383333333, "rental_uris": {"ios": "https://dc.lft.to/lastmile_qr_scan", "android": "https://dc.lft.to/lastmile_qr_scan"}, "fusion_lat": 0.0, "fusion_lon": 0.0, "bike_id": "5e69c083215dc22453c4835aaf233ba0", "name": "5e69c083215dc22453c4835aaf233ba0"}, {"lon": -76.99712766666667, "is_reserved": 0, "is_disabled": 0, "type": "electric_scooter", "lat": 38.9081325, "rental_uris": {"ios": "https://dc.lft.to/lastmile_qr_scan", "android": "https://dc.lft.to/lastmile_qr_scan"}, "fusion_lat": 0.0, "fusion_lon": 0.0, "bike_id": "f13556f74b1e63afe50d0218e121161b", "name": "f13556f74b1e63afe50d0218e121161b"}, {"lon": -77.04237966666666, "is_reserved": 0, "is_disabled": 0, "type": "electric_scooter", "lat": 38.917801833333336, "rental_uris": {"ios": "https://dc.lft.to/lastmile_qr_scan", "android": "https://dc.lft.to/lastmile_qr_scan"}, "fusion_lat": 0.0, "fusion_lon": 0.0, "bike_id": "bea8a4301324b8210675d98dd87e9349", "name": "bea8a4301324b8210675d98dd87e9349"}, {"lon": -77.04706733333333, "is_reserved": 0, "is_disabled": 0, "type": "electric_scooter", "lat": 38.912655, "rental_uris": {"ios": "https://dc.lft.to/lastmile_qr_scan", "android": "https://dc.lft.to/lastmile_qr_scan"}, "fusion_lat": 0.0, "fusion_lon": 0.0, "bike_id": "73a4649c5879d83942b0da2a1cc1adda", "name": "73a4649c5879d83942b0da2a1cc1adda"}, {"lon": -77.0052265, "is_reserved": 0, "is_disabled": 0, "type": "electric_scooter", "lat": 38.8746775, "rental_uris": {"ios": "https://dc.lft.to/lastmile_qr_scan", "android": "https://dc.lft.to/lastmile_qr_scan"}, "fusion_lat": 0.0, "fusion_lon": 0.0, "bike_id": "481c348a1d2fe429504213d9b61372bd", "name": "481c348a1d2fe429504213d9b61372bd"}, {"lon": -77.04229366666667, "is_reserved": 0, "is_disabled": 0, "type": "electric_scooter", "lat": 38.921712166666666, "rental_uris": {"ios": "https://dc.lft.to/lastmile_qr_scan", "android": "https://dc.lft.to/lastmile_qr_scan"}, "fusion_lat": 0.0, "fusion_lon": 0.0, "bike_id": "769c35e6f8236ede8c677bb5e30acf06", "name": "769c35e6f8236ede8c677bb5e30acf06"}, {"lon": -77.0609035, "is_reserved": 0, "is_disabled": 0, "type": "electric_scooter", "lat": 38.943716333333334, "rental_uris": {"ios": "https://dc.lft.to/lastmile_qr_scan", "android": "https://dc.lft.to/lastmile_qr_scan"}, "fusion_lat": 0.0, "fusion_lon": 0.0, "bike_id": "692be104f7457183b5fd639279cd9277", "name": "692be104f7457183b5fd639279cd9277"}, {"lon": -77.00248833333333, "is_reserved": 0, "is_disabled": 0, "type": "electric_scooter", "lat": 38.88020016666667, "rental_uris": {"ios": "https://dc.lft.to/lastmile_qr_scan", "android": "https://dc.lft.to/lastmile_qr_scan"}, "fusion_lat": 0.0, "fusion_lon": 0.0, "bike_id": "4a504fbbad2f53ec4c86552ab4b5b469", "name": "4a504fbbad2f53ec4c86552ab4b5b469"}, {"lon": -77.031857, "is_reserved": 0, "is_disabled": 0, "type": "electric_scooter", "lat": 38.911771, "rental_uris": {"ios": "https://dc.lft.to/lastmile_qr_scan", "android": "https://dc.lft.to/lastmile_qr_scan"}, "fusion_lat": 0.0, "fusion_lon": 0.0, "bike_id": "4a02efdb2cdae45de3b51c0cc2625752", "name": "4a02efdb2cdae45de3b51c0cc2625752"}, {"lon": -77.0082135, "is_reserved": 0, "is_disabled": 0, "type": "electric_scooter", "lat": 38.915606, "rental_uris": {"ios": "https://dc.lft.to/lastmile_qr_scan", "android": "https://dc.lft.to/lastmile_qr_scan"}, "fusion_lat": 0.0, "fusion_lon": 0.0, "bike_id": "10bc98112041d175fb22aad4ea520839", "name": "10bc98112041d175fb22aad4ea520839"}, {"lon": -77.0453435, "is_reserved": 0, "is_disabled": 0, "type": "electric_scooter", "lat": 38.90057433333333, "rental_uris": {"ios": "https://dc.lft.to/lastmile_qr_scan", "android": "https://dc.lft.to/lastmile_qr_scan"}, "fusion_lat": 0.0, "fusion_lon": 0.0, "bike_id": "320a8a43fc5113a71e8ab6c443d4f036", "name": "320a8a43fc5113a71e8ab6c443d4f036"}, {"lon": -77.041721, "is_reserved": 0, "is_disabled": 0, "type": "electric_scooter", "lat": 38.91353483333333, "rental_uris": {"ios": "https://dc.lft.to/lastmile_qr_scan", "android": "https://dc.lft.to/lastmile_qr_scan"}, "fusion_lat": 0.0, "fusion_lon": 0.0, "bike_id": "6576bcb15ffe439b4b0fe49c8d4804c3", "name": "6576bcb15ffe439b4b0fe49c8d4804c3"}, {"lon": -77.0033795, "is_reserved": 0, "is_disabled": 0, "type": "electric_scooter", "lat": 38.895052166666666, "rental_uris": {"ios": "https://dc.lft.to/lastmile_qr_scan", "android": "https://dc.lft.to/lastmile_qr_scan"}, "fusion_lat": 0.0, "fusion_lon": 0.0, "bike_id": "f855431f7150f8df09cb4cf120cb1d0a", "name": "f855431f7150f8df09cb4cf120cb1d0a"}, {"lon": -77.04674183333333, "is_reserved": 0, "is_disabled": 0, "type": "electric_scooter", "lat": 38.89501583333333, "rental_uris": {"ios": "https://dc.lft.to/lastmile_qr_scan", "android": "https://dc.lft.to/lastmile_qr_scan"}, "fusion_lat": 0.0, "fusion_lon": 0.0, "bike_id": "de329738255915ce53027d35390bdf5b", "name": "de329738255915ce53027d35390bdf5b"}, {"lon": -77.03392433333333, "is_reserved": 0, "is_disabled": 0, "type": "electric_scooter", "lat": 38.9243005, "rental_uris": {"ios": "https://dc.lft.to/lastmile_qr_scan", "android": "https://dc.lft.to/lastmile_qr_scan"}, "fusion_lat": 0.0, "fusion_lon": 0.0, "bike_id": "6e7b4a7cbbf0e27b14fe75474a3dc709", "name": "6e7b4a7cbbf0e27b14fe75474a3dc709"}, {"lon": -77.01109666666666, "is_reserved": 0, "is_disabled": 0, "type": "electric_scooter", "lat": 38.89485166666667, "rental_uris": {"ios": "https://dc.lft.to/lastmile_qr_scan", "android": "https://dc.lft.to/lastmile_qr_scan"}, "fusion_lat": 0.0, "fusion_lon": 0.0, "bike_id": "689c3c8488bd58f83585e53e83c2980d", "name": "689c3c8488bd58f83585e53e83c2980d"}, {"lon": -77.030527, "is_reserved": 0, "is_disabled": 0, "type": "electric_scooter", "lat": 38.8841005, "rental_uris": {"ios": "https://dc.lft.to/lastmile_qr_scan", "android": "https://dc.lft.to/lastmile_qr_scan"}, "fusion_lat": 0.0, "fusion_lon": 0.0, "bike_id": "e359b56c0651c038e3bda06feb8d87f1", "name": "e359b56c0651c038e3bda06feb8d87f1"}, {"lon": -77.0202515, "is_reserved": 0, "is_disabled": 0, "type": "electric_scooter", "lat": 38.92427566666667, "rental_uris": {"ios": "https://dc.lft.to/lastmile_qr_scan", "android": "https://dc.lft.to/lastmile_qr_scan"}, "fusion_lat": 0.0, "fusion_lon": 0.0, "bike_id": "c9274d55c1079a13e5664a36fcaf9851", "name": "c9274d55c1079a13e5664a36fcaf9851"}, {"lon": -77.04510216666667, "is_reserved": 0, "is_disabled": 0, "type": "electric_scooter", "lat": 38.909127833333336, "rental_uris": {"ios": "https://dc.lft.to/lastmile_qr_scan", "android": "https://dc.lft.to/lastmile_qr_scan"}, "fusion_lat": 0.0, "fusion_lon": 0.0, "bike_id": "bdb61672186d75107bf6a9e81c34a69c", "name": "bdb61672186d75107bf6a9e81c34a69c"}, {"lon": -77.06474616666667, "is_reserved": 0, "is_disabled": 0, "type": "electric_bike", "lat": 38.973792833333334, "rental_uris": {"ios": "https://dc.lft.to/lastmile_qr_scan", "android": "https://dc.lft.to/lastmile_qr_scan"}, "fusion_lat": 0.0, "fusion_lon": 0.0, "bike_id": "60ea85e76e3f44f5e4eaf22102e95be5", "name": "60ea85e76e3f44f5e4eaf22102e95be5"}, {"lon": -76.99608366666666, "is_reserved": 0, "is_disabled": 0, "type": "electric_scooter", "lat": 38.92614316666667, "rental_uris": {"ios": "https://dc.lft.to/lastmile_qr_scan", "android": "https://dc.lft.to/lastmile_qr_scan"}, "fusion_lat": 0.0, "fusion_lon": 0.0, "bike_id": "0475d0158dfaefcabd0d282dfdc91aa9", "name": "0475d0158dfaefcabd0d282dfdc91aa9"}, {"lon": -77.01174183333333, "is_reserved": 0, "is_disabled": 0, "type": "electric_scooter", "lat": 38.900263, "rental_uris": {"ios": "https://dc.lft.to/lastmile_qr_scan", "android": "https://dc.lft.to/lastmile_qr_scan"}, "fusion_lat": 0.0, "fusion_lon": 0.0, "bike_id": "8f32ef41e0c08b69a500ba57668bd167", "name": "8f32ef41e0c08b69a500ba57668bd167"}, {"lon": -77.04370583333333, "is_reserved": 0, "is_disabled": 0, "type": "electric_scooter", "lat": 38.91121733333333, "rental_uris": {"ios": "https://dc.lft.to/lastmile_qr_scan", "android": "https://dc.lft.to/lastmile_qr_scan"}, "fusion_lat": 0.0, "fusion_lon": 0.0, "bike_id": "3026a346de7cbae96ffd2817e8dc311f", "name": "3026a346de7cbae96ffd2817e8dc311f"}, {"lon": -76.99058816666667, "is_reserved": 0, "is_disabled": 0, "type": "electric_scooter", "lat": 38.863631833333336, "rental_uris": {"ios": "https://dc.lft.to/lastmile_qr_scan", "android": "https://dc.lft.to/lastmile_qr_scan"}, "fusion_lat": 0.0, "fusion_lon": 0.0, "bike_id": "4946a623e94708187ede561844fb8be2", "name": "4946a623e94708187ede561844fb8be2"}, {"lon": -77.01040683333333, "is_reserved": 0, "is_disabled": 0, "type": "electric_scooter", "lat": 38.871429166666665, "rental_uris": {"ios": "https://dc.lft.to/lastmile_qr_scan", "android": "https://dc.lft.to/lastmile_qr_scan"}, "fusion_lat": 0.0, "fusion_lon": 0.0, "bike_id": "2301abf86a46701a36f97bbf0a53dceb", "name": "2301abf86a46701a36f97bbf0a53dceb"}, {"lon": -77.01050333333333, "is_reserved": 0, "is_disabled": 0, "type": "electric_scooter", "lat": 38.92983616666667, "rental_uris": {"ios": "https://dc.lft.to/lastmile_qr_scan", "android": "https://dc.lft.to/lastmile_qr_scan"}, "fusion_lat": 0.0, "fusion_lon": 0.0, "bike_id": "acc2104a050ea04a7b72bb8ebee99940", "name": "acc2104a050ea04a7b72bb8ebee99940"}, {"lon": -77.0411855, "is_reserved": 0, "is_disabled": 0, "type": "electric_scooter", "lat": 38.91548183333333, "rental_uris": {"ios": "https://dc.lft.to/lastmile_qr_scan", "android": "https://dc.lft.to/lastmile_qr_scan"}, "fusion_lat": 0.0, "fusion_lon": 0.0, "bike_id": "ca34e47ccffc770392ea43718c2b214d", "name": "ca34e47ccffc770392ea43718c2b214d"}, {"lon": -77.016547, "is_reserved": 0, "is_disabled": 0, "type": "electric_scooter", "lat": 38.887546666666665, "rental_uris": {"ios": "https://dc.lft.to/lastmile_qr_scan", "android": "https://dc.lft.to/lastmile_qr_scan"}, "fusion_lat": 0.0, "fusion_lon": 0.0, "bike_id": "d567ec466e2005017d244fd8cfd4845f", "name": "d567ec466e2005017d244fd8cfd4845f"}, {"lon": -77.0204805, "is_reserved": 0, "is_disabled": 0, "type": "electric_scooter", "lat": 38.89451566666666, "rental_uris": {"ios": "https://dc.lft.to/lastmile_qr_scan", "android": "https://dc.lft.to/lastmile_qr_scan"}, "fusion_lat": 0.0, "fusion_lon": 0.0, "bike_id": "de141098b68f015ca61470128a6db84d", "name": "de141098b68f015ca61470128a6db84d"}, {"lon": -77.0037385, "is_reserved": 0, "is_disabled": 0, "type": "electric_scooter", "lat": 38.8973285, "rental_uris": {"ios": "https://dc.lft.to/lastmile_qr_scan", "android": "https://dc.lft.to/lastmile_qr_scan"}, "fusion_lat": 0.0, "fusion_lon": 0.0, "bike_id": "77f7caade13e4e62672cdc5f8c79cbf9", "name": "77f7caade13e4e62672cdc5f8c79cbf9"}, {"lon": -77.02944066666667, "is_reserved": 0, "is_disabled": 0, "type": "electric_scooter", "lat": 38.90499916666667, "rental_uris": {"ios": "https://dc.lft.to/lastmile_qr_scan", "android": "https://dc.lft.to/lastmile_qr_scan"}, "fusion_lat": 0.0, "fusion_lon": 0.0, "bike_id": "947dafc6233efed4710f5a6352368108", "name": "947dafc6233efed4710f5a6352368108"}, {"lon": -76.9893495, "is_reserved": 0, "is_disabled": 0, "type": "electric_bike", "lat": 38.9285995, "rental_uris": {"ios": "https://dc.lft.to/lastmile_qr_scan", "android": "https://dc.lft.to/lastmile_qr_scan"}, "fusion_lat": 0.0, "fusion_lon": 0.0, "bike_id": "21c80dc5e60ec5b7fd43a81c557e0991", "name": "21c80dc5e60ec5b7fd43a81c557e0991"}, {"lon": -77.024664, "is_reserved": 0, "is_disabled": 0, "type": "electric_scooter", "lat": 38.908504, "rental_uris": {"ios": "https://dc.lft.to/lastmile_qr_scan", "android": "https://dc.lft.to/lastmile_qr_scan"}, "fusion_lat": 0.0, "fusion_lon": 0.0, "bike_id": "b99f75614da8157d8f854a5b74192693", "name": "b99f75614da8157d8f854a5b74192693"}, {"lon": -77.0259395, "is_reserved": 0, "is_disabled": 0, "type": "electric_bike", "lat": 38.9823605, "rental_uris": {"ios": "https://dc.lft.to/lastmile_qr_scan", "android": "https://dc.lft.to/lastmile_qr_scan"}, "fusion_lat": 0.0, "fusion_lon": 0.0, "bike_id": "0283a371e09bfb81203f617cd5ec4ba4", "name": "0283a371e09bfb81203f617cd5ec4ba4"}, {"lon": -76.98122916666667, "is_reserved": 0, "is_disabled": 0, "type": "electric_bike", "lat": 38.89669716666667, "rental_uris": {"ios": "https://dc.lft.to/lastmile_qr_scan", "android": "https://dc.lft.to/lastmile_qr_scan"}, "fusion_lat": 0.0, "fusion_lon": 0.0, "bike_id": "94881acad0b0b450cdd534fa2690dbfd", "name": "94881acad0b0b450cdd534fa2690dbfd"}, {"lon": -77.0259235, "is_reserved": 0, "is_disabled": 0, "type": "electric_scooter", "lat": 38.9127475, "rental_uris": {"ios": "https://dc.lft.to/lastmile_qr_scan", "android": "https://dc.lft.to/lastmile_qr_scan"}, "fusion_lat": 0.0, "fusion_lon": 0.0, "bike_id": "9f4434a2b73ae33fa89c3accdb578730", "name": "9f4434a2b73ae33fa89c3accdb578730"}, {"lon": -77.03493983333334, "is_reserved": 0, "is_disabled": 0, "type": "electric_scooter", "lat": 38.932762, "rental_uris": {"ios": "https://dc.lft.to/lastmile_qr_scan", "android": "https://dc.lft.to/lastmile_qr_scan"}, "fusion_lat": 0.0, "fusion_lon": 0.0, "bike_id": "6ad180d0324aab841b111eea7d993e62", "name": "6ad180d0324aab841b111eea7d993e62"}, {"lon": -77.06817516666666, "is_reserved": 0, "is_disabled": 0, "type": "electric_scooter", "lat": 38.94471, "rental_uris": {"ios": "https://dc.lft.to/lastmile_qr_scan", "android": "https://dc.lft.to/lastmile_qr_scan"}, "fusion_lat": 0.0, "fusion_lon": 0.0, "bike_id": "f21f82d11c3ddc0bb4adaafcdcea5345", "name": "f21f82d11c3ddc0bb4adaafcdcea5345"}, {"lon": -77.021571, "is_reserved": 0, "is_disabled": 0, "type": "electric_scooter", "lat": 38.925971, "rental_uris": {"ios": "https://dc.lft.to/lastmile_qr_scan", "android": "https://dc.lft.to/lastmile_qr_scan"}, "fusion_lat": 0.0, "fusion_lon": 0.0, "bike_id": "2af606663aa700c5e27bf2273410306c", "name": "2af606663aa700c5e27bf2273410306c"}, {"lon": -77.003463, "is_reserved": 0, "is_disabled": 0, "type": "electric_scooter", "lat": 38.893545, "rental_uris": {"ios": "https://dc.lft.to/lastmile_qr_scan", "android": "https://dc.lft.to/lastmile_qr_scan"}, "fusion_lat": 0.0, "fusion_lon": 0.0, "bike_id": "7e60e901a8e34b9ac280496cbd1a383e", "name": "7e60e901a8e34b9ac280496cbd1a383e"}, {"lon": -76.9832515, "is_reserved": 0, "is_disabled": 0, "type": "electric_bike", "lat": 38.966093, "rental_uris": {"ios": "https://dc.lft.to/lastmile_qr_scan", "android": "https://dc.lft.to/lastmile_qr_scan"}, "fusion_lat": 0.0, "fusion_lon": 0.0, "bike_id": "fd4f32271c0f1aa6721fef5bf7dec3e6", "name": "fd4f32271c0f1aa6721fef5bf7dec3e6"}, {"lon": -77.02795483333334, "is_reserved": 0, "is_disabled": 0, "type": "electric_scooter", "lat": 38.930813, "rental_uris": {"ios": "https://dc.lft.to/lastmile_qr_scan", "android": "https://dc.lft.to/lastmile_qr_scan"}, "fusion_lat": 0.0, "fusion_lon": 0.0, "bike_id": "4b53e9a0796db0102e0740ab320c6faa", "name": "4b53e9a0796db0102e0740ab320c6faa"}, {"lon": -77.03990883333333, "is_reserved": 0, "is_disabled": 0, "type": "electric_scooter", "lat": 38.90588116666667, "rental_uris": {"ios": "https://dc.lft.to/lastmile_qr_scan", "android": "https://dc.lft.to/lastmile_qr_scan"}, "fusion_lat": 0.0, "fusion_lon": 0.0, "bike_id": "a96c3d7563eba0007af9241273eee946", "name": "a96c3d7563eba0007af9241273eee946"}, {"lon": -77.0523875, "is_reserved": 0, "is_disabled": 0, "type": "electric_scooter", "lat": 38.92464666666667, "rental_uris": {"ios": "https://dc.lft.to/lastmile_qr_scan", "android": "https://dc.lft.to/lastmile_qr_scan"}, "fusion_lat": 0.0, "fusion_lon": 0.0, "bike_id": "2e73e759ae56b4d9f5c4fb7cc3480fa2", "name": "2e73e759ae56b4d9f5c4fb7cc3480fa2"}, {"lon": -77.11231716666667, "is_reserved": 0, "is_disabled": 0, "type": "electric_bike", "lat": 38.812253166666665, "rental_uris": {"ios": "https://dc.lft.to/lastmile_qr_scan", "android": "https://dc.lft.to/lastmile_qr_scan"}, "fusion_lat": 0.0, "fusion_lon": 0.0, "bike_id": "2149caceb8a663de3bc31a2a8ee4e7d3", "name": "2149caceb8a663de3bc31a2a8ee4e7d3"}, {"lon": -76.99617083333334, "is_reserved": 0, "is_disabled": 0, "type": "electric_scooter", "lat": 38.88614666666667, "rental_uris": {"ios": "https://dc.lft.to/lastmile_qr_scan", "android": "https://dc.lft.to/lastmile_qr_scan"}, "fusion_lat": 0.0, "fusion_lon": 0.0, "bike_id": "f7ac8fb239df51626129f5f539e05166", "name": "f7ac8fb239df51626129f5f539e05166"}, {"lon": -76.937217, "is_reserved": 0, "is_disabled": 0, "type": "electric_scooter", "lat": 38.89102166666667, "rental_uris": {"ios": "https://dc.lft.to/lastmile_qr_scan", "android": "https://dc.lft.to/lastmile_qr_scan"}, "fusion_lat": 0.0, "fusion_lon": 0.0, "bike_id": "2561a6f7afc1fb33517552b9fcb95bcc", "name": "2561a6f7afc1fb33517552b9fcb95bcc"}, {"lon": -77.101861, "is_reserved": 0, "is_disabled": 0, "type": "electric_bike", "lat": 38.91807266666667, "rental_uris": {"ios": "https://dc.lft.to/lastmile_qr_scan", "android": "https://dc.lft.to/lastmile_qr_scan"}, "fusion_lat": 0.0, "fusion_lon": 0.0, "bike_id": "5091230cf23de306fff307fd79df2bdb", "name": "5091230cf23de306fff307fd79df2bdb"}, {"lon": -77.02228583333333, "is_reserved": 0, "is_disabled": 0, "type": "electric_scooter", "lat": 38.91272716666667, "rental_uris": {"ios": "https://dc.lft.to/lastmile_qr_scan", "android": "https://dc.lft.to/lastmile_qr_scan"}, "fusion_lat": 0.0, "fusion_lon": 0.0, "bike_id": "d88efb0fde406a108c94b8ea25d34292", "name": "d88efb0fde406a108c94b8ea25d34292"}, {"lon": -76.98376616666667, "is_reserved": 0, "is_disabled": 0, "type": "electric_scooter", "lat": 38.906456, "rental_uris": {"ios": "https://dc.lft.to/lastmile_qr_scan", "android": "https://dc.lft.to/lastmile_qr_scan"}, "fusion_lat": 0.0, "fusion_lon": 0.0, "bike_id": "4c20dcdc099f788be995761b68fc4455", "name": "4c20dcdc099f788be995761b68fc4455"}, {"lon": -77.04551733333334, "is_reserved": 0, "is_disabled": 0, "type": "electric_scooter", "lat": 38.91265633333333, "rental_uris": {"ios": "https://dc.lft.to/lastmile_qr_scan", "android": "https://dc.lft.to/lastmile_qr_scan"}, "fusion_lat": 0.0, "fusion_lon": 0.0, "bike_id": "fbefa4f52adc70e10eba39e6f3896d87", "name": "fbefa4f52adc70e10eba39e6f3896d87"}, {"lon": -77.04670266666666, "is_reserved": 0, "is_disabled": 0, "type": "electric_scooter", "lat": 38.903699833333334, "rental_uris": {"ios": "https://dc.lft.to/lastmile_qr_scan", "android": "https://dc.lft.to/lastmile_qr_scan"}, "fusion_lat": 0.0, "fusion_lon": 0.0, "bike_id": "0c0a236f0dc1995fbaa51c173fd44841", "name": "0c0a236f0dc1995fbaa51c173fd44841"}, {"lon": -77.04159716666666, "is_reserved": 0, "is_disabled": 0, "type": "electric_scooter", "lat": 38.91646333333333, "rental_uris": {"ios": "https://dc.lft.to/lastmile_qr_scan", "android": "https://dc.lft.to/lastmile_qr_scan"}, "fusion_lat": 0.0, "fusion_lon": 0.0, "bike_id": "2f287f8aff3c33c9e9ffa446bf16eb98", "name": "2f287f8aff3c33c9e9ffa446bf16eb98"}, {"lon": -77.02829616666666, "is_reserved": 0, "is_disabled": 0, "type": "electric_scooter", "lat": 38.94831833333333, "rental_uris": {"ios": "https://dc.lft.to/lastmile_qr_scan", "android": "https://dc.lft.to/lastmile_qr_scan"}, "fusion_lat": 0.0, "fusion_lon": 0.0, "bike_id": "50d00735a4ffc6e1d9a198c9d16c3a8b", "name": "50d00735a4ffc6e1d9a198c9d16c3a8b"}, {"lon": -77.06007416666667, "is_reserved": 0, "is_disabled": 0, "type": "electric_scooter", "lat": 38.90513033333333, "rental_uris": {"ios": "https://dc.lft.to/lastmile_qr_scan", "android": "https://dc.lft.to/lastmile_qr_scan"}, "fusion_lat": 0.0, "fusion_lon": 0.0, "bike_id": "2cdacbe687e30ecdbdf50be3136eafed", "name": "2cdacbe687e30ecdbdf50be3136eafed"}, {"lon": -77.0329025, "is_reserved": 0, "is_disabled": 0, "type": "electric_scooter", "lat": 38.956523, "rental_uris": {"ios": "https://dc.lft.to/lastmile_qr_scan", "android": "https://dc.lft.to/lastmile_qr_scan"}, "fusion_lat": 0.0, "fusion_lon": 0.0, "bike_id": "41956ff3b00a8983dafe9fe99ca00111", "name": "41956ff3b00a8983dafe9fe99ca00111"}, {"lon": -77.0592275, "is_reserved": 0, "is_disabled": 0, "type": "electric_scooter", "lat": 38.93652766666666, "rental_uris": {"ios": "https://dc.lft.to/lastmile_qr_scan", "android": "https://dc.lft.to/lastmile_qr_scan"}, "fusion_lat": 0.0, "fusion_lon": 0.0, "bike_id": "a29ebb6aa570e1070446688ec24b4675", "name": "a29ebb6aa570e1070446688ec24b4675"}, {"lon": -76.93839666666666, "is_reserved": 0, "is_disabled": 0, "type": "electric_scooter", "lat": 38.890101666666666, "rental_uris": {"ios": "https://dc.lft.to/lastmile_qr_scan", "android": "https://dc.lft.to/lastmile_qr_scan"}, "fusion_lat": 0.0, "fusion_lon": 0.0, "bike_id": "e9deeb883976c83f03fe480b540eef3f", "name": "e9deeb883976c83f03fe480b540eef3f"}, {"lon": -77.04668483333333, "is_reserved": 0, "is_disabled": 0, "type": "electric_scooter", "lat": 38.9032635, "rental_uris": {"ios": "https://dc.lft.to/lastmile_qr_scan", "android": "https://dc.lft.to/lastmile_qr_scan"}, "fusion_lat": 0.0, "fusion_lon": 0.0, "bike_id": "9cb677fa2e16ab842eacbc5e6b430f19", "name": "9cb677fa2e16ab842eacbc5e6b430f19"}, {"lon": -77.04241683333333, "is_reserved": 0, "is_disabled": 0, "type": "electric_scooter", "lat": 38.9221865, "rental_uris": {"ios": "https://dc.lft.to/lastmile_qr_scan", "android": "https://dc.lft.to/lastmile_qr_scan"}, "fusion_lat": 0.0, "fusion_lon": 0.0, "bike_id": "77f1a1bfac2742b9e49d37ecc0c364cc", "name": "77f1a1bfac2742b9e49d37ecc0c364cc"}, {"lon": -77.23412416666666, "is_reserved": 0, "is_disabled": 0, "type": "electric_bike", "lat": 38.8757515, "rental_uris": {"ios": "https://dc.lft.to/lastmile_qr_scan", "android": "https://dc.lft.to/lastmile_qr_scan"}, "fusion_lat": 0.0, "fusion_lon": 0.0, "bike_id": "30c61e82f9c0cd4f84bbafcf4887d680", "name": "30c61e82f9c0cd4f84bbafcf4887d680"}, {"lon": -77.12514283333333, "is_reserved": 0, "is_disabled": 0, "type": "electric_bike", "lat": 39.024202333333335, "rental_uris": {"ios": "https://dc.lft.to/lastmile_qr_scan", "android": "https://dc.lft.to/lastmile_qr_scan"}, "fusion_lat": 0.0, "fusion_lon": 0.0, "bike_id": "21871a0743211f7d4796b1a288467f62", "name": "21871a0743211f7d4796b1a288467f62"}, {"lon": -76.98366466666667, "is_reserved": 0, "is_disabled": 0, "type": "electric_scooter", "lat": 38.864759, "rental_uris": {"ios": "https://dc.lft.to/lastmile_qr_scan", "android": "https://dc.lft.to/lastmile_qr_scan"}, "fusion_lat": 0.0, "fusion_lon": 0.0, "bike_id": "265a0726f32baed2ffc219f92eff93fc", "name": "265a0726f32baed2ffc219f92eff93fc"}, {"lon": -77.0275375, "is_reserved": 0, "is_disabled": 0, "type": "electric_scooter", "lat": 38.954195, "rental_uris": {"ios": "https://dc.lft.to/lastmile_qr_scan", "android": "https://dc.lft.to/lastmile_qr_scan"}, "fusion_lat": 0.0, "fusion_lon": 0.0, "bike_id": "d8a6ff9f1ccc6b892a5bd1568f98b0fa", "name": "d8a6ff9f1ccc6b892a5bd1568f98b0fa"}, {"lon": -77.03518466666667, "is_reserved": 0, "is_disabled": 0, "type": "electric_scooter", "lat": 38.92159566666667, "rental_uris": {"ios": "https://dc.lft.to/lastmile_qr_scan", "android": "https://dc.lft.to/lastmile_qr_scan"}, "fusion_lat": 0.0, "fusion_lon": 0.0, "bike_id": "d630d3c2433fe4cbb13a72b53313af75", "name": "d630d3c2433fe4cbb13a72b53313af75"}, {"lon": -77.04244116666666, "is_reserved": 0, "is_disabled": 0, "type": "electric_scooter", "lat": 38.945516833333336, "rental_uris": {"ios": "https://dc.lft.to/lastmile_qr_scan", "android": "https://dc.lft.to/lastmile_qr_scan"}, "fusion_lat": 0.0, "fusion_lon": 0.0, "bike_id": "7ab51304ad904a5568f7590f7187e1b6", "name": "7ab51304ad904a5568f7590f7187e1b6"}, {"lon": -77.0365665, "is_reserved": 0, "is_disabled": 0, "type": "electric_scooter", "lat": 38.912797, "rental_uris": {"ios": "https://dc.lft.to/lastmile_qr_scan", "android": "https://dc.lft.to/lastmile_qr_scan"}, "fusion_lat": 0.0, "fusion_lon": 0.0, "bike_id": "81e1c862b0c858a50a088ce423425fd0", "name": "81e1c862b0c858a50a088ce423425fd0"}, {"lon": -77.00705766666667, "is_reserved": 0, "is_disabled": 0, "type": "electric_scooter", "lat": 38.8967255, "rental_uris": {"ios": "https://dc.lft.to/lastmile_qr_scan", "android": "https://dc.lft.to/lastmile_qr_scan"}, "fusion_lat": 0.0, "fusion_lon": 0.0, "bike_id": "3a5d9f31d1db88b5d23b10fcf417f144", "name": "3a5d9f31d1db88b5d23b10fcf417f144"}, {"lon": -77.04504116666666, "is_reserved": 0, "is_disabled": 0, "type": "electric_scooter", "lat": 38.912724833333336, "rental_uris": {"ios": "https://dc.lft.to/lastmile_qr_scan", "android": "https://dc.lft.to/lastmile_qr_scan"}, "fusion_lat": 0.0, "fusion_lon": 0.0, "bike_id": "e0b4ae1edc9136807a8dff0c6c0d8c8b", "name": "e0b4ae1edc9136807a8dff0c6c0d8c8b"}, {"lon": -77.0275765, "is_reserved": 0, "is_disabled": 0, "type": "electric_scooter", "lat": 38.954158666666665, "rental_uris": {"ios": "https://dc.lft.to/lastmile_qr_scan", "android": "https://dc.lft.to/lastmile_qr_scan"}, "fusion_lat": 0.0, "fusion_lon": 0.0, "bike_id": "b0949261294c80919011e14f4cddcd3f", "name": "b0949261294c80919011e14f4cddcd3f"}, {"lon": -77.03288866666666, "is_reserved": 0, "is_disabled": 0, "type": "electric_scooter", "lat": 38.898927, "rental_uris": {"ios": "https://dc.lft.to/lastmile_qr_scan", "android": "https://dc.lft.to/lastmile_qr_scan"}, "fusion_lat": 0.0, "fusion_lon": 0.0, "bike_id": "9535131dce8114cd585f4759e7de2f75", "name": "9535131dce8114cd585f4759e7de2f75"}, {"lon": -77.0639335, "is_reserved": 0, "is_disabled": 0, "type": "electric_scooter", "lat": 38.92904983333333, "rental_uris": {"ios": "https://dc.lft.to/lastmile_qr_scan", "android": "https://dc.lft.to/lastmile_qr_scan"}, "fusion_lat": 0.0, "fusion_lon": 0.0, "bike_id": "e5f815b04a34b776f5d2674fe36dcc8c", "name": "e5f815b04a34b776f5d2674fe36dcc8c"}, {"lon": -77.06037366666666, "is_reserved": 0, "is_disabled": 0, "type": "electric_scooter", "lat": 38.9392375, "rental_uris": {"ios": "https://dc.lft.to/lastmile_qr_scan", "android": "https://dc.lft.to/lastmile_qr_scan"}, "fusion_lat": 0.0, "fusion_lon": 0.0, "bike_id": "358a0f7280483fe8ca4cc883616ec07f", "name": "358a0f7280483fe8ca4cc883616ec07f"}, {"lon": -76.94122333333334, "is_reserved": 0, "is_disabled": 0, "type": "electric_scooter", "lat": 38.90793766666667, "rental_uris": {"ios": "https://dc.lft.to/lastmile_qr_scan", "android": "https://dc.lft.to/lastmile_qr_scan"}, "fusion_lat": 0.0, "fusion_lon": 0.0, "bike_id": "4ae7befa0f58553089af26a352773f5f", "name": "4ae7befa0f58553089af26a352773f5f"}, {"lon": -77.02311216666666, "is_reserved": 0, "is_disabled": 0, "type": "electric_scooter", "lat": 38.91601166666667, "rental_uris": {"ios": "https://dc.lft.to/lastmile_qr_scan", "android": "https://dc.lft.to/lastmile_qr_scan"}, "fusion_lat": 0.0, "fusion_lon": 0.0, "bike_id": "70b5c83627c655d7d07fbc719f405f42", "name": "70b5c83627c655d7d07fbc719f405f42"}, {"lon": -77.02712566666666, "is_reserved": 0, "is_disabled": 0, "type": "electric_scooter", "lat": 38.90665966666667, "rental_uris": {"ios": "https://dc.lft.to/lastmile_qr_scan", "android": "https://dc.lft.to/lastmile_qr_scan"}, "fusion_lat": 0.0, "fusion_lon": 0.0, "bike_id": "98e9ae17501ae241c69a70f50965fc33", "name": "98e9ae17501ae241c69a70f50965fc33"}, {"lon": -77.08207833333333, "is_reserved": 0, "is_disabled": 0, "type": "electric_scooter", "lat": 38.935517833333336, "rental_uris": {"ios": "https://dc.lft.to/lastmile_qr_scan", "android": "https://dc.lft.to/lastmile_qr_scan"}, "fusion_lat": 0.0, "fusion_lon": 0.0, "bike_id": "b5f341216a48a6f230c15ca7261c6441", "name": "b5f341216a48a6f230c15ca7261c6441"}, {"lon": -77.01278383333333, "is_reserved": 0, "is_disabled": 0, "type": "electric_scooter", "lat": 38.899776, "rental_uris": {"ios": "https://dc.lft.to/lastmile_qr_scan", "android": "https://dc.lft.to/lastmile_qr_scan"}, "fusion_lat": 0.0, "fusion_lon": 0.0, "bike_id": "ac903860399ebf97734c36d5c091b3fe", "name": "ac903860399ebf97734c36d5c091b3fe"}, {"lon": -77.017567, "is_reserved": 0, "is_disabled": 0, "type": "electric_scooter", "lat": 38.9167495, "rental_uris": {"ios": "https://dc.lft.to/lastmile_qr_scan", "android": "https://dc.lft.to/lastmile_qr_scan"}, "fusion_lat": 0.0, "fusion_lon": 0.0, "bike_id": "e6f0fc5b4b35323d94520664de3dff0f", "name": "e6f0fc5b4b35323d94520664de3dff0f"}, {"lon": -77.03641316666666, "is_reserved": 0, "is_disabled": 0, "type": "electric_scooter", "lat": 38.902876666666664, "rental_uris": {"ios": "https://dc.lft.to/lastmile_qr_scan", "android": "https://dc.lft.to/lastmile_qr_scan"}, "fusion_lat": 0.0, "fusion_lon": 0.0, "bike_id": "f197f68dc53c37e017e9435f19f82e49", "name": "f197f68dc53c37e017e9435f19f82e49"}, {"lon": -76.9866215, "is_reserved": 0, "is_disabled": 0, "type": "electric_scooter", "lat": 38.90133633333333, "rental_uris": {"ios": "https://dc.lft.to/lastmile_qr_scan", "android": "https://dc.lft.to/lastmile_qr_scan"}, "fusion_lat": 0.0, "fusion_lon": 0.0, "bike_id": "c07b19ae09eb978838385e407a696129", "name": "c07b19ae09eb978838385e407a696129"}, {"lon": -77.03841816666667, "is_reserved": 0, "is_disabled": 0, "type": "electric_scooter", "lat": 38.91214383333333, "rental_uris": {"ios": "https://dc.lft.to/lastmile_qr_scan", "android": "https://dc.lft.to/lastmile_qr_scan"}, "fusion_lat": 0.0, "fusion_lon": 0.0, "bike_id": "2daeeee4bf1c6a04f63bf4c5e09f753a", "name": "2daeeee4bf1c6a04f63bf4c5e09f753a"}, {"lon": -77.043081, "is_reserved": 0, "is_disabled": 0, "type": "electric_bike", "lat": 39.05448916666667, "rental_uris": {"ios": "https://dc.lft.to/lastmile_qr_scan", "android": "https://dc.lft.to/lastmile_qr_scan"}, "fusion_lat": 0.0, "fusion_lon": 0.0, "bike_id": "78389c49b0940b13e79289f1d1a629a5", "name": "78389c49b0940b13e79289f1d1a629a5"}, {"lon": -77.178531, "is_reserved": 0, "is_disabled": 0, "type": "electric_bike", "lat": 39.08898933333333, "rental_uris": {"ios": "https://dc.lft.to/lastmile_qr_scan", "android": "https://dc.lft.to/lastmile_qr_scan"}, "fusion_lat": 0.0, "fusion_lon": 0.0, "bike_id": "0c58b50cc2facf2447c160792c12518e", "name": "0c58b50cc2facf2447c160792c12518e"}, {"lon": -77.0353665, "is_reserved": 0, "is_disabled": 0, "type": "electric_scooter", "lat": 38.924662, "rental_uris": {"ios": "https://dc.lft.to/lastmile_qr_scan", "android": "https://dc.lft.to/lastmile_qr_scan"}, "fusion_lat": 0.0, "fusion_lon": 0.0, "bike_id": "fd0e313e37cc4bf90bd413bed512498c", "name": "fd0e313e37cc4bf90bd413bed512498c"}, {"lon": -77.06355916666666, "is_reserved": 0, "is_disabled": 0, "type": "electric_scooter", "lat": 38.944495, "rental_uris": {"ios": "https://dc.lft.to/lastmile_qr_scan", "android": "https://dc.lft.to/lastmile_qr_scan"}, "fusion_lat": 0.0, "fusion_lon": 0.0, "bike_id": "b8f33fad7fc80a9d37d5446daebc8edd", "name": "b8f33fad7fc80a9d37d5446daebc8edd"}, {"lon": -76.99575066666667, "is_reserved": 0, "is_disabled": 0, "type": "electric_bike", "lat": 39.007846666666666, "rental_uris": {"ios": "https://dc.lft.to/lastmile_qr_scan", "android": "https://dc.lft.to/lastmile_qr_scan"}, "fusion_lat": 0.0, "fusion_lon": 0.0, "bike_id": "84e260d611d6a59367ff271e7353cc36", "name": "84e260d611d6a59367ff271e7353cc36"}, {"lon": -77.008824, "is_reserved": 0, "is_disabled": 0, "type": "electric_scooter", "lat": 38.87322283333334, "rental_uris": {"ios": "https://dc.lft.to/lastmile_qr_scan", "android": "https://dc.lft.to/lastmile_qr_scan"}, "fusion_lat": 0.0, "fusion_lon": 0.0, "bike_id": "866a7e58d73d8a49dd5bdd80abf7f4a4", "name": "866a7e58d73d8a49dd5bdd80abf7f4a4"}, {"lon": -77.0319325, "is_reserved": 0, "is_disabled": 0, "type": "electric_bike", "lat": 38.94176216666666, "rental_uris": {"ios": "https://dc.lft.to/lastmile_qr_scan", "android": "https://dc.lft.to/lastmile_qr_scan"}, "fusion_lat": 0.0, "fusion_lon": 0.0, "bike_id": "c60fd039542c0c4ce309fef6f832976b", "name": "c60fd039542c0c4ce309fef6f832976b"}, {"lon": -77.02938966666666, "is_reserved": 0, "is_disabled": 0, "type": "electric_scooter", "lat": 38.8987315, "rental_uris": {"ios": "https://dc.lft.to/lastmile_qr_scan", "android": "https://dc.lft.to/lastmile_qr_scan"}, "fusion_lat": 0.0, "fusion_lon": 0.0, "bike_id": "347f9adeb09421a0f0e1211d95b3c328", "name": "347f9adeb09421a0f0e1211d95b3c328"}, {"lon": -77.046781, "is_reserved": 0, "is_disabled": 0, "type": "electric_scooter", "lat": 38.89503783333333, "rental_uris": {"ios": "https://dc.lft.to/lastmile_qr_scan", "android": "https://dc.lft.to/lastmile_qr_scan"}, "fusion_lat": 0.0, "fusion_lon": 0.0, "bike_id": "8f17e1521a6492b551a1045cbf729246", "name": "8f17e1521a6492b551a1045cbf729246"}, {"lon": -77.0956165, "is_reserved": 0, "is_disabled": 0, "type": "electric_bike", "lat": 38.91702933333333, "rental_uris": {"ios": "https://dc.lft.to/lastmile_qr_scan", "android": "https://dc.lft.to/lastmile_qr_scan"}, "fusion_lat": 0.0, "fusion_lon": 0.0, "bike_id": "e89e7589ab22f6dd1773bf6ea962ab78", "name": "e89e7589ab22f6dd1773bf6ea962ab78"}, {"lon": -77.00297116666667, "is_reserved": 0, "is_disabled": 0, "type": "electric_scooter", "lat": 38.8918825, "rental_uris": {"ios": "https://dc.lft.to/lastmile_qr_scan", "android": "https://dc.lft.to/lastmile_qr_scan"}, "fusion_lat": 0.0, "fusion_lon": 0.0, "bike_id": "5a437be5e4228fd70ec046f3d58fac80", "name": "5a437be5e4228fd70ec046f3d58fac80"}, {"lon": -76.98713983333333, "is_reserved": 0, "is_disabled": 0, "type": "electric_scooter", "lat": 38.86697133333333, "rental_uris": {"ios": "https://dc.lft.to/lastmile_qr_scan", "android": "https://dc.lft.to/lastmile_qr_scan"}, "fusion_lat": 0.0, "fusion_lon": 0.0, "bike_id": "59dc6e5cf0e7a2cd366fbe1dae796e3f", "name": "59dc6e5cf0e7a2cd366fbe1dae796e3f"}, {"lon": -77.01816483333333, "is_reserved": 0, "is_disabled": 0, "type": "electric_scooter", "lat": 38.921665, "rental_uris": {"ios": "https://dc.lft.to/lastmile_qr_scan", "android": "https://dc.lft.to/lastmile_qr_scan"}, "fusion_lat": 0.0, "fusion_lon": 0.0, "bike_id": "354a42e6e2f20b6468327dec063d12e5", "name": "354a42e6e2f20b6468327dec063d12e5"}, {"lon": -77.1250655, "is_reserved": 0, "is_disabled": 0, "type": "electric_bike", "lat": 39.02420633333333, "rental_uris": {"ios": "https://dc.lft.to/lastmile_qr_scan", "android": "https://dc.lft.to/lastmile_qr_scan"}, "fusion_lat": 0.0, "fusion_lon": 0.0, "bike_id": "7aabcb656e907952494bc6b77eda925d", "name": "7aabcb656e907952494bc6b77eda925d"}, {"lon": -77.02648466666666, "is_reserved": 0, "is_disabled": 0, "type": "electric_scooter", "lat": 38.89590316666666, "rental_uris": {"ios": "https://dc.lft.to/lastmile_qr_scan", "android": "https://dc.lft.to/lastmile_qr_scan"}, "fusion_lat": 0.0, "fusion_lon": 0.0, "bike_id": "45bee12269cbc13d1834be20bb9e764a", "name": "45bee12269cbc13d1834be20bb9e764a"}, {"lon": -76.99160966666666, "is_reserved": 0, "is_disabled": 0, "type": "electric_scooter", "lat": 38.879151, "rental_uris": {"ios": "https://dc.lft.to/lastmile_qr_scan", "android": "https://dc.lft.to/lastmile_qr_scan"}, "fusion_lat": 0.0, "fusion_lon": 0.0, "bike_id": "9c80748bd48bd69661f0103257fe2076", "name": "9c80748bd48bd69661f0103257fe2076"}, {"lon": -77.02534383333334, "is_reserved": 0, "is_disabled": 0, "type": "electric_scooter", "lat": 38.90355516666666, "rental_uris": {"ios": "https://dc.lft.to/lastmile_qr_scan", "android": "https://dc.lft.to/lastmile_qr_scan"}, "fusion_lat": 0.0, "fusion_lon": 0.0, "bike_id": "1f4cafa29849f99d1edc26a76edd7c67", "name": "1f4cafa29849f99d1edc26a76edd7c67"}, {"lon": -77.000233, "is_reserved": 0, "is_disabled": 0, "type": "electric_scooter", "lat": 38.87513416666667, "rental_uris": {"ios": "https://dc.lft.to/lastmile_qr_scan", "android": "https://dc.lft.to/lastmile_qr_scan"}, "fusion_lat": 0.0, "fusion_lon": 0.0, "bike_id": "358792d66dc1d143284715d6f948d1ef", "name": "358792d66dc1d143284715d6f948d1ef"}, {"lon": -76.99822033333334, "is_reserved": 0, "is_disabled": 0, "type": "electric_scooter", "lat": 38.90717883333333, "rental_uris": {"ios": "https://dc.lft.to/lastmile_qr_scan", "android": "https://dc.lft.to/lastmile_qr_scan"}, "fusion_lat": 0.0, "fusion_lon": 0.0, "bike_id": "d1c8e8c69ef0f3370ad5d0de95307e17", "name": "d1c8e8c69ef0f3370ad5d0de95307e17"}, {"lon": -77.00218033333333, "is_reserved": 0, "is_disabled": 0, "type": "electric_scooter", "lat": 38.877432666666664, "rental_uris": {"ios": "https://dc.lft.to/lastmile_qr_scan", "android": "https://dc.lft.to/lastmile_qr_scan"}, "fusion_lat": 0.0, "fusion_lon": 0.0, "bike_id": "78bf4b2751db8233b433aa664aa63d7f", "name": "78bf4b2751db8233b433aa664aa63d7f"}, {"lon": -77.07687033333333, "is_reserved": 0, "is_disabled": 0, "type": "electric_bike", "lat": 38.83191383333333, "rental_uris": {"ios": "https://dc.lft.to/lastmile_qr_scan", "android": "https://dc.lft.to/lastmile_qr_scan"}, "fusion_lat": 0.0, "fusion_lon": 0.0, "bike_id": "a7d904410e9631ff9ddcddb2f09ca3b4", "name": "a7d904410e9631ff9ddcddb2f09ca3b4"}, {"lon": -77.01100116666667, "is_reserved": 0, "is_disabled": 0, "type": "electric_scooter", "lat": 38.9055675, "rental_uris": {"ios": "https://dc.lft.to/lastmile_qr_scan", "android": "https://dc.lft.to/lastmile_qr_scan"}, "fusion_lat": 0.0, "fusion_lon": 0.0, "bike_id": "307ea086e7a948e3be82870fb41b58be", "name": "307ea086e7a948e3be82870fb41b58be"}, {"lon": -77.045062, "is_reserved": 0, "is_disabled": 0, "type": "electric_scooter", "lat": 38.912778333333335, "rental_uris": {"ios": "https://dc.lft.to/lastmile_qr_scan", "android": "https://dc.lft.to/lastmile_qr_scan"}, "fusion_lat": 0.0, "fusion_lon": 0.0, "bike_id": "80d019ee43f50fe1fc31762af604d932", "name": "80d019ee43f50fe1fc31762af604d932"}, {"lon": -77.11222883333333, "is_reserved": 0, "is_disabled": 0, "type": "electric_bike", "lat": 38.82871016666667, "rental_uris": {"ios": "https://dc.lft.to/lastmile_qr_scan", "android": "https://dc.lft.to/lastmile_qr_scan"}, "fusion_lat": 0.0, "fusion_lon": 0.0, "bike_id": "4b54aaa4563281c3b3a374182fffd17e", "name": "4b54aaa4563281c3b3a374182fffd17e"}, {"lon": -77.03433433333333, "is_reserved": 0, "is_disabled": 0, "type": "electric_scooter", "lat": 38.905518, "rental_uris": {"ios": "https://dc.lft.to/lastmile_qr_scan", "android": "https://dc.lft.to/lastmile_qr_scan"}, "fusion_lat": 0.0, "fusion_lon": 0.0, "bike_id": "3285f6c4b42b66adcec9b221729974fb", "name": "3285f6c4b42b66adcec9b221729974fb"}, {"lon": -77.04731716666667, "is_reserved": 0, "is_disabled": 0, "type": "electric_scooter", "lat": 38.902257166666665, "rental_uris": {"ios": "https://dc.lft.to/lastmile_qr_scan", "android": "https://dc.lft.to/lastmile_qr_scan"}, "fusion_lat": 0.0, "fusion_lon": 0.0, "bike_id": "774a26ad9b318c31d3133c54b6223fc4", "name": "774a26ad9b318c31d3133c54b6223fc4"}, {"lon": -77.0097795, "is_reserved": 0, "is_disabled": 0, "type": "electric_scooter", "lat": 38.919239, "rental_uris": {"ios": "https://dc.lft.to/lastmile_qr_scan", "android": "https://dc.lft.to/lastmile_qr_scan"}, "fusion_lat": 0.0, "fusion_lon": 0.0, "bike_id": "d043fa70140ee97bcddab4b52305ffe8", "name": "d043fa70140ee97bcddab4b52305ffe8"}, {"lon": -76.9354805, "is_reserved": 0, "is_disabled": 0, "type": "electric_bike", "lat": 38.955569, "rental_uris": {"ios": "https://dc.lft.to/lastmile_qr_scan", "android": "https://dc.lft.to/lastmile_qr_scan"}, "fusion_lat": 0.0, "fusion_lon": 0.0, "bike_id": "45526524bd937ed61739df863954f4e1", "name": "45526524bd937ed61739df863954f4e1"}, {"lon": -77.03853983333333, "is_reserved": 0, "is_disabled": 0, "type": "electric_scooter", "lat": 38.93215883333333, "rental_uris": {"ios": "https://dc.lft.to/lastmile_qr_scan", "android": "https://dc.lft.to/lastmile_qr_scan"}, "fusion_lat": 0.0, "fusion_lon": 0.0, "bike_id": "430ed411ad7825265758c0a4a931a131", "name": "430ed411ad7825265758c0a4a931a131"}, {"lon": -77.07864816666667, "is_reserved": 0, "is_disabled": 0, "type": "electric_scooter", "lat": 38.9246215, "rental_uris": {"ios": "https://dc.lft.to/lastmile_qr_scan", "android": "https://dc.lft.to/lastmile_qr_scan"}, "fusion_lat": 0.0, "fusion_lon": 0.0, "bike_id": "ff01ecf9a90691e52b38d4118b94e203", "name": "ff01ecf9a90691e52b38d4118b94e203"}, {"lon": -77.02870266666666, "is_reserved": 0, "is_disabled": 0, "type": "electric_scooter", "lat": 38.9000665, "rental_uris": {"ios": "https://dc.lft.to/lastmile_qr_scan", "android": "https://dc.lft.to/lastmile_qr_scan"}, "fusion_lat": 0.0, "fusion_lon": 0.0, "bike_id": "cf588382ff095997878abad136ea90b3", "name": "cf588382ff095997878abad136ea90b3"}, {"lon": -77.047643, "is_reserved": 0, "is_disabled": 0, "type": "electric_scooter", "lat": 38.90212283333334, "rental_uris": {"ios": "https://dc.lft.to/lastmile_qr_scan", "android": "https://dc.lft.to/lastmile_qr_scan"}, "fusion_lat": 0.0, "fusion_lon": 0.0, "bike_id": "70d31a6b27eeaf2b88d7f2b582fe7c01", "name": "70d31a6b27eeaf2b88d7f2b582fe7c01"}, {"lon": -77.02178866666667, "is_reserved": 0, "is_disabled": 0, "type": "electric_bike", "lat": 38.913176, "rental_uris": {"ios": "https://dc.lft.to/lastmile_qr_scan", "android": "https://dc.lft.to/lastmile_qr_scan"}, "fusion_lat": 0.0, "fusion_lon": 0.0, "bike_id": "52dda71d94fc4164544bc7aba94a2956", "name": "52dda71d94fc4164544bc7aba94a2956"}, {"lon": -77.0318085, "is_reserved": 0, "is_disabled": 0, "type": "electric_scooter", "lat": 38.90015116666667, "rental_uris": {"ios": "https://dc.lft.to/lastmile_qr_scan", "android": "https://dc.lft.to/lastmile_qr_scan"}, "fusion_lat": 0.0, "fusion_lon": 0.0, "bike_id": "26b44a645572d623b34abc7a20abd7ee", "name": "26b44a645572d623b34abc7a20abd7ee"}, {"lon": -77.03017333333334, "is_reserved": 0, "is_disabled": 0, "type": "electric_scooter", "lat": 38.92665916666667, "rental_uris": {"ios": "https://dc.lft.to/lastmile_qr_scan", "android": "https://dc.lft.to/lastmile_qr_scan"}, "fusion_lat": 0.0, "fusion_lon": 0.0, "bike_id": "bffaa316c94b34fe5840b1acb797705a", "name": "bffaa316c94b34fe5840b1acb797705a"}, {"lon": -77.122616, "is_reserved": 0, "is_disabled": 0, "type": "electric_bike", "lat": 38.8876615, "rental_uris": {"ios": "https://dc.lft.to/lastmile_qr_scan", "android": "https://dc.lft.to/lastmile_qr_scan"}, "fusion_lat": 0.0, "fusion_lon": 0.0, "bike_id": "72830258662470866e93a52bf2234389", "name": "72830258662470866e93a52bf2234389"}, {"lon": -77.04597483333333, "is_reserved": 0, "is_disabled": 0, "type": "electric_scooter", "lat": 38.902635, "rental_uris": {"ios": "https://dc.lft.to/lastmile_qr_scan", "android": "https://dc.lft.to/lastmile_qr_scan"}, "fusion_lat": 0.0, "fusion_lon": 0.0, "bike_id": "6fe275df44c8535e66fc6a62ddeaca86", "name": "6fe275df44c8535e66fc6a62ddeaca86"}, {"lon": -77.04238433333333, "is_reserved": 0, "is_disabled": 0, "type": "electric_scooter", "lat": 38.92226733333333, "rental_uris": {"ios": "https://dc.lft.to/lastmile_qr_scan", "android": "https://dc.lft.to/lastmile_qr_scan"}, "fusion_lat": 0.0, "fusion_lon": 0.0, "bike_id": "194bbd818b37e5f1c25a25f533a3c6da", "name": "194bbd818b37e5f1c25a25f533a3c6da"}, {"lon": -77.03646233333333, "is_reserved": 0, "is_disabled": 0, "type": "electric_scooter", "lat": 38.91842066666667, "rental_uris": {"ios": "https://dc.lft.to/lastmile_qr_scan", "android": "https://dc.lft.to/lastmile_qr_scan"}, "fusion_lat": 0.0, "fusion_lon": 0.0, "bike_id": "9d5e5e14fd7f0112634adb9df80c3e5f", "name": "9d5e5e14fd7f0112634adb9df80c3e5f"}, {"lon": -77.0487545, "is_reserved": 0, "is_disabled": 0, "type": "electric_scooter", "lat": 38.912015, "rental_uris": {"ios": "https://dc.lft.to/lastmile_qr_scan", "android": "https://dc.lft.to/lastmile_qr_scan"}, "fusion_lat": 0.0, "fusion_lon": 0.0, "bike_id": "b6e01f56be8a8aef2354082a971ac074", "name": "b6e01f56be8a8aef2354082a971ac074"}, {"lon": -77.05921916666667, "is_reserved": 0, "is_disabled": 0, "type": "electric_scooter", "lat": 38.900817833333335, "rental_uris": {"ios": "https://dc.lft.to/lastmile_qr_scan", "android": "https://dc.lft.to/lastmile_qr_scan"}, "fusion_lat": 0.0, "fusion_lon": 0.0, "bike_id": "aaecd1568f4fb2ae355fc33ccee0db9d", "name": "aaecd1568f4fb2ae355fc33ccee0db9d"}, {"lon": -76.98465783333333, "is_reserved": 0, "is_disabled": 0, "type": "electric_scooter", "lat": 38.89355883333333, "rental_uris": {"ios": "https://dc.lft.to/lastmile_qr_scan", "android": "https://dc.lft.to/lastmile_qr_scan"}, "fusion_lat": 0.0, "fusion_lon": 0.0, "bike_id": "422282b7990b343d297f33b727c55ec5", "name": "422282b7990b343d297f33b727c55ec5"}, {"lon": -76.9502525, "is_reserved": 0, "is_disabled": 0, "type": "electric_scooter", "lat": 38.9072295, "rental_uris": {"ios": "https://dc.lft.to/lastmile_qr_scan", "android": "https://dc.lft.to/lastmile_qr_scan"}, "fusion_lat": 0.0, "fusion_lon": 0.0, "bike_id": "4e71c4741efa25e9798117e6781eb0fd", "name": "4e71c4741efa25e9798117e6781eb0fd"}, {"lon": -77.059248, "is_reserved": 0, "is_disabled": 0, "type": "electric_scooter", "lat": 38.93661016666667, "rental_uris": {"ios": "https://dc.lft.to/lastmile_qr_scan", "android": "https://dc.lft.to/lastmile_qr_scan"}, "fusion_lat": 0.0, "fusion_lon": 0.0, "bike_id": "c3779abc5306488d6e7812c30ffb3553", "name": "c3779abc5306488d6e7812c30ffb3553"}, {"lon": -77.0347255, "is_reserved": 0, "is_disabled": 0, "type": "electric_scooter", "lat": 38.90358466666667, "rental_uris": {"ios": "https://dc.lft.to/lastmile_qr_scan", "android": "https://dc.lft.to/lastmile_qr_scan"}, "fusion_lat": 0.0, "fusion_lon": 0.0, "bike_id": "8f2e4301f7ffc49337e73cb12a0517f2", "name": "8f2e4301f7ffc49337e73cb12a0517f2"}, {"lon": -76.99697216666667, "is_reserved": 0, "is_disabled": 0, "type": "electric_scooter", "lat": 38.8841735, "rental_uris": {"ios": "https://dc.lft.to/lastmile_qr_scan", "android": "https://dc.lft.to/lastmile_qr_scan"}, "fusion_lat": 0.0, "fusion_lon": 0.0, "bike_id": "5f9db8a3d235708446b4d9952921512b", "name": "5f9db8a3d235708446b4d9952921512b"}, {"lon": -77.03987866666667, "is_reserved": 0, "is_disabled": 0, "type": "electric_scooter", "lat": 38.91627283333333, "rental_uris": {"ios": "https://dc.lft.to/lastmile_qr_scan", "android": "https://dc.lft.to/lastmile_qr_scan"}, "fusion_lat": 0.0, "fusion_lon": 0.0, "bike_id": "1ee71023dfb41cbb6c55f45189aa3be5", "name": "1ee71023dfb41cbb6c55f45189aa3be5"}, {"lon": -77.02232516666666, "is_reserved": 0, "is_disabled": 0, "type": "electric_scooter", "lat": 38.914141, "rental_uris": {"ios": "https://dc.lft.to/lastmile_qr_scan", "android": "https://dc.lft.to/lastmile_qr_scan"}, "fusion_lat": 0.0, "fusion_lon": 0.0, "bike_id": "b44447d11733e002af695e5d3edf2909", "name": "b44447d11733e002af695e5d3edf2909"}, {"lon": -77.03966916666667, "is_reserved": 0, "is_disabled": 0, "type": "electric_scooter", "lat": 38.91981216666667, "rental_uris": {"ios": "https://dc.lft.to/lastmile_qr_scan", "android": "https://dc.lft.to/lastmile_qr_scan"}, "fusion_lat": 0.0, "fusion_lon": 0.0, "bike_id": "835feaa9ba4c1a1b6368c21fbfdb675f", "name": "835feaa9ba4c1a1b6368c21fbfdb675f"}, {"lon": -76.99019283333334, "is_reserved": 0, "is_disabled": 0, "type": "electric_scooter", "lat": 38.905001, "rental_uris": {"ios": "https://dc.lft.to/lastmile_qr_scan", "android": "https://dc.lft.to/lastmile_qr_scan"}, "fusion_lat": 0.0, "fusion_lon": 0.0, "bike_id": "becabac566de43dc614201d9ac6fcd5b", "name": "becabac566de43dc614201d9ac6fcd5b"}, {"lon": -77.03748233333333, "is_reserved": 0, "is_disabled": 0, "type": "electric_scooter", "lat": 38.9034655, "rental_uris": {"ios": "https://dc.lft.to/lastmile_qr_scan", "android": "https://dc.lft.to/lastmile_qr_scan"}, "fusion_lat": 0.0, "fusion_lon": 0.0, "bike_id": "3c60f516259d83b91b79092ae02f574b", "name": "3c60f516259d83b91b79092ae02f574b"}, {"lon": -76.99632216666667, "is_reserved": 0, "is_disabled": 0, "type": "electric_scooter", "lat": 38.88610083333333, "rental_uris": {"ios": "https://dc.lft.to/lastmile_qr_scan", "android": "https://dc.lft.to/lastmile_qr_scan"}, "fusion_lat": 0.0, "fusion_lon": 0.0, "bike_id": "a8bf832996ba49ccb7f346e5580650e1", "name": "a8bf832996ba49ccb7f346e5580650e1"}, {"lon": -76.99374816666666, "is_reserved": 0, "is_disabled": 0, "type": "electric_scooter", "lat": 38.900529, "rental_uris": {"ios": "https://dc.lft.to/lastmile_qr_scan", "android": "https://dc.lft.to/lastmile_qr_scan"}, "fusion_lat": 0.0, "fusion_lon": 0.0, "bike_id": "902f3aaed41866ee828095a037afeb2d", "name": "902f3aaed41866ee828095a037afeb2d"}, {"lon": -77.03991066666667, "is_reserved": 0, "is_disabled": 0, "type": "electric_scooter", "lat": 38.89353416666667, "rental_uris": {"ios": "https://dc.lft.to/lastmile_qr_scan", "android": "https://dc.lft.to/lastmile_qr_scan"}, "fusion_lat": 0.0, "fusion_lon": 0.0, "bike_id": "cdf2d89b84b58f5b3986013e02523ebb", "name": "cdf2d89b84b58f5b3986013e02523ebb"}, {"lon": -77.0203425, "is_reserved": 0, "is_disabled": 0, "type": "electric_scooter", "lat": 38.8927035, "rental_uris": {"ios": "https://dc.lft.to/lastmile_qr_scan", "android": "https://dc.lft.to/lastmile_qr_scan"}, "fusion_lat": 0.0, "fusion_lon": 0.0, "bike_id": "306f8a21e0cdf067d0eeb862185201fd", "name": "306f8a21e0cdf067d0eeb862185201fd"}, {"lon": -77.029802, "is_reserved": 0, "is_disabled": 0, "type": "electric_scooter", "lat": 38.92454983333333, "rental_uris": {"ios": "https://dc.lft.to/lastmile_qr_scan", "android": "https://dc.lft.to/lastmile_qr_scan"}, "fusion_lat": 0.0, "fusion_lon": 0.0, "bike_id": "778e6ce730747fb864b629ee82bd519e", "name": "778e6ce730747fb864b629ee82bd519e"}, {"lon": -76.94785166666666, "is_reserved": 0, "is_disabled": 0, "type": "electric_bike", "lat": 38.896418, "rental_uris": {"ios": "https://dc.lft.to/lastmile_qr_scan", "android": "https://dc.lft.to/lastmile_qr_scan"},