{"data": {"bikes": [{"bike_id": "2ab5278c9c699ce0abc51267c3c50798", "type": "electric_scooter", "is_disabled": 0, "lat": 38.92656983333333, "rental_uris": {"ios": "https://dc.lft.to/lastmile_qr_scan", "android": "https://dc.lft.to/lastmile_qr_scan"}, "is_reserved": 0, "fusion_lon": 0.0, "fusion_lat": 0.0, "lon": -77.03727666666667, "name": "2ab5278c9c699ce0abc51267c3c50798"}, {"bike_id": "3d806f9a6ae5706b03546bbe86ff1961", "type": "electric_scooter", "is_disabled": 0, "lat": 38.92868933333333, "rental_uris": {"ios": "https://dc.lft.to/lastmile_qr_scan", "android": "https://dc.lft.to/lastmile_qr_scan"}, "is_reserved": 0, "fusion_lon": 0.0, "fusion_lat": 0.0, "lon": -77.03220833333333, "name": "3d806f9a6ae5706b03546bbe86ff1961"}, {"bike_id": "9273622fc30f68124272a17feeaeb3e4", "type": "electric_scooter", "is_disabled": 0, "lat": 38.914187, "rental_uris": {"ios": "https://dc.lft.to/lastmile_qr_scan", "android": "https://dc.lft.to/lastmile_qr_scan"}, "is_reserved": 0, "fusion_lon": 0.0, "fusion_lat": 0.0, "lon": -77.02251316666667, "name": "9273622fc30f68124272a17feeaeb3e4"}, {"bike_id": "92a39b6619b12d1900d39bf63e55a55c", "type": "electric_scooter", "is_disabled": 0, "lat": 38.9002265, "rental_uris": {"ios": "https://dc.lft.to/lastmile_qr_scan", "android": "https://dc.lft.to/lastmile_qr_scan"}, "is_reserved": 0, "fusion_lon": 0.0, "fusion_lat": 0.0, "lon": -77.021929, "name": "92a39b6619b12d1900d39bf63e55a55c"}, {"bike_id": "0f4f67ec491ee903d52baf3132d75df7", "type": "electric_scooter", "is_disabled": 0, "lat": 38.9258355, "rental_uris": {"ios": "https://dc.lft.to/lastmile_qr_scan", "android": "https://dc.lft.to/lastmile_qr_scan"}, "is_reserved": 0, "fusion_lon": 0.0, "fusion_lat": 0.0, "lon": -77.02759183333333, "name": "0f4f67ec491ee903d52baf3132d75df7"}, {"bike_id": "d95ce885bfa390fa5f41b9b4fb5ebd49", "type": "electric_scooter", "is_disabled": 0, "lat": 38.917081333333336, "rental_uris": {"ios": "https://dc.lft.to/lastmile_qr_scan", "android": "https://dc.lft.to/lastmile_qr_scan"}, "is_reserved": 0, "fusion_lon": 0.0, "fusion_lat": 0.0, "lon": -77.00794533333334, "name": "d95ce885bfa390fa5f41b9b4fb5ebd49"}, {"bike_id": "40976c13b8aa22ae648d009a105d2338", "type": "electric_scooter", "is_disabled": 0, "lat": 38.922649666666665, "rental_uris": {"ios": "https://dc.lft.to/lastmile_qr_scan", "android": "https://dc.lft.to/lastmile_qr_scan"}, "is_reserved": 0, "fusion_lon": 0.0, "fusion_lat": 0.0, "lon": -77.03259133333333, "name": "40976c13b8aa22ae648d009a105d2338"}, {"bike_id": "69e12349340f8061d84f545b494afd1e", "type": "electric_scooter", "is_disabled": 0, "lat": 38.93027816666667, "rental_uris": {"ios": "https://dc.lft.to/lastmile_qr_scan", "android": "https://dc.lft.to/lastmile_qr_scan"}, "is_reserved": 0, "fusion_lon": 0.0, "fusion_lat": 0.0, "lon": -77.03802983333334, "name": "69e12349340f8061d84f545b494afd1e"}, {"bike_id": "383da30a1b9f4870150c976c58cc730d", "type": "electric_scooter", "is_disabled": 0, "lat": 38.9178935, "rental_uris": {"ios": "https://dc.lft.to/lastmile_qr_scan", "android": "https://dc.lft.to/lastmile_qr_scan"}, "is_reserved": 0, "fusion_lon": 0.0, "fusion_lat": 0.0, "lon": -77.02310366666667, "name": "383da30a1b9f4870150c976c58cc730d"}, {"bike_id": "9155b95f04d8bc7fa21081fdf415911d", "type": "electric_scooter", "is_disabled": 0, "lat": 38.9026345, "rental_uris": {"ios": "https://dc.lft.to/lastmile_qr_scan", "android": "https://dc.lft.to/lastmile_qr_scan"}, "is_reserved": 0, "fusion_lon": 0.0, "fusion_lat": 0.0, "lon": -77.01838283333333, "name": "9155b95f04d8bc7fa21081fdf415911d"}, {"bike_id": "556400162e15b4f84e2469c4867407e6", "type": "electric_scooter", "is_disabled": 0, "lat": 38.91612766666667, "rental_uris": {"ios": "https://dc.lft.to/lastmile_qr_scan", "android": "https://dc.lft.to/lastmile_qr_scan"}, "is_reserved": 0, "fusion_lon": 0.0, "fusion_lat": 0.0, "lon": -77.04861916666667, "name": "556400162e15b4f84e2469c4867407e6"}, {"bike_id": "a2d9618b901a9d5b5cb3199a3ca9df5c", "type": "electric_bike", "is_disabled": 0, "lat": 38.836081166666666, "rental_uris": {"ios": "https://dc.lft.to/lastmile_qr_scan", "android": "https://dc.lft.to/lastmile_qr_scan"}, "is_reserved": 0, "fusion_lon": 0.0, "fusion_lat": 0.0, "lon": -77.00384, "name": "a2d9618b901a9d5b5cb3199a3ca9df5c"}, {"bike_id": "7fdf14bc3376141aba3672d87882a18a", "type": "electric_scooter", "is_disabled": 0, "lat": 38.91862866666666, "rental_uris": {"ios": "https://dc.lft.to/lastmile_qr_scan", "android": "https://dc.lft.to/lastmile_qr_scan"}, "is_reserved": 0, "fusion_lon": 0.0, "fusion_lat": 0.0, "lon": -77.028016, "name": "7fdf14bc3376141aba3672d87882a18a"}, {"bike_id": "67d3d463421afd54c626acc060bfabdc", "type": "electric_bike", "is_disabled": 0, "lat": 38.871413833333335, "rental_uris": {"ios": "https://dc.lft.to/lastmile_qr_scan", "android": "https://dc.lft.to/lastmile_qr_scan"}, "is_reserved": 0, "fusion_lon": 0.0, "fusion_lat": 0.0, "lon": -77.1002845, "name": "67d3d463421afd54c626acc060bfabdc"}, {"bike_id": "8e0711af1b4256e443faaddf4e0c84ca", "type": "electric_scooter", "is_disabled": 0, "lat": 38.909591, "rental_uris": {"ios": "https://dc.lft.to/lastmile_qr_scan", "android": "https://dc.lft.to/lastmile_qr_scan"}, "is_reserved": 0, "fusion_lon": 0.0, "fusion_lat": 0.0, "lon": -77.0238315, "name": "8e0711af1b4256e443faaddf4e0c84ca"}, {"bike_id": "f7d088ab92d568f75c5116cd12dae80b", "type": "electric_scooter", "is_disabled": 0, "lat": 38.89625616666667, "rental_uris": {"ios": "https://dc.lft.to/lastmile_qr_scan", "android": "https://dc.lft.to/lastmile_qr_scan"}, "is_reserved": 0, "fusion_lon": 0.0, "fusion_lat": 0.0, "lon": -77.0002385, "name": "f7d088ab92d568f75c5116cd12dae80b"}, {"bike_id": "4fba0ef6a8474440b279ea729b705b09", "type": "electric_scooter", "is_disabled": 0, "lat": 38.89256433333333, "rental_uris": {"ios": "https://dc.lft.to/lastmile_qr_scan", "android": "https://dc.lft.to/lastmile_qr_scan"}, "is_reserved": 0, "fusion_lon": 0.0, "fusion_lat": 0.0, "lon": -77.0334555, "name": "4fba0ef6a8474440b279ea729b705b09"}, {"bike_id": "5f5dbb6dffdd765eb03c4580dd191930", "type": "electric_scooter", "is_disabled": 0, "lat": 38.908444333333335, "rental_uris": {"ios": "https://dc.lft.to/lastmile_qr_scan", "android": "https://dc.lft.to/lastmile_qr_scan"}, "is_reserved": 0, "fusion_lon": 0.0, "fusion_lat": 0.0, "lon": -77.04356966666667, "name": "5f5dbb6dffdd765eb03c4580dd191930"}, {"bike_id": "aac35ee71b45de9923956adf840e7758", "type": "electric_bike", "is_disabled": 0, "lat": 38.89220866666667, "rental_uris": {"ios": "https://dc.lft.to/lastmile_qr_scan", "android": "https://dc.lft.to/lastmile_qr_scan"}, "is_reserved": 0, "fusion_lon": 0.0, "fusion_lat": 0.0, "lon": -76.97082716666667, "name": "aac35ee71b45de9923956adf840e7758"}, {"bike_id": "1ad7fd9067868eb21ea743198b5e0ba3", "type": "electric_scooter", "is_disabled": 0, "lat": 38.9718075, "rental_uris": {"ios": "https://dc.lft.to/lastmile_qr_scan", "android": "https://dc.lft.to/lastmile_qr_scan"}, "is_reserved": 0, "fusion_lon": 0.0, "fusion_lat": 0.0, "lon": -77.02590783333333, "name": "1ad7fd9067868eb21ea743198b5e0ba3"}, {"bike_id": "7d6b1e584e95013a6e57e8d428a37a9e", "type": "electric_scooter", "is_disabled": 0, "lat": 38.935397, "rental_uris": {"ios": "https://dc.lft.to/lastmile_qr_scan", "android": "https://dc.lft.to/lastmile_qr_scan"}, "is_reserved": 0, "fusion_lon": 0.0, "fusion_lat": 0.0, "lon": -77.05824316666667, "name": "7d6b1e584e95013a6e57e8d428a37a9e"}, {"bike_id": "e161c2acfb72c50560dfdf6ccf1a6c03", "type": "electric_scooter", "is_disabled": 0, "lat": 38.9165485, "rental_uris": {"ios": "https://dc.lft.to/lastmile_qr_scan", "android": "https://dc.lft.to/lastmile_qr_scan"}, "is_reserved": 0, "fusion_lon": 0.0, "fusion_lat": 0.0, "lon": -77.031785, "name": "e161c2acfb72c50560dfdf6ccf1a6c03"}, {"bike_id": "d26326944de5496603a78bd318da3c12", "type": "electric_scooter", "is_disabled": 0, "lat": 38.905446, "rental_uris": {"ios": "https://dc.lft.to/lastmile_qr_scan", "android": "https://dc.lft.to/lastmile_qr_scan"}, "is_reserved": 0, "fusion_lon": 0.0, "fusion_lat": 0.0, "lon": -77.05010933333334, "name": "d26326944de5496603a78bd318da3c12"}, {"bike_id": "48b5bb91de484afdec3efc00e785dc8d", "type": "electric_scooter", "is_disabled": 0, "lat": 38.89350483333333, "rental_uris": {"ios": "https://dc.lft.to/lastmile_qr_scan", "android": "https://dc.lft.to/lastmile_qr_scan"}, "is_reserved": 0, "fusion_lon": 0.0, "fusion_lat": 0.0, "lon": -77.02406816666667, "name": "48b5bb91de484afdec3efc00e785dc8d"}, {"bike_id": "fb7774cc1bf518f2788fbd122af7298d", "type": "electric_scooter", "is_disabled": 0, "lat": 38.93871516666667, "rental_uris": {"ios": "https://dc.lft.to/lastmile_qr_scan", "android": "https://dc.lft.to/lastmile_qr_scan"}, "is_reserved": 0, "fusion_lon": 0.0, "fusion_lat": 0.0, "lon": -77.029193, "name": "fb7774cc1bf518f2788fbd122af7298d"}, {"bike_id": "904c84d55971dc79c0aac87b2e9b2723", "type": "electric_bike", "is_disabled": 0, "lat": 38.95593616666667, "rental_uris": {"ios": "https://dc.lft.to/lastmile_qr_scan", "android": "https://dc.lft.to/lastmile_qr_scan"}, "is_reserved": 0, "fusion_lon": 0.0, "fusion_lat": 0.0, "lon": -77.0879775, "name": "904c84d55971dc79c0aac87b2e9b2723"}, {"bike_id": "7e284130fee00ad331aaa15f6a9dbc93", "type": "electric_bike", "is_disabled": 0, "lat": 38.95252033333333, "rental_uris": {"ios": "https://dc.lft.to/lastmile_qr_scan", "android": "https://dc.lft.to/lastmile_qr_scan"}, "is_reserved": 0, "fusion_lon": 0.0, "fusion_lat": 0.0, "lon": -76.9767515, "name": "7e284130fee00ad331aaa15f6a9dbc93"}, {"bike_id": "d9334d626d8f97e1dd10f236892b747b", "type": "electric_scooter", "is_disabled": 0, "lat": 38.91112416666667, "rental_uris": {"ios": "https://dc.lft.to/lastmile_qr_scan", "android": "https://dc.lft.to/lastmile_qr_scan"}, "is_reserved": 0, "fusion_lon": 0.0, "fusion_lat": 0.0, "lon": -77.03917483333333, "name": "d9334d626d8f97e1dd10f236892b747b"}, {"bike_id": "ea2b0cc8f8f81e0576b0c1a553b7f3eb", "type": "electric_scooter", "is_disabled": 0, "lat": 38.917177833333334, "rental_uris": {"ios": "https://dc.lft.to/lastmile_qr_scan", "android": "https://dc.lft.to/lastmile_qr_scan"}, "is_reserved": 0, "fusion_lon": 0.0, "fusion_lat": 0.0, "lon": -77.03464016666666, "name": "ea2b0cc8f8f81e0576b0c1a553b7f3eb"}, {"bike_id": "ee147a2b09770d664554011770d62c22", "type": "electric_scooter", "is_disabled": 0, "lat": 38.935306, "rental_uris": {"ios": "https://dc.lft.to/lastmile_qr_scan", "android": "https://dc.lft.to/lastmile_qr_scan"}, "is_reserved": 0, "fusion_lon": 0.0, "fusion_lat": 0.0, "lon": -77.02964466666667, "name": "ee147a2b09770d664554011770d62c22"}, {"bike_id": "5da1422d8c38569127094e9212ec462d", "type": "electric_scooter", "is_disabled": 0, "lat": 38.90649116666667, "rental_uris": {"ios": "https://dc.lft.to/lastmile_qr_scan", "android": "https://dc.lft.to/lastmile_qr_scan"}, "is_reserved": 0, "fusion_lon": 0.0, "fusion_lat": 0.0, "lon": -77.00997866666667, "name": "5da1422d8c38569127094e9212ec462d"}, {"bike_id": "da5abb372a9b91f4c9f07af74cbe9b36", "type": "electric_bike", "is_disabled": 0, "lat": 38.87277783333333, "rental_uris": {"ios": "https://dc.lft.to/lastmile_qr_scan", "android": "https://dc.lft.to/lastmile_qr_scan"}, "is_reserved": 0, "fusion_lon": 0.0, "fusion_lat": 0.0, "lon": -77.23323866666667, "name": "da5abb372a9b91f4c9f07af74cbe9b36"}, {"bike_id": "aeffbc0d7acaf3a8b703311c179fc9a8", "type": "electric_bike", "is_disabled": 0, "lat": 38.96463266666667, "rental_uris": {"ios": "https://dc.lft.to/lastmile_qr_scan", "android": "https://dc.lft.to/lastmile_qr_scan"}, "is_reserved": 0, "fusion_lon": 0.0, "fusion_lat": 0.0, "lon": -77.03567866666667, "name": "aeffbc0d7acaf3a8b703311c179fc9a8"}, {"bike_id": "146d8ad84da811cdbdb94f474889467f", "type": "electric_scooter", "is_disabled": 0, "lat": 38.885679, "rental_uris": {"ios": "https://dc.lft.to/lastmile_qr_scan", "android": "https://dc.lft.to/lastmile_qr_scan"}, "is_reserved": 0, "fusion_lon": 0.0, "fusion_lat": 0.0, "lon": -77.0021185, "name": "146d8ad84da811cdbdb94f474889467f"}, {"bike_id": "686fc117b00df890229ae235095117e8", "type": "electric_scooter", "is_disabled": 0, "lat": 38.9047775, "rental_uris": {"ios": "https://dc.lft.to/lastmile_qr_scan", "android": "https://dc.lft.to/lastmile_qr_scan"}, "is_reserved": 0, "fusion_lon": 0.0, "fusion_lat": 0.0, "lon": -77.00717016666667, "name": "686fc117b00df890229ae235095117e8"}, {"bike_id": "6f0ec270c12b0a388aa698de0ef3b74f", "type": "electric_scooter", "is_disabled": 0, "lat": 38.915713333333336, "rental_uris": {"ios": "https://dc.lft.to/lastmile_qr_scan", "android": "https://dc.lft.to/lastmile_qr_scan"}, "is_reserved": 0, "fusion_lon": 0.0, "fusion_lat": 0.0, "lon": -77.04113333333333, "name": "6f0ec270c12b0a388aa698de0ef3b74f"}, {"bike_id": "42c1b38b1a8be1cb0d35d73212d02b01", "type": "electric_scooter", "is_disabled": 0, "lat": 38.900878, "rental_uris": {"ios": "https://dc.lft.to/lastmile_qr_scan", "android": "https://dc.lft.to/lastmile_qr_scan"}, "is_reserved": 0, "fusion_lon": 0.0, "fusion_lat": 0.0, "lon": -77.04753266666667, "name": "42c1b38b1a8be1cb0d35d73212d02b01"}, {"bike_id": "05fa445269bfa61105507b55efc5bf1e", "type": "electric_scooter", "is_disabled": 0, "lat": 38.94297733333333, "rental_uris": {"ios": "https://dc.lft.to/lastmile_qr_scan", "android": "https://dc.lft.to/lastmile_qr_scan"}, "is_reserved": 0, "fusion_lon": 0.0, "fusion_lat": 0.0, "lon": -77.0217275, "name": "05fa445269bfa61105507b55efc5bf1e"}, {"bike_id": "6b3fdf0242617cbb02a9cc947773e935", "type": "electric_scooter", "is_disabled": 0, "lat": 38.91767, "rental_uris": {"ios": "https://dc.lft.to/lastmile_qr_scan", "android": "https://dc.lft.to/lastmile_qr_scan"}, "is_reserved": 0, "fusion_lon": 0.0, "fusion_lat": 0.0, "lon": -77.022972, "name": "6b3fdf0242617cbb02a9cc947773e935"}, {"bike_id": "9de2b341346bac701956c6c2de1588c9", "type": "electric_scooter", "is_disabled": 0, "lat": 38.91746116666667, "rental_uris": {"ios": "https://dc.lft.to/lastmile_qr_scan", "android": "https://dc.lft.to/lastmile_qr_scan"}, "is_reserved": 0, "fusion_lon": 0.0, "fusion_lat": 0.0, "lon": -77.0171005, "name": "9de2b341346bac701956c6c2de1588c9"}, {"bike_id": "456aca5ba01a1c0c505b92007f618910", "type": "electric_scooter", "is_disabled": 0, "lat": 38.927169666666664, "rental_uris": {"ios": "https://dc.lft.to/lastmile_qr_scan", "android": "https://dc.lft.to/lastmile_qr_scan"}, "is_reserved": 0, "fusion_lon": 0.0, "fusion_lat": 0.0, "lon": -77.03996083333334, "name": "456aca5ba01a1c0c505b92007f618910"}, {"bike_id": "6ff00d193fd2c6fde871e68026034dba", "type": "electric_scooter", "is_disabled": 0, "lat": 38.9082605, "rental_uris": {"ios": "https://dc.lft.to/lastmile_qr_scan", "android": "https://dc.lft.to/lastmile_qr_scan"}, "is_reserved": 0, "fusion_lon": 0.0, "fusion_lat": 0.0, "lon": -76.9415805, "name": "6ff00d193fd2c6fde871e68026034dba"}, {"bike_id": "cded88d474c42c399799e395db209728", "type": "electric_scooter", "is_disabled": 0, "lat": 38.91379933333333, "rental_uris": {"ios": "https://dc.lft.to/lastmile_qr_scan", "android": "https://dc.lft.to/lastmile_qr_scan"}, "is_reserved": 0, "fusion_lon": 0.0, "fusion_lat": 0.0, "lon": -77.0413785, "name": "cded88d474c42c399799e395db209728"}, {"bike_id": "7f3572476a964b4be0684ff3eb141c0f", "type": "electric_scooter", "is_disabled": 0, "lat": 38.93308533333333, "rental_uris": {"ios": "https://dc.lft.to/lastmile_qr_scan", "android": "https://dc.lft.to/lastmile_qr_scan"}, "is_reserved": 0, "fusion_lon": 0.0, "fusion_lat": 0.0, "lon": -77.02158, "name": "7f3572476a964b4be0684ff3eb141c0f"}, {"bike_id": "3e8667a86a99322630a16cce6abb3b2f", "type": "electric_scooter", "is_disabled": 0, "lat": 38.911543333333334, "rental_uris": {"ios": "https://dc.lft.to/lastmile_qr_scan", "android": "https://dc.lft.to/lastmile_qr_scan"}, "is_reserved": 0, "fusion_lon": 0.0, "fusion_lat": 0.0, "lon": -77.02284933333334, "name": "3e8667a86a99322630a16cce6abb3b2f"}, {"bike_id": "f289414ab9a2a37772dada0a6e7ee919", "type": "electric_scooter", "is_disabled": 0, "lat": 38.90064533333333, "rental_uris": {"ios": "https://dc.lft.to/lastmile_qr_scan", "android": "https://dc.lft.to/lastmile_qr_scan"}, "is_reserved": 0, "fusion_lon": 0.0, "fusion_lat": 0.0, "lon": -76.92744433333333, "name": "f289414ab9a2a37772dada0a6e7ee919"}, {"bike_id": "8070a47a89092ae6b60956db60d551b9", "type": "electric_scooter", "is_disabled": 0, "lat": 38.9640725, "rental_uris": {"ios": "https://dc.lft.to/lastmile_qr_scan", "android": "https://dc.lft.to/lastmile_qr_scan"}, "is_reserved": 0, "fusion_lon": 0.0, "fusion_lat": 0.0, "lon": -77.02767216666666, "name": "8070a47a89092ae6b60956db60d551b9"}, {"bike_id": "262eb47ecadf26fba68828d5f8f831e8", "type": "electric_bike", "is_disabled": 0, "lat": 39.02685533333333, "rental_uris": {"ios": "https://dc.lft.to/lastmile_qr_scan", "android": "https://dc.lft.to/lastmile_qr_scan"}, "is_reserved": 0, "fusion_lon": 0.0, "fusion_lat": 0.0, "lon": -77.02600183333334, "name": "262eb47ecadf26fba68828d5f8f831e8"}, {"bike_id": "aeaaf6ee7ccc83b0e750ed08a4d405a1", "type": "electric_scooter", "is_disabled": 0, "lat": 38.900082166666664, "rental_uris": {"ios": "https://dc.lft.to/lastmile_qr_scan", "android": "https://dc.lft.to/lastmile_qr_scan"}, "is_reserved": 0, "fusion_lon": 0.0, "fusion_lat": 0.0, "lon": -77.02410883333333, "name": "aeaaf6ee7ccc83b0e750ed08a4d405a1"}, {"bike_id": "4013d80a7cfed1813e8af938e547a0a1", "type": "electric_bike", "is_disabled": 0, "lat": 38.905122166666665, "rental_uris": {"ios": "https://dc.lft.to/lastmile_qr_scan", "android": "https://dc.lft.to/lastmile_qr_scan"}, "is_reserved": 0, "fusion_lon": 0.0, "fusion_lat": 0.0, "lon": -76.987257, "name": "4013d80a7cfed1813e8af938e547a0a1"}, {"bike_id": "a27df8657385a2391a87467fab4797e6", "type": "electric_scooter", "is_disabled": 0, "lat": 38.910418166666666, "rental_uris": {"ios": "https://dc.lft.to/lastmile_qr_scan", "android": "https://dc.lft.to/lastmile_qr_scan"}, "is_reserved": 0, "fusion_lon": 0.0, "fusion_lat": 0.0, "lon": -77.07350483333333, "name": "a27df8657385a2391a87467fab4797e6"}, {"bike_id": "87e1ef516e1bf9f74f3fa634f5824e2a", "type": "electric_scooter", "is_disabled": 0, "lat": 38.894915833333336, "rental_uris": {"ios": "https://dc.lft.to/lastmile_qr_scan", "android": "https://dc.lft.to/lastmile_qr_scan"}, "is_reserved": 0, "fusion_lon": 0.0, "fusion_lat": 0.0, "lon": -77.0217245, "name": "87e1ef516e1bf9f74f3fa634f5824e2a"}, {"bike_id": "adf5976722f1da8b4c504e597e04068b", "type": "electric_scooter", "is_disabled": 0, "lat": 38.91879133333333, "rental_uris": {"ios": "https://dc.lft.to/lastmile_qr_scan", "android": "https://dc.lft.to/lastmile_qr_scan"}, "is_reserved": 0, "fusion_lon": 0.0, "fusion_lat": 0.0, "lon": -77.03503533333334, "name": "adf5976722f1da8b4c504e597e04068b"}, {"bike_id": "ab238a7752bb4ca93140b6a56c083426", "type": "electric_bike", "is_disabled": 0, "lat": 38.882495, "rental_uris": {"ios": "https://dc.lft.to/lastmile_qr_scan", "android": "https://dc.lft.to/lastmile_qr_scan"}, "is_reserved": 0, "fusion_lon": 0.0, "fusion_lat": 0.0, "lon": -76.96254116666667, "name": "ab238a7752bb4ca93140b6a56c083426"}, {"bike_id": "a337b227c46d8ae20282dd7dd716925e", "type": "electric_scooter", "is_disabled": 0, "lat": 38.89954516666667, "rental_uris": {"ios": "https://dc.lft.to/lastmile_qr_scan", "android": "https://dc.lft.to/lastmile_qr_scan"}, "is_reserved": 0, "fusion_lon": 0.0, "fusion_lat": 0.0, "lon": -77.04787016666667, "name": "a337b227c46d8ae20282dd7dd716925e"}, {"bike_id": "a210204138ecf6b77a4a122594f7a046", "type": "electric_scooter", "is_disabled": 0, "lat": 38.9035495, "rental_uris": {"ios": "https://dc.lft.to/lastmile_qr_scan", "android": "https://dc.lft.to/lastmile_qr_scan"}, "is_reserved": 0, "fusion_lon": 0.0, "fusion_lat": 0.0, "lon": -77.01948333333333, "name": "a210204138ecf6b77a4a122594f7a046"}, {"bike_id": "97b1859b5acf0dcaafd514c8f14a20c1", "type": "electric_scooter", "is_disabled": 0, "lat": 38.917998, "rental_uris": {"ios": "https://dc.lft.to/lastmile_qr_scan", "android": "https://dc.lft.to/lastmile_qr_scan"}, "is_reserved": 0, "fusion_lon": 0.0, "fusion_lat": 0.0, "lon": -77.03439066666667, "name": "97b1859b5acf0dcaafd514c8f14a20c1"}, {"bike_id": "59e881b5d318327623340bb53a4cf9cb", "type": "electric_scooter", "is_disabled": 0, "lat": 38.93289983333333, "rental_uris": {"ios": "https://dc.lft.to/lastmile_qr_scan", "android": "https://dc.lft.to/lastmile_qr_scan"}, "is_reserved": 0, "fusion_lon": 0.0, "fusion_lat": 0.0, "lon": -77.03537066666667, "name": "59e881b5d318327623340bb53a4cf9cb"}, {"bike_id": "1c6c6e5470e6bbbebeb807d0fd6d4212", "type": "electric_scooter", "is_disabled": 0, "lat": 38.910554, "rental_uris": {"ios": "https://dc.lft.to/lastmile_qr_scan", "android": "https://dc.lft.to/lastmile_qr_scan"}, "is_reserved": 0, "fusion_lon": 0.0, "fusion_lat": 0.0, "lon": -77.00924766666667, "name": "1c6c6e5470e6bbbebeb807d0fd6d4212"}, {"bike_id": "8253deadc1a31efdde9cbe5ad3a734af", "type": "electric_scooter", "is_disabled": 0, "lat": 38.921562, "rental_uris": {"ios": "https://dc.lft.to/lastmile_qr_scan", "android": "https://dc.lft.to/lastmile_qr_scan"}, "is_reserved": 0, "fusion_lon": 0.0, "fusion_lat": 0.0, "lon": -77.04369433333333, "name": "8253deadc1a31efdde9cbe5ad3a734af"}, {"bike_id": "5636e1216dea9b146c5d66357224d173", "type": "electric_scooter", "is_disabled": 0, "lat": 38.87947483333333, "rental_uris": {"ios": "https://dc.lft.to/lastmile_qr_scan", "android": "https://dc.lft.to/lastmile_qr_scan"}, "is_reserved": 0, "fusion_lon": 0.0, "fusion_lat": 0.0, "lon": -77.02356466666667, "name": "5636e1216dea9b146c5d66357224d173"}, {"bike_id": "9c39603ba7b70e3c7176d8db91a9f325", "type": "electric_scooter", "is_disabled": 0, "lat": 38.91115216666667, "rental_uris": {"ios": "https://dc.lft.to/lastmile_qr_scan", "android": "https://dc.lft.to/lastmile_qr_scan"}, "is_reserved": 0, "fusion_lon": 0.0, "fusion_lat": 0.0, "lon": -77.038293, "name": "9c39603ba7b70e3c7176d8db91a9f325"}, {"bike_id": "035733d1235854b1a87289e0d9e98689", "type": "electric_scooter", "is_disabled": 0, "lat": 38.86201116666667, "rental_uris": {"ios": "https://dc.lft.to/lastmile_qr_scan", "android": "https://dc.lft.to/lastmile_qr_scan"}, "is_reserved": 0, "fusion_lon": 0.0, "fusion_lat": 0.0, "lon": -77.08809, "name": "035733d1235854b1a87289e0d9e98689"}, {"bike_id": "28f2f557d47a2f065aaa35d73b221a97", "type": "electric_scooter", "is_disabled": 0, "lat": 38.84439316666667, "rental_uris": {"ios": "https://dc.lft.to/lastmile_qr_scan", "android": "https://dc.lft.to/lastmile_qr_scan"}, "is_reserved": 0, "fusion_lon": 0.0, "fusion_lat": 0.0, "lon": -76.99777950000001, "name": "28f2f557d47a2f065aaa35d73b221a97"}, {"bike_id": "f5926137631921677b1b89383e68f91c", "type": "electric_scooter", "is_disabled": 0, "lat": 38.93866666666667, "rental_uris": {"ios": "https://dc.lft.to/lastmile_qr_scan", "android": "https://dc.lft.to/lastmile_qr_scan"}, "is_reserved": 0, "fusion_lon": 0.0, "fusion_lat": 0.0, "lon": -77.03083116666667, "name": "f5926137631921677b1b89383e68f91c"}, {"bike_id": "49f48d486b33d952166bd481134df8e1", "type": "electric_bike", "is_disabled": 0, "lat": 39.04308616666667, "rental_uris": {"ios": "https://dc.lft.to/lastmile_qr_scan", "android": "https://dc.lft.to/lastmile_qr_scan"}, "is_reserved": 0, "fusion_lon": 0.0, "fusion_lat": 0.0, "lon": -77.051579, "name": "49f48d486b33d952166bd481134df8e1"}, {"bike_id": "74c16c8175af14ec8adb9bb04b8038ad", "type": "electric_scooter", "is_disabled": 0, "lat": 38.921963833333336, "rental_uris": {"ios": "https://dc.lft.to/lastmile_qr_scan", "android": "https://dc.lft.to/lastmile_qr_scan"}, "is_reserved": 0, "fusion_lon": 0.0, "fusion_lat": 0.0, "lon": -76.99364166666666, "name": "74c16c8175af14ec8adb9bb04b8038ad"}, {"bike_id": "71ff30735951d5b4c23650a00bbf7a84", "type": "electric_scooter", "is_disabled": 0, "lat": 38.89360583333333, "rental_uris": {"ios": "https://dc.lft.to/lastmile_qr_scan", "android": "https://dc.lft.to/lastmile_qr_scan"}, "is_reserved": 0, "fusion_lon": 0.0, "fusion_lat": 0.0, "lon": -76.94931916666667, "name": "71ff30735951d5b4c23650a00bbf7a84"}, {"bike_id": "de669c9e957f377cc0818f5753b5d18c", "type": "electric_scooter", "is_disabled": 0, "lat": 38.928020833333335, "rental_uris": {"ios": "https://dc.lft.to/lastmile_qr_scan", "android": "https://dc.lft.to/lastmile_qr_scan"}, "is_reserved": 0, "fusion_lon": 0.0, "fusion_lat": 0.0, "lon": -77.03208683333334, "name": "de669c9e957f377cc0818f5753b5d18c"}, {"bike_id": "faaeaf9a41cbcdb9b0051bc9031b3726", "type": "electric_scooter", "is_disabled": 0, "lat": 38.901819, "rental_uris": {"ios": "https://dc.lft.to/lastmile_qr_scan", "android": "https://dc.lft.to/lastmile_qr_scan"}, "is_reserved": 0, "fusion_lon": 0.0, "fusion_lat": 0.0, "lon": -77.031867, "name": "faaeaf9a41cbcdb9b0051bc9031b3726"}, {"bike_id": "bf19f86fe64295f8bffe7f3cc7a2f066", "type": "electric_scooter", "is_disabled": 0, "lat": 38.900131333333334, "rental_uris": {"ios": "https://dc.lft.to/lastmile_qr_scan", "android": "https://dc.lft.to/lastmile_qr_scan"}, "is_reserved": 0, "fusion_lon": 0.0, "fusion_lat": 0.0, "lon": -76.99625083333333, "name": "bf19f86fe64295f8bffe7f3cc7a2f066"}, {"bike_id": "19581e3439446a39deff07bc26d9de53", "type": "electric_scooter", "is_disabled": 0, "lat": 38.90279783333333, "rental_uris": {"ios": "https://dc.lft.to/lastmile_qr_scan", "android": "https://dc.lft.to/lastmile_qr_scan"}, "is_reserved": 0, "fusion_lon": 0.0, "fusion_lat": 0.0, "lon": -77.018701, "name": "19581e3439446a39deff07bc26d9de53"}, {"bike_id": "ac2c0c4f2cf0c954e13edaafc8a8f043", "type": "electric_scooter", "is_disabled": 0, "lat": 38.915642, "rental_uris": {"ios": "https://dc.lft.to/lastmile_qr_scan", "android": "https://dc.lft.to/lastmile_qr_scan"}, "is_reserved": 0, "fusion_lon": 0.0, "fusion_lat": 0.0, "lon": -77.031204, "name": "ac2c0c4f2cf0c954e13edaafc8a8f043"}, {"bike_id": "568d6cdf0b6bb8393717ac592052323e", "type": "electric_scooter", "is_disabled": 0, "lat": 38.91545083333333, "rental_uris": {"ios": "https://dc.lft.to/lastmile_qr_scan", "android": "https://dc.lft.to/lastmile_qr_scan"}, "is_reserved": 0, "fusion_lon": 0.0, "fusion_lat": 0.0, "lon": -76.97009966666667, "name": "568d6cdf0b6bb8393717ac592052323e"}, {"bike_id": "802563b2052f1ab3ed59d4277fcd583f", "type": "electric_bike", "is_disabled": 0, "lat": 38.82382066666667, "rental_uris": {"ios": "https://dc.lft.to/lastmile_qr_scan", "android": "https://dc.lft.to/lastmile_qr_scan"}, "is_reserved": 0, "fusion_lon": 0.0, "fusion_lat": 0.0, "lon": -77.00226416666666, "name": "802563b2052f1ab3ed59d4277fcd583f"}, {"bike_id": "5388e4a51473a63d70b1fd19f6ad9bfc", "type": "electric_scooter", "is_disabled": 0, "lat": 38.905656, "rental_uris": {"ios": "https://dc.lft.to/lastmile_qr_scan", "android": "https://dc.lft.to/lastmile_qr_scan"}, "is_reserved": 0, "fusion_lon": 0.0, "fusion_lat": 0.0, "lon": -77.028373, "name": "5388e4a51473a63d70b1fd19f6ad9bfc"}, {"bike_id": "8c1791bdf18fda85b84885aaa776c382", "type": "electric_scooter", "is_disabled": 0, "lat": 38.93280266666667, "rental_uris": {"ios": "https://dc.lft.to/lastmile_qr_scan", "android": "https://dc.lft.to/lastmile_qr_scan"}, "is_reserved": 0, "fusion_lon": 0.0, "fusion_lat": 0.0, "lon": -77.02870633333333, "name": "8c1791bdf18fda85b84885aaa776c382"}, {"bike_id": "1b10d88e1a1086437d2ea08fe5bc7137", "type": "electric_scooter", "is_disabled": 0, "lat": 38.866877, "rental_uris": {"ios": "https://dc.lft.to/lastmile_qr_scan", "android": "https://dc.lft.to/lastmile_qr_scan"}, "is_reserved": 0, "fusion_lon": 0.0, "fusion_lat": 0.0, "lon": -76.985773, "name": "1b10d88e1a1086437d2ea08fe5bc7137"}, {"bike_id": "663a18dc43dc67d901be1f12da87d85f", "type": "electric_scooter", "is_disabled": 0, "lat": 38.9207705, "rental_uris": {"ios": "https://dc.lft.to/lastmile_qr_scan", "android": "https://dc.lft.to/lastmile_qr_scan"}, "is_reserved": 0, "fusion_lon": 0.0, "fusion_lat": 0.0, "lon": -77.01455633333333, "name": "663a18dc43dc67d901be1f12da87d85f"}, {"bike_id": "182e7d724d5f3cbef0fbce2a18ab0d3c", "type": "electric_scooter", "is_disabled": 0, "lat": 38.90883983333333, "rental_uris": {"ios": "https://dc.lft.to/lastmile_qr_scan", "android": "https://dc.lft.to/lastmile_qr_scan"}, "is_reserved": 0, "fusion_lon": 0.0, "fusion_lat": 0.0, "lon": -76.99853066666667, "name": "182e7d724d5f3cbef0fbce2a18ab0d3c"}, {"bike_id": "e3399e7eb89f99d08c209bcb73677324", "type": "electric_scooter", "is_disabled": 0, "lat": 38.88493583333333, "rental_uris": {"ios": "https://dc.lft.to/lastmile_qr_scan", "android": "https://dc.lft.to/lastmile_qr_scan"}, "is_reserved": 0, "fusion_lon": 0.0, "fusion_lat": 0.0, "lon": -77.02365483333334, "name": "e3399e7eb89f99d08c209bcb73677324"}, {"bike_id": "2544626a1d7ebc8ffa70cfd7baf78c43", "type": "electric_scooter", "is_disabled": 0, "lat": 38.902604333333336, "rental_uris": {"ios": "https://dc.lft.to/lastmile_qr_scan", "android": "https://dc.lft.to/lastmile_qr_scan"}, "is_reserved": 0, "fusion_lon": 0.0, "fusion_lat": 0.0, "lon": -77.00325883333333, "name": "2544626a1d7ebc8ffa70cfd7baf78c43"}, {"bike_id": "867e441ec8cfde7889fd49a994672eca", "type": "electric_scooter", "is_disabled": 0, "lat": 38.903007, "rental_uris": {"ios": "https://dc.lft.to/lastmile_qr_scan", "android": "https://dc.lft.to/lastmile_qr_scan"}, "is_reserved": 0, "fusion_lon": 0.0, "fusion_lat": 0.0, "lon": -77.02426216666667, "name": "867e441ec8cfde7889fd49a994672eca"}, {"bike_id": "e640306d16cb93cdf4a0b9811ecf38bd", "type": "electric_scooter", "is_disabled": 0, "lat": 38.90840433333334, "rental_uris": {"ios": "https://dc.lft.to/lastmile_qr_scan", "android": "https://dc.lft.to/lastmile_qr_scan"}, "is_reserved": 0, "fusion_lon": 0.0, "fusion_lat": 0.0, "lon": -77.038707, "name": "e640306d16cb93cdf4a0b9811ecf38bd"}, {"bike_id": "9782e0a22272a2d1b33428378c6bc334", "type": "electric_scooter", "is_disabled": 0, "lat": 38.915609, "rental_uris": {"ios": "https://dc.lft.to/lastmile_qr_scan", "android": "https://dc.lft.to/lastmile_qr_scan"}, "is_reserved": 0, "fusion_lon": 0.0, "fusion_lat": 0.0, "lon": -77.0312255, "name": "9782e0a22272a2d1b33428378c6bc334"}, {"bike_id": "eb57bb27f3feb59e1f34419a79a7f8dd", "type": "electric_scooter", "is_disabled": 0, "lat": 38.913541333333335, "rental_uris": {"ios": "https://dc.lft.to/lastmile_qr_scan", "android": "https://dc.lft.to/lastmile_qr_scan"}, "is_reserved": 0, "fusion_lon": 0.0, "fusion_lat": 0.0, "lon": -77.04491183333333, "name": "eb57bb27f3feb59e1f34419a79a7f8dd"}, {"bike_id": "031ea4eb1fbe2edf293e8c8beca11644", "type": "electric_scooter", "is_disabled": 0, "lat": 38.902713, "rental_uris": {"ios": "https://dc.lft.to/lastmile_qr_scan", "android": "https://dc.lft.to/lastmile_qr_scan"}, "is_reserved": 0, "fusion_lon": 0.0, "fusion_lat": 0.0, "lon": -77.03851166666666, "name": "031ea4eb1fbe2edf293e8c8beca11644"}, {"bike_id": "798248e006f4f81d0d053ef8d9a6f4c5", "type": "electric_scooter", "is_disabled": 0, "lat": 38.872015833333336, "rental_uris": {"ios": "https://dc.lft.to/lastmile_qr_scan", "android": "https://dc.lft.to/lastmile_qr_scan"}, "is_reserved": 0, "fusion_lon": 0.0, "fusion_lat": 0.0, "lon": -77.00931966666667, "name": "798248e006f4f81d0d053ef8d9a6f4c5"}, {"bike_id": "1dda9ed59105e96c3e5082c3c20b643d", "type": "electric_bike", "is_disabled": 0, "lat": 39.062962166666665, "rental_uris": {"ios": "https://dc.lft.to/lastmile_qr_scan", "android": "https://dc.lft.to/lastmile_qr_scan"}, "is_reserved": 0, "fusion_lon": 0.0, "fusion_lat": 0.0, "lon": -77.04981083333334, "name": "1dda9ed59105e96c3e5082c3c20b643d"}, {"bike_id": "03b6a329354779e86f4f0c5148694876", "type": "electric_scooter", "is_disabled": 0, "lat": 38.901526, "rental_uris": {"ios": "https://dc.lft.to/lastmile_qr_scan", "android": "https://dc.lft.to/lastmile_qr_scan"}, "is_reserved": 0, "fusion_lon": 0.0, "fusion_lat": 0.0, "lon": -76.930581, "name": "03b6a329354779e86f4f0c5148694876"}, {"bike_id": "4063303e406a7a44c19dcf1b5a4c86a5", "type": "electric_scooter", "is_disabled": 0, "lat": 38.938892, "rental_uris": {"ios": "https://dc.lft.to/lastmile_qr_scan", "android": "https://dc.lft.to/lastmile_qr_scan"}, "is_reserved": 0, "fusion_lon": 0.0, "fusion_lat": 0.0, "lon": -77.02495, "name": "4063303e406a7a44c19dcf1b5a4c86a5"}, {"bike_id": "f5e49bd9a70be8a3f7c19354b551df59", "type": "electric_scooter", "is_disabled": 0, "lat": 38.89218366666667, "rental_uris": {"ios": "https://dc.lft.to/lastmile_qr_scan", "android": "https://dc.lft.to/lastmile_qr_scan"}, "is_reserved": 0, "fusion_lon": 0.0, "fusion_lat": 0.0, "lon": -77.0258525, "name": "f5e49bd9a70be8a3f7c19354b551df59"}, {"bike_id": "1fb4bcd7154c32b82dcade53ae7c61d2", "type": "electric_scooter", "is_disabled": 0, "lat": 38.89709083333333, "rental_uris": {"ios": "https://dc.lft.to/lastmile_qr_scan", "android": "https://dc.lft.to/lastmile_qr_scan"}, "is_reserved": 0, "fusion_lon": 0.0, "fusion_lat": 0.0, "lon": -76.930045, "name": "1fb4bcd7154c32b82dcade53ae7c61d2"}, {"bike_id": "56c5a61c2c5de31df7e0e42ecb2cdac1", "type": "electric_scooter", "is_disabled": 0, "lat": 38.90129683333333, "rental_uris": {"ios": "https://dc.lft.to/lastmile_qr_scan", "android": "https://dc.lft.to/lastmile_qr_scan"}, "is_reserved": 0, "fusion_lon": 0.0, "fusion_lat": 0.0, "lon": -77.02489766666666, "name": "56c5a61c2c5de31df7e0e42ecb2cdac1"}, {"bike_id": "56f981417268a2d9f661527f4af8cebd", "type": "electric_scooter", "is_disabled": 0, "lat": 38.907389, "rental_uris": {"ios": "https://dc.lft.to/lastmile_qr_scan", "android": "https://dc.lft.to/lastmile_qr_scan"}, "is_reserved": 0, "fusion_lon": 0.0, "fusion_lat": 0.0, "lon": -77.01318216666667, "name": "56f981417268a2d9f661527f4af8cebd"}, {"bike_id": "cd8ef9eeb2994ead6a716403d5e98d03", "type": "electric_scooter", "is_disabled": 0, "lat": 38.902453333333334, "rental_uris": {"ios": "https://dc.lft.to/lastmile_qr_scan", "android": "https://dc.lft.to/lastmile_qr_scan"}, "is_reserved": 0, "fusion_lon": 0.0, "fusion_lat": 0.0, "lon": -76.996291, "name": "cd8ef9eeb2994ead6a716403d5e98d03"}, {"bike_id": "0c1a5c1ee796ffa3dc584177575aac84", "type": "electric_scooter", "is_disabled": 0, "lat": 38.924893, "rental_uris": {"ios": "https://dc.lft.to/lastmile_qr_scan", "android": "https://dc.lft.to/lastmile_qr_scan"}, "is_reserved": 0, "fusion_lon": 0.0, "fusion_lat": 0.0, "lon": -77.0283975, "name": "0c1a5c1ee796ffa3dc584177575aac84"}, {"bike_id": "c7b7f6c1183c68c5854308ee96da7ac8", "type": "electric_scooter", "is_disabled": 0, "lat": 38.9033555, "rental_uris": {"ios": "https://dc.lft.to/lastmile_qr_scan", "android": "https://dc.lft.to/lastmile_qr_scan"}, "is_reserved": 0, "fusion_lon": 0.0, "fusion_lat": 0.0, "lon": -77.0366365, "name": "c7b7f6c1183c68c5854308ee96da7ac8"}, {"bike_id": "7ee5178fe8d4c29a9fbcf6a0bc070d9e", "type": "electric_scooter", "is_disabled": 0, "lat": 38.901579, "rental_uris": {"ios": "https://dc.lft.to/lastmile_qr_scan", "android": "https://dc.lft.to/lastmile_qr_scan"}, "is_reserved": 0, "fusion_lon": 0.0, "fusion_lat": 0.0, "lon": -76.99016416666667, "name": "7ee5178fe8d4c29a9fbcf6a0bc070d9e"}, {"bike_id": "27084f0030c451b2b8e2fd38ca608d7d", "type": "electric_scooter", "is_disabled": 0, "lat": 38.9181185, "rental_uris": {"ios": "https://dc.lft.to/lastmile_qr_scan", "android": "https://dc.lft.to/lastmile_qr_scan"}, "is_reserved": 0, "fusion_lon": 0.0, "fusion_lat": 0.0, "lon": -77.00765833333334, "name": "27084f0030c451b2b8e2fd38ca608d7d"}, {"bike_id": "9b5370842097b9b9273dc3a503653f85", "type": "electric_scooter", "is_disabled": 0, "lat": 38.907701833333334, "rental_uris": {"ios": "https://dc.lft.to/lastmile_qr_scan", "android": "https://dc.lft.to/lastmile_qr_scan"}, "is_reserved": 0, "fusion_lon": 0.0, "fusion_lat": 0.0, "lon": -77.03178083333333, "name": "9b5370842097b9b9273dc3a503653f85"}, {"bike_id": "b8511d80952987c478128990a53d936b", "type": "electric_scooter", "is_disabled": 0, "lat": 38.92266816666667, "rental_uris": {"ios": "https://dc.lft.to/lastmile_qr_scan", "android": "https://dc.lft.to/lastmile_qr_scan"}, "is_reserved": 0, "fusion_lon": 0.0, "fusion_lat": 0.0, "lon": -77.04296783333334, "name": "b8511d80952987c478128990a53d936b"}, {"bike_id": "a54488c506a8d31845463422193d26e3", "type": "electric_scooter", "is_disabled": 0, "lat": 38.909592333333336, "rental_uris": {"ios": "https://dc.lft.to/lastmile_qr_scan", "android": "https://dc.lft.to/lastmile_qr_scan"}, "is_reserved": 0, "fusion_lon": 0.0, "fusion_lat": 0.0, "lon": -77.04487183333333, "name": "a54488c506a8d31845463422193d26e3"}, {"bike_id": "ec7a8b775c0edca015a933cf46436bee", "type": "electric_scooter", "is_disabled": 0, "lat": 38.90348083333333, "rental_uris": {"ios": "https://dc.lft.to/lastmile_qr_scan", "android": "https://dc.lft.to/lastmile_qr_scan"}, "is_reserved": 0, "fusion_lon": 0.0, "fusion_lat": 0.0, "lon": -77.05294516666666, "name": "ec7a8b775c0edca015a933cf46436bee"}, {"bike_id": "d6ce4bd0c98b05b3f2398db55ca553fa", "type": "electric_scooter", "is_disabled": 0, "lat": 38.90811866666667, "rental_uris": {"ios": "https://dc.lft.to/lastmile_qr_scan", "android": "https://dc.lft.to/lastmile_qr_scan"}, "is_reserved": 0, "fusion_lon": 0.0, "fusion_lat": 0.0, "lon": -77.034491, "name": "d6ce4bd0c98b05b3f2398db55ca553fa"}, {"bike_id": "8568b078a840866fd50d6e8a5ec8cf2f", "type": "electric_scooter", "is_disabled": 0, "lat": 38.91719116666667, "rental_uris": {"ios": "https://dc.lft.to/lastmile_qr_scan", "android": "https://dc.lft.to/lastmile_qr_scan"}, "is_reserved": 0, "fusion_lon": 0.0, "fusion_lat": 0.0, "lon": -77.03466366666666, "name": "8568b078a840866fd50d6e8a5ec8cf2f"}, {"bike_id": "4f169792558d662a50093a05a290125e", "type": "electric_scooter", "is_disabled": 0, "lat": 38.9053025, "rental_uris": {"ios": "https://dc.lft.to/lastmile_qr_scan", "android": "https://dc.lft.to/lastmile_qr_scan"}, "is_reserved": 0, "fusion_lon": 0.0, "fusion_lat": 0.0, "lon": -77.05938033333334, "name": "4f169792558d662a50093a05a290125e"}, {"bike_id": "89875907e7b2d1e78d513fab2dbea749", "type": "electric_scooter", "is_disabled": 0, "lat": 38.93116116666667, "rental_uris": {"ios": "https://dc.lft.to/lastmile_qr_scan", "android": "https://dc.lft.to/lastmile_qr_scan"}, "is_reserved": 0, "fusion_lon": 0.0, "fusion_lat": 0.0, "lon": -77.02097366666666, "name": "89875907e7b2d1e78d513fab2dbea749"}, {"bike_id": "c9525cd9be77a260366342a948857da0", "type": "electric_bike", "is_disabled": 0, "lat": 38.89565616666667, "rental_uris": {"ios": "https://dc.lft.to/lastmile_qr_scan", "android": "https://dc.lft.to/lastmile_qr_scan"}, "is_reserved": 0, "fusion_lon": 0.0, "fusion_lat": 0.0, "lon": -77.12738466666667, "name": "c9525cd9be77a260366342a948857da0"}, {"bike_id": "4b734265088ac65105e85ce69c4a03c4", "type": "electric_bike", "is_disabled": 0, "lat": 38.8688575, "rental_uris": {"ios": "https://dc.lft.to/lastmile_qr_scan", "android": "https://dc.lft.to/lastmile_qr_scan"}, "is_reserved": 0, "fusion_lon": 0.0, "fusion_lat": 0.0, "lon": -76.95783266666666, "name": "4b734265088ac65105e85ce69c4a03c4"}, {"bike_id": "a490d91dae11132483eeae2e0324c445", "type": "electric_scooter", "is_disabled": 0, "lat": 38.907864833333335, "rental_uris": {"ios": "https://dc.lft.to/lastmile_qr_scan", "android": "https://dc.lft.to/lastmile_qr_scan"}, "is_reserved": 0, "fusion_lon": 0.0, "fusion_lat": 0.0, "lon": -77.01107516666667, "name": "a490d91dae11132483eeae2e0324c445"}, {"bike_id": "d8aa3db32793151b2c2894787383647a", "type": "electric_scooter", "is_disabled": 0, "lat": 38.911171833333334, "rental_uris": {"ios": "https://dc.lft.to/lastmile_qr_scan", "android": "https://dc.lft.to/lastmile_qr_scan"}, "is_reserved": 0, "fusion_lon": 0.0, "fusion_lat": 0.0, "lon": -77.03828733333333, "name": "d8aa3db32793151b2c2894787383647a"}, {"bike_id": "dca9f41f70dde222a7f692d1d9b97eee", "type": "electric_scooter", "is_disabled": 0, "lat": 38.898537833333336, "rental_uris": {"ios": "https://dc.lft.to/lastmile_qr_scan", "android": "https://dc.lft.to/lastmile_qr_scan"}, "is_reserved": 0, "fusion_lon": 0.0, "fusion_lat": 0.0, "lon": -76.99034566666667, "name": "dca9f41f70dde222a7f692d1d9b97eee"}, {"bike_id": "65d087096bdc1b89e19765cde310ad3e", "type": "electric_scooter", "is_disabled": 0, "lat": 38.86253, "rental_uris": {"ios": "https://dc.lft.to/lastmile_qr_scan", "android": "https://dc.lft.to/lastmile_qr_scan"}, "is_reserved": 0, "fusion_lon": 0.0, "fusion_lat": 0.0, "lon": -76.992624, "name": "65d087096bdc1b89e19765cde310ad3e"}, {"bike_id": "206c7f9256ca374f7a67429c12bfd182", "type": "electric_scooter", "is_disabled": 0, "lat": 38.863767833333334, "rental_uris": {"ios": "https://dc.lft.to/lastmile_qr_scan", "android": "https://dc.lft.to/lastmile_qr_scan"}, "is_reserved": 0, "fusion_lon": 0.0, "fusion_lat": 0.0, "lon": -76.9906025, "name": "206c7f9256ca374f7a67429c12bfd182"}, {"bike_id": "95007c4789bd488b2749bc44a74ea963", "type": "electric_scooter", "is_disabled": 0, "lat": 38.90783183333333, "rental_uris": {"ios": "https://dc.lft.to/lastmile_qr_scan", "android": "https://dc.lft.to/lastmile_qr_scan"}, "is_reserved": 0, "fusion_lon": 0.0, "fusion_lat": 0.0, "lon": -77.02037, "name": "95007c4789bd488b2749bc44a74ea963"}, {"bike_id": "780c6cd56835109f0134b2816349ef0b", "type": "electric_scooter", "is_disabled": 0, "lat": 38.89522266666667, "rental_uris": {"ios": "https://dc.lft.to/lastmile_qr_scan", "android": "https://dc.lft.to/lastmile_qr_scan"}, "is_reserved": 0, "fusion_lon": 0.0, "fusion_lat": 0.0, "lon": -77.02204616666667, "name": "780c6cd56835109f0134b2816349ef0b"}, {"bike_id": "a05e7f69a7a513ee4222634bb5b5ecde", "type": "electric_bike", "is_disabled": 0, "lat": 38.90832566666667, "rental_uris": {"ios": "https://dc.lft.to/lastmile_qr_scan", "android": "https://dc.lft.to/lastmile_qr_scan"}, "is_reserved": 0, "fusion_lon": 0.0, "fusion_lat": 0.0, "lon": -76.94159233333333, "name": "a05e7f69a7a513ee4222634bb5b5ecde"}, {"bike_id": "10a69d62ea60a2da389db6519ea78d54", "type": "electric_scooter", "is_disabled": 0, "lat": 38.9129315, "rental_uris": {"ios": "https://dc.lft.to/lastmile_qr_scan", "android": "https://dc.lft.to/lastmile_qr_scan"}, "is_reserved": 0, "fusion_lon": 0.0, "fusion_lat": 0.0, "lon": -77.01973416666667, "name": "10a69d62ea60a2da389db6519ea78d54"}, {"bike_id": "7efa4b05f073f9553c2511c2ff318072", "type": "electric_scooter", "is_disabled": 0, "lat": 38.9171095, "rental_uris": {"ios": "https://dc.lft.to/lastmile_qr_scan", "android": "https://dc.lft.to/lastmile_qr_scan"}, "is_reserved": 0, "fusion_lon": 0.0, "fusion_lat": 0.0, "lon": -77.010722, "name": "7efa4b05f073f9553c2511c2ff318072"}, {"bike_id": "32c4e6880812dba3849a031f1b02d9ee", "type": "electric_scooter", "is_disabled": 0, "lat": 38.90785283333334, "rental_uris": {"ios": "https://dc.lft.to/lastmile_qr_scan", "android": "https://dc.lft.to/lastmile_qr_scan"}, "is_reserved": 0, "fusion_lon": 0.0, "fusion_lat": 0.0, "lon": -77.01861833333334, "name": "32c4e6880812dba3849a031f1b02d9ee"}, {"bike_id": "be6e39e9babf9cd3d9584d52ca3f7dda", "type": "electric_scooter", "is_disabled": 0, "lat": 38.879208, "rental_uris": {"ios": "https://dc.lft.to/lastmile_qr_scan", "android": "https://dc.lft.to/lastmile_qr_scan"}, "is_reserved": 0, "fusion_lon": 0.0, "fusion_lat": 0.0, "lon": -76.995057, "name": "be6e39e9babf9cd3d9584d52ca3f7dda"}, {"bike_id": "b9c4e5feabd5dd13362e445c11df3bc2", "type": "electric_bike", "is_disabled": 0, "lat": 38.87199733333333, "rental_uris": {"ios": "https://dc.lft.to/lastmile_qr_scan", "android": "https://dc.lft.to/lastmile_qr_scan"}, "is_reserved": 0, "fusion_lon": 0.0, "fusion_lat": 0.0, "lon": -77.01217716666666, "name": "b9c4e5feabd5dd13362e445c11df3bc2"}, {"bike_id": "d2bed87978b1bef7400b04b73eed204c", "type": "electric_scooter", "is_disabled": 0, "lat": 38.889318333333335, "rental_uris": {"ios": "https://dc.lft.to/lastmile_qr_scan", "android": "https://dc.lft.to/lastmile_qr_scan"}, "is_reserved": 0, "fusion_lon": 0.0, "fusion_lat": 0.0, "lon": -77.01506066666667, "name": "d2bed87978b1bef7400b04b73eed204c"}, {"bike_id": "c4163871ecf31b20eeb5e15c921b81ab", "type": "electric_scooter", "is_disabled": 0, "lat": 38.91689266666667, "rental_uris": {"ios": "https://dc.lft.to/lastmile_qr_scan", "android": "https://dc.lft.to/lastmile_qr_scan"}, "is_reserved": 0, "fusion_lon": 0.0, "fusion_lat": 0.0, "lon": -77.0295145, "name": "c4163871ecf31b20eeb5e15c921b81ab"}, {"bike_id": "a62b049688981244f6445359d1e8477d", "type": "electric_scooter", "is_disabled": 0, "lat": 38.90689016666666, "rental_uris": {"ios": "https://dc.lft.to/lastmile_qr_scan", "android": "https://dc.lft.to/lastmile_qr_scan"}, "is_reserved": 0, "fusion_lon": 0.0, "fusion_lat": 0.0, "lon": -77.05324733333333, "name": "a62b049688981244f6445359d1e8477d"}, {"bike_id": "61f1d69e92e8a05caf276d6b5d95d906", "type": "electric_bike", "is_disabled": 0, "lat": 38.8869655, "rental_uris": {"ios": "https://dc.lft.to/lastmile_qr_scan", "android": "https://dc.lft.to/lastmile_qr_scan"}, "is_reserved": 0, "fusion_lon": 0.0, "fusion_lat": 0.0, "lon": -77.00355066666667, "name": "61f1d69e92e8a05caf276d6b5d95d906"}, {"bike_id": "6f2ebe0b6728ec6e08c6345b6751f1d9", "type": "electric_scooter", "is_disabled": 0, "lat": 38.91404433333334, "rental_uris": {"ios": "https://dc.lft.to/lastmile_qr_scan", "android": "https://dc.lft.to/lastmile_qr_scan"}, "is_reserved": 0, "fusion_lon": 0.0, "fusion_lat": 0.0, "lon": -77.03145466666666, "name": "6f2ebe0b6728ec6e08c6345b6751f1d9"}, {"bike_id": "14e6fce47609ed4e1eda7df8a0ca78fa", "type": "electric_bike", "is_disabled": 0, "lat": 38.881561, "rental_uris": {"ios": "https://dc.lft.to/lastmile_qr_scan", "android": "https://dc.lft.to/lastmile_qr_scan"}, "is_reserved": 0, "fusion_lon": 0.0, "fusion_lat": 0.0, "lon": -77.11453283333333, "name": "14e6fce47609ed4e1eda7df8a0ca78fa"}, {"bike_id": "36f8b98cf431052f498abef3219c4acf", "type": "electric_bike", "is_disabled": 0, "lat": 38.9244615, "rental_uris": {"ios": "https://dc.lft.to/lastmile_qr_scan", "android": "https://dc.lft.to/lastmile_qr_scan"}, "is_reserved": 0, "fusion_lon": 0.0, "fusion_lat": 0.0, "lon": -77.22574466666667, "name": "36f8b98cf431052f498abef3219c4acf"}, {"bike_id": "98f06adfac63924880b06eda99a6b47b", "type": "electric_scooter", "is_disabled": 0, "lat": 38.907248, "rental_uris": {"ios": "https://dc.lft.to/lastmile_qr_scan", "android": "https://dc.lft.to/lastmile_qr_scan"}, "is_reserved": 0, "fusion_lon": 0.0, "fusion_lat": 0.0, "lon": -77.02979916666666, "name": "98f06adfac63924880b06eda99a6b47b"}, {"bike_id": "b93ba713c66af90809dc2cf6c3f6d731", "type": "electric_scooter", "is_disabled": 0, "lat": 38.91876366666666, "rental_uris": {"ios": "https://dc.lft.to/lastmile_qr_scan", "android": "https://dc.lft.to/lastmile_qr_scan"}, "is_reserved": 0, "fusion_lon": 0.0, "fusion_lat": 0.0, "lon": -77.02950266666667, "name": "b93ba713c66af90809dc2cf6c3f6d731"}, {"bike_id": "6c19ab1714eae9858ec367ad29d123c0", "type": "electric_scooter", "is_disabled": 0, "lat": 38.924603, "rental_uris": {"ios": "https://dc.lft.to/lastmile_qr_scan", "android": "https://dc.lft.to/lastmile_qr_scan"}, "is_reserved": 0, "fusion_lon": 0.0, "fusion_lat": 0.0, "lon": -77.02963183333334, "name": "6c19ab1714eae9858ec367ad29d123c0"}, {"bike_id": "e9db175c662d961af3c038456586793c", "type": "electric_scooter", "is_disabled": 0, "lat": 38.90436033333334, "rental_uris": {"ios": "https://dc.lft.to/lastmile_qr_scan", "android": "https://dc.lft.to/lastmile_qr_scan"}, "is_reserved": 0, "fusion_lon": 0.0, "fusion_lat": 0.0, "lon": -77.03470466666667, "name": "e9db175c662d961af3c038456586793c"}, {"bike_id": "43bc43c3dcb1a0f05fd15e2660f5b09a", "type": "electric_bike", "is_disabled": 0, "lat": 38.83672416666667, "rental_uris": {"ios": "https://dc.lft.to/lastmile_qr_scan", "android": "https://dc.lft.to/lastmile_qr_scan"}, "is_reserved": 0, "fusion_lon": 0.0, "fusion_lat": 0.0, "lon": -76.99361316666666, "name": "43bc43c3dcb1a0f05fd15e2660f5b09a"}, {"bike_id": "ea71ab7dbdd79576ad5db35a870ea34a", "type": "electric_scooter", "is_disabled": 0, "lat": 38.934838, "rental_uris": {"ios": "https://dc.lft.to/lastmile_qr_scan", "android": "https://dc.lft.to/lastmile_qr_scan"}, "is_reserved": 0, "fusion_lon": 0.0, "fusion_lat": 0.0, "lon": -77.02612316666666, "name": "ea71ab7dbdd79576ad5db35a870ea34a"}, {"bike_id": "4f8f6d2c09aba728b0936770347dbead", "type": "electric_scooter", "is_disabled": 0, "lat": 38.916668333333334, "rental_uris": {"ios": "https://dc.lft.to/lastmile_qr_scan", "android": "https://dc.lft.to/lastmile_qr_scan"}, "is_reserved": 0, "fusion_lon": 0.0, "fusion_lat": 0.0, "lon": -77.0295485, "name": "4f8f6d2c09aba728b0936770347dbead"}, {"bike_id": "84fb2b84bb6c9f4a7d6133905812f0f5", "type": "electric_scooter", "is_disabled": 0, "lat": 38.93543, "rental_uris": {"ios": "https://dc.lft.to/lastmile_qr_scan", "android": "https://dc.lft.to/lastmile_qr_scan"}, "is_reserved": 0, "fusion_lon": 0.0, "fusion_lat": 0.0, "lon": -77.0582495, "name": "84fb2b84bb6c9f4a7d6133905812f0f5"}, {"bike_id": "12a3558fbc0857dfc8aaf367ce8c1790", "type": "electric_scooter", "is_disabled": 0, "lat": 38.912430666666666, "rental_uris": {"ios": "https://dc.lft.to/lastmile_qr_scan", "android": "https://dc.lft.to/lastmile_qr_scan"}, "is_reserved": 0, "fusion_lon": 0.0, "fusion_lat": 0.0, "lon": -77.03862933333333, "name": "12a3558fbc0857dfc8aaf367ce8c1790"}, {"bike_id": "1493e2358618516f7989dcb433417795", "type": "electric_scooter", "is_disabled": 0, "lat": 38.90652933333333, "rental_uris": {"ios": "https://dc.lft.to/lastmile_qr_scan", "android": "https://dc.lft.to/lastmile_qr_scan"}, "is_reserved": 0, "fusion_lon": 0.0, "fusion_lat": 0.0, "lon": -77.01727866666667, "name": "1493e2358618516f7989dcb433417795"}, {"bike_id": "6201ee3e30b6ce924581c2b7823e303d", "type": "electric_scooter", "is_disabled": 0, "lat": 38.90066816666667, "rental_uris": {"ios": "https://dc.lft.to/lastmile_qr_scan", "android": "https://dc.lft.to/lastmile_qr_scan"}, "is_reserved": 0, "fusion_lon": 0.0, "fusion_lat": 0.0, "lon": -77.03090783333333, "name": "6201ee3e30b6ce924581c2b7823e303d"}, {"bike_id": "cec770c29fe8f8c581007cd37d5e80bc", "type": "electric_scooter", "is_disabled": 0, "lat": 38.89929433333333, "rental_uris": {"ios": "https://dc.lft.to/lastmile_qr_scan", "android": "https://dc.lft.to/lastmile_qr_scan"}, "is_reserved": 0, "fusion_lon": 0.0, "fusion_lat": 0.0, "lon": -77.04774583333334, "name": "cec770c29fe8f8c581007cd37d5e80bc"}, {"bike_id": "f2a02e44fa60ba1fd905bfb66502862a", "type": "electric_scooter", "is_disabled": 0, "lat": 38.90268566666667, "rental_uris": {"ios": "https://dc.lft.to/lastmile_qr_scan", "android": "https://dc.lft.to/lastmile_qr_scan"}, "is_reserved": 0, "fusion_lon": 0.0, "fusion_lat": 0.0, "lon": -77.03392516666666, "name": "f2a02e44fa60ba1fd905bfb66502862a"}, {"bike_id": "40b8aa9ab2449e41dbd8a0910f71bbcb", "type": "electric_scooter", "is_disabled": 0, "lat": 38.882676333333336, "rental_uris": {"ios": "https://dc.lft.to/lastmile_qr_scan", "android": "https://dc.lft.to/lastmile_qr_scan"}, "is_reserved": 0, "fusion_lon": 0.0, "fusion_lat": 0.0, "lon": -76.99249616666667, "name": "40b8aa9ab2449e41dbd8a0910f71bbcb"}, {"bike_id": "3621f82dd26bd69f1dce96722d851f68", "type": "electric_scooter", "is_disabled": 0, "lat": 38.9139975, "rental_uris": {"ios": "https://dc.lft.to/lastmile_qr_scan", "android": "https://dc.lft.to/lastmile_qr_scan"}, "is_reserved": 0, "fusion_lon": 0.0, "fusion_lat": 0.0, "lon": -77.0209585, "name": "3621f82dd26bd69f1dce96722d851f68"}, {"bike_id": "cfc57e446392c2f09317f966240c8a7a", "type": "electric_scooter", "is_disabled": 0, "lat": 38.90352033333333, "rental_uris": {"ios": "https://dc.lft.to/lastmile_qr_scan", "android": "https://dc.lft.to/lastmile_qr_scan"}, "is_reserved": 0, "fusion_lon": 0.0, "fusion_lat": 0.0, "lon": -77.00739533333333, "name": "cfc57e446392c2f09317f966240c8a7a"}, {"bike_id": "92bfacae6940ce4f001c373d05c87bc3", "type": "electric_scooter", "is_disabled": 0, "lat": 38.9208795, "rental_uris": {"ios": "https://dc.lft.to/lastmile_qr_scan", "android": "https://dc.lft.to/lastmile_qr_scan"}, "is_reserved": 0, "fusion_lon": 0.0, "fusion_lat": 0.0, "lon": -77.02404366666667, "name": "92bfacae6940ce4f001c373d05c87bc3"}, {"bike_id": "d28abbbc128dd56a14d708167315c34e", "type": "electric_scooter", "is_disabled": 0, "lat": 38.927583166666665, "rental_uris": {"ios": "https://dc.lft.to/lastmile_qr_scan", "android": "https://dc.lft.to/lastmile_qr_scan"}, "is_reserved": 0, "fusion_lon": 0.0, "fusion_lat": 0.0, "lon": -77.02305933333334, "name": "d28abbbc128dd56a14d708167315c34e"}, {"bike_id": "3a4fc1f9307058237c1926c5b287a543", "type": "electric_scooter", "is_disabled": 0, "lat": 38.9162355, "rental_uris": {"ios": "https://dc.lft.to/lastmile_qr_scan", "android": "https://dc.lft.to/lastmile_qr_scan"}, "is_reserved": 0, "fusion_lon": 0.0, "fusion_lat": 0.0, "lon": -77.03984466666667, "name": "3a4fc1f9307058237c1926c5b287a543"}, {"bike_id": "8ba17cfe9a2a403f6d7ddbe45f240cbb", "type": "electric_scooter", "is_disabled": 0, "lat": 38.90959633333333, "rental_uris": {"ios": "https://dc.lft.to/lastmile_qr_scan", "android": "https://dc.lft.to/lastmile_qr_scan"}, "is_reserved": 0, "fusion_lon": 0.0, "fusion_lat": 0.0, "lon": -77.02281366666666, "name": "8ba17cfe9a2a403f6d7ddbe45f240cbb"}, {"bike_id": "e92c61206f0fd152e4e200ffabfef88f", "type": "electric_scooter", "is_disabled": 0, "lat": 38.908314, "rental_uris": {"ios": "https://dc.lft.to/lastmile_qr_scan", "android": "https://dc.lft.to/lastmile_qr_scan"}, "is_reserved": 0, "fusion_lon": 0.0, "fusion_lat": 0.0, "lon": -77.023831, "name": "e92c61206f0fd152e4e200ffabfef88f"}, {"bike_id": "24e965ac0d2434ed2fa801987c0b5ec9", "type": "electric_scooter", "is_disabled": 0, "lat": 38.922450166666664, "rental_uris": {"ios": "https://dc.lft.to/lastmile_qr_scan", "android": "https://dc.lft.to/lastmile_qr_scan"}, "is_reserved": 0, "fusion_lon": 0.0, "fusion_lat": 0.0, "lon": -77.074738, "name": "24e965ac0d2434ed2fa801987c0b5ec9"}, {"bike_id": "ff7114565e1f0a7b6222779c48ec2613", "type": "electric_scooter", "is_disabled": 0, "lat": 38.93687333333333, "rental_uris": {"ios": "https://dc.lft.to/lastmile_qr_scan", "android": "https://dc.lft.to/lastmile_qr_scan"}, "is_reserved": 0, "fusion_lon": 0.0, "fusion_lat": 0.0, "lon": -77.03624766666667, "name": "ff7114565e1f0a7b6222779c48ec2613"}, {"bike_id": "e1a95acc6be6d270c7e17d2d244f9f10", "type": "electric_scooter", "is_disabled": 0, "lat": 38.9068455, "rental_uris": {"ios": "https://dc.lft.to/lastmile_qr_scan", "android": "https://dc.lft.to/lastmile_qr_scan"}, "is_reserved": 0, "fusion_lon": 0.0, "fusion_lat": 0.0, "lon": -77.06340866666666, "name": "e1a95acc6be6d270c7e17d2d244f9f10"}, {"bike_id": "f5b676e6bd6075458dfef969d31f48ab", "type": "electric_scooter", "is_disabled": 0, "lat": 38.919194166666664, "rental_uris": {"ios": "https://dc.lft.to/lastmile_qr_scan", "android": "https://dc.lft.to/lastmile_qr_scan"}, "is_reserved": 0, "fusion_lon": 0.0, "fusion_lat": 0.0, "lon": -77.03421733333333, "name": "f5b676e6bd6075458dfef969d31f48ab"}, {"bike_id": "f8e1c275da76022b06f547aa3c618a2b", "type": "electric_scooter", "is_disabled": 0, "lat": 38.9386885, "rental_uris": {"ios": "https://dc.lft.to/lastmile_qr_scan", "android": "https://dc.lft.to/lastmile_qr_scan"}, "is_reserved": 0, "fusion_lon": 0.0, "fusion_lat": 0.0, "lon": -77.02449, "name": "f8e1c275da76022b06f547aa3c618a2b"}, {"bike_id": "869fdfcad7290d726ed0b9b947cdba2d", "type": "electric_scooter", "is_disabled": 0, "lat": 38.917055833333336, "rental_uris": {"ios": "https://dc.lft.to/lastmile_qr_scan", "android": "https://dc.lft.to/lastmile_qr_scan"}, "is_reserved": 0, "fusion_lon": 0.0, "fusion_lat": 0.0, "lon": -77.0296205, "name": "869fdfcad7290d726ed0b9b947cdba2d"}, {"bike_id": "6f32d898a0384de37a8b7aa1a1752378", "type": "electric_scooter", "is_disabled": 0, "lat": 38.902693166666666, "rental_uris": {"ios": "https://dc.lft.to/lastmile_qr_scan", "android": "https://dc.lft.to/lastmile_qr_scan"}, "is_reserved": 0, "fusion_lon": 0.0, "fusion_lat": 0.0, "lon": -77.01965966666667, "name": "6f32d898a0384de37a8b7aa1a1752378"}, {"bike_id": "78fb3d8afd214b141edf778c49e27dae", "type": "electric_scooter", "is_disabled": 0, "lat": 38.92061416666667, "rental_uris": {"ios": "https://dc.lft.to/lastmile_qr_scan", "android": "https://dc.lft.to/lastmile_qr_scan"}, "is_reserved": 0, "fusion_lon": 0.0, "fusion_lat": 0.0, "lon": -77.0346235, "name": "78fb3d8afd214b141edf778c49e27dae"}, {"bike_id": "0f7518bda972f177d75a73c395787e13", "type": "electric_scooter", "is_disabled": 0, "lat": 38.95687516666667, "rental_uris": {"ios": "https://dc.lft.to/lastmile_qr_scan", "android": "https://dc.lft.to/lastmile_qr_scan"}, "is_reserved": 0, "fusion_lon": 0.0, "fusion_lat": 0.0, "lon": -77.02400583333333, "name": "0f7518bda972f177d75a73c395787e13"}, {"bike_id": "2cdb007d9bd1b6793838cf557e7e0d2f", "type": "electric_scooter", "is_disabled": 0, "lat": 38.907296333333335, "rental_uris": {"ios": "https://dc.lft.to/lastmile_qr_scan", "android": "https://dc.lft.to/lastmile_qr_scan"}, "is_reserved": 0, "fusion_lon": 0.0, "fusion_lat": 0.0, "lon": -77.05326533333333, "name": "2cdb007d9bd1b6793838cf557e7e0d2f"}, {"bike_id": "e6271fd8d87a7ad62201a7ec0107f0df", "type": "electric_scooter", "is_disabled": 0, "lat": 38.88496116666666, "rental_uris": {"ios": "https://dc.lft.to/lastmile_qr_scan", "android": "https://dc.lft.to/lastmile_qr_scan"}, "is_reserved": 0, "fusion_lon": 0.0, "fusion_lat": 0.0, "lon": -77.01505916666666, "name": "e6271fd8d87a7ad62201a7ec0107f0df"}, {"bike_id": "ba1d80e4ee8e9d9b0e398f5759e20b4e", "type": "electric_scooter", "is_disabled": 0, "lat": 38.911136, "rental_uris": {"ios": "https://dc.lft.to/lastmile_qr_scan", "android": "https://dc.lft.to/lastmile_qr_scan"}, "is_reserved": 0, "fusion_lon": 0.0, "fusion_lat": 0.0, "lon": -77.04476583333333, "name": "ba1d80e4ee8e9d9b0e398f5759e20b4e"}, {"bike_id": "c30342185ed4e092ffdf6dba46221148", "type": "electric_scooter", "is_disabled": 0, "lat": 38.927997500000004, "rental_uris": {"ios": "https://dc.lft.to/lastmile_qr_scan", "android": "https://dc.lft.to/lastmile_qr_scan"}, "is_reserved": 0, "fusion_lon": 0.0, "fusion_lat": 0.0, "lon": -77.0213065, "name": "c30342185ed4e092ffdf6dba46221148"}, {"bike_id": "accf2dd75fd1f6c2cf4fbea581890127", "type": "electric_scooter", "is_disabled": 0, "lat": 38.931202666666664, "rental_uris": {"ios": "https://dc.lft.to/lastmile_qr_scan", "android": "https://dc.lft.to/lastmile_qr_scan"}, "is_reserved": 0, "fusion_lon": 0.0, "fusion_lat": 0.0, "lon": -77.02069416666667, "name": "accf2dd75fd1f6c2cf4fbea581890127"}, {"bike_id": "885d890cabf7207f304902adfbea5d09", "type": "electric_scooter", "is_disabled": 0, "lat": 38.86218983333333, "rental_uris": {"ios": "https://dc.lft.to/lastmile_qr_scan", "android": "https://dc.lft.to/lastmile_qr_scan"}, "is_reserved": 0, "fusion_lon": 0.0, "fusion_lat": 0.0, "lon": -76.99484433333333, "name": "885d890cabf7207f304902adfbea5d09"}, {"bike_id": "69857408020aa65731829d7a55cad645", "type": "electric_scooter", "is_disabled": 0, "lat": 38.90598933333333, "rental_uris": {"ios": "https://dc.lft.to/lastmile_qr_scan", "android": "https://dc.lft.to/lastmile_qr_scan"}, "is_reserved": 0, "fusion_lon": 0.0, "fusion_lat": 0.0, "lon": -77.0218675, "name": "69857408020aa65731829d7a55cad645"}, {"bike_id": "2ab8f818e5e9ab460dafd368d181add2", "type": "electric_scooter", "is_disabled": 0, "lat": 38.917175666666665, "rental_uris": {"ios": "https://dc.lft.to/lastmile_qr_scan", "android": "https://dc.lft.to/lastmile_qr_scan"}, "is_reserved": 0, "fusion_lon": 0.0, "fusion_lat": 0.0, "lon": -77.03868016666667, "name": "2ab8f818e5e9ab460dafd368d181add2"}, {"bike_id": "1af96f7b5c6527859ed31ade48e4d7a5", "type": "electric_scooter", "is_disabled": 0, "lat": 38.91421033333334, "rental_uris": {"ios": "https://dc.lft.to/lastmile_qr_scan", "android": "https://dc.lft.to/lastmile_qr_scan"}, "is_reserved": 0, "fusion_lon": 0.0, "fusion_lat": 0.0, "lon": -77.02986666666666, "name": "1af96f7b5c6527859ed31ade48e4d7a5"}, {"bike_id": "6615b0fb54b84fc27ec913b3a9d40082", "type": "electric_scooter", "is_disabled": 0, "lat": 38.900027, "rental_uris": {"ios": "https://dc.lft.to/lastmile_qr_scan", "android": "https://dc.lft.to/lastmile_qr_scan"}, "is_reserved": 0, "fusion_lon": 0.0, "fusion_lat": 0.0, "lon": -77.04478266666666, "name": "6615b0fb54b84fc27ec913b3a9d40082"}, {"bike_id": "f0c591919a7cec9552b5aecc1e06524d", "type": "electric_scooter", "is_disabled": 0, "lat": 38.8937715, "rental_uris": {"ios": "https://dc.lft.to/lastmile_qr_scan", "android": "https://dc.lft.to/lastmile_qr_scan"}, "is_reserved": 0, "fusion_lon": 0.0, "fusion_lat": 0.0, "lon": -77.02833533333333, "name": "f0c591919a7cec9552b5aecc1e06524d"}, {"bike_id": "a5f98ce7eddc273e03eacdbc712cb237", "type": "electric_scooter", "is_disabled": 0, "lat": 38.93252966666667, "rental_uris": {"ios": "https://dc.lft.to/lastmile_qr_scan", "android": "https://dc.lft.to/lastmile_qr_scan"}, "is_reserved": 0, "fusion_lon": 0.0, "fusion_lat": 0.0, "lon": -77.03850133333333, "name": "a5f98ce7eddc273e03eacdbc712cb237"}, {"bike_id": "8be966415d49bb3f7ee39ac570bbe9e0", "type": "electric_bike", "is_disabled": 0, "lat": 38.832447333333334, "rental_uris": {"ios": "https://dc.lft.to/lastmile_qr_scan", "android": "https://dc.lft.to/lastmile_qr_scan"}, "is_reserved": 0, "fusion_lon": 0.0, "fusion_lat": 0.0, "lon": -76.94618566666666, "name": "8be966415d49bb3f7ee39ac570bbe9e0"}, {"bike_id": "e3d319ea0d7eb07ceee4f9d79f67451d", "type": "electric_scooter", "is_disabled": 0, "lat": 38.880111666666664, "rental_uris": {"ios": "https://dc.lft.to/lastmile_qr_scan", "android": "https://dc.lft.to/lastmile_qr_scan"}, "is_reserved": 0, "fusion_lon": 0.0, "fusion_lat": 0.0, "lon": -77.02481766666666, "name": "e3d319ea0d7eb07ceee4f9d79f67451d"}, {"bike_id": "8d771305f96594303bfbcb7f4b8b3fac", "type": "electric_scooter", "is_disabled": 0, "lat": 38.90411433333333, "rental_uris": {"ios": "https://dc.lft.to/lastmile_qr_scan", "android": "https://dc.lft.to/lastmile_qr_scan"}, "is_reserved": 0, "fusion_lon": 0.0, "fusion_lat": 0.0, "lon": -76.97332583333333, "name": "8d771305f96594303bfbcb7f4b8b3fac"}, {"bike_id": "2db12a761b887d51f25ca779251675e7", "type": "electric_scooter", "is_disabled": 0, "lat": 38.897978333333334, "rental_uris": {"ios": "https://dc.lft.to/lastmile_qr_scan", "android": "https://dc.lft.to/lastmile_qr_scan"}, "is_reserved": 0, "fusion_lon": 0.0, "fusion_lat": 0.0, "lon": -77.012004, "name": "2db12a761b887d51f25ca779251675e7"}, {"bike_id": "99264747402000ea250ce1e6e467aaca", "type": "electric_scooter", "is_disabled": 0, "lat": 38.92387983333333, "rental_uris": {"ios": "https://dc.lft.to/lastmile_qr_scan", "android": "https://dc.lft.to/lastmile_qr_scan"}, "is_reserved": 0, "fusion_lon": 0.0, "fusion_lat": 0.0, "lon": -77.03078816666667, "name": "99264747402000ea250ce1e6e467aaca"}, {"bike_id": "b13a38058867431828fa1c79f69bc0f0", "type": "electric_scooter", "is_disabled": 0, "lat": 38.926658833333335, "rental_uris": {"ios": "https://dc.lft.to/lastmile_qr_scan", "android": "https://dc.lft.to/lastmile_qr_scan"}, "is_reserved": 0, "fusion_lon": 0.0, "fusion_lat": 0.0, "lon": -77.0373345, "name": "b13a38058867431828fa1c79f69bc0f0"}, {"bike_id": "22d0c885c5177d6ab39a30721c17accc", "type": "electric_scooter", "is_disabled": 0, "lat": 38.91047366666667, "rental_uris": {"ios": "https://dc.lft.to/lastmile_qr_scan", "android": "https://dc.lft.to/lastmile_qr_scan"}, "is_reserved": 0, "fusion_lon": 0.0, "fusion_lat": 0.0, "lon": -77.05870866666666, "name": "22d0c885c5177d6ab39a30721c17accc"}, {"bike_id": "eec4dd9fd377b8b8861438e1f96ae67a", "type": "electric_scooter", "is_disabled": 0, "lat": 38.92891233333334, "rental_uris": {"ios": "https://dc.lft.to/lastmile_qr_scan", "android": "https://dc.lft.to/lastmile_qr_scan"}, "is_reserved": 0, "fusion_lon": 0.0, "fusion_lat": 0.0, "lon": -77.025807, "name": "eec4dd9fd377b8b8861438e1f96ae67a"}, {"bike_id": "e915f8bb2f7eb1a09e673b58b82c5837", "type": "electric_scooter", "is_disabled": 0, "lat": 38.923647, "rental_uris": {"ios": "https://dc.lft.to/lastmile_qr_scan", "android": "https://dc.lft.to/lastmile_qr_scan"}, "is_reserved": 0, "fusion_lon": 0.0, "fusion_lat": 0.0, "lon": -77.05128166666667, "name": "e915f8bb2f7eb1a09e673b58b82c5837"}, {"bike_id": "5c1316840c901fc9ff4a5d3cb5e7c469", "type": "electric_scooter", "is_disabled": 0, "lat": 38.90669666666667, "rental_uris": {"ios": "https://dc.lft.to/lastmile_qr_scan", "android": "https://dc.lft.to/lastmile_qr_scan"}, "is_reserved": 0, "fusion_lon": 0.0, "fusion_lat": 0.0, "lon": -77.0271375, "name": "5c1316840c901fc9ff4a5d3cb5e7c469"}, {"bike_id": "86c39f0ba38017969fc25e3309a3e574", "type": "electric_scooter", "is_disabled": 0, "lat": 38.91126283333333, "rental_uris": {"ios": "https://dc.lft.to/lastmile_qr_scan", "android": "https://dc.lft.to/lastmile_qr_scan"}, "is_reserved": 0, "fusion_lon": 0.0, "fusion_lat": 0.0, "lon": -77.042325, "name": "86c39f0ba38017969fc25e3309a3e574"}, {"bike_id": "9189aa577bcb35c8c9089f7c8c627d91", "type": "electric_scooter", "is_disabled": 0, "lat": 38.91677466666667, "rental_uris": {"ios": "https://dc.lft.to/lastmile_qr_scan", "android": "https://dc.lft.to/lastmile_qr_scan"}, "is_reserved": 0, "fusion_lon": 0.0, "fusion_lat": 0.0, "lon": -77.03636116666667, "name": "9189aa577bcb35c8c9089f7c8c627d91"}, {"bike_id": "5c47924f3965e857d07a3343d0fae48b", "type": "electric_scooter", "is_disabled": 0, "lat": 38.917988666666666, "rental_uris": {"ios": "https://dc.lft.to/lastmile_qr_scan", "android": "https://dc.lft.to/lastmile_qr_scan"}, "is_reserved": 0, "fusion_lon": 0.0, "fusion_lat": 0.0, "lon": -77.03442183333334, "name": "5c47924f3965e857d07a3343d0fae48b"}, {"bike_id": "b16eb73a93159d39a6a543d4d2ef3bf1", "type": "electric_bike", "is_disabled": 0, "lat": 39.05057266666667, "rental_uris": {"ios": "https://dc.lft.to/lastmile_qr_scan", "android": "https://dc.lft.to/lastmile_qr_scan"}, "is_reserved": 0, "fusion_lon": 0.0, "fusion_lat": 0.0, "lon": -77.05144466666667, "name": "b16eb73a93159d39a6a543d4d2ef3bf1"}, {"bike_id": "04c34b42f59ff79656c8a4cd16c1b585", "type": "electric_scooter", "is_disabled": 0, "lat": 38.900170333333335, "rental_uris": {"ios": "https://dc.lft.to/lastmile_qr_scan", "android": "https://dc.lft.to/lastmile_qr_scan"}, "is_reserved": 0, "fusion_lon": 0.0, "fusion_lat": 0.0, "lon": -77.04672716666667, "name": "04c34b42f59ff79656c8a4cd16c1b585"}, {"bike_id": "a0ed606fd03191aa42a8300c78dd8272", "type": "electric_scooter", "is_disabled": 0, "lat": 38.9176925, "rental_uris": {"ios": "https://dc.lft.to/lastmile_qr_scan", "android": "https://dc.lft.to/lastmile_qr_scan"}, "is_reserved": 0, "fusion_lon": 0.0, "fusion_lat": 0.0, "lon": -77.02326033333334, "name": "a0ed606fd03191aa42a8300c78dd8272"}, {"bike_id": "1999249ce22932fed60369b51684cc4d", "type": "electric_scooter", "is_disabled": 0, "lat": 38.9126865, "rental_uris": {"ios": "https://dc.lft.to/lastmile_qr_scan", "android": "https://dc.lft.to/lastmile_qr_scan"}, "is_reserved": 0, "fusion_lon": 0.0, "fusion_lat": 0.0, "lon": -77.00494983333333, "name": "1999249ce22932fed60369b51684cc4d"}, {"bike_id": "a5f2dd43a7c59898c416b6e3cad614bd", "type": "electric_scooter", "is_disabled": 0, "lat": 38.925932, "rental_uris": {"ios": "https://dc.lft.to/lastmile_qr_scan", "android": "https://dc.lft.to/lastmile_qr_scan"}, "is_reserved": 0, "fusion_lon": 0.0, "fusion_lat": 0.0, "lon": -77.02177916666666, "name": "a5f2dd43a7c59898c416b6e3cad614bd"}, {"bike_id": "6f9e5aadd397b65e3193651c538c3d07", "type": "electric_scooter", "is_disabled": 0, "lat": 38.930930333333336, "rental_uris": {"ios": "https://dc.lft.to/lastmile_qr_scan", "android": "https://dc.lft.to/lastmile_qr_scan"}, "is_reserved": 0, "fusion_lon": 0.0, "fusion_lat": 0.0, "lon": -77.025641, "name": "6f9e5aadd397b65e3193651c538c3d07"}, {"bike_id": "f48e5d9a3932c103551c033f9c68c5ec", "type": "electric_scooter", "is_disabled": 0, "lat": 38.876574166666664, "rental_uris": {"ios": "https://dc.lft.to/lastmile_qr_scan", "android": "https://dc.lft.to/lastmile_qr_scan"}, "is_reserved": 0, "fusion_lon": 0.0, "fusion_lat": 0.0, "lon": -77.00276983333333, "name": "f48e5d9a3932c103551c033f9c68c5ec"}, {"bike_id": "81b9dc5b2b34d285eb681a6c0c8c8434", "type": "electric_scooter", "is_disabled": 0, "lat": 38.90734833333333, "rental_uris": {"ios": "https://dc.lft.to/lastmile_qr_scan", "android": "https://dc.lft.to/lastmile_qr_scan"}, "is_reserved": 0, "fusion_lon": 0.0, "fusion_lat": 0.0, "lon": -77.01308583333334, "name": "81b9dc5b2b34d285eb681a6c0c8c8434"}, {"bike_id": "9eff67a31b687a4af8f82522be02e146", "type": "electric_scooter", "is_disabled": 0, "lat": 38.866918166666665, "rental_uris": {"ios": "https://dc.lft.to/lastmile_qr_scan", "android": "https://dc.lft.to/lastmile_qr_scan"}, "is_reserved": 0, "fusion_lon": 0.0, "fusion_lat": 0.0, "lon": -76.98574216666667, "name": "9eff67a31b687a4af8f82522be02e146"}, {"bike_id": "4cb763560f5ed27e1920ec1c096cb6ea", "type": "electric_scooter", "is_disabled": 0, "lat": 38.86686483333333, "rental_uris": {"ios": "https://dc.lft.to/lastmile_qr_scan", "android": "https://dc.lft.to/lastmile_qr_scan"}, "is_reserved": 0, "fusion_lon": 0.0, "fusion_lat": 0.0, "lon": -76.985765, "name": "4cb763560f5ed27e1920ec1c096cb6ea"}, {"bike_id": "0b265aa8cb75c715650c8c332bca4ec3", "type": "electric_scooter", "is_disabled": 0, "lat": 38.918455333333334, "rental_uris": {"ios": "https://dc.lft.to/lastmile_qr_scan", "android": "https://dc.lft.to/lastmile_qr_scan"}, "is_reserved": 0, "fusion_lon": 0.0, "fusion_lat": 0.0, "lon": -77.04827983333334, "name": "0b265aa8cb75c715650c8c332bca4ec3"}, {"bike_id": "b0633994dc9a112a7b919d2eaa335498", "type": "electric_scooter", "is_disabled": 0, "lat": 38.907345666666664, "rental_uris": {"ios": "https://dc.lft.to/lastmile_qr_scan", "android": "https://dc.lft.to/lastmile_qr_scan"}, "is_reserved": 0, "fusion_lon": 0.0, "fusion_lat": 0.0, "lon": -77.0343675, "name": "b0633994dc9a112a7b919d2eaa335498"}, {"bike_id": "fc9a9961a9065083de85962d95c16c72", "type": "electric_bike", "is_disabled": 0, "lat": 38.807062333333334, "rental_uris": {"ios": "https://dc.lft.to/lastmile_qr_scan", "android": "https://dc.lft.to/lastmile_qr_scan"}, "is_reserved": 0, "fusion_lon": 0.0, "fusion_lat": 0.0, "lon": -77.061783, "name": "fc9a9961a9065083de85962d95c16c72"}, {"bike_id": "995393a16b93e37e22dfbf67210eecf3", "type": "electric_scooter", "is_disabled": 0, "lat": 38.928434333333335, "rental_uris": {"ios": "https://dc.lft.to/lastmile_qr_scan", "android": "https://dc.lft.to/lastmile_qr_scan"}, "is_reserved": 0, "fusion_lon": 0.0, "fusion_lat": 0.0, "lon": -77.02751833333333, "name": "995393a16b93e37e22dfbf67210eecf3"}, {"bike_id": "7c138ddd798ba9d55206fb26f8321468", "type": "electric_scooter", "is_disabled": 0, "lat": 38.93642366666667, "rental_uris": {"ios": "https://dc.lft.to/lastmile_qr_scan", "android": "https://dc.lft.to/lastmile_qr_scan"}, "is_reserved": 0, "fusion_lon": 0.0, "fusion_lat": 0.0, "lon": -77.05881683333334, "name": "7c138ddd798ba9d55206fb26f8321468"}, {"bike_id": "fb2608a5b37f8b41839828bd37196826", "type": "electric_scooter", "is_disabled": 0, "lat": 38.92337, "rental_uris": {"ios": "https://dc.lft.to/lastmile_qr_scan", "android": "https://dc.lft.to/lastmile_qr_scan"}, "is_reserved": 0, "fusion_lon": 0.0, "fusion_lat": 0.0, "lon": -77.0018785, "name": "fb2608a5b37f8b41839828bd37196826"}, {"bike_id": "3d3f70e58b5a6b82f6402f8a0436fea2", "type": "electric_scooter", "is_disabled": 0, "lat": 38.889371833333335, "rental_uris": {"ios": "https://dc.lft.to/lastmile_qr_scan", "android": "https://dc.lft.to/lastmile_qr_scan"}, "is_reserved": 0, "fusion_lon": 0.0, "fusion_lat": 0.0, "lon": -77.01506233333333, "name": "3d3f70e58b5a6b82f6402f8a0436fea2"}, {"bike_id": "474fb40e0272661a9bcef63dccb29729", "type": "electric_bike", "is_disabled": 0, "lat": 38.804194333333335, "rental_uris": {"ios": "https://dc.lft.to/lastmile_qr_scan", "android": "https://dc.lft.to/lastmile_qr_scan"}, "is_reserved": 0, "fusion_lon": 0.0, "fusion_lat": 0.0, "lon": -77.055525, "name": "474fb40e0272661a9bcef63dccb29729"}, {"bike_id": "1fa9ee7e77d44e6a4d5c47c130a90145", "type": "electric_scooter", "is_disabled": 0, "lat": 38.922878, "rental_uris": {"ios": "https://dc.lft.to/lastmile_qr_scan", "android": "https://dc.lft.to/lastmile_qr_scan"}, "is_reserved": 0, "fusion_lon": 0.0, "fusion_lat": 0.0, "lon": -77.029688, "name": "1fa9ee7e77d44e6a4d5c47c130a90145"}, {"bike_id": "cbd8a700ea86a1a93fd0b4852f8713af", "type": "electric_scooter", "is_disabled": 0, "lat": 38.905037166666666, "rental_uris": {"ios": "https://dc.lft.to/lastmile_qr_scan", "android": "https://dc.lft.to/lastmile_qr_scan"}, "is_reserved": 0, "fusion_lon": 0.0, "fusion_lat": 0.0, "lon": -77.01998716666667, "name": "cbd8a700ea86a1a93fd0b4852f8713af"}, {"bike_id": "70e3bc70e3c0480c44f3029f194c39bd", "type": "electric_scooter", "is_disabled": 0, "lat": 38.905584, "rental_uris": {"ios": "https://dc.lft.to/lastmile_qr_scan", "android": "https://dc.lft.to/lastmile_qr_scan"}, "is_reserved": 0, "fusion_lon": 0.0, "fusion_lat": 0.0, "lon": -76.996186, "name": "70e3bc70e3c0480c44f3029f194c39bd"}, {"bike_id": "2e4b2a5fc90b74b25d0a7af3cb5ee406", "type": "electric_scooter", "is_disabled": 0, "lat": 38.92268816666667, "rental_uris": {"ios": "https://dc.lft.to/lastmile_qr_scan", "android": "https://dc.lft.to/lastmile_qr_scan"}, "is_reserved": 0, "fusion_lon": 0.0, "fusion_lat": 0.0, "lon": -77.03866833333333, "name": "2e4b2a5fc90b74b25d0a7af3cb5ee406"}, {"bike_id": "ddf9ef4be0390bbf9e2b29358c85cb99", "type": "electric_bike", "is_disabled": 0, "lat": 38.93702566666666, "rental_uris": {"ios": "https://dc.lft.to/lastmile_qr_scan", "android": "https://dc.lft.to/lastmile_qr_scan"}, "is_reserved": 0, "fusion_lon": 0.0, "fusion_lat": 0.0, "lon": -77.02116283333334, "name": "ddf9ef4be0390bbf9e2b29358c85cb99"}, {"bike_id": "c34d5efe0aac5dfebc1c7cc92de65c53", "type": "electric_scooter", "is_disabled": 0, "lat": 38.9227005, "rental_uris": {"ios": "https://dc.lft.to/lastmile_qr_scan", "android": "https://dc.lft.to/lastmile_qr_scan"}, "is_reserved": 0, "fusion_lon": 0.0, "fusion_lat": 0.0, "lon": -76.99458416666667, "name": "c34d5efe0aac5dfebc1c7cc92de65c53"}, {"bike_id": "e35b150334c29db5d32070eb760ee3e4", "type": "electric_scooter", "is_disabled": 0, "lat": 38.918328333333335, "rental_uris": {"ios": "https://dc.lft.to/lastmile_qr_scan", "android": "https://dc.lft.to/lastmile_qr_scan"}, "is_reserved": 0, "fusion_lon": 0.0, "fusion_lat": 0.0, "lon": -77.03211316666666, "name": "e35b150334c29db5d32070eb760ee3e4"}, {"bike_id": "3cff523b18155d00e73ddf65c2eb0023", "type": "electric_bike", "is_disabled": 0, "lat": 38.952414, "rental_uris": {"ios": "https://dc.lft.to/lastmile_qr_scan", "android": "https://dc.lft.to/lastmile_qr_scan"}, "is_reserved": 0, "fusion_lon": 0.0, "fusion_lat": 0.0, "lon": -77.00761666666666, "name": "3cff523b18155d00e73ddf65c2eb0023"}, {"bike_id": "ce4b304da8b015021874fb033aa35603", "type": "electric_scooter", "is_disabled": 0, "lat": 38.909578, "rental_uris": {"ios": "https://dc.lft.to/lastmile_qr_scan", "android": "https://dc.lft.to/lastmile_qr_scan"}, "is_reserved": 0, "fusion_lon": 0.0, "fusion_lat": 0.0, "lon": -77.04858183333333, "name": "ce4b304da8b015021874fb033aa35603"}, {"bike_id": "7d7851496700c8e58c57178214985247", "type": "electric_scooter", "is_disabled": 0, "lat": 38.895442, "rental_uris": {"ios": "https://dc.lft.to/lastmile_qr_scan", "android": "https://dc.lft.to/lastmile_qr_scan"}, "is_reserved": 0, "fusion_lon": 0.0, "fusion_lat": 0.0, "lon": -77.0109255, "name": "7d7851496700c8e58c57178214985247"}, {"bike_id": "898879af4a2392681453af1e50977f22", "type": "electric_scooter", "is_disabled": 0, "lat": 38.90947333333333, "rental_uris": {"ios": "https://dc.lft.to/lastmile_qr_scan", "android": "https://dc.lft.to/lastmile_qr_scan"}, "is_reserved": 0, "fusion_lon": 0.0, "fusion_lat": 0.0, "lon": -77.03445316666667, "name": "898879af4a2392681453af1e50977f22"}, {"bike_id": "892b11597aba646a2ace172dae3f9583", "type": "electric_scooter", "is_disabled": 0, "lat": 38.919207666666665, "rental_uris": {"ios": "https://dc.lft.to/lastmile_qr_scan", "android": "https://dc.lft.to/lastmile_qr_scan"}, "is_reserved": 0, "fusion_lon": 0.0, "fusion_lat": 0.0, "lon": -77.03110466666666, "name": "892b11597aba646a2ace172dae3f9583"}, {"bike_id": "2186efeda0322531f12f8cca606ca092", "type": "electric_scooter", "is_disabled": 0, "lat": 38.905849, "rental_uris": {"ios": "https://dc.lft.to/lastmile_qr_scan", "android": "https://dc.lft.to/lastmile_qr_scan"}, "is_reserved": 0, "fusion_lon": 0.0, "fusion_lat": 0.0, "lon": -77.02601483333333, "name": "2186efeda0322531f12f8cca606ca092"}, {"bike_id": "73858c79e15af6c5a6dabc8e5fb1efce", "type": "electric_scooter", "is_disabled": 0, "lat": 38.91281166666667, "rental_uris": {"ios": "https://dc.lft.to/lastmile_qr_scan", "android": "https://dc.lft.to/lastmile_qr_scan"}, "is_reserved": 0, "fusion_lon": 0.0, "fusion_lat": 0.0, "lon": -77.02245083333334, "name": "73858c79e15af6c5a6dabc8e5fb1efce"}, {"bike_id": "bfdd4bd76923eb5f48349ef45c696e89", "type": "electric_scooter", "is_disabled": 0, "lat": 38.91561033333333, "rental_uris": {"ios": "https://dc.lft.to/lastmile_qr_scan", "android": "https://dc.lft.to/lastmile_qr_scan"}, "is_reserved": 0, "fusion_lon": 0.0, "fusion_lat": 0.0, "lon": -77.03869833333333, "name": "bfdd4bd76923eb5f48349ef45c696e89"}, {"bike_id": "7fd8e26819bf49901a617ca4288e71a6", "type": "electric_scooter", "is_disabled": 0, "lat": 38.903654333333336, "rental_uris": {"ios": "https://dc.lft.to/lastmile_qr_scan", "android": "https://dc.lft.to/lastmile_qr_scan"}, "is_reserved": 0, "fusion_lon": 0.0, "fusion_lat": 0.0, "lon": -77.039809, "name": "7fd8e26819bf49901a617ca4288e71a6"}, {"bike_id": "68dd6a79078ea4018ab76c9c82cf382d", "type": "electric_scooter", "is_disabled": 0, "lat": 38.9215605, "rental_uris": {"ios": "https://dc.lft.to/lastmile_qr_scan", "android": "https://dc.lft.to/lastmile_qr_scan"}, "is_reserved": 0, "fusion_lon": 0.0, "fusion_lat": 0.0, "lon": -77.03439233333333, "name": "68dd6a79078ea4018ab76c9c82cf382d"}, {"bike_id": "d33b99e1e428b9a9ff4bdc81f054814f", "type": "electric_scooter", "is_disabled": 0, "lat": 38.90518133333333, "rental_uris": {"ios": "https://dc.lft.to/lastmile_qr_scan", "android": "https://dc.lft.to/lastmile_qr_scan"}, "is_reserved": 0, "fusion_lon": 0.0, "fusion_lat": 0.0, "lon": -77.06875116666667, "name": "d33b99e1e428b9a9ff4bdc81f054814f"}, {"bike_id": "26cc54b9af7305a8ccb88d3101e505d1", "type": "electric_scooter", "is_disabled": 0, "lat": 38.87837533333333, "rental_uris": {"ios": "https://dc.lft.to/lastmile_qr_scan", "android": "https://dc.lft.to/lastmile_qr_scan"}, "is_reserved": 0, "fusion_lon": 0.0, "fusion_lat": 0.0, "lon": -77.005815, "name": "26cc54b9af7305a8ccb88d3101e505d1"}, {"bike_id": "d584544587f8376e41d179cfc90d239d", "type": "electric_scooter", "is_disabled": 0, "lat": 38.87654033333333, "rental_uris": {"ios": "https://dc.lft.to/lastmile_qr_scan", "android": "https://dc.lft.to/lastmile_qr_scan"}, "is_reserved": 0, "fusion_lon": 0.0, "fusion_lat": 0.0, "lon": -77.00421016666667, "name": "d584544587f8376e41d179cfc90d239d"}, {"bike_id": "b7c46b884c302fd807d59a139a48c6c5", "type": "electric_scooter", "is_disabled": 0, "lat": 38.9421675, "rental_uris": {"ios": "https://dc.lft.to/lastmile_qr_scan", "android": "https://dc.lft.to/lastmile_qr_scan"}, "is_reserved": 0, "fusion_lon": 0.0, "fusion_lat": 0.0, "lon": -77.02581766666667, "name": "b7c46b884c302fd807d59a139a48c6c5"}, {"bike_id": "40712d8739d00aff631bd32f80e82d48", "type": "electric_scooter", "is_disabled": 0, "lat": 38.890975833333336, "rental_uris": {"ios": "https://dc.lft.to/lastmile_qr_scan", "android": "https://dc.lft.to/lastmile_qr_scan"}, "is_reserved": 0, "fusion_lon": 0.0, "fusion_lat": 0.0, "lon": -77.00259233333334, "name": "40712d8739d00aff631bd32f80e82d48"}, {"bike_id": "059e1b1c8420754760efc444a815b4e6", "type": "electric_scooter", "is_disabled": 0, "lat": 38.92619, "rental_uris": {"ios": "https://dc.lft.to/lastmile_qr_scan", "android": "https://dc.lft.to/lastmile_qr_scan"}, "is_reserved": 0, "fusion_lon": 0.0, "fusion_lat": 0.0, "lon": -77.02669133333333, "name": "059e1b1c8420754760efc444a815b4e6"}, {"bike_id": "054e04b1f455171d53f2c02e6719fccd", "type": "electric_scooter", "is_disabled": 0, "lat": 38.88971883333333, "rental_uris": {"ios": "https://dc.lft.to/lastmile_qr_scan", "android": "https://dc.lft.to/lastmile_qr_scan"}, "is_reserved": 0, "fusion_lon": 0.0, "fusion_lat": 0.0, "lon": -76.98241633333333, "name": "054e04b1f455171d53f2c02e6719fccd"}, {"bike_id": "52a3810b53b5dbc9fc71a5eb8baed0be", "type": "electric_bike", "is_disabled": 0, "lat": 38.86357566666667, "rental_uris": {"ios": "https://dc.lft.to/lastmile_qr_scan", "android": "https://dc.lft.to/lastmile_qr_scan"}, "is_reserved": 0, "fusion_lon": 0.0, "fusion_lat": 0.0, "lon": -76.987237, "name": "52a3810b53b5dbc9fc71a5eb8baed0be"}, {"bike_id": "2749b27459e318a318789dad0d6af1f2", "type": "electric_scooter", "is_disabled": 0, "lat": 38.91188566666667, "rental_uris": {"ios": "https://dc.lft.to/lastmile_qr_scan", "android": "https://dc.lft.to/lastmile_qr_scan"}, "is_reserved": 0, "fusion_lon": 0.0, "fusion_lat": 0.0, "lon": -77.0037825, "name": "2749b27459e318a318789dad0d6af1f2"}, {"bike_id": "b14718cfb65b5dbc2469b785451e9f40", "type": "electric_scooter", "is_disabled": 0, "lat": 38.858915833333334, "rental_uris": {"ios": "https://dc.lft.to/lastmile_qr_scan", "android": "https://dc.lft.to/lastmile_qr_scan"}, "is_reserved": 0, "fusion_lon": 0.0, "fusion_lat": 0.0, "lon": -76.99723033333333, "name": "b14718cfb65b5dbc2469b785451e9f40"}, {"bike_id": "e4f9eb52db986dae6c104ec1affd2949", "type": "electric_scooter", "is_disabled": 0, "lat": 38.90275416666667, "rental_uris": {"ios": "https://dc.lft.to/lastmile_qr_scan", "android": "https://dc.lft.to/lastmile_qr_scan"}, "is_reserved": 0, "fusion_lon": 0.0, "fusion_lat": 0.0, "lon": -77.003425, "name": "e4f9eb52db986dae6c104ec1affd2949"}, {"bike_id": "981a194ab27f9a43f6613b5c270f2b8b", "type": "electric_scooter", "is_disabled": 0, "lat": 38.918503333333334, "rental_uris": {"ios": "https://dc.lft.to/lastmile_qr_scan", "android": "https://dc.lft.to/lastmile_qr_scan"}, "is_reserved": 0, "fusion_lon": 0.0, "fusion_lat": 0.0, "lon": -77.03884666666667, "name": "981a194ab27f9a43f6613b5c270f2b8b"}, {"bike_id": "c74194b9f2e370db09be1e49c514b93a", "type": "electric_scooter", "is_disabled": 0, "lat": 38.91624366666667, "rental_uris": {"ios": "https://dc.lft.to/lastmile_qr_scan", "android": "https://dc.lft.to/lastmile_qr_scan"}, "is_reserved": 0, "fusion_lon": 0.0, "fusion_lat": 0.0, "lon": -77.03976566666667, "name": "c74194b9f2e370db09be1e49c514b93a"}, {"bike_id": "5d9878a86a09ed446117656bcb0f0f92", "type": "electric_scooter", "is_disabled": 0, "lat": 38.922437, "rental_uris": {"ios": "https://dc.lft.to/lastmile_qr_scan", "android": "https://dc.lft.to/lastmile_qr_scan"}, "is_reserved": 0, "fusion_lon": 0.0, "fusion_lat": 0.0, "lon": -77.029513, "name": "5d9878a86a09ed446117656bcb0f0f92"}, {"bike_id": "41a4f9d8120d5ba8a1db1c09bbd75adc", "type": "electric_scooter", "is_disabled": 0, "lat": 38.899859, "rental_uris": {"ios": "https://dc.lft.to/lastmile_qr_scan", "android": "https://dc.lft.to/lastmile_qr_scan"}, "is_reserved": 0, "fusion_lon": 0.0, "fusion_lat": 0.0, "lon": -76.95, "name": "41a4f9d8120d5ba8a1db1c09bbd75adc"}, {"bike_id": "32caea529d44e4196d1bebf3ffa91d30", "type": "electric_scooter", "is_disabled": 0, "lat": 38.9377255, "rental_uris": {"ios": "https://dc.lft.to/lastmile_qr_scan", "android": "https://dc.lft.to/lastmile_qr_scan"}, "is_reserved": 0, "fusion_lon": 0.0, "fusion_lat": 0.0, "lon": -77.0197025, "name": "32caea529d44e4196d1bebf3ffa91d30"}, {"bike_id": "a048460a69496234e2dfda5b7b26ee59", "type": "electric_scooter", "is_disabled": 0, "lat": 38.931699, "rental_uris": {"ios": "https://dc.lft.to/lastmile_qr_scan", "android": "https://dc.lft.to/lastmile_qr_scan"}, "is_reserved": 0, "fusion_lon": 0.0, "fusion_lat": 0.0, "lon": -77.0281445, "name": "a048460a69496234e2dfda5b7b26ee59"}, {"bike_id": "dd58a281580ab51ce8d0ffe88704bc6e", "type": "electric_scooter", "is_disabled": 0, "lat": 38.89348233333333, "rental_uris": {"ios": "https://dc.lft.to/lastmile_qr_scan", "android": "https://dc.lft.to/lastmile_qr_scan"}, "is_reserved": 0, "fusion_lon": 0.0, "fusion_lat": 0.0, "lon": -76.99384633333334, "name": "dd58a281580ab51ce8d0ffe88704bc6e"}, {"bike_id": "3708ab619d0c06df21dcd71d41ad8928", "type": "electric_scooter", "is_disabled": 0, "lat": 38.9215525, "rental_uris": {"ios": "https://dc.lft.to/lastmile_qr_scan", "android": "https://dc.lft.to/lastmile_qr_scan"}, "is_reserved": 0, "fusion_lon": 0.0, "fusion_lat": 0.0, "lon": -77.03383283333334, "name": "3708ab619d0c06df21dcd71d41ad8928"}, {"bike_id": "b47ad7aff7b423bbbcbe69448af3c209", "type": "electric_scooter", "is_disabled": 0, "lat": 38.9163115, "rental_uris": {"ios": "https://dc.lft.to/lastmile_qr_scan", "android": "https://dc.lft.to/lastmile_qr_scan"}, "is_reserved": 0, "fusion_lon": 0.0, "fusion_lat": 0.0, "lon": -77.02954933333334, "name": "b47ad7aff7b423bbbcbe69448af3c209"}, {"bike_id": "ff1fe869437c352a88e5c9088151584b", "type": "electric_scooter", "is_disabled": 0, "lat": 38.92094933333333, "rental_uris": {"ios": "https://dc.lft.to/lastmile_qr_scan", "android": "https://dc.lft.to/lastmile_qr_scan"}, "is_reserved": 0, "fusion_lon": 0.0, "fusion_lat": 0.0, "lon": -77.02536916666666, "name": "ff1fe869437c352a88e5c9088151584b"}, {"bike_id": "c415147ba19e9f5e58c931f06a607079", "type": "electric_bike", "is_disabled": 0, "lat": 38.878867166666666, "rental_uris": {"ios": "https://dc.lft.to/lastmile_qr_scan", "android": "https://dc.lft.to/lastmile_qr_scan"}, "is_reserved": 0, "fusion_lon": 0.0, "fusion_lat": 0.0, "lon": -77.09613833333333, "name": "c415147ba19e9f5e58c931f06a607079"}, {"bike_id": "7efdc4e7551844d2229a3abac9b379bd", "type": "electric_scooter", "is_disabled": 0, "lat": 38.90128583333333, "rental_uris": {"ios": "https://dc.lft.to/lastmile_qr_scan", "android": "https://dc.lft.to/lastmile_qr_scan"}, "is_reserved": 0, "fusion_lon": 0.0, "fusion_lat": 0.0, "lon": -77.04523166666667, "name": "7efdc4e7551844d2229a3abac9b379bd"}, {"bike_id": "911d35fe2bf91adbafe8d568e1d620e8", "type": "electric_scooter", "is_disabled": 0, "lat": 38.902859, "rental_uris": {"ios": "https://dc.lft.to/lastmile_qr_scan", "android": "https://dc.lft.to/lastmile_qr_scan"}, "is_reserved": 0, "fusion_lon": 0.0, "fusion_lat": 0.0, "lon": -77.038587, "name": "911d35fe2bf91adbafe8d568e1d620e8"}, {"bike_id": "d48514ef8495fadd8554e65661255457", "type": "electric_scooter", "is_disabled": 0, "lat": 38.902659, "rental_uris": {"ios": "https://dc.lft.to/lastmile_qr_scan", "android": "https://dc.lft.to/lastmile_qr_scan"}, "is_reserved": 0, "fusion_lon": 0.0, "fusion_lat": 0.0, "lon": -77.00326133333333, "name": "d48514ef8495fadd8554e65661255457"}, {"bike_id": "29479e99cb410b2013cc7799ea9dd453", "type": "electric_scooter", "is_disabled": 0, "lat": 38.917427333333336, "rental_uris": {"ios": "https://dc.lft.to/lastmile_qr_scan", "android": "https://dc.lft.to/lastmile_qr_scan"}, "is_reserved": 0, "fusion_lon": 0.0, "fusion_lat": 0.0, "lon": -77.02803433333334, "name": "29479e99cb410b2013cc7799ea9dd453"}, {"bike_id": "91916527049f554089d50369d6849f2c", "type": "electric_scooter", "is_disabled": 0, "lat": 38.930906, "rental_uris": {"ios": "https://dc.lft.to/lastmile_qr_scan", "android": "https://dc.lft.to/lastmile_qr_scan"}, "is_reserved": 0, "fusion_lon": 0.0, "fusion_lat": 0.0, "lon": -77.028009, "name": "91916527049f554089d50369d6849f2c"}, {"bike_id": "5cc239544f66d916f9167087f92439bc", "type": "electric_scooter", "is_disabled": 0, "lat": 38.91574133333334, "rental_uris": {"ios": "https://dc.lft.to/lastmile_qr_scan", "android": "https://dc.lft.to/lastmile_qr_scan"}, "is_reserved": 0, "fusion_lon": 0.0, "fusion_lat": 0.0, "lon": -77.0199665, "name": "5cc239544f66d916f9167087f92439bc"}, {"bike_id": "7b66ea489b7de21dd1a1fe5b78a1f4eb", "type": "electric_scooter", "is_disabled": 0, "lat": 38.91116483333333, "rental_uris": {"ios": "https://dc.lft.to/lastmile_qr_scan", "android": "https://dc.lft.to/lastmile_qr_scan"}, "is_reserved": 0, "fusion_lon": 0.0, "fusion_lat": 0.0, "lon": -77.00536883333334, "name": "7b66ea489b7de21dd1a1fe5b78a1f4eb"}, {"bike_id": "e90dfe3cb85e67286ba2f2a3995bef1a", "type": "electric_scooter", "is_disabled": 0, "lat": 38.9312905, "rental_uris": {"ios": "https://dc.lft.to/lastmile_qr_scan", "android": "https://dc.lft.to/lastmile_qr_scan"}, "is_reserved": 0, "fusion_lon": 0.0, "fusion_lat": 0.0, "lon": -77.03853733333334, "name": "e90dfe3cb85e67286ba2f2a3995bef1a"}, {"bike_id": "cd224b0d38d9fa07a6dfcf8463834566", "type": "electric_scooter", "is_disabled": 0, "lat": 38.907196666666664, "rental_uris": {"ios": "https://dc.lft.to/lastmile_qr_scan", "android": "https://dc.lft.to/lastmile_qr_scan"}, "is_reserved": 0, "fusion_lon": 0.0, "fusion_lat": 0.0, "lon": -77.02568216666667, "name": "cd224b0d38d9fa07a6dfcf8463834566"}, {"bike_id": "2b6bf706a96928e3472ef5244f376f09", "type": "electric_scooter", "is_disabled": 0, "lat": 38.905075833333335, "rental_uris": {"ios": "https://dc.lft.to/lastmile_qr_scan", "android": "https://dc.lft.to/lastmile_qr_scan"}, "is_reserved": 0, "fusion_lon": 0.0, "fusion_lat": 0.0, "lon": -77.02000883333334, "name": "2b6bf706a96928e3472ef5244f376f09"}, {"bike_id": "5e262b27594a2d03a8e419c42c2f1b05", "type": "electric_scooter", "is_disabled": 0, "lat": 38.91986633333333, "rental_uris": {"ios": "https://dc.lft.to/lastmile_qr_scan", "android": "https://dc.lft.to/lastmile_qr_scan"}, "is_reserved": 0, "fusion_lon": 0.0, "fusion_lat": 0.0, "lon": -77.032651, "name": "5e262b27594a2d03a8e419c42c2f1b05"}, {"bike_id": "91975cccb8e5a62acfb469fff316d661", "type": "electric_scooter", "is_disabled": 0, "lat": 38.93212483333333, "rental_uris": {"ios": "https://dc.lft.to/lastmile_qr_scan", "android": "https://dc.lft.to/lastmile_qr_scan"}, "is_reserved": 0, "fusion_lon": 0.0, "fusion_lat": 0.0, "lon": -77.0367315, "name": "91975cccb8e5a62acfb469fff316d661"}, {"bike_id": "1c0f7d41c2d32b3995ebecc2b9972fbb", "type": "electric_scooter", "is_disabled": 0, "lat": 38.898784166666665, "rental_uris": {"ios": "https://dc.lft.to/lastmile_qr_scan", "android": "https://dc.lft.to/lastmile_qr_scan"}, "is_reserved": 0, "fusion_lon": 0.0, "fusion_lat": 0.0, "lon": -76.9318495, "name": "1c0f7d41c2d32b3995ebecc2b9972fbb"}, {"bike_id": "3efb3551602e06fcbca66b9417a6c40e", "type": "electric_scooter", "is_disabled": 0, "lat": 38.91274116666666, "rental_uris": {"ios": "https://dc.lft.to/lastmile_qr_scan", "android": "https://dc.lft.to/lastmile_qr_scan"}, "is_reserved": 0, "fusion_lon": 0.0, "fusion_lat": 0.0, "lon": -77.0176615, "name": "3efb3551602e06fcbca66b9417a6c40e"}, {"bike_id": "437109e4d49f5bd37fc31d4007ea58a0", "type": "electric_scooter", "is_disabled": 0, "lat": 38.90911583333333, "rental_uris": {"ios": "https://dc.lft.to/lastmile_qr_scan", "android": "https://dc.lft.to/lastmile_qr_scan"}, "is_reserved": 0, "fusion_lon": 0.0, "fusion_lat": 0.0, "lon": -76.98424133333333, "name": "437109e4d49f5bd37fc31d4007ea58a0"}, {"bike_id": "aecd6a35a177d6d05920124579a368d5", "type": "electric_scooter", "is_disabled": 0, "lat": 38.9332135, "rental_uris": {"ios": "https://dc.lft.to/lastmile_qr_scan", "android": "https://dc.lft.to/lastmile_qr_scan"}, "is_reserved": 0, "fusion_lon": 0.0, "fusion_lat": 0.0, "lon": -77.03259416666667, "name": "aecd6a35a177d6d05920124579a368d5"}, {"bike_id": "76380ec548cd51e93187a94843accb78", "type": "electric_scooter", "is_disabled": 0, "lat": 38.92050233333333, "rental_uris": {"ios": "https://dc.lft.to/lastmile_qr_scan", "android": "https://dc.lft.to/lastmile_qr_scan"}, "is_reserved": 0, "fusion_lon": 0.0, "fusion_lat": 0.0, "lon": -77.01736916666667, "name": "76380ec548cd51e93187a94843accb78"}, {"bike_id": "dd3da944597f6f76a507f2a7287ad37a", "type": "electric_scooter", "is_disabled": 0, "lat": 38.9248365, "rental_uris": {"ios": "https://dc.lft.to/lastmile_qr_scan", "android": "https://dc.lft.to/lastmile_qr_scan"}, "is_reserved": 0, "fusion_lon": 0.0, "fusion_lat": 0.0, "lon": -77.05759366666666, "name": "dd3da944597f6f76a507f2a7287ad37a"}, {"bike_id": "b5fb5d077a811a3c3209d602abce1e91", "type": "electric_scooter", "is_disabled": 0, "lat": 38.90862583333333, "rental_uris": {"ios": "https://dc.lft.to/lastmile_qr_scan", "android": "https://dc.lft.to/lastmile_qr_scan"}, "is_reserved": 0, "fusion_lon": 0.0, "fusion_lat": 0.0, "lon": -77.02689466666666, "name": "b5fb5d077a811a3c3209d602abce1e91"}, {"bike_id": "8bc3e44cd91ad0fdd59554f435dc22e2", "type": "electric_scooter", "is_disabled": 0, "lat": 38.9164145, "rental_uris": {"ios": "https://dc.lft.to/lastmile_qr_scan", "android": "https://dc.lft.to/lastmile_qr_scan"}, "is_reserved": 0, "fusion_lon": 0.0, "fusion_lat": 0.0, "lon": -77.0480705, "name": "8bc3e44cd91ad0fdd59554f435dc22e2"}, {"bike_id": "287497ea185e48a0a1c0bb93f7317769", "type": "electric_scooter", "is_disabled": 0, "lat": 38.893171, "rental_uris": {"ios": "https://dc.lft.to/lastmile_qr_scan", "android": "https://dc.lft.to/lastmile_qr_scan"}, "is_reserved": 0, "fusion_lon": 0.0, "fusion_lat": 0.0, "lon": -76.939675, "name": "287497ea185e48a0a1c0bb93f7317769"}, {"bike_id": "a3c2e4dc5184e0f219f7b8c8f87c79eb", "type": "electric_scooter", "is_disabled": 0, "lat": 38.879888666666666, "rental_uris": {"ios": "https://dc.lft.to/lastmile_qr_scan", "android": "https://dc.lft.to/lastmile_qr_scan"}, "is_reserved": 0, "fusion_lon": 0.0, "fusion_lat": 0.0, "lon": -76.985444, "name": "a3c2e4dc5184e0f219f7b8c8f87c79eb"}, {"bike_id": "0336b5fe5db327e624cde55b1f71a5fb", "type": "electric_scooter", "is_disabled": 0, "lat": 38.915845, "rental_uris": {"ios": "https://dc.lft.to/lastmile_qr_scan", "android": "https://dc.lft.to/lastmile_qr_scan"}, "is_reserved": 0, "fusion_lon": 0.0, "fusion_lat": 0.0, "lon": -77.04527333333333, "name": "0336b5fe5db327e624cde55b1f71a5fb"}, {"bike_id": "7733657f4f2ffbf580ac66ad46a41f5b", "type": "electric_scooter", "is_disabled": 0, "lat": 38.87725433333333, "rental_uris": {"ios": "https://dc.lft.to/lastmile_qr_scan", "android": "https://dc.lft.to/lastmile_qr_scan"}, "is_reserved": 0, "fusion_lon": 0.0, "fusion_lat": 0.0, "lon": -77.017524, "name": "7733657f4f2ffbf580ac66ad46a41f5b"}, {"bike_id": "7f974d49f7c17290a51b302ffea5fc5f", "type": "electric_scooter", "is_disabled": 0, "lat": 38.89746566666667, "rental_uris": {"ios": "https://dc.lft.to/lastmile_qr_scan", "android": "https://dc.lft.to/lastmile_qr_scan"}, "is_reserved": 0, "fusion_lon": 0.0, "fusion_lat": 0.0, "lon": -77.04856, "name": "7f974d49f7c17290a51b302ffea5fc5f"}, {"bike_id": "df0e801dba806e6c0c86b55a3b6f1cd3", "type": "electric_scooter", "is_disabled": 0, "lat": 38.8922455, "rental_uris": {"ios": "https://dc.lft.to/lastmile_qr_scan", "android": "https://dc.lft.to/lastmile_qr_scan"}, "is_reserved": 0, "fusion_lon": 0.0, "fusion_lat": 0.0, "lon": -77.01558783333333, "name": "df0e801dba806e6c0c86b55a3b6f1cd3"}, {"bike_id": "b7cd35c05c5a263f0f5a9094c63d95d5", "type": "electric_scooter", "is_disabled": 0, "lat": 38.88698216666667, "rental_uris": {"ios": "https://dc.lft.to/lastmile_qr_scan", "android": "https://dc.lft.to/lastmile_qr_scan"}, "is_reserved": 0, "fusion_lon": 0.0, "fusion_lat": 0.0, "lon": -76.99610583333333, "name": "b7cd35c05c5a263f0f5a9094c63d95d5"}, {"bike_id": "2fab8253e9d51d94b741274450380bd1", "type": "electric_scooter", "is_disabled": 0, "lat": 38.876341833333335, "rental_uris": {"ios": "https://dc.lft.to/lastmile_qr_scan", "android": "https://dc.lft.to/lastmile_qr_scan"}, "is_reserved": 0, "fusion_lon": 0.0, "fusion_lat": 0.0, "lon": -77.016954, "name": "2fab8253e9d51d94b741274450380bd1"}, {"bike_id": "827f0adbec6e0922f1bd8e23e574e4c9", "type": "electric_scooter", "is_disabled": 0, "lat": 38.90167616666667, "rental_uris": {"ios": "https://dc.lft.to/lastmile_qr_scan", "android": "https://dc.lft.to/lastmile_qr_scan"}, "is_reserved": 0, "fusion_lon": 0.0, "fusion_lat": 0.0, "lon": -76.93024033333333, "name": "827f0adbec6e0922f1bd8e23e574e4c9"}, {"bike_id": "30daddd34df43a48254814d55bfc037d", "type": "electric_scooter", "is_disabled": 0, "lat": 38.8872255, "rental_uris": {"ios": "https://dc.lft.to/lastmile_qr_scan", "android": "https://dc.lft.to/lastmile_qr_scan"}, "is_reserved": 0, "fusion_lon": 0.0, "fusion_lat": 0.0, "lon": -77.0220035, "name": "30daddd34df43a48254814d55bfc037d"}, {"bike_id": "94118b9e0daab0e54213ba824002250e", "type": "electric_bike", "is_disabled": 0, "lat": 38.874829, "rental_uris": {"ios": "https://dc.lft.to/lastmile_qr_scan", "android": "https://dc.lft.to/lastmile_qr_scan"}, "is_reserved": 0, "fusion_lon": 0.0, "fusion_lat": 0.0, "lon": -76.965311, "name": "94118b9e0daab0e54213ba824002250e"}, {"bike_id": "953d3841f050b6bb75e21dd28d7cc64d", "type": "electric_scooter", "is_disabled": 0, "lat": 38.887229166666664, "rental_uris": {"ios": "https://dc.lft.to/lastmile_qr_scan", "android": "https://dc.lft.to/lastmile_qr_scan"}, "is_reserved": 0, "fusion_lon": 0.0, "fusion_lat": 0.0, "lon": -77.02202116666666, "name": "953d3841f050b6bb75e21dd28d7cc64d"}, {"bike_id": "20509bcd66d14deb1f93017499c11d9c", "type": "electric_scooter", "is_disabled": 0, "lat": 38.933370833333335, "rental_uris": {"ios": "https://dc.lft.to/lastmile_qr_scan", "android": "https://dc.lft.to/lastmile_qr_scan"}, "is_reserved": 0, "fusion_lon": 0.0, "fusion_lat": 0.0, "lon": -77.04541066666667, "name": "20509bcd66d14deb1f93017499c11d9c"}, {"bike_id": "8ca1a078f0469350fd53539f7a87538a", "type": "electric_scooter", "is_disabled": 0, "lat": 38.912772833333335, "rental_uris": {"ios": "https://dc.lft.to/lastmile_qr_scan", "android": "https://dc.lft.to/lastmile_qr_scan"}, "is_reserved": 0, "fusion_lon": 0.0, "fusion_lat": 0.0, "lon": -77.03639233333334, "name": "8ca1a078f0469350fd53539f7a87538a"}, {"bike_id": "45124809559c748122aa6dc20a9e5856", "type": "electric_scooter", "is_disabled": 0, "lat": 38.920572666666665, "rental_uris": {"ios": "https://dc.lft.to/lastmile_qr_scan", "android": "https://dc.lft.to/lastmile_qr_scan"}, "is_reserved": 0, "fusion_lon": 0.0, "fusion_lat": 0.0, "lon": -76.9988415, "name": "45124809559c748122aa6dc20a9e5856"}, {"bike_id": "85d325cf4681a1284b9eaae99ac17883", "type": "electric_scooter", "is_disabled": 0, "lat": 38.917163333333335, "rental_uris": {"ios": "https://dc.lft.to/lastmile_qr_scan", "android": "https://dc.lft.to/lastmile_qr_scan"}, "is_reserved": 0, "fusion_lon": 0.0, "fusion_lat": 0.0, "lon": -77.03662183333333, "name": "85d325cf4681a1284b9eaae99ac17883"}, {"bike_id": "ed551824aa216092f02dab43c28422d7", "type": "electric_scooter", "is_disabled": 0, "lat": 38.908623, "rental_uris": {"ios": "https://dc.lft.to/lastmile_qr_scan", "android": "https://dc.lft.to/lastmile_qr_scan"}, "is_reserved": 0, "fusion_lon": 0.0, "fusion_lat": 0.0, "lon": -77.0269185, "name": "ed551824aa216092f02dab43c28422d7"}, {"bike_id": "1c4fc5c7075b6a55df842edc2ee51e12", "type": "electric_scooter", "is_disabled": 0, "lat": 38.95638866666667, "rental_uris": {"ios": "https://dc.lft.to/lastmile_qr_scan", "android": "https://dc.lft.to/lastmile_qr_scan"}, "is_reserved": 0, "fusion_lon": 0.0, "fusion_lat": 0.0, "lon": -77.011619, "name": "1c4fc5c7075b6a55df842edc2ee51e12"}, {"bike_id": "4a17db0c52feb3f38a4aaefbb131e95c", "type": "electric_scooter", "is_disabled": 0, "lat": 38.90217633333334, "rental_uris": {"ios": "https://dc.lft.to/lastmile_qr_scan", "android": "https://dc.lft.to/lastmile_qr_scan"}, "is_reserved": 0, "fusion_lon": 0.0, "fusion_lat": 0.0, "lon": -77.02108666666666, "name": "4a17db0c52feb3f38a4aaefbb131e95c"}, {"bike_id": "e8abec959322cb72ebfedef79c9ec1d7", "type": "electric_bike", "is_disabled": 0, "lat": 38.81315816666667, "rental_uris": {"ios": "https://dc.lft.to/lastmile_qr_scan", "android": "https://dc.lft.to/lastmile_qr_scan"}, "is_reserved": 0, "fusion_lon": 0.0, "fusion_lat": 0.0, "lon": -77.1096455, "name": "e8abec959322cb72ebfedef79c9ec1d7"},