{"data": {"bikes": [{"fusion_lat": 0.0, "name": "e17157bb2c36bc6f8ca0ed324ea00fa7", "is_disabled": 0, "rental_uris": {"android": "https://dc.lft.to/lastmile_qr_scan", "ios": "https://dc.lft.to/lastmile_qr_scan"}, "fusion_lon": 0.0, "lat": 38.934741833333334, "bike_id": "e17157bb2c36bc6f8ca0ed324ea00fa7", "type": "electric_scooter", "is_reserved": 0, "lon": -77.07279533333333}, {"fusion_lat": 0.0, "name": "d5bd23c7c366d76616d2268441d6f623", "is_disabled": 0, "rental_uris": {"android": "https://dc.lft.to/lastmile_qr_scan", "ios": "https://dc.lft.to/lastmile_qr_scan"}, "fusion_lon": 0.0, "lat": 38.898758, "bike_id": "d5bd23c7c366d76616d2268441d6f623", "type": "electric_scooter", "is_reserved": 0, "lon": -76.931842}, {"fusion_lat": 0.0, "name": "c54d49424fe9a41747cb07d99886727d", "is_disabled": 0, "rental_uris": {"android": "https://dc.lft.to/lastmile_qr_scan", "ios": "https://dc.lft.to/lastmile_qr_scan"}, "fusion_lon": 0.0, "lat": 38.91455466666667, "bike_id": "c54d49424fe9a41747cb07d99886727d", "type": "electric_scooter", "is_reserved": 0, "lon": -77.00213316666667}, {"fusion_lat": 0.0, "name": "1163c44af06b7b51d61eb562deb26511", "is_disabled": 0, "rental_uris": {"android": "https://dc.lft.to/lastmile_qr_scan", "ios": "https://dc.lft.to/lastmile_qr_scan"}, "fusion_lon": 0.0, "lat": 38.907990833333336, "bike_id": "1163c44af06b7b51d61eb562deb26511", "type": "electric_scooter", "is_reserved": 0, "lon": -77.03443666666666}, {"fusion_lat": 0.0, "name": "13c5b20ab5af432e4a01fb8a0d9ba2d6", "is_disabled": 0, "rental_uris": {"android": "https://dc.lft.to/lastmile_qr_scan", "ios": "https://dc.lft.to/lastmile_qr_scan"}, "fusion_lon": 0.0, "lat": 38.909725, "bike_id": "13c5b20ab5af432e4a01fb8a0d9ba2d6", "type": "electric_scooter", "is_reserved": 0, "lon": -77.032114}, {"fusion_lat": 0.0, "name": "98483674b4e7594cb3d104e963a64263", "is_disabled": 0, "rental_uris": {"android": "https://dc.lft.to/lastmile_qr_scan", "ios": "https://dc.lft.to/lastmile_qr_scan"}, "fusion_lon": 0.0, "lat": 38.883761, "bike_id": "98483674b4e7594cb3d104e963a64263", "type": "electric_scooter", "is_reserved": 0, "lon": -76.995159}, {"fusion_lat": 0.0, "name": "6ba79ceb439699124dbab355c5543095", "is_disabled": 0, "rental_uris": {"android": "https://dc.lft.to/lastmile_qr_scan", "ios": "https://dc.lft.to/lastmile_qr_scan"}, "fusion_lon": 0.0, "lat": 38.9030215, "bike_id": "6ba79ceb439699124dbab355c5543095", "type": "electric_scooter", "is_reserved": 0, "lon": -77.05816866666666}, {"fusion_lat": 0.0, "name": "5b958fa51965563000869985b01b58d6", "is_disabled": 0, "rental_uris": {"android": "https://dc.lft.to/lastmile_qr_scan", "ios": "https://dc.lft.to/lastmile_qr_scan"}, "fusion_lon": 0.0, "lat": 38.90057183333333, "bike_id": "5b958fa51965563000869985b01b58d6", "type": "electric_scooter", "is_reserved": 0, "lon": -76.99946283333334}, {"fusion_lat": 0.0, "name": "6d2126efe37965d3957bc06ae8acf0ae", "is_disabled": 0, "rental_uris": {"android": "https://dc.lft.to/lastmile_qr_scan", "ios": "https://dc.lft.to/lastmile_qr_scan"}, "fusion_lon": 0.0, "lat": 38.892489, "bike_id": "6d2126efe37965d3957bc06ae8acf0ae", "type": "electric_scooter", "is_reserved": 0, "lon": -77.03957466666667}, {"fusion_lat": 0.0, "name": "5ea0f6c38978d31b77834fbc1f253d2f", "is_disabled": 0, "rental_uris": {"android": "https://dc.lft.to/lastmile_qr_scan", "ios": "https://dc.lft.to/lastmile_qr_scan"}, "fusion_lon": 0.0, "lat": 38.91120033333333, "bike_id": "5ea0f6c38978d31b77834fbc1f253d2f", "type": "electric_scooter", "is_reserved": 0, "lon": -77.00756333333334}, {"fusion_lat": 0.0, "name": "83149d56c814a7cf5a558861146bc9bb", "is_disabled": 0, "rental_uris": {"android": "https://dc.lft.to/lastmile_qr_scan", "ios": "https://dc.lft.to/lastmile_qr_scan"}, "fusion_lon": 0.0, "lat": 38.926231666666666, "bike_id": "83149d56c814a7cf5a558861146bc9bb", "type": "electric_scooter", "is_reserved": 0, "lon": -77.03674416666667}, {"fusion_lat": 0.0, "name": "1aec796ed291bf428b3b34a18c0f8a9a", "is_disabled": 0, "rental_uris": {"android": "https://dc.lft.to/lastmile_qr_scan", "ios": "https://dc.lft.to/lastmile_qr_scan"}, "fusion_lon": 0.0, "lat": 38.923234666666666, "bike_id": "1aec796ed291bf428b3b34a18c0f8a9a", "type": "electric_scooter", "is_reserved": 0, "lon": -77.04035933333333}, {"fusion_lat": 0.0, "name": "77b9ac8065ce1c197b3e59a230ead267", "is_disabled": 0, "rental_uris": {"android": "https://dc.lft.to/lastmile_qr_scan", "ios": "https://dc.lft.to/lastmile_qr_scan"}, "fusion_lon": 0.0, "lat": 38.9195485, "bike_id": "77b9ac8065ce1c197b3e59a230ead267", "type": "electric_scooter", "is_reserved": 0, "lon": -77.07845133333333}, {"fusion_lat": 0.0, "name": "fb243960edd755e76d10f5c7aa9db201", "is_disabled": 0, "rental_uris": {"android": "https://dc.lft.to/lastmile_qr_scan", "ios": "https://dc.lft.to/lastmile_qr_scan"}, "fusion_lon": 0.0, "lat": 38.920146, "bike_id": "fb243960edd755e76d10f5c7aa9db201", "type": "electric_scooter", "is_reserved": 0, "lon": -77.01316233333333}, {"fusion_lat": 0.0, "name": "f7acdac61a41fc287e1969752cdde1df", "is_disabled": 0, "rental_uris": {"android": "https://dc.lft.to/lastmile_qr_scan", "ios": "https://dc.lft.to/lastmile_qr_scan"}, "fusion_lon": 0.0, "lat": 38.90729683333333, "bike_id": "f7acdac61a41fc287e1969752cdde1df", "type": "electric_scooter", "is_reserved": 0, "lon": -77.043542}, {"fusion_lat": 0.0, "name": "20a11a6e526d8344e7d9a29824c5fe24", "is_disabled": 0, "rental_uris": {"android": "https://dc.lft.to/lastmile_qr_scan", "ios": "https://dc.lft.to/lastmile_qr_scan"}, "fusion_lon": 0.0, "lat": 38.887476, "bike_id": "20a11a6e526d8344e7d9a29824c5fe24", "type": "electric_scooter", "is_reserved": 0, "lon": -77.02574316666667}, {"fusion_lat": 0.0, "name": "fda387ed84d000a079df7edc48e82d5a", "is_disabled": 0, "rental_uris": {"android": "https://dc.lft.to/lastmile_qr_scan", "ios": "https://dc.lft.to/lastmile_qr_scan"}, "fusion_lon": 0.0, "lat": 38.93260133333333, "bike_id": "fda387ed84d000a079df7edc48e82d5a", "type": "electric_scooter", "is_reserved": 0, "lon": -77.03261933333333}, {"fusion_lat": 0.0, "name": "7d535d50614637efd75a9913610fb387", "is_disabled": 0, "rental_uris": {"android": "https://dc.lft.to/lastmile_qr_scan", "ios": "https://dc.lft.to/lastmile_qr_scan"}, "fusion_lon": 0.0, "lat": 38.902911333333336, "bike_id": "7d535d50614637efd75a9913610fb387", "type": "electric_scooter", "is_reserved": 0, "lon": -77.00547366666666}, {"fusion_lat": 0.0, "name": "d970439d70c16e643adc4737ab34f6f4", "is_disabled": 0, "rental_uris": {"android": "https://dc.lft.to/lastmile_qr_scan", "ios": "https://dc.lft.to/lastmile_qr_scan"}, "fusion_lon": 0.0, "lat": 38.913934166666664, "bike_id": "d970439d70c16e643adc4737ab34f6f4", "type": "electric_scooter", "is_reserved": 0, "lon": -76.9841925}, {"fusion_lat": 0.0, "name": "7ba203ea440cbb6da283669b14fc16f4", "is_disabled": 0, "rental_uris": {"android": "https://dc.lft.to/lastmile_qr_scan", "ios": "https://dc.lft.to/lastmile_qr_scan"}, "fusion_lon": 0.0, "lat": 38.897515, "bike_id": "7ba203ea440cbb6da283669b14fc16f4", "type": "electric_scooter", "is_reserved": 0, "lon": -77.02746433333333}, {"fusion_lat": 0.0, "name": "c6c493a40834141908280f4c52d006d3", "is_disabled": 0, "rental_uris": {"android": "https://dc.lft.to/lastmile_qr_scan", "ios": "https://dc.lft.to/lastmile_qr_scan"}, "fusion_lon": 0.0, "lat": 38.87177616666666, "bike_id": "c6c493a40834141908280f4c52d006d3", "type": "electric_scooter", "is_reserved": 0, "lon": -77.00655766666667}, {"fusion_lat": 0.0, "name": "17986d14d90989679001b2ca615b95dd", "is_disabled": 0, "rental_uris": {"android": "https://dc.lft.to/lastmile_qr_scan", "ios": "https://dc.lft.to/lastmile_qr_scan"}, "fusion_lon": 0.0, "lat": 38.917267833333334, "bike_id": "17986d14d90989679001b2ca615b95dd", "type": "electric_scooter", "is_reserved": 0, "lon": -77.02702333333333}, {"fusion_lat": 0.0, "name": "ea3cb01c3846a1d724c563bb1498a3e1", "is_disabled": 0, "rental_uris": {"android": "https://dc.lft.to/lastmile_qr_scan", "ios": "https://dc.lft.to/lastmile_qr_scan"}, "fusion_lon": 0.0, "lat": 38.91161533333333, "bike_id": "ea3cb01c3846a1d724c563bb1498a3e1", "type": "electric_scooter", "is_reserved": 0, "lon": -77.01999416666666}, {"fusion_lat": 0.0, "name": "8e049e0a6c4b3f9c0a036117c378b29f", "is_disabled": 0, "rental_uris": {"android": "https://dc.lft.to/lastmile_qr_scan", "ios": "https://dc.lft.to/lastmile_qr_scan"}, "fusion_lon": 0.0, "lat": 38.90010016666667, "bike_id": "8e049e0a6c4b3f9c0a036117c378b29f", "type": "electric_scooter", "is_reserved": 0, "lon": -76.99860033333333}, {"fusion_lat": 0.0, "name": "a68bf6dea3d7da420fb69ec7c5765552", "is_disabled": 0, "rental_uris": {"android": "https://dc.lft.to/lastmile_qr_scan", "ios": "https://dc.lft.to/lastmile_qr_scan"}, "fusion_lon": 0.0, "lat": 38.911714, "bike_id": "a68bf6dea3d7da420fb69ec7c5765552", "type": "electric_scooter", "is_reserved": 0, "lon": -77.01129366666666}, {"fusion_lat": 0.0, "name": "96ea613fe1f23b4ab9d4290be6d1d9ed", "is_disabled": 0, "rental_uris": {"android": "https://dc.lft.to/lastmile_qr_scan", "ios": "https://dc.lft.to/lastmile_qr_scan"}, "fusion_lon": 0.0, "lat": 38.857716, "bike_id": "96ea613fe1f23b4ab9d4290be6d1d9ed", "type": "electric_bike", "is_reserved": 0, "lon": -76.9876975}, {"fusion_lat": 0.0, "name": "dcf55623824575d84fe51560fc2923ab", "is_disabled": 0, "rental_uris": {"android": "https://dc.lft.to/lastmile_qr_scan", "ios": "https://dc.lft.to/lastmile_qr_scan"}, "fusion_lon": 0.0, "lat": 38.91685733333333, "bike_id": "dcf55623824575d84fe51560fc2923ab", "type": "electric_scooter", "is_reserved": 0, "lon": -77.03852616666667}, {"fusion_lat": 0.0, "name": "2b2928edb813e10b876b23f8e43d29fa", "is_disabled": 0, "rental_uris": {"android": "https://dc.lft.to/lastmile_qr_scan", "ios": "https://dc.lft.to/lastmile_qr_scan"}, "fusion_lon": 0.0, "lat": 38.8972425, "bike_id": "2b2928edb813e10b876b23f8e43d29fa", "type": "electric_scooter", "is_reserved": 0, "lon": -77.05524083333333}, {"fusion_lat": 0.0, "name": "599a22aba5f169ca10f27a80f3d91e8d", "is_disabled": 0, "rental_uris": {"android": "https://dc.lft.to/lastmile_qr_scan", "ios": "https://dc.lft.to/lastmile_qr_scan"}, "fusion_lon": 0.0, "lat": 38.8985325, "bike_id": "599a22aba5f169ca10f27a80f3d91e8d", "type": "electric_bike", "is_reserved": 0, "lon": -76.931929}, {"fusion_lat": 0.0, "name": "a2f3255f01e61106c25cb1fc4d4c9748", "is_disabled": 0, "rental_uris": {"android": "https://dc.lft.to/lastmile_qr_scan", "ios": "https://dc.lft.to/lastmile_qr_scan"}, "fusion_lon": 0.0, "lat": 38.90663516666667, "bike_id": "a2f3255f01e61106c25cb1fc4d4c9748", "type": "electric_scooter", "is_reserved": 0, "lon": -77.0269615}, {"fusion_lat": 0.0, "name": "95117701c361a707f58843774118aa58", "is_disabled": 0, "rental_uris": {"android": "https://dc.lft.to/lastmile_qr_scan", "ios": "https://dc.lft.to/lastmile_qr_scan"}, "fusion_lon": 0.0, "lat": 38.9184775, "bike_id": "95117701c361a707f58843774118aa58", "type": "electric_scooter", "is_reserved": 0, "lon": -77.03214516666667}, {"fusion_lat": 0.0, "name": "38a6fb0f52f4137aa0c3c37b33383fe7", "is_disabled": 0, "rental_uris": {"android": "https://dc.lft.to/lastmile_qr_scan", "ios": "https://dc.lft.to/lastmile_qr_scan"}, "fusion_lon": 0.0, "lat": 38.93578316666667, "bike_id": "38a6fb0f52f4137aa0c3c37b33383fe7", "type": "electric_scooter", "is_reserved": 0, "lon": -77.02125866666667}, {"fusion_lat": 0.0, "name": "5c9e30c78a95e2267abdccf9564cc288", "is_disabled": 0, "rental_uris": {"android": "https://dc.lft.to/lastmile_qr_scan", "ios": "https://dc.lft.to/lastmile_qr_scan"}, "fusion_lon": 0.0, "lat": 38.920960666666666, "bike_id": "5c9e30c78a95e2267abdccf9564cc288", "type": "electric_scooter", "is_reserved": 0, "lon": -77.02543}, {"fusion_lat": 0.0, "name": "af068079edc055656302582fb3e9d019", "is_disabled": 0, "rental_uris": {"android": "https://dc.lft.to/lastmile_qr_scan", "ios": "https://dc.lft.to/lastmile_qr_scan"}, "fusion_lon": 0.0, "lat": 38.900264, "bike_id": "af068079edc055656302582fb3e9d019", "type": "electric_scooter", "is_reserved": 0, "lon": -76.99784683333333}, {"fusion_lat": 0.0, "name": "b8481142a25a83636f6e119021f1f596", "is_disabled": 0, "rental_uris": {"android": "https://dc.lft.to/lastmile_qr_scan", "ios": "https://dc.lft.to/lastmile_qr_scan"}, "fusion_lon": 0.0, "lat": 38.9245395, "bike_id": "b8481142a25a83636f6e119021f1f596", "type": "electric_scooter", "is_reserved": 0, "lon": -77.03968883333333}, {"fusion_lat": 0.0, "name": "51fe6c88b75c69a309e25d3d64c51e59", "is_disabled": 0, "rental_uris": {"android": "https://dc.lft.to/lastmile_qr_scan", "ios": "https://dc.lft.to/lastmile_qr_scan"}, "fusion_lon": 0.0, "lat": 38.94974116666667, "bike_id": "51fe6c88b75c69a309e25d3d64c51e59", "type": "electric_scooter", "is_reserved": 0, "lon": -77.06625483333333}, {"fusion_lat": 0.0, "name": "ae42debec0ba6a973785f2398e6c413b", "is_disabled": 0, "rental_uris": {"android": "https://dc.lft.to/lastmile_qr_scan", "ios": "https://dc.lft.to/lastmile_qr_scan"}, "fusion_lon": 0.0, "lat": 38.90460733333333, "bike_id": "ae42debec0ba6a973785f2398e6c413b", "type": "electric_scooter", "is_reserved": 0, "lon": -77.02819016666666}, {"fusion_lat": 0.0, "name": "4a1c7736032cb139f7b89b149782ab6d", "is_disabled": 0, "rental_uris": {"android": "https://dc.lft.to/lastmile_qr_scan", "ios": "https://dc.lft.to/lastmile_qr_scan"}, "fusion_lon": 0.0, "lat": 38.8748315, "bike_id": "4a1c7736032cb139f7b89b149782ab6d", "type": "electric_scooter", "is_reserved": 0, "lon": -77.00598033333333}, {"fusion_lat": 0.0, "name": "7b05b16f4fe8427066c8580c8ba543c2", "is_disabled": 0, "rental_uris": {"android": "https://dc.lft.to/lastmile_qr_scan", "ios": "https://dc.lft.to/lastmile_qr_scan"}, "fusion_lon": 0.0, "lat": 38.9075885, "bike_id": "7b05b16f4fe8427066c8580c8ba543c2", "type": "electric_scooter", "is_reserved": 0, "lon": -77.00755866666667}, {"fusion_lat": 0.0, "name": "52e42d2e481ce220fdd96caefb4d141c", "is_disabled": 0, "rental_uris": {"android": "https://dc.lft.to/lastmile_qr_scan", "ios": "https://dc.lft.to/lastmile_qr_scan"}, "fusion_lon": 0.0, "lat": 38.902220666666665, "bike_id": "52e42d2e481ce220fdd96caefb4d141c", "type": "electric_scooter", "is_reserved": 0, "lon": -77.0221505}, {"fusion_lat": 0.0, "name": "3388a30d80c287f440228a1b9248f23b", "is_disabled": 0, "rental_uris": {"android": "https://dc.lft.to/lastmile_qr_scan", "ios": "https://dc.lft.to/lastmile_qr_scan"}, "fusion_lon": 0.0, "lat": 38.90275966666667, "bike_id": "3388a30d80c287f440228a1b9248f23b", "type": "electric_scooter", "is_reserved": 0, "lon": -77.0054005}, {"fusion_lat": 0.0, "name": "0947bc8da23704d9768d661ca4652143", "is_disabled": 0, "rental_uris": {"android": "https://dc.lft.to/lastmile_qr_scan", "ios": "https://dc.lft.to/lastmile_qr_scan"}, "fusion_lon": 0.0, "lat": 38.8765475, "bike_id": "0947bc8da23704d9768d661ca4652143", "type": "electric_scooter", "is_reserved": 0, "lon": -77.00069633333334}, {"fusion_lat": 0.0, "name": "61578221c451a3dc3b68e84f3a46b198", "is_disabled": 0, "rental_uris": {"android": "https://dc.lft.to/lastmile_qr_scan", "ios": "https://dc.lft.to/lastmile_qr_scan"}, "fusion_lon": 0.0, "lat": 38.89587483333333, "bike_id": "61578221c451a3dc3b68e84f3a46b198", "type": "electric_scooter", "is_reserved": 0, "lon": -76.98313116666667}, {"fusion_lat": 0.0, "name": "7c3078093eca9f8a7e7f009f06c79147", "is_disabled": 0, "rental_uris": {"android": "https://dc.lft.to/lastmile_qr_scan", "ios": "https://dc.lft.to/lastmile_qr_scan"}, "fusion_lon": 0.0, "lat": 38.892267, "bike_id": "7c3078093eca9f8a7e7f009f06c79147", "type": "electric_scooter", "is_reserved": 0, "lon": -77.04897883333334}, {"fusion_lat": 0.0, "name": "4e29aea733120db2a8ed07ac4372c6a1", "is_disabled": 0, "rental_uris": {"android": "https://dc.lft.to/lastmile_qr_scan", "ios": "https://dc.lft.to/lastmile_qr_scan"}, "fusion_lon": 0.0, "lat": 38.902316, "bike_id": "4e29aea733120db2a8ed07ac4372c6a1", "type": "electric_scooter", "is_reserved": 0, "lon": -77.0197175}, {"fusion_lat": 0.0, "name": "d5d22a83ec23dbddcd4dc126a987a0d0", "is_disabled": 0, "rental_uris": {"android": "https://dc.lft.to/lastmile_qr_scan", "ios": "https://dc.lft.to/lastmile_qr_scan"}, "fusion_lon": 0.0, "lat": 38.91683, "bike_id": "d5d22a83ec23dbddcd4dc126a987a0d0", "type": "electric_scooter", "is_reserved": 0, "lon": -77.03761066666667}, {"fusion_lat": 0.0, "name": "49d9fffa78485d67ecdcc09b787800ef", "is_disabled": 0, "rental_uris": {"android": "https://dc.lft.to/lastmile_qr_scan", "ios": "https://dc.lft.to/lastmile_qr_scan"}, "fusion_lon": 0.0, "lat": 38.923413, "bike_id": "49d9fffa78485d67ecdcc09b787800ef", "type": "electric_scooter", "is_reserved": 0, "lon": -77.05304383333333}, {"fusion_lat": 0.0, "name": "46d0d1d33bf3b2dd3f02bbf47f8900a3", "is_disabled": 0, "rental_uris": {"android": "https://dc.lft.to/lastmile_qr_scan", "ios": "https://dc.lft.to/lastmile_qr_scan"}, "fusion_lon": 0.0, "lat": 38.90987883333333, "bike_id": "46d0d1d33bf3b2dd3f02bbf47f8900a3", "type": "electric_scooter", "is_reserved": 0, "lon": -77.047929}, {"fusion_lat": 0.0, "name": "d538ad7d02e7f92d6305bd8dee1d9825", "is_disabled": 0, "rental_uris": {"android": "https://dc.lft.to/lastmile_qr_scan", "ios": "https://dc.lft.to/lastmile_qr_scan"}, "fusion_lon": 0.0, "lat": 38.925697666666665, "bike_id": "d538ad7d02e7f92d6305bd8dee1d9825", "type": "electric_scooter", "is_reserved": 0, "lon": -77.03773666666666}, {"fusion_lat": 0.0, "name": "bfecf11355a6cf98cfc67b5ee1941a28", "is_disabled": 0, "rental_uris": {"android": "https://dc.lft.to/lastmile_qr_scan", "ios": "https://dc.lft.to/lastmile_qr_scan"}, "fusion_lon": 0.0, "lat": 38.88301166666667, "bike_id": "bfecf11355a6cf98cfc67b5ee1941a28", "type": "electric_scooter", "is_reserved": 0, "lon": -76.94853566666667}, {"fusion_lat": 0.0, "name": "36aaf284ec24a5b988f7d39d7711e7c3", "is_disabled": 0, "rental_uris": {"android": "https://dc.lft.to/lastmile_qr_scan", "ios": "https://dc.lft.to/lastmile_qr_scan"}, "fusion_lon": 0.0, "lat": 38.877062333333335, "bike_id": "36aaf284ec24a5b988f7d39d7711e7c3", "type": "electric_scooter", "is_reserved": 0, "lon": -77.017721}, {"fusion_lat": 0.0, "name": "c8d07c1cfcb74a8060ce07a2c685dadc", "is_disabled": 0, "rental_uris": {"android": "https://dc.lft.to/lastmile_qr_scan", "ios": "https://dc.lft.to/lastmile_qr_scan"}, "fusion_lon": 0.0, "lat": 38.88647266666667, "bike_id": "c8d07c1cfcb74a8060ce07a2c685dadc", "type": "electric_scooter", "is_reserved": 0, "lon": -77.01979633333333}, {"fusion_lat": 0.0, "name": "94b5f229474d3827de8926fbd2baa111", "is_disabled": 0, "rental_uris": {"android": "https://dc.lft.to/lastmile_qr_scan", "ios": "https://dc.lft.to/lastmile_qr_scan"}, "fusion_lon": 0.0, "lat": 38.898397, "bike_id": "94b5f229474d3827de8926fbd2baa111", "type": "electric_scooter", "is_reserved": 0, "lon": -77.029581}, {"fusion_lat": 0.0, "name": "089d7420f48c5fccfbe93bb03fd8b451", "is_disabled": 0, "rental_uris": {"android": "https://dc.lft.to/lastmile_qr_scan", "ios": "https://dc.lft.to/lastmile_qr_scan"}, "fusion_lon": 0.0, "lat": 38.93186516666667, "bike_id": "089d7420f48c5fccfbe93bb03fd8b451", "type": "electric_bike", "is_reserved": 0, "lon": -77.03543616666667}, {"fusion_lat": 0.0, "name": "101ff90eaf6616255f1e636c43e8ddaf", "is_disabled": 0, "rental_uris": {"android": "https://dc.lft.to/lastmile_qr_scan", "ios": "https://dc.lft.to/lastmile_qr_scan"}, "fusion_lon": 0.0, "lat": 38.92747516666667, "bike_id": "101ff90eaf6616255f1e636c43e8ddaf", "type": "electric_scooter", "is_reserved": 0, "lon": -77.03275983333333}, {"fusion_lat": 0.0, "name": "131d65a4b74105a6321020844dd9fdbc", "is_disabled": 0, "rental_uris": {"android": "https://dc.lft.to/lastmile_qr_scan", "ios": "https://dc.lft.to/lastmile_qr_scan"}, "fusion_lon": 0.0, "lat": 38.807582, "bike_id": "131d65a4b74105a6321020844dd9fdbc", "type": "electric_bike", "is_reserved": 0, "lon": -77.094517}, {"fusion_lat": 0.0, "name": "35064f1accdab7318ba15ce98af46dba", "is_disabled": 0, "rental_uris": {"android": "https://dc.lft.to/lastmile_qr_scan", "ios": "https://dc.lft.to/lastmile_qr_scan"}, "fusion_lon": 0.0, "lat": 38.84860316666666, "bike_id": "35064f1accdab7318ba15ce98af46dba", "type": "electric_bike", "is_reserved": 0, "lon": -77.0989}, {"fusion_lat": 0.0, "name": "e856bda46aff2122502dbeaa4a6fdc10", "is_disabled": 0, "rental_uris": {"android": "https://dc.lft.to/lastmile_qr_scan", "ios": "https://dc.lft.to/lastmile_qr_scan"}, "fusion_lon": 0.0, "lat": 38.863296, "bike_id": "e856bda46aff2122502dbeaa4a6fdc10", "type": "electric_bike", "is_reserved": 0, "lon": -76.987263}, {"fusion_lat": 0.0, "name": "1cf34d1fb637da0dca27fa294259371d", "is_disabled": 0, "rental_uris": {"android": "https://dc.lft.to/lastmile_qr_scan", "ios": "https://dc.lft.to/lastmile_qr_scan"}, "fusion_lon": 0.0, "lat": 38.910009333333335, "bike_id": "1cf34d1fb637da0dca27fa294259371d", "type": "electric_scooter", "is_reserved": 0, "lon": -77.04005983333333}, {"fusion_lat": 0.0, "name": "5d28416739d279c40637b5efa0174996", "is_disabled": 0, "rental_uris": {"android": "https://dc.lft.to/lastmile_qr_scan", "ios": "https://dc.lft.to/lastmile_qr_scan"}, "fusion_lon": 0.0, "lat": 38.92682533333333, "bike_id": "5d28416739d279c40637b5efa0174996", "type": "electric_scooter", "is_reserved": 0, "lon": -77.02581383333333}, {"fusion_lat": 0.0, "name": "80085bfd200ed8e1c5290081f6882a76", "is_disabled": 0, "rental_uris": {"android": "https://dc.lft.to/lastmile_qr_scan", "ios": "https://dc.lft.to/lastmile_qr_scan"}, "fusion_lon": 0.0, "lat": 38.932593, "bike_id": "80085bfd200ed8e1c5290081f6882a76", "type": "electric_scooter", "is_reserved": 0, "lon": -76.9889535}, {"fusion_lat": 0.0, "name": "8034966f443989d7b133f2000a8996e3", "is_disabled": 0, "rental_uris": {"android": "https://dc.lft.to/lastmile_qr_scan", "ios": "https://dc.lft.to/lastmile_qr_scan"}, "fusion_lon": 0.0, "lat": 38.90480683333333, "bike_id": "8034966f443989d7b133f2000a8996e3", "type": "electric_scooter", "is_reserved": 0, "lon": -76.9962285}, {"fusion_lat": 0.0, "name": "e6d854d2bda4a9083c2ad391bd1355ba", "is_disabled": 0, "rental_uris": {"android": "https://dc.lft.to/lastmile_qr_scan", "ios": "https://dc.lft.to/lastmile_qr_scan"}, "fusion_lon": 0.0, "lat": 38.953456, "bike_id": "e6d854d2bda4a9083c2ad391bd1355ba", "type": "electric_scooter", "is_reserved": 0, "lon": -77.02554666666667}, {"fusion_lat": 0.0, "name": "bd8f659b1abcada2e55b7ae04e6dd3f7", "is_disabled": 0, "rental_uris": {"android": "https://dc.lft.to/lastmile_qr_scan", "ios": "https://dc.lft.to/lastmile_qr_scan"}, "fusion_lon": 0.0, "lat": 38.9091515, "bike_id": "bd8f659b1abcada2e55b7ae04e6dd3f7", "type": "electric_scooter", "is_reserved": 0, "lon": -77.06426666666667}, {"fusion_lat": 0.0, "name": "a9e7e1198e03acb0eaf4b7c90ddfb70a", "is_disabled": 0, "rental_uris": {"android": "https://dc.lft.to/lastmile_qr_scan", "ios": "https://dc.lft.to/lastmile_qr_scan"}, "fusion_lon": 0.0, "lat": 38.90774666666667, "bike_id": "a9e7e1198e03acb0eaf4b7c90ddfb70a", "type": "electric_scooter", "is_reserved": 0, "lon": -77.0386365}, {"fusion_lat": 0.0, "name": "282943e0044e73ec4463c4acb3520aac", "is_disabled": 0, "rental_uris": {"android": "https://dc.lft.to/lastmile_qr_scan", "ios": "https://dc.lft.to/lastmile_qr_scan"}, "fusion_lon": 0.0, "lat": 38.925399666666664, "bike_id": "282943e0044e73ec4463c4acb3520aac", "type": "electric_scooter", "is_reserved": 0, "lon": -77.034909}, {"fusion_lat": 0.0, "name": "a612adf48a299fcafc75cb09d1b7e0b1", "is_disabled": 0, "rental_uris": {"android": "https://dc.lft.to/lastmile_qr_scan", "ios": "https://dc.lft.to/lastmile_qr_scan"}, "fusion_lon": 0.0, "lat": 38.93008283333333, "bike_id": "a612adf48a299fcafc75cb09d1b7e0b1", "type": "electric_scooter", "is_reserved": 0, "lon": -77.05541533333333}, {"fusion_lat": 0.0, "name": "a0a4be8276c6841e2b543869447a5746", "is_disabled": 0, "rental_uris": {"android": "https://dc.lft.to/lastmile_qr_scan", "ios": "https://dc.lft.to/lastmile_qr_scan"}, "fusion_lon": 0.0, "lat": 38.919197, "bike_id": "a0a4be8276c6841e2b543869447a5746", "type": "electric_scooter", "is_reserved": 0, "lon": -77.0321605}, {"fusion_lat": 0.0, "name": "dc2766d7321482a9b0a8175fa0bab22f", "is_disabled": 0, "rental_uris": {"android": "https://dc.lft.to/lastmile_qr_scan", "ios": "https://dc.lft.to/lastmile_qr_scan"}, "fusion_lon": 0.0, "lat": 38.9292455, "bike_id": "dc2766d7321482a9b0a8175fa0bab22f", "type": "electric_scooter", "is_reserved": 0, "lon": -77.03289416666667}, {"fusion_lat": 0.0, "name": "53982f1857c7025630fb6f79bc3504b5", "is_disabled": 0, "rental_uris": {"android": "https://dc.lft.to/lastmile_qr_scan", "ios": "https://dc.lft.to/lastmile_qr_scan"}, "fusion_lon": 0.0, "lat": 38.9160115, "bike_id": "53982f1857c7025630fb6f79bc3504b5", "type": "electric_scooter", "is_reserved": 0, "lon": -77.03195916666667}, {"fusion_lat": 0.0, "name": "2051ad7ebeb007efa334a06c46c393e5", "is_disabled": 0, "rental_uris": {"android": "https://dc.lft.to/lastmile_qr_scan", "ios": "https://dc.lft.to/lastmile_qr_scan"}, "fusion_lon": 0.0, "lat": 38.900512, "bike_id": "2051ad7ebeb007efa334a06c46c393e5", "type": "electric_scooter", "is_reserved": 0, "lon": -77.00057966666667}, {"fusion_lat": 0.0, "name": "76f59ec523e33c1d57c0fa984cc8f733", "is_disabled": 0, "rental_uris": {"android": "https://dc.lft.to/lastmile_qr_scan", "ios": "https://dc.lft.to/lastmile_qr_scan"}, "fusion_lon": 0.0, "lat": 38.908894833333335, "bike_id": "76f59ec523e33c1d57c0fa984cc8f733", "type": "electric_scooter", "is_reserved": 0, "lon": -77.03223133333333}, {"fusion_lat": 0.0, "name": "98d20cccaa9b65c3547f919cd0c9f125", "is_disabled": 0, "rental_uris": {"android": "https://dc.lft.to/lastmile_qr_scan", "ios": "https://dc.lft.to/lastmile_qr_scan"}, "fusion_lon": 0.0, "lat": 38.879494333333334, "bike_id": "98d20cccaa9b65c3547f919cd0c9f125", "type": "electric_scooter", "is_reserved": 0, "lon": -77.006234}, {"fusion_lat": 0.0, "name": "96005945ede73282b403c8b7c5194b11", "is_disabled": 0, "rental_uris": {"android": "https://dc.lft.to/lastmile_qr_scan", "ios": "https://dc.lft.to/lastmile_qr_scan"}, "fusion_lon": 0.0, "lat": 38.917195166666666, "bike_id": "96005945ede73282b403c8b7c5194b11", "type": "electric_scooter", "is_reserved": 0, "lon": -77.03048716666666}, {"fusion_lat": 0.0, "name": "f8908247b4a6f55c4b83a6afdbeafa22", "is_disabled": 0, "rental_uris": {"android": "https://dc.lft.to/lastmile_qr_scan", "ios": "https://dc.lft.to/lastmile_qr_scan"}, "fusion_lon": 0.0, "lat": 38.9216375, "bike_id": "f8908247b4a6f55c4b83a6afdbeafa22", "type": "electric_scooter", "is_reserved": 0, "lon": -77.0325795}, {"fusion_lat": 0.0, "name": "c1c9824037034994a993d7d8576a5690", "is_disabled": 0, "rental_uris": {"android": "https://dc.lft.to/lastmile_qr_scan", "ios": "https://dc.lft.to/lastmile_qr_scan"}, "fusion_lon": 0.0, "lat": 38.91711516666667, "bike_id": "c1c9824037034994a993d7d8576a5690", "type": "electric_scooter", "is_reserved": 0, "lon": -77.02391266666666}, {"fusion_lat": 0.0, "name": "4bf1463fc977ba430540dbae67473b71", "is_disabled": 0, "rental_uris": {"android": "https://dc.lft.to/lastmile_qr_scan", "ios": "https://dc.lft.to/lastmile_qr_scan"}, "fusion_lon": 0.0, "lat": 38.91564, "bike_id": "4bf1463fc977ba430540dbae67473b71", "type": "electric_bike", "is_reserved": 0, "lon": -77.0058965}, {"fusion_lat": 0.0, "name": "01d4babfb45eb86813e329a7aafc5f9a", "is_disabled": 0, "rental_uris": {"android": "https://dc.lft.to/lastmile_qr_scan", "ios": "https://dc.lft.to/lastmile_qr_scan"}, "fusion_lon": 0.0, "lat": 38.9154455, "bike_id": "01d4babfb45eb86813e329a7aafc5f9a", "type": "electric_scooter", "is_reserved": 0, "lon": -77.03197383333334}, {"fusion_lat": 0.0, "name": "49b4b9f3020ca5fcbdb12ffe4e8a7315", "is_disabled": 0, "rental_uris": {"android": "https://dc.lft.to/lastmile_qr_scan", "ios": "https://dc.lft.to/lastmile_qr_scan"}, "fusion_lon": 0.0, "lat": 38.91524733333333, "bike_id": "49b4b9f3020ca5fcbdb12ffe4e8a7315", "type": "electric_scooter", "is_reserved": 0, "lon": -77.03185766666667}, {"fusion_lat": 0.0, "name": "c5e6b414c82b1f39ff6073881b83bea4", "is_disabled": 0, "rental_uris": {"android": "https://dc.lft.to/lastmile_qr_scan", "ios": "https://dc.lft.to/lastmile_qr_scan"}, "fusion_lon": 0.0, "lat": 38.919197833333335, "bike_id": "c5e6b414c82b1f39ff6073881b83bea4", "type": "electric_scooter", "is_reserved": 0, "lon": -77.0342205}, {"fusion_lat": 0.0, "name": "b8c53d63ad9d21ca87df116dc56dba96", "is_disabled": 0, "rental_uris": {"android": "https://dc.lft.to/lastmile_qr_scan", "ios": "https://dc.lft.to/lastmile_qr_scan"}, "fusion_lon": 0.0, "lat": 38.906487, "bike_id": "b8c53d63ad9d21ca87df116dc56dba96", "type": "electric_scooter", "is_reserved": 0, "lon": -77.0413875}, {"fusion_lat": 0.0, "name": "d44305d854d4a9eeb91c1d2a364decec", "is_disabled": 0, "rental_uris": {"android": "https://dc.lft.to/lastmile_qr_scan", "ios": "https://dc.lft.to/lastmile_qr_scan"}, "fusion_lon": 0.0, "lat": 38.88742083333333, "bike_id": "d44305d854d4a9eeb91c1d2a364decec", "type": "electric_scooter", "is_reserved": 0, "lon": -77.021353}, {"fusion_lat": 0.0, "name": "fe993f59bd9313e90865b4debb7dd010", "is_disabled": 0, "rental_uris": {"android": "https://dc.lft.to/lastmile_qr_scan", "ios": "https://dc.lft.to/lastmile_qr_scan"}, "fusion_lon": 0.0, "lat": 38.902859166666666, "bike_id": "fe993f59bd9313e90865b4debb7dd010", "type": "electric_scooter", "is_reserved": 0, "lon": -77.016187}, {"fusion_lat": 0.0, "name": "037554d55a9311b91b11559dff6c035f", "is_disabled": 0, "rental_uris": {"android": "https://dc.lft.to/lastmile_qr_scan", "ios": "https://dc.lft.to/lastmile_qr_scan"}, "fusion_lon": 0.0, "lat": 38.925856333333336, "bike_id": "037554d55a9311b91b11559dff6c035f", "type": "electric_scooter", "is_reserved": 0, "lon": -77.0297835}, {"fusion_lat": 0.0, "name": "839048d8e35eaded6658e0c7797d7d06", "is_disabled": 0, "rental_uris": {"android": "https://dc.lft.to/lastmile_qr_scan", "ios": "https://dc.lft.to/lastmile_qr_scan"}, "fusion_lon": 0.0, "lat": 38.9213435, "bike_id": "839048d8e35eaded6658e0c7797d7d06", "type": "electric_scooter", "is_reserved": 0, "lon": -77.0440905}, {"fusion_lat": 0.0, "name": "ebeba099403481a7b2722e851839590f", "is_disabled": 0, "rental_uris": {"android": "https://dc.lft.to/lastmile_qr_scan", "ios": "https://dc.lft.to/lastmile_qr_scan"}, "fusion_lon": 0.0, "lat": 38.89854916666667, "bike_id": "ebeba099403481a7b2722e851839590f", "type": "electric_scooter", "is_reserved": 0, "lon": -77.022159}, {"fusion_lat": 0.0, "name": "2785b3df92f99ce95587c7a054cddaae", "is_disabled": 0, "rental_uris": {"android": "https://dc.lft.to/lastmile_qr_scan", "ios": "https://dc.lft.to/lastmile_qr_scan"}, "fusion_lon": 0.0, "lat": 38.87180683333333, "bike_id": "2785b3df92f99ce95587c7a054cddaae", "type": "electric_scooter", "is_reserved": 0, "lon": -77.00610133333333}, {"fusion_lat": 0.0, "name": "1a702eed9406675859aa4656520985f6", "is_disabled": 0, "rental_uris": {"android": "https://dc.lft.to/lastmile_qr_scan", "ios": "https://dc.lft.to/lastmile_qr_scan"}, "fusion_lon": 0.0, "lat": 38.92383266666667, "bike_id": "1a702eed9406675859aa4656520985f6", "type": "electric_scooter", "is_reserved": 0, "lon": -77.0274175}, {"fusion_lat": 0.0, "name": "1187ea35f56a2c222ce3745c0fe9300f", "is_disabled": 0, "rental_uris": {"android": "https://dc.lft.to/lastmile_qr_scan", "ios": "https://dc.lft.to/lastmile_qr_scan"}, "fusion_lon": 0.0, "lat": 38.90401166666667, "bike_id": "1187ea35f56a2c222ce3745c0fe9300f", "type": "electric_scooter", "is_reserved": 0, "lon": -77.0362395}, {"fusion_lat": 0.0, "name": "b2a169e7b4648fae283c989071618303", "is_disabled": 0, "rental_uris": {"android": "https://dc.lft.to/lastmile_qr_scan", "ios": "https://dc.lft.to/lastmile_qr_scan"}, "fusion_lon": 0.0, "lat": 38.878884166666666, "bike_id": "b2a169e7b4648fae283c989071618303", "type": "electric_scooter", "is_reserved": 0, "lon": -76.96546533333333}, {"fusion_lat": 0.0, "name": "eea869fdd6ac3a30b170d142e6d053dc", "is_disabled": 0, "rental_uris": {"android": "https://dc.lft.to/lastmile_qr_scan", "ios": "https://dc.lft.to/lastmile_qr_scan"}, "fusion_lon": 0.0, "lat": 38.89836783333333, "bike_id": "eea869fdd6ac3a30b170d142e6d053dc", "type": "electric_scooter", "is_reserved": 0, "lon": -77.02709516666667}, {"fusion_lat": 0.0, "name": "2d0f1c0555e42718bbb76504159e6ef4", "is_disabled": 0, "rental_uris": {"android": "https://dc.lft.to/lastmile_qr_scan", "ios": "https://dc.lft.to/lastmile_qr_scan"}, "fusion_lon": 0.0, "lat": 38.9248525, "bike_id": "2d0f1c0555e42718bbb76504159e6ef4", "type": "electric_scooter", "is_reserved": 0, "lon": -77.0271925}, {"fusion_lat": 0.0, "name": "b70545a5d18a9ca5c8e8b982d580e401", "is_disabled": 0, "rental_uris": {"android": "https://dc.lft.to/lastmile_qr_scan", "ios": "https://dc.lft.to/lastmile_qr_scan"}, "fusion_lon": 0.0, "lat": 38.912529, "bike_id": "b70545a5d18a9ca5c8e8b982d580e401", "type": "electric_scooter", "is_reserved": 0, "lon": -77.00676333333334}, {"fusion_lat": 0.0, "name": "3292adcf9a57e6e0dee507ef53214cd5", "is_disabled": 0, "rental_uris": {"android": "https://dc.lft.to/lastmile_qr_scan", "ios": "https://dc.lft.to/lastmile_qr_scan"}, "fusion_lon": 0.0, "lat": 38.938492333333336, "bike_id": "3292adcf9a57e6e0dee507ef53214cd5", "type": "electric_scooter", "is_reserved": 0, "lon": -77.0248805}, {"fusion_lat": 0.0, "name": "51e5218a58d1b4fdc2d96e0b17440f76", "is_disabled": 0, "rental_uris": {"android": "https://dc.lft.to/lastmile_qr_scan", "ios": "https://dc.lft.to/lastmile_qr_scan"}, "fusion_lon": 0.0, "lat": 38.91592083333333, "bike_id": "51e5218a58d1b4fdc2d96e0b17440f76", "type": "electric_scooter", "is_reserved": 0, "lon": -77.0466825}, {"fusion_lat": 0.0, "name": "10dc7e45aefa42da0d2a45973ca01e6c", "is_disabled": 0, "rental_uris": {"android": "https://dc.lft.to/lastmile_qr_scan", "ios": "https://dc.lft.to/lastmile_qr_scan"}, "fusion_lon": 0.0, "lat": 38.915536, "bike_id": "10dc7e45aefa42da0d2a45973ca01e6c", "type": "electric_scooter", "is_reserved": 0, "lon": -77.0383825}, {"fusion_lat": 0.0, "name": "e2916062256fb428ef06ad1a53225309", "is_disabled": 0, "rental_uris": {"android": "https://dc.lft.to/lastmile_qr_scan", "ios": "https://dc.lft.to/lastmile_qr_scan"}, "fusion_lon": 0.0, "lat": 38.881699833333336, "bike_id": "e2916062256fb428ef06ad1a53225309", "type": "electric_scooter", "is_reserved": 0, "lon": -77.027659}, {"fusion_lat": 0.0, "name": "3c9fe9664264bb41af0cbafee35e4d0d", "is_disabled": 0, "rental_uris": {"android": "https://dc.lft.to/lastmile_qr_scan", "ios": "https://dc.lft.to/lastmile_qr_scan"}, "fusion_lon": 0.0, "lat": 38.89981016666667, "bike_id": "3c9fe9664264bb41af0cbafee35e4d0d", "type": "electric_scooter", "is_reserved": 0, "lon": -77.0212395}, {"fusion_lat": 0.0, "name": "4fcfd23929dc9311052aa80e6c414398", "is_disabled": 0, "rental_uris": {"android": "https://dc.lft.to/lastmile_qr_scan", "ios": "https://dc.lft.to/lastmile_qr_scan"}, "fusion_lon": 0.0, "lat": 38.8956165, "bike_id": "4fcfd23929dc9311052aa80e6c414398", "type": "electric_bike", "is_reserved": 0, "lon": -77.12735166666667}, {"fusion_lat": 0.0, "name": "5cfd5073df959542f84a1610f1f93cb9", "is_disabled": 0, "rental_uris": {"android": "https://dc.lft.to/lastmile_qr_scan", "ios": "https://dc.lft.to/lastmile_qr_scan"}, "fusion_lon": 0.0, "lat": 38.955618666666666, "bike_id": "5cfd5073df959542f84a1610f1f93cb9", "type": "electric_bike", "is_reserved": 0, "lon": -77.02441733333333}, {"fusion_lat": 0.0, "name": "e0295827835d1e963fb678f9d11de058", "is_disabled": 0, "rental_uris": {"android": "https://dc.lft.to/lastmile_qr_scan", "ios": "https://dc.lft.to/lastmile_qr_scan"}, "fusion_lon": 0.0, "lat": 38.901952333333334, "bike_id": "e0295827835d1e963fb678f9d11de058", "type": "electric_scooter", "is_reserved": 0, "lon": -77.02220933333334}, {"fusion_lat": 0.0, "name": "4e3d2fa21b7e2faa9bbcb9fee16d2d98", "is_disabled": 0, "rental_uris": {"android": "https://dc.lft.to/lastmile_qr_scan", "ios": "https://dc.lft.to/lastmile_qr_scan"}, "fusion_lon": 0.0, "lat": 38.935761166666666, "bike_id": "4e3d2fa21b7e2faa9bbcb9fee16d2d98", "type": "electric_bike", "is_reserved": 0, "lon": -77.02125016666666}, {"fusion_lat": 0.0, "name": "c8943f498ecf4ea752248f2e32d03af7", "is_disabled": 0, "rental_uris": {"android": "https://dc.lft.to/lastmile_qr_scan", "ios": "https://dc.lft.to/lastmile_qr_scan"}, "fusion_lon": 0.0, "lat": 38.91258716666667, "bike_id": "c8943f498ecf4ea752248f2e32d03af7", "type": "electric_scooter", "is_reserved": 0, "lon": -77.03050933333333}, {"fusion_lat": 0.0, "name": "0d7b0047c84e93749f755a01d593f8d1", "is_disabled": 0, "rental_uris": {"android": "https://dc.lft.to/lastmile_qr_scan", "ios": "https://dc.lft.to/lastmile_qr_scan"}, "fusion_lon": 0.0, "lat": 39.01420366666667, "bike_id": "0d7b0047c84e93749f755a01d593f8d1", "type": "electric_bike", "is_reserved": 0, "lon": -77.0449885}, {"fusion_lat": 0.0, "name": "52360e8a15ee47453c0a8c87f02a072b", "is_disabled": 0, "rental_uris": {"android": "https://dc.lft.to/lastmile_qr_scan", "ios": "https://dc.lft.to/lastmile_qr_scan"}, "fusion_lon": 0.0, "lat": 38.95525816666667, "bike_id": "52360e8a15ee47453c0a8c87f02a072b", "type": "electric_bike", "is_reserved": 0, "lon": -77.02477}, {"fusion_lat": 0.0, "name": "268001bd0525d096ff1c638f30845de2", "is_disabled": 0, "rental_uris": {"android": "https://dc.lft.to/lastmile_qr_scan", "ios": "https://dc.lft.to/lastmile_qr_scan"}, "fusion_lon": 0.0, "lat": 38.90560166666667, "bike_id": "268001bd0525d096ff1c638f30845de2", "type": "electric_scooter", "is_reserved": 0, "lon": -77.0168065}, {"fusion_lat": 0.0, "name": "4a18c1373c6a9bba2a407e3e1482fdf6", "is_disabled": 0, "rental_uris": {"android": "https://dc.lft.to/lastmile_qr_scan", "ios": "https://dc.lft.to/lastmile_qr_scan"}, "fusion_lon": 0.0, "lat": 38.8737135, "bike_id": "4a18c1373c6a9bba2a407e3e1482fdf6", "type": "electric_scooter", "is_reserved": 0, "lon": -77.00121133333333}, {"fusion_lat": 0.0, "name": "f48baf3d72eb4a8da4fab5a7c42d3dc6", "is_disabled": 0, "rental_uris": {"android": "https://dc.lft.to/lastmile_qr_scan", "ios": "https://dc.lft.to/lastmile_qr_scan"}, "fusion_lon": 0.0, "lat": 38.9141545, "bike_id": "f48baf3d72eb4a8da4fab5a7c42d3dc6", "type": "electric_scooter", "is_reserved": 0, "lon": -77.03025416666667}, {"fusion_lat": 0.0, "name": "3fd4d0cc1d988a02ab3ecbea2e2a0b28", "is_disabled": 0, "rental_uris": {"android": "https://dc.lft.to/lastmile_qr_scan", "ios": "https://dc.lft.to/lastmile_qr_scan"}, "fusion_lon": 0.0, "lat": 38.941858833333335, "bike_id": "3fd4d0cc1d988a02ab3ecbea2e2a0b28", "type": "electric_scooter", "is_reserved": 0, "lon": -77.0261665}, {"fusion_lat": 0.0, "name": "1b5f09a7c98a14782f542a49adb37f96", "is_disabled": 0, "rental_uris": {"android": "https://dc.lft.to/lastmile_qr_scan", "ios": "https://dc.lft.to/lastmile_qr_scan"}, "fusion_lon": 0.0, "lat": 38.806722666666666, "bike_id": "1b5f09a7c98a14782f542a49adb37f96", "type": "electric_bike", "is_reserved": 0, "lon": -77.06909866666666}, {"fusion_lat": 0.0, "name": "391df529400e0cbcab03ff820b2dce94", "is_disabled": 0, "rental_uris": {"android": "https://dc.lft.to/lastmile_qr_scan", "ios": "https://dc.lft.to/lastmile_qr_scan"}, "fusion_lon": 0.0, "lat": 38.90966016666667, "bike_id": "391df529400e0cbcab03ff820b2dce94", "type": "electric_scooter", "is_reserved": 0, "lon": -77.032123}, {"fusion_lat": 0.0, "name": "c34741455b26104562679ab78a302bf7", "is_disabled": 0, "rental_uris": {"android": "https://dc.lft.to/lastmile_qr_scan", "ios": "https://dc.lft.to/lastmile_qr_scan"}, "fusion_lon": 0.0, "lat": 38.93078383333334, "bike_id": "c34741455b26104562679ab78a302bf7", "type": "electric_scooter", "is_reserved": 0, "lon": -77.03412933333334}, {"fusion_lat": 0.0, "name": "6c7c66824234c87fab25a73807ed6e1f", "is_disabled": 0, "rental_uris": {"android": "https://dc.lft.to/lastmile_qr_scan", "ios": "https://dc.lft.to/lastmile_qr_scan"}, "fusion_lon": 0.0, "lat": 38.9126, "bike_id": "6c7c66824234c87fab25a73807ed6e1f", "type": "electric_scooter", "is_reserved": 0, "lon": -77.031272}, {"fusion_lat": 0.0, "name": "934fc535e007c4d3808b1a158954c8f8", "is_disabled": 0, "rental_uris": {"android": "https://dc.lft.to/lastmile_qr_scan", "ios": "https://dc.lft.to/lastmile_qr_scan"}, "fusion_lon": 0.0, "lat": 38.8923245, "bike_id": "934fc535e007c4d3808b1a158954c8f8", "type": "electric_scooter", "is_reserved": 0, "lon": -76.988162}, {"fusion_lat": 0.0, "name": "6dfec8001e1fc852bc8edcb4af234fb2", "is_disabled": 0, "rental_uris": {"android": "https://dc.lft.to/lastmile_qr_scan", "ios": "https://dc.lft.to/lastmile_qr_scan"}, "fusion_lon": 0.0, "lat": 38.921722333333335, "bike_id": "6dfec8001e1fc852bc8edcb4af234fb2", "type": "electric_scooter", "is_reserved": 0, "lon": -77.04023166666667}, {"fusion_lat": 0.0, "name": "e834573672069007f1bce6010504d553", "is_disabled": 0, "rental_uris": {"android": "https://dc.lft.to/lastmile_qr_scan", "ios": "https://dc.lft.to/lastmile_qr_scan"}, "fusion_lon": 0.0, "lat": 38.928597, "bike_id": "e834573672069007f1bce6010504d553", "type": "electric_scooter", "is_reserved": 0, "lon": -77.01385766666667}, {"fusion_lat": 0.0, "name": "c6ede023fd3fb6663bf376c0d52dee3f", "is_disabled": 0, "rental_uris": {"android": "https://dc.lft.to/lastmile_qr_scan", "ios": "https://dc.lft.to/lastmile_qr_scan"}, "fusion_lon": 0.0, "lat": 38.90717466666667, "bike_id": "c6ede023fd3fb6663bf376c0d52dee3f", "type": "electric_scooter", "is_reserved": 0, "lon": -77.05066166666667}, {"fusion_lat": 0.0, "name": "6c40dd31e98b0480c747c7048c5b8276", "is_disabled": 0, "rental_uris": {"android": "https://dc.lft.to/lastmile_qr_scan", "ios": "https://dc.lft.to/lastmile_qr_scan"}, "fusion_lon": 0.0, "lat": 38.920785333333335, "bike_id": "6c40dd31e98b0480c747c7048c5b8276", "type": "electric_scooter", "is_reserved": 0, "lon": -77.0237875}, {"fusion_lat": 0.0, "name": "efc13d8406edf701fa57891e70183471", "is_disabled": 0, "rental_uris": {"android": "https://dc.lft.to/lastmile_qr_scan", "ios": "https://dc.lft.to/lastmile_qr_scan"}, "fusion_lon": 0.0, "lat": 38.905546, "bike_id": "efc13d8406edf701fa57891e70183471", "type": "electric_scooter", "is_reserved": 0, "lon": -77.04567483333334}, {"fusion_lat": 0.0, "name": "c22ebf5cd4bb31ca7cc32e338bdf71af", "is_disabled": 0, "rental_uris": {"android": "https://dc.lft.to/lastmile_qr_scan", "ios": "https://dc.lft.to/lastmile_qr_scan"}, "fusion_lon": 0.0, "lat": 38.9283615, "bike_id": "c22ebf5cd4bb31ca7cc32e338bdf71af", "type": "electric_scooter", "is_reserved": 0, "lon": -77.00600016666667}, {"fusion_lat": 0.0, "name": "cbca290c6b19b441530994829b44edc5", "is_disabled": 0, "rental_uris": {"android": "https://dc.lft.to/lastmile_qr_scan", "ios": "https://dc.lft.to/lastmile_qr_scan"}, "fusion_lon": 0.0, "lat": 38.901711, "bike_id": "cbca290c6b19b441530994829b44edc5", "type": "electric_scooter", "is_reserved": 0, "lon": -76.99256216666667}, {"fusion_lat": 0.0, "name": "3fb0c11f928c9e215c5ae1ed8ba8ba5b", "is_disabled": 0, "rental_uris": {"android": "https://dc.lft.to/lastmile_qr_scan", "ios": "https://dc.lft.to/lastmile_qr_scan"}, "fusion_lon": 0.0, "lat": 38.91835716666667, "bike_id": "3fb0c11f928c9e215c5ae1ed8ba8ba5b", "type": "electric_scooter", "is_reserved": 0, "lon": -77.02317183333334}, {"fusion_lat": 0.0, "name": "03410ededbf86f59c4c27e6de9109698", "is_disabled": 0, "rental_uris": {"android": "https://dc.lft.to/lastmile_qr_scan", "ios": "https://dc.lft.to/lastmile_qr_scan"}, "fusion_lon": 0.0, "lat": 38.80715816666667, "bike_id": "03410ededbf86f59c4c27e6de9109698", "type": "electric_bike", "is_reserved": 0, "lon": -77.06180566666667}, {"fusion_lat": 0.0, "name": "c0f233ddd62214926880effbf276376e", "is_disabled": 0, "rental_uris": {"android": "https://dc.lft.to/lastmile_qr_scan", "ios": "https://dc.lft.to/lastmile_qr_scan"}, "fusion_lon": 0.0, "lat": 38.88731466666667, "bike_id": "c0f233ddd62214926880effbf276376e", "type": "electric_scooter", "is_reserved": 0, "lon": -77.015155}, {"fusion_lat": 0.0, "name": "6ee0a895710c3869b512f5b407fed18e", "is_disabled": 0, "rental_uris": {"android": "https://dc.lft.to/lastmile_qr_scan", "ios": "https://dc.lft.to/lastmile_qr_scan"}, "fusion_lon": 0.0, "lat": 38.8812245, "bike_id": "6ee0a895710c3869b512f5b407fed18e", "type": "electric_bike", "is_reserved": 0, "lon": -76.998009}, {"fusion_lat": 0.0, "name": "108730fc680c8da274afdb22f018115b", "is_disabled": 0, "rental_uris": {"android": "https://dc.lft.to/lastmile_qr_scan", "ios": "https://dc.lft.to/lastmile_qr_scan"}, "fusion_lon": 0.0, "lat": 38.90490283333333, "bike_id": "108730fc680c8da274afdb22f018115b", "type": "electric_scooter", "is_reserved": 0, "lon": -77.00894966666667}, {"fusion_lat": 0.0, "name": "dadf3ef51854eece6ade0aab53f36e75", "is_disabled": 0, "rental_uris": {"android": "https://dc.lft.to/lastmile_qr_scan", "ios": "https://dc.lft.to/lastmile_qr_scan"}, "fusion_lon": 0.0, "lat": 38.88751466666667, "bike_id": "dadf3ef51854eece6ade0aab53f36e75", "type": "electric_scooter", "is_reserved": 0, "lon": -77.02130383333333}, {"fusion_lat": 0.0, "name": "14821f16fb93660e5799940599ab8b83", "is_disabled": 0, "rental_uris": {"android": "https://dc.lft.to/lastmile_qr_scan", "ios": "https://dc.lft.to/lastmile_qr_scan"}, "fusion_lon": 0.0, "lat": 38.918370833333334, "bike_id": "14821f16fb93660e5799940599ab8b83", "type": "electric_scooter", "is_reserved": 0, "lon": -77.03516366666666}, {"fusion_lat": 0.0, "name": "51d238f39bed1464f81a42929ae7a2bb", "is_disabled": 0, "rental_uris": {"android": "https://dc.lft.to/lastmile_qr_scan", "ios": "https://dc.lft.to/lastmile_qr_scan"}, "fusion_lon": 0.0, "lat": 38.92531133333333, "bike_id": "51d238f39bed1464f81a42929ae7a2bb", "type": "electric_scooter", "is_reserved": 0, "lon": -77.05258133333334}, {"fusion_lat": 0.0, "name": "6985c9dbcfbc51c1fb476078c1810cd8", "is_disabled": 0, "rental_uris": {"android": "https://dc.lft.to/lastmile_qr_scan", "ios": "https://dc.lft.to/lastmile_qr_scan"}, "fusion_lon": 0.0, "lat": 38.92074233333334, "bike_id": "6985c9dbcfbc51c1fb476078c1810cd8", "type": "electric_scooter", "is_reserved": 0, "lon": -77.0241125}, {"fusion_lat": 0.0, "name": "db2e7fb6d2331b0248704d2bd711e711", "is_disabled": 0, "rental_uris": {"android": "https://dc.lft.to/lastmile_qr_scan", "ios": "https://dc.lft.to/lastmile_qr_scan"}, "fusion_lon": 0.0, "lat": 38.91695466666667, "bike_id": "db2e7fb6d2331b0248704d2bd711e711", "type": "electric_scooter", "is_reserved": 0, "lon": -77.04267466666667}, {"fusion_lat": 0.0, "name": "917d8b99abac03929368c0ec8d910611", "is_disabled": 0, "rental_uris": {"android": "https://dc.lft.to/lastmile_qr_scan", "ios": "https://dc.lft.to/lastmile_qr_scan"}, "fusion_lon": 0.0, "lat": 38.86006833333333, "bike_id": "917d8b99abac03929368c0ec8d910611", "type": "electric_scooter", "is_reserved": 0, "lon": -76.985226}, {"fusion_lat": 0.0, "name": "7623e739977a43816a180aeac63d4464", "is_disabled": 0, "rental_uris": {"android": "https://dc.lft.to/lastmile_qr_scan", "ios": "https://dc.lft.to/lastmile_qr_scan"}, "fusion_lon": 0.0, "lat": 38.926659666666666, "bike_id": "7623e739977a43816a180aeac63d4464", "type": "electric_scooter", "is_reserved": 0, "lon": -77.03030283333334}, {"fusion_lat": 0.0, "name": "7aaad115d3ba29e7961ec6e253944855", "is_disabled": 0, "rental_uris": {"android": "https://dc.lft.to/lastmile_qr_scan", "ios": "https://dc.lft.to/lastmile_qr_scan"}, "fusion_lon": 0.0, "lat": 38.904595666666665, "bike_id": "7aaad115d3ba29e7961ec6e253944855", "type": "electric_scooter", "is_reserved": 0, "lon": -77.02828066666666}, {"fusion_lat": 0.0, "name": "922d0b3b9d0ddbd3e89cc593f3aca4af", "is_disabled": 0, "rental_uris": {"android": "https://dc.lft.to/lastmile_qr_scan", "ios": "https://dc.lft.to/lastmile_qr_scan"}, "fusion_lon": 0.0, "lat": 38.89577633333333, "bike_id": "922d0b3b9d0ddbd3e89cc593f3aca4af", "type": "electric_scooter", "is_reserved": 0, "lon": -76.983244}, {"fusion_lat": 0.0, "name": "70bde1962c9fdde020063e3f545ba51b", "is_disabled": 0, "rental_uris": {"android": "https://dc.lft.to/lastmile_qr_scan", "ios": "https://dc.lft.to/lastmile_qr_scan"}, "fusion_lon": 0.0, "lat": 38.95929233333333, "bike_id": "70bde1962c9fdde020063e3f545ba51b", "type": "electric_bike", "is_reserved": 0, "lon": -76.9284125}, {"fusion_lat": 0.0, "name": "b4752d95ee611981a208789a29330965", "is_disabled": 0, "rental_uris": {"android": "https://dc.lft.to/lastmile_qr_scan", "ios": "https://dc.lft.to/lastmile_qr_scan"}, "fusion_lon": 0.0, "lat": 38.88771966666667, "bike_id": "b4752d95ee611981a208789a29330965", "type": "electric_scooter", "is_reserved": 0, "lon": -76.99162683333333}, {"fusion_lat": 0.0, "name": "dbce60f35745a1e9b90022b2c6809462", "is_disabled": 0, "rental_uris": {"android": "https://dc.lft.to/lastmile_qr_scan", "ios": "https://dc.lft.to/lastmile_qr_scan"}, "fusion_lon": 0.0, "lat": 38.920671666666664, "bike_id": "dbce60f35745a1e9b90022b2c6809462", "type": "electric_scooter", "is_reserved": 0, "lon": -77.043829}, {"fusion_lat": 0.0, "name": "20a6775896c95f45d7766470da73cb5b", "is_disabled": 0, "rental_uris": {"android": "https://dc.lft.to/lastmile_qr_scan", "ios": "https://dc.lft.to/lastmile_qr_scan"}, "fusion_lon": 0.0, "lat": 38.924134, "bike_id": "20a6775896c95f45d7766470da73cb5b", "type": "electric_scooter", "is_reserved": 0, "lon": -77.02708016666666}, {"fusion_lat": 0.0, "name": "3aa344600b806aab77b615c7c1d45fa8", "is_disabled": 0, "rental_uris": {"android": "https://dc.lft.to/lastmile_qr_scan", "ios": "https://dc.lft.to/lastmile_qr_scan"}, "fusion_lon": 0.0, "lat": 38.900207, "bike_id": "3aa344600b806aab77b615c7c1d45fa8", "type": "electric_scooter", "is_reserved": 0, "lon": -77.002162}, {"fusion_lat": 0.0, "name": "3f74b2f3cf57f6a4760d871729f76fa5", "is_disabled": 0, "rental_uris": {"android": "https://dc.lft.to/lastmile_qr_scan", "ios": "https://dc.lft.to/lastmile_qr_scan"}, "fusion_lon": 0.0, "lat": 38.921289333333334, "bike_id": "3f74b2f3cf57f6a4760d871729f76fa5", "type": "electric_scooter", "is_reserved": 0, "lon": -77.02560733333334}, {"fusion_lat": 0.0, "name": "571e2d45a248b0b27aded1189ea9cd92", "is_disabled": 0, "rental_uris": {"android": "https://dc.lft.to/lastmile_qr_scan", "ios": "https://dc.lft.to/lastmile_qr_scan"}, "fusion_lon": 0.0, "lat": 38.9182885, "bike_id": "571e2d45a248b0b27aded1189ea9cd92", "type": "electric_scooter", "is_reserved": 0, "lon": -77.03189766666667}, {"fusion_lat": 0.0, "name": "d726dc090e53150f90857944141bdcf5", "is_disabled": 0, "rental_uris": {"android": "https://dc.lft.to/lastmile_qr_scan", "ios": "https://dc.lft.to/lastmile_qr_scan"}, "fusion_lon": 0.0, "lat": 38.91461183333333, "bike_id": "d726dc090e53150f90857944141bdcf5", "type": "electric_scooter", "is_reserved": 0, "lon": -77.00214166666666}, {"fusion_lat": 0.0, "name": "d1af3c17d2757d8458d30df02dd2525d", "is_disabled": 0, "rental_uris": {"android": "https://dc.lft.to/lastmile_qr_scan", "ios": "https://dc.lft.to/lastmile_qr_scan"}, "fusion_lon": 0.0, "lat": 38.900415833333334, "bike_id": "d1af3c17d2757d8458d30df02dd2525d", "type": "electric_scooter", "is_reserved": 0, "lon": -76.99143366666667}, {"fusion_lat": 0.0, "name": "0b8d2fface0a284b6d75aaaf1f3cbd6e", "is_disabled": 0, "rental_uris": {"android": "https://dc.lft.to/lastmile_qr_scan", "ios": "https://dc.lft.to/lastmile_qr_scan"}, "fusion_lon": 0.0, "lat": 38.9501075, "bike_id": "0b8d2fface0a284b6d75aaaf1f3cbd6e", "type": "electric_scooter", "is_reserved": 0, "lon": -77.08038316666666}, {"fusion_lat": 0.0, "name": "4a24cdc1b8156890261ba3fe7d86de14", "is_disabled": 0, "rental_uris": {"android": "https://dc.lft.to/lastmile_qr_scan", "ios": "https://dc.lft.to/lastmile_qr_scan"}, "fusion_lon": 0.0, "lat": 38.903876333333336, "bike_id": "4a24cdc1b8156890261ba3fe7d86de14", "type": "electric_scooter", "is_reserved": 0, "lon": -77.00989516666667}, {"fusion_lat": 0.0, "name": "2a71046f52f438b09f2cdb5d73daa895", "is_disabled": 0, "rental_uris": {"android": "https://dc.lft.to/lastmile_qr_scan", "ios": "https://dc.lft.to/lastmile_qr_scan"}, "fusion_lon": 0.0, "lat": 38.88375333333333, "bike_id": "2a71046f52f438b09f2cdb5d73daa895", "type": "electric_scooter", "is_reserved": 0, "lon": -76.99522}, {"fusion_lat": 0.0, "name": "92da65de93a5c80c785ddf8756dcdf4b", "is_disabled": 0, "rental_uris": {"android": "https://dc.lft.to/lastmile_qr_scan", "ios": "https://dc.lft.to/lastmile_qr_scan"}, "fusion_lon": 0.0, "lat": 38.892177, "bike_id": "92da65de93a5c80c785ddf8756dcdf4b", "type": "electric_scooter", "is_reserved": 0, "lon": -77.02656683333333}, {"fusion_lat": 0.0, "name": "417223e20883f7af0033551e05287fe8", "is_disabled": 0, "rental_uris": {"android": "https://dc.lft.to/lastmile_qr_scan", "ios": "https://dc.lft.to/lastmile_qr_scan"}, "fusion_lon": 0.0, "lat": 38.941913666666665, "bike_id": "417223e20883f7af0033551e05287fe8", "type": "electric_scooter", "is_reserved": 0, "lon": -77.026188}, {"fusion_lat": 0.0, "name": "8ca913c367a954437d927c6462529281", "is_disabled": 0, "rental_uris": {"android": "https://dc.lft.to/lastmile_qr_scan", "ios": "https://dc.lft.to/lastmile_qr_scan"}, "fusion_lon": 0.0, "lat": 38.92845116666667, "bike_id": "8ca913c367a954437d927c6462529281", "type": "electric_scooter", "is_reserved": 0, "lon": -77.03299316666667}, {"fusion_lat": 0.0, "name": "89447ccd8bdf42aad3dab0ec99bb9ec9", "is_disabled": 0, "rental_uris": {"android": "https://dc.lft.to/lastmile_qr_scan", "ios": "https://dc.lft.to/lastmile_qr_scan"}, "fusion_lon": 0.0, "lat": 38.91717966666667, "bike_id": "89447ccd8bdf42aad3dab0ec99bb9ec9", "type": "electric_scooter", "is_reserved": 0, "lon": -77.02292733333333}, {"fusion_lat": 0.0, "name": "9c7095640518fa18ed56128d61e56f43", "is_disabled": 0, "rental_uris": {"android": "https://dc.lft.to/lastmile_qr_scan", "ios": "https://dc.lft.to/lastmile_qr_scan"}, "fusion_lon": 0.0, "lat": 38.9001855, "bike_id": "9c7095640518fa18ed56128d61e56f43", "type": "electric_scooter", "is_reserved": 0, "lon": -77.04510783333333}, {"fusion_lat": 0.0, "name": "0e8863f33a833ebc78e816e09bf94393", "is_disabled": 0, "rental_uris": {"android": "https://dc.lft.to/lastmile_qr_scan", "ios": "https://dc.lft.to/lastmile_qr_scan"}, "fusion_lon": 0.0, "lat": 38.91684166666667, "bike_id": "0e8863f33a833ebc78e816e09bf94393", "type": "electric_scooter", "is_reserved": 0, "lon": -77.02720233333334}, {"fusion_lat": 0.0, "name": "49b2c4d3fc37f48e934994c6c84f1e55", "is_disabled": 0, "rental_uris": {"android": "https://dc.lft.to/lastmile_qr_scan", "ios": "https://dc.lft.to/lastmile_qr_scan"}, "fusion_lon": 0.0, "lat": 38.906059, "bike_id": "49b2c4d3fc37f48e934994c6c84f1e55", "type": "electric_scooter", "is_reserved": 0, "lon": -77.06294133333333}, {"fusion_lat": 0.0, "name": "63fd10c6adbe14ea77a1ef9246b42d49", "is_disabled": 0, "rental_uris": {"android": "https://dc.lft.to/lastmile_qr_scan", "ios": "https://dc.lft.to/lastmile_qr_scan"}, "fusion_lon": 0.0, "lat": 38.905292, "bike_id": "63fd10c6adbe14ea77a1ef9246b42d49", "type": "electric_scooter", "is_reserved": 0, "lon": -77.0296805}, {"fusion_lat": 0.0, "name": "ff7cc0a49f258e996d4f0999289419f0", "is_disabled": 0, "rental_uris": {"android": "https://dc.lft.to/lastmile_qr_scan", "ios": "https://dc.lft.to/lastmile_qr_scan"}, "fusion_lon": 0.0, "lat": 38.907737166666664, "bike_id": "ff7cc0a49f258e996d4f0999289419f0", "type": "electric_scooter", "is_reserved": 0, "lon": -77.035549}, {"fusion_lat": 0.0, "name": "ed7c61880890eff8b9f06e5b47549ae3", "is_disabled": 0, "rental_uris": {"android": "https://dc.lft.to/lastmile_qr_scan", "ios": "https://dc.lft.to/lastmile_qr_scan"}, "fusion_lon": 0.0, "lat": 38.8996565, "bike_id": "ed7c61880890eff8b9f06e5b47549ae3", "type": "electric_scooter", "is_reserved": 0, "lon": -77.05095766666666}, {"fusion_lat": 0.0, "name": "cefd2250fc56c37e95cb6c511c7b33b3", "is_disabled": 0, "rental_uris": {"android": "https://dc.lft.to/lastmile_qr_scan", "ios": "https://dc.lft.to/lastmile_qr_scan"}, "fusion_lon": 0.0, "lat": 38.8837885, "bike_id": "cefd2250fc56c37e95cb6c511c7b33b3", "type": "electric_scooter", "is_reserved": 0, "lon": -77.00522816666667}, {"fusion_lat": 0.0, "name": "34f10f0b7a25e839ac424e4cf204efa0", "is_disabled": 0, "rental_uris": {"android": "https://dc.lft.to/lastmile_qr_scan", "ios": "https://dc.lft.to/lastmile_qr_scan"}, "fusion_lon": 0.0, "lat": 38.844243166666665, "bike_id": "34f10f0b7a25e839ac424e4cf204efa0", "type": "electric_scooter", "is_reserved": 0, "lon": -76.99779883333333}, {"fusion_lat": 0.0, "name": "562929f11fdd0ba66923a01abc87dee8", "is_disabled": 0, "rental_uris": {"android": "https://dc.lft.to/lastmile_qr_scan", "ios": "https://dc.lft.to/lastmile_qr_scan"}, "fusion_lon": 0.0, "lat": 38.916882333333334, "bike_id": "562929f11fdd0ba66923a01abc87dee8", "type": "electric_scooter", "is_reserved": 0, "lon": -77.02888683333333}, {"fusion_lat": 0.0, "name": "20a8da7ad70ab2f4ba29b210b3719a06", "is_disabled": 0, "rental_uris": {"android": "https://dc.lft.to/lastmile_qr_scan", "ios": "https://dc.lft.to/lastmile_qr_scan"}, "fusion_lon": 0.0, "lat": 38.924793666666666, "bike_id": "20a8da7ad70ab2f4ba29b210b3719a06", "type": "electric_scooter", "is_reserved": 0, "lon": -77.0521225}, {"fusion_lat": 0.0, "name": "bee7bd153510175269f0268575f9b412", "is_disabled": 0, "rental_uris": {"android": "https://dc.lft.to/lastmile_qr_scan", "ios": "https://dc.lft.to/lastmile_qr_scan"}, "fusion_lon": 0.0, "lat": 38.8868495, "bike_id": "bee7bd153510175269f0268575f9b412", "type": "electric_scooter", "is_reserved": 0, "lon": -77.0020355}, {"fusion_lat": 0.0, "name": "b211c5fab9b5f930c3f4241527024c1d", "is_disabled": 0, "rental_uris": {"android": "https://dc.lft.to/lastmile_qr_scan", "ios": "https://dc.lft.to/lastmile_qr_scan"}, "fusion_lon": 0.0, "lat": 38.92711533333333, "bike_id": "b211c5fab9b5f930c3f4241527024c1d", "type": "electric_scooter", "is_reserved": 0, "lon": -77.02091666666666}, {"fusion_lat": 0.0, "name": "558245358a8d26925b283d02765acdd0", "is_disabled": 0, "rental_uris": {"android": "https://dc.lft.to/lastmile_qr_scan", "ios": "https://dc.lft.to/lastmile_qr_scan"}, "fusion_lon": 0.0, "lat": 38.907856, "bike_id": "558245358a8d26925b283d02765acdd0", "type": "electric_scooter", "is_reserved": 0, "lon": -77.07252266666667}, {"fusion_lat": 0.0, "name": "56eeaca210be2b555d66344d22b0d3f5", "is_disabled": 0, "rental_uris": {"android": "https://dc.lft.to/lastmile_qr_scan", "ios": "https://dc.lft.to/lastmile_qr_scan"}, "fusion_lon": 0.0, "lat": 38.887483833333334, "bike_id": "56eeaca210be2b555d66344d22b0d3f5", "type": "electric_scooter", "is_reserved": 0, "lon": -77.02132533333334}, {"fusion_lat": 0.0, "name": "fe799e4a79e8f0d7b74bec8ca293e7b3", "is_disabled": 0, "rental_uris": {"android": "https://dc.lft.to/lastmile_qr_scan", "ios": "https://dc.lft.to/lastmile_qr_scan"}, "fusion_lon": 0.0, "lat": 38.84770433333333, "bike_id": "fe799e4a79e8f0d7b74bec8ca293e7b3", "type": "electric_bike", "is_reserved": 0, "lon": -76.966396}, {"fusion_lat": 0.0, "name": "31d0c6ab241262ba27da1de9e7fe5b2b", "is_disabled": 0, "rental_uris": {"android": "https://dc.lft.to/lastmile_qr_scan", "ios": "https://dc.lft.to/lastmile_qr_scan"}, "fusion_lon": 0.0, "lat": 38.852143833333336, "bike_id": "31d0c6ab241262ba27da1de9e7fe5b2b", "type": "electric_bike", "is_reserved": 0, "lon": -76.96290166666667}, {"fusion_lat": 0.0, "name": "ebfc77b879cc2358706cf3b1ad2b5a7a", "is_disabled": 0, "rental_uris": {"android": "https://dc.lft.to/lastmile_qr_scan", "ios": "https://dc.lft.to/lastmile_qr_scan"}, "fusion_lon": 0.0, "lat": 38.93137633333333, "bike_id": "ebfc77b879cc2358706cf3b1ad2b5a7a", "type": "electric_bike", "is_reserved": 0, "lon": -77.019723}, {"fusion_lat": 0.0, "name": "d80d5ad772da0fcafa03f0cee37dd988", "is_disabled": 0, "rental_uris": {"android": "https://dc.lft.to/lastmile_qr_scan", "ios": "https://dc.lft.to/lastmile_qr_scan"}, "fusion_lon": 0.0, "lat": 38.879679833333334, "bike_id": "d80d5ad772da0fcafa03f0cee37dd988", "type": "electric_scooter", "is_reserved": 0, "lon": -77.005985}, {"fusion_lat": 0.0, "name": "0a4d44758a5652a98c721f45e2b9557a", "is_disabled": 0, "rental_uris": {"android": "https://dc.lft.to/lastmile_qr_scan", "ios": "https://dc.lft.to/lastmile_qr_scan"}, "fusion_lon": 0.0, "lat": 38.9049775, "bike_id": "0a4d44758a5652a98c721f45e2b9557a", "type": "electric_bike", "is_reserved": 0, "lon": -76.97442816666667}, {"fusion_lat": 0.0, "name": "0fc1a9de168faafc1897b38806606da5", "is_disabled": 0, "rental_uris": {"android": "https://dc.lft.to/lastmile_qr_scan", "ios": "https://dc.lft.to/lastmile_qr_scan"}, "fusion_lon": 0.0, "lat": 38.91771466666667, "bike_id": "0fc1a9de168faafc1897b38806606da5", "type": "electric_bike", "is_reserved": 0, "lon": -77.04254216666666}, {"fusion_lat": 0.0, "name": "7d9654166a357752a520d5e6af9e6729", "is_disabled": 0, "rental_uris": {"android": "https://dc.lft.to/lastmile_qr_scan", "ios": "https://dc.lft.to/lastmile_qr_scan"}, "fusion_lon": 0.0, "lat": 38.84355716666666, "bike_id": "7d9654166a357752a520d5e6af9e6729", "type": "electric_bike", "is_reserved": 0, "lon": -76.97822983333333}, {"fusion_lat": 0.0, "name": "76aeb59b76cf35594fb857abb791d592", "is_disabled": 0, "rental_uris": {"android": "https://dc.lft.to/lastmile_qr_scan", "ios": "https://dc.lft.to/lastmile_qr_scan"}, "fusion_lon": 0.0, "lat": 38.8966965, "bike_id": "76aeb59b76cf35594fb857abb791d592", "type": "electric_scooter", "is_reserved": 0, "lon": -77.02492883333333}, {"fusion_lat": 0.0, "name": "52d41038ca7f35bff9b684ddb1107439", "is_disabled": 0, "rental_uris": {"android": "https://dc.lft.to/lastmile_qr_scan", "ios": "https://dc.lft.to/lastmile_qr_scan"}, "fusion_lon": 0.0, "lat": 38.88014116666667, "bike_id": "52d41038ca7f35bff9b684ddb1107439", "type": "electric_scooter", "is_reserved": 0, "lon": -77.02494333333334}, {"fusion_lat": 0.0, "name": "0d2a7710105df63abf12293739cafddf", "is_disabled": 0, "rental_uris": {"android": "https://dc.lft.to/lastmile_qr_scan", "ios": "https://dc.lft.to/lastmile_qr_scan"}, "fusion_lon": 0.0, "lat": 38.898400333333335, "bike_id": "0d2a7710105df63abf12293739cafddf", "type": "electric_scooter", "is_reserved": 0, "lon": -77.03353516666667}, {"fusion_lat": 0.0, "name": "274ac34dd5aeb4053c5759279b5d8861", "is_disabled": 0, "rental_uris": {"android": "https://dc.lft.to/lastmile_qr_scan", "ios": "https://dc.lft.to/lastmile_qr_scan"}, "fusion_lon": 0.0, "lat": 38.956197833333334, "bike_id": "274ac34dd5aeb4053c5759279b5d8861", "type": "electric_scooter", "is_reserved": 0, "lon": -77.028289}, {"fusion_lat": 0.0, "name": "6b1192b07c2514a27b92c3a51abb8d32", "is_disabled": 0, "rental_uris": {"android": "https://dc.lft.to/lastmile_qr_scan", "ios": "https://dc.lft.to/lastmile_qr_scan"}, "fusion_lon": 0.0, "lat": 38.918244, "bike_id": "6b1192b07c2514a27b92c3a51abb8d32", "type": "electric_scooter", "is_reserved": 0, "lon": -77.032051}, {"fusion_lat": 0.0, "name": "5f01e6a94413eb3a49a035fe774d7f16", "is_disabled": 0, "rental_uris": {"android": "https://dc.lft.to/lastmile_qr_scan", "ios": "https://dc.lft.to/lastmile_qr_scan"}, "fusion_lon": 0.0, "lat": 38.915849333333334, "bike_id": "5f01e6a94413eb3a49a035fe774d7f16", "type": "electric_scooter", "is_reserved": 0, "lon": -76.9837475}, {"fusion_lat": 0.0, "name": "0a456a6396670b9a939babe685f28ab7", "is_disabled": 0, "rental_uris": {"android": "https://dc.lft.to/lastmile_qr_scan", "ios": "https://dc.lft.to/lastmile_qr_scan"}, "fusion_lon": 0.0, "lat": 38.92343366666667, "bike_id": "0a456a6396670b9a939babe685f28ab7", "type": "electric_scooter", "is_reserved": 0, "lon": -77.05228033333333}, {"fusion_lat": 0.0, "name": "a23bf5bc7c2787f443f15b04dc4d1ac8", "is_disabled": 0, "rental_uris": {"android": "https://dc.lft.to/lastmile_qr_scan", "ios": "https://dc.lft.to/lastmile_qr_scan"}, "fusion_lon": 0.0, "lat": 38.90733216666667, "bike_id": "a23bf5bc7c2787f443f15b04dc4d1ac8", "type": "electric_scooter", "is_reserved": 0, "lon": -77.02945516666666}, {"fusion_lat": 0.0, "name": "73da63012d24f38604cb4feaa81e0a03", "is_disabled": 0, "rental_uris": {"android": "https://dc.lft.to/lastmile_qr_scan", "ios": "https://dc.lft.to/lastmile_qr_scan"}, "fusion_lon": 0.0, "lat": 38.91702183333334, "bike_id": "73da63012d24f38604cb4feaa81e0a03", "type": "electric_scooter", "is_reserved": 0, "lon": -77.03248683333334}, {"fusion_lat": 0.0, "name": "f2d0daed794e1686de1b1714d52700a2", "is_disabled": 0, "rental_uris": {"android": "https://dc.lft.to/lastmile_qr_scan", "ios": "https://dc.lft.to/lastmile_qr_scan"}, "fusion_lon": 0.0, "lat": 38.901576, "bike_id": "f2d0daed794e1686de1b1714d52700a2", "type": "electric_scooter", "is_reserved": 0, "lon": -77.05904483333333}, {"fusion_lat": 0.0, "name": "9c4f8aec081441ad5288fe75b0ced87b", "is_disabled": 0, "rental_uris": {"android": "https://dc.lft.to/lastmile_qr_scan", "ios": "https://dc.lft.to/lastmile_qr_scan"}, "fusion_lon": 0.0, "lat": 38.930837, "bike_id": "9c4f8aec081441ad5288fe75b0ced87b", "type": "electric_scooter", "is_reserved": 0, "lon": -77.02799616666667}, {"fusion_lat": 0.0, "name": "93808dad4bc6e72dc98e4b1f55c5df77", "is_disabled": 0, "rental_uris": {"android": "https://dc.lft.to/lastmile_qr_scan", "ios": "https://dc.lft.to/lastmile_qr_scan"}, "fusion_lon": 0.0, "lat": 38.887420166666665, "bike_id": "93808dad4bc6e72dc98e4b1f55c5df77", "type": "electric_scooter", "is_reserved": 0, "lon": -77.02127616666667}, {"fusion_lat": 0.0, "name": "be2dfe33d2508291d184da8f1a6f9e28", "is_disabled": 0, "rental_uris": {"android": "https://dc.lft.to/lastmile_qr_scan", "ios": "https://dc.lft.to/lastmile_qr_scan"}, "fusion_lon": 0.0, "lat": 38.9027125, "bike_id": "be2dfe33d2508291d184da8f1a6f9e28", "type": "electric_scooter", "is_reserved": 0, "lon": -76.92900466666667}, {"fusion_lat": 0.0, "name": "1763b999532757de2a508430b314d1c2", "is_disabled": 0, "rental_uris": {"android": "https://dc.lft.to/lastmile_qr_scan", "ios": "https://dc.lft.to/lastmile_qr_scan"}, "fusion_lon": 0.0, "lat": 38.90038916666666, "bike_id": "1763b999532757de2a508430b314d1c2", "type": "electric_scooter", "is_reserved": 0, "lon": -77.00208766666667}, {"fusion_lat": 0.0, "name": "adc460634580127cf63ed7bfdda5c64d", "is_disabled": 0, "rental_uris": {"android": "https://dc.lft.to/lastmile_qr_scan", "ios": "https://dc.lft.to/lastmile_qr_scan"}, "fusion_lon": 0.0, "lat": 38.923900833333335, "bike_id": "adc460634580127cf63ed7bfdda5c64d", "type": "electric_scooter", "is_reserved": 0, "lon": -77.02171216666666}, {"fusion_lat": 0.0, "name": "53f20e5ca3f5ed37d4cba0dfe531f295", "is_disabled": 0, "rental_uris": {"android": "https://dc.lft.to/lastmile_qr_scan", "ios": "https://dc.lft.to/lastmile_qr_scan"}, "fusion_lon": 0.0, "lat": 38.89224433333333, "bike_id": "53f20e5ca3f5ed37d4cba0dfe531f295", "type": "electric_scooter", "is_reserved": 0, "lon": -77.04646333333334}, {"fusion_lat": 0.0, "name": "98bffe52ae58a063423085a35a33647f", "is_disabled": 0, "rental_uris": {"android": "https://dc.lft.to/lastmile_qr_scan", "ios": "https://dc.lft.to/lastmile_qr_scan"}, "fusion_lon": 0.0, "lat": 38.88503033333333, "bike_id": "98bffe52ae58a063423085a35a33647f", "type": "electric_scooter", "is_reserved": 0, "lon": -77.0243265}, {"fusion_lat": 0.0, "name": "c403369b32434879d832254303ad7ba2", "is_disabled": 0, "rental_uris": {"android": "https://dc.lft.to/lastmile_qr_scan", "ios": "https://dc.lft.to/lastmile_qr_scan"}, "fusion_lon": 0.0, "lat": 38.9019105, "bike_id": "c403369b32434879d832254303ad7ba2", "type": "electric_scooter", "is_reserved": 0, "lon": -77.02445216666666}, {"fusion_lat": 0.0, "name": "aa7d2df49d3dbd70279d959877fda5a5", "is_disabled": 0, "rental_uris": {"android": "https://dc.lft.to/lastmile_qr_scan", "ios": "https://dc.lft.to/lastmile_qr_scan"}, "fusion_lon": 0.0, "lat": 38.90122783333333, "bike_id": "aa7d2df49d3dbd70279d959877fda5a5", "type": "electric_scooter", "is_reserved": 0, "lon": -77.002136}, {"fusion_lat": 0.0, "name": "93b30a85b99072fde15c0c32251918b1", "is_disabled": 0, "rental_uris": {"android": "https://dc.lft.to/lastmile_qr_scan", "ios": "https://dc.lft.to/lastmile_qr_scan"}, "fusion_lon": 0.0, "lat": 38.917113, "bike_id": "93b30a85b99072fde15c0c32251918b1", "type": "electric_scooter", "is_reserved": 0, "lon": -76.97658083333333}, {"fusion_lat": 0.0, "name": "22290010f6e58d839c0a6737ecbb9569", "is_disabled": 0, "rental_uris": {"android": "https://dc.lft.to/lastmile_qr_scan", "ios": "https://dc.lft.to/lastmile_qr_scan"}, "fusion_lon": 0.0, "lat": 38.91996183333333, "bike_id": "22290010f6e58d839c0a6737ecbb9569", "type": "electric_scooter", "is_reserved": 0, "lon": -77.021687}, {"fusion_lat": 0.0, "name": "047341f53fe45761c3ad9e0241b6c5ac", "is_disabled": 0, "rental_uris": {"android": "https://dc.lft.to/lastmile_qr_scan", "ios": "https://dc.lft.to/lastmile_qr_scan"}, "fusion_lon": 0.0, "lat": 38.920344, "bike_id": "047341f53fe45761c3ad9e0241b6c5ac", "type": "electric_scooter", "is_reserved": 0, "lon": -77.0258465}, {"fusion_lat": 0.0, "name": "d8653722b28970796b4f5c10b8c83a7f", "is_disabled": 0, "rental_uris": {"android": "https://dc.lft.to/lastmile_qr_scan", "ios": "https://dc.lft.to/lastmile_qr_scan"}, "fusion_lon": 0.0, "lat": 38.93902766666667, "bike_id": "d8653722b28970796b4f5c10b8c83a7f", "type": "electric_scooter", "is_reserved": 0, "lon": -77.024819}, {"fusion_lat": 0.0, "name": "72e4c7a84c7e185a6408236ccd38a5ab", "is_disabled": 0, "rental_uris": {"android": "https://dc.lft.to/lastmile_qr_scan", "ios": "https://dc.lft.to/lastmile_qr_scan"}, "fusion_lon": 0.0, "lat": 38.920019333333336, "bike_id": "72e4c7a84c7e185a6408236ccd38a5ab", "type": "electric_scooter", "is_reserved": 0, "lon": -77.03216516666667}, {"fusion_lat": 0.0, "name": "ad3011a9a12cdfc9dbdc3be6616fbd23", "is_disabled": 0, "rental_uris": {"android": "https://dc.lft.to/lastmile_qr_scan", "ios": "https://dc.lft.to/lastmile_qr_scan"}, "fusion_lon": 0.0, "lat": 38.907338833333334, "bike_id": "ad3011a9a12cdfc9dbdc3be6616fbd23", "type": "electric_scooter", "is_reserved": 0, "lon": -77.02943066666667}, {"fusion_lat": 0.0, "name": "022b0146dd09a2d9e2ab9a6e405d0ab3", "is_disabled": 0, "rental_uris": {"android": "https://dc.lft.to/lastmile_qr_scan", "ios": "https://dc.lft.to/lastmile_qr_scan"}, "fusion_lon": 0.0, "lat": 38.94871716666667, "bike_id": "022b0146dd09a2d9e2ab9a6e405d0ab3", "type": "electric_scooter", "is_reserved": 0, "lon": -77.02573066666666}, {"fusion_lat": 0.0, "name": "658ba059fc4ffdb311b887265c02a80f", "is_disabled": 0, "rental_uris": {"android": "https://dc.lft.to/lastmile_qr_scan", "ios": "https://dc.lft.to/lastmile_qr_scan"}, "fusion_lon": 0.0, "lat": 38.9619155, "bike_id": "658ba059fc4ffdb311b887265c02a80f", "type": "electric_bike", "is_reserved": 0, "lon": -77.07380566666667}, {"fusion_lat": 0.0, "name": "23dad60524ea90caa3374f928c46b520", "is_disabled": 0, "rental_uris": {"android": "https://dc.lft.to/lastmile_qr_scan", "ios": "https://dc.lft.to/lastmile_qr_scan"}, "fusion_lon": 0.0, "lat": 38.898866, "bike_id": "23dad60524ea90caa3374f928c46b520", "type": "electric_scooter", "is_reserved": 0, "lon": -77.0531235}, {"fusion_lat": 0.0, "name": "4987639b4f42b7fdd39e7e5e38890ab5", "is_disabled": 0, "rental_uris": {"android": "https://dc.lft.to/lastmile_qr_scan", "ios": "https://dc.lft.to/lastmile_qr_scan"}, "fusion_lon": 0.0, "lat": 38.90390283333333, "bike_id": "4987639b4f42b7fdd39e7e5e38890ab5", "type": "electric_scooter", "is_reserved": 0, "lon": -77.06017216666666}, {"fusion_lat": 0.0, "name": "2ce7e8089312d8017cbfae561afe7543", "is_disabled": 0, "rental_uris": {"android": "https://dc.lft.to/lastmile_qr_scan", "ios": "https://dc.lft.to/lastmile_qr_scan"}, "fusion_lon": 0.0, "lat": 38.91277183333333, "bike_id": "2ce7e8089312d8017cbfae561afe7543", "type": "electric_scooter", "is_reserved": 0, "lon": -77.045049}, {"fusion_lat": 0.0, "name": "51e23ce8a7bc06b3aa014b14c9694401", "is_disabled": 0, "rental_uris": {"android": "https://dc.lft.to/lastmile_qr_scan", "ios": "https://dc.lft.to/lastmile_qr_scan"}, "fusion_lon": 0.0, "lat": 38.9156145, "bike_id": "51e23ce8a7bc06b3aa014b14c9694401", "type": "electric_scooter", "is_reserved": 0, "lon": -77.038552}, {"fusion_lat": 0.0, "name": "c3435ef2c7fb1b8ee0904c1a73e555d1", "is_disabled": 0, "rental_uris": {"android": "https://dc.lft.to/lastmile_qr_scan", "ios": "https://dc.lft.to/lastmile_qr_scan"}, "fusion_lon": 0.0, "lat": 38.86577283333333, "bike_id": "c3435ef2c7fb1b8ee0904c1a73e555d1", "type": "electric_bike", "is_reserved": 0, "lon": -76.97341216666666}, {"fusion_lat": 0.0, "name": "60d86c9431cc8168a486386126a34985", "is_disabled": 0, "rental_uris": {"android": "https://dc.lft.to/lastmile_qr_scan", "ios": "https://dc.lft.to/lastmile_qr_scan"}, "fusion_lon": 0.0, "lat": 38.92504, "bike_id": "60d86c9431cc8168a486386126a34985", "type": "electric_scooter", "is_reserved": 0, "lon": -77.03792016666667}, {"fusion_lat": 0.0, "name": "3370e7d29e145758bdd04c559b19251a", "is_disabled": 0, "rental_uris": {"android": "https://dc.lft.to/lastmile_qr_scan", "ios": "https://dc.lft.to/lastmile_qr_scan"}, "fusion_lon": 0.0, "lat": 38.926531833333335, "bike_id": "3370e7d29e145758bdd04c559b19251a", "type": "electric_scooter", "is_reserved": 0, "lon": -77.03839833333333}, {"fusion_lat": 0.0, "name": "4d96255ce7321a9868a8e234cbcf61a0", "is_disabled": 0, "rental_uris": {"android": "https://dc.lft.to/lastmile_qr_scan", "ios": "https://dc.lft.to/lastmile_qr_scan"}, "fusion_lon": 0.0, "lat": 38.899319166666665, "bike_id": "4d96255ce7321a9868a8e234cbcf61a0", "type": "electric_scooter", "is_reserved": 0, "lon": -77.02921083333334}, {"fusion_lat": 0.0, "name": "355b10d50e46be14c3efdfb0289fb22b", "is_disabled": 0, "rental_uris": {"android": "https://dc.lft.to/lastmile_qr_scan", "ios": "https://dc.lft.to/lastmile_qr_scan"}, "fusion_lon": 0.0, "lat": 38.83311483333333, "bike_id": "355b10d50e46be14c3efdfb0289fb22b", "type": "electric_bike", "is_reserved": 0, "lon": -77.041719}, {"fusion_lat": 0.0, "name": "169411f8b4db3baf46a0720015f97b2f", "is_disabled": 0, "rental_uris": {"android": "https://dc.lft.to/lastmile_qr_scan", "ios": "https://dc.lft.to/lastmile_qr_scan"}, "fusion_lon": 0.0, "lat": 38.900624, "bike_id": "169411f8b4db3baf46a0720015f97b2f", "type": "electric_scooter", "is_reserved": 0, "lon": -77.0161845}, {"fusion_lat": 0.0, "name": "10aa3bca474aae9fd874d50d56b95785", "is_disabled": 0, "rental_uris": {"android": "https://dc.lft.to/lastmile_qr_scan", "ios": "https://dc.lft.to/lastmile_qr_scan"}, "fusion_lon": 0.0, "lat": 38.94539116666667, "bike_id": "10aa3bca474aae9fd874d50d56b95785", "type": "electric_scooter", "is_reserved": 0, "lon": -77.016893}, {"fusion_lat": 0.0, "name": "a76de365e0d905966b1d6ca4e7024d33", "is_disabled": 0, "rental_uris": {"android": "https://dc.lft.to/lastmile_qr_scan", "ios": "https://dc.lft.to/lastmile_qr_scan"}, "fusion_lon": 0.0, "lat": 38.892339, "bike_id": "a76de365e0d905966b1d6ca4e7024d33", "type": "electric_scooter", "is_reserved": 0, "lon": -77.0282655}, {"fusion_lat": 0.0, "name": "fb2ce8cbf8aa4ffdfe1b86445b228806", "is_disabled": 0, "rental_uris": {"android": "https://dc.lft.to/lastmile_qr_scan", "ios": "https://dc.lft.to/lastmile_qr_scan"}, "fusion_lon": 0.0, "lat": 39.09970666666667, "bike_id": "fb2ce8cbf8aa4ffdfe1b86445b228806", "type": "electric_bike", "is_reserved": 0, "lon": -77.183032}, {"fusion_lat": 0.0, "name": "3d1dbca0ae6cfca937554b9b47a9148c", "is_disabled": 0, "rental_uris": {"android": "https://dc.lft.to/lastmile_qr_scan", "ios": "https://dc.lft.to/lastmile_qr_scan"}, "fusion_lon": 0.0, "lat": 38.90039633333333, "bike_id": "3d1dbca0ae6cfca937554b9b47a9148c", "type": "electric_scooter", "is_reserved": 0, "lon": -77.026105}, {"fusion_lat": 0.0, "name": "b24dd7209aeb9b5b6b6698af9451e943", "is_disabled": 0, "rental_uris": {"android": "https://dc.lft.to/lastmile_qr_scan", "ios": "https://dc.lft.to/lastmile_qr_scan"}, "fusion_lon": 0.0, "lat": 38.921176, "bike_id": "b24dd7209aeb9b5b6b6698af9451e943", "type": "electric_scooter", "is_reserved": 0, "lon": -77.03657533333333}, {"fusion_lat": 0.0, "name": "b5eb05c07fbf751bab9eed8188d75cfb", "is_disabled": 0, "rental_uris": {"android": "https://dc.lft.to/lastmile_qr_scan", "ios": "https://dc.lft.to/lastmile_qr_scan"}, "fusion_lon": 0.0, "lat": 38.908755166666666, "bike_id": "b5eb05c07fbf751bab9eed8188d75cfb", "type": "electric_scooter", "is_reserved": 0, "lon": -76.99801316666667}, {"fusion_lat": 0.0, "name": "202279d7b2cc82b3e3d4c2c6e221c612", "is_disabled": 0, "rental_uris": {"android": "https://dc.lft.to/lastmile_qr_scan", "ios": "https://dc.lft.to/lastmile_qr_scan"}, "fusion_lon": 0.0, "lat": 38.923732666666666, "bike_id": "202279d7b2cc82b3e3d4c2c6e221c612", "type": "electric_scooter", "is_reserved": 0, "lon": -77.02811633333333}, {"fusion_lat": 0.0, "name": "677b6f6cebbc9a38e17200b4080af909", "is_disabled": 0, "rental_uris": {"android": "https://dc.lft.to/lastmile_qr_scan", "ios": "https://dc.lft.to/lastmile_qr_scan"}, "fusion_lon": 0.0, "lat": 38.91924933333333, "bike_id": "677b6f6cebbc9a38e17200b4080af909", "type": "electric_scooter", "is_reserved": 0, "lon": -77.03185366666666}, {"fusion_lat": 0.0, "name": "10860a6984572f47e03c680347caa1d5", "is_disabled": 0, "rental_uris": {"android": "https://dc.lft.to/lastmile_qr_scan", "ios": "https://dc.lft.to/lastmile_qr_scan"}, "fusion_lon": 0.0, "lat": 38.930266, "bike_id": "10860a6984572f47e03c680347caa1d5", "type": "electric_scooter", "is_reserved": 0, "lon": -77.03787166666666}, {"fusion_lat": 0.0, "name": "bdee4def3bc11eb603a4c175c239daf1", "is_disabled": 0, "rental_uris": {"android": "https://dc.lft.to/lastmile_qr_scan", "ios": "https://dc.lft.to/lastmile_qr_scan"}, "fusion_lon": 0.0, "lat": 38.922465, "bike_id": "bdee4def3bc11eb603a4c175c239daf1", "type": "electric_scooter", "is_reserved": 0, "lon": -77.03083483333333}, {"fusion_lat": 0.0, "name": "0b07d4b63789a5861b3b590e7106a367", "is_disabled": 0, "rental_uris": {"android": "https://dc.lft.to/lastmile_qr_scan", "ios": "https://dc.lft.to/lastmile_qr_scan"}, "fusion_lon": 0.0, "lat": 38.892371833333335, "bike_id": "0b07d4b63789a5861b3b590e7106a367", "type": "electric_scooter", "is_reserved": 0, "lon": -77.0487835}, {"fusion_lat": 0.0, "name": "6c121dc666d43b3cff1b66bb3f74f3d4", "is_disabled": 0, "rental_uris": {"android": "https://dc.lft.to/lastmile_qr_scan", "ios": "https://dc.lft.to/lastmile_qr_scan"}, "fusion_lon": 0.0, "lat": 38.90011716666667, "bike_id": "6c121dc666d43b3cff1b66bb3f74f3d4", "type": "electric_scooter", "is_reserved": 0, "lon": -76.9986245}, {"fusion_lat": 0.0, "name": "8ae1de8a389972d5f3b76a279c28551e", "is_disabled": 0, "rental_uris": {"android": "https://dc.lft.to/lastmile_qr_scan", "ios": "https://dc.lft.to/lastmile_qr_scan"}, "fusion_lon": 0.0, "lat": 38.91921383333333, "bike_id": "8ae1de8a389972d5f3b76a279c28551e", "type": "electric_scooter", "is_reserved": 0, "lon": -77.0342395}, {"fusion_lat": 0.0, "name": "1e01c060e06fd53beb0208ff5438bf7f", "is_disabled": 0, "rental_uris": {"android": "https://dc.lft.to/lastmile_qr_scan", "ios": "https://dc.lft.to/lastmile_qr_scan"}, "fusion_lon": 0.0, "lat": 38.9037975, "bike_id": "1e01c060e06fd53beb0208ff5438bf7f", "type": "electric_scooter", "is_reserved": 0, "lon": -76.97616883333333}, {"fusion_lat": 0.0, "name": "649c8f7f33d77767586029f752a05bbd", "is_disabled": 0, "rental_uris": {"android": "https://dc.lft.to/lastmile_qr_scan", "ios": "https://dc.lft.to/lastmile_qr_scan"}, "fusion_lon": 0.0, "lat": 38.904179166666665, "bike_id": "649c8f7f33d77767586029f752a05bbd", "type": "electric_scooter", "is_reserved": 0, "lon": -77.051319}, {"fusion_lat": 0.0, "name": "a43b6c0cb31e529ebc9b9686112f10c8", "is_disabled": 0, "rental_uris": {"android": "https://dc.lft.to/lastmile_qr_scan", "ios": "https://dc.lft.to/lastmile_qr_scan"}, "fusion_lon": 0.0, "lat": 38.90531683333333, "bike_id": "a43b6c0cb31e529ebc9b9686112f10c8", "type": "electric_scooter", "is_reserved": 0, "lon": -77.02979816666667}, {"fusion_lat": 0.0, "name": "254326f14ed438d2f3c8a545d53b4887", "is_disabled": 0, "rental_uris": {"android": "https://dc.lft.to/lastmile_qr_scan", "ios": "https://dc.lft.to/lastmile_qr_scan"}, "fusion_lon": 0.0, "lat": 38.881889666666666, "bike_id": "254326f14ed438d2f3c8a545d53b4887", "type": "electric_scooter", "is_reserved": 0, "lon": -77.003514}, {"fusion_lat": 0.0, "name": "7653a57b035c987dd452876650cb295b", "is_disabled": 0, "rental_uris": {"android": "https://dc.lft.to/lastmile_qr_scan", "ios": "https://dc.lft.to/lastmile_qr_scan"}, "fusion_lon": 0.0, "lat": 38.8728575, "bike_id": "7653a57b035c987dd452876650cb295b", "type": "electric_scooter", "is_reserved": 0, "lon": -77.009887}, {"fusion_lat": 0.0, "name": "7e37e21b9b498db4796e36bf01829c10", "is_disabled": 0, "rental_uris": {"android": "https://dc.lft.to/lastmile_qr_scan", "ios": "https://dc.lft.to/lastmile_qr_scan"}, "fusion_lon": 0.0, "lat": 38.921766166666664, "bike_id": "7e37e21b9b498db4796e36bf01829c10", "type": "electric_scooter", "is_reserved": 0, "lon": -77.035143}, {"fusion_lat": 0.0, "name": "affd086d2fcda539703cb9b1bc75eb3b", "is_disabled": 0, "rental_uris": {"android": "https://dc.lft.to/lastmile_qr_scan", "ios": "https://dc.lft.to/lastmile_qr_scan"}, "fusion_lon": 0.0, "lat": 38.903758833333335, "bike_id": "affd086d2fcda539703cb9b1bc75eb3b", "type": "electric_scooter", "is_reserved": 0, "lon": -77.03975666666666}, {"fusion_lat": 0.0, "name": "ed3e866740955e7f24e8221d300a4651", "is_disabled": 0, "rental_uris": {"android": "https://dc.lft.to/lastmile_qr_scan", "ios": "https://dc.lft.to/lastmile_qr_scan"}, "fusion_lon": 0.0, "lat": 38.91800933333333, "bike_id": "ed3e866740955e7f24e8221d300a4651", "type": "electric_scooter", "is_reserved": 0, "lon": -77.04123483333333}, {"fusion_lat": 0.0, "name": "cfeaead5366577e531061aab527ddb9b", "is_disabled": 0, "rental_uris": {"android": "https://dc.lft.to/lastmile_qr_scan", "ios": "https://dc.lft.to/lastmile_qr_scan"}, "fusion_lon": 0.0, "lat": 38.90207066666667, "bike_id": "cfeaead5366577e531061aab527ddb9b", "type": "electric_scooter", "is_reserved": 0, "lon": -77.02381133333333}, {"fusion_lat": 0.0, "name": "4e6d657813b19a2bc294fe913a72a37f", "is_disabled": 0, "rental_uris": {"android": "https://dc.lft.to/lastmile_qr_scan", "ios": "https://dc.lft.to/lastmile_qr_scan"}, "fusion_lon": 0.0, "lat": 38.90683833333333, "bike_id": "4e6d657813b19a2bc294fe913a72a37f", "type": "electric_bike", "is_reserved": 0, "lon": -76.9449425}, {"fusion_lat": 0.0, "name": "8f46f7461fe717eed6cf9e0c9d22fc8f", "is_disabled": 0, "rental_uris": {"android": "https://dc.lft.to/lastmile_qr_scan", "ios": "https://dc.lft.to/lastmile_qr_scan"}, "fusion_lon": 0.0, "lat": 38.9382645, "bike_id": "8f46f7461fe717eed6cf9e0c9d22fc8f", "type": "electric_scooter", "is_reserved": 0, "lon": -77.0304595}, {"fusion_lat": 0.0, "name": "ac59d6418f24784cb9372fbe5f842a1a", "is_disabled": 0, "rental_uris": {"android": "https://dc.lft.to/lastmile_qr_scan", "ios": "https://dc.lft.to/lastmile_qr_scan"}, "fusion_lon": 0.0, "lat": 38.901539666666665, "bike_id": "ac59d6418f24784cb9372fbe5f842a1a", "type": "electric_scooter", "is_reserved": 0, "lon": -76.9306495}, {"fusion_lat": 0.0, "name": "85004ed6c290884ff352078905065948", "is_disabled": 0, "rental_uris": {"android": "https://dc.lft.to/lastmile_qr_scan", "ios": "https://dc.lft.to/lastmile_qr_scan"}, "fusion_lon": 0.0, "lat": 38.9084295, "bike_id": "85004ed6c290884ff352078905065948", "type": "electric_scooter", "is_reserved": 0, "lon": -76.99760366666666}, {"fusion_lat": 0.0, "name": "2b713becad3d5b28d2bf17a91ae53242", "is_disabled": 0, "rental_uris": {"android": "https://dc.lft.to/lastmile_qr_scan", "ios": "https://dc.lft.to/lastmile_qr_scan"}, "fusion_lon": 0.0, "lat": 38.92307666666667, "bike_id": "2b713becad3d5b28d2bf17a91ae53242", "type": "electric_scooter", "is_reserved": 0, "lon": -77.04139866666667}, {"fusion_lat": 0.0, "name": "206e06fe9fc6fe16c60f8b79c3d11854", "is_disabled": 0, "rental_uris": {"android": "https://dc.lft.to/lastmile_qr_scan", "ios": "https://dc.lft.to/lastmile_qr_scan"}, "fusion_lon": 0.0, "lat": 38.875583666666664, "bike_id": "206e06fe9fc6fe16c60f8b79c3d11854", "type": "electric_scooter", "is_reserved": 0, "lon": -77.0058895}, {"fusion_lat": 0.0, "name": "ae7ea5a92ab6d3a7242c71c8e0f8c7d3", "is_disabled": 0, "rental_uris": {"android": "https://dc.lft.to/lastmile_qr_scan", "ios": "https://dc.lft.to/lastmile_qr_scan"}, "fusion_lon": 0.0, "lat": 38.92234283333333, "bike_id": "ae7ea5a92ab6d3a7242c71c8e0f8c7d3", "type": "electric_scooter", "is_reserved": 0, "lon": -77.04246066666667}, {"fusion_lat": 0.0, "name": "8a0e8c4ed2c1541331edfd4330de8b1b", "is_disabled": 0, "rental_uris": {"android": "https://dc.lft.to/lastmile_qr_scan", "ios": "https://dc.lft.to/lastmile_qr_scan"}, "fusion_lon": 0.0, "lat": 38.920579000000004, "bike_id": "8a0e8c4ed2c1541331edfd4330de8b1b", "type": "electric_scooter", "is_reserved": 0, "lon": -77.0424355}, {"fusion_lat": 0.0, "name": "284199580d145b1e4b3304b679e8dc93", "is_disabled": 0, "rental_uris": {"android": "https://dc.lft.to/lastmile_qr_scan", "ios": "https://dc.lft.to/lastmile_qr_scan"}, "fusion_lon": 0.0, "lat": 38.91713216666667, "bike_id": "284199580d145b1e4b3304b679e8dc93", "type": "electric_scooter", "is_reserved": 0, "lon": -77.02431116666666}, {"fusion_lat": 0.0, "name": "71891d37c836ac348424a75a6f810e86", "is_disabled": 0, "rental_uris": {"android": "https://dc.lft.to/lastmile_qr_scan", "ios": "https://dc.lft.to/lastmile_qr_scan"}, "fusion_lon": 0.0, "lat": 38.917648166666666, "bike_id": "71891d37c836ac348424a75a6f810e86", "type": "electric_scooter", "is_reserved": 0, "lon": -77.04553533333333}, {"fusion_lat": 0.0, "name": "a6f0d5015042d562de5b07b6c8a55392", "is_disabled": 0, "rental_uris": {"android": "https://dc.lft.to/lastmile_qr_scan", "ios": "https://dc.lft.to/lastmile_qr_scan"}, "fusion_lon": 0.0, "lat": 38.9505795, "bike_id": "a6f0d5015042d562de5b07b6c8a55392", "type": "electric_scooter", "is_reserved": 0, "lon": -77.0802685}, {"fusion_lat": 0.0, "name": "53ec36f2ca05ffbdbb2cfbb41adba765", "is_disabled": 0, "rental_uris": {"android": "https://dc.lft.to/lastmile_qr_scan", "ios": "https://dc.lft.to/lastmile_qr_scan"}, "fusion_lon": 0.0, "lat": 38.871488166666666, "bike_id": "53ec36f2ca05ffbdbb2cfbb41adba765", "type": "electric_bike", "is_reserved": 0, "lon": -77.011882}, {"fusion_lat": 0.0, "name": "f7e8926f6b0f143579aa91f3b9e7b5e0", "is_disabled": 0, "rental_uris": {"android": "https://dc.lft.to/lastmile_qr_scan", "ios": "https://dc.lft.to/lastmile_qr_scan"}, "fusion_lon": 0.0, "lat": 38.87555966666667, "bike_id": "f7e8926f6b0f143579aa91f3b9e7b5e0", "type": "electric_scooter", "is_reserved": 0, "lon": -77.00581483333333}, {"fusion_lat": 0.0, "name": "8ab890a80db2affa6b4cc87a40ae06a9", "is_disabled": 0, "rental_uris": {"android": "https://dc.lft.to/lastmile_qr_scan", "ios": "https://dc.lft.to/lastmile_qr_scan"}, "fusion_lon": 0.0, "lat": 38.916864333333336, "bike_id": "8ab890a80db2affa6b4cc87a40ae06a9", "type": "electric_scooter", "is_reserved": 0, "lon": -77.03673266666667}, {"fusion_lat": 0.0, "name": "8acd064570195213620c9da0a78843bd", "is_disabled": 0, "rental_uris": {"android": "https://dc.lft.to/lastmile_qr_scan", "ios": "https://dc.lft.to/lastmile_qr_scan"}, "fusion_lon": 0.0, "lat": 38.921047333333334, "bike_id": "8acd064570195213620c9da0a78843bd", "type": "electric_scooter", "is_reserved": 0, "lon": -77.02990733333333}, {"fusion_lat": 0.0, "name": "c477e9a90e8a98ffad76b941ad510ef8", "is_disabled": 0, "rental_uris": {"android": "https://dc.lft.to/lastmile_qr_scan", "ios": "https://dc.lft.to/lastmile_qr_scan"}, "fusion_lon": 0.0, "lat": 38.843014333333336, "bike_id": "c477e9a90e8a98ffad76b941ad510ef8", "type": "electric_bike", "is_reserved": 0, "lon": -77.10863866666666}, {"fusion_lat": 0.0, "name": "321854aa22bfeb0effdace305d715ef8", "is_disabled": 0, "rental_uris": {"android": "https://dc.lft.to/lastmile_qr_scan", "ios": "https://dc.lft.to/lastmile_qr_scan"}, "fusion_lon": 0.0, "lat": 38.89907266666667, "bike_id": "321854aa22bfeb0effdace305d715ef8", "type": "electric_scooter", "is_reserved": 0, "lon": -76.94553533333334}, {"fusion_lat": 0.0, "name": "e271a47519d1f17f0619f2e53dd076af", "is_disabled": 0, "rental_uris": {"android": "https://dc.lft.to/lastmile_qr_scan", "ios": "https://dc.lft.to/lastmile_qr_scan"}, "fusion_lon": 0.0, "lat": 38.94734916666667, "bike_id": "e271a47519d1f17f0619f2e53dd076af", "type": "electric_scooter", "is_reserved": 0, "lon": -77.01617983333334}, {"fusion_lat": 0.0, "name": "3d32c3277df2b9eba3b684f024f897c1", "is_disabled": 0, "rental_uris": {"android": "https://dc.lft.to/lastmile_qr_scan", "ios": "https://dc.lft.to/lastmile_qr_scan"}, "fusion_lon": 0.0, "lat": 38.9140435, "bike_id": "3d32c3277df2b9eba3b684f024f897c1", "type": "electric_scooter", "is_reserved": 0, "lon": -77.00846733333333}, {"fusion_lat": 0.0, "name": "5434cbd0f75113921f566d741c3de9ed", "is_disabled": 0, "rental_uris": {"android": "https://dc.lft.to/lastmile_qr_scan", "ios": "https://dc.lft.to/lastmile_qr_scan"}, "fusion_lon": 0.0, "lat": 38.902369166666666, "bike_id": "5434cbd0f75113921f566d741c3de9ed", "type": "electric_scooter", "is_reserved": 0, "lon": -77.06157816666666}, {"fusion_lat": 0.0, "name": "ad2c96c3d8c426fefc700c26ced6050d", "is_disabled": 0, "rental_uris": {"android": "https://dc.lft.to/lastmile_qr_scan", "ios": "https://dc.lft.to/lastmile_qr_scan"}, "fusion_lon": 0.0, "lat": 38.9073585, "bike_id": "ad2c96c3d8c426fefc700c26ced6050d", "type": "electric_scooter", "is_reserved": 0, "lon": -77.04166233333333}, {"fusion_lat": 0.0, "name": "8ed38831d516ee554a1268c714f7bb96", "is_disabled": 0, "rental_uris": {"android": "https://dc.lft.to/lastmile_qr_scan", "ios": "https://dc.lft.to/lastmile_qr_scan"}, "fusion_lon": 0.0, "lat": 38.88118, "bike_id": "8ed38831d516ee554a1268c714f7bb96", "type": "electric_bike", "is_reserved": 0, "lon": -77.0018285}, {"fusion_lat": 0.0, "name": "e88cfa9f0c5044b722cdf42ad80c4396", "is_disabled": 0, "rental_uris": {"android": "https://dc.lft.to/lastmile_qr_scan", "ios": "https://dc.lft.to/lastmile_qr_scan"}, "fusion_lon": 0.0, "lat": 38.8922795, "bike_id": "e88cfa9f0c5044b722cdf42ad80c4396", "type": "electric_scooter", "is_reserved": 0, "lon": -77.04874533333333}, {"fusion_lat": 0.0, "name": "da22000da8bcbf4012583c39ba6bd886", "is_disabled": 0, "rental_uris": {"android": "https://dc.lft.to/lastmile_qr_scan", "ios": "https://dc.lft.to/lastmile_qr_scan"}, "fusion_lon": 0.0, "lat": 38.924516, "bike_id": "da22000da8bcbf4012583c39ba6bd886", "type": "electric_scooter", "is_reserved": 0, "lon": -77.04024216666667}, {"fusion_lat": 0.0, "name": "640264400933e201fe516ddc11ebbda8", "is_disabled": 0, "rental_uris": {"android": "https://dc.lft.to/lastmile_qr_scan", "ios": "https://dc.lft.to/lastmile_qr_scan"}, "fusion_lon": 0.0, "lat": 38.90973316666667, "bike_id": "640264400933e201fe516ddc11ebbda8", "type": "electric_scooter", "is_reserved": 0, "lon": -77.032118}, {"fusion_lat": 0.0, "name": "ca309f806a0c44cb43b12831d785adfe", "is_disabled": 0, "rental_uris": {"android": "https://dc.lft.to/lastmile_qr_scan", "ios": "https://dc.lft.to/lastmile_qr_scan"}, "fusion_lon": 0.0, "lat": 38.90474716666667, "bike_id": "ca309f806a0c44cb43b12831d785adfe", "type": "electric_scooter", "is_reserved": 0, "lon": -77.00721583333333}, {"fusion_lat": 0.0, "name": "75c175facb312f535fffc6518df36cb0", "is_disabled": 0, "rental_uris": {"android": "https://dc.lft.to/lastmile_qr_scan", "ios": "https://dc.lft.to/lastmile_qr_scan"}, "fusion_lon": 0.0, "lat": 38.907161333333335, "bike_id": "75c175facb312f535fffc6518df36cb0", "type": "electric_scooter", "is_reserved": 0, "lon": -77.05136183333333}, {"fusion_lat": 0.0, "name": "53f0deb0205a3be1f9346c9332a94a25", "is_disabled": 0, "rental_uris": {"android": "https://dc.lft.to/lastmile_qr_scan", "ios": "https://dc.lft.to/lastmile_qr_scan"}, "fusion_lon": 0.0, "lat": 38.934863, "bike_id": "53f0deb0205a3be1f9346c9332a94a25", "type": "electric_scooter", "is_reserved": 0, "lon": -77.02716133333334}, {"fusion_lat": 0.0, "name": "d1c84baa68a7d768d0766ea4b8fab854", "is_disabled": 0, "rental_uris": {"android": "https://dc.lft.to/lastmile_qr_scan", "ios": "https://dc.lft.to/lastmile_qr_scan"}, "fusion_lon": 0.0, "lat": 38.93101133333333, "bike_id": "d1c84baa68a7d768d0766ea4b8fab854", "type": "electric_scooter", "is_reserved": 0, "lon": -77.02658433333333}, {"fusion_lat": 0.0, "name": "ae5d2b08b74c9279276c49b6ddbb0398", "is_disabled": 0, "rental_uris": {"android": "https://dc.lft.to/lastmile_qr_scan", "ios": "https://dc.lft.to/lastmile_qr_scan"}, "fusion_lon": 0.0, "lat": 38.892343, "bike_id": "ae5d2b08b74c9279276c49b6ddbb0398", "type": "electric_scooter", "is_reserved": 0, "lon": -77.02386683333333}, {"fusion_lat": 0.0, "name": "b1f50bc1e2f2ec24d4991a49bd212d24", "is_disabled": 0, "rental_uris": {"android": "https://dc.lft.to/lastmile_qr_scan", "ios": "https://dc.lft.to/lastmile_qr_scan"}, "fusion_lon": 0.0, "lat": 38.91268016666667, "bike_id": "b1f50bc1e2f2ec24d4991a49bd212d24", "type": "electric_scooter", "is_reserved": 0, "lon": -77.02232333333333}, {"fusion_lat": 0.0, "name": "428ebe1d321990f77c5ce6e05818754f", "is_disabled": 0, "rental_uris": {"android": "https://dc.lft.to/lastmile_qr_scan", "ios": "https://dc.lft.to/lastmile_qr_scan"}, "fusion_lon": 0.0, "lat": 38.82219933333333, "bike_id": "428ebe1d321990f77c5ce6e05818754f", "type": "electric_bike", "is_reserved": 0, "lon": -77.0018455}, {"fusion_lat": 0.0, "name": "4e5253a8df1ffa6493c3a0eb1f21f460", "is_disabled": 0, "rental_uris": {"android": "https://dc.lft.to/lastmile_qr_scan", "ios": "https://dc.lft.to/lastmile_qr_scan"}, "fusion_lon": 0.0, "lat": 38.892211833333334, "bike_id": "4e5253a8df1ffa6493c3a0eb1f21f460", "type": "electric_scooter", "is_reserved": 0, "lon": -77.03217166666667}, {"fusion_lat": 0.0, "name": "6b3c958961ea890de7dba9a35f6a5384", "is_disabled": 0, "rental_uris": {"android": "https://dc.lft.to/lastmile_qr_scan", "ios": "https://dc.lft.to/lastmile_qr_scan"}, "fusion_lon": 0.0, "lat": 38.89600183333334, "bike_id": "6b3c958961ea890de7dba9a35f6a5384", "type": "electric_scooter", "is_reserved": 0, "lon": -77.026559}, {"fusion_lat": 0.0, "name": "f91b287225cd543c4e5f65b47e9464e0", "is_disabled": 0, "rental_uris": {"android": "https://dc.lft.to/lastmile_qr_scan", "ios": "https://dc.lft.to/lastmile_qr_scan"}, "fusion_lon": 0.0, "lat": 38.87654583333333, "bike_id": "f91b287225cd543c4e5f65b47e9464e0", "type": "electric_scooter", "is_reserved": 0, "lon": -77.00429683333333}, {"fusion_lat": 0.0, "name": "7ad432ae3fb37be20e88ff254b745fd9", "is_disabled": 0, "rental_uris": {"android": "https://dc.lft.to/lastmile_qr_scan", "ios": "https://dc.lft.to/lastmile_qr_scan"}, "fusion_lon": 0.0, "lat": 38.8874365, "bike_id": "7ad432ae3fb37be20e88ff254b745fd9", "type": "electric_scooter", "is_reserved": 0, "lon": -76.99849366666666}, {"fusion_lat": 0.0, "name": "1a76845d5f7b9e3c665f9dec4d5c03f5", "is_disabled": 0, "rental_uris": {"android": "https://dc.lft.to/lastmile_qr_scan", "ios": "https://dc.lft.to/lastmile_qr_scan"}, "fusion_lon": 0.0, "lat": 38.901703833333336, "bike_id": "1a76845d5f7b9e3c665f9dec4d5c03f5", "type": "electric_scooter", "is_reserved": 0, "lon": -76.980714}, {"fusion_lat": 0.0, "name": "889e7d469cb1f78f3610a3395cd19a24", "is_disabled": 0, "rental_uris": {"android": "https://dc.lft.to/lastmile_qr_scan", "ios": "https://dc.lft.to/lastmile_qr_scan"}, "fusion_lon": 0.0, "lat": 38.90593783333333, "bike_id": "889e7d469cb1f78f3610a3395cd19a24", "type": "electric_scooter", "is_reserved": 0, "lon": -77.01615266666667}, {"fusion_lat": 0.0, "name": "605e2ad5b2932be3edbc182b23fa29c2", "is_disabled": 0, "rental_uris": {"android": "https://dc.lft.to/lastmile_qr_scan", "ios": "https://dc.lft.to/lastmile_qr_scan"}, "fusion_lon": 0.0, "lat": 38.929973, "bike_id": "605e2ad5b2932be3edbc182b23fa29c2", "type": "electric_scooter", "is_reserved": 0, "lon": -77.03794516666666}, {"fusion_lat": 0.0, "name": "cd92a10877fa6d4be09d4044f7cfc9e5", "is_disabled": 0, "rental_uris": {"android": "https://dc.lft.to/lastmile_qr_scan", "ios": "https://dc.lft.to/lastmile_qr_scan"}, "fusion_lon": 0.0, "lat": 38.9080785, "bike_id": "cd92a10877fa6d4be09d4044f7cfc9e5", "type": "electric_scooter", "is_reserved": 0, "lon": -77.04185166666667}, {"fusion_lat": 0.0, "name": "46c92adeb690a6504fe1dfa9456295ed", "is_disabled": 0, "rental_uris": {"android": "https://dc.lft.to/lastmile_qr_scan", "ios": "https://dc.lft.to/lastmile_qr_scan"}, "fusion_lon": 0.0, "lat": 38.929930166666665, "bike_id": "46c92adeb690a6504fe1dfa9456295ed", "type": "electric_scooter", "is_reserved": 0, "lon": -77.0347665}, {"fusion_lat": 0.0, "name": "11b65c45c8b08cf54a7ccb532c5f95a5", "is_disabled": 0, "rental_uris": {"android": "https://dc.lft.to/lastmile_qr_scan", "ios": "https://dc.lft.to/lastmile_qr_scan"}, "fusion_lon": 0.0, "lat": 38.836098, "bike_id": "11b65c45c8b08cf54a7ccb532c5f95a5", "type": "electric_bike", "is_reserved": 0, "lon": -77.0038025}, {"fusion_lat": 0.0, "name": "a3a5460f55b5839a6bf5231c383b622a", "is_disabled": 0, "rental_uris": {"android": "https://dc.lft.to/lastmile_qr_scan", "ios": "https://dc.lft.to/lastmile_qr_scan"}, "fusion_lon": 0.0, "lat": 38.93073616666667, "bike_id": "a3a5460f55b5839a6bf5231c383b622a", "type": "electric_scooter", "is_reserved": 0, "lon": -77.0315855}, {"fusion_lat": 0.0, "name": "983115e9a6d3ab830213f59e208708ec", "is_disabled": 0, "rental_uris": {"android": "https://dc.lft.to/lastmile_qr_scan", "ios": "https://dc.lft.to/lastmile_qr_scan"}, "fusion_lon": 0.0, "lat": 38.88397033333333, "bike_id": "983115e9a6d3ab830213f59e208708ec", "type": "electric_scooter", "is_reserved": 0, "lon": -77.02965833333333}, {"fusion_lat": 0.0, "name": "42c978fecc6744fd01aa8eda774ac84b", "is_disabled": 0, "rental_uris": {"android": "https://dc.lft.to/lastmile_qr_scan", "ios": "https://dc.lft.to/lastmile_qr_scan"}, "fusion_lon": 0.0, "lat": 38.909632333333334, "bike_id": "42c978fecc6744fd01aa8eda774ac84b", "type": "electric_scooter", "is_reserved": 0, "lon": -77.03942366666666}, {"fusion_lat": 0.0, "name": "f08608411496d1ae9c6cf922b47d7b87", "is_disabled": 0, "rental_uris": {"android": "https://dc.lft.to/lastmile_qr_scan", "ios": "https://dc.lft.to/lastmile_qr_scan"}, "fusion_lon": 0.0, "lat": 38.9043415, "bike_id": "f08608411496d1ae9c6cf922b47d7b87", "type": "electric_scooter", "is_reserved": 0, "lon": -76.97950166666666}, {"fusion_lat": 0.0, "name": "d125e834cd6fcea98b8855e81b55d927", "is_disabled": 0, "rental_uris": {"android": "https://dc.lft.to/lastmile_qr_scan", "ios": "https://dc.lft.to/lastmile_qr_scan"}, "fusion_lon": 0.0, "lat": 38.907947166666666, "bike_id": "d125e834cd6fcea98b8855e81b55d927", "type": "electric_scooter", "is_reserved": 0, "lon": -77.04355483333333}, {"fusion_lat": 0.0, "name": "ddf0d9a013c8192944969ef602582d6d", "is_disabled": 0, "rental_uris": {"android": "https://dc.lft.to/lastmile_qr_scan", "ios": "https://dc.lft.to/lastmile_qr_scan"}, "fusion_lon": 0.0, "lat": 38.957107666666666, "bike_id": "ddf0d9a013c8192944969ef602582d6d", "type": "electric_scooter", "is_reserved": 0, "lon": -77.02410416666666}, {"fusion_lat": 0.0, "name": "6b6cf9337ef6dcd2eb727e10695ad959", "is_disabled": 0, "rental_uris": {"android": "https://dc.lft.to/lastmile_qr_scan", "ios": "https://dc.lft.to/lastmile_qr_scan"}, "fusion_lon": 0.0, "lat": 38.938534, "bike_id": "6b6cf9337ef6dcd2eb727e10695ad959", "type": "electric_scooter", "is_reserved": 0, "lon": -77.033909}, {"fusion_lat": 0.0, "name": "0ebc45d756105b76b1be3685b4f6fb32", "is_disabled": 0, "rental_uris": {"android": "https://dc.lft.to/lastmile_qr_scan", "ios": "https://dc.lft.to/lastmile_qr_scan"}, "fusion_lon": 0.0, "lat": 38.91794733333333, "bike_id": "0ebc45d756105b76b1be3685b4f6fb32", "type": "electric_scooter", "is_reserved": 0, "lon": -77.0417325}, {"fusion_lat": 0.0, "name": "7079127d0212ac21eac34652de9b581a", "is_disabled": 0, "rental_uris": {"android": "https://dc.lft.to/lastmile_qr_scan", "ios": "https://dc.lft.to/lastmile_qr_scan"}, "fusion_lon": 0.0, "lat": 38.92859816666667, "bike_id": "7079127d0212ac21eac34652de9b581a", "type": "electric_scooter", "is_reserved": 0, "lon": -77.03529716666667}, {"fusion_lat": 0.0, "name": "59160de392479673f767484398fd01b2", "is_disabled": 0, "rental_uris": {"android": "https://dc.lft.to/lastmile_qr_scan", "ios": "https://dc.lft.to/lastmile_qr_scan"},