{"data": {"bikes": [{"rental_uris": {"ios": "https://dc.lft.to/lastmile_qr_scan", "android": "https://dc.lft.to/lastmile_qr_scan"}, "type": "electric_scooter", "name": "9f8cb727c1369b3255346934014c8783", "is_reserved": 0, "lon": -77.01330166666666, "is_disabled": 0, "fusion_lat": 0.0, "lat": 38.920294166666665, "bike_id": "9f8cb727c1369b3255346934014c8783", "fusion_lon": 0.0}, {"rental_uris": {"ios": "https://dc.lft.to/lastmile_qr_scan", "android": "https://dc.lft.to/lastmile_qr_scan"}, "type": "electric_scooter", "name": "a04c354f145688de7ba75c22b37c9db1", "is_reserved": 0, "lon": -77.04506033333334, "is_disabled": 0, "fusion_lat": 0.0, "lat": 38.89225783333333, "bike_id": "a04c354f145688de7ba75c22b37c9db1", "fusion_lon": 0.0}, {"rental_uris": {"ios": "https://dc.lft.to/lastmile_qr_scan", "android": "https://dc.lft.to/lastmile_qr_scan"}, "type": "electric_scooter", "name": "b9d67108595dc1d1b221ddca9e034afb", "is_reserved": 0, "lon": -77.015549, "is_disabled": 0, "fusion_lat": 0.0, "lat": 38.90267566666667, "bike_id": "b9d67108595dc1d1b221ddca9e034afb", "fusion_lon": 0.0}, {"rental_uris": {"ios": "https://dc.lft.to/lastmile_qr_scan", "android": "https://dc.lft.to/lastmile_qr_scan"}, "type": "electric_scooter", "name": "32380de92ac3d1894f732770293e4435", "is_reserved": 0, "lon": -76.99479016666666, "is_disabled": 0, "fusion_lat": 0.0, "lat": 38.86217, "bike_id": "32380de92ac3d1894f732770293e4435", "fusion_lon": 0.0}, {"rental_uris": {"ios": "https://dc.lft.to/lastmile_qr_scan", "android": "https://dc.lft.to/lastmile_qr_scan"}, "type": "electric_scooter", "name": "6ec3f3fa7d9147bd658db7ac3b6b23f6", "is_reserved": 0, "lon": -77.0435475, "is_disabled": 0, "fusion_lat": 0.0, "lat": 38.92166666666667, "bike_id": "6ec3f3fa7d9147bd658db7ac3b6b23f6", "fusion_lon": 0.0}, {"rental_uris": {"ios": "https://dc.lft.to/lastmile_qr_scan", "android": "https://dc.lft.to/lastmile_qr_scan"}, "type": "electric_scooter", "name": "6adf067ac349781cf1b3086ca937485c", "is_reserved": 0, "lon": -77.033383, "is_disabled": 0, "fusion_lat": 0.0, "lat": 38.914164, "bike_id": "6adf067ac349781cf1b3086ca937485c", "fusion_lon": 0.0}, {"rental_uris": {"ios": "https://dc.lft.to/lastmile_qr_scan", "android": "https://dc.lft.to/lastmile_qr_scan"}, "type": "electric_scooter", "name": "ee36583c48f328593b094a0afee7cf95", "is_reserved": 0, "lon": -77.022917, "is_disabled": 0, "fusion_lat": 0.0, "lat": 38.918343166666666, "bike_id": "ee36583c48f328593b094a0afee7cf95", "fusion_lon": 0.0}, {"rental_uris": {"ios": "https://dc.lft.to/lastmile_qr_scan", "android": "https://dc.lft.to/lastmile_qr_scan"}, "type": "electric_scooter", "name": "5aa22f6de43f301ae8a76e18ec1dab55", "is_reserved": 0, "lon": -77.04168816666666, "is_disabled": 0, "fusion_lat": 0.0, "lat": 38.901460166666666, "bike_id": "5aa22f6de43f301ae8a76e18ec1dab55", "fusion_lon": 0.0}, {"rental_uris": {"ios": "https://dc.lft.to/lastmile_qr_scan", "android": "https://dc.lft.to/lastmile_qr_scan"}, "type": "electric_scooter", "name": "a7c15a71f6bce5291d075925aa3bcaa4", "is_reserved": 0, "lon": -76.9889205, "is_disabled": 0, "fusion_lat": 0.0, "lat": 38.899554333333334, "bike_id": "a7c15a71f6bce5291d075925aa3bcaa4", "fusion_lon": 0.0}, {"rental_uris": {"ios": "https://dc.lft.to/lastmile_qr_scan", "android": "https://dc.lft.to/lastmile_qr_scan"}, "type": "electric_scooter", "name": "958fd4a25e74089cd22cb3dc5b159d9f", "is_reserved": 0, "lon": -77.04492916666666, "is_disabled": 0, "fusion_lat": 0.0, "lat": 38.8922765, "bike_id": "958fd4a25e74089cd22cb3dc5b159d9f", "fusion_lon": 0.0}, {"rental_uris": {"ios": "https://dc.lft.to/lastmile_qr_scan", "android": "https://dc.lft.to/lastmile_qr_scan"}, "type": "electric_scooter", "name": "3d64158e7b6e9a00527ada9fcfd4081c", "is_reserved": 0, "lon": -77.0711605, "is_disabled": 0, "fusion_lat": 0.0, "lat": 38.90585016666667, "bike_id": "3d64158e7b6e9a00527ada9fcfd4081c", "fusion_lon": 0.0}, {"rental_uris": {"ios": "https://dc.lft.to/lastmile_qr_scan", "android": "https://dc.lft.to/lastmile_qr_scan"}, "type": "electric_scooter", "name": "ca8f02f1b99c385c63a824b7098f1f8d", "is_reserved": 0, "lon": -76.991075, "is_disabled": 0, "fusion_lat": 0.0, "lat": 38.85725016666667, "bike_id": "ca8f02f1b99c385c63a824b7098f1f8d", "fusion_lon": 0.0}, {"rental_uris": {"ios": "https://dc.lft.to/lastmile_qr_scan", "android": "https://dc.lft.to/lastmile_qr_scan"}, "type": "electric_scooter", "name": "9531a053a83a2d8e1579296f4fabfe71", "is_reserved": 0, "lon": -77.01580166666666, "is_disabled": 0, "fusion_lat": 0.0, "lat": 38.87654633333333, "bike_id": "9531a053a83a2d8e1579296f4fabfe71", "fusion_lon": 0.0}, {"rental_uris": {"ios": "https://dc.lft.to/lastmile_qr_scan", "android": "https://dc.lft.to/lastmile_qr_scan"}, "type": "electric_scooter", "name": "952635db101aa68471b644e420a5097c", "is_reserved": 0, "lon": -77.04344183333333, "is_disabled": 0, "fusion_lat": 0.0, "lat": 38.913836, "bike_id": "952635db101aa68471b644e420a5097c", "fusion_lon": 0.0}, {"rental_uris": {"ios": "https://dc.lft.to/lastmile_qr_scan", "android": "https://dc.lft.to/lastmile_qr_scan"}, "type": "electric_scooter", "name": "927196e0e7e88ce7f67a0ca0543e9d12", "is_reserved": 0, "lon": -77.019086, "is_disabled": 0, "fusion_lat": 0.0, "lat": 38.9036935, "bike_id": "927196e0e7e88ce7f67a0ca0543e9d12", "fusion_lon": 0.0}, {"rental_uris": {"ios": "https://dc.lft.to/lastmile_qr_scan", "android": "https://dc.lft.to/lastmile_qr_scan"}, "type": "electric_scooter", "name": "6f5ba9611fec3e56104ee33d40ac392b", "is_reserved": 0, "lon": -77.0258145, "is_disabled": 0, "fusion_lat": 0.0, "lat": 38.88493666666667, "bike_id": "6f5ba9611fec3e56104ee33d40ac392b", "fusion_lon": 0.0}, {"rental_uris": {"ios": "https://dc.lft.to/lastmile_qr_scan", "android": "https://dc.lft.to/lastmile_qr_scan"}, "type": "electric_scooter", "name": "5e126cd8188aa9d73e0f82d8bc0756fd", "is_reserved": 0, "lon": -77.04007516666667, "is_disabled": 0, "fusion_lat": 0.0, "lat": 38.888675166666665, "bike_id": "5e126cd8188aa9d73e0f82d8bc0756fd", "fusion_lon": 0.0}, {"rental_uris": {"ios": "https://dc.lft.to/lastmile_qr_scan", "android": "https://dc.lft.to/lastmile_qr_scan"}, "type": "electric_scooter", "name": "fc49caaf679ef6161c6fd757a801b751", "is_reserved": 0, "lon": -77.08340616666666, "is_disabled": 0, "fusion_lat": 0.0, "lat": 38.89421633333333, "bike_id": "fc49caaf679ef6161c6fd757a801b751", "fusion_lon": 0.0}, {"rental_uris": {"ios": "https://dc.lft.to/lastmile_qr_scan", "android": "https://dc.lft.to/lastmile_qr_scan"}, "type": "electric_scooter", "name": "8adac827cdb3cb0fcdbe9c95e3ae6661", "is_reserved": 0, "lon": -77.04527483333334, "is_disabled": 0, "fusion_lat": 0.0, "lat": 38.91108466666667, "bike_id": "8adac827cdb3cb0fcdbe9c95e3ae6661", "fusion_lon": 0.0}, {"rental_uris": {"ios": "https://dc.lft.to/lastmile_qr_scan", "android": "https://dc.lft.to/lastmile_qr_scan"}, "type": "electric_scooter", "name": "6608e719c9e8bb38708d84a42fb4195d", "is_reserved": 0, "lon": -77.03337966666666, "is_disabled": 0, "fusion_lat": 0.0, "lat": 38.90242816666667, "bike_id": "6608e719c9e8bb38708d84a42fb4195d", "fusion_lon": 0.0}, {"rental_uris": {"ios": "https://dc.lft.to/lastmile_qr_scan", "android": "https://dc.lft.to/lastmile_qr_scan"}, "type": "electric_scooter", "name": "437fffa98bba39b1f7933f3852a9a286", "is_reserved": 0, "lon": -77.01832666666667, "is_disabled": 0, "fusion_lat": 0.0, "lat": 38.9222095, "bike_id": "437fffa98bba39b1f7933f3852a9a286", "fusion_lon": 0.0}, {"rental_uris": {"ios": "https://dc.lft.to/lastmile_qr_scan", "android": "https://dc.lft.to/lastmile_qr_scan"}, "type": "electric_scooter", "name": "dd35aec2c3effd4081885c5d238704ac", "is_reserved": 0, "lon": -76.99768233333333, "is_disabled": 0, "fusion_lat": 0.0, "lat": 38.92273183333333, "bike_id": "dd35aec2c3effd4081885c5d238704ac", "fusion_lon": 0.0}, {"rental_uris": {"ios": "https://dc.lft.to/lastmile_qr_scan", "android": "https://dc.lft.to/lastmile_qr_scan"}, "type": "electric_scooter", "name": "05a01f510f43c11a5f141ca670284fc8", "is_reserved": 0, "lon": -77.01363866666667, "is_disabled": 0, "fusion_lat": 0.0, "lat": 38.919254333333335, "bike_id": "05a01f510f43c11a5f141ca670284fc8", "fusion_lon": 0.0}, {"rental_uris": {"ios": "https://dc.lft.to/lastmile_qr_scan", "android": "https://dc.lft.to/lastmile_qr_scan"}, "type": "electric_scooter", "name": "6972308ce5fd702ae00e914c84e71acc", "is_reserved": 0, "lon": -77.01962166666667, "is_disabled": 0, "fusion_lat": 0.0, "lat": 38.92325366666667, "bike_id": "6972308ce5fd702ae00e914c84e71acc", "fusion_lon": 0.0}, {"rental_uris": {"ios": "https://dc.lft.to/lastmile_qr_scan", "android": "https://dc.lft.to/lastmile_qr_scan"}, "type": "electric_scooter", "name": "0b00ce136956175e446e03882b56b059", "is_reserved": 0, "lon": -76.9815625, "is_disabled": 0, "fusion_lat": 0.0, "lat": 38.89939583333334, "bike_id": "0b00ce136956175e446e03882b56b059", "fusion_lon": 0.0}, {"rental_uris": {"ios": "https://dc.lft.to/lastmile_qr_scan", "android": "https://dc.lft.to/lastmile_qr_scan"}, "type": "electric_scooter", "name": "8523f148a3e397a67ebfec8b25feb574", "is_reserved": 0, "lon": -77.032101, "is_disabled": 0, "fusion_lat": 0.0, "lat": 38.921875166666666, "bike_id": "8523f148a3e397a67ebfec8b25feb574", "fusion_lon": 0.0}, {"rental_uris": {"ios": "https://dc.lft.to/lastmile_qr_scan", "android": "https://dc.lft.to/lastmile_qr_scan"}, "type": "electric_scooter", "name": "5c869e55083f9255f8454528e4de91ab", "is_reserved": 0, "lon": -77.00627, "is_disabled": 0, "fusion_lat": 0.0, "lat": 38.87176683333333, "bike_id": "5c869e55083f9255f8454528e4de91ab", "fusion_lon": 0.0}, {"rental_uris": {"ios": "https://dc.lft.to/lastmile_qr_scan", "android": "https://dc.lft.to/lastmile_qr_scan"}, "type": "electric_scooter", "name": "0afd72d106d792aafeaea26658d56265", "is_reserved": 0, "lon": -77.0366395, "is_disabled": 0, "fusion_lat": 0.0, "lat": 38.92117783333333, "bike_id": "0afd72d106d792aafeaea26658d56265", "fusion_lon": 0.0}, {"rental_uris": {"ios": "https://dc.lft.to/lastmile_qr_scan", "android": "https://dc.lft.to/lastmile_qr_scan"}, "type": "electric_bike", "name": "3cd3fbd62b793dfd09e13123a6ddd1d6", "is_reserved": 0, "lon": -76.98017783333333, "is_disabled": 0, "fusion_lat": 0.0, "lat": 38.8531855, "bike_id": "3cd3fbd62b793dfd09e13123a6ddd1d6", "fusion_lon": 0.0}, {"rental_uris": {"ios": "https://dc.lft.to/lastmile_qr_scan", "android": "https://dc.lft.to/lastmile_qr_scan"}, "type": "electric_scooter", "name": "49b9a9a1073e01dd491b5decf12eeb49", "is_reserved": 0, "lon": -77.00567283333334, "is_disabled": 0, "fusion_lat": 0.0, "lat": 38.878544166666664, "bike_id": "49b9a9a1073e01dd491b5decf12eeb49", "fusion_lon": 0.0}, {"rental_uris": {"ios": "https://dc.lft.to/lastmile_qr_scan", "android": "https://dc.lft.to/lastmile_qr_scan"}, "type": "electric_scooter", "name": "2551ef63e4d3fa642b2563a51a73a359", "is_reserved": 0, "lon": -77.04176833333334, "is_disabled": 0, "fusion_lat": 0.0, "lat": 38.91605283333333, "bike_id": "2551ef63e4d3fa642b2563a51a73a359", "fusion_lon": 0.0}, {"rental_uris": {"ios": "https://dc.lft.to/lastmile_qr_scan", "android": "https://dc.lft.to/lastmile_qr_scan"}, "type": "electric_scooter", "name": "b479d5ab42f4d96ed1bb873fe1c8f4b9", "is_reserved": 0, "lon": -77.00743883333334, "is_disabled": 0, "fusion_lat": 0.0, "lat": 38.9161475, "bike_id": "b479d5ab42f4d96ed1bb873fe1c8f4b9", "fusion_lon": 0.0}, {"rental_uris": {"ios": "https://dc.lft.to/lastmile_qr_scan", "android": "https://dc.lft.to/lastmile_qr_scan"}, "type": "electric_scooter", "name": "6bde74e91f4b1efb868866ae9042f1ef", "is_reserved": 0, "lon": -77.045689, "is_disabled": 0, "fusion_lat": 0.0, "lat": 38.9206765, "bike_id": "6bde74e91f4b1efb868866ae9042f1ef", "fusion_lon": 0.0}, {"rental_uris": {"ios": "https://dc.lft.to/lastmile_qr_scan", "android": "https://dc.lft.to/lastmile_qr_scan"}, "type": "electric_scooter", "name": "981a16906b1820cc960817ecae596d12", "is_reserved": 0, "lon": -77.02434866666667, "is_disabled": 0, "fusion_lat": 0.0, "lat": 38.9214405, "bike_id": "981a16906b1820cc960817ecae596d12", "fusion_lon": 0.0}, {"rental_uris": {"ios": "https://dc.lft.to/lastmile_qr_scan", "android": "https://dc.lft.to/lastmile_qr_scan"}, "type": "electric_scooter", "name": "e4420f281b3b8c35bc8974b582994c55", "is_reserved": 0, "lon": -77.03819416666667, "is_disabled": 0, "fusion_lat": 0.0, "lat": 38.914102166666666, "bike_id": "e4420f281b3b8c35bc8974b582994c55", "fusion_lon": 0.0}, {"rental_uris": {"ios": "https://dc.lft.to/lastmile_qr_scan", "android": "https://dc.lft.to/lastmile_qr_scan"}, "type": "electric_bike", "name": "ce63f3acc800b794851d3f43868b2336", "is_reserved": 0, "lon": -76.98247033333334, "is_disabled": 0, "fusion_lat": 0.0, "lat": 38.952433666666664, "bike_id": "ce63f3acc800b794851d3f43868b2336", "fusion_lon": 0.0}, {"rental_uris": {"ios": "https://dc.lft.to/lastmile_qr_scan", "android": "https://dc.lft.to/lastmile_qr_scan"}, "type": "electric_scooter", "name": "52d6c534da06fffd7b2e124a1db200b7", "is_reserved": 0, "lon": -77.04083183333333, "is_disabled": 0, "fusion_lat": 0.0, "lat": 38.947899666666665, "bike_id": "52d6c534da06fffd7b2e124a1db200b7", "fusion_lon": 0.0}, {"rental_uris": {"ios": "https://dc.lft.to/lastmile_qr_scan", "android": "https://dc.lft.to/lastmile_qr_scan"}, "type": "electric_scooter", "name": "d8fc685d6281808a8697aaef089d86a1", "is_reserved": 0, "lon": -77.0188965, "is_disabled": 0, "fusion_lat": 0.0, "lat": 38.89747416666667, "bike_id": "d8fc685d6281808a8697aaef089d86a1", "fusion_lon": 0.0}, {"rental_uris": {"ios": "https://dc.lft.to/lastmile_qr_scan", "android": "https://dc.lft.to/lastmile_qr_scan"}, "type": "electric_bike", "name": "b0240d65661632cc5237dfe3429e9aeb", "is_reserved": 0, "lon": -76.94977566666667, "is_disabled": 0, "fusion_lat": 0.0, "lat": 38.883013, "bike_id": "b0240d65661632cc5237dfe3429e9aeb", "fusion_lon": 0.0}, {"rental_uris": {"ios": "https://dc.lft.to/lastmile_qr_scan", "android": "https://dc.lft.to/lastmile_qr_scan"}, "type": "electric_scooter", "name": "68032b76f4441b8c721a11b9bf880dbf", "is_reserved": 0, "lon": -77.02907533333334, "is_disabled": 0, "fusion_lat": 0.0, "lat": 38.9404125, "bike_id": "68032b76f4441b8c721a11b9bf880dbf", "fusion_lon": 0.0}, {"rental_uris": {"ios": "https://dc.lft.to/lastmile_qr_scan", "android": "https://dc.lft.to/lastmile_qr_scan"}, "type": "electric_scooter", "name": "d710f2736e0ba1f94d56fe132384ea81", "is_reserved": 0, "lon": -77.04381383333333, "is_disabled": 0, "fusion_lat": 0.0, "lat": 38.916573, "bike_id": "d710f2736e0ba1f94d56fe132384ea81", "fusion_lon": 0.0}, {"rental_uris": {"ios": "https://dc.lft.to/lastmile_qr_scan", "android": "https://dc.lft.to/lastmile_qr_scan"}, "type": "electric_scooter", "name": "2026cbcb5dd672064f941ea7819204a0", "is_reserved": 0, "lon": -77.09357383333334, "is_disabled": 0, "fusion_lat": 0.0, "lat": 38.8839825, "bike_id": "2026cbcb5dd672064f941ea7819204a0", "fusion_lon": 0.0}, {"rental_uris": {"ios": "https://dc.lft.to/lastmile_qr_scan", "android": "https://dc.lft.to/lastmile_qr_scan"}, "type": "electric_scooter", "name": "64fa2a4c0d7a59a28cb2ab89d8fbd0a6", "is_reserved": 0, "lon": -77.034667, "is_disabled": 0, "fusion_lat": 0.0, "lat": 38.90801866666666, "bike_id": "64fa2a4c0d7a59a28cb2ab89d8fbd0a6", "fusion_lon": 0.0}, {"rental_uris": {"ios": "https://dc.lft.to/lastmile_qr_scan", "android": "https://dc.lft.to/lastmile_qr_scan"}, "type": "electric_scooter", "name": "13b29c53338d694e881dab7338e17834", "is_reserved": 0, "lon": -77.02894083333334, "is_disabled": 0, "fusion_lat": 0.0, "lat": 38.907179666666664, "bike_id": "13b29c53338d694e881dab7338e17834", "fusion_lon": 0.0}, {"rental_uris": {"ios": "https://dc.lft.to/lastmile_qr_scan", "android": "https://dc.lft.to/lastmile_qr_scan"}, "type": "electric_scooter", "name": "d03e85e93c485c2100808db55a056446", "is_reserved": 0, "lon": -77.05988516666666, "is_disabled": 0, "fusion_lat": 0.0, "lat": 38.9023815, "bike_id": "d03e85e93c485c2100808db55a056446", "fusion_lon": 0.0}, {"rental_uris": {"ios": "https://dc.lft.to/lastmile_qr_scan", "android": "https://dc.lft.to/lastmile_qr_scan"}, "type": "electric_scooter", "name": "8423e81555d8c5a8fd1bfbea283e59e4", "is_reserved": 0, "lon": -77.04473883333333, "is_disabled": 0, "fusion_lat": 0.0, "lat": 38.9153845, "bike_id": "8423e81555d8c5a8fd1bfbea283e59e4", "fusion_lon": 0.0}, {"rental_uris": {"ios": "https://dc.lft.to/lastmile_qr_scan", "android": "https://dc.lft.to/lastmile_qr_scan"}, "type": "electric_scooter", "name": "4276aa70bc88549c81bcf814c6897c8f", "is_reserved": 0, "lon": -77.01703716666667, "is_disabled": 0, "fusion_lat": 0.0, "lat": 38.90469816666667, "bike_id": "4276aa70bc88549c81bcf814c6897c8f", "fusion_lon": 0.0}, {"rental_uris": {"ios": "https://dc.lft.to/lastmile_qr_scan", "android": "https://dc.lft.to/lastmile_qr_scan"}, "type": "electric_scooter", "name": "362b59671e2d91d52763d8320160a559", "is_reserved": 0, "lon": -77.0242655, "is_disabled": 0, "fusion_lat": 0.0, "lat": 38.920532333333334, "bike_id": "362b59671e2d91d52763d8320160a559", "fusion_lon": 0.0}, {"rental_uris": {"ios": "https://dc.lft.to/lastmile_qr_scan", "android": "https://dc.lft.to/lastmile_qr_scan"}, "type": "electric_scooter", "name": "9be52783bcea75aa335399139bc82665", "is_reserved": 0, "lon": -77.03521383333333, "is_disabled": 0, "fusion_lat": 0.0, "lat": 38.93401983333333, "bike_id": "9be52783bcea75aa335399139bc82665", "fusion_lon": 0.0}, {"rental_uris": {"ios": "https://dc.lft.to/lastmile_qr_scan", "android": "https://dc.lft.to/lastmile_qr_scan"}, "type": "electric_bike", "name": "9b0dc3ff6a8a105e44b9ef1c2fea31cf", "is_reserved": 0, "lon": -76.97322616666666, "is_disabled": 0, "fusion_lat": 0.0, "lat": 38.85784566666667, "bike_id": "9b0dc3ff6a8a105e44b9ef1c2fea31cf", "fusion_lon": 0.0}, {"rental_uris": {"ios": "https://dc.lft.to/lastmile_qr_scan", "android": "https://dc.lft.to/lastmile_qr_scan"}, "type": "electric_scooter", "name": "a19529fc0e9060e51ba1663c7a9a5ab6", "is_reserved": 0, "lon": -77.053292, "is_disabled": 0, "fusion_lat": 0.0, "lat": 38.92357, "bike_id": "a19529fc0e9060e51ba1663c7a9a5ab6", "fusion_lon": 0.0}, {"rental_uris": {"ios": "https://dc.lft.to/lastmile_qr_scan", "android": "https://dc.lft.to/lastmile_qr_scan"}, "type": "electric_scooter", "name": "7b7f9bd8d22de927da6bd263d0af0a4a", "is_reserved": 0, "lon": -77.0244805, "is_disabled": 0, "fusion_lat": 0.0, "lat": 38.9497805, "bike_id": "7b7f9bd8d22de927da6bd263d0af0a4a", "fusion_lon": 0.0}, {"rental_uris": {"ios": "https://dc.lft.to/lastmile_qr_scan", "android": "https://dc.lft.to/lastmile_qr_scan"}, "type": "electric_scooter", "name": "f13df04d35a1e8152f30f212a03dbce2", "is_reserved": 0, "lon": -77.02546883333333, "is_disabled": 0, "fusion_lat": 0.0, "lat": 38.9072515, "bike_id": "f13df04d35a1e8152f30f212a03dbce2", "fusion_lon": 0.0}, {"rental_uris": {"ios": "https://dc.lft.to/lastmile_qr_scan", "android": "https://dc.lft.to/lastmile_qr_scan"}, "type": "electric_scooter", "name": "1966c1a80630220d18a2a4cee48e2166", "is_reserved": 0, "lon": -77.010917, "is_disabled": 0, "fusion_lat": 0.0, "lat": 38.90676916666666, "bike_id": "1966c1a80630220d18a2a4cee48e2166", "fusion_lon": 0.0}, {"rental_uris": {"ios": "https://dc.lft.to/lastmile_qr_scan", "android": "https://dc.lft.to/lastmile_qr_scan"}, "type": "electric_scooter", "name": "e4a9bc08f6c1d28e8babbc6ebe766202", "is_reserved": 0, "lon": -77.02716966666667, "is_disabled": 0, "fusion_lat": 0.0, "lat": 38.91016616666667, "bike_id": "e4a9bc08f6c1d28e8babbc6ebe766202", "fusion_lon": 0.0}, {"rental_uris": {"ios": "https://dc.lft.to/lastmile_qr_scan", "android": "https://dc.lft.to/lastmile_qr_scan"}, "type": "electric_scooter", "name": "63558051e7db39e44a359f835ecb352a", "is_reserved": 0, "lon": -77.0446965, "is_disabled": 0, "fusion_lat": 0.0, "lat": 38.903533833333334, "bike_id": "63558051e7db39e44a359f835ecb352a", "fusion_lon": 0.0}, {"rental_uris": {"ios": "https://dc.lft.to/lastmile_qr_scan", "android": "https://dc.lft.to/lastmile_qr_scan"}, "type": "electric_scooter", "name": "ae5ea36febe8e244e584d183b0b431c1", "is_reserved": 0, "lon": -77.04346416666667, "is_disabled": 0, "fusion_lat": 0.0, "lat": 38.90823616666667, "bike_id": "ae5ea36febe8e244e584d183b0b431c1", "fusion_lon": 0.0}, {"rental_uris": {"ios": "https://dc.lft.to/lastmile_qr_scan", "android": "https://dc.lft.to/lastmile_qr_scan"}, "type": "electric_scooter", "name": "9ca5f817d71a3a304f0b22092ac91258", "is_reserved": 0, "lon": -76.98540333333334, "is_disabled": 0, "fusion_lat": 0.0, "lat": 38.88008166666667, "bike_id": "9ca5f817d71a3a304f0b22092ac91258", "fusion_lon": 0.0}, {"rental_uris": {"ios": "https://dc.lft.to/lastmile_qr_scan", "android": "https://dc.lft.to/lastmile_qr_scan"}, "type": "electric_scooter", "name": "66fb41fdcdeaebddbb75c17ec15ce632", "is_reserved": 0, "lon": -76.987063, "is_disabled": 0, "fusion_lat": 0.0, "lat": 38.8596455, "bike_id": "66fb41fdcdeaebddbb75c17ec15ce632", "fusion_lon": 0.0}, {"rental_uris": {"ios": "https://dc.lft.to/lastmile_qr_scan", "android": "https://dc.lft.to/lastmile_qr_scan"}, "type": "electric_scooter", "name": "f2d0b9f3fcf652b507e86314f35fff66", "is_reserved": 0, "lon": -77.00124833333334, "is_disabled": 0, "fusion_lat": 0.0, "lat": 38.877925833333336, "bike_id": "f2d0b9f3fcf652b507e86314f35fff66", "fusion_lon": 0.0}, {"rental_uris": {"ios": "https://dc.lft.to/lastmile_qr_scan", "android": "https://dc.lft.to/lastmile_qr_scan"}, "type": "electric_scooter", "name": "b639b2850d8aee8f081a52cf2e9e99b9", "is_reserved": 0, "lon": -77.08205066666666, "is_disabled": 0, "fusion_lat": 0.0, "lat": 38.933265666666664, "bike_id": "b639b2850d8aee8f081a52cf2e9e99b9", "fusion_lon": 0.0}, {"rental_uris": {"ios": "https://dc.lft.to/lastmile_qr_scan", "android": "https://dc.lft.to/lastmile_qr_scan"}, "type": "electric_scooter", "name": "f4cf1eca98025e8f9c67e2de763933c6", "is_reserved": 0, "lon": -76.99517333333333, "is_disabled": 0, "fusion_lat": 0.0, "lat": 38.889916666666664, "bike_id": "f4cf1eca98025e8f9c67e2de763933c6", "fusion_lon": 0.0}, {"rental_uris": {"ios": "https://dc.lft.to/lastmile_qr_scan", "android": "https://dc.lft.to/lastmile_qr_scan"}, "type": "electric_scooter", "name": "93a0fed010603a0f0fa65173f7c41171", "is_reserved": 0, "lon": -77.014287, "is_disabled": 0, "fusion_lat": 0.0, "lat": 38.92027066666667, "bike_id": "93a0fed010603a0f0fa65173f7c41171", "fusion_lon": 0.0}, {"rental_uris": {"ios": "https://dc.lft.to/lastmile_qr_scan", "android": "https://dc.lft.to/lastmile_qr_scan"}, "type": "electric_scooter", "name": "c2de8334f0058950a65550f2f69ebbdb", "is_reserved": 0, "lon": -77.031877, "is_disabled": 0, "fusion_lat": 0.0, "lat": 38.919317166666666, "bike_id": "c2de8334f0058950a65550f2f69ebbdb", "fusion_lon": 0.0}, {"rental_uris": {"ios": "https://dc.lft.to/lastmile_qr_scan", "android": "https://dc.lft.to/lastmile_qr_scan"}, "type": "electric_scooter", "name": "ac512e3b79a6675d5d5df2201400ca9b", "is_reserved": 0, "lon": -77.012199, "is_disabled": 0, "fusion_lat": 0.0, "lat": 38.901704333333335, "bike_id": "ac512e3b79a6675d5d5df2201400ca9b", "fusion_lon": 0.0}, {"rental_uris": {"ios": "https://dc.lft.to/lastmile_qr_scan", "android": "https://dc.lft.to/lastmile_qr_scan"}, "type": "electric_scooter", "name": "26edc860e92934bcbb77a213722eb72e", "is_reserved": 0, "lon": -77.03786133333334, "is_disabled": 0, "fusion_lat": 0.0, "lat": 38.923274166666666, "bike_id": "26edc860e92934bcbb77a213722eb72e", "fusion_lon": 0.0}, {"rental_uris": {"ios": "https://dc.lft.to/lastmile_qr_scan", "android": "https://dc.lft.to/lastmile_qr_scan"}, "type": "electric_scooter", "name": "6eb45f68a9c443d8559ecc35805a5859", "is_reserved": 0, "lon": -77.01345283333333, "is_disabled": 0, "fusion_lat": 0.0, "lat": 38.9191555, "bike_id": "6eb45f68a9c443d8559ecc35805a5859", "fusion_lon": 0.0}, {"rental_uris": {"ios": "https://dc.lft.to/lastmile_qr_scan", "android": "https://dc.lft.to/lastmile_qr_scan"}, "type": "electric_scooter", "name": "d797dd3effd2776e260a2aa87f71df6d", "is_reserved": 0, "lon": -77.02229666666666, "is_disabled": 0, "fusion_lat": 0.0, "lat": 38.89195466666666, "bike_id": "d797dd3effd2776e260a2aa87f71df6d", "fusion_lon": 0.0}, {"rental_uris": {"ios": "https://dc.lft.to/lastmile_qr_scan", "android": "https://dc.lft.to/lastmile_qr_scan"}, "type": "electric_scooter", "name": "2867503a74c23694238f52d7fc08f4a8", "is_reserved": 0, "lon": -77.019502, "is_disabled": 0, "fusion_lat": 0.0, "lat": 38.95047233333333, "bike_id": "2867503a74c23694238f52d7fc08f4a8", "fusion_lon": 0.0}, {"rental_uris": {"ios": "https://dc.lft.to/lastmile_qr_scan", "android": "https://dc.lft.to/lastmile_qr_scan"}, "type": "electric_scooter", "name": "7f77c76298c59d18280b33a874b0a18c", "is_reserved": 0, "lon": -77.023883, "is_disabled": 0, "fusion_lat": 0.0, "lat": 38.9097515, "bike_id": "7f77c76298c59d18280b33a874b0a18c", "fusion_lon": 0.0}, {"rental_uris": {"ios": "https://dc.lft.to/lastmile_qr_scan", "android": "https://dc.lft.to/lastmile_qr_scan"}, "type": "electric_scooter", "name": "83b79501af1def56dc879fb7239cddd5", "is_reserved": 0, "lon": -77.04699866666667, "is_disabled": 0, "fusion_lat": 0.0, "lat": 38.92063016666667, "bike_id": "83b79501af1def56dc879fb7239cddd5", "fusion_lon": 0.0}, {"rental_uris": {"ios": "https://dc.lft.to/lastmile_qr_scan", "android": "https://dc.lft.to/lastmile_qr_scan"}, "type": "electric_scooter", "name": "4741572e454de8223a5243d81b6e217e", "is_reserved": 0, "lon": -77.01186266666667, "is_disabled": 0, "fusion_lat": 0.0, "lat": 38.951564, "bike_id": "4741572e454de8223a5243d81b6e217e", "fusion_lon": 0.0}, {"rental_uris": {"ios": "https://dc.lft.to/lastmile_qr_scan", "android": "https://dc.lft.to/lastmile_qr_scan"}, "type": "electric_scooter", "name": "1b08e64fd8987c4c55199fcf9ebc298c", "is_reserved": 0, "lon": -77.0204175, "is_disabled": 0, "fusion_lat": 0.0, "lat": 38.89415833333334, "bike_id": "1b08e64fd8987c4c55199fcf9ebc298c", "fusion_lon": 0.0}, {"rental_uris": {"ios": "https://dc.lft.to/lastmile_qr_scan", "android": "https://dc.lft.to/lastmile_qr_scan"}, "type": "electric_scooter", "name": "fd60bfada1e7c206a200bf9ac48908f6", "is_reserved": 0, "lon": -77.03458166666667, "is_disabled": 0, "fusion_lat": 0.0, "lat": 38.905633, "bike_id": "fd60bfada1e7c206a200bf9ac48908f6", "fusion_lon": 0.0}, {"rental_uris": {"ios": "https://dc.lft.to/lastmile_qr_scan", "android": "https://dc.lft.to/lastmile_qr_scan"}, "type": "electric_bike", "name": "cb4b84a2b2d5b641dce725f75ad8d55b", "is_reserved": 0, "lon": -76.97546166666666, "is_disabled": 0, "fusion_lat": 0.0, "lat": 38.9043085, "bike_id": "cb4b84a2b2d5b641dce725f75ad8d55b", "fusion_lon": 0.0}, {"rental_uris": {"ios": "https://dc.lft.to/lastmile_qr_scan", "android": "https://dc.lft.to/lastmile_qr_scan"}, "type": "electric_scooter", "name": "b7a9a5c1f44673ea3f51b79bf889c5f3", "is_reserved": 0, "lon": -77.03272383333334, "is_disabled": 0, "fusion_lat": 0.0, "lat": 38.932488, "bike_id": "b7a9a5c1f44673ea3f51b79bf889c5f3", "fusion_lon": 0.0}, {"rental_uris": {"ios": "https://dc.lft.to/lastmile_qr_scan", "android": "https://dc.lft.to/lastmile_qr_scan"}, "type": "electric_bike", "name": "2965fc2a90da55fc5168faf0ca9702a0", "is_reserved": 0, "lon": -77.01855416666666, "is_disabled": 0, "fusion_lat": 0.0, "lat": 38.931102333333335, "bike_id": "2965fc2a90da55fc5168faf0ca9702a0", "fusion_lon": 0.0}, {"rental_uris": {"ios": "https://dc.lft.to/lastmile_qr_scan", "android": "https://dc.lft.to/lastmile_qr_scan"}, "type": "electric_scooter", "name": "8ae628a1bd1d8b06ea0c2eda3174965c", "is_reserved": 0, "lon": -77.001559, "is_disabled": 0, "fusion_lat": 0.0, "lat": 38.821335166666664, "bike_id": "8ae628a1bd1d8b06ea0c2eda3174965c", "fusion_lon": 0.0}, {"rental_uris": {"ios": "https://dc.lft.to/lastmile_qr_scan", "android": "https://dc.lft.to/lastmile_qr_scan"}, "type": "electric_scooter", "name": "793019c6671219f6c318fbb6cbbe1640", "is_reserved": 0, "lon": -77.03270633333334, "is_disabled": 0, "fusion_lat": 0.0, "lat": 38.92899766666667, "bike_id": "793019c6671219f6c318fbb6cbbe1640", "fusion_lon": 0.0}, {"rental_uris": {"ios": "https://dc.lft.to/lastmile_qr_scan", "android": "https://dc.lft.to/lastmile_qr_scan"}, "type": "electric_scooter", "name": "ac188f947db83339e73151dac6e98dc5", "is_reserved": 0, "lon": -77.075747, "is_disabled": 0, "fusion_lat": 0.0, "lat": 38.90628016666667, "bike_id": "ac188f947db83339e73151dac6e98dc5", "fusion_lon": 0.0}, {"rental_uris": {"ios": "https://dc.lft.to/lastmile_qr_scan", "android": "https://dc.lft.to/lastmile_qr_scan"}, "type": "electric_scooter", "name": "8573d8a4e6f7f8d96ccea52abbc9e3ce", "is_reserved": 0, "lon": -77.0722795, "is_disabled": 0, "fusion_lat": 0.0, "lat": 38.934392833333334, "bike_id": "8573d8a4e6f7f8d96ccea52abbc9e3ce", "fusion_lon": 0.0}, {"rental_uris": {"ios": "https://dc.lft.to/lastmile_qr_scan", "android": "https://dc.lft.to/lastmile_qr_scan"}, "type": "electric_bike", "name": "f560f5800ef77a0bec54dff54e87cdb1", "is_reserved": 0, "lon": -76.95158616666667, "is_disabled": 0, "fusion_lat": 0.0, "lat": 39.084391, "bike_id": "f560f5800ef77a0bec54dff54e87cdb1", "fusion_lon": 0.0}, {"rental_uris": {"ios": "https://dc.lft.to/lastmile_qr_scan", "android": "https://dc.lft.to/lastmile_qr_scan"}, "type": "electric_scooter", "name": "1a9445832d136c2e29b16be89f61d9cc", "is_reserved": 0, "lon": -77.0263845, "is_disabled": 0, "fusion_lat": 0.0, "lat": 38.89583416666667, "bike_id": "1a9445832d136c2e29b16be89f61d9cc", "fusion_lon": 0.0}, {"rental_uris": {"ios": "https://dc.lft.to/lastmile_qr_scan", "android": "https://dc.lft.to/lastmile_qr_scan"}, "type": "electric_scooter", "name": "7f1cf899c21c9c45b5d17705b6ba3604", "is_reserved": 0, "lon": -76.98734516666667, "is_disabled": 0, "fusion_lat": 0.0, "lat": 38.84224916666667, "bike_id": "7f1cf899c21c9c45b5d17705b6ba3604", "fusion_lon": 0.0}, {"rental_uris": {"ios": "https://dc.lft.to/lastmile_qr_scan", "android": "https://dc.lft.to/lastmile_qr_scan"}, "type": "electric_scooter", "name": "5d3758b738adf82203a744a647006a58", "is_reserved": 0, "lon": -77.0552165, "is_disabled": 0, "fusion_lat": 0.0, "lat": 38.907723833333336, "bike_id": "5d3758b738adf82203a744a647006a58", "fusion_lon": 0.0}, {"rental_uris": {"ios": "https://dc.lft.to/lastmile_qr_scan", "android": "https://dc.lft.to/lastmile_qr_scan"}, "type": "electric_scooter", "name": "1ba98e56287d46569861d69e74621987", "is_reserved": 0, "lon": -76.92922733333333, "is_disabled": 0, "fusion_lat": 0.0, "lat": 38.8865685, "bike_id": "1ba98e56287d46569861d69e74621987", "fusion_lon": 0.0}, {"rental_uris": {"ios": "https://dc.lft.to/lastmile_qr_scan", "android": "https://dc.lft.to/lastmile_qr_scan"}, "type": "electric_scooter", "name": "e6a8c10ece153249110f89e5e4fd66c3", "is_reserved": 0, "lon": -76.97133883333333, "is_disabled": 0, "fusion_lat": 0.0, "lat": 38.87867516666667, "bike_id": "e6a8c10ece153249110f89e5e4fd66c3", "fusion_lon": 0.0}, {"rental_uris": {"ios": "https://dc.lft.to/lastmile_qr_scan", "android": "https://dc.lft.to/lastmile_qr_scan"}, "type": "electric_scooter", "name": "83386dd0a119d8edf094184747f4ed51", "is_reserved": 0, "lon": -77.01995133333334, "is_disabled": 0, "fusion_lat": 0.0, "lat": 38.93074716666667, "bike_id": "83386dd0a119d8edf094184747f4ed51", "fusion_lon": 0.0}, {"rental_uris": {"ios": "https://dc.lft.to/lastmile_qr_scan", "android": "https://dc.lft.to/lastmile_qr_scan"}, "type": "electric_scooter", "name": "e3b193dd4d316160749ca4ba730f1ee9", "is_reserved": 0, "lon": -77.04339366666666, "is_disabled": 0, "fusion_lat": 0.0, "lat": 38.92241333333333, "bike_id": "e3b193dd4d316160749ca4ba730f1ee9", "fusion_lon": 0.0}, {"rental_uris": {"ios": "https://dc.lft.to/lastmile_qr_scan", "android": "https://dc.lft.to/lastmile_qr_scan"}, "type": "electric_scooter", "name": "28392351ddc5f31f0753a29634c6f0c0", "is_reserved": 0, "lon": -77.02441216666666, "is_disabled": 0, "fusion_lat": 0.0, "lat": 38.9563815, "bike_id": "28392351ddc5f31f0753a29634c6f0c0", "fusion_lon": 0.0}, {"rental_uris": {"ios": "https://dc.lft.to/lastmile_qr_scan", "android": "https://dc.lft.to/lastmile_qr_scan"}, "type": "electric_scooter", "name": "c715a874e721370ecec9fcb52a347549", "is_reserved": 0, "lon": -77.07094983333333, "is_disabled": 0, "fusion_lat": 0.0, "lat": 38.953209, "bike_id": "c715a874e721370ecec9fcb52a347549", "fusion_lon": 0.0}, {"rental_uris": {"ios": "https://dc.lft.to/lastmile_qr_scan", "android": "https://dc.lft.to/lastmile_qr_scan"}, "type": "electric_scooter", "name": "be2afc4c8cd4b0f9922763ed510928c5", "is_reserved": 0, "lon": -77.04678066666666, "is_disabled": 0, "fusion_lat": 0.0, "lat": 38.8922635, "bike_id": "be2afc4c8cd4b0f9922763ed510928c5", "fusion_lon": 0.0}, {"rental_uris": {"ios": "https://dc.lft.to/lastmile_qr_scan", "android": "https://dc.lft.to/lastmile_qr_scan"}, "type": "electric_scooter", "name": "59a473621b81688e5e81498b60ed8320", "is_reserved": 0, "lon": -77.03654583333334, "is_disabled": 0, "fusion_lat": 0.0, "lat": 38.954646, "bike_id": "59a473621b81688e5e81498b60ed8320", "fusion_lon": 0.0}, {"rental_uris": {"ios": "https://dc.lft.to/lastmile_qr_scan", "android": "https://dc.lft.to/lastmile_qr_scan"}, "type": "electric_scooter", "name": "010f4fcd9f8aa66bcc3fbeb1c4360e5f", "is_reserved": 0, "lon": -77.019859, "is_disabled": 0, "fusion_lat": 0.0, "lat": 38.876059, "bike_id": "010f4fcd9f8aa66bcc3fbeb1c4360e5f", "fusion_lon": 0.0}, {"rental_uris": {"ios": "https://dc.lft.to/lastmile_qr_scan", "android": "https://dc.lft.to/lastmile_qr_scan"}, "type": "electric_scooter", "name": "def01278a532cc464a395f728901843b", "is_reserved": 0, "lon": -76.99563366666666, "is_disabled": 0, "fusion_lat": 0.0, "lat": 38.926839, "bike_id": "def01278a532cc464a395f728901843b", "fusion_lon": 0.0}, {"rental_uris": {"ios": "https://dc.lft.to/lastmile_qr_scan", "android": "https://dc.lft.to/lastmile_qr_scan"}, "type": "electric_scooter", "name": "0b58a70b1780cbe0040feb369fd52709", "is_reserved": 0, "lon": -77.0419075, "is_disabled": 0, "fusion_lat": 0.0, "lat": 38.922093833333335, "bike_id": "0b58a70b1780cbe0040feb369fd52709", "fusion_lon": 0.0}, {"rental_uris": {"ios": "https://dc.lft.to/lastmile_qr_scan", "android": "https://dc.lft.to/lastmile_qr_scan"}, "type": "electric_scooter", "name": "432f60a32d1b367ab5c74403e801af08", "is_reserved": 0, "lon": -77.07288616666666, "is_disabled": 0, "fusion_lat": 0.0, "lat": 38.914453333333334, "bike_id": "432f60a32d1b367ab5c74403e801af08", "fusion_lon": 0.0}, {"rental_uris": {"ios": "https://dc.lft.to/lastmile_qr_scan", "android": "https://dc.lft.to/lastmile_qr_scan"}, "type": "electric_bike", "name": "57972994a43dc0bd06f117998c793b2a", "is_reserved": 0, "lon": -76.99922083333334, "is_disabled": 0, "fusion_lat": 0.0, "lat": 38.994739, "bike_id": "57972994a43dc0bd06f117998c793b2a", "fusion_lon": 0.0}, {"rental_uris": {"ios": "https://dc.lft.to/lastmile_qr_scan", "android": "https://dc.lft.to/lastmile_qr_scan"}, "type": "electric_scooter", "name": "c5481d7044586a13be9222f6c4673e69", "is_reserved": 0, "lon": -77.01749866666667, "is_disabled": 0, "fusion_lat": 0.0, "lat": 38.91419616666667, "bike_id": "c5481d7044586a13be9222f6c4673e69", "fusion_lon": 0.0}, {"rental_uris": {"ios": "https://dc.lft.to/lastmile_qr_scan", "android": "https://dc.lft.to/lastmile_qr_scan"}, "type": "electric_scooter", "name": "367120e24f05e71ae41855eba531539e", "is_reserved": 0, "lon": -77.06844716666667, "is_disabled": 0, "fusion_lat": 0.0, "lat": 38.952876333333336, "bike_id": "367120e24f05e71ae41855eba531539e", "fusion_lon": 0.0}, {"rental_uris": {"ios": "https://dc.lft.to/lastmile_qr_scan", "android": "https://dc.lft.to/lastmile_qr_scan"}, "type": "electric_scooter", "name": "ab89bf611021d84ddb13b6c057797367", "is_reserved": 0, "lon": -77.04165666666667, "is_disabled": 0, "fusion_lat": 0.0, "lat": 38.91099, "bike_id": "ab89bf611021d84ddb13b6c057797367", "fusion_lon": 0.0}, {"rental_uris": {"ios": "https://dc.lft.to/lastmile_qr_scan", "android": "https://dc.lft.to/lastmile_qr_scan"}, "type": "electric_scooter", "name": "d79c79c5b977ceb0a4498a62884f91b0", "is_reserved": 0, "lon": -76.99496233333333, "is_disabled": 0, "fusion_lat": 0.0, "lat": 38.89971383333334, "bike_id": "d79c79c5b977ceb0a4498a62884f91b0", "fusion_lon": 0.0}, {"rental_uris": {"ios": "https://dc.lft.to/lastmile_qr_scan", "android": "https://dc.lft.to/lastmile_qr_scan"}, "type": "electric_scooter", "name": "d003eb9cc8e12539999126a0ecce49de", "is_reserved": 0, "lon": -77.03262833333334, "is_disabled": 0, "fusion_lat": 0.0, "lat": 38.90441916666666, "bike_id": "d003eb9cc8e12539999126a0ecce49de", "fusion_lon": 0.0}, {"rental_uris": {"ios": "https://dc.lft.to/lastmile_qr_scan", "android": "https://dc.lft.to/lastmile_qr_scan"}, "type": "electric_scooter", "name": "bead8c013ac1739eec4f8ac66b4fac18", "is_reserved": 0, "lon": -77.0660885, "is_disabled": 0, "fusion_lat": 0.0, "lat": 38.9110875, "bike_id": "bead8c013ac1739eec4f8ac66b4fac18", "fusion_lon": 0.0}, {"rental_uris": {"ios": "https://dc.lft.to/lastmile_qr_scan", "android": "https://dc.lft.to/lastmile_qr_scan"}, "type": "electric_scooter", "name": "62420f8056ce2e051df19d3f76715be0", "is_reserved": 0, "lon": -77.047559, "is_disabled": 0, "fusion_lat": 0.0, "lat": 38.895929833333334, "bike_id": "62420f8056ce2e051df19d3f76715be0", "fusion_lon": 0.0}, {"rental_uris": {"ios": "https://dc.lft.to/lastmile_qr_scan", "android": "https://dc.lft.to/lastmile_qr_scan"}, "type": "electric_scooter", "name": "0ce40da21570a12094a5acb318f222ad", "is_reserved": 0, "lon": -77.04668566666666, "is_disabled": 0, "fusion_lat": 0.0, "lat": 38.892890666666666, "bike_id": "0ce40da21570a12094a5acb318f222ad", "fusion_lon": 0.0}, {"rental_uris": {"ios": "https://dc.lft.to/lastmile_qr_scan", "android": "https://dc.lft.to/lastmile_qr_scan"}, "type": "electric_scooter", "name": "b1b2092310ce96d451488b7d13e21caf", "is_reserved": 0, "lon": -77.05125483333333, "is_disabled": 0, "fusion_lat": 0.0, "lat": 38.92535983333333, "bike_id": "b1b2092310ce96d451488b7d13e21caf", "fusion_lon": 0.0}, {"rental_uris": {"ios": "https://dc.lft.to/lastmile_qr_scan", "android": "https://dc.lft.to/lastmile_qr_scan"}, "type": "electric_scooter", "name": "56035ab0adf24f24916979f7e6b7abb9", "is_reserved": 0, "lon": -77.0460155, "is_disabled": 0, "fusion_lat": 0.0, "lat": 38.923343, "bike_id": "56035ab0adf24f24916979f7e6b7abb9", "fusion_lon": 0.0}, {"rental_uris": {"ios": "https://dc.lft.to/lastmile_qr_scan", "android": "https://dc.lft.to/lastmile_qr_scan"}, "type": "electric_scooter", "name": "406319f35020cb19e161ec0344ca9759", "is_reserved": 0, "lon": -77.06629966666667, "is_disabled": 0, "fusion_lat": 0.0, "lat": 38.905151333333336, "bike_id": "406319f35020cb19e161ec0344ca9759", "fusion_lon": 0.0}, {"rental_uris": {"ios": "https://dc.lft.to/lastmile_qr_scan", "android": "https://dc.lft.to/lastmile_qr_scan"}, "type": "electric_scooter", "name": "0a1bbc3cbfe01c7007319c8bf8816227", "is_reserved": 0, "lon": -77.03416466666667, "is_disabled": 0, "fusion_lat": 0.0, "lat": 38.92200883333334, "bike_id": "0a1bbc3cbfe01c7007319c8bf8816227", "fusion_lon": 0.0}, {"rental_uris": {"ios": "https://dc.lft.to/lastmile_qr_scan", "android": "https://dc.lft.to/lastmile_qr_scan"}, "type": "electric_scooter", "name": "f44ca08114484c971d7586960822eb0f", "is_reserved": 0, "lon": -76.98513016666666, "is_disabled": 0, "fusion_lat": 0.0, "lat": 38.8798445, "bike_id": "f44ca08114484c971d7586960822eb0f", "fusion_lon": 0.0}, {"rental_uris": {"ios": "https://dc.lft.to/lastmile_qr_scan", "android": "https://dc.lft.to/lastmile_qr_scan"}, "type": "electric_scooter", "name": "14c72eaa8f3aff25d8a8ab94e7667dbb", "is_reserved": 0, "lon": -77.005523, "is_disabled": 0, "fusion_lat": 0.0, "lat": 38.876382666666665, "bike_id": "14c72eaa8f3aff25d8a8ab94e7667dbb", "fusion_lon": 0.0}, {"rental_uris": {"ios": "https://dc.lft.to/lastmile_qr_scan", "android": "https://dc.lft.to/lastmile_qr_scan"}, "type": "electric_bike", "name": "0c3c98abd613819e40526e091b2c488b", "is_reserved": 0, "lon": -77.085326, "is_disabled": 0, "fusion_lat": 0.0, "lat": 38.8565495, "bike_id": "0c3c98abd613819e40526e091b2c488b", "fusion_lon": 0.0}, {"rental_uris": {"ios": "https://dc.lft.to/lastmile_qr_scan", "android": "https://dc.lft.to/lastmile_qr_scan"}, "type": "electric_scooter", "name": "77b6526f7935ebb2f5e5e555b3a93c32", "is_reserved": 0, "lon": -77.02509316666666, "is_disabled": 0, "fusion_lat": 0.0, "lat": 38.9355055, "bike_id": "77b6526f7935ebb2f5e5e555b3a93c32", "fusion_lon": 0.0}, {"rental_uris": {"ios": "https://dc.lft.to/lastmile_qr_scan", "android": "https://dc.lft.to/lastmile_qr_scan"}, "type": "electric_scooter", "name": "480bb094fed92c798ee62769724d9fe5", "is_reserved": 0, "lon": -77.0591835, "is_disabled": 0, "fusion_lat": 0.0, "lat": 38.902664, "bike_id": "480bb094fed92c798ee62769724d9fe5", "fusion_lon": 0.0}, {"rental_uris": {"ios": "https://dc.lft.to/lastmile_qr_scan", "android": "https://dc.lft.to/lastmile_qr_scan"}, "type": "electric_scooter", "name": "1184e47e6361efb5085a74c06b9947db", "is_reserved": 0, "lon": -77.0513775, "is_disabled": 0, "fusion_lat": 0.0, "lat": 38.90638783333333, "bike_id": "1184e47e6361efb5085a74c06b9947db", "fusion_lon": 0.0}, {"rental_uris": {"ios": "https://dc.lft.to/lastmile_qr_scan", "android": "https://dc.lft.to/lastmile_qr_scan"}, "type": "electric_bike", "name": "40471aafe38ce167d2d4f5f2b827c0cf", "is_reserved": 0, "lon": -77.12654383333333, "is_disabled": 0, "fusion_lat": 0.0, "lat": 38.81911783333334, "bike_id": "40471aafe38ce167d2d4f5f2b827c0cf", "fusion_lon": 0.0}, {"rental_uris": {"ios": "https://dc.lft.to/lastmile_qr_scan", "android": "https://dc.lft.to/lastmile_qr_scan"}, "type": "electric_scooter", "name": "257566275ae4b4bdc02b325663bfa394", "is_reserved": 0, "lon": -77.03861966666666, "is_disabled": 0, "fusion_lat": 0.0, "lat": 38.9125495, "bike_id": "257566275ae4b4bdc02b325663bfa394", "fusion_lon": 0.0}, {"rental_uris": {"ios": "https://dc.lft.to/lastmile_qr_scan", "android": "https://dc.lft.to/lastmile_qr_scan"}, "type": "electric_bike", "name": "012b0f7f7d99ee61b3deb1dd90bf2da3", "is_reserved": 0, "lon": -77.12840133333333, "is_disabled": 0, "fusion_lat": 0.0, "lat": 38.800551666666664, "bike_id": "012b0f7f7d99ee61b3deb1dd90bf2da3", "fusion_lon": 0.0}, {"rental_uris": {"ios": "https://dc.lft.to/lastmile_qr_scan", "android": "https://dc.lft.to/lastmile_qr_scan"}, "type": "electric_scooter", "name": "536ba566fccad4d47d01bccce504dbf3", "is_reserved": 0, "lon": -77.00212683333334, "is_disabled": 0, "fusion_lat": 0.0, "lat": 38.900555, "bike_id": "536ba566fccad4d47d01bccce504dbf3", "fusion_lon": 0.0}, {"rental_uris": {"ios": "https://dc.lft.to/lastmile_qr_scan", "android": "https://dc.lft.to/lastmile_qr_scan"}, "type": "electric_scooter", "name": "de81f1d66ac34df8fd23b463bbc7bd22", "is_reserved": 0, "lon": -77.029581, "is_disabled": 0, "fusion_lat": 0.0, "lat": 38.902656666666665, "bike_id": "de81f1d66ac34df8fd23b463bbc7bd22", "fusion_lon": 0.0}, {"rental_uris": {"ios": "https://dc.lft.to/lastmile_qr_scan", "android": "https://dc.lft.to/lastmile_qr_scan"}, "type": "electric_scooter", "name": "f48851f67835a801921f03aaa4f4488d", "is_reserved": 0, "lon": -76.9911885, "is_disabled": 0, "fusion_lat": 0.0, "lat": 38.909012, "bike_id": "f48851f67835a801921f03aaa4f4488d", "fusion_lon": 0.0}, {"rental_uris": {"ios": "https://dc.lft.to/lastmile_qr_scan", "android": "https://dc.lft.to/lastmile_qr_scan"}, "type": "electric_scooter", "name": "80922740bce44a711cf4e61b6f2a3c55", "is_reserved": 0, "lon": -77.02729616666667, "is_disabled": 0, "fusion_lat": 0.0, "lat": 38.9346235, "bike_id": "80922740bce44a711cf4e61b6f2a3c55", "fusion_lon": 0.0}, {"rental_uris": {"ios": "https://dc.lft.to/lastmile_qr_scan", "android": "https://dc.lft.to/lastmile_qr_scan"}, "type": "electric_scooter", "name": "f7d9b93c9963e8a754ed9fe2c7a86624", "is_reserved": 0, "lon": -77.00356816666667, "is_disabled": 0, "fusion_lat": 0.0, "lat": 38.8765705, "bike_id": "f7d9b93c9963e8a754ed9fe2c7a86624", "fusion_lon": 0.0}, {"rental_uris": {"ios": "https://dc.lft.to/lastmile_qr_scan", "android": "https://dc.lft.to/lastmile_qr_scan"}, "type": "electric_scooter", "name": "1545f0cf8260d4c099ed0aca00efb5c3", "is_reserved": 0, "lon": -77.019712, "is_disabled": 0, "fusion_lat": 0.0, "lat": 38.87617933333333, "bike_id": "1545f0cf8260d4c099ed0aca00efb5c3", "fusion_lon": 0.0}, {"rental_uris": {"ios": "https://dc.lft.to/lastmile_qr_scan", "android": "https://dc.lft.to/lastmile_qr_scan"}, "type": "electric_scooter", "name": "1351df1eba07dd50df8f99ce1e740cfc", "is_reserved": 0, "lon": -77.007631, "is_disabled": 0, "fusion_lat": 0.0, "lat": 38.878467666666666, "bike_id": "1351df1eba07dd50df8f99ce1e740cfc", "fusion_lon": 0.0}, {"rental_uris": {"ios": "https://dc.lft.to/lastmile_qr_scan", "android": "https://dc.lft.to/lastmile_qr_scan"}, "type": "electric_scooter", "name": "a16bf7f27317944450f679999faa0a3b", "is_reserved": 0, "lon": -77.03365716666667, "is_disabled": 0, "fusion_lat": 0.0, "lat": 38.93528216666667, "bike_id": "a16bf7f27317944450f679999faa0a3b", "fusion_lon": 0.0}, {"rental_uris": {"ios": "https://dc.lft.to/lastmile_qr_scan", "android": "https://dc.lft.to/lastmile_qr_scan"}, "type": "electric_scooter", "name": "49bfe3052bb90eadf9f6c98ff3ed6021", "is_reserved": 0, "lon": -76.98068166666667, "is_disabled": 0, "fusion_lat": 0.0, "lat": 38.901803, "bike_id": "49bfe3052bb90eadf9f6c98ff3ed6021", "fusion_lon": 0.0}, {"rental_uris": {"ios": "https://dc.lft.to/lastmile_qr_scan", "android": "https://dc.lft.to/lastmile_qr_scan"}, "type": "electric_scooter", "name": "4e4ab38ed99e6b76558612c8a021bd00", "is_reserved": 0, "lon": -77.05226283333333, "is_disabled": 0, "fusion_lat": 0.0, "lat": 38.92496333333333, "bike_id": "4e4ab38ed99e6b76558612c8a021bd00", "fusion_lon": 0.0}, {"rental_uris": {"ios": "https://dc.lft.to/lastmile_qr_scan", "android": "https://dc.lft.to/lastmile_qr_scan"}, "type": "electric_scooter", "name": "aad966b5f67af081012a84419a9e46d8", "is_reserved": 0, "lon": -77.04035066666667, "is_disabled": 0, "fusion_lat": 0.0, "lat": 38.91188483333333, "bike_id": "aad966b5f67af081012a84419a9e46d8", "fusion_lon": 0.0}, {"rental_uris": {"ios": "https://dc.lft.to/lastmile_qr_scan", "android": "https://dc.lft.to/lastmile_qr_scan"}, "type": "electric_scooter", "name": "3ae5d86a283bc9eb61aff21366975b27", "is_reserved": 0, "lon": -77.03708016666667, "is_disabled": 0, "fusion_lat": 0.0, "lat": 38.914823166666665, "bike_id": "3ae5d86a283bc9eb61aff21366975b27", "fusion_lon": 0.0}, {"rental_uris": {"ios": "https://dc.lft.to/lastmile_qr_scan", "android": "https://dc.lft.to/lastmile_qr_scan"}, "type": "electric_scooter", "name": "0b2615fe0731e730b96f6f18c03c99dc", "is_reserved": 0, "lon": -77.03580083333334, "is_disabled": 0, "fusion_lat": 0.0, "lat": 38.91776866666667, "bike_id": "0b2615fe0731e730b96f6f18c03c99dc", "fusion_lon": 0.0}, {"rental_uris": {"ios": "https://dc.lft.to/lastmile_qr_scan", "android": "https://dc.lft.to/lastmile_qr_scan"}, "type": "electric_scooter", "name": "9183a0ff2de3f47ea54f67e260a30d82", "is_reserved": 0, "lon": -76.997598, "is_disabled": 0, "fusion_lat": 0.0, "lat": 38.89672016666667, "bike_id": "9183a0ff2de3f47ea54f67e260a30d82", "fusion_lon": 0.0}, {"rental_uris": {"ios": "https://dc.lft.to/lastmile_qr_scan", "android": "https://dc.lft.to/lastmile_qr_scan"}, "type": "electric_scooter", "name": "d4b2ea8b855bd003795fe0aac1f9e181", "is_reserved": 0, "lon": -77.02407916666667, "is_disabled": 0, "fusion_lat": 0.0, "lat": 38.938191, "bike_id": "d4b2ea8b855bd003795fe0aac1f9e181", "fusion_lon": 0.0}, {"rental_uris": {"ios": "https://dc.lft.to/lastmile_qr_scan", "android": "https://dc.lft.to/lastmile_qr_scan"}, "type": "electric_scooter", "name": "cf421c665e99029454a0f9b463a13cfa", "is_reserved": 0, "lon": -77.0209705, "is_disabled": 0, "fusion_lat": 0.0, "lat": 38.881850166666666, "bike_id": "cf421c665e99029454a0f9b463a13cfa", "fusion_lon": 0.0}, {"rental_uris": {"ios": "https://dc.lft.to/lastmile_qr_scan", "android": "https://dc.lft.to/lastmile_qr_scan"}, "type": "electric_bike", "name": "908d2925026689559de9050ad06236e0", "is_reserved": 0, "lon": -76.99697366666666, "is_disabled": 0, "fusion_lat": 0.0, "lat": 38.838603666666664, "bike_id": "908d2925026689559de9050ad06236e0", "fusion_lon": 0.0}, {"rental_uris": {"ios": "https://dc.lft.to/lastmile_qr_scan", "android": "https://dc.lft.to/lastmile_qr_scan"}, "type": "electric_bike", "name": "e7dcef659828efdea2787fb2ae3eaf3b", "is_reserved": 0, "lon": -76.992812, "is_disabled": 0, "fusion_lat": 0.0, "lat": 38.972635833333335, "bike_id": "e7dcef659828efdea2787fb2ae3eaf3b", "fusion_lon": 0.0}, {"rental_uris": {"ios": "https://dc.lft.to/lastmile_qr_scan", "android": "https://dc.lft.to/lastmile_qr_scan"}, "type": "electric_scooter", "name": "7de93e960973379a45c5912080f0ae20", "is_reserved": 0, "lon": -77.04676366666666, "is_disabled": 0, "fusion_lat": 0.0, "lat": 38.8922685, "bike_id": "7de93e960973379a45c5912080f0ae20", "fusion_lon": 0.0}, {"rental_uris": {"ios": "https://dc.lft.to/lastmile_qr_scan", "android": "https://dc.lft.to/lastmile_qr_scan"}, "type": "electric_scooter", "name": "7844660f0a35e85bccac2ae6014e19f2", "is_reserved": 0, "lon": -77.02363716666666, "is_disabled": 0, "fusion_lat": 0.0, "lat": 38.90213583333333, "bike_id": "7844660f0a35e85bccac2ae6014e19f2", "fusion_lon": 0.0}, {"rental_uris": {"ios": "https://dc.lft.to/lastmile_qr_scan", "android": "https://dc.lft.to/lastmile_qr_scan"}, "type": "electric_scooter", "name": "7b6f1ebf77cbfacc146efff020901ce8", "is_reserved": 0, "lon": -77.037211, "is_disabled": 0, "fusion_lat": 0.0, "lat": 38.926532333333334, "bike_id": "7b6f1ebf77cbfacc146efff020901ce8", "fusion_lon": 0.0}, {"rental_uris": {"ios": "https://dc.lft.to/lastmile_qr_scan", "android": "https://dc.lft.to/lastmile_qr_scan"}, "type": "electric_bike", "name": "d30a19eb06791d513801e3a0a5d4b46a", "is_reserved": 0, "lon": -76.94539616666667, "is_disabled": 0, "fusion_lat": 0.0, "lat": 38.8675565, "bike_id": "d30a19eb06791d513801e3a0a5d4b46a", "fusion_lon": 0.0}, {"rental_uris": {"ios": "https://dc.lft.to/lastmile_qr_scan", "android": "https://dc.lft.to/lastmile_qr_scan"}, "type": "electric_scooter", "name": "0de327b7c986956e0f18cb8202bb64e3", "is_reserved": 0, "lon": -77.02221383333334, "is_disabled": 0, "fusion_lat": 0.0, "lat": 38.893553, "bike_id": "0de327b7c986956e0f18cb8202bb64e3", "fusion_lon": 0.0}, {"rental_uris": {"ios": "https://dc.lft.to/lastmile_qr_scan", "android": "https://dc.lft.to/lastmile_qr_scan"}, "type": "electric_bike", "name": "804f8ee24bb15c4885e347662da55b8b", "is_reserved": 0, "lon": -77.01742366666667, "is_disabled": 0, "fusion_lat": 0.0, "lat": 38.9460405, "bike_id": "804f8ee24bb15c4885e347662da55b8b", "fusion_lon": 0.0}, {"rental_uris": {"ios": "https://dc.lft.to/lastmile_qr_scan", "android": "https://dc.lft.to/lastmile_qr_scan"}, "type": "electric_scooter", "name": "a00b5e22d5e62f4001b68ed1e635f15f", "is_reserved": 0, "lon": -77.02731483333334, "is_disabled": 0, "fusion_lat": 0.0, "lat": 38.895698833333334, "bike_id": "a00b5e22d5e62f4001b68ed1e635f15f", "fusion_lon": 0.0}, {"rental_uris": {"ios": "https://dc.lft.to/lastmile_qr_scan", "android": "https://dc.lft.to/lastmile_qr_scan"}, "type": "electric_scooter", "name": "064777f60c4626b0008f6483783a6bde", "is_reserved": 0, "lon": -77.04466283333333, "is_disabled": 0, "fusion_lat": 0.0, "lat": 38.92468933333333, "bike_id": "064777f60c4626b0008f6483783a6bde", "fusion_lon": 0.0}, {"rental_uris": {"ios": "https://dc.lft.to/lastmile_qr_scan", "android": "https://dc.lft.to/lastmile_qr_scan"}, "type": "electric_scooter", "name": "81edb4aba701514f053672f31b2c4583", "is_reserved": 0, "lon": -77.03183633333333, "is_disabled": 0, "fusion_lat": 0.0, "lat": 38.894725, "bike_id": "81edb4aba701514f053672f31b2c4583", "fusion_lon": 0.0}, {"rental_uris": {"ios": "https://dc.lft.to/lastmile_qr_scan", "android": "https://dc.lft.to/lastmile_qr_scan"}, "type": "electric_scooter", "name": "4ad8301a64fa90834585588b7d8279c5", "is_reserved": 0, "lon": -77.04839383333334, "is_disabled": 0, "fusion_lat": 0.0, "lat": 38.909629833333334, "bike_id": "4ad8301a64fa90834585588b7d8279c5", "fusion_lon": 0.0}, {"rental_uris": {"ios": "https://dc.lft.to/lastmile_qr_scan", "android": "https://dc.lft.to/lastmile_qr_scan"}, "type": "electric_scooter", "name": "d494c87cf954b3f9e8e0c107aba67b12", "is_reserved": 0, "lon": -77.03466466666667, "is_disabled": 0, "fusion_lat": 0.0, "lat": 38.9084035, "bike_id": "d494c87cf954b3f9e8e0c107aba67b12", "fusion_lon": 0.0}, {"rental_uris": {"ios": "https://dc.lft.to/lastmile_qr_scan", "android": "https://dc.lft.to/lastmile_qr_scan"}, "type": "electric_scooter", "name": "c99897fece677706525583d34f453fa6", "is_reserved": 0, "lon": -77.0485215, "is_disabled": 0, "fusion_lat": 0.0, "lat": 38.9063825, "bike_id": "c99897fece677706525583d34f453fa6", "fusion_lon": 0.0}, {"rental_uris": {"ios": "https://dc.lft.to/lastmile_qr_scan", "android": "https://dc.lft.to/lastmile_qr_scan"}, "type": "electric_bike", "name": "bc60df189e8dc35ac0d2d8b8ce81ae96", "is_reserved": 0, "lon": -76.98771466666666, "is_disabled": 0, "fusion_lat": 0.0, "lat": 38.85771533333333, "bike_id": "bc60df189e8dc35ac0d2d8b8ce81ae96", "fusion_lon": 0.0}, {"rental_uris": {"ios": "https://dc.lft.to/lastmile_qr_scan", "android": "https://dc.lft.to/lastmile_qr_scan"}, "type": "electric_bike", "name": "d7fee3310d8882edc0978db9475d497e", "is_reserved": 0, "lon": -76.90308866666666, "is_disabled": 0, "fusion_lat": 0.0, "lat": 39.00299033333334, "bike_id": "d7fee3310d8882edc0978db9475d497e", "fusion_lon": 0.0}, {"rental_uris": {"ios": "https://dc.lft.to/lastmile_qr_scan", "android": "https://dc.lft.to/lastmile_qr_scan"}, "type": "electric_scooter", "name": "6729c38496e9679a106d5df1d9db5628", "is_reserved": 0, "lon": -77.02880183333333, "is_disabled": 0, "fusion_lat": 0.0, "lat": 38.9072655, "bike_id": "6729c38496e9679a106d5df1d9db5628", "fusion_lon": 0.0}, {"rental_uris": {"ios": "https://dc.lft.to/lastmile_qr_scan", "android": "https://dc.lft.to/lastmile_qr_scan"}, "type": "electric_scooter", "name": "d8b5a3e55ba9d6998335b7b6817b13aa", "is_reserved": 0, "lon": -77.03523333333334, "is_disabled": 0, "fusion_lat": 0.0, "lat": 38.92220616666667, "bike_id": "d8b5a3e55ba9d6998335b7b6817b13aa", "fusion_lon": 0.0}, {"rental_uris": {"ios": "https://dc.lft.to/lastmile_qr_scan", "android": "https://dc.lft.to/lastmile_qr_scan"}, "type": "electric_scooter", "name": "dea29565f5b1e5d328fd057c1ac82bd4", "is_reserved": 0, "lon": -77.0087495, "is_disabled": 0, "fusion_lat": 0.0, "lat": 38.91251716666667, "bike_id": "dea29565f5b1e5d328fd057c1ac82bd4", "fusion_lon": 0.0}, {"rental_uris": {"ios": "https://dc.lft.to/lastmile_qr_scan", "android": "https://dc.lft.to/lastmile_qr_scan"}, "type": "electric_scooter", "name": "302dc0d35a3289313114881f161ef4cd", "is_reserved": 0, "lon": -77.0506665, "is_disabled": 0, "fusion_lat": 0.0, "lat": 38.92360983333333, "bike_id": "302dc0d35a3289313114881f161ef4cd", "fusion_lon": 0.0}, {"rental_uris": {"ios": "https://dc.lft.to/lastmile_qr_scan", "android": "https://dc.lft.to/lastmile_qr_scan"}, "type": "electric_scooter", "name": "af49867b4588d104ff667fc539fca8b7", "is_reserved": 0, "lon": -76.998415, "is_disabled": 0, "fusion_lat": 0.0, "lat": 38.903004, "bike_id": "af49867b4588d104ff667fc539fca8b7", "fusion_lon": 0.0}, {"rental_uris": {"ios": "https://dc.lft.to/lastmile_qr_scan", "android": "https://dc.lft.to/lastmile_qr_scan"}, "type": "electric_scooter", "name": "d8391bf6295e9e53b3c711a6786cd226", "is_reserved": 0, "lon": -77.0056485, "is_disabled": 0, "fusion_lat": 0.0, "lat": 38.90927883333333, "bike_id": "d8391bf6295e9e53b3c711a6786cd226", "fusion_lon": 0.0}, {"rental_uris": {"ios": "https://dc.lft.to/lastmile_qr_scan", "android": "https://dc.lft.to/lastmile_qr_scan"}, "type": "electric_scooter", "name": "49eeb007e08802f4afd7c716990a779e", "is_reserved": 0, "lon": -77.03722866666666, "is_disabled": 0, "fusion_lat": 0.0, "lat": 38.92652133333333, "bike_id": "49eeb007e08802f4afd7c716990a779e", "fusion_lon": 0.0}, {"rental_uris": {"ios": "https://dc.lft.to/lastmile_qr_scan", "android": "https://dc.lft.to/lastmile_qr_scan"}, "type": "electric_scooter", "name": "b5c67f6fdfed3db6959e03ac901f8d72", "is_reserved": 0, "lon": -76.994129, "is_disabled": 0, "fusion_lat": 0.0, "lat": 38.87791266666667, "bike_id": "b5c67f6fdfed3db6959e03ac901f8d72", "fusion_lon": 0.0}, {"rental_uris": {"ios": "https://dc.lft.to/lastmile_qr_scan", "android": "https://dc.lft.to/lastmile_qr_scan"}, "type": "electric_scooter", "name": "334ad47579c3670941b24c768ed684d5", "is_reserved": 0, "lon": -77.034746, "is_disabled": 0, "fusion_lat": 0.0, "lat": 38.930250666666666, "bike_id": "334ad47579c3670941b24c768ed684d5", "fusion_lon": 0.0}, {"rental_uris": {"ios": "https://dc.lft.to/lastmile_qr_scan", "android": "https://dc.lft.to/lastmile_qr_scan"}, "type": "electric_scooter", "name": "dd8ebdbef2b9b4d2455af5f48a642336", "is_reserved": 0, "lon": -77.0606625, "is_disabled": 0, "fusion_lat": 0.0, "lat": 38.88611616666667, "bike_id": "dd8ebdbef2b9b4d2455af5f48a642336", "fusion_lon": 0.0}, {"rental_uris": {"ios": "https://dc.lft.to/lastmile_qr_scan", "android": "https://dc.lft.to/lastmile_qr_scan"}, "type": "electric_bike", "name": "d5cfc22f5db6e30e18fe25e7cb643000", "is_reserved": 0, "lon": -77.127398, "is_disabled": 0, "fusion_lat": 0.0, "lat": 38.895682666666666, "bike_id": "d5cfc22f5db6e30e18fe25e7cb643000", "fusion_lon": 0.0}, {"rental_uris": {"ios": "https://dc.lft.to/lastmile_qr_scan", "android": "https://dc.lft.to/lastmile_qr_scan"}, "type": "electric_scooter", "name": "32d53accf1ecbe784513476ee34947c9", "is_reserved": 0, "lon": -77.029454, "is_disabled": 0, "fusion_lat": 0.0, "lat": 38.91695216666667, "bike_id": "32d53accf1ecbe784513476ee34947c9", "fusion_lon": 0.0}, {"rental_uris": {"ios": "https://dc.lft.to/lastmile_qr_scan", "android": "https://dc.lft.to/lastmile_qr_scan"}, "type": "electric_bike", "name": "82385e5f42514d75176f75e08849b597", "is_reserved": 0, "lon": -77.038841, "is_disabled": 0, "fusion_lat": 0.0, "lat": 39.02635816666667, "bike_id": "82385e5f42514d75176f75e08849b597", "fusion_lon": 0.0}, {"rental_uris": {"ios": "https://dc.lft.to/lastmile_qr_scan", "android": "https://dc.lft.to/lastmile_qr_scan"}, "type": "electric_bike", "name": "3998df71a0b5a4a44a361f5fe951a150", "is_reserved": 0, "lon": -77.09635883333333, "is_disabled": 0, "fusion_lat": 0.0, "lat": 38.95249866666666, "bike_id": "3998df71a0b5a4a44a361f5fe951a150", "fusion_lon": 0.0}, {"rental_uris": {"ios": "https://dc.lft.to/lastmile_qr_scan", "android": "https://dc.lft.to/lastmile_qr_scan"}, "type": "electric_scooter", "name": "ef42a8f8c13b6c2ef32a2a5ea4a72700", "is_reserved": 0, "lon": -77.03906683333334, "is_disabled": 0, "fusion_lat": 0.0, "lat": 38.914213, "bike_id": "ef42a8f8c13b6c2ef32a2a5ea4a72700", "fusion_lon": 0.0}, {"rental_uris": {"ios": "https://dc.lft.to/lastmile_qr_scan", "android": "https://dc.lft.to/lastmile_qr_scan"}, "type": "electric_scooter", "name": "38116a6682c04f44490f5ab5d3adc3e0", "is_reserved": 0, "lon": -77.032675, "is_disabled": 0, "fusion_lat": 0.0, "lat": 38.91042083333333, "bike_id": "38116a6682c04f44490f5ab5d3adc3e0", "fusion_lon": 0.0}, {"rental_uris": {"ios": "https://dc.lft.to/lastmile_qr_scan", "android": "https://dc.lft.to/lastmile_qr_scan"}, "type": "electric_scooter", "name": "5c83d72431432fa9fcd398b5a1e074f9", "is_reserved": 0, "lon": -77.03183066666666, "is_disabled": 0, "fusion_lat": 0.0, "lat": 38.91819733333333, "bike_id": "5c83d72431432fa9fcd398b5a1e074f9", "fusion_lon": 0.0}, {"rental_uris": {"ios": "https://dc.lft.to/lastmile_qr_scan", "android": "https://dc.lft.to/lastmile_qr_scan"}, "type": "electric_scooter", "name": "6083bc90f10aee469cb79ef4267b70ba", "is_reserved": 0, "lon": -77.03643866666667, "is_disabled": 0, "fusion_lat": 0.0, "lat": 38.925983, "bike_id": "6083bc90f10aee469cb79ef4267b70ba", "fusion_lon": 0.0}, {"rental_uris": {"ios": "https://dc.lft.to/lastmile_qr_scan", "android": "https://dc.lft.to/lastmile_qr_scan"}, "type": "electric_scooter", "name": "2e90a7ac1e1427fa5564ce68beb26df3", "is_reserved": 0, "lon": -77.0436945, "is_disabled": 0, "fusion_lat": 0.0, "lat": 38.93155333333333, "bike_id": "2e90a7ac1e1427fa5564ce68beb26df3", "fusion_lon": 0.0}, {"rental_uris": {"ios": "https://dc.lft.to/lastmile_qr_scan", "android": "https://dc.lft.to/lastmile_qr_scan"}, "type": "electric_scooter", "name": "ef60c4a007e86cba88b82563bc81e5da", "is_reserved": 0, "lon": -77.0564, "is_disabled": 0, "fusion_lat": 0.0, "lat": 38.936051, "bike_id": "ef60c4a007e86cba88b82563bc81e5da", "fusion_lon": 0.0}, {"rental_uris": {"ios": "https://dc.lft.to/lastmile_qr_scan", "android": "https://dc.lft.to/lastmile_qr_scan"}, "type": "electric_scooter", "name": "cd1adc5b20e9f69573bf12a20f43837e", "is_reserved": 0, "lon": -77.01199933333334, "is_disabled": 0, "fusion_lat": 0.0, "lat": 38.90021733333333, "bike_id": "cd1adc5b20e9f69573bf12a20f43837e", "fusion_lon": 0.0}, {"rental_uris": {"ios": "https://dc.lft.to/lastmile_qr_scan", "android": "https://dc.lft.to/lastmile_qr_scan"}, "type": "electric_scooter", "name": "5e85f5f80213d7d24139e48321082982", "is_reserved": 0, "lon": -77.028183, "is_disabled": 0, "fusion_lat": 0.0, "lat": 38.8921945, "bike_id": "5e85f5f80213d7d24139e48321082982", "fusion_lon": 0.0}, {"rental_uris": {"ios": "https://dc.lft.to/lastmile_qr_scan", "android": "https://dc.lft.to/lastmile_qr_scan"}, "type": "electric_scooter", "name": "252ea3132c0fae17138db8f6f92279ba", "is_reserved": 0, "lon": -77.032789, "is_disabled": 0, "fusion_lat": 0.0, "lat": 38.9199085, "bike_id": "252ea3132c0fae17138db8f6f92279ba", "fusion_lon": 0.0}, {"rental_uris": {"ios": "https://dc.lft.to/lastmile_qr_scan", "android": "https://dc.lft.to/lastmile_qr_scan"}, "type": "electric_scooter", "name": "f8b61f34d0679f5a96aeda0c34e441df", "is_reserved": 0, "lon": -77.04526766666666, "is_disabled": 0, "fusion_lat": 0.0, "lat": 38.91898166666667, "bike_id": "f8b61f34d0679f5a96aeda0c34e441df", "fusion_lon": 0.0}, {"rental_uris": {"ios": "https://dc.lft.to/lastmile_qr_scan", "android": "https://dc.lft.to/lastmile_qr_scan"}, "type": "electric_scooter", "name": "c0f0727d9e78af9447e49d70c25cdc33", "is_reserved": 0, "lon": -77.0609375, "is_disabled": 0, "fusion_lat": 0.0, "lat": 38.93992633333333, "bike_id": "c0f0727d9e78af9447e49d70c25cdc33", "fusion_lon": 0.0}, {"rental_uris": {"ios": "https://dc.lft.to/lastmile_qr_scan", "android": "https://dc.lft.to/lastmile_qr_scan"}, "type": "electric_scooter", "name": "b5fe62c1504b4bc22da6688aec79aa42", "is_reserved": 0, "lon": -76.975699, "is_disabled": 0, "fusion_lat": 0.0, "lat": 38.944254, "bike_id": "b5fe62c1504b4bc22da6688aec79aa42", "fusion_lon": 0.0}, {"rental_uris": {"ios": "https://dc.lft.to/lastmile_qr_scan", "android": "https://dc.lft.to/lastmile_qr_scan"}, "type": "electric_scooter", "name": "cf32921381a558126bde2ff729ca2c43", "is_reserved": 0, "lon": -77.05675533333333, "is_disabled": 0, "fusion_lat": 0.0, "lat": 38.9060815, "bike_id": "cf32921381a558126bde2ff729ca2c43", "fusion_lon": 0.0}, {"rental_uris": {"ios": "https://dc.lft.to/lastmile_qr_scan", "android": "https://dc.lft.to/lastmile_qr_scan"}, "type": "electric_bike", "name": "3016bbe869a2230e5fab3297e0e7c1a5", "is_reserved": 0, "lon": -76.99252033333333, "is_disabled": 0, "fusion_lat": 0.0, "lat": 38.96074733333333, "bike_id": "3016bbe869a2230e5fab3297e0e7c1a5", "fusion_lon": 0.0}, {"rental_uris": {"ios": "https://dc.lft.to/lastmile_qr_scan", "android": "https://dc.lft.to/lastmile_qr_scan"}, "type": "electric_bike", "name": "ab8921f2e56e3ae008fb9968240bc31d", "is_reserved": 0, "lon": -77.0013515, "is_disabled": 0, "fusion_lat": 0.0, "lat": 38.99500033333333, "bike_id": "ab8921f2e56e3ae008fb9968240bc31d", "fusion_lon": 0.0}, {"rental_uris": {"ios": "https://dc.lft.to/lastmile_qr_scan", "android": "https://dc.lft.to/lastmile_qr_scan"}, "type": "electric_scooter", "name": "3f71df0e91dda2586b798ca075328029", "is_reserved": 0, "lon": -77.0550755, "is_disabled": 0, "fusion_lat": 0.0, "lat": 38.928323666666664, "bike_id": "3f71df0e91dda2586b798ca075328029", "fusion_lon": 0.0}, {"rental_uris": {"ios": "https://dc.lft.to/lastmile_qr_scan", "android": "https://dc.lft.to/lastmile_qr_scan"}, "type": "electric_scooter", "name": "cdbb2a5900328a52acacbe1f55c190cd", "is_reserved": 0, "lon": -76.93741133333333, "is_disabled": 0, "fusion_lat": 0.0, "lat": 38.89005383333333, "bike_id": "cdbb2a5900328a52acacbe1f55c190cd", "fusion_lon": 0.0}, {"rental_uris": {"ios": "https://dc.lft.to/lastmile_qr_scan", "android": "https://dc.lft.to/lastmile_qr_scan"}, "type": "electric_bike", "name": "b81c9e2d7bbc3196eb596bf9fe55a35d", "is_reserved": 0, "lon": -76.957938, "is_disabled": 0, "fusion_lat": 0.0, "lat": 38.980464166666664, "bike_id": "b81c9e2d7bbc3196eb596bf9fe55a35d", "fusion_lon": 0.0}, {"rental_uris": {"ios": "https://dc.lft.to/lastmile_qr_scan", "android": "https://dc.lft.to/lastmile_qr_scan"}, "type": "electric_scooter", "name": "85591c537556426ab86870adad5474ab", "is_reserved": 0, "lon": -77.02384183333334, "is_disabled": 0, "fusion_lat": 0.0, "lat": 38.935245, "bike_id": "85591c537556426ab86870adad5474ab", "fusion_lon": 0.0}, {"rental_uris": {"ios": "https://dc.lft.to/lastmile_qr_scan", "android": "https://dc.lft.to/lastmile_qr_scan"}, "type": "electric_scooter", "name": "05c5bc10835ece7e2bc0d2612e6c811d", "is_reserved": 0, "lon": -76.997942, "is_disabled": 0, "fusion_lat": 0.0, "lat": 38.876371166666665, "bike_id": "05c5bc10835ece7e2bc0d2612e6c811d", "fusion_lon": 0.0}, {"rental_uris": {"ios": "https://dc.lft.to/lastmile_qr_scan", "android": "https://dc.lft.to/lastmile_qr_scan"}, "type": "electric_scooter", "name": "13a4541827963c6c2df12bb664eccc91", "is_reserved": 0, "lon": -77.07340133333334, "is_disabled": 0, "fusion_lat": 0.0, "lat": 38.960918666666664, "bike_id": "13a4541827963c6c2df12bb664eccc91", "fusion_lon": 0.0}, {"rental_uris": {"ios": "https://dc.lft.to/lastmile_qr_scan", "android": "https://dc.lft.to/lastmile_qr_scan"}, "type": "electric_scooter", "name": "165fcbba4eb8abfc4cf712e2637e6d8c", "is_reserved": 0, "lon": -77.02710266666666, "is_disabled": 0, "fusion_lat": 0.0, "lat": 38.905353166666664, "bike_id": "165fcbba4eb8abfc4cf712e2637e6d8c", "fusion_lon": 0.0}, {"rental_uris": {"ios": "https://dc.lft.to/lastmile_qr_scan", "android": "https://dc.lft.to/lastmile_qr_scan"}, "type": "electric_scooter", "name": "74cf055bed762c74a10f64a57d9bb241", "is_reserved": 0, "lon": -77.03756016666667, "is_disabled": 0, "fusion_lat": 0.0, "lat": 38.93594216666666, "bike_id": "74cf055bed762c74a10f64a57d9bb241", "fusion_lon": 0.0}, {"rental_uris": {"ios": "https://dc.lft.to/lastmile_qr_scan", "android": "https://dc.lft.to/lastmile_qr_scan"}, "type": "electric_scooter", "name": "72760773ededdbb21a79a5f6db6fd81e", "is_reserved": 0, "lon": -77.005921, "is_disabled": 0, "fusion_lat": 0.0, "lat": 38.87907583333333, "bike_id": "72760773ededdbb21a79a5f6db6fd81e", "fusion_lon": 0.0}, {"rental_uris": {"ios": "https://dc.lft.to/lastmile_qr_scan", "android": "https://dc.lft.to/lastmile_qr_scan"}, "type": "electric_bike", "name": "531140a1651415f63daeb912802e311a", "is_reserved": 0, "lon": -77.02030766666667, "is_disabled": 0, "fusion_lat": 0.0, "lat": 38.965575666666666, "bike_id": "531140a1651415f63daeb912802e311a", "fusion_lon": 0.0}, {"rental_uris": {"ios": "https://dc.lft.to/lastmile_qr_scan", "android": "https://dc.lft.to/lastmile_qr_scan"}, "type": "electric_bike", "name": "2a8276dba0df7c5d03e2bec3f5d2b061", "is_reserved": 0, "lon": -76.98287716666667, "is_disabled": 0, "fusion_lat": 0.0, "lat": 38.84674033333334, "bike_id": "2a8276dba0df7c5d03e2bec3f5d2b061", "fusion_lon": 0.0}, {"rental_uris": {"ios": "https://dc.lft.to/lastmile_qr_scan", "android": "https://dc.lft.to/lastmile_qr_scan"}, "type": "electric_scooter", "name": "34c425bcfc9af67d62824cb5ed3efb6e", "is_reserved": 0, "lon": -77.0144125, "is_disabled": 0, "fusion_lat": 0.0, "lat": 38.90238016666667, "bike_id": "34c425bcfc9af67d62824cb5ed3efb6e", "fusion_lon": 0.0}, {"rental_uris": {"ios": "https://dc.lft.to/lastmile_qr_scan", "android": "https://dc.lft.to/lastmile_qr_scan"}, "type": "electric_scooter", "name": "8a5dbef41edaaa38d82bfb0e02afb2ea", "is_reserved": 0, "lon": -77.02883516666667, "is_disabled": 0, "fusion_lat": 0.0, "lat": 38.9034695, "bike_id": "8a5dbef41edaaa38d82bfb0e02afb2ea", "fusion_lon": 0.0}, {"rental_uris": {"ios": "https://dc.lft.to/lastmile_qr_scan", "android": "https://dc.lft.to/lastmile_qr_scan"}, "type": "electric_scooter", "name": "962245ca10139e9db031b4498be41f52", "is_reserved": 0, "lon": -77.04647983333334, "is_disabled": 0, "fusion_lat": 0.0, "lat": 38.8967195, "bike_id": "962245ca10139e9db031b4498be41f52", "fusion_lon": 0.0}, {"rental_uris": {"ios": "https://dc.lft.to/lastmile_qr_scan", "android": "https://dc.lft.to/lastmile_qr_scan"}, "type": "electric_scooter", "name": "a33017d8f41258e8ba1df085a5b89472", "is_reserved": 0, "lon": -77.0463855, "is_disabled": 0, "fusion_lat": 0.0, "lat": 38.90653783333333, "bike_id": "a33017d8f41258e8ba1df085a5b89472", "fusion_lon": 0.0}, {"rental_uris": {"ios": "https://dc.lft.to/lastmile_qr_scan", "android": "https://dc.lft.to/lastmile_qr_scan"}, "type": "electric_scooter", "name": "6131ac4f92f2838f04b71b465c302ad3", "is_reserved": 0, "lon": -77.02462766666666, "is_disabled": 0, "fusion_lat": 0.0, "lat": 38.95784166666667, "bike_id": "6131ac4f92f2838f04b71b465c302ad3", "fusion_lon": 0.0}, {"rental_uris": {"ios": "https://dc.lft.to/lastmile_qr_scan", "android": "https://dc.lft.to/lastmile_qr_scan"}, "type": "electric_scooter", "name": "513481ec28bc07923aa5c885e6521e56", "is_reserved": 0, "lon": -77.03421566666667, "is_disabled": 0, "fusion_lat": 0.0, "lat": 38.9274095, "bike_id": "513481ec28bc07923aa5c885e6521e56", "fusion_lon": 0.0}, {"rental_uris": {"ios": "https://dc.lft.to/lastmile_qr_scan", "android": "https://dc.lft.to/lastmile_qr_scan"}, "type": "electric_scooter", "name": "3f4f34d3e348e5db28cb5a7581a42b34", "is_reserved": 0, "lon": -77.04337133333334, "is_disabled": 0, "fusion_lat": 0.0, "lat": 38.907551166666664, "bike_id": "3f4f34d3e348e5db28cb5a7581a42b34", "fusion_lon": 0.0}, {"rental_uris": {"ios": "https://dc.lft.to/lastmile_qr_scan", "android": "https://dc.lft.to/lastmile_qr_scan"}, "type": "electric_scooter", "name": "4a8a75d27e7c426841bf136b32e065f5", "is_reserved": 0, "lon": -76.997582, "is_disabled": 0, "fusion_lat": 0.0, "lat": 38.88508783333333, "bike_id": "4a8a75d27e7c426841bf136b32e065f5", "fusion_lon": 0.0}, {"rental_uris": {"ios": "https://dc.lft.to/lastmile_qr_scan", "android": "https://dc.lft.to/lastmile_qr_scan"}, "type": "electric_scooter", "name": "43f81fc49ce3df8ca6fe05f926e597c3", "is_reserved": 0, "lon": -76.977231, "is_disabled": 0, "fusion_lat": 0.0, "lat": 38.88823083333333, "bike_id": "43f81fc49ce3df8ca6fe05f926e597c3", "fusion_lon": 0.0}, {"rental_uris": {"ios": "https://dc.lft.to/lastmile_qr_scan", "android": "https://dc.lft.to/lastmile_qr_scan"}, "type": "electric_scooter", "name": "71a1bba1addcafb59e5ced6583f8b7d5", "is_reserved": 0, "lon": -77.0281575, "is_disabled": 0, "fusion_lat": 0.0, "lat": 38.909194166666666, "bike_id": "71a1bba1addcafb59e5ced6583f8b7d5", "fusion_lon": 0.0}, {"rental_uris": {"ios": "https://dc.lft.to/lastmile_qr_scan", "android": "https://dc.lft.to/lastmile_qr_scan"}, "type": "electric_scooter", "name": "dc615fa649794abeebefd7099d5c135d", "is_reserved": 0, "lon": -77.03868616666666, "is_disabled": 0, "fusion_lat": 0.0, "lat": 38.915675, "bike_id": "dc615fa649794abeebefd7099d5c135d", "fusion_lon": 0.0}, {"rental_uris": {"ios": "https://dc.lft.to/lastmile_qr_scan", "android": "https://dc.lft.to/lastmile_qr_scan"}, "type": "electric_scooter", "name": "adf7bde350b5dcd1be0dba6c114311a3", "is_reserved": 0, "lon": -77.034721, "is_disabled": 0, "fusion_lat": 0.0, "lat": 38.902821833333334, "bike_id": "adf7bde350b5dcd1be0dba6c114311a3", "fusion_lon": 0.0}, {"rental_uris": {"ios": "https://dc.lft.to/lastmile_qr_scan", "android": "https://dc.lft.to/lastmile_qr_scan"}, "type": "electric_scooter", "name": "2fbb559ca6e7a4d59e2fcecea467e1b2", "is_reserved": 0, "lon": -77.04286216666667, "is_disabled": 0, "fusion_lat": 0.0, "lat": 38.906572833333335, "bike_id": "2fbb559ca6e7a4d59e2fcecea467e1b2", "fusion_lon": 0.0}, {"rental_uris": {"ios": "https://dc.lft.to/lastmile_qr_scan", "android": "https://dc.lft.to/lastmile_qr_scan"}, "type": "electric_scooter", "name": "70218285e0cf9bd9d43dfb0e9a0aa549", "is_reserved": 0, "lon": -77.06531166666667, "is_disabled": 0, "fusion_lat": 0.0, "lat": 38.91113633333333, "bike_id": "70218285e0cf9bd9d43dfb0e9a0aa549", "fusion_lon": 0.0}, {"rental_uris": {"ios": "https://dc.lft.to/lastmile_qr_scan", "android": "https://dc.lft.to/lastmile_qr_scan"}, "type": "electric_scooter", "name": "ac3be2eb29e4349ab3ce24d47ff5124e", "is_reserved": 0, "lon": -77.040977, "is_disabled": 0, "fusion_lat": 0.0, "lat": 38.92526433333333, "bike_id": "ac3be2eb29e4349ab3ce24d47ff5124e", "fusion_lon": 0.0}, {"rental_uris": {"ios": "https://dc.lft.to/lastmile_qr_scan", "android": "https://dc.lft.to/lastmile_qr_scan"}, "type": "electric_bike", "name": "cea48def11c1b1a6e88a8fd9ec3b8d39", "is_reserved": 0, "lon": -76.96156633333334, "is_disabled": 0, "fusion_lat": 0.0, "lat": 38.856185333333336, "bike_id": "cea48def11c1b1a6e88a8fd9ec3b8d39", "fusion_lon": 0.0}, {"rental_uris": {"ios": "https://dc.lft.to/lastmile_qr_scan", "android": "https://dc.lft.to/lastmile_qr_scan"}, "type": "electric_scooter", "name": "0075d4294a8101de3fc3cbdefd2e7516", "is_reserved": 0, "lon": -77.04343333333334, "is_disabled": 0, "fusion_lat": 0.0, "lat": 38.92228766666667, "bike_id": "0075d4294a8101de3fc3cbdefd2e7516", "fusion_lon": 0.0}, {"rental_uris": {"ios": "https://dc.lft.to/lastmile_qr_scan", "android": "https://dc.lft.to/lastmile_qr_scan"}, "type": "electric_scooter", "name": "79fe533ecf76c7b7d7e25b4e0c8000bd", "is_reserved": 0, "lon": -77.06169716666666, "is_disabled": 0, "fusion_lat": 0.0, "lat": 38.90253216666667, "bike_id": "79fe533ecf76c7b7d7e25b4e0c8000bd", "fusion_lon": 0.0}, {"rental_uris": {"ios": "https://dc.lft.to/lastmile_qr_scan", "android": "https://dc.lft.to/lastmile_qr_scan"}, "type": "electric_bike", "name": "99dfc1402e1fe44f555ca3cfd0fbe0ec", "is_reserved": 0, "lon": -76.96262166666666, "is_disabled": 0, "fusion_lat": 0.0, "lat": 38.88247766666667, "bike_id": "99dfc1402e1fe44f555ca3cfd0fbe0ec", "fusion_lon": 0.0}, {"rental_uris": {"ios": "https://dc.lft.to/lastmile_qr_scan", "android": "https://dc.lft.to/lastmile_qr_scan"}, "type": "electric_scooter", "name": "1074016c603d229e20fba6c924d0fdd6", "is_reserved": 0, "lon": -77.012374, "is_disabled": 0, "fusion_lat": 0.0, "lat": 38.9158415, "bike_id": "1074016c603d229e20fba6c924d0fdd6", "fusion_lon": 0.0}, {"rental_uris": {"ios": "https://dc.lft.to/lastmile_qr_scan", "android": "https://dc.lft.to/lastmile_qr_scan"}, "type": "electric_scooter", "name": "4d6b8ffe90c8574bce1236743acda8f7", "is_reserved": 0, "lon": -77.023382, "is_disabled": 0, "fusion_lat": 0.0, "lat": 38.9293525, "bike_id": "4d6b8ffe90c8574bce1236743acda8f7", "fusion_lon": 0.0}, {"rental_uris": {"ios": "https://dc.lft.to/lastmile_qr_scan", "android": "https://dc.lft.to/lastmile_qr_scan"}, "type": "electric_scooter", "name": "acf335ae4e8087e04191aafb967db524", "is_reserved": 0, "lon": -77.01892466666666, "is_disabled": 0, "fusion_lat": 0.0, "lat": 38.897506666666665, "bike_id": "acf335ae4e8087e04191aafb967db524", "fusion_lon": 0.0}, {"rental_uris": {"ios": "https://dc.lft.to/lastmile_qr_scan", "android": "https://dc.lft.to/lastmile_qr_scan"}, "type": "electric_scooter", "name": "dd6ba31ec494f7d7c180afa437d207c7", "is_reserved": 0, "lon": -77.03661916666667, "is_disabled": 0, "fusion_lat": 0.0, "lat": 38.92389566666667, "bike_id": "dd6ba31ec494f7d7c180afa437d207c7", "fusion_lon": 0.0}, {"rental_uris": {"ios": "https://dc.lft.to/lastmile_qr_scan", "android": "https://dc.lft.to/lastmile_qr_scan"}, "type": "electric_scooter", "name": "6cc1924d13d3d1f59e6cfdc68bafb885", "is_reserved": 0, "lon": -77.0512605, "is_disabled": 0, "fusion_lat": 0.0, "lat": 38.92349816666667, "bike_id": "6cc1924d13d3d1f59e6cfdc68bafb885", "fusion_lon": 0.0}, {"rental_uris": {"ios": "https://dc.lft.to/lastmile_qr_scan", "android": "https://dc.lft.to/lastmile_qr_scan"}, "type": "electric_scooter", "name": "92b134148bb7ef74a8fd3870f16fb210", "is_reserved": 0, "lon": -77.03050233333333, "is_disabled": 0, "fusion_lat": 0.0, "lat": 38.90721683333334, "bike_id": "92b134148bb7ef74a8fd3870f16fb210", "fusion_lon": 0.0}, {"rental_uris": {"ios": "https://dc.lft.to/lastmile_qr_scan", "android": "https://dc.lft.to/lastmile_qr_scan"}, "type": "electric_bike", "name": "2afea6b546d9e1928fb51dc126f489d1", "is_reserved": 0, "lon": -77.03230266666667, "is_disabled": 0, "fusion_lat": 0.0, "lat": 38.961618333333334, "bike_id": "2afea6b546d9e1928fb51dc126f489d1", "fusion_lon": 0.0}, {"rental_uris": {"ios": "https://dc.lft.to/lastmile_qr_scan", "android": "https://dc.lft.to/lastmile_qr_scan"}, "type": "electric_scooter", "name": "50c1deabb98a05f63cdb8ff01b07e03f", "is_reserved": 0, "lon": -77.05817016666667, "is_disabled": 0, "fusion_lat": 0.0, "lat": 38.935179833333336, "bike_id": "50c1deabb98a05f63cdb8ff01b07e03f", "fusion_lon": 0.0}, {"rental_uris": {"ios": "https://dc.lft.to/lastmile_qr_scan", "android": "https://dc.lft.to/lastmile_qr_scan"}, "type": "electric_bike", "name": "82a07f37d14b62e67c4df86f71ad4157", "is_reserved": 0, "lon": -77.00771683333333, "is_disabled": 0, "fusion_lat": 0.0, "lat": 38.981317, "bike_id": "82a07f37d14b62e67c4df86f71ad4157", "fusion_lon": 0.0}, {"rental_uris": {"ios": "https://dc.lft.to/lastmile_qr_scan", "android": "https://dc.lft.to/lastmile_qr_scan"}, "type": "electric_scooter", "name": "cf2191f68f7339d4f0f209c9cb9ab4a8", "is_reserved": 0, "lon": -77.032819, "is_disabled": 0, "fusion_lat": 0.0, "lat": 38.9199745, "bike_id": "cf2191f68f7339d4f0f209c9cb9ab4a8", "fusion_lon": 0.0}, {"rental_uris": {"ios": "https://dc.lft.to/lastmile_qr_scan", "android": "https://dc.lft.to/lastmile_qr_scan"}, "type": "electric_scooter", "name": "37ac58d39945439848c2bc6979f87fb2", "is_reserved": 0, "lon": -77.03392116666667, "is_disabled": 0, "fusion_lat": 0.0, "lat": 38.89978966666666, "bike_id": "37ac58d39945439848c2bc6979f87fb2", "fusion_lon": 0.0}, {"rental_uris": {"ios": "https://dc.lft.to/lastmile_qr_scan", "android": "https://dc.lft.to/lastmile_qr_scan"}, "type": "electric_scooter", "name": "d3a6071f2a5b13bb567c9fb3f25896f2", "is_reserved": 0, "lon": -76.98334966666667, "is_disabled": 0, "fusion_lat": 0.0, "lat": 38.90089916666667, "bike_id": "d3a6071f2a5b13bb567c9fb3f25896f2", "fusion_lon": 0.0}, {"rental_uris": {"ios": "https://dc.lft.to/lastmile_qr_scan", "android": "https://dc.lft.to/lastmile_qr_scan"}, "type": "electric_scooter", "name": "70029c53650575fb66d07abcbb36e96b", "is_reserved": 0, "lon": -77.0316455, "is_disabled": 0, "fusion_lat": 0.0, "lat": 38.959379, "bike_id": "70029c53650575fb66d07abcbb36e96b", "fusion_lon": 0.0}, {"rental_uris": {"ios": "https://dc.lft.to/lastmile_qr_scan", "android": "https://dc.lft.to/lastmile_qr_scan"}, "type": "electric_scooter", "name": "b1c01a5d619e0f8c760ad2bb0e9bf620", "is_reserved": 0, "lon": -77.03297866666666, "is_disabled": 0, "fusion_lat": 0.0, "lat": 38.917161, "bike_id": "b1c01a5d619e0f8c760ad2bb0e9bf620", "fusion_lon": 0.0}, {"rental_uris": {"ios": "https://dc.lft.to/lastmile_qr_scan", "android": "https://dc.lft.to/lastmile_qr_scan"}, "type": "electric_scooter", "name": "2f8b980485a72d2d271c9d1f5e50e262", "is_reserved": 0, "lon": -77.0480285, "is_disabled": 0, "fusion_lat": 0.0, "lat": 38.89959983333333, "bike_id": "2f8b980485a72d2d271c9d1f5e50e262", "fusion_lon": 0.0}, {"rental_uris": {"ios": "https://dc.lft.to/lastmile_qr_scan", "android": "https://dc.lft.to/lastmile_qr_scan"}, "type": "electric_scooter", "name": "c1ecc6191bbe440779124f3416375d49", "is_reserved": 0, "lon": -77.04385566666667, "is_disabled": 0, "fusion_lat": 0.0, "lat": 38.934257833333334, "bike_id": "c1ecc6191bbe440779124f3416375d49", "fusion_lon": 0.0}, {"rental_uris": {"ios": "https://dc.lft.to/lastmile_qr_scan", "android": "https://dc.lft.to/lastmile_qr_scan"}, "type": "electric_scooter", "name": "ab75f3d7ad2036c6400d79b46ab72c6a", "is_reserved": 0, "lon": -76.99073916666667, "is_disabled": 0, "fusion_lat": 0.0, "lat": 38.9041635, "bike_id": "ab75f3d7ad2036c6400d79b46ab72c6a", "fusion_lon": 0.0}, {"rental_uris": {"ios": "https://dc.lft.to/lastmile_qr_scan", "android": "https://dc.lft.to/lastmile_qr_scan"}, "type": "electric_bike", "name": "66f2fe6968c6c98828fe8c498ce7a4a4", "is_reserved": 0, "lon": -77.00156283333334, "is_disabled": 0, "fusion_lat": 0.0, "lat": 38.9416355, "bike_id": "66f2fe6968c6c98828fe8c498ce7a4a4", "fusion_lon": 0.0}, {"rental_uris": {"ios": "https://dc.lft.to/lastmile_qr_scan", "android": "https://dc.lft.to/lastmile_qr_scan"}, "type": "electric_scooter", "name": "b2230ad94654f77f37414d64dbf2be14", "is_reserved": 0, "lon": -77.04015383333333, "is_disabled": 0, "fusion_lat": 0.0, "lat": 38.92250716666667, "bike_id": "b2230ad94654f77f37414d64dbf2be14", "fusion_lon": 0.0}, {"rental_uris": {"ios": "https://dc.lft.to/lastmile_qr_scan", "android": "https://dc.lft.to/lastmile_qr_scan"}, "type": "electric_scooter", "name": "c39311b7b92870e2f7bde4e93ec6815c", "is_reserved": 0, "lon": -77.00963633333333, "is_disabled": 0, "fusion_lat": 0.0, "lat": 38.874643166666665, "bike_id": "c39311b7b92870e2f7bde4e93ec6815c", "fusion_lon": 0.0}, {"rental_uris": {"ios": "https://dc.lft.to/lastmile_qr_scan", "android": "https://dc.lft.to/lastmile_qr_scan"}, "type": "electric_scooter", "name": "b83451752478a08fb8c4ddd4c272875f", "is_reserved": 0, "lon": -77.00513883333333, "is_disabled": 0, "fusion_lat": 0.0, "lat": 38.878487, "bike_id": "b83451752478a08fb8c4ddd4c272875f", "fusion_lon": 0.0}, {"rental_uris": {"ios": "https://dc.lft.to/lastmile_qr_scan", "android": "https://dc.lft.to/lastmile_qr_scan"}, "type": "electric_bike", "name": "a31f9e924965e6d2504f431b796d631c", "is_reserved": 0, "lon": -76.93330033333334, "is_disabled": 0, "fusion_lat": 0.0, "lat": 38.95154683333333, "bike_id": "a31f9e924965e6d2504f431b796d631c", "fusion_lon": 0.0}, {"rental_uris": {"ios": "https://dc.lft.to/lastmile_qr_scan", "android": "https://dc.lft.to/lastmile_qr_scan"}, "type": "electric_scooter", "name": "a935b133d9b85e0f763a7914465f1f8f", "is_reserved": 0, "lon": -77.07845066666667, "is_disabled": 0, "fusion_lat": 0.0, "lat": 38.931689166666665, "bike_id": "a935b133d9b85e0f763a7914465f1f8f", "fusion_lon": 0.0}, {"rental_uris": {"ios": "https://dc.lft.to/lastmile_qr_scan", "android": "https://dc.lft.to/lastmile_qr_scan"}, "type": "electric_bike", "name": "dc26e4151b286f1faf5b1192afaac712", "is_reserved": 0, "lon": -77.02324916666667, "is_disabled": 0, "fusion_lat": 0.0, "lat": 38.91992183333333, "bike_id": "dc26e4151b286f1faf5b1192afaac712", "fusion_lon": 0.0}, {"rental_uris": {"ios": "https://dc.lft.to/lastmile_qr_scan", "android": "https://dc.lft.to/lastmile_qr_scan"}, "type": "electric_scooter", "name": "0f999587d808a00814a3d1a32cc4f318", "is_reserved": 0, "lon": -77.0298, "is_disabled": 0, "fusion_lat": 0.0, "lat": 38.923689833333334, "bike_id": "0f999587d808a00814a3d1a32cc4f318", "fusion_lon": 0.0}, {"rental_uris": {"ios": "https://dc.lft.to/lastmile_qr_scan", "android": "https://dc.lft.to/lastmile_qr_scan"}, "type": "electric_scooter", "name": "a77dc22e1c6454d4593c1bb7cace6996", "is_reserved": 0, "lon": -77.01904733333333, "is_disabled": 0, "fusion_lat": 0.0, "lat": 38.90574383333333, "bike_id": "a77dc22e1c6454d4593c1bb7cace6996", "fusion_lon": 0.0}, {"rental_uris": {"ios": "https://dc.lft.to/lastmile_qr_scan", "android": "https://dc.lft.to/lastmile_qr_scan"}, "type": "electric_scooter", "name": "5682f4aa112f9784b777aaaf1fcc61db", "is_reserved": 0, "lon": -77.05744183333333, "is_disabled": 0, "fusion_lat": 0.0, "lat": 38.93032683333333, "bike_id": "5682f4aa112f9784b777aaaf1fcc61db", "fusion_lon": 0.0}, {"rental_uris": {"ios": "https://dc.lft.to/lastmile_qr_scan", "android": "https://dc.lft.to/lastmile_qr_scan"}, "type": "electric_bike", "name": "68ea257c75c6da27f34fc16e57dd119e", "is_reserved": 0, "lon": -77.096258, "is_disabled": 0, "fusion_lat": 0.0, "lat": 38.97439266666667, "bike_id": "68ea257c75c6da27f34fc16e57dd119e", "fusion_lon": 0.0}, {"rental_uris": {"ios": "https://dc.lft.to/lastmile_qr_scan", "android": "https://dc.lft.to/lastmile_qr_scan"}, "type": "electric_scooter", "name": "6ed3034c5c6cd680caceee083e5762ef", "is_reserved": 0, "lon": -77.038559, "is_disabled": 0, "fusion_lat": 0.0, "lat": 38.911820666666664, "bike_id": "6ed3034c5c6cd680caceee083e5762ef", "fusion_lon": 0.0}, {"rental_uris": {"ios": "https://dc.lft.to/lastmile_qr_scan", "android": "https://dc.lft.to/lastmile_qr_scan"}, "type": "electric_scooter", "name": "cada7b08041aa20a2a3b37610d7b6166", "is_reserved": 0, "lon": -77.03173166666667, "is_disabled": 0, "fusion_lat": 0.0, "lat": 38.91334716666667, "bike_id": "cada7b08041aa20a2a3b37610d7b6166", "fusion_lon": 0.0}, {"rental_uris": {"ios": "https://dc.lft.to/lastmile_qr_scan", "android": "https://dc.lft.to/lastmile_qr_scan"}, "type": "electric_scooter", "name": "3a8f9efc049d0b6cc6a3c7a7c818f502", "is_reserved": 0, "lon": -77.00349916666667, "is_disabled": 0, "fusion_lat": 0.0, "lat": 38.91772733333333, "bike_id": "3a8f9efc049d0b6cc6a3c7a7c818f502", "fusion_lon": 0.0}, {"rental_uris": {"ios": "https://dc.lft.to/lastmile_qr_scan", "android": "https://dc.lft.to/lastmile_qr_scan"}, "type": "electric_bike", "name": "09550971131810469506246f60284ccc", "is_reserved": 0, "lon": -76.96264766666667, "is_disabled": 0, "fusion_lat": 0.0, "lat": 38.96789166666667, "bike_id": "09550971131810469506246f60284ccc", "fusion_lon": 0.0}, {"rental_uris": {"ios": "https://dc.lft.to/lastmile_qr_scan", "android": "https://dc.lft.to/lastmile_qr_scan"}, "type": "electric_scooter", "name": "0da2d987f13b7c815cfc66e5984c467a", "is_reserved": 0, "lon": -76.988387, "is_disabled": 0, "fusion_lat": 0.0, "lat": 38.842991166666664, "bike_id": "0da2d987f13b7c815cfc66e5984c467a", "fusion_lon": 0.0}, {"rental_uris": {"ios": "https://dc.lft.to/lastmile_qr_scan", "android": "https://dc.lft.to/lastmile_qr_scan"}, "type": "electric_bike", "name": "852333184bfd81d63fabc88075d0b7c8", "is_reserved": 0, "lon": -76.9868565, "is_disabled": 0, "fusion_lat": 0.0, "lat": 38.94470233333333, "bike_id": "852333184bfd81d63fabc88075d0b7c8", "fusion_lon": 0.0}, {"rental_uris": {"ios": "https://dc.lft.to/lastmile_qr_scan", "android": "https://dc.lft.to/lastmile_qr_scan"}, "type": "electric_bike", "name": "6ad62fb8581b7119f25e72f615266c54", "is_reserved": 0, "lon": -77.1021565, "is_disabled": 0, "fusion_lat": 0.0, "lat": 38.919981666666665, "bike_id": "6ad62fb8581b7119f25e72f615266c54", "fusion_lon": 0.0}, {"rental_uris": {"ios": "https://dc.lft.to/lastmile_qr_scan", "android": "https://dc.lft.to/lastmile_qr_scan"}, "type": "electric_scooter", "name": "0cb4164bd3b4f9fe8f0dac4e03bba988", "is_reserved": 0, "lon": -77.0447085, "is_disabled": 0, "fusion_lat": 0.0, "lat": 38.90351116666667, "bike_id": "0cb4164bd3b4f9fe8f0dac4e03bba988", "fusion_lon": 0.0}, {"rental_uris": {"ios": "https://dc.lft.to/lastmile_qr_scan", "android": "https://dc.lft.to/lastmile_qr_scan"}, "type": "electric_bike", "name": "6c87b6dd829c40b2f8fca7401d2343e3", "is_reserved": 0, "lon": -77.03627616666667, "is_disabled": 0, "fusion_lat": 0.0, "lat": 38.97298166666667, "bike_id": "6c87b6dd829c40b2f8fca7401d2343e3", "fusion_lon": 0.0}, {"rental_uris": {"ios": "https://dc.lft.to/lastmile_qr_scan", "android": "https://dc.lft.to/lastmile_qr_scan"}, "type": "electric_scooter", "name": "1acd49baf4c6d9ac808aef5d3df1f85e", "is_reserved": 0, "lon": -76.996208, "is_disabled": 0, "fusion_lat": 0.0, "lat": 38.88979483333333, "bike_id": "1acd49baf4c6d9ac808aef5d3df1f85e", "fusion_lon": 0.0}, {"rental_uris": {"ios": "https://dc.lft.to/lastmile_qr_scan", "android": "https://dc.lft.to/lastmile_qr_scan"}, "type": "electric_scooter", "name": "800ef91ffbe8bc0ec2915a4b089da5e6", "is_reserved": 0, "lon": -77.025946, "is_disabled": 0, "fusion_lat": 0.0, "lat": 38.9582145, "bike_id": "800ef91ffbe8bc0ec2915a4b089da5e6", "fusion_lon": 0.0}, {"rental_uris": {"ios": "https://dc.lft.to/lastmile_qr_scan", "android": "https://dc.lft.to/lastmile_qr_scan"}, "type": "electric_scooter", "name": "06472fbfc2b29f124b947e0eb8972e42", "is_reserved": 0, "lon": -77.02918516666666, "is_disabled": 0, "fusion_lat": 0.0, "lat": 38.93455516666667, "bike_id": "06472fbfc2b29f124b947e0eb8972e42", "fusion_lon": 0.0}, {"rental_uris": {"ios": "https://dc.lft.to/lastmile_qr_scan", "android": "https://dc.lft.to/lastmile_qr_scan"}, "type": "electric_scooter", "name": "cdeed3134e83fdb0e6273b93491d841a", "is_reserved": 0, "lon": -77.08587483333334, "is_disabled": 0, "fusion_lat": 0.0, "lat": 38.9086985, "bike_id": "cdeed3134e83fdb0e6273b93491d841a", "fusion_lon": 0.0}, {"rental_uris": {"ios": "https://dc.lft.to/lastmile_qr_scan", "android": "https://dc.lft.to/lastmile_qr_scan"}, "type": "electric_scooter", "name": "fe44bb25d60c5bb6289542699342959c", "is_reserved": 0, "lon": -77.04827283333333, "is_disabled": 0, "fusion_lat": 0.0, "lat": 38.90046316666667, "bike_id": "fe44bb25d60c5bb6289542699342959c", "fusion_lon": 0.0}, {"rental_uris": {"ios": "https://dc.lft.to/lastmile_qr_scan", "android": "https://dc.lft.to/lastmile_qr_scan"}, "type": "electric_scooter", "name": "e3331ab7201e50cb6d6ad160757ce7d4", "is_reserved": 0, "lon": -76.98497666666667, "is_disabled": 0, "fusion_lat": 0.0, "lat": 38.920076333333334, "bike_id": "e3331ab7201e50cb6d6ad160757ce7d4", "fusion_lon": 0.0}, {"rental_uris": {"ios": "https://dc.lft.to/lastmile_qr_scan", "android": "https://dc.lft.to/lastmile_qr_scan"}, "type": "electric_scooter", "name": "d60ed753ab192fa820f638bb16f1018a", "is_reserved": 0, "lon": -77.03727233333333, "is_disabled": 0, "fusion_lat": 0.0, "lat": 38.920264833333334, "bike_id": "d60ed753ab192fa820f638bb16f1018a", "fusion_lon": 0.0}, {"rental_uris": {"ios": "https://dc.lft.to/lastmile_qr_scan", "android": "https://dc.lft.to/lastmile_qr_scan"}, "type": "electric_scooter", "name": "3101ea7354d76eab8feba43fd3b20e33", "is_reserved": 0, "lon": -76.985413, "is_disabled": 0, "fusion_lat": 0.0, "lat": 38.8584795, "bike_id": "3101ea7354d76eab8feba43fd3b20e33", "fusion_lon": 0.0}, {"rental_uris": {"ios": "https://dc.lft.to/lastmile_qr_scan", "android": "https://dc.lft.to/lastmile_qr_scan"}, "type": "electric_scooter", "name": "fce1f98a491c46a2b61572d1f2ec99d4", "is_reserved": 0, "lon": -76.9266505, "is_disabled": 0, "fusion_lat": 0.0, "lat": 38.882323, "bike_id": "fce1f98a491c46a2b61572d1f2ec99d4", "fusion_lon": 0.0}, {"rental_uris": {"ios": "https://dc.lft.to/lastmile_qr_scan", "android": "https://dc.lft.to/lastmile_qr_scan"}, "type": "electric_scooter", "name": "cf8118f285f131637edc87c17648f6e4", "is_reserved": 0, "lon": -77.03026283333334, "is_disabled": 0, "fusion_lat": 0.0, "lat": 38.8784935, "bike_id": "cf8118f285f131637edc87c17648f6e4", "fusion_lon": 0.0}, {"rental_uris": {"ios": "https://dc.lft.to/lastmile_qr_scan", "android": "https://dc.lft.to/lastmile_qr_scan"}, "type": "electric_scooter", "name": "70d9239344431b80415ae8fb168d7b8b", "is_reserved": 0, "lon": -77.01202766666667, "is_disabled": 0, "fusion_lat": 0.0, "lat": 38.89709383333334, "bike_id": "70d9239344431b80415ae8fb168d7b8b", "fusion_lon": 0.0}, {"rental_uris": {"ios": "https://dc.lft.to/lastmile_qr_scan", "android": "https://dc.lft.to/lastmile_qr_scan"}, "type": "electric_scooter", "name": "57005402130e6d62eafce1971a7af0c9", "is_reserved": 0, "lon": -77.02414533333334, "is_disabled": 0, "fusion_lat": 0.0, "lat": 38.92805466666667, "bike_id": "57005402130e6d62eafce1971a7af0c9", "fusion_lon": 0.0}, {"rental_uris": {"ios": "https://dc.lft.to/lastmile_qr_scan", "android": "https://dc.lft.to/lastmile_qr_scan"}, "type": "electric_scooter", "name": "0047eb92ac58a4499494fdfef9eca901", "is_reserved": 0, "lon": -77.00873866666667, "is_disabled": 0, "fusion_lat": 0.0, "lat": 38.91177416666667, "bike_id": "0047eb92ac58a4499494fdfef9eca901", "fusion_lon": 0.0}, {"rental_uris": {"ios": "https://dc.lft.to/lastmile_qr_scan", "android": "https://dc.lft.to/lastmile_qr_scan"}, "type": "electric_scooter", "name": "87d8801d40d604f7be2a46abe8564f6d", "is_reserved": 0, "lon": -77.04382516666666, "is_disabled": 0, "fusion_lat": 0.0, "lat": 38.89731466666667, "bike_id": "87d8801d40d604f7be2a46abe8564f6d", "fusion_lon": 0.0}, {"rental_uris": {"ios": "https://dc.lft.to/lastmile_qr_scan", "android": "https://dc.lft.to/lastmile_qr_scan"}, "type": "electric_bike", "name": "3325d67bb3f1b455a323843ff7473e8f", "is_reserved": 0, "lon": -76.98358016666667, "is_disabled": 0, "fusion_lat": 0.0, "lat": 38.914889333333335, "bike_id": "3325d67bb3f1b455a323843ff7473e8f", "fusion_lon": 0.0}, {"rental_uris": {"ios": "https://dc.lft.to/lastmile_qr_scan", "android": "https://dc.lft.to/lastmile_qr_scan"}, "type": "electric_bike", "name": "568241ea1b581916644161620fc9e5b7", "is_reserved": 0, "lon": -77.00542166666666, "is_disabled": 0, "fusion_lat": 0.0, "lat": 38.87937483333333, "bike_id": "568241ea1b581916644161620fc9e5b7", "fusion_lon": 0.0}, {"rental_uris": {"ios": "https://dc.lft.to/lastmile_qr_scan", "android": "https://dc.lft.to/lastmile_qr_scan"}, "type": "electric_bike", "name": "5324c1eb5563bfbbd1603cfcc5e795ef", "is_reserved": 0, "lon": -77.02823683333334, "is_disabled": 0, "fusion_lat": 0.0, "lat": 38.965625333333335, "bike_id": "5324c1eb5563bfbbd1603cfcc5e795ef", "fusion_lon": 0.0}, {"rental_uris": {"ios": "https://dc.lft.to/lastmile_qr_scan", "android": "https://dc.lft.to/lastmile_qr_scan"}, "type": "electric_scooter", "name": "3c6cc01dfb74dbe39518254d6f213fb3", "is_reserved": 0, "lon": -77.02966166666667, "is_disabled": 0, "fusion_lat": 0.0, "lat": 38.923108166666665, "bike_id": "3c6cc01dfb74dbe39518254d6f213fb3", "fusion_lon": 0.0}, {"rental_uris": {"ios": "https://dc.lft.to/lastmile_qr_scan", "android": "https://dc.lft.to/lastmile_qr_scan"}, "type": "electric_scooter", "name": "e0043d19d0085772d98200a25b8c3df7", "is_reserved": 0, "lon": -77.002528, "is_disabled": 0, "fusion_lat": 0.0, "lat": 38.902527, "bike_id": "e0043d19d0085772d98200a25b8c3df7", "fusion_lon": 0.0}, {"rental_uris": {"ios": "https://dc.lft.to/lastmile_qr_scan", "android": "https://dc.lft.to/lastmile_qr_scan"}, "type": "electric_scooter", "name": "acfd76968c19effb4c1b47b677927403", "is_reserved": 0, "lon": -77.02089366666667, "is_disabled": 0, "fusion_lat": 0.0, "lat": 38.929168, "bike_id": "acfd76968c19effb4c1b47b677927403", "fusion_lon": 0.0}, {"rental_uris": {"ios": "https://dc.lft.to/lastmile_qr_scan", "android": "https://dc.lft.to/lastmile_qr_scan"}, "type": "electric_scooter", "name": "f3bfd59a5c76cf15acdaf9a24758c886", "is_reserved": 0, "lon": -77.027264, "is_disabled": 0, "fusion_lat": 0.0, "lat": 38.91063966666667, "bike_id": "f3bfd59a5c76cf15acdaf9a24758c886", "fusion_lon": 0.0}, {"rental_uris": {"ios": "https://dc.lft.to/lastmile_qr_scan", "android": "https://dc.lft.to/lastmile_qr_scan"}, "type": "electric_scooter", "name": "b3fb4ae5dbce51b670f9cfa1148f9d28", "is_reserved": 0, "lon": -77.00362383333334, "is_disabled": 0, "fusion_lat": 0.0, "lat": 38.8766025, "bike_id": "b3fb4ae5dbce51b670f9cfa1148f9d28", "fusion_lon": 0.0}, {"rental_uris": {"ios": "https://dc.lft.to/lastmile_qr_scan", "android": "https://dc.lft.to/lastmile_qr_scan"}, "type": "electric_scooter", "name": "ae658ac71ae90331215f10240d6c5aa8", "is_reserved": 0, "lon": -77.06118066666667, "is_disabled": 0, "fusion_lat": 0.0, "lat": 38.90384816666667, "bike_id": "ae658ac71ae90331215f10240d6c5aa8", "fusion_lon": 0.0}, {"rental_uris": {"ios": "https://dc.lft.to/lastmile_qr_scan", "android": "https://dc.lft.to/lastmile_qr_scan"}, "type": "electric_scooter", "name": "c716c6b94eb8b4f9be3d3833d1ccd2eb", "is_reserved": 0, "lon": -77.00309933333334, "is_disabled": 0, "fusion_lat": 0.0, "lat": 38.877118833333334, "bike_id": "c716c6b94eb8b4f9be3d3833d1ccd2eb", "fusion_lon": 0.0}, {"rental_uris": {"ios": "https://dc.lft.to/lastmile_qr_scan", "android": "https://dc.lft.to/lastmile_qr_scan"}, "type": "electric_scooter", "name": "4dc7ab89ede3379365c67d93cfcef92e", "is_reserved": 0, "lon": -77.01237, "is_disabled": 0, "fusion_lat": 0.0, "lat": 38.881059, "bike_id": "4dc7ab89ede3379365c67d93cfcef92e", "fusion_lon": 0.0}, {"rental_uris": {"ios": "https://dc.lft.to/lastmile_qr_scan", "android": "https://dc.lft.to/lastmile_qr_scan"}, "type": "electric_scooter", "name": "ecf8abe920bad1387b568220c3fe20dd", "is_reserved": 0, "lon": -77.01510716666667, "is_disabled": 0, "fusion_lat": 0.0, "lat": 38.909758333333336, "bike_id": "ecf8abe920bad1387b568220c3fe20dd", "fusion_lon": 0.0}, {"rental_uris": {"ios": "https://dc.lft.to/lastmile_qr_scan", "android": "https://dc.lft.to/lastmile_qr_scan"}, "type": "electric_scooter", "name": "ef302ca9f929eb4b5874e0f439375b42", "is_reserved": 0, "lon": -77.040743, "is_disabled": 0, "fusion_lat": 0.0, "lat": 38.905452, "bike_id": "ef302ca9f929eb4b5874e0f439375b42", "fusion_lon": 0.0}, {"rental_uris": {"ios": "https://dc.lft.to/lastmile_qr_scan", "android": "https://dc.lft.to/lastmile_qr_scan"}, "type": "electric_scooter", "name": "cd61cf9ee57493bfd3dc08e0a37026a0", "is_reserved": 0, "lon": -77.01571616666666, "is_disabled": 0, "fusion_lat": 0.0, "lat": 38.8764715, "bike_id": "cd61cf9ee57493bfd3dc08e0a37026a0", "fusion_lon": 0.0}, {"rental_uris": {"ios": "https://dc.lft.to/lastmile_qr_scan", "android": "https://dc.lft.to/lastmile_qr_scan"}, "type": "electric_scooter", "name": "6ac3880cad934a3b5ce7f45ff1b34fd9", "is_reserved": 0, "lon": -77.0550985, "is_disabled": 0, "fusion_lat": 0.0, "lat": 38.928349, "bike_id": "6ac3880cad934a3b5ce7f45ff1b34fd9", "fusion_lon": 0.0}, {"rental_uris": {"ios": "https://dc.lft.to/lastmile_qr_scan", "android": "https://dc.lft.to/lastmile_qr_scan"}, "type": "electric_scooter", "name": "36d76328530728e3076c573f55421a3d", "is_reserved": 0, "lon": -77.04131366666667, "is_disabled": 0, "fusion_lat": 0.0, "lat": 38.93387766666667, "bike_id": "36d76328530728e3076c573f55421a3d", "fusion_lon": 0.0}, {"rental_uris": {"ios": "https://dc.lft.to/lastmile_qr_scan", "android": "https://dc.lft.to/lastmile_qr_scan"}, "type": "electric_bike", "name": "720a909fb5f2c0b61a571f4043bbe9bd", "is_reserved": 0, "lon": -77.09724966666667, "is_disabled": 0, "fusion_lat": 0.0, "lat": 38.807422, "bike_id": "720a909fb5f2c0b61a571f4043bbe9bd", "fusion_lon": 0.0}, {"rental_uris": {"ios": "https://dc.lft.to/lastmile_qr_scan", "android": "https://dc.lft.to/lastmile_qr_scan"}, "type": "electric_bike", "name": "2a2773f19b26487707177e3a2ad1d23f", "is_reserved": 0, "lon": -77.21667916666667, "is_disabled": 0, "fusion_lat": 0.0, "lat": 38.895080666666665, "bike_id": "2a2773f19b26487707177e3a2ad1d23f", "fusion_lon": 0.0}, {"rental_uris": {"ios": "https://dc.lft.to/lastmile_qr_scan", "android": "https://dc.lft.to/lastmile_qr_scan"}, "type": "electric_bike", "name": "4bb20333ffc4ad3fc7e22e6c7d739e9f", "is_reserved": 0, "lon": -77.032454, "is_disabled": 0, "fusion_lat": 0.0, "lat": 38.961578, "bike_id": "4bb20333ffc4ad3fc7e22e6c7d739e9f", "fusion_lon": 0.0}, {"rental_uris": {"ios": "https://dc.lft.to/lastmile_qr_scan", "android": "https://dc.lft.to/lastmile_qr_scan"}, "type": "electric_scooter", "name": "c96e45df13cff4f8bcf73a924edb40ca", "is_reserved": 0, "lon": -77.02602633333333, "is_disabled": 0, "fusion_lat": 0.0, "lat": 38.9460825, "bike_id": "c96e45df13cff4f8bcf73a924edb40ca", "fusion_lon": 0.0}, {"rental_uris": {"ios": "https://dc.lft.to/lastmile_qr_scan", "android": "https://dc.lft.to/lastmile_qr_scan"}, "type": "electric_bike", "name": "7d4a08ab43b213b5575540020a24c88a", "is_reserved": 0, "lon": -77.065308, "is_disabled": 0, "fusion_lat": 0.0, "lat": 38.992359666666665, "bike_id": "7d4a08ab43b213b5575540020a24c88a", "fusion_lon": 0.0}, {"rental_uris": {"ios": "https://dc.lft.to/lastmile_qr_scan", "android": "https://dc.lft.to/lastmile_qr_scan"},