{"data": {"bikes": [{"name": "3ddfcc4043f5694cb826f9cb7e0a0eaa", "fusion_lat": 0.0, "type": "electric_scooter", "lat": 38.90959866666667, "is_reserved": 0, "is_disabled": 0, "fusion_lon": 0.0, "bike_id": "3ddfcc4043f5694cb826f9cb7e0a0eaa", "lon": -77.02680766666667, "rental_uris": {"ios": "https://dc.lft.to/lastmile_qr_scan", "android": "https://dc.lft.to/lastmile_qr_scan"}}, {"name": "bc2e9117c9ed36c31a1125b4f0b4ac3a", "fusion_lat": 0.0, "type": "electric_scooter", "lat": 38.93092766666667, "is_reserved": 0, "is_disabled": 0, "fusion_lon": 0.0, "bike_id": "bc2e9117c9ed36c31a1125b4f0b4ac3a", "lon": -77.02393933333333, "rental_uris": {"ios": "https://dc.lft.to/lastmile_qr_scan", "android": "https://dc.lft.to/lastmile_qr_scan"}}, {"name": "8d68bf7d0493e9d77f2780bcce8a4ace", "fusion_lat": 0.0, "type": "electric_scooter", "lat": 38.90734033333333, "is_reserved": 0, "is_disabled": 0, "fusion_lon": 0.0, "bike_id": "8d68bf7d0493e9d77f2780bcce8a4ace", "lon": -77.01136, "rental_uris": {"ios": "https://dc.lft.to/lastmile_qr_scan", "android": "https://dc.lft.to/lastmile_qr_scan"}}, {"name": "264f46783b4810bfa59d7f179dd0193f", "fusion_lat": 0.0, "type": "electric_scooter", "lat": 38.89537683333333, "is_reserved": 0, "is_disabled": 0, "fusion_lon": 0.0, "bike_id": "264f46783b4810bfa59d7f179dd0193f", "lon": -77.02437566666667, "rental_uris": {"ios": "https://dc.lft.to/lastmile_qr_scan", "android": "https://dc.lft.to/lastmile_qr_scan"}}, {"name": "e6c22f58e81d4157fd27c8e41c4c3819", "fusion_lat": 0.0, "type": "electric_bike", "lat": 38.993612, "is_reserved": 0, "is_disabled": 0, "fusion_lon": 0.0, "bike_id": "e6c22f58e81d4157fd27c8e41c4c3819", "lon": -77.02677383333334, "rental_uris": {"ios": "https://dc.lft.to/lastmile_qr_scan", "android": "https://dc.lft.to/lastmile_qr_scan"}}, {"name": "4a2b4800fa7e99e7f64e0c6783cacf15", "fusion_lat": 0.0, "type": "electric_scooter", "lat": 38.896347666666664, "is_reserved": 0, "is_disabled": 0, "fusion_lon": 0.0, "bike_id": "4a2b4800fa7e99e7f64e0c6783cacf15", "lon": -77.05070733333334, "rental_uris": {"ios": "https://dc.lft.to/lastmile_qr_scan", "android": "https://dc.lft.to/lastmile_qr_scan"}}, {"name": "064f50eb256679fee05b101e54c0412b", "fusion_lat": 0.0, "type": "electric_scooter", "lat": 38.90506633333333, "is_reserved": 0, "is_disabled": 0, "fusion_lon": 0.0, "bike_id": "064f50eb256679fee05b101e54c0412b", "lon": -77.062232, "rental_uris": {"ios": "https://dc.lft.to/lastmile_qr_scan", "android": "https://dc.lft.to/lastmile_qr_scan"}}, {"name": "cf1ca6ec0afc1eebb07fcc4feb8d7090", "fusion_lat": 0.0, "type": "electric_scooter", "lat": 38.9389695, "is_reserved": 0, "is_disabled": 0, "fusion_lon": 0.0, "bike_id": "cf1ca6ec0afc1eebb07fcc4feb8d7090", "lon": -77.032835, "rental_uris": {"ios": "https://dc.lft.to/lastmile_qr_scan", "android": "https://dc.lft.to/lastmile_qr_scan"}}, {"name": "9d90ac042b9ab0170902462a7aee597a", "fusion_lat": 0.0, "type": "electric_scooter", "lat": 38.9095865, "is_reserved": 0, "is_disabled": 0, "fusion_lon": 0.0, "bike_id": "9d90ac042b9ab0170902462a7aee597a", "lon": -77.0386165, "rental_uris": {"ios": "https://dc.lft.to/lastmile_qr_scan", "android": "https://dc.lft.to/lastmile_qr_scan"}}, {"name": "80f3e022ebbe73f2caad155543fa8b5d", "fusion_lat": 0.0, "type": "electric_scooter", "lat": 38.9118475, "is_reserved": 0, "is_disabled": 0, "fusion_lon": 0.0, "bike_id": "80f3e022ebbe73f2caad155543fa8b5d", "lon": -77.04151566666667, "rental_uris": {"ios": "https://dc.lft.to/lastmile_qr_scan", "android": "https://dc.lft.to/lastmile_qr_scan"}}, {"name": "7bf353752acfcad1983683f314ca30aa", "fusion_lat": 0.0, "type": "electric_scooter", "lat": 38.944636, "is_reserved": 0, "is_disabled": 0, "fusion_lon": 0.0, "bike_id": "7bf353752acfcad1983683f314ca30aa", "lon": -77.0065735, "rental_uris": {"ios": "https://dc.lft.to/lastmile_qr_scan", "android": "https://dc.lft.to/lastmile_qr_scan"}}, {"name": "175dc25e3e8ad4d556b07de656393809", "fusion_lat": 0.0, "type": "electric_scooter", "lat": 38.90376366666667, "is_reserved": 0, "is_disabled": 0, "fusion_lon": 0.0, "bike_id": "175dc25e3e8ad4d556b07de656393809", "lon": -77.04278266666667, "rental_uris": {"ios": "https://dc.lft.to/lastmile_qr_scan", "android": "https://dc.lft.to/lastmile_qr_scan"}}, {"name": "7ecb0cd3850a997d9a1b1463cf22fdb2", "fusion_lat": 0.0, "type": "electric_scooter", "lat": 38.9356585, "is_reserved": 0, "is_disabled": 0, "fusion_lon": 0.0, "bike_id": "7ecb0cd3850a997d9a1b1463cf22fdb2", "lon": -77.02120183333334, "rental_uris": {"ios": "https://dc.lft.to/lastmile_qr_scan", "android": "https://dc.lft.to/lastmile_qr_scan"}}, {"name": "6e5b253863da8e2fc399bdce5ad23573", "fusion_lat": 0.0, "type": "electric_scooter", "lat": 38.902432166666664, "is_reserved": 0, "is_disabled": 0, "fusion_lon": 0.0, "bike_id": "6e5b253863da8e2fc399bdce5ad23573", "lon": -76.99932766666667, "rental_uris": {"ios": "https://dc.lft.to/lastmile_qr_scan", "android": "https://dc.lft.to/lastmile_qr_scan"}}, {"name": "158bd7cea771f2f35121968cec1717c7", "fusion_lat": 0.0, "type": "electric_scooter", "lat": 38.9094055, "is_reserved": 0, "is_disabled": 0, "fusion_lon": 0.0, "bike_id": "158bd7cea771f2f35121968cec1717c7", "lon": -77.0467485, "rental_uris": {"ios": "https://dc.lft.to/lastmile_qr_scan", "android": "https://dc.lft.to/lastmile_qr_scan"}}, {"name": "e0684b54640b2c3a4690bc0f3b75f3eb", "fusion_lat": 0.0, "type": "electric_scooter", "lat": 38.9357115, "is_reserved": 0, "is_disabled": 0, "fusion_lon": 0.0, "bike_id": "e0684b54640b2c3a4690bc0f3b75f3eb", "lon": -77.02134483333333, "rental_uris": {"ios": "https://dc.lft.to/lastmile_qr_scan", "android": "https://dc.lft.to/lastmile_qr_scan"}}, {"name": "25cc36e8f5e349247d85be87745b3665", "fusion_lat": 0.0, "type": "electric_scooter", "lat": 38.89884416666666, "is_reserved": 0, "is_disabled": 0, "fusion_lon": 0.0, "bike_id": "25cc36e8f5e349247d85be87745b3665", "lon": -77.033392, "rental_uris": {"ios": "https://dc.lft.to/lastmile_qr_scan", "android": "https://dc.lft.to/lastmile_qr_scan"}}, {"name": "2f049e82b24a1187ffc95b46e59b1a62", "fusion_lat": 0.0, "type": "electric_bike", "lat": 38.89773916666667, "is_reserved": 0, "is_disabled": 0, "fusion_lon": 0.0, "bike_id": "2f049e82b24a1187ffc95b46e59b1a62", "lon": -76.90444, "rental_uris": {"ios": "https://dc.lft.to/lastmile_qr_scan", "android": "https://dc.lft.to/lastmile_qr_scan"}}, {"name": "b215f32dedab5118495a43e44188a4fe", "fusion_lat": 0.0, "type": "electric_scooter", "lat": 38.92374183333333, "is_reserved": 0, "is_disabled": 0, "fusion_lon": 0.0, "bike_id": "b215f32dedab5118495a43e44188a4fe", "lon": -77.019149, "rental_uris": {"ios": "https://dc.lft.to/lastmile_qr_scan", "android": "https://dc.lft.to/lastmile_qr_scan"}}, {"name": "e356f8ba3aa846be4b80fa96cf1a0c4d", "fusion_lat": 0.0, "type": "electric_scooter", "lat": 38.88710366666667, "is_reserved": 0, "is_disabled": 0, "fusion_lon": 0.0, "bike_id": "e356f8ba3aa846be4b80fa96cf1a0c4d", "lon": -77.01774883333333, "rental_uris": {"ios": "https://dc.lft.to/lastmile_qr_scan", "android": "https://dc.lft.to/lastmile_qr_scan"}}, {"name": "ca5d6058b8e783d8781daa62315bee37", "fusion_lat": 0.0, "type": "electric_scooter", "lat": 38.93301566666667, "is_reserved": 0, "is_disabled": 0, "fusion_lon": 0.0, "bike_id": "ca5d6058b8e783d8781daa62315bee37", "lon": -77.03768283333333, "rental_uris": {"ios": "https://dc.lft.to/lastmile_qr_scan", "android": "https://dc.lft.to/lastmile_qr_scan"}}, {"name": "6d9586a942d5fac8819456130807040c", "fusion_lat": 0.0, "type": "electric_scooter", "lat": 38.9006895, "is_reserved": 0, "is_disabled": 0, "fusion_lon": 0.0, "bike_id": "6d9586a942d5fac8819456130807040c", "lon": -77.0489425, "rental_uris": {"ios": "https://dc.lft.to/lastmile_qr_scan", "android": "https://dc.lft.to/lastmile_qr_scan"}}, {"name": "2dfb922eb1934718067525e11faebee1", "fusion_lat": 0.0, "type": "electric_scooter", "lat": 38.93603266666667, "is_reserved": 0, "is_disabled": 0, "fusion_lon": 0.0, "bike_id": "2dfb922eb1934718067525e11faebee1", "lon": -77.0587265, "rental_uris": {"ios": "https://dc.lft.to/lastmile_qr_scan", "android": "https://dc.lft.to/lastmile_qr_scan"}}, {"name": "420fa4f826cbde33f380b07e9684c6ff", "fusion_lat": 0.0, "type": "electric_scooter", "lat": 38.87964566666667, "is_reserved": 0, "is_disabled": 0, "fusion_lon": 0.0, "bike_id": "420fa4f826cbde33f380b07e9684c6ff", "lon": -77.01009333333333, "rental_uris": {"ios": "https://dc.lft.to/lastmile_qr_scan", "android": "https://dc.lft.to/lastmile_qr_scan"}}, {"name": "9525d44cc5aec487cd4ce7cbc84dc78f", "fusion_lat": 0.0, "type": "electric_scooter", "lat": 38.974969, "is_reserved": 0, "is_disabled": 0, "fusion_lon": 0.0, "bike_id": "9525d44cc5aec487cd4ce7cbc84dc78f", "lon": -77.01696883333334, "rental_uris": {"ios": "https://dc.lft.to/lastmile_qr_scan", "android": "https://dc.lft.to/lastmile_qr_scan"}}, {"name": "cd5d0a487627dcf609b35b18c02b85a3", "fusion_lat": 0.0, "type": "electric_scooter", "lat": 38.910057333333334, "is_reserved": 0, "is_disabled": 0, "fusion_lon": 0.0, "bike_id": "cd5d0a487627dcf609b35b18c02b85a3", "lon": -77.04422983333333, "rental_uris": {"ios": "https://dc.lft.to/lastmile_qr_scan", "android": "https://dc.lft.to/lastmile_qr_scan"}}, {"name": "a6f87874727f09f0c852bd334fa8b193", "fusion_lat": 0.0, "type": "electric_scooter", "lat": 38.943685333333335, "is_reserved": 0, "is_disabled": 0, "fusion_lon": 0.0, "bike_id": "a6f87874727f09f0c852bd334fa8b193", "lon": -77.06112633333333, "rental_uris": {"ios": "https://dc.lft.to/lastmile_qr_scan", "android": "https://dc.lft.to/lastmile_qr_scan"}}, {"name": "4c01e5624d85b713656bcb3e43af42c2", "fusion_lat": 0.0, "type": "electric_bike", "lat": 39.03344833333333, "is_reserved": 0, "is_disabled": 0, "fusion_lon": 0.0, "bike_id": "4c01e5624d85b713656bcb3e43af42c2", "lon": -77.049069, "rental_uris": {"ios": "https://dc.lft.to/lastmile_qr_scan", "android": "https://dc.lft.to/lastmile_qr_scan"}}, {"name": "8f645f42d15038f154ba6c29d7efa8bf", "fusion_lat": 0.0, "type": "electric_scooter", "lat": 38.89238266666667, "is_reserved": 0, "is_disabled": 0, "fusion_lon": 0.0, "bike_id": "8f645f42d15038f154ba6c29d7efa8bf", "lon": -77.03182466666667, "rental_uris": {"ios": "https://dc.lft.to/lastmile_qr_scan", "android": "https://dc.lft.to/lastmile_qr_scan"}}, {"name": "d0f2a13e563210cadf2a110637ca4b79", "fusion_lat": 0.0, "type": "electric_scooter", "lat": 38.8973355, "is_reserved": 0, "is_disabled": 0, "fusion_lon": 0.0, "bike_id": "d0f2a13e563210cadf2a110637ca4b79", "lon": -77.043473, "rental_uris": {"ios": "https://dc.lft.to/lastmile_qr_scan", "android": "https://dc.lft.to/lastmile_qr_scan"}}, {"name": "7e013ea8dd335cec99049cd957d75ca9", "fusion_lat": 0.0, "type": "electric_scooter", "lat": 38.924865, "is_reserved": 0, "is_disabled": 0, "fusion_lon": 0.0, "bike_id": "7e013ea8dd335cec99049cd957d75ca9", "lon": -77.02714216666666, "rental_uris": {"ios": "https://dc.lft.to/lastmile_qr_scan", "android": "https://dc.lft.to/lastmile_qr_scan"}}, {"name": "6a85c7bf217a1184a2d4461e48ede43b", "fusion_lat": 0.0, "type": "electric_scooter", "lat": 38.921202666666666, "is_reserved": 0, "is_disabled": 0, "fusion_lon": 0.0, "bike_id": "6a85c7bf217a1184a2d4461e48ede43b", "lon": -77.02201616666666, "rental_uris": {"ios": "https://dc.lft.to/lastmile_qr_scan", "android": "https://dc.lft.to/lastmile_qr_scan"}}, {"name": "397fe33276fef6509af5265e2f3fe30c", "fusion_lat": 0.0, "type": "electric_bike", "lat": 38.8434475, "is_reserved": 0, "is_disabled": 0, "fusion_lon": 0.0, "bike_id": "397fe33276fef6509af5265e2f3fe30c", "lon": -77.063379, "rental_uris": {"ios": "https://dc.lft.to/lastmile_qr_scan", "android": "https://dc.lft.to/lastmile_qr_scan"}}, {"name": "1542fd2c18a0a104eb66193fa19a1451", "fusion_lat": 0.0, "type": "electric_scooter", "lat": 38.9037855, "is_reserved": 0, "is_disabled": 0, "fusion_lon": 0.0, "bike_id": "1542fd2c18a0a104eb66193fa19a1451", "lon": -77.02725566666666, "rental_uris": {"ios": "https://dc.lft.to/lastmile_qr_scan", "android": "https://dc.lft.to/lastmile_qr_scan"}}, {"name": "725e656ee21fbf9fe72723546cd007ea", "fusion_lat": 0.0, "type": "electric_scooter", "lat": 38.90982666666667, "is_reserved": 0, "is_disabled": 0, "fusion_lon": 0.0, "bike_id": "725e656ee21fbf9fe72723546cd007ea", "lon": -77.04876216666666, "rental_uris": {"ios": "https://dc.lft.to/lastmile_qr_scan", "android": "https://dc.lft.to/lastmile_qr_scan"}}, {"name": "a38fa6f9f889875e980fa52c91ac6f87", "fusion_lat": 0.0, "type": "electric_scooter", "lat": 38.877172, "is_reserved": 0, "is_disabled": 0, "fusion_lon": 0.0, "bike_id": "a38fa6f9f889875e980fa52c91ac6f87", "lon": -77.017555, "rental_uris": {"ios": "https://dc.lft.to/lastmile_qr_scan", "android": "https://dc.lft.to/lastmile_qr_scan"}}, {"name": "81f77644aaee73e8a3c8884efc02b4d5", "fusion_lat": 0.0, "type": "electric_scooter", "lat": 38.91596716666667, "is_reserved": 0, "is_disabled": 0, "fusion_lon": 0.0, "bike_id": "81f77644aaee73e8a3c8884efc02b4d5", "lon": -77.04360016666666, "rental_uris": {"ios": "https://dc.lft.to/lastmile_qr_scan", "android": "https://dc.lft.to/lastmile_qr_scan"}}, {"name": "4e8097031d28ec9a2965e41508d5528a", "fusion_lat": 0.0, "type": "electric_scooter", "lat": 38.9252395, "is_reserved": 0, "is_disabled": 0, "fusion_lon": 0.0, "bike_id": "4e8097031d28ec9a2965e41508d5528a", "lon": -77.0555465, "rental_uris": {"ios": "https://dc.lft.to/lastmile_qr_scan", "android": "https://dc.lft.to/lastmile_qr_scan"}}, {"name": "4850f4fff61bb705e037d818297391a5", "fusion_lat": 0.0, "type": "electric_scooter", "lat": 38.93138066666667, "is_reserved": 0, "is_disabled": 0, "fusion_lon": 0.0, "bike_id": "4850f4fff61bb705e037d818297391a5", "lon": -77.04056466666667, "rental_uris": {"ios": "https://dc.lft.to/lastmile_qr_scan", "android": "https://dc.lft.to/lastmile_qr_scan"}}, {"name": "933d02b2944b1c1b13f6720119bb1078", "fusion_lat": 0.0, "type": "electric_scooter", "lat": 38.857103, "is_reserved": 0, "is_disabled": 0, "fusion_lon": 0.0, "bike_id": "933d02b2944b1c1b13f6720119bb1078", "lon": -76.98137966666667, "rental_uris": {"ios": "https://dc.lft.to/lastmile_qr_scan", "android": "https://dc.lft.to/lastmile_qr_scan"}}, {"name": "51d9374b5577932f7799808b7af28b21", "fusion_lat": 0.0, "type": "electric_scooter", "lat": 38.8782805, "is_reserved": 0, "is_disabled": 0, "fusion_lon": 0.0, "bike_id": "51d9374b5577932f7799808b7af28b21", "lon": -77.00868266666667, "rental_uris": {"ios": "https://dc.lft.to/lastmile_qr_scan", "android": "https://dc.lft.to/lastmile_qr_scan"}}, {"name": "6aa695c6a20bd3b8bfc8108eda8dece4", "fusion_lat": 0.0, "type": "electric_scooter", "lat": 38.908125, "is_reserved": 0, "is_disabled": 0, "fusion_lon": 0.0, "bike_id": "6aa695c6a20bd3b8bfc8108eda8dece4", "lon": -77.0432625, "rental_uris": {"ios": "https://dc.lft.to/lastmile_qr_scan", "android": "https://dc.lft.to/lastmile_qr_scan"}}, {"name": "55f7b834b3043cf6e32b68d3b589442a", "fusion_lat": 0.0, "type": "electric_scooter", "lat": 38.887437, "is_reserved": 0, "is_disabled": 0, "fusion_lon": 0.0, "bike_id": "55f7b834b3043cf6e32b68d3b589442a", "lon": -77.02129066666667, "rental_uris": {"ios": "https://dc.lft.to/lastmile_qr_scan", "android": "https://dc.lft.to/lastmile_qr_scan"}}, {"name": "fc9e94df690dbc6e88056ffe70dacdc7", "fusion_lat": 0.0, "type": "electric_bike", "lat": 38.838085166666666, "is_reserved": 0, "is_disabled": 0, "fusion_lon": 0.0, "bike_id": "fc9e94df690dbc6e88056ffe70dacdc7", "lon": -77.0952425, "rental_uris": {"ios": "https://dc.lft.to/lastmile_qr_scan", "android": "https://dc.lft.to/lastmile_qr_scan"}}, {"name": "76c829e51a4834f15a7d68b0fd26cff0", "fusion_lat": 0.0, "type": "electric_scooter", "lat": 38.907837666666666, "is_reserved": 0, "is_disabled": 0, "fusion_lon": 0.0, "bike_id": "76c829e51a4834f15a7d68b0fd26cff0", "lon": -77.0386135, "rental_uris": {"ios": "https://dc.lft.to/lastmile_qr_scan", "android": "https://dc.lft.to/lastmile_qr_scan"}}, {"name": "169b806b66173d8707f7776d4f094b2a", "fusion_lat": 0.0, "type": "electric_scooter", "lat": 38.93972633333333, "is_reserved": 0, "is_disabled": 0, "fusion_lon": 0.0, "bike_id": "169b806b66173d8707f7776d4f094b2a", "lon": -77.03570883333333, "rental_uris": {"ios": "https://dc.lft.to/lastmile_qr_scan", "android": "https://dc.lft.to/lastmile_qr_scan"}}, {"name": "ac35fb6b1abb83b85915ad2b854136d9", "fusion_lat": 0.0, "type": "electric_scooter", "lat": 38.911174833333334, "is_reserved": 0, "is_disabled": 0, "fusion_lon": 0.0, "bike_id": "ac35fb6b1abb83b85915ad2b854136d9", "lon": -77.02931116666667, "rental_uris": {"ios": "https://dc.lft.to/lastmile_qr_scan", "android": "https://dc.lft.to/lastmile_qr_scan"}}, {"name": "b184aa8570051ad800020c636da4654e", "fusion_lat": 0.0, "type": "electric_scooter", "lat": 38.90531416666666, "is_reserved": 0, "is_disabled": 0, "fusion_lon": 0.0, "bike_id": "b184aa8570051ad800020c636da4654e", "lon": -77.0576365, "rental_uris": {"ios": "https://dc.lft.to/lastmile_qr_scan", "android": "https://dc.lft.to/lastmile_qr_scan"}}, {"name": "33ba2bdbd134da12651882fee037d03e", "fusion_lat": 0.0, "type": "electric_scooter", "lat": 38.91924016666667, "is_reserved": 0, "is_disabled": 0, "fusion_lon": 0.0, "bike_id": "33ba2bdbd134da12651882fee037d03e", "lon": -77.03425116666666, "rental_uris": {"ios": "https://dc.lft.to/lastmile_qr_scan", "android": "https://dc.lft.to/lastmile_qr_scan"}}, {"name": "da717f7009422e717d081fdd0e92c47d", "fusion_lat": 0.0, "type": "electric_scooter", "lat": 38.89402033333333, "is_reserved": 0, "is_disabled": 0, "fusion_lon": 0.0, "bike_id": "da717f7009422e717d081fdd0e92c47d", "lon": -76.9480585, "rental_uris": {"ios": "https://dc.lft.to/lastmile_qr_scan", "android": "https://dc.lft.to/lastmile_qr_scan"}}, {"name": "db048a53e22b5d862dc6fdf1dec79631", "fusion_lat": 0.0, "type": "electric_scooter", "lat": 38.87628216666667, "is_reserved": 0, "is_disabled": 0, "fusion_lon": 0.0, "bike_id": "db048a53e22b5d862dc6fdf1dec79631", "lon": -77.00433133333334, "rental_uris": {"ios": "https://dc.lft.to/lastmile_qr_scan", "android": "https://dc.lft.to/lastmile_qr_scan"}}, {"name": "889e76cc64ef68ffacaa2c893f4dc624", "fusion_lat": 0.0, "type": "electric_scooter", "lat": 38.911320833333335, "is_reserved": 0, "is_disabled": 0, "fusion_lon": 0.0, "bike_id": "889e76cc64ef68ffacaa2c893f4dc624", "lon": -77.03205133333333, "rental_uris": {"ios": "https://dc.lft.to/lastmile_qr_scan", "android": "https://dc.lft.to/lastmile_qr_scan"}}, {"name": "adb39dc39aff78259d73081d26b82635", "fusion_lat": 0.0, "type": "electric_scooter", "lat": 38.898758, "is_reserved": 0, "is_disabled": 0, "fusion_lon": 0.0, "bike_id": "adb39dc39aff78259d73081d26b82635", "lon": -76.931593, "rental_uris": {"ios": "https://dc.lft.to/lastmile_qr_scan", "android": "https://dc.lft.to/lastmile_qr_scan"}}, {"name": "13e2f005d813ed978078f658e4494733", "fusion_lat": 0.0, "type": "electric_scooter", "lat": 38.90832616666667, "is_reserved": 0, "is_disabled": 0, "fusion_lon": 0.0, "bike_id": "13e2f005d813ed978078f658e4494733", "lon": -76.99697666666667, "rental_uris": {"ios": "https://dc.lft.to/lastmile_qr_scan", "android": "https://dc.lft.to/lastmile_qr_scan"}}, {"name": "f6877a66bfcfc99a3bb0ab6a6cab3911", "fusion_lat": 0.0, "type": "electric_scooter", "lat": 38.884288833333336, "is_reserved": 0, "is_disabled": 0, "fusion_lon": 0.0, "bike_id": "f6877a66bfcfc99a3bb0ab6a6cab3911", "lon": -76.95759433333333, "rental_uris": {"ios": "https://dc.lft.to/lastmile_qr_scan", "android": "https://dc.lft.to/lastmile_qr_scan"}}, {"name": "2d55e77257027cd31977313cd480fd24", "fusion_lat": 0.0, "type": "electric_scooter", "lat": 38.92418633333333, "is_reserved": 0, "is_disabled": 0, "fusion_lon": 0.0, "bike_id": "2d55e77257027cd31977313cd480fd24", "lon": -77.01945166666667, "rental_uris": {"ios": "https://dc.lft.to/lastmile_qr_scan", "android": "https://dc.lft.to/lastmile_qr_scan"}}, {"name": "44f2d41013ddbaf21bbf4e5c820ecf6e", "fusion_lat": 0.0, "type": "electric_scooter", "lat": 38.8966855, "is_reserved": 0, "is_disabled": 0, "fusion_lon": 0.0, "bike_id": "44f2d41013ddbaf21bbf4e5c820ecf6e", "lon": -77.049159, "rental_uris": {"ios": "https://dc.lft.to/lastmile_qr_scan", "android": "https://dc.lft.to/lastmile_qr_scan"}}, {"name": "43f46373775a84986fd5ab8f880acc45", "fusion_lat": 0.0, "type": "electric_scooter", "lat": 38.93361433333333, "is_reserved": 0, "is_disabled": 0, "fusion_lon": 0.0, "bike_id": "43f46373775a84986fd5ab8f880acc45", "lon": -77.05728333333333, "rental_uris": {"ios": "https://dc.lft.to/lastmile_qr_scan", "android": "https://dc.lft.to/lastmile_qr_scan"}}, {"name": "adaf5287b66ca2c347c99c85b106e6c2", "fusion_lat": 0.0, "type": "electric_scooter", "lat": 38.904604666666664, "is_reserved": 0, "is_disabled": 0, "fusion_lon": 0.0, "bike_id": "adaf5287b66ca2c347c99c85b106e6c2", "lon": -77.03267033333333, "rental_uris": {"ios": "https://dc.lft.to/lastmile_qr_scan", "android": "https://dc.lft.to/lastmile_qr_scan"}}, {"name": "c87afc0064a0ee3dc5d8b45374031738", "fusion_lat": 0.0, "type": "electric_scooter", "lat": 38.90502583333333, "is_reserved": 0, "is_disabled": 0, "fusion_lon": 0.0, "bike_id": "c87afc0064a0ee3dc5d8b45374031738", "lon": -77.041646, "rental_uris": {"ios": "https://dc.lft.to/lastmile_qr_scan", "android": "https://dc.lft.to/lastmile_qr_scan"}}, {"name": "3bc70e82a1d8890a7d754e3737580243", "fusion_lat": 0.0, "type": "electric_scooter", "lat": 38.928985833333336, "is_reserved": 0, "is_disabled": 0, "fusion_lon": 0.0, "bike_id": "3bc70e82a1d8890a7d754e3737580243", "lon": -77.05939083333334, "rental_uris": {"ios": "https://dc.lft.to/lastmile_qr_scan", "android": "https://dc.lft.to/lastmile_qr_scan"}}, {"name": "81290269d4e5ea4f49b02f42e9e252d4", "fusion_lat": 0.0, "type": "electric_scooter", "lat": 38.928772333333335, "is_reserved": 0, "is_disabled": 0, "fusion_lon": 0.0, "bike_id": "81290269d4e5ea4f49b02f42e9e252d4", "lon": -77.04130166666667, "rental_uris": {"ios": "https://dc.lft.to/lastmile_qr_scan", "android": "https://dc.lft.to/lastmile_qr_scan"}}, {"name": "f2125a0d12622c43f103379354976b06", "fusion_lat": 0.0, "type": "electric_bike", "lat": 38.9548195, "is_reserved": 0, "is_disabled": 0, "fusion_lon": 0.0, "bike_id": "f2125a0d12622c43f103379354976b06", "lon": -77.0823285, "rental_uris": {"ios": "https://dc.lft.to/lastmile_qr_scan", "android": "https://dc.lft.to/lastmile_qr_scan"}}, {"name": "b04a5df17063f817e372ea9fcddf0405", "fusion_lat": 0.0, "type": "electric_scooter", "lat": 38.9330175, "is_reserved": 0, "is_disabled": 0, "fusion_lon": 0.0, "bike_id": "b04a5df17063f817e372ea9fcddf0405", "lon": -77.02471483333333, "rental_uris": {"ios": "https://dc.lft.to/lastmile_qr_scan", "android": "https://dc.lft.to/lastmile_qr_scan"}}, {"name": "b8b932d43571db19c6302fd05bb07487", "fusion_lat": 0.0, "type": "electric_scooter", "lat": 38.911, "is_reserved": 0, "is_disabled": 0, "fusion_lon": 0.0, "bike_id": "b8b932d43571db19c6302fd05bb07487", "lon": -77.0348165, "rental_uris": {"ios": "https://dc.lft.to/lastmile_qr_scan", "android": "https://dc.lft.to/lastmile_qr_scan"}}, {"name": "ab9c66e1099a15a6ab522723ff06a2a3", "fusion_lat": 0.0, "type": "electric_scooter", "lat": 38.917298333333335, "is_reserved": 0, "is_disabled": 0, "fusion_lon": 0.0, "bike_id": "ab9c66e1099a15a6ab522723ff06a2a3", "lon": -77.03844433333333, "rental_uris": {"ios": "https://dc.lft.to/lastmile_qr_scan", "android": "https://dc.lft.to/lastmile_qr_scan"}}, {"name": "19e7ed0c96c6aadfea97bd2fa4444aa3", "fusion_lat": 0.0, "type": "electric_bike", "lat": 38.9738295, "is_reserved": 0, "is_disabled": 0, "fusion_lon": 0.0, "bike_id": "19e7ed0c96c6aadfea97bd2fa4444aa3", "lon": -77.06477133333334, "rental_uris": {"ios": "https://dc.lft.to/lastmile_qr_scan", "android": "https://dc.lft.to/lastmile_qr_scan"}}, {"name": "66fa68a3ff93ffc038e1c739da1101f9", "fusion_lat": 0.0, "type": "electric_scooter", "lat": 38.898418666666664, "is_reserved": 0, "is_disabled": 0, "fusion_lon": 0.0, "bike_id": "66fa68a3ff93ffc038e1c739da1101f9", "lon": -76.99271166666666, "rental_uris": {"ios": "https://dc.lft.to/lastmile_qr_scan", "android": "https://dc.lft.to/lastmile_qr_scan"}}, {"name": "db09259c88ef209e5fb81ce7a36d83bd", "fusion_lat": 0.0, "type": "electric_scooter", "lat": 38.922293, "is_reserved": 0, "is_disabled": 0, "fusion_lon": 0.0, "bike_id": "db09259c88ef209e5fb81ce7a36d83bd", "lon": -77.0471415, "rental_uris": {"ios": "https://dc.lft.to/lastmile_qr_scan", "android": "https://dc.lft.to/lastmile_qr_scan"}}, {"name": "9a0ff3ac03403f4513763dfdd46c8291", "fusion_lat": 0.0, "type": "electric_scooter", "lat": 38.96112, "is_reserved": 0, "is_disabled": 0, "fusion_lon": 0.0, "bike_id": "9a0ff3ac03403f4513763dfdd46c8291", "lon": -77.02815516666666, "rental_uris": {"ios": "https://dc.lft.to/lastmile_qr_scan", "android": "https://dc.lft.to/lastmile_qr_scan"}}, {"name": "935e4d510503f191add96a66fed64f37", "fusion_lat": 0.0, "type": "electric_bike", "lat": 38.999091, "is_reserved": 0, "is_disabled": 0, "fusion_lon": 0.0, "bike_id": "935e4d510503f191add96a66fed64f37", "lon": -77.04621866666666, "rental_uris": {"ios": "https://dc.lft.to/lastmile_qr_scan", "android": "https://dc.lft.to/lastmile_qr_scan"}}, {"name": "a1e3a9c728bb54692d66d3acbd7c131a", "fusion_lat": 0.0, "type": "electric_bike", "lat": 38.84571783333333, "is_reserved": 0, "is_disabled": 0, "fusion_lon": 0.0, "bike_id": "a1e3a9c728bb54692d66d3acbd7c131a", "lon": -77.09623116666667, "rental_uris": {"ios": "https://dc.lft.to/lastmile_qr_scan", "android": "https://dc.lft.to/lastmile_qr_scan"}}, {"name": "b6d277193554fb2c565eb4826fbaa8cc", "fusion_lat": 0.0, "type": "electric_scooter", "lat": 38.93704733333333, "is_reserved": 0, "is_disabled": 0, "fusion_lon": 0.0, "bike_id": "b6d277193554fb2c565eb4826fbaa8cc", "lon": -77.0609815, "rental_uris": {"ios": "https://dc.lft.to/lastmile_qr_scan", "android": "https://dc.lft.to/lastmile_qr_scan"}}, {"name": "e29a636f43e90e7312a5937998a001d0", "fusion_lat": 0.0, "type": "electric_scooter", "lat": 38.9073785, "is_reserved": 0, "is_disabled": 0, "fusion_lon": 0.0, "bike_id": "e29a636f43e90e7312a5937998a001d0", "lon": -77.0346135, "rental_uris": {"ios": "https://dc.lft.to/lastmile_qr_scan", "android": "https://dc.lft.to/lastmile_qr_scan"}}, {"name": "b9ebc22e51575edb11d9ca418349eac3", "fusion_lat": 0.0, "type": "electric_scooter", "lat": 38.921126, "is_reserved": 0, "is_disabled": 0, "fusion_lon": 0.0, "bike_id": "b9ebc22e51575edb11d9ca418349eac3", "lon": -77.0220625, "rental_uris": {"ios": "https://dc.lft.to/lastmile_qr_scan", "android": "https://dc.lft.to/lastmile_qr_scan"}}, {"name": "85bd0dd372ada48d2ac3b310436e066d", "fusion_lat": 0.0, "type": "electric_scooter", "lat": 38.877182, "is_reserved": 0, "is_disabled": 0, "fusion_lon": 0.0, "bike_id": "85bd0dd372ada48d2ac3b310436e066d", "lon": -77.00615, "rental_uris": {"ios": "https://dc.lft.to/lastmile_qr_scan", "android": "https://dc.lft.to/lastmile_qr_scan"}}, {"name": "b9c959c0d546f049dc0d55bb09a644b7", "fusion_lat": 0.0, "type": "electric_scooter", "lat": 38.90961716666666, "is_reserved": 0, "is_disabled": 0, "fusion_lon": 0.0, "bike_id": "b9c959c0d546f049dc0d55bb09a644b7", "lon": -77.02376066666666, "rental_uris": {"ios": "https://dc.lft.to/lastmile_qr_scan", "android": "https://dc.lft.to/lastmile_qr_scan"}}, {"name": "f21faa5c1e0f92805c430012b7045992", "fusion_lat": 0.0, "type": "electric_scooter", "lat": 38.914905, "is_reserved": 0, "is_disabled": 0, "fusion_lon": 0.0, "bike_id": "f21faa5c1e0f92805c430012b7045992", "lon": -77.0449575, "rental_uris": {"ios": "https://dc.lft.to/lastmile_qr_scan", "android": "https://dc.lft.to/lastmile_qr_scan"}}, {"name": "e4a5a85f45d1c09c92aace484b482f6f", "fusion_lat": 0.0, "type": "electric_scooter", "lat": 38.89451783333333, "is_reserved": 0, "is_disabled": 0, "fusion_lon": 0.0, "bike_id": "e4a5a85f45d1c09c92aace484b482f6f", "lon": -77.01923316666667, "rental_uris": {"ios": "https://dc.lft.to/lastmile_qr_scan", "android": "https://dc.lft.to/lastmile_qr_scan"}}, {"name": "4c4f40f03b1e18c076ec7a027c86f1c8", "fusion_lat": 0.0, "type": "electric_bike", "lat": 38.8383045, "is_reserved": 0, "is_disabled": 0, "fusion_lon": 0.0, "bike_id": "4c4f40f03b1e18c076ec7a027c86f1c8", "lon": -76.99681416666667, "rental_uris": {"ios": "https://dc.lft.to/lastmile_qr_scan", "android": "https://dc.lft.to/lastmile_qr_scan"}}, {"name": "146b78df8b67f9ef2920de7b513f7ea1", "fusion_lat": 0.0, "type": "electric_scooter", "lat": 38.90775216666667, "is_reserved": 0, "is_disabled": 0, "fusion_lon": 0.0, "bike_id": "146b78df8b67f9ef2920de7b513f7ea1", "lon": -77.0716505, "rental_uris": {"ios": "https://dc.lft.to/lastmile_qr_scan", "android": "https://dc.lft.to/lastmile_qr_scan"}}, {"name": "1deb7d4371cd483bf476d641cbc56d29", "fusion_lat": 0.0, "type": "electric_bike", "lat": 38.89646666666667, "is_reserved": 0, "is_disabled": 0, "fusion_lon": 0.0, "bike_id": "1deb7d4371cd483bf476d641cbc56d29", "lon": -77.08641, "rental_uris": {"ios": "https://dc.lft.to/lastmile_qr_scan", "android": "https://dc.lft.to/lastmile_qr_scan"}}, {"name": "9f63b26c9196ca564e2f0bad961cc2b7", "fusion_lat": 0.0, "type": "electric_scooter", "lat": 38.89739483333334, "is_reserved": 0, "is_disabled": 0, "fusion_lon": 0.0, "bike_id": "9f63b26c9196ca564e2f0bad961cc2b7", "lon": -76.93852166666667, "rental_uris": {"ios": "https://dc.lft.to/lastmile_qr_scan", "android": "https://dc.lft.to/lastmile_qr_scan"}}, {"name": "ca0a720b23768be6fdb3ef3979b4ed5f", "fusion_lat": 0.0, "type": "electric_scooter", "lat": 38.896248666666665, "is_reserved": 0, "is_disabled": 0, "fusion_lon": 0.0, "bike_id": "ca0a720b23768be6fdb3ef3979b4ed5f", "lon": -77.05664216666666, "rental_uris": {"ios": "https://dc.lft.to/lastmile_qr_scan", "android": "https://dc.lft.to/lastmile_qr_scan"}}, {"name": "11ef2bb7e8d6e6222faf71b7a0220101", "fusion_lat": 0.0, "type": "electric_scooter", "lat": 38.93784933333333, "is_reserved": 0, "is_disabled": 0, "fusion_lon": 0.0, "bike_id": "11ef2bb7e8d6e6222faf71b7a0220101", "lon": -77.06000233333333, "rental_uris": {"ios": "https://dc.lft.to/lastmile_qr_scan", "android": "https://dc.lft.to/lastmile_qr_scan"}}, {"name": "f6d364db055077f0e9f4dfa0f2f790e1", "fusion_lat": 0.0, "type": "electric_scooter", "lat": 38.8868365, "is_reserved": 0, "is_disabled": 0, "fusion_lon": 0.0, "bike_id": "f6d364db055077f0e9f4dfa0f2f790e1", "lon": -76.95759916666667, "rental_uris": {"ios": "https://dc.lft.to/lastmile_qr_scan", "android": "https://dc.lft.to/lastmile_qr_scan"}}, {"name": "1065c40aa8f6fbee8acfedcd888be6cf", "fusion_lat": 0.0, "type": "electric_scooter", "lat": 38.885751666666664, "is_reserved": 0, "is_disabled": 0, "fusion_lon": 0.0, "bike_id": "1065c40aa8f6fbee8acfedcd888be6cf", "lon": -76.996224, "rental_uris": {"ios": "https://dc.lft.to/lastmile_qr_scan", "android": "https://dc.lft.to/lastmile_qr_scan"}}, {"name": "0ac906458581f184101b72f9564405fe", "fusion_lat": 0.0, "type": "electric_scooter", "lat": 38.911097, "is_reserved": 0, "is_disabled": 0, "fusion_lon": 0.0, "bike_id": "0ac906458581f184101b72f9564405fe", "lon": -77.03148933333334, "rental_uris": {"ios": "https://dc.lft.to/lastmile_qr_scan", "android": "https://dc.lft.to/lastmile_qr_scan"}}, {"name": "cca85a5f68d9b30b01259913731bcf47", "fusion_lat": 0.0, "type": "electric_scooter", "lat": 38.895353666666665, "is_reserved": 0, "is_disabled": 0, "fusion_lon": 0.0, "bike_id": "cca85a5f68d9b30b01259913731bcf47", "lon": -77.02564, "rental_uris": {"ios": "https://dc.lft.to/lastmile_qr_scan", "android": "https://dc.lft.to/lastmile_qr_scan"}}, {"name": "9e173bbc38080064d9335c7a5fbd0bdb", "fusion_lat": 0.0, "type": "electric_scooter", "lat": 38.8584745, "is_reserved": 0, "is_disabled": 0, "fusion_lon": 0.0, "bike_id": "9e173bbc38080064d9335c7a5fbd0bdb", "lon": -76.95884, "rental_uris": {"ios": "https://dc.lft.to/lastmile_qr_scan", "android": "https://dc.lft.to/lastmile_qr_scan"}}, {"name": "6af1ed1355c53d7291fe0abbb13becbe", "fusion_lat": 0.0, "type": "electric_scooter", "lat": 38.92162483333333, "is_reserved": 0, "is_disabled": 0, "fusion_lon": 0.0, "bike_id": "6af1ed1355c53d7291fe0abbb13becbe", "lon": -77.04233033333334, "rental_uris": {"ios": "https://dc.lft.to/lastmile_qr_scan", "android": "https://dc.lft.to/lastmile_qr_scan"}}, {"name": "e3370edcfeea1357773d96370d83a5aa", "fusion_lat": 0.0, "type": "electric_scooter", "lat": 38.91098216666666, "is_reserved": 0, "is_disabled": 0, "fusion_lon": 0.0, "bike_id": "e3370edcfeea1357773d96370d83a5aa", "lon": -77.0105805, "rental_uris": {"ios": "https://dc.lft.to/lastmile_qr_scan", "android": "https://dc.lft.to/lastmile_qr_scan"}}, {"name": "04d7158259876e2c2eae1f48817f014a", "fusion_lat": 0.0, "type": "electric_scooter", "lat": 38.911915, "is_reserved": 0, "is_disabled": 0, "fusion_lon": 0.0, "bike_id": "04d7158259876e2c2eae1f48817f014a", "lon": -77.0072845, "rental_uris": {"ios": "https://dc.lft.to/lastmile_qr_scan", "android": "https://dc.lft.to/lastmile_qr_scan"}}, {"name": "1776e2ea9f42fd87a7c59af1c8c94a23", "fusion_lat": 0.0, "type": "electric_scooter", "lat": 38.925427, "is_reserved": 0, "is_disabled": 0, "fusion_lon": 0.0, "bike_id": "1776e2ea9f42fd87a7c59af1c8c94a23", "lon": -77.0326165, "rental_uris": {"ios": "https://dc.lft.to/lastmile_qr_scan", "android": "https://dc.lft.to/lastmile_qr_scan"}}, {"name": "f120ce739ef1f5ac89e0320c49ca4d4c", "fusion_lat": 0.0, "type": "electric_scooter", "lat": 38.93106816666667, "is_reserved": 0, "is_disabled": 0, "fusion_lon": 0.0, "bike_id": "f120ce739ef1f5ac89e0320c49ca4d4c", "lon": -77.03841883333334, "rental_uris": {"ios": "https://dc.lft.to/lastmile_qr_scan", "android": "https://dc.lft.to/lastmile_qr_scan"}}, {"name": "326e4b4a367063c0d0d3b542220e6be4", "fusion_lat": 0.0, "type": "electric_scooter", "lat": 38.939388666666666, "is_reserved": 0, "is_disabled": 0, "fusion_lon": 0.0, "bike_id": "326e4b4a367063c0d0d3b542220e6be4", "lon": -77.03624883333333, "rental_uris": {"ios": "https://dc.lft.to/lastmile_qr_scan", "android": "https://dc.lft.to/lastmile_qr_scan"}}, {"name": "d12ee8b21f264708dc81302973303ae2", "fusion_lat": 0.0, "type": "electric_scooter", "lat": 38.912474833333334, "is_reserved": 0, "is_disabled": 0, "fusion_lon": 0.0, "bike_id": "d12ee8b21f264708dc81302973303ae2", "lon": -77.03646016666667, "rental_uris": {"ios": "https://dc.lft.to/lastmile_qr_scan", "android": "https://dc.lft.to/lastmile_qr_scan"}}, {"name": "63b8e0660b8466de5ac5e3220fc979d5", "fusion_lat": 0.0, "type": "electric_scooter", "lat": 38.90252066666667, "is_reserved": 0, "is_disabled": 0, "fusion_lon": 0.0, "bike_id": "63b8e0660b8466de5ac5e3220fc979d5", "lon": -77.01553716666666, "rental_uris": {"ios": "https://dc.lft.to/lastmile_qr_scan", "android": "https://dc.lft.to/lastmile_qr_scan"}}, {"name": "3620a525a0696162f7d203dc9fdbb90a", "fusion_lat": 0.0, "type": "electric_scooter", "lat": 38.911046666666664, "is_reserved": 0, "is_disabled": 0, "fusion_lon": 0.0, "bike_id": "3620a525a0696162f7d203dc9fdbb90a", "lon": -77.0383255, "rental_uris": {"ios": "https://dc.lft.to/lastmile_qr_scan", "android": "https://dc.lft.to/lastmile_qr_scan"}}, {"name": "5535d0060400a3bbd07438df74e1ba85", "fusion_lat": 0.0, "type": "electric_scooter", "lat": 38.90515766666667, "is_reserved": 0, "is_disabled": 0, "fusion_lon": 0.0, "bike_id": "5535d0060400a3bbd07438df74e1ba85", "lon": -77.069391, "rental_uris": {"ios": "https://dc.lft.to/lastmile_qr_scan", "android": "https://dc.lft.to/lastmile_qr_scan"}}, {"name": "3bdcaf3a92ba9d40c4bfdcb920e6cd78", "fusion_lat": 0.0, "type": "electric_scooter", "lat": 38.90275, "is_reserved": 0, "is_disabled": 0, "fusion_lon": 0.0, "bike_id": "3bdcaf3a92ba9d40c4bfdcb920e6cd78", "lon": -77.06264933333334, "rental_uris": {"ios": "https://dc.lft.to/lastmile_qr_scan", "android": "https://dc.lft.to/lastmile_qr_scan"}}, {"name": "69b53ad2f06efd2bdc020de26423aaca", "fusion_lat": 0.0, "type": "electric_scooter", "lat": 38.87692333333333, "is_reserved": 0, "is_disabled": 0, "fusion_lon": 0.0, "bike_id": "69b53ad2f06efd2bdc020de26423aaca", "lon": -77.00742266666667, "rental_uris": {"ios": "https://dc.lft.to/lastmile_qr_scan", "android": "https://dc.lft.to/lastmile_qr_scan"}}, {"name": "3493073fdf80b84b489def4475d3167c", "fusion_lat": 0.0, "type": "electric_scooter", "lat": 38.89569383333333, "is_reserved": 0, "is_disabled": 0, "fusion_lon": 0.0, "bike_id": "3493073fdf80b84b489def4475d3167c", "lon": -77.01124216666666, "rental_uris": {"ios": "https://dc.lft.to/lastmile_qr_scan", "android": "https://dc.lft.to/lastmile_qr_scan"}}, {"name": "8654448120175c0fc8c8d4c5a005a825", "fusion_lat": 0.0, "type": "electric_scooter", "lat": 38.89242466666666, "is_reserved": 0, "is_disabled": 0, "fusion_lon": 0.0, "bike_id": "8654448120175c0fc8c8d4c5a005a825", "lon": -77.0318335, "rental_uris": {"ios": "https://dc.lft.to/lastmile_qr_scan", "android": "https://dc.lft.to/lastmile_qr_scan"}}, {"name": "d59078b8ab9257d34475aca9ba6ab32a", "fusion_lat": 0.0, "type": "electric_scooter", "lat": 38.9074515, "is_reserved": 0, "is_disabled": 0, "fusion_lon": 0.0, "bike_id": "d59078b8ab9257d34475aca9ba6ab32a", "lon": -77.04674883333334, "rental_uris": {"ios": "https://dc.lft.to/lastmile_qr_scan", "android": "https://dc.lft.to/lastmile_qr_scan"}}, {"name": "c3d1d6b5c04ff5fbeb6d3997bace9f2f", "fusion_lat": 0.0, "type": "electric_bike", "lat": 39.038808333333336, "is_reserved": 0, "is_disabled": 0, "fusion_lon": 0.0, "bike_id": "c3d1d6b5c04ff5fbeb6d3997bace9f2f", "lon": -76.99042466666667, "rental_uris": {"ios": "https://dc.lft.to/lastmile_qr_scan", "android": "https://dc.lft.to/lastmile_qr_scan"}}, {"name": "c0d2ef434b10545de69b8c0639efd91b", "fusion_lat": 0.0, "type": "electric_scooter", "lat": 38.90059633333333, "is_reserved": 0, "is_disabled": 0, "fusion_lon": 0.0, "bike_id": "c0d2ef434b10545de69b8c0639efd91b", "lon": -77.04502266666667, "rental_uris": {"ios": "https://dc.lft.to/lastmile_qr_scan", "android": "https://dc.lft.to/lastmile_qr_scan"}}, {"name": "678d79b4552e2a43d2333020482102e6", "fusion_lat": 0.0, "type": "electric_scooter", "lat": 38.918727833333335, "is_reserved": 0, "is_disabled": 0, "fusion_lon": 0.0, "bike_id": "678d79b4552e2a43d2333020482102e6", "lon": -77.04140783333334, "rental_uris": {"ios": "https://dc.lft.to/lastmile_qr_scan", "android": "https://dc.lft.to/lastmile_qr_scan"}}, {"name": "18e8f81c37cb61c4830dd82a09b101b7", "fusion_lat": 0.0, "type": "electric_scooter", "lat": 38.914117833333336, "is_reserved": 0, "is_disabled": 0, "fusion_lon": 0.0, "bike_id": "18e8f81c37cb61c4830dd82a09b101b7", "lon": -77.02647166666667, "rental_uris": {"ios": "https://dc.lft.to/lastmile_qr_scan", "android": "https://dc.lft.to/lastmile_qr_scan"}}, {"name": "a329deaf1f616eb8c171c6b7026409f5", "fusion_lat": 0.0, "type": "electric_scooter", "lat": 38.92047566666667, "is_reserved": 0, "is_disabled": 0, "fusion_lon": 0.0, "bike_id": "a329deaf1f616eb8c171c6b7026409f5", "lon": -77.03440133333334, "rental_uris": {"ios": "https://dc.lft.to/lastmile_qr_scan", "android": "https://dc.lft.to/lastmile_qr_scan"}}, {"name": "57de32ecbe0cc42a111af48cfed51bd6", "fusion_lat": 0.0, "type": "electric_scooter", "lat": 38.905756833333335, "is_reserved": 0, "is_disabled": 0, "fusion_lon": 0.0, "bike_id": "57de32ecbe0cc42a111af48cfed51bd6", "lon": -77.02211583333333, "rental_uris": {"ios": "https://dc.lft.to/lastmile_qr_scan", "android": "https://dc.lft.to/lastmile_qr_scan"}}, {"name": "b480f4d7a0e1c409cc271c21c7ec94c8", "fusion_lat": 0.0, "type": "electric_scooter", "lat": 38.905747, "is_reserved": 0, "is_disabled": 0, "fusion_lon": 0.0, "bike_id": "b480f4d7a0e1c409cc271c21c7ec94c8", "lon": -77.02213316666666, "rental_uris": {"ios": "https://dc.lft.to/lastmile_qr_scan", "android": "https://dc.lft.to/lastmile_qr_scan"}}, {"name": "b81e9519b1cc300d44384c1d3f644bbe", "fusion_lat": 0.0, "type": "electric_scooter", "lat": 38.90312766666667, "is_reserved": 0, "is_disabled": 0, "fusion_lon": 0.0, "bike_id": "b81e9519b1cc300d44384c1d3f644bbe", "lon": -77.04982133333333, "rental_uris": {"ios": "https://dc.lft.to/lastmile_qr_scan", "android": "https://dc.lft.to/lastmile_qr_scan"}}, {"name": "7b99984261df94feeff45af0f190c987", "fusion_lat": 0.0, "type": "electric_scooter", "lat": 38.939145333333336, "is_reserved": 0, "is_disabled": 0, "fusion_lon": 0.0, "bike_id": "7b99984261df94feeff45af0f190c987", "lon": -77.06047133333334, "rental_uris": {"ios": "https://dc.lft.to/lastmile_qr_scan", "android": "https://dc.lft.to/lastmile_qr_scan"}}, {"name": "748fb04f9c36a34264f615ba69f13e90", "fusion_lat": 0.0, "type": "electric_scooter", "lat": 38.88437, "is_reserved": 0, "is_disabled": 0, "fusion_lon": 0.0, "bike_id": "748fb04f9c36a34264f615ba69f13e90", "lon": -77.02961566666667, "rental_uris": {"ios": "https://dc.lft.to/lastmile_qr_scan", "android": "https://dc.lft.to/lastmile_qr_scan"}}, {"name": "13afb95edf8b88ea5093f4c5c5e52698", "fusion_lat": 0.0, "type": "electric_scooter", "lat": 38.92309216666666, "is_reserved": 0, "is_disabled": 0, "fusion_lon": 0.0, "bike_id": "13afb95edf8b88ea5093f4c5c5e52698", "lon": -77.0297825, "rental_uris": {"ios": "https://dc.lft.to/lastmile_qr_scan", "android": "https://dc.lft.to/lastmile_qr_scan"}}, {"name": "75876c895d93739e3bdc33b4565ddcbe", "fusion_lat": 0.0, "type": "electric_bike", "lat": 39.03045483333333, "is_reserved": 0, "is_disabled": 0, "fusion_lon": 0.0, "bike_id": "75876c895d93739e3bdc33b4565ddcbe", "lon": -77.094856, "rental_uris": {"ios": "https://dc.lft.to/lastmile_qr_scan", "android": "https://dc.lft.to/lastmile_qr_scan"}}, {"name": "85491903c0cc9f460977bb8add448711", "fusion_lat": 0.0, "type": "electric_scooter", "lat": 38.948343666666666, "is_reserved": 0, "is_disabled": 0, "fusion_lon": 0.0, "bike_id": "85491903c0cc9f460977bb8add448711", "lon": -77.02585166666667, "rental_uris": {"ios": "https://dc.lft.to/lastmile_qr_scan", "android": "https://dc.lft.to/lastmile_qr_scan"}}, {"name": "a6160bc77d97a2751f60b44998b6835d", "fusion_lat": 0.0, "type": "electric_scooter", "lat": 38.963839166666666, "is_reserved": 0, "is_disabled": 0, "fusion_lon": 0.0, "bike_id": "a6160bc77d97a2751f60b44998b6835d", "lon": -77.03508616666667, "rental_uris": {"ios": "https://dc.lft.to/lastmile_qr_scan", "android": "https://dc.lft.to/lastmile_qr_scan"}}, {"name": "02ed963dbe6d77d84bf37281a4907220", "fusion_lat": 0.0, "type": "electric_scooter", "lat": 38.942996666666666, "is_reserved": 0, "is_disabled": 0, "fusion_lon": 0.0, "bike_id": "02ed963dbe6d77d84bf37281a4907220", "lon": -77.06806633333333, "rental_uris": {"ios": "https://dc.lft.to/lastmile_qr_scan", "android": "https://dc.lft.to/lastmile_qr_scan"}}, {"name": "17fdacba38e444f9d08aaa0a742ed2b0", "fusion_lat": 0.0, "type": "electric_scooter", "lat": 38.922696333333334, "is_reserved": 0, "is_disabled": 0, "fusion_lon": 0.0, "bike_id": "17fdacba38e444f9d08aaa0a742ed2b0", "lon": -77.03403366666667, "rental_uris": {"ios": "https://dc.lft.to/lastmile_qr_scan", "android": "https://dc.lft.to/lastmile_qr_scan"}}, {"name": "48af9e6f928968dda8203896b879d768", "fusion_lat": 0.0, "type": "electric_scooter", "lat": 38.899336166666664, "is_reserved": 0, "is_disabled": 0, "fusion_lon": 0.0, "bike_id": "48af9e6f928968dda8203896b879d768", "lon": -77.04090433333333, "rental_uris": {"ios": "https://dc.lft.to/lastmile_qr_scan", "android": "https://dc.lft.to/lastmile_qr_scan"}}, {"name": "ab1b30a1f3ab2153005561f2a40eb1ed", "fusion_lat": 0.0, "type": "electric_scooter", "lat": 38.91228916666667, "is_reserved": 0, "is_disabled": 0, "fusion_lon": 0.0, "bike_id": "ab1b30a1f3ab2153005561f2a40eb1ed", "lon": -77.05109083333333, "rental_uris": {"ios": "https://dc.lft.to/lastmile_qr_scan", "android": "https://dc.lft.to/lastmile_qr_scan"}}, {"name": "75f8db2509665706066c48812572aba7", "fusion_lat": 0.0, "type": "electric_scooter", "lat": 38.90864916666666, "is_reserved": 0, "is_disabled": 0, "fusion_lon": 0.0, "bike_id": "75f8db2509665706066c48812572aba7", "lon": -77.02717783333334, "rental_uris": {"ios": "https://dc.lft.to/lastmile_qr_scan", "android": "https://dc.lft.to/lastmile_qr_scan"}}, {"name": "fed7f79830994a7514fe521556dac2cf", "fusion_lat": 0.0, "type": "electric_scooter", "lat": 38.91986, "is_reserved": 0, "is_disabled": 0, "fusion_lon": 0.0, "bike_id": "fed7f79830994a7514fe521556dac2cf", "lon": -76.97303133333334, "rental_uris": {"ios": "https://dc.lft.to/lastmile_qr_scan", "android": "https://dc.lft.to/lastmile_qr_scan"}}, {"name": "be775b801d36ec80660515b144df4d63", "fusion_lat": 0.0, "type": "electric_scooter", "lat": 38.9079455, "is_reserved": 0, "is_disabled": 0, "fusion_lon": 0.0, "bike_id": "be775b801d36ec80660515b144df4d63", "lon": -77.04817833333334, "rental_uris": {"ios": "https://dc.lft.to/lastmile_qr_scan", "android": "https://dc.lft.to/lastmile_qr_scan"}}, {"name": "ee4c0708f60424a544828bf006e7bc11", "fusion_lat": 0.0, "type": "electric_scooter", "lat": 38.930129, "is_reserved": 0, "is_disabled": 0, "fusion_lon": 0.0, "bike_id": "ee4c0708f60424a544828bf006e7bc11", "lon": -77.02302983333334, "rental_uris": {"ios": "https://dc.lft.to/lastmile_qr_scan", "android": "https://dc.lft.to/lastmile_qr_scan"}}, {"name": "8f8293f10a8726eff3ff65266f3b0e90", "fusion_lat": 0.0, "type": "electric_scooter", "lat": 38.90844633333333, "is_reserved": 0, "is_disabled": 0, "fusion_lon": 0.0, "bike_id": "8f8293f10a8726eff3ff65266f3b0e90", "lon": -77.02042083333333, "rental_uris": {"ios": "https://dc.lft.to/lastmile_qr_scan", "android": "https://dc.lft.to/lastmile_qr_scan"}}, {"name": "a7b05f235fdae4b302ecd68c484eb8b6", "fusion_lat": 0.0, "type": "electric_scooter", "lat": 38.912502, "is_reserved": 0, "is_disabled": 0, "fusion_lon": 0.0, "bike_id": "a7b05f235fdae4b302ecd68c484eb8b6", "lon": -77.02225483333334, "rental_uris": {"ios": "https://dc.lft.to/lastmile_qr_scan", "android": "https://dc.lft.to/lastmile_qr_scan"}}, {"name": "4cb4d51ffbf9e482b8cb8ed7cfd66911", "fusion_lat": 0.0, "type": "electric_scooter", "lat": 38.942902833333335, "is_reserved": 0, "is_disabled": 0, "fusion_lon": 0.0, "bike_id": "4cb4d51ffbf9e482b8cb8ed7cfd66911", "lon": -77.02172366666667, "rental_uris": {"ios": "https://dc.lft.to/lastmile_qr_scan", "android": "https://dc.lft.to/lastmile_qr_scan"}}, {"name": "5d3d69037888908147bf8c4df81c1de1", "fusion_lat": 0.0, "type": "electric_bike", "lat": 38.9360005, "is_reserved": 0, "is_disabled": 0, "fusion_lon": 0.0, "bike_id": "5d3d69037888908147bf8c4df81c1de1", "lon": -77.02115516666667, "rental_uris": {"ios": "https://dc.lft.to/lastmile_qr_scan", "android": "https://dc.lft.to/lastmile_qr_scan"}}, {"name": "72ab356d4848474ba34cd421aa710c45", "fusion_lat": 0.0, "type": "electric_scooter", "lat": 38.89742483333333, "is_reserved": 0, "is_disabled": 0, "fusion_lon": 0.0, "bike_id": "72ab356d4848474ba34cd421aa710c45", "lon": -76.94253233333333, "rental_uris": {"ios": "https://dc.lft.to/lastmile_qr_scan", "android": "https://dc.lft.to/lastmile_qr_scan"}}, {"name": "d2c480d6b3a6b0618f57f0597edbfd28", "fusion_lat": 0.0, "type": "electric_scooter", "lat": 38.93382616666667, "is_reserved": 0, "is_disabled": 0, "fusion_lon": 0.0, "bike_id": "d2c480d6b3a6b0618f57f0597edbfd28", "lon": -77.05765616666666, "rental_uris": {"ios": "https://dc.lft.to/lastmile_qr_scan", "android": "https://dc.lft.to/lastmile_qr_scan"}}, {"name": "3a22738a52318d3d3e8ff2d64d02825a", "fusion_lat": 0.0, "type": "electric_scooter", "lat": 38.90009333333333, "is_reserved": 0, "is_disabled": 0, "fusion_lon": 0.0, "bike_id": "3a22738a52318d3d3e8ff2d64d02825a", "lon": -77.0332625, "rental_uris": {"ios": "https://dc.lft.to/lastmile_qr_scan", "android": "https://dc.lft.to/lastmile_qr_scan"}}, {"name": "cc43f21bff73ddbd2b5fd37cc2db83e2", "fusion_lat": 0.0, "type": "electric_scooter", "lat": 38.90078666666667, "is_reserved": 0, "is_disabled": 0, "fusion_lon": 0.0, "bike_id": "cc43f21bff73ddbd2b5fd37cc2db83e2", "lon": -77.0498905, "rental_uris": {"ios": "https://dc.lft.to/lastmile_qr_scan", "android": "https://dc.lft.to/lastmile_qr_scan"}}, {"name": "58cb77d6967ce1fef2c4842be9c62567", "fusion_lat": 0.0, "type": "electric_scooter", "lat": 38.9210115, "is_reserved": 0, "is_disabled": 0, "fusion_lon": 0.0, "bike_id": "58cb77d6967ce1fef2c4842be9c62567", "lon": -77.0470095, "rental_uris": {"ios": "https://dc.lft.to/lastmile_qr_scan", "android": "https://dc.lft.to/lastmile_qr_scan"}}, {"name": "f827eac88b9f7fb77eed4e020aa954f3", "fusion_lat": 0.0, "type": "electric_scooter", "lat": 38.878634, "is_reserved": 0, "is_disabled": 0, "fusion_lon": 0.0, "bike_id": "f827eac88b9f7fb77eed4e020aa954f3", "lon": -76.96532333333333, "rental_uris": {"ios": "https://dc.lft.to/lastmile_qr_scan", "android": "https://dc.lft.to/lastmile_qr_scan"}}, {"name": "9678d0d802e51989d807e41e8d8580f9", "fusion_lat": 0.0, "type": "electric_scooter", "lat": 38.9120355, "is_reserved": 0, "is_disabled": 0, "fusion_lon": 0.0, "bike_id": "9678d0d802e51989d807e41e8d8580f9", "lon": -77.03639966666667, "rental_uris": {"ios": "https://dc.lft.to/lastmile_qr_scan", "android": "https://dc.lft.to/lastmile_qr_scan"}}, {"name": "09e99ed22cc0c9d173029e115ed9bfea", "fusion_lat": 0.0, "type": "electric_scooter", "lat": 38.911076, "is_reserved": 0, "is_disabled": 0, "fusion_lon": 0.0, "bike_id": "09e99ed22cc0c9d173029e115ed9bfea", "lon": -77.03833366666667, "rental_uris": {"ios": "https://dc.lft.to/lastmile_qr_scan", "android": "https://dc.lft.to/lastmile_qr_scan"}}, {"name": "e737fa1e41fd026992188909dce8487a", "fusion_lat": 0.0, "type": "electric_scooter", "lat": 38.92813866666667, "is_reserved": 0, "is_disabled": 0, "fusion_lon": 0.0, "bike_id": "e737fa1e41fd026992188909dce8487a", "lon": -77.03654416666667, "rental_uris": {"ios": "https://dc.lft.to/lastmile_qr_scan", "android": "https://dc.lft.to/lastmile_qr_scan"}}, {"name": "c4ba387c4d4267b83879c37210f8f1d8", "fusion_lat": 0.0, "type": "electric_scooter", "lat": 38.9025075, "is_reserved": 0, "is_disabled": 0, "fusion_lon": 0.0, "bike_id": "c4ba387c4d4267b83879c37210f8f1d8", "lon": -77.02711316666667, "rental_uris": {"ios": "https://dc.lft.to/lastmile_qr_scan", "android": "https://dc.lft.to/lastmile_qr_scan"}}, {"name": "b44c83815d62731e175d38966add9027", "fusion_lat": 0.0, "type": "electric_scooter", "lat": 38.8951565, "is_reserved": 0, "is_disabled": 0, "fusion_lon": 0.0, "bike_id": "b44c83815d62731e175d38966add9027", "lon": -76.9921845, "rental_uris": {"ios": "https://dc.lft.to/lastmile_qr_scan", "android": "https://dc.lft.to/lastmile_qr_scan"}}, {"name": "c2c36fd01d6965a4d3dd41ea3cd82728", "fusion_lat": 0.0, "type": "electric_scooter", "lat": 38.906295666666665, "is_reserved": 0, "is_disabled": 0, "fusion_lon": 0.0, "bike_id": "c2c36fd01d6965a4d3dd41ea3cd82728", "lon": -77.02977466666667, "rental_uris": {"ios": "https://dc.lft.to/lastmile_qr_scan", "android": "https://dc.lft.to/lastmile_qr_scan"}}, {"name": "6a7307edc87630ae13e687e8f1ef86b6", "fusion_lat": 0.0, "type": "electric_scooter", "lat": 38.91881383333333, "is_reserved": 0, "is_disabled": 0, "fusion_lon": 0.0, "bike_id": "6a7307edc87630ae13e687e8f1ef86b6", "lon": -77.04314233333334, "rental_uris": {"ios": "https://dc.lft.to/lastmile_qr_scan", "android": "https://dc.lft.to/lastmile_qr_scan"}}, {"name": "00e6c3a9a9507f3fc9c7b243a3ab478b", "fusion_lat": 0.0, "type": "electric_scooter", "lat": 38.878284666666666, "is_reserved": 0, "is_disabled": 0, "fusion_lon": 0.0, "bike_id": "00e6c3a9a9507f3fc9c7b243a3ab478b", "lon": -77.00730066666667, "rental_uris": {"ios": "https://dc.lft.to/lastmile_qr_scan", "android": "https://dc.lft.to/lastmile_qr_scan"}}, {"name": "3c1b1fa75b1626cf661bdd29a4759d56", "fusion_lat": 0.0, "type": "electric_scooter", "lat": 38.903430666666665, "is_reserved": 0, "is_disabled": 0, "fusion_lon": 0.0, "bike_id": "3c1b1fa75b1626cf661bdd29a4759d56", "lon": -77.05436333333333, "rental_uris": {"ios": "https://dc.lft.to/lastmile_qr_scan", "android": "https://dc.lft.to/lastmile_qr_scan"}}, {"name": "cb8f488889fe0b061bb3d108b977d7a6", "fusion_lat": 0.0, "type": "electric_scooter", "lat": 38.919416166666664, "is_reserved": 0, "is_disabled": 0, "fusion_lon": 0.0, "bike_id": "cb8f488889fe0b061bb3d108b977d7a6", "lon": -77.04498833333334, "rental_uris": {"ios": "https://dc.lft.to/lastmile_qr_scan", "android": "https://dc.lft.to/lastmile_qr_scan"}}, {"name": "8cee70ae300be22f0d8395fea3ce3276", "fusion_lat": 0.0, "type": "electric_scooter", "lat": 38.90243, "is_reserved": 0, "is_disabled": 0, "fusion_lon": 0.0, "bike_id": "8cee70ae300be22f0d8395fea3ce3276", "lon": -77.026359, "rental_uris": {"ios": "https://dc.lft.to/lastmile_qr_scan", "android": "https://dc.lft.to/lastmile_qr_scan"}}, {"name": "238123c9fc321f3db60f41f47f1c81c0", "fusion_lat": 0.0, "type": "electric_scooter", "lat": 38.93739683333333, "is_reserved": 0, "is_disabled": 0, "fusion_lon": 0.0, "bike_id": "238123c9fc321f3db60f41f47f1c81c0", "lon": -77.03289383333333, "rental_uris": {"ios": "https://dc.lft.to/lastmile_qr_scan", "android": "https://dc.lft.to/lastmile_qr_scan"}}, {"name": "c49960a9762f264f89edcfc9510ff356", "fusion_lat": 0.0, "type": "electric_scooter", "lat": 38.90727116666667, "is_reserved": 0, "is_disabled": 0, "fusion_lon": 0.0, "bike_id": "c49960a9762f264f89edcfc9510ff356", "lon": -77.04334216666666, "rental_uris": {"ios": "https://dc.lft.to/lastmile_qr_scan", "android": "https://dc.lft.to/lastmile_qr_scan"}}, {"name": "1467a72bec5422d1d7bcfa799c505e29", "fusion_lat": 0.0, "type": "electric_scooter", "lat": 38.9224705, "is_reserved": 0, "is_disabled": 0, "fusion_lon": 0.0, "bike_id": "1467a72bec5422d1d7bcfa799c505e29", "lon": -77.030782, "rental_uris": {"ios": "https://dc.lft.to/lastmile_qr_scan", "android": "https://dc.lft.to/lastmile_qr_scan"}}, {"name": "b7835c7352368f28df1804d541f68d92", "fusion_lat": 0.0, "type": "electric_scooter", "lat": 38.907299333333334, "is_reserved": 0, "is_disabled": 0, "fusion_lon": 0.0, "bike_id": "b7835c7352368f28df1804d541f68d92", "lon": -77.01070583333333, "rental_uris": {"ios": "https://dc.lft.to/lastmile_qr_scan", "android": "https://dc.lft.to/lastmile_qr_scan"}}, {"name": "17978fc634ba9f222613578cf581e38f", "fusion_lat": 0.0, "type": "electric_scooter", "lat": 38.86247566666667, "is_reserved": 0, "is_disabled": 0, "fusion_lon": 0.0, "bike_id": "17978fc634ba9f222613578cf581e38f", "lon": -76.9953035, "rental_uris": {"ios": "https://dc.lft.to/lastmile_qr_scan", "android": "https://dc.lft.to/lastmile_qr_scan"}}, {"name": "a016dce1b787d2b313ab3c9a37470721", "fusion_lat": 0.0, "type": "electric_scooter", "lat": 38.94247983333333, "is_reserved": 0, "is_disabled": 0, "fusion_lon": 0.0, "bike_id": "a016dce1b787d2b313ab3c9a37470721", "lon": -77.04140566666666, "rental_uris": {"ios": "https://dc.lft.to/lastmile_qr_scan", "android": "https://dc.lft.to/lastmile_qr_scan"}}, {"name": "89c6e7e41052c01dc90ce5dce3f3009a", "fusion_lat": 0.0, "type": "electric_scooter", "lat": 38.875373833333335, "is_reserved": 0, "is_disabled": 0, "fusion_lon": 0.0, "bike_id": "89c6e7e41052c01dc90ce5dce3f3009a", "lon": -77.00064583333334, "rental_uris": {"ios": "https://dc.lft.to/lastmile_qr_scan", "android": "https://dc.lft.to/lastmile_qr_scan"}}, {"name": "21d2ccd5eaa2063d146a6591671f6e71", "fusion_lat": 0.0, "type": "electric_scooter", "lat": 38.9089315, "is_reserved": 0, "is_disabled": 0, "fusion_lon": 0.0, "bike_id": "21d2ccd5eaa2063d146a6591671f6e71", "lon": -77.032119, "rental_uris": {"ios": "https://dc.lft.to/lastmile_qr_scan", "android": "https://dc.lft.to/lastmile_qr_scan"}}, {"name": "46b3a35ce72c1c40b9b9d1212ec40ab4", "fusion_lat": 0.0, "type": "electric_scooter", "lat": 38.912934166666666, "is_reserved": 0, "is_disabled": 0, "fusion_lon": 0.0, "bike_id": "46b3a35ce72c1c40b9b9d1212ec40ab4", "lon": -77.06113933333333, "rental_uris": {"ios": "https://dc.lft.to/lastmile_qr_scan", "android": "https://dc.lft.to/lastmile_qr_scan"}}, {"name": "e094683c94722faa3c53598ec17866f0", "fusion_lat": 0.0, "type": "electric_scooter", "lat": 38.905250333333335, "is_reserved": 0, "is_disabled": 0, "fusion_lon": 0.0, "bike_id": "e094683c94722faa3c53598ec17866f0", "lon": -77.05230816666666, "rental_uris": {"ios": "https://dc.lft.to/lastmile_qr_scan", "android": "https://dc.lft.to/lastmile_qr_scan"}}, {"name": "53fcb2f888445c26fdc1900ba9164681", "fusion_lat": 0.0, "type": "electric_bike", "lat": 38.874788833333334, "is_reserved": 0, "is_disabled": 0, "fusion_lon": 0.0, "bike_id": "53fcb2f888445c26fdc1900ba9164681", "lon": -76.9652745, "rental_uris": {"ios": "https://dc.lft.to/lastmile_qr_scan", "android": "https://dc.lft.to/lastmile_qr_scan"}}, {"name": "e66fcc555e2ddec87f0c5b2fa3d6315a", "fusion_lat": 0.0, "type": "electric_scooter", "lat": 38.886054, "is_reserved": 0, "is_disabled": 0, "fusion_lon": 0.0, "bike_id": "e66fcc555e2ddec87f0c5b2fa3d6315a", "lon": -77.01954, "rental_uris": {"ios": "https://dc.lft.to/lastmile_qr_scan", "android": "https://dc.lft.to/lastmile_qr_scan"}}, {"name": "5468d4b75e7984adf8b4197ccaf49c4c", "fusion_lat": 0.0, "type": "electric_scooter", "lat": 38.90607983333334, "is_reserved": 0, "is_disabled": 0, "fusion_lon": 0.0, "bike_id": "5468d4b75e7984adf8b4197ccaf49c4c", "lon": -77.04678383333334, "rental_uris": {"ios": "https://dc.lft.to/lastmile_qr_scan", "android": "https://dc.lft.to/lastmile_qr_scan"}}, {"name": "82bbcc5cba04cd09e09308e9840c31c9", "fusion_lat": 0.0, "type": "electric_scooter", "lat": 38.90700833333333, "is_reserved": 0, "is_disabled": 0, "fusion_lon": 0.0, "bike_id": "82bbcc5cba04cd09e09308e9840c31c9", "lon": -77.02402066666667, "rental_uris": {"ios": "https://dc.lft.to/lastmile_qr_scan", "android": "https://dc.lft.to/lastmile_qr_scan"}}, {"name": "6e1f74a27d20d1f019e070977c420f1f", "fusion_lat": 0.0, "type": "electric_bike", "lat": 38.94273166666667, "is_reserved": 0, "is_disabled": 0, "fusion_lon": 0.0, "bike_id": "6e1f74a27d20d1f019e070977c420f1f", "lon": -76.980744, "rental_uris": {"ios": "https://dc.lft.to/lastmile_qr_scan", "android": "https://dc.lft.to/lastmile_qr_scan"}}, {"name": "2499a9b8d10e9f9f3fce21bcbc5db920", "fusion_lat": 0.0, "type": "electric_scooter", "lat": 38.9052245, "is_reserved": 0, "is_disabled": 0, "fusion_lon": 0.0, "bike_id": "2499a9b8d10e9f9f3fce21bcbc5db920", "lon": -77.06628766666667, "rental_uris": {"ios": "https://dc.lft.to/lastmile_qr_scan", "android": "https://dc.lft.to/lastmile_qr_scan"}}, {"name": "0241c4f57073a9ebc5590b3444aa0605", "fusion_lat": 0.0, "type": "electric_scooter", "lat": 38.9287645, "is_reserved": 0, "is_disabled": 0, "fusion_lon": 0.0, "bike_id": "0241c4f57073a9ebc5590b3444aa0605", "lon": -77.03359433333334, "rental_uris": {"ios": "https://dc.lft.to/lastmile_qr_scan", "android": "https://dc.lft.to/lastmile_qr_scan"}}, {"name": "e2d3ffe772c0319994b8092a3022c5ef", "fusion_lat": 0.0, "type": "electric_scooter", "lat": 38.91010933333333, "is_reserved": 0, "is_disabled": 0, "fusion_lon": 0.0, "bike_id": "e2d3ffe772c0319994b8092a3022c5ef", "lon": -76.99390083333333, "rental_uris": {"ios": "https://dc.lft.to/lastmile_qr_scan", "android": "https://dc.lft.to/lastmile_qr_scan"}}, {"name": "9bf1745bc8826a7988c56b0b06a48a12", "fusion_lat": 0.0, "type": "electric_bike", "lat": 38.98819133333333, "is_reserved": 0, "is_disabled": 0, "fusion_lon": 0.0, "bike_id": "9bf1745bc8826a7988c56b0b06a48a12", "lon": -77.02646966666667, "rental_uris": {"ios": "https://dc.lft.to/lastmile_qr_scan", "android": "https://dc.lft.to/lastmile_qr_scan"}}, {"name": "03b38d2a6acc847d4aeb2d12f2c9a774", "fusion_lat": 0.0, "type": "electric_scooter", "lat": 38.92470133333333, "is_reserved": 0, "is_disabled": 0, "fusion_lon": 0.0, "bike_id": "03b38d2a6acc847d4aeb2d12f2c9a774", "lon": -77.03766066666667, "rental_uris": {"ios": "https://dc.lft.to/lastmile_qr_scan", "android": "https://dc.lft.to/lastmile_qr_scan"}}, {"name": "b03b68d0744707da29ded0e0ef2d4093", "fusion_lat": 0.0, "type": "electric_scooter", "lat": 38.87577616666667, "is_reserved": 0, "is_disabled": 0, "fusion_lon": 0.0, "bike_id": "b03b68d0744707da29ded0e0ef2d4093", "lon": -77.01050566666666, "rental_uris": {"ios": "https://dc.lft.to/lastmile_qr_scan", "android": "https://dc.lft.to/lastmile_qr_scan"}}, {"name": "713fac7694e885d75649964ba2c6d1b7", "fusion_lat": 0.0, "type": "electric_scooter", "lat": 38.900085, "is_reserved": 0, "is_disabled": 0, "fusion_lon": 0.0, "bike_id": "713fac7694e885d75649964ba2c6d1b7", "lon": -77.01118566666666, "rental_uris": {"ios": "https://dc.lft.to/lastmile_qr_scan", "android": "https://dc.lft.to/lastmile_qr_scan"}}, {"name": "070b6ebcf8cced142a562d2f2d15bd09", "fusion_lat": 0.0, "type": "electric_bike", "lat": 38.9568875, "is_reserved": 0, "is_disabled": 0, "fusion_lon": 0.0, "bike_id": "070b6ebcf8cced142a562d2f2d15bd09", "lon": -77.02227683333334, "rental_uris": {"ios": "https://dc.lft.to/lastmile_qr_scan", "android": "https://dc.lft.to/lastmile_qr_scan"}}, {"name": "836b18c8e8713268d97c3bb349488c4c", "fusion_lat": 0.0, "type": "electric_scooter", "lat": 38.93249466666666, "is_reserved": 0, "is_disabled": 0, "fusion_lon": 0.0, "bike_id": "836b18c8e8713268d97c3bb349488c4c", "lon": -77.0400995, "rental_uris": {"ios": "https://dc.lft.to/lastmile_qr_scan", "android": "https://dc.lft.to/lastmile_qr_scan"}}, {"name": "7a8eddab48a9f36b62d083728a56dd98", "fusion_lat": 0.0, "type": "electric_scooter", "lat": 38.900538166666664, "is_reserved": 0, "is_disabled": 0, "fusion_lon": 0.0, "bike_id": "7a8eddab48a9f36b62d083728a56dd98", "lon": -77.025943, "rental_uris": {"ios": "https://dc.lft.to/lastmile_qr_scan", "android": "https://dc.lft.to/lastmile_qr_scan"}}, {"name": "2b228d9371a4b792a1536faca5fdf6e6", "fusion_lat": 0.0, "type": "electric_scooter", "lat": 38.91694966666667, "is_reserved": 0, "is_disabled": 0, "fusion_lon": 0.0, "bike_id": "2b228d9371a4b792a1536faca5fdf6e6", "lon": -77.02438716666667, "rental_uris": {"ios": "https://dc.lft.to/lastmile_qr_scan", "android": "https://dc.lft.to/lastmile_qr_scan"}}, {"name": "69a6b4456fb444f57a1293af3aa8421a", "fusion_lat": 0.0, "type": "electric_scooter", "lat": 38.917266, "is_reserved": 0, "is_disabled": 0, "fusion_lon": 0.0, "bike_id": "69a6b4456fb444f57a1293af3aa8421a", "lon": -77.03839633333334, "rental_uris": {"ios": "https://dc.lft.to/lastmile_qr_scan", "android": "https://dc.lft.to/lastmile_qr_scan"}}, {"name": "01baa152bcf77b7c8bbf58d6b7b5fa28", "fusion_lat": 0.0, "type": "electric_scooter", "lat": 38.9003815, "is_reserved": 0, "is_disabled": 0, "fusion_lon": 0.0, "bike_id": "01baa152bcf77b7c8bbf58d6b7b5fa28", "lon": -76.98826866666667, "rental_uris": {"ios": "https://dc.lft.to/lastmile_qr_scan", "android": "https://dc.lft.to/lastmile_qr_scan"}}, {"name": "50e37aa8947ce7b644f4201312a8c798", "fusion_lat": 0.0, "type": "electric_scooter", "lat": 38.911226666666664, "is_reserved": 0, "is_disabled": 0, "fusion_lon": 0.0, "bike_id": "50e37aa8947ce7b644f4201312a8c798", "lon": -77.0329655, "rental_uris": {"ios": "https://dc.lft.to/lastmile_qr_scan", "android": "https://dc.lft.to/lastmile_qr_scan"}}, {"name": "1aa5763aac9589331d6ba93861e7d1d2", "fusion_lat": 0.0, "type": "electric_scooter", "lat": 38.916590166666666, "is_reserved": 0, "is_disabled": 0, "fusion_lon": 0.0, "bike_id": "1aa5763aac9589331d6ba93861e7d1d2", "lon": -77.025666, "rental_uris": {"ios": "https://dc.lft.to/lastmile_qr_scan", "android": "https://dc.lft.to/lastmile_qr_scan"}}, {"name": "72153d7d4aac106bb646a33a7cffccf7", "fusion_lat": 0.0, "type": "electric_scooter", "lat": 38.90577033333334, "is_reserved": 0, "is_disabled": 0, "fusion_lon": 0.0, "bike_id": "72153d7d4aac106bb646a33a7cffccf7", "lon": -77.02212666666667, "rental_uris": {"ios": "https://dc.lft.to/lastmile_qr_scan", "android": "https://dc.lft.to/lastmile_qr_scan"}}, {"name": "9dc39de1411ac992afcb0e645c3c26de", "fusion_lat": 0.0, "type": "electric_scooter", "lat": 38.920562333333336, "is_reserved": 0, "is_disabled": 0, "fusion_lon": 0.0, "bike_id": "9dc39de1411ac992afcb0e645c3c26de", "lon": -77.04253766666666, "rental_uris": {"ios": "https://dc.lft.to/lastmile_qr_scan", "android": "https://dc.lft.to/lastmile_qr_scan"}}, {"name": "79fde8ce8581f71c2e3d6fe69e92866d", "fusion_lat": 0.0, "type": "electric_scooter", "lat": 38.866609, "is_reserved": 0, "is_disabled": 0, "fusion_lon": 0.0, "bike_id": "79fde8ce8581f71c2e3d6fe69e92866d", "lon": -76.98883183333334, "rental_uris": {"ios": "https://dc.lft.to/lastmile_qr_scan", "android": "https://dc.lft.to/lastmile_qr_scan"}}, {"name": "0dfa75e8b089f2b157edf14bdf20ee41", "fusion_lat": 0.0, "type": "electric_scooter", "lat": 38.9168375, "is_reserved": 0, "is_disabled": 0, "fusion_lon": 0.0, "bike_id": "0dfa75e8b089f2b157edf14bdf20ee41", "lon": -77.0297765, "rental_uris": {"ios": "https://dc.lft.to/lastmile_qr_scan", "android": "https://dc.lft.to/lastmile_qr_scan"}}, {"name": "fb2c0b5d8d05ea5903f2f1e36c6641d5", "fusion_lat": 0.0, "type": "electric_scooter", "lat": 38.89953116666667, "is_reserved": 0, "is_disabled": 0, "fusion_lon": 0.0, "bike_id": "fb2c0b5d8d05ea5903f2f1e36c6641d5", "lon": -77.05267916666666, "rental_uris": {"ios": "https://dc.lft.to/lastmile_qr_scan", "android": "https://dc.lft.to/lastmile_qr_scan"}}, {"name": "db3967d8f6c6979326ff895baecc1538", "fusion_lat": 0.0, "type": "electric_scooter", "lat": 38.869166166666666, "is_reserved": 0, "is_disabled": 0, "fusion_lon": 0.0, "bike_id": "db3967d8f6c6979326ff895baecc1538", "lon": -76.97496433333333, "rental_uris": {"ios": "https://dc.lft.to/lastmile_qr_scan", "android": "https://dc.lft.to/lastmile_qr_scan"}}, {"name": "da0bc167c35b15d2c3c720257c179ecb", "fusion_lat": 0.0, "type": "electric_scooter", "lat": 38.91454183333333, "is_reserved": 0, "is_disabled": 0, "fusion_lon": 0.0, "bike_id": "da0bc167c35b15d2c3c720257c179ecb", "lon": -77.0216415, "rental_uris": {"ios": "https://dc.lft.to/lastmile_qr_scan", "android": "https://dc.lft.to/lastmile_qr_scan"}}, {"name": "ce1ce83398cef286fd27c4d8e87a3915", "fusion_lat": 0.0, "type": "electric_scooter", "lat": 38.870728166666666, "is_reserved": 0, "is_disabled": 0, "fusion_lon": 0.0, "bike_id": "ce1ce83398cef286fd27c4d8e87a3915", "lon": -77.01124866666666, "rental_uris": {"ios": "https://dc.lft.to/lastmile_qr_scan", "android": "https://dc.lft.to/lastmile_qr_scan"}}, {"name": "c87f80c545d2f6861a2bbda1faf1fb65", "fusion_lat": 0.0, "type": "electric_scooter", "lat": 38.9346125, "is_reserved": 0, "is_disabled": 0, "fusion_lon": 0.0, "bike_id": "c87f80c545d2f6861a2bbda1faf1fb65", "lon": -77.08637733333333, "rental_uris": {"ios": "https://dc.lft.to/lastmile_qr_scan", "android": "https://dc.lft.to/lastmile_qr_scan"}}, {"name": "a897dcd84162cb49f08bb6d45e320706", "fusion_lat": 0.0, "type": "electric_scooter", "lat": 38.90350683333333, "is_reserved": 0, "is_disabled": 0, "fusion_lon": 0.0, "bike_id": "a897dcd84162cb49f08bb6d45e320706", "lon": -77.05236583333334, "rental_uris": {"ios": "https://dc.lft.to/lastmile_qr_scan", "android": "https://dc.lft.to/lastmile_qr_scan"}}, {"name": "284cb0d2149bea2ee1afcfd90b744b97", "fusion_lat": 0.0, "type": "electric_scooter", "lat": 38.887824333333334, "is_reserved": 0, "is_disabled": 0, "fusion_lon": 0.0, "bike_id": "284cb0d2149bea2ee1afcfd90b744b97", "lon": -76.95533, "rental_uris": {"ios": "https://dc.lft.to/lastmile_qr_scan", "android": "https://dc.lft.to/lastmile_qr_scan"}}, {"name": "3caf17ec534301d986fc11e772aa351a", "fusion_lat": 0.0, "type": "electric_scooter", "lat": 38.9127185, "is_reserved": 0, "is_disabled": 0, "fusion_lon": 0.0, "bike_id": "3caf17ec534301d986fc11e772aa351a", "lon": -77.0450265, "rental_uris": {"ios": "https://dc.lft.to/lastmile_qr_scan", "android": "https://dc.lft.to/lastmile_qr_scan"}}, {"name": "2c6b91d69b823f30bbfa1daab5245839", "fusion_lat": 0.0, "type": "electric_scooter", "lat": 38.89522083333333, "is_reserved": 0, "is_disabled": 0, "fusion_lon": 0.0, "bike_id": "2c6b91d69b823f30bbfa1daab5245839", "lon": -77.042908, "rental_uris": {"ios": "https://dc.lft.to/lastmile_qr_scan", "android": "https://dc.lft.to/lastmile_qr_scan"}}, {"name": "af9f23da612d4fed4c378e8070908ec3", "fusion_lat": 0.0, "type": "electric_scooter", "lat": 38.91248216666666, "is_reserved": 0, "is_disabled": 0, "fusion_lon": 0.0, "bike_id": "af9f23da612d4fed4c378e8070908ec3", "lon": -77.03840616666666, "rental_uris": {"ios": "https://dc.lft.to/lastmile_qr_scan", "android": "https://dc.lft.to/lastmile_qr_scan"}}, {"name": "4adc4662143133059324c328295a5f0d", "fusion_lat": 0.0, "type": "electric_scooter", "lat": 38.906836166666665, "is_reserved": 0, "is_disabled": 0, "fusion_lon": 0.0, "bike_id": "4adc4662143133059324c328295a5f0d", "lon": -77.0109735, "rental_uris": {"ios": "https://dc.lft.to/lastmile_qr_scan", "android": "https://dc.lft.to/lastmile_qr_scan"}}, {"name": "aee923988f8052222c7ce4b927e88130", "fusion_lat": 0.0, "type": "electric_scooter", "lat": 38.911542, "is_reserved": 0, "is_disabled": 0, "fusion_lon": 0.0, "bike_id": "aee923988f8052222c7ce4b927e88130", "lon": -77.02177783333333, "rental_uris": {"ios": "https://dc.lft.to/lastmile_qr_scan", "android": "https://dc.lft.to/lastmile_qr_scan"}}, {"name": "5be0dc6d9bc66123133f5744b6579a60", "fusion_lat": 0.0, "type": "electric_bike", "lat": 38.906865333333336, "is_reserved": 0, "is_disabled": 0, "fusion_lon": 0.0, "bike_id": "5be0dc6d9bc66123133f5744b6579a60", "lon": -76.95187716666666, "rental_uris": {"ios": "https://dc.lft.to/lastmile_qr_scan", "android": "https://dc.lft.to/lastmile_qr_scan"}}, {"name": "a24c9eac18512295c0cb0e42bd209cde", "fusion_lat": 0.0, "type": "electric_scooter", "lat": 38.87686716666666, "is_reserved": 0, "is_disabled": 0, "fusion_lon": 0.0, "bike_id": "a24c9eac18512295c0cb0e42bd209cde", "lon": -77.0175795, "rental_uris": {"ios": "https://dc.lft.to/lastmile_qr_scan", "android": "https://dc.lft.to/lastmile_qr_scan"}}, {"name": "4573187f84efa14e86793652270265dd", "fusion_lat": 0.0, "type": "electric_scooter", "lat": 38.898341333333335, "is_reserved": 0, "is_disabled": 0, "fusion_lon": 0.0, "bike_id": "4573187f84efa14e86793652270265dd", "lon": -76.94567716666667, "rental_uris": {"ios": "https://dc.lft.to/lastmile_qr_scan", "android": "https://dc.lft.to/lastmile_qr_scan"}}, {"name": "b8e732e178adb750d6a917af83821135", "fusion_lat": 0.0, "type": "electric_scooter", "lat": 38.903396, "is_reserved": 0, "is_disabled": 0, "fusion_lon": 0.0, "bike_id": "b8e732e178adb750d6a917af83821135", "lon": -76.99858316666666, "rental_uris": {"ios": "https://dc.lft.to/lastmile_qr_scan", "android": "https://dc.lft.to/lastmile_qr_scan"}}, {"name": "e6809ddae80276b7cd0dcf6cfd8e6f4e", "fusion_lat": 0.0, "type": "electric_scooter", "lat": 38.8865185, "is_reserved": 0, "is_disabled": 0, "fusion_lon": 0.0, "bike_id": "e6809ddae80276b7cd0dcf6cfd8e6f4e", "lon": -77.01368416666666, "rental_uris": {"ios": "https://dc.lft.to/lastmile_qr_scan", "android": "https://dc.lft.to/lastmile_qr_scan"}}, {"name": "9455898e73251c0f2491d759231dde88", "fusion_lat": 0.0, "type": "electric_scooter", "lat": 38.90750533333333, "is_reserved": 0, "is_disabled": 0, "fusion_lon": 0.0, "bike_id": "9455898e73251c0f2491d759231dde88", "lon": -77.032021, "rental_uris": {"ios": "https://dc.lft.to/lastmile_qr_scan", "android": "https://dc.lft.to/lastmile_qr_scan"}}, {"name": "3f7d347db1b0f5b4264ca0313eb025fc", "fusion_lat": 0.0, "type": "electric_scooter", "lat": 38.938887333333334, "is_reserved": 0, "is_disabled": 0, "fusion_lon": 0.0, "bike_id": "3f7d347db1b0f5b4264ca0313eb025fc", "lon": -77.02463783333333, "rental_uris": {"ios": "https://dc.lft.to/lastmile_qr_scan", "android": "https://dc.lft.to/lastmile_qr_scan"}}, {"name": "4cceca4ce28a17b064ce0ad1cc08aec6", "fusion_lat": 0.0, "type": "electric_scooter", "lat": 38.9061375, "is_reserved": 0, "is_disabled": 0, "fusion_lon": 0.0, "bike_id": "4cceca4ce28a17b064ce0ad1cc08aec6", "lon": -77.0241175, "rental_uris": {"ios": "https://dc.lft.to/lastmile_qr_scan", "android": "https://dc.lft.to/lastmile_qr_scan"}}, {"name": "7a60c7b1d94f0e258964f9d74d330242", "fusion_lat": 0.0, "type": "electric_scooter", "lat": 38.9038385, "is_reserved": 0, "is_disabled": 0, "fusion_lon": 0.0, "bike_id": "7a60c7b1d94f0e258964f9d74d330242", "lon": -77.01103983333333, "rental_uris": {"ios": "https://dc.lft.to/lastmile_qr_scan", "android": "https://dc.lft.to/lastmile_qr_scan"}}, {"name": "0a1cc847dfc2e2490e4732a6d0d6fef9", "fusion_lat": 0.0, "type": "electric_scooter", "lat": 38.897197, "is_reserved": 0, "is_disabled": 0, "fusion_lon": 0.0, "bike_id": "0a1cc847dfc2e2490e4732a6d0d6fef9", "lon": -77.03112933333334, "rental_uris": {"ios": "https://dc.lft.to/lastmile_qr_scan", "android": "https://dc.lft.to/lastmile_qr_scan"}}, {"name": "34a8b7339eaf2e77a5aebd1973c5c164", "fusion_lat": 0.0, "type": "electric_scooter", "lat": 38.914170666666664, "is_reserved": 0, "is_disabled": 0, "fusion_lon": 0.0, "bike_id": "34a8b7339eaf2e77a5aebd1973c5c164", "lon": -77.03173133333334, "rental_uris": {"ios": "https://dc.lft.to/lastmile_qr_scan", "android": "https://dc.lft.to/lastmile_qr_scan"}}, {"name": "e2f00d61a5ec05fa595e5d7938dceea8", "fusion_lat": 0.0, "type": "electric_scooter", "lat": 38.89850666666667, "is_reserved": 0, "is_disabled": 0, "fusion_lon": 0.0, "bike_id": "e2f00d61a5ec05fa595e5d7938dceea8", "lon": -76.9903295, "rental_uris": {"ios": "https://dc.lft.to/lastmile_qr_scan", "android": "https://dc.lft.to/lastmile_qr_scan"}}, {"name": "4a196e3f780e33d26663d03ca172df14", "fusion_lat": 0.0, "type": "electric_scooter", "lat": 38.86533716666667, "is_reserved": 0, "is_disabled": 0, "fusion_lon": 0.0, "bike_id": "4a196e3f780e33d26663d03ca172df14", "lon": -76.98709933333333, "rental_uris": {"ios": "https://dc.lft.to/lastmile_qr_scan", "android": "https://dc.lft.to/lastmile_qr_scan"}}, {"name": "3132027f76bbb3cef8f0638e96ed206b", "fusion_lat": 0.0, "type": "electric_scooter", "lat": 38.9206495, "is_reserved": 0, "is_disabled": 0, "fusion_lon": 0.0, "bike_id": "3132027f76bbb3cef8f0638e96ed206b", "lon": -76.97804416666666, "rental_uris": {"ios": "https://dc.lft.to/lastmile_qr_scan", "android": "https://dc.lft.to/lastmile_qr_scan"}}, {"name": "1a2b000a4b5858776431d086d383fc4f", "fusion_lat": 0.0, "type": "electric_scooter", "lat": 38.916607, "is_reserved": 0, "is_disabled": 0, "fusion_lon": 0.0, "bike_id": "1a2b000a4b5858776431d086d383fc4f", "lon": -77.03855816666666, "rental_uris": {"ios": "https://dc.lft.to/lastmile_qr_scan", "android": "https://dc.lft.to/lastmile_qr_scan"}}, {"name": "1facebc5a60cf488cec5568844f7eaf1", "fusion_lat": 0.0, "type": "electric_scooter", "lat": 38.927599, "is_reserved": 0, "is_disabled": 0, "fusion_lon": 0.0, "bike_id": "1facebc5a60cf488cec5568844f7eaf1", "lon": -77.032721, "rental_uris": {"ios": "https://dc.lft.to/lastmile_qr_scan", "android": "https://dc.lft.to/lastmile_qr_scan"}}, {"name": "4c3bf927300edb24c3c612f0a0e0252b", "fusion_lat": 0.0, "type": "electric_scooter", "lat": 38.919211, "is_reserved": 0, "is_disabled": 0, "fusion_lon": 0.0, "bike_id": "4c3bf927300edb24c3c612f0a0e0252b", "lon": -77.0242635, "rental_uris": {"ios": "https://dc.lft.to/lastmile_qr_scan", "android": "https://dc.lft.to/lastmile_qr_scan"}}, {"name": "42457d0e1c20697baf16550e0b7aad31", "fusion_lat": 0.0, "type": "electric_scooter", "lat": 38.897475666666665, "is_reserved": 0, "is_disabled": 0, "fusion_lon": 0.0, "bike_id": "42457d0e1c20697baf16550e0b7aad31", "lon": -77.02159983333334, "rental_uris": {"ios": "https://dc.lft.to/lastmile_qr_scan", "android": "https://dc.lft.to/lastmile_qr_scan"}}, {"name": "c8cd8d99c59d56193f4b2dece3d887fd", "fusion_lat": 0.0, "type": "electric_scooter", "lat": 38.87651366666667, "is_reserved": 0, "is_disabled": 0, "fusion_lon": 0.0, "bike_id": "c8cd8d99c59d56193f4b2dece3d887fd", "lon": -77.00591633333333, "rental_uris": {"ios": "https://dc.lft.to/lastmile_qr_scan", "android": "https://dc.lft.to/lastmile_qr_scan"}}, {"name": "d7a56a1008e5632a1366e44b88df748b", "fusion_lat": 0.0, "type": "electric_bike", "lat": 38.96439183333333, "is_reserved": 0, "is_disabled": 0, "fusion_lon": 0.0, "bike_id": "d7a56a1008e5632a1366e44b88df748b", "lon": -77.031642, "rental_uris": {"ios": "https://dc.lft.to/lastmile_qr_scan", "android": "https://dc.lft.to/lastmile_qr_scan"}}, {"name": "7d2a56e2f9263fd11e9a34f3016908ab", "fusion_lat": 0.0, "type": "electric_scooter", "lat": 38.9171985, "is_reserved": 0, "is_disabled": 0, "fusion_lon": 0.0, "bike_id": "7d2a56e2f9263fd11e9a34f3016908ab", "lon": -77.0081935, "rental_uris": {"ios": "https://dc.lft.to/lastmile_qr_scan", "android": "https://dc.lft.to/lastmile_qr_scan"}}, {"name": "6a9231a1ffc6c38ce53f6795e0eb0329", "fusion_lat": 0.0, "type": "electric_scooter", "lat": 38.925145, "is_reserved": 0, "is_disabled": 0, "fusion_lon": 0.0, "bike_id": "6a9231a1ffc6c38ce53f6795e0eb0329", "lon": -77.02557716666666, "rental_uris": {"ios": "https://dc.lft.to/lastmile_qr_scan", "android": "https://dc.lft.to/lastmile_qr_scan"}}, {"name": "cca4c7c131d0c2e2300149884d01c68f", "fusion_lat": 0.0, "type": "electric_scooter", "lat": 38.904840166666666, "is_reserved": 0, "is_disabled": 0, "fusion_lon": 0.0, "bike_id": "cca4c7c131d0c2e2300149884d01c68f", "lon": -77.02724383333333, "rental_uris": {"ios": "https://dc.lft.to/lastmile_qr_scan", "android": "https://dc.lft.to/lastmile_qr_scan"}}, {"name": "70ff115e9df7ae7570ab636c39989da2", "fusion_lat": 0.0, "type": "electric_scooter", "lat": 38.90782083333333, "is_reserved": 0, "is_disabled": 0, "fusion_lon": 0.0, "bike_id": "70ff115e9df7ae7570ab636c39989da2", "lon": -77.03859116666666, "rental_uris": {"ios": "https://dc.lft.to/lastmile_qr_scan", "android": "https://dc.lft.to/lastmile_qr_scan"}}, {"name": "86559500d52ae489d70a85cd02bf9184", "fusion_lat": 0.0, "type": "electric_scooter", "lat": 38.91098383333333, "is_reserved": 0, "is_disabled": 0, "fusion_lon": 0.0, "bike_id": "86559500d52ae489d70a85cd02bf9184", "lon": -77.02968066666666, "rental_uris": {"ios": "https://dc.lft.to/lastmile_qr_scan", "android": "https://dc.lft.to/lastmile_qr_scan"}}, {"name": "ed62de441142ce0598446b0d0f544347", "fusion_lat": 0.0, "type": "electric_scooter", "lat": 38.909142833333334, "is_reserved": 0, "is_disabled": 0, "fusion_lon": 0.0, "bike_id": "ed62de441142ce0598446b0d0f544347", "lon": -77.0416365, "rental_uris": {"ios": "https://dc.lft.to/lastmile_qr_scan", "android": "https://dc.lft.to/lastmile_qr_scan"}}, {"name": "95a1554054f9003a92b80fe0ad2c8cd0", "fusion_lat": 0.0, "type": "electric_scooter", "lat": 38.900614833333336, "is_reserved": 0, "is_disabled": 0, "fusion_lon": 0.0, "bike_id": "95a1554054f9003a92b80fe0ad2c8cd0", "lon": -77.01362266666666, "rental_uris": {"ios": "https://dc.lft.to/lastmile_qr_scan", "android": "https://dc.lft.to/lastmile_qr_scan"}}, {"name": "7a0f32f3f4b30fb4fc3ef0656217162e", "fusion_lat": 0.0, "type": "electric_bike", "lat": 38.84156016666667, "is_reserved": 0, "is_disabled": 0, "fusion_lon": 0.0, "bike_id": "7a0f32f3f4b30fb4fc3ef0656217162e", "lon": -77.0889325, "rental_uris": {"ios": "https://dc.lft.to/lastmile_qr_scan", "android": "https://dc.lft.to/lastmile_qr_scan"}}, {"name": "24641b3ebace02924ebaffc33505e9e6", "fusion_lat": 0.0, "type": "electric_scooter", "lat": 38.90139466666667, "is_reserved": 0, "is_disabled": 0, "fusion_lon": 0.0, "bike_id": "24641b3ebace02924ebaffc33505e9e6", "lon": -76.9911775, "rental_uris": {"ios": "https://dc.lft.to/lastmile_qr_scan", "android": "https://dc.lft.to/lastmile_qr_scan"}}, {"name": "fcd5366ccca13f0e3578270f03daf7ef", "fusion_lat": 0.0, "type": "electric_scooter", "lat": 38.9237615, "is_reserved": 0, "is_disabled": 0, "fusion_lon": 0.0, "bike_id": "fcd5366ccca13f0e3578270f03daf7ef", "lon": -77.0191985, "rental_uris": {"ios": "https://dc.lft.to/lastmile_qr_scan", "android": "https://dc.lft.to/lastmile_qr_scan"}}, {"name": "672cdf965525fbdaf2d248cae3774a0c", "fusion_lat": 0.0, "type": "electric_bike", "lat": 39.052018333333336, "is_reserved": 0, "is_disabled": 0, "fusion_lon": 0.0, "bike_id": "672cdf965525fbdaf2d248cae3774a0c", "lon": -77.109132, "rental_uris": {"ios": "https://dc.lft.to/lastmile_qr_scan", "android": "https://dc.lft.to/lastmile_qr_scan"}}, {"name": "5eed0f7650b5422fbf0312a1fff05242", "fusion_lat": 0.0, "type": "electric_scooter", "lat": 38.909852666666666, "is_reserved": 0, "is_disabled": 0, "fusion_lon": 0.0, "bike_id": "5eed0f7650b5422fbf0312a1fff05242", "lon": -77.048741, "rental_uris": {"ios": "https://dc.lft.to/lastmile_qr_scan", "android": "https://dc.lft.to/lastmile_qr_scan"}}, {"name": "f38878e9260ee2c673848cb1f7723053", "fusion_lat": 0.0, "type": "electric_scooter", "lat": 38.92360083333333, "is_reserved": 0, "is_disabled": 0, "fusion_lon": 0.0, "bike_id": "f38878e9260ee2c673848cb1f7723053", "lon": -77.05842316666667, "rental_uris": {"ios": "https://dc.lft.to/lastmile_qr_scan", "android": "https://dc.lft.to/lastmile_qr_scan"}}, {"name": "bd78491b755b515432f06da97700658e", "fusion_lat": 0.0, "type": "electric_scooter", "lat": 38.911051666666665, "is_reserved": 0, "is_disabled": 0, "fusion_lon": 0.0, "bike_id": "bd78491b755b515432f06da97700658e", "lon": -77.02459883333333, "rental_uris": {"ios": "https://dc.lft.to/lastmile_qr_scan", "android": "https://dc.lft.to/lastmile_qr_scan"}}, {"name": "bc6e3cf083e4b191dc1c54d8f1c6bf5d", "fusion_lat": 0.0, "type": "electric_scooter", "lat": 38.917438, "is_reserved": 0, "is_disabled": 0, "fusion_lon": 0.0, "bike_id": "bc6e3cf083e4b191dc1c54d8f1c6bf5d", "lon": -77.01890983333334, "rental_uris": {"ios": "https://dc.lft.to/lastmile_qr_scan", "android": "https://dc.lft.to/lastmile_qr_scan"}}, {"name": "1b96e24782434bd9f2ec03cfaba8ce05", "fusion_lat": 0.0, "type": "electric_scooter", "lat": 38.87580633333334, "is_reserved": 0, "is_disabled": 0, "fusion_lon": 0.0, "bike_id": "1b96e24782434bd9f2ec03cfaba8ce05", "lon": -77.01056883333334, "rental_uris": {"ios": "https://dc.lft.to/lastmile_qr_scan", "android": "https://dc.lft.to/lastmile_qr_scan"}}, {"name": "dc4ce28699b3a7c83d74710642ca7434", "fusion_lat": 0.0, "type": "electric_scooter", "lat": 38.912706666666665, "is_reserved": 0, "is_disabled": 0, "fusion_lon": 0.0, "bike_id": "dc4ce28699b3a7c83d74710642ca7434", "lon": -77.04498783333334, "rental_uris": {"ios": "https://dc.lft.to/lastmile_qr_scan", "android": "https://dc.lft.to/lastmile_qr_scan"}}, {"name": "cb7a7ac78b74a188950357bfe7e4502e", "fusion_lat": 0.0, "type": "electric_scooter", "lat": 38.925104, "is_reserved": 0, "is_disabled": 0, "fusion_lon": 0.0, "bike_id": "cb7a7ac78b74a188950357bfe7e4502e", "lon": -77.0017615, "rental_uris": {"ios": "https://dc.lft.to/lastmile_qr_scan", "android": "https://dc.lft.to/lastmile_qr_scan"}}, {"name": "06af89d0174371ec82daaa850b6a3d16", "fusion_lat": 0.0, "type": "electric_scooter", "lat": 38.895233, "is_reserved": 0, "is_disabled": 0, "fusion_lon": 0.0, "bike_id": "06af89d0174371ec82daaa850b6a3d16", "lon": -77.011467, "rental_uris": {"ios": "https://dc.lft.to/lastmile_qr_scan", "android": "https://dc.lft.to/lastmile_qr_scan"}}, {"name": "2cb1b8fdf30d0712687104c68e309843", "fusion_lat": 0.0, "type": "electric_scooter", "lat": 38.928489666666664, "is_reserved": 0, "is_disabled": 0, "fusion_lon": 0.0, "bike_id": "2cb1b8fdf30d0712687104c68e309843", "lon": -77.02741666666667, "rental_uris": {"ios": "https://dc.lft.to/lastmile_qr_scan", "android": "https://dc.lft.to/lastmile_qr_scan"}}, {"name": "fbba7dd3b1d187613502f4867a2a13d7", "fusion_lat": 0.0, "type": "electric_scooter", "lat": 38.919263666666666, "is_reserved": 0, "is_disabled": 0, "fusion_lon": 0.0, "bike_id": "fbba7dd3b1d187613502f4867a2a13d7", "lon": -77.034194, "rental_uris": {"ios": "https://dc.lft.to/lastmile_qr_scan", "android": "https://dc.lft.to/lastmile_qr_scan"}}, {"name": "b33d01adf098eb3d68585786d988fac4", "fusion_lat": 0.0, "type": "electric_scooter", "lat": 38.90681383333333, "is_reserved": 0, "is_disabled": 0, "fusion_lon": 0.0, "bike_id": "b33d01adf098eb3d68585786d988fac4", "lon": -77.0466165, "rental_uris": {"ios": "https://dc.lft.to/lastmile_qr_scan", "android": "https://dc.lft.to/lastmile_qr_scan"}}, {"name": "e1bf56ac12b558da82c1eb59148305c8", "fusion_lat": 0.0, "type": "electric_scooter", "lat": 38.909599, "is_reserved": 0, "is_disabled": 0, "fusion_lon": 0.0, "bike_id": "e1bf56ac12b558da82c1eb59148305c8", "lon": -77.027493, "rental_uris": {"ios": "https://dc.lft.to/lastmile_qr_scan", "android": "https://dc.lft.to/lastmile_qr_scan"}}, {"name": "4812b7657308cf5c8ea63cf5ad4308dc", "fusion_lat": 0.0, "type": "electric_scooter", "lat": 38.90196266666667, "is_reserved": 0, "is_disabled": 0, "fusion_lon": 0.0, "bike_id": "4812b7657308cf5c8ea63cf5ad4308dc", "lon": -76.98212833333334, "rental_uris": {"ios": "https://dc.lft.to/lastmile_qr_scan", "android": "https://dc.lft.to/lastmile_qr_scan"}}, {"name": "d2acceb148e32b14b8bf715a23d5d5db", "fusion_lat": 0.0, "type": "electric_scooter", "lat": 38.89611933333333, "is_reserved": 0, "is_disabled": 0, "fusion_lon": 0.0, "bike_id": "d2acceb148e32b14b8bf715a23d5d5db", "lon": -77.044651, "rental_uris": {"ios": "https://dc.lft.to/lastmile_qr_scan", "android": "https://dc.lft.to/lastmile_qr_scan"}}, {"name": "206151bbe419012bf7ff92de082bc380", "fusion_lat": 0.0, "type": "electric_scooter", "lat": 38.8903315, "is_reserved": 0, "is_disabled": 0, "fusion_lon": 0.0, "bike_id": "206151bbe419012bf7ff92de082bc380", "lon": -76.93755783333333, "rental_uris": {"ios": "https://dc.lft.to/lastmile_qr_scan", "android": "https://dc.lft.to/lastmile_qr_scan"}}, {"name": "6c419d55920a89fb152ab88031c2663d", "fusion_lat": 0.0, "type": "electric_scooter", "lat": 38.9176145, "is_reserved": 0, "is_disabled": 0, "fusion_lon": 0.0, "bike_id": "6c419d55920a89fb152ab88031c2663d", "lon": -77.09673016666666, "rental_uris": {"ios": "https://dc.lft.to/lastmile_qr_scan", "android": "https://dc.lft.to/lastmile_qr_scan"}}, {"name": "c83674849bae2f41f0fa59aebb6c0866", "fusion_lat": 0.0, "type": "electric_scooter", "lat": 38.9251805, "is_reserved": 0, "is_disabled": 0, "fusion_lon": 0.0, "bike_id": "c83674849bae2f41f0fa59aebb6c0866", "lon": -77.0331925, "rental_uris": {"ios": "https://dc.lft.to/lastmile_qr_scan", "android": "https://dc.lft.to/lastmile_qr_scan"}}, {"name": "80fd4df04b390fd043ebf1e8feff6c5b", "fusion_lat": 0.0, "type": "electric_scooter", "lat": 38.8665505, "is_reserved": 0, "is_disabled": 0, "fusion_lon": 0.0, "bike_id": "80fd4df04b390fd043ebf1e8feff6c5b", "lon": -76.98885066666666, "rental_uris": {"ios": "https://dc.lft.to/lastmile_qr_scan", "android": "https://dc.lft.to/lastmile_qr_scan"}}, {"name": "7c4830cbf5dc00052fa2f98db2f5e1ed", "fusion_lat": 0.0, "type": "electric_scooter", "lat": 38.91924133333333, "is_reserved": 0, "is_disabled": 0, "fusion_lon": 0.0, "bike_id": "7c4830cbf5dc00052fa2f98db2f5e1ed", "lon": -77.041562, "rental_uris": {"ios": "https://dc.lft.to/lastmile_qr_scan", "android": "https://dc.lft.to/lastmile_qr_scan"}}, {"name": "567c2f43f0296361967272a738223a19", "fusion_lat": 0.0, "type": "electric_bike", "lat": 38.990609166666665, "is_reserved": 0, "is_disabled": 0, "fusion_lon": 0.0, "bike_id": "567c2f43f0296361967272a738223a19", "lon": -77.10029966666667, "rental_uris": {"ios": "https://dc.lft.to/lastmile_qr_scan", "android": "https://dc.lft.to/lastmile_qr_scan"}}, {"name": "d5bfef1d9f3d5cda9a9452b760a027c8", "fusion_lat": 0.0, "type": "electric_scooter", "lat": 38.922072666666665, "is_reserved": 0, "is_disabled": 0, "fusion_lon": 0.0, "bike_id": "d5bfef1d9f3d5cda9a9452b760a027c8", "lon": -77.0424965, "rental_uris": {"ios": "https://dc.lft.to/lastmile_qr_scan", "android": "https://dc.lft.to/lastmile_qr_scan"}}, {"name": "266be74df4410a2596ea4898969b4bca", "fusion_lat": 0.0, "type": "electric_scooter", "lat": 38.9378375, "is_reserved": 0, "is_disabled": 0, "fusion_lon": 0.0, "bike_id": "266be74df4410a2596ea4898969b4bca", "lon": -77.06004433333334, "rental_uris": {"ios": "https://dc.lft.to/lastmile_qr_scan", "android": "https://dc.lft.to/lastmile_qr_scan"}}, {"name": "31b3681fd4ea2f90096323422f3b6887", "fusion_lat": 0.0, "type": "electric_scooter", "lat": 38.87644616666667, "is_reserved": 0, "is_disabled": 0, "fusion_lon": 0.0, "bike_id": "31b3681fd4ea2f90096323422f3b6887", "lon": -76.96508616666667, "rental_uris": {"ios": "https://dc.lft.to/lastmile_qr_scan", "android": "https://dc.lft.to/lastmile_qr_scan"}}, {"name": "0d2fa330f1f92caf895160c5b48b3c35", "fusion_lat": 0.0, "type": "electric_scooter", "lat": 38.8999555, "is_reserved": 0, "is_disabled": 0, "fusion_lon": 0.0, "bike_id": "0d2fa330f1f92caf895160c5b48b3c35", "lon": -77.02722983333334, "rental_uris": {"ios": "https://dc.lft.to/lastmile_qr_scan", "android": "https://dc.lft.to/lastmile_qr_scan"}}, {"name": "4eb83dd8dba5239441524a7905933b77", "fusion_lat": 0.0, "type": "electric_scooter", "lat": 38.938441166666664, "is_reserved": 0, "is_disabled": 0, "fusion_lon": 0.0, "bike_id": "4eb83dd8dba5239441524a7905933b77", "lon": -77.02478033333334, "rental_uris": {"ios": "https://dc.lft.to/lastmile_qr_scan", "android": "https://dc.lft.to/lastmile_qr_scan"}}, {"name": "ab0aa2f710ec4b4c08b14ea8b634a6d8", "fusion_lat": 0.0, "type": "electric_scooter", "lat": 38.89499433333334, "is_reserved": 0, "is_disabled": 0, "fusion_lon": 0.0, "bike_id": "ab0aa2f710ec4b4c08b14ea8b634a6d8", "lon": -77.02581933333333, "rental_uris": {"ios": "https://dc.lft.to/lastmile_qr_scan", "android": "https://dc.lft.to/lastmile_qr_scan"}}, {"name": "dbb28def821d572291eaff04f642a4cd", "fusion_lat": 0.0, "type": "electric_scooter", "lat": 38.90345133333334, "is_reserved": 0, "is_disabled": 0, "fusion_lon": 0.0, "bike_id": "dbb28def821d572291eaff04f642a4cd", "lon": -77.02606733333333, "rental_uris": {"ios": "https://dc.lft.to/lastmile_qr_scan", "android": "https://dc.lft.to/lastmile_qr_scan"}}, {"name": "4f59b798875320657744de8388f03095", "fusion_lat": 0.0, "type": "electric_scooter", "lat": 38.857995, "is_reserved": 0, "is_disabled": 0, "fusion_lon": 0.0, "bike_id": "4f59b798875320657744de8388f03095", "lon": -76.98649933333333, "rental_uris": {"ios": "https://dc.lft.to/lastmile_qr_scan", "android": "https://dc.lft.to/lastmile_qr_scan"}}, {"name": "abc541e09f27e3ca1c6e36cb62150896", "fusion_lat": 0.0, "type": "electric_scooter", "lat": 38.918063833333335, "is_reserved": 0, "is_disabled": 0, "fusion_lon": 0.0, "bike_id": "abc541e09f27e3ca1c6e36cb62150896", "lon": -77.03211583333334, "rental_uris": {"ios": "https://dc.lft.to/lastmile_qr_scan", "android": "https://dc.lft.to/lastmile_qr_scan"}}, {"name": "ca62a2547c4c80242742166c3e4b60b2", "fusion_lat": 0.0, "type": "electric_scooter", "lat": 38.902408666666666, "is_reserved": 0, "is_disabled": 0, "fusion_lon": 0.0, "bike_id": "ca62a2547c4c80242742166c3e4b60b2", "lon": -77.04356933333334, "rental_uris": {"ios": "https://dc.lft.to/lastmile_qr_scan", "android": "https://dc.lft.to/lastmile_qr_scan"}}, {"name": "50d9645d9c6723e26562e13f97cc58cf", "fusion_lat": 0.0, "type": "electric_scooter", "lat": 38.9295075, "is_reserved": 0, "is_disabled": 0, "fusion_lon": 0.0, "bike_id": "50d9645d9c6723e26562e13f97cc58cf", "lon": -77.03476683333334, "rental_uris": {"ios": "https://dc.lft.to/lastmile_qr_scan", "android": "https://dc.lft.to/lastmile_qr_scan"}}, {"name": "057e4d6c502ebf413f057a07ded1d567", "fusion_lat": 0.0, "type": "electric_scooter", "lat": 38.91114366666667, "is_reserved": 0, "is_disabled": 0, "fusion_lon": 0.0, "bike_id": "057e4d6c502ebf413f057a07ded1d567", "lon": -77.03715166666667, "rental_uris": {"ios": "https://dc.lft.to/lastmile_qr_scan", "android": "https://dc.lft.to/lastmile_qr_scan"}}, {"name": "049309eef743dfa0c7cd4a5c0360617e", "fusion_lat": 0.0, "type": "electric_scooter", "lat": 38.852002, "is_reserved": 0, "is_disabled": 0, "fusion_lon": 0.0, "bike_id": "049309eef743dfa0c7cd4a5c0360617e", "lon": -76.98567816666667, "rental_uris": {"ios": "https://dc.lft.to/lastmile_qr_scan", "android": "https://dc.lft.to/lastmile_qr_scan"}}, {"name": "a58011cf346221c160f2717da97c5e4c", "fusion_lat": 0.0, "type": "electric_scooter", "lat": 38.90585866666667, "is_reserved": 0, "is_disabled": 0, "fusion_lon": 0.0, "bike_id": "a58011cf346221c160f2717da97c5e4c", "lon": -77.07007316666666, "rental_uris": {"ios": "https://dc.lft.to/lastmile_qr_scan", "android": "https://dc.lft.to/lastmile_qr_scan"}}, {"name": "7ac15bf70dd1e50f3ada43d00a9a4e54", "fusion_lat": 0.0, "type": "electric_scooter", "lat": 38.8760205, "is_reserved": 0, "is_disabled": 0, "fusion_lon": 0.0, "bike_id": "7ac15bf70dd1e50f3ada43d00a9a4e54", "lon": -77.00063383333334, "rental_uris": {"ios": "https://dc.lft.to/lastmile_qr_scan", "android": "https://dc.lft.to/lastmile_qr_scan"}}, {"name": "782499becbb540fcb09e3a0fee95866f", "fusion_lat": 0.0, "type": "electric_bike", "lat": 38.875480333333336, "is_reserved": 0, "is_disabled": 0, "fusion_lon": 0.0, "bike_id": "782499becbb540fcb09e3a0fee95866f", "lon": -76.96757533333333, "rental_uris": {"ios": "https://dc.lft.to/lastmile_qr_scan", "android": "https://dc.lft.to/lastmile_qr_scan"}}, {"name": "1d5ffc935ba055121210d9ee53f1a78b", "fusion_lat": 0.0, "type": "electric_scooter", "lat": 38.87661666666666, "is_reserved": 0, "is_disabled": 0, "fusion_lon": 0.0, "bike_id": "1d5ffc935ba055121210d9ee53f1a78b", "lon": -77.004357, "rental_uris": {"ios": "https://dc.lft.to/lastmile_qr_scan", "android": "https://dc.lft.to/lastmile_qr_scan"}}, {"name": "ee8ca6e25a79979c489242e768c737be", "fusion_lat": 0.0, "type": "electric_bike", "lat": 38.94969833333333, "is_reserved": 0, "is_disabled": 0, "fusion_lon": 0.0, "bike_id": "ee8ca6e25a79979c489242e768c737be", "lon": -76.9728065, "rental_uris": {"ios": "https://dc.lft.to/lastmile_qr_scan", "android": "https://dc.lft.to/lastmile_qr_scan"}}, {"name": "101e5a06703377a37da077d672c0f34a", "fusion_lat": 0.0, "type": "electric_scooter", "lat": 38.90737283333333, "is_reserved": 0, "is_disabled": 0, "fusion_lon": 0.0, "bike_id": "101e5a06703377a37da077d672c0f34a", "lon": -77.04669633333333, "rental_uris": {"ios": "https://dc.lft.to/lastmile_qr_scan", "android": "https://dc.lft.to/lastmile_qr_scan"}}, {"name": "3c425ce4ade28309f5b3e17b5368b7df", "fusion_lat": 0.0, "type": "electric_scooter", "lat": 38.91841933333333, "is_reserved": 0, "is_disabled": 0, "fusion_lon": 0.0, "bike_id": "3c425ce4ade28309f5b3e17b5368b7df", "lon": -77.036481, "rental_uris": {"ios": "https://dc.lft.to/lastmile_qr_scan", "android": "https://dc.lft.to/lastmile_qr_scan"}}, {"name": "eb679dbb3ab9be9ef1a45e738537db1e", "fusion_lat": 0.0, "type": "electric_scooter", "lat": 38.925146166666664, "is_reserved": 0, "is_disabled": 0, "fusion_lon": 0.0, "bike_id": "eb679dbb3ab9be9ef1a45e738537db1e", "lon": -77.00216616666667, "rental_uris": {"ios": "https://dc.lft.to/lastmile_qr_scan", "android": "https://dc.lft.to/lastmile_qr_scan"}}, {"name": "55062a06340ccde5fe95f3954d289110", "fusion_lat": 0.0, "type": "electric_scooter", "lat": 38.900320666666666, "is_reserved": 0, "is_disabled": 0, "fusion_lon": 0.0, "bike_id": "55062a06340ccde5fe95f3954d289110", "lon": -77.006306, "rental_uris": {"ios": "https://dc.lft.to/lastmile_qr_scan", "android": "https://dc.lft.to/lastmile_qr_scan"}}, {"name": "3c1341ce8b2ca5fa29a05f8c8f286579", "fusion_lat": 0.0, "type": "electric_scooter", "lat": 38.932509333333336, "is_reserved": 0, "is_disabled": 0, "fusion_lon": 0.0, "bike_id": "3c1341ce8b2ca5fa29a05f8c8f286579", "lon": -77.04010916666667, "rental_uris": {"ios": "https://dc.lft.to/lastmile_qr_scan", "android": "https://dc.lft.to/lastmile_qr_scan"}}, {"name": "a54c1fc5d158b487c555e88b41888072", "fusion_lat": 0.0, "type": "electric_scooter", "lat": 38.91250433333333, "is_reserved": 0, "is_disabled": 0, "fusion_lon": 0.0, "bike_id": "a54c1fc5d158b487c555e88b41888072", "lon": -77.04023733333334, "rental_uris": {"ios": "https://dc.lft.to/lastmile_qr_scan", "android": "https://dc.lft.to/lastmile_qr_scan"}}, {"name": "b2da1a6cc8334e117a9f7752e7413229", "fusion_lat": 0.0, "type": "electric_scooter", "lat": 38.903661666666665, "is_reserved": 0, "is_disabled": 0, "fusion_lon": 0.0, "bike_id": "b2da1a6cc8334e117a9f7752e7413229", "lon": -77.04512933333334, "rental_uris": {"ios": "https://dc.lft.to/lastmile_qr_scan", "android": "https://dc.lft.to/lastmile_qr_scan"}}, {"name": "39e8dff331c0e148c6bd8a43a2358c7b", "fusion_lat": 0.0, "type": "electric_scooter", "lat": 38.934699, "is_reserved": 0, "is_disabled": 0, "fusion_lon": 0.0, "bike_id": "39e8dff331c0e148c6bd8a43a2358c7b", "lon": -77.0285475, "rental_uris": {"ios": "https://dc.lft.to/lastmile_qr_scan", "android": "https://dc.lft.to/lastmile_qr_scan"}}, {"name": "7664117b1ae89f5d9004378587989394", "fusion_lat": 0.0, "type": "electric_scooter", "lat": 38.911961166666664, "is_reserved": 0, "is_disabled": 0, "fusion_lon": 0.0, "bike_id": "7664117b1ae89f5d9004378587989394", "lon": -77.04472583333333, "rental_uris": {"ios": "https://dc.lft.to/lastmile_qr_scan", "android": "https://dc.lft.to/lastmile_qr_scan"}}, {"name": "4e845e0549a7bbf3a43154ee18635a84", "fusion_lat": 0.0, "type": "electric_scooter", "lat": 38.901305666666666, "is_reserved": 0, "is_disabled": 0, "fusion_lon": 0.0, "bike_id": "4e845e0549a7bbf3a43154ee18635a84", "lon": -77.02177016666667, "rental_uris": {"ios": "https://dc.lft.to/lastmile_qr_scan", "android": "https://dc.lft.to/lastmile_qr_scan"}}, {"name": "61571f337b69eac06df013226bc3073a", "fusion_lat": 0.0, "type": "electric_scooter", "lat": 38.937655, "is_reserved": 0, "is_disabled": 0, "fusion_lon": 0.0, "bike_id": "61571f337b69eac06df013226bc3073a", "lon": -77.03284983333333, "rental_uris": {"ios": "https://dc.lft.to/lastmile_qr_scan", "android": "https://dc.lft.to/lastmile_qr_scan"}}, {"name": "58ec93b4350403a55a850e7e12e462fb", "fusion_lat": 0.0, "type": "electric_scooter", "lat": 38.88917333333333, "is_reserved": 0, "is_disabled": 0, "fusion_lon": 0.0, "bike_id": "58ec93b4350403a55a850e7e12e462fb", "lon": -76.95376633333333, "rental_uris": {"ios": "https://dc.lft.to/lastmile_qr_scan", "android": "https://dc.lft.to/lastmile_qr_scan"}}, {"name": "285f9c7d64d3ba7f6e335f28b438f7d1", "fusion_lat": 0.0, "type": "electric_scooter", "lat": 38.909532, "is_reserved": 0, "is_disabled": 0, "fusion_lon": 0.0, "bike_id": "285f9c7d64d3ba7f6e335f28b438f7d1", "lon": -77.03391366666666, "rental_uris": {"ios": "https://dc.lft.to/lastmile_qr_scan", "android": "https://dc.lft.to/lastmile_qr_scan"}}, {"name": "cf29fbe9bb7aa28b44d4b6083c2fd5f7", "fusion_lat": 0.0, "type": "electric_scooter", "lat": 38.92885916666667, "is_reserved": 0, "is_disabled": 0, "fusion_lon": 0.0, "bike_id": "cf29fbe9bb7aa28b44d4b6083c2fd5f7", "lon": -77.02314266666667, "rental_uris": {"ios": "https://dc.lft.to/lastmile_qr_scan", "android": "https://dc.lft.to/lastmile_qr_scan"}}, {"name": "b163fbf45cf9a74b48570b25af370088", "fusion_lat": 0.0, "type": "electric_scooter", "lat": 38.9264325, "is_reserved": 0, "is_disabled": 0, "fusion_lon": 0.0, "bike_id": "b163fbf45cf9a74b48570b25af370088", "lon": -77.03688083333333, "rental_uris": {"ios": "https://dc.lft.to/lastmile_qr_scan", "android": "https://dc.lft.to/lastmile_qr_scan"}}, {"name": "c9769476a6bfdf6558b545a2a8229078", "fusion_lat": 0.0, "type": "electric_scooter", "lat": 38.891972, "is_reserved": 0, "is_disabled": 0, "fusion_lon": 0.0, "bike_id": "c9769476a6bfdf6558b545a2a8229078", "lon": -77.00236616666666, "rental_uris": {"ios": "https://dc.lft.to/lastmile_qr_scan", "android": "https://dc.lft.to/lastmile_qr_scan"}}, {"name": "f8e5c857b5ebf49555a90e4078789555", "fusion_lat": 0.0, "type": "electric_scooter", "lat": 38.905709, "is_reserved": 0, "is_disabled": 0, "fusion_lon": 0.0, "bike_id": "f8e5c857b5ebf49555a90e4078789555", "lon": -77.02746683333334, "rental_uris": {"ios": "https://dc.lft.to/lastmile_qr_scan", "android": "https://dc.lft.to/lastmile_qr_scan"}}, {"name": "87556dea5fbcd3935ee3408762afb95f", "fusion_lat": 0.0, "type": "electric_scooter", "lat": 38.90536433333333, "is_reserved": 0, "is_disabled": 0, "fusion_lon": 0.0, "bike_id": "87556dea5fbcd3935ee3408762afb95f", "lon": -77.050543, "rental_uris": {"ios": "https://dc.lft.to/lastmile_qr_scan", "android": "https://dc.lft.to/lastmile_qr_scan"}}, {"name": "d1f3e62a05066c1b4cb12ce1a6346b07", "fusion_lat": 0.0, "type": "electric_scooter", "lat": 38.91630933333333, "is_reserved": 0, "is_disabled": 0, "fusion_lon": 0.0, "bike_id": "d1f3e62a05066c1b4cb12ce1a6346b07", "lon": -77.00107416666667, "rental_uris": {"ios": "https://dc.lft.to/lastmile_qr_scan", "android": "https://dc.lft.to/lastmile_qr_scan"}},