{"data": {"bikes": [{"is_reserved": 0, "type": "electric_scooter", "bike_id": "6cfcbf546039c05757bb76af71dde3bd", "lat": 38.9242285, "lon": -77.01946766666667, "rental_uris": {"android": "https://dc.lft.to/lastmile_qr_scan", "ios": "https://dc.lft.to/lastmile_qr_scan"}, "is_disabled": 0, "fusion_lat": 0.0, "name": "6cfcbf546039c05757bb76af71dde3bd", "fusion_lon": 0.0}, {"is_reserved": 0, "type": "electric_bike", "bike_id": "3e23236371ba594a7df59c28bcebd51b", "lat": 38.882157, "lon": -77.1116085, "rental_uris": {"android": "https://dc.lft.to/lastmile_qr_scan", "ios": "https://dc.lft.to/lastmile_qr_scan"}, "is_disabled": 0, "fusion_lat": 0.0, "name": "3e23236371ba594a7df59c28bcebd51b", "fusion_lon": 0.0}, {"is_reserved": 0, "type": "electric_scooter", "bike_id": "221348ef3a25e3ad5a7047d6c6a666ea", "lat": 38.906076166666665, "lon": -77.05030416666666, "rental_uris": {"android": "https://dc.lft.to/lastmile_qr_scan", "ios": "https://dc.lft.to/lastmile_qr_scan"}, "is_disabled": 0, "fusion_lat": 0.0, "name": "221348ef3a25e3ad5a7047d6c6a666ea", "fusion_lon": 0.0}, {"is_reserved": 0, "type": "electric_scooter", "bike_id": "253251e4da00b841fe0a906e644a79ad", "lat": 38.90842683333333, "lon": -76.99981816666667, "rental_uris": {"android": "https://dc.lft.to/lastmile_qr_scan", "ios": "https://dc.lft.to/lastmile_qr_scan"}, "is_disabled": 0, "fusion_lat": 0.0, "name": "253251e4da00b841fe0a906e644a79ad", "fusion_lon": 0.0}, {"is_reserved": 0, "type": "electric_scooter", "bike_id": "b3d87088eb3da560394bfbc4b6e73b8e", "lat": 38.9059, "lon": -77.01612433333334, "rental_uris": {"android": "https://dc.lft.to/lastmile_qr_scan", "ios": "https://dc.lft.to/lastmile_qr_scan"}, "is_disabled": 0, "fusion_lat": 0.0, "name": "b3d87088eb3da560394bfbc4b6e73b8e", "fusion_lon": 0.0}, {"is_reserved": 0, "type": "electric_scooter", "bike_id": "857efa7e49daedee635f6293107b8a7c", "lat": 38.929340833333335, "lon": -77.03761683333333, "rental_uris": {"android": "https://dc.lft.to/lastmile_qr_scan", "ios": "https://dc.lft.to/lastmile_qr_scan"}, "is_disabled": 0, "fusion_lat": 0.0, "name": "857efa7e49daedee635f6293107b8a7c", "fusion_lon": 0.0}, {"is_reserved": 0, "type": "electric_scooter", "bike_id": "cdd38193f8fdfde04534c0ba06a47972", "lat": 38.9017355, "lon": -77.05092633333334, "rental_uris": {"android": "https://dc.lft.to/lastmile_qr_scan", "ios": "https://dc.lft.to/lastmile_qr_scan"}, "is_disabled": 0, "fusion_lat": 0.0, "name": "cdd38193f8fdfde04534c0ba06a47972", "fusion_lon": 0.0}, {"is_reserved": 0, "type": "electric_scooter", "bike_id": "b5e6d536717b88ea40d841f5a4a31667", "lat": 38.887867666666665, "lon": -76.977148, "rental_uris": {"android": "https://dc.lft.to/lastmile_qr_scan", "ios": "https://dc.lft.to/lastmile_qr_scan"}, "is_disabled": 0, "fusion_lat": 0.0, "name": "b5e6d536717b88ea40d841f5a4a31667", "fusion_lon": 0.0}, {"is_reserved": 0, "type": "electric_scooter", "bike_id": "5091295b0b3cde7ba6d150ae563ffee6", "lat": 38.87302433333333, "lon": -77.015552, "rental_uris": {"android": "https://dc.lft.to/lastmile_qr_scan", "ios": "https://dc.lft.to/lastmile_qr_scan"}, "is_disabled": 0, "fusion_lat": 0.0, "name": "5091295b0b3cde7ba6d150ae563ffee6", "fusion_lon": 0.0}, {"is_reserved": 0, "type": "electric_scooter", "bike_id": "8ef6148259c273b783200a368ade677f", "lat": 38.913535, "lon": -77.02768516666667, "rental_uris": {"android": "https://dc.lft.to/lastmile_qr_scan", "ios": "https://dc.lft.to/lastmile_qr_scan"}, "is_disabled": 0, "fusion_lat": 0.0, "name": "8ef6148259c273b783200a368ade677f", "fusion_lon": 0.0}, {"is_reserved": 0, "type": "electric_scooter", "bike_id": "5715d581ff1962bb7d6ca489a7e0be35", "lat": 38.90042583333334, "lon": -77.04339766666666, "rental_uris": {"android": "https://dc.lft.to/lastmile_qr_scan", "ios": "https://dc.lft.to/lastmile_qr_scan"}, "is_disabled": 0, "fusion_lat": 0.0, "name": "5715d581ff1962bb7d6ca489a7e0be35", "fusion_lon": 0.0}, {"is_reserved": 0, "type": "electric_scooter", "bike_id": "80a60626149461e564b8613ccf6f5708", "lat": 38.91414066666667, "lon": -77.0313755, "rental_uris": {"android": "https://dc.lft.to/lastmile_qr_scan", "ios": "https://dc.lft.to/lastmile_qr_scan"}, "is_disabled": 0, "fusion_lat": 0.0, "name": "80a60626149461e564b8613ccf6f5708", "fusion_lon": 0.0}, {"is_reserved": 0, "type": "electric_scooter", "bike_id": "0dde988c39972d5d0212ff6d93d1e320", "lat": 38.9389325, "lon": -77.01765083333333, "rental_uris": {"android": "https://dc.lft.to/lastmile_qr_scan", "ios": "https://dc.lft.to/lastmile_qr_scan"}, "is_disabled": 0, "fusion_lat": 0.0, "name": "0dde988c39972d5d0212ff6d93d1e320", "fusion_lon": 0.0}, {"is_reserved": 0, "type": "electric_scooter", "bike_id": "e4fb692cfc12045fab70bbb0c6634ff9", "lat": 38.902669833333334, "lon": -77.047172, "rental_uris": {"android": "https://dc.lft.to/lastmile_qr_scan", "ios": "https://dc.lft.to/lastmile_qr_scan"}, "is_disabled": 0, "fusion_lat": 0.0, "name": "e4fb692cfc12045fab70bbb0c6634ff9", "fusion_lon": 0.0}, {"is_reserved": 0, "type": "electric_scooter", "bike_id": "8700941ae683cee540d8fe96ed2dddd0", "lat": 38.89752133333333, "lon": -76.976953, "rental_uris": {"android": "https://dc.lft.to/lastmile_qr_scan", "ios": "https://dc.lft.to/lastmile_qr_scan"}, "is_disabled": 0, "fusion_lat": 0.0, "name": "8700941ae683cee540d8fe96ed2dddd0", "fusion_lon": 0.0}, {"is_reserved": 0, "type": "electric_scooter", "bike_id": "bb9744c22c089f141e1533b03b322b17", "lat": 38.901485, "lon": -77.000751, "rental_uris": {"android": "https://dc.lft.to/lastmile_qr_scan", "ios": "https://dc.lft.to/lastmile_qr_scan"}, "is_disabled": 0, "fusion_lat": 0.0, "name": "bb9744c22c089f141e1533b03b322b17", "fusion_lon": 0.0}, {"is_reserved": 0, "type": "electric_scooter", "bike_id": "6e0b888602c9ec57b785fb125814f42e", "lat": 38.957690666666664, "lon": -77.0148205, "rental_uris": {"android": "https://dc.lft.to/lastmile_qr_scan", "ios": "https://dc.lft.to/lastmile_qr_scan"}, "is_disabled": 0, "fusion_lat": 0.0, "name": "6e0b888602c9ec57b785fb125814f42e", "fusion_lon": 0.0}, {"is_reserved": 0, "type": "electric_scooter", "bike_id": "e29b263e135daa0ae20b996d96dc1e9a", "lat": 38.90925516666667, "lon": -77.03205316666667, "rental_uris": {"android": "https://dc.lft.to/lastmile_qr_scan", "ios": "https://dc.lft.to/lastmile_qr_scan"}, "is_disabled": 0, "fusion_lat": 0.0, "name": "e29b263e135daa0ae20b996d96dc1e9a", "fusion_lon": 0.0}, {"is_reserved": 0, "type": "electric_bike", "bike_id": "804498f6fa7b2898b091e6bea947fea3", "lat": 38.85599033333333, "lon": -76.97457866666667, "rental_uris": {"android": "https://dc.lft.to/lastmile_qr_scan", "ios": "https://dc.lft.to/lastmile_qr_scan"}, "is_disabled": 0, "fusion_lat": 0.0, "name": "804498f6fa7b2898b091e6bea947fea3", "fusion_lon": 0.0}, {"is_reserved": 0, "type": "electric_bike", "bike_id": "291f9fb27f6ace7369af98e2835192bc", "lat": 38.80675633333333, "lon": -77.08758283333333, "rental_uris": {"android": "https://dc.lft.to/lastmile_qr_scan", "ios": "https://dc.lft.to/lastmile_qr_scan"}, "is_disabled": 0, "fusion_lat": 0.0, "name": "291f9fb27f6ace7369af98e2835192bc", "fusion_lon": 0.0}, {"is_reserved": 0, "type": "electric_scooter", "bike_id": "1e27b3d5f9517e6a1e8290296aabf9c7", "lat": 38.919613, "lon": -77.01437666666666, "rental_uris": {"android": "https://dc.lft.to/lastmile_qr_scan", "ios": "https://dc.lft.to/lastmile_qr_scan"}, "is_disabled": 0, "fusion_lat": 0.0, "name": "1e27b3d5f9517e6a1e8290296aabf9c7", "fusion_lon": 0.0}, {"is_reserved": 0, "type": "electric_scooter", "bike_id": "39a0066cf7961f2121757a248b7e0781", "lat": 38.90582416666667, "lon": -77.0366965, "rental_uris": {"android": "https://dc.lft.to/lastmile_qr_scan", "ios": "https://dc.lft.to/lastmile_qr_scan"}, "is_disabled": 0, "fusion_lat": 0.0, "name": "39a0066cf7961f2121757a248b7e0781", "fusion_lon": 0.0}, {"is_reserved": 0, "type": "electric_scooter", "bike_id": "cc898296988dd5da6e47c6833a9a8a1c", "lat": 38.91554883333333, "lon": -77.0447485, "rental_uris": {"android": "https://dc.lft.to/lastmile_qr_scan", "ios": "https://dc.lft.to/lastmile_qr_scan"}, "is_disabled": 0, "fusion_lat": 0.0, "name": "cc898296988dd5da6e47c6833a9a8a1c", "fusion_lon": 0.0}, {"is_reserved": 0, "type": "electric_scooter", "bike_id": "6b5aa409e18afed768621c2e156d03f4", "lat": 38.9069825, "lon": -76.98698866666666, "rental_uris": {"android": "https://dc.lft.to/lastmile_qr_scan", "ios": "https://dc.lft.to/lastmile_qr_scan"}, "is_disabled": 0, "fusion_lat": 0.0, "name": "6b5aa409e18afed768621c2e156d03f4", "fusion_lon": 0.0}, {"is_reserved": 0, "type": "electric_bike", "bike_id": "de1a8a0c8ff1a13e60b20bab9a33c20b", "lat": 38.87212916666667, "lon": -77.11737283333333, "rental_uris": {"android": "https://dc.lft.to/lastmile_qr_scan", "ios": "https://dc.lft.to/lastmile_qr_scan"}, "is_disabled": 0, "fusion_lat": 0.0, "name": "de1a8a0c8ff1a13e60b20bab9a33c20b", "fusion_lon": 0.0}, {"is_reserved": 0, "type": "electric_scooter", "bike_id": "b8f0934a00893b7802d4e49f1b04f6ee", "lat": 38.925082333333336, "lon": -77.02273983333333, "rental_uris": {"android": "https://dc.lft.to/lastmile_qr_scan", "ios": "https://dc.lft.to/lastmile_qr_scan"}, "is_disabled": 0, "fusion_lat": 0.0, "name": "b8f0934a00893b7802d4e49f1b04f6ee", "fusion_lon": 0.0}, {"is_reserved": 0, "type": "electric_bike", "bike_id": "8a459edfb9557bb15282793bf3b4ba63", "lat": 38.94314133333334, "lon": -76.99013966666666, "rental_uris": {"android": "https://dc.lft.to/lastmile_qr_scan", "ios": "https://dc.lft.to/lastmile_qr_scan"}, "is_disabled": 0, "fusion_lat": 0.0, "name": "8a459edfb9557bb15282793bf3b4ba63", "fusion_lon": 0.0}, {"is_reserved": 0, "type": "electric_scooter", "bike_id": "f13928fef54c8daf7ef82f696b043f04", "lat": 38.919761333333334, "lon": -77.02512066666667, "rental_uris": {"android": "https://dc.lft.to/lastmile_qr_scan", "ios": "https://dc.lft.to/lastmile_qr_scan"}, "is_disabled": 0, "fusion_lat": 0.0, "name": "f13928fef54c8daf7ef82f696b043f04", "fusion_lon": 0.0}, {"is_reserved": 0, "type": "electric_scooter", "bike_id": "c03264444cd4c4336e5f1b6720ee0b66", "lat": 38.91676966666667, "lon": -77.02976466666667, "rental_uris": {"android": "https://dc.lft.to/lastmile_qr_scan", "ios": "https://dc.lft.to/lastmile_qr_scan"}, "is_disabled": 0, "fusion_lat": 0.0, "name": "c03264444cd4c4336e5f1b6720ee0b66", "fusion_lon": 0.0}, {"is_reserved": 0, "type": "electric_scooter", "bike_id": "49f67ea80cf6d81b4b5aeedaa7b8ebdb", "lat": 38.88404366666666, "lon": -76.9304175, "rental_uris": {"android": "https://dc.lft.to/lastmile_qr_scan", "ios": "https://dc.lft.to/lastmile_qr_scan"}, "is_disabled": 0, "fusion_lat": 0.0, "name": "49f67ea80cf6d81b4b5aeedaa7b8ebdb", "fusion_lon": 0.0}, {"is_reserved": 0, "type": "electric_scooter", "bike_id": "bfcf0bab6590d1a52c43c788cf81058e", "lat": 38.89270283333333, "lon": -76.92994883333333, "rental_uris": {"android": "https://dc.lft.to/lastmile_qr_scan", "ios": "https://dc.lft.to/lastmile_qr_scan"}, "is_disabled": 0, "fusion_lat": 0.0, "name": "bfcf0bab6590d1a52c43c788cf81058e", "fusion_lon": 0.0}, {"is_reserved": 0, "type": "electric_scooter", "bike_id": "6e02d6e28fbfdda2b07ad224986417d2", "lat": 38.879222666666664, "lon": -77.02154333333333, "rental_uris": {"android": "https://dc.lft.to/lastmile_qr_scan", "ios": "https://dc.lft.to/lastmile_qr_scan"}, "is_disabled": 0, "fusion_lat": 0.0, "name": "6e02d6e28fbfdda2b07ad224986417d2", "fusion_lon": 0.0}, {"is_reserved": 0, "type": "electric_scooter", "bike_id": "2440f28ce7d3e96ef1ab69d9ca48174b", "lat": 38.93004783333333, "lon": -77.01820666666667, "rental_uris": {"android": "https://dc.lft.to/lastmile_qr_scan", "ios": "https://dc.lft.to/lastmile_qr_scan"}, "is_disabled": 0, "fusion_lat": 0.0, "name": "2440f28ce7d3e96ef1ab69d9ca48174b", "fusion_lon": 0.0}, {"is_reserved": 0, "type": "electric_scooter", "bike_id": "a5afe107abf85185f70b8838f1d05fdb", "lat": 38.916526, "lon": -77.01028483333333, "rental_uris": {"android": "https://dc.lft.to/lastmile_qr_scan", "ios": "https://dc.lft.to/lastmile_qr_scan"}, "is_disabled": 0, "fusion_lat": 0.0, "name": "a5afe107abf85185f70b8838f1d05fdb", "fusion_lon": 0.0}, {"is_reserved": 0, "type": "electric_scooter", "bike_id": "edf90ed5a8bd86057749ba1eaf1ffd20", "lat": 38.908481, "lon": -77.0259335, "rental_uris": {"android": "https://dc.lft.to/lastmile_qr_scan", "ios": "https://dc.lft.to/lastmile_qr_scan"}, "is_disabled": 0, "fusion_lat": 0.0, "name": "edf90ed5a8bd86057749ba1eaf1ffd20", "fusion_lon": 0.0}, {"is_reserved": 0, "type": "electric_scooter", "bike_id": "85d9d02f1637d135845b4804489fea46", "lat": 38.90166933333333, "lon": -76.9806635, "rental_uris": {"android": "https://dc.lft.to/lastmile_qr_scan", "ios": "https://dc.lft.to/lastmile_qr_scan"}, "is_disabled": 0, "fusion_lat": 0.0, "name": "85d9d02f1637d135845b4804489fea46", "fusion_lon": 0.0}, {"is_reserved": 0, "type": "electric_scooter", "bike_id": "b6468ec887f434c312ef702275846f29", "lat": 38.90013366666667, "lon": -76.93028316666667, "rental_uris": {"android": "https://dc.lft.to/lastmile_qr_scan", "ios": "https://dc.lft.to/lastmile_qr_scan"}, "is_disabled": 0, "fusion_lat": 0.0, "name": "b6468ec887f434c312ef702275846f29", "fusion_lon": 0.0}, {"is_reserved": 0, "type": "electric_scooter", "bike_id": "b1a6bb075dd41009825bc8196abf55f0", "lat": 38.89615033333333, "lon": -76.976827, "rental_uris": {"android": "https://dc.lft.to/lastmile_qr_scan", "ios": "https://dc.lft.to/lastmile_qr_scan"}, "is_disabled": 0, "fusion_lat": 0.0, "name": "b1a6bb075dd41009825bc8196abf55f0", "fusion_lon": 0.0}, {"is_reserved": 0, "type": "electric_scooter", "bike_id": "d7a8ce24879622a1cf99ab2797b4fc4e", "lat": 38.90184433333334, "lon": -77.03385983333334, "rental_uris": {"android": "https://dc.lft.to/lastmile_qr_scan", "ios": "https://dc.lft.to/lastmile_qr_scan"}, "is_disabled": 0, "fusion_lat": 0.0, "name": "d7a8ce24879622a1cf99ab2797b4fc4e", "fusion_lon": 0.0}, {"is_reserved": 0, "type": "electric_scooter", "bike_id": "1e533f69a75c04b04d3f1c4a5c29ff1f", "lat": 38.921551666666666, "lon": -77.02089283333333, "rental_uris": {"android": "https://dc.lft.to/lastmile_qr_scan", "ios": "https://dc.lft.to/lastmile_qr_scan"}, "is_disabled": 0, "fusion_lat": 0.0, "name": "1e533f69a75c04b04d3f1c4a5c29ff1f", "fusion_lon": 0.0}, {"is_reserved": 0, "type": "electric_scooter", "bike_id": "333e65ba81b3744d79c29d6472e259d3", "lat": 38.90146266666667, "lon": -76.98000383333333, "rental_uris": {"android": "https://dc.lft.to/lastmile_qr_scan", "ios": "https://dc.lft.to/lastmile_qr_scan"}, "is_disabled": 0, "fusion_lat": 0.0, "name": "333e65ba81b3744d79c29d6472e259d3", "fusion_lon": 0.0}, {"is_reserved": 0, "type": "electric_scooter", "bike_id": "8da09183e4119b1cdb559e3e871abe68", "lat": 38.9141965, "lon": -77.01873633333334, "rental_uris": {"android": "https://dc.lft.to/lastmile_qr_scan", "ios": "https://dc.lft.to/lastmile_qr_scan"}, "is_disabled": 0, "fusion_lat": 0.0, "name": "8da09183e4119b1cdb559e3e871abe68", "fusion_lon": 0.0}, {"is_reserved": 0, "type": "electric_scooter", "bike_id": "631d7b6d2db711a46b32a37b0680811a", "lat": 38.934677, "lon": -77.04127816666667, "rental_uris": {"android": "https://dc.lft.to/lastmile_qr_scan", "ios": "https://dc.lft.to/lastmile_qr_scan"}, "is_disabled": 0, "fusion_lat": 0.0, "name": "631d7b6d2db711a46b32a37b0680811a", "fusion_lon": 0.0}, {"is_reserved": 0, "type": "electric_scooter", "bike_id": "a3e8af35a1bcf122250710f978ea7e0c", "lat": 38.871794666666666, "lon": -77.006103, "rental_uris": {"android": "https://dc.lft.to/lastmile_qr_scan", "ios": "https://dc.lft.to/lastmile_qr_scan"}, "is_disabled": 0, "fusion_lat": 0.0, "name": "a3e8af35a1bcf122250710f978ea7e0c", "fusion_lon": 0.0}, {"is_reserved": 0, "type": "electric_scooter", "bike_id": "998cbe1819c13dba7947128a764a44b6", "lat": 38.907783333333334, "lon": -77.03759866666667, "rental_uris": {"android": "https://dc.lft.to/lastmile_qr_scan", "ios": "https://dc.lft.to/lastmile_qr_scan"}, "is_disabled": 0, "fusion_lat": 0.0, "name": "998cbe1819c13dba7947128a764a44b6", "fusion_lon": 0.0}, {"is_reserved": 0, "type": "electric_scooter", "bike_id": "c8369e942a5f722599a8de64e17a20e9", "lat": 38.9223065, "lon": -77.0232915, "rental_uris": {"android": "https://dc.lft.to/lastmile_qr_scan", "ios": "https://dc.lft.to/lastmile_qr_scan"}, "is_disabled": 0, "fusion_lat": 0.0, "name": "c8369e942a5f722599a8de64e17a20e9", "fusion_lon": 0.0}, {"is_reserved": 0, "type": "electric_bike", "bike_id": "b24ebcc612625741fa4b489bf04beb15", "lat": 38.966180666666666, "lon": -77.0343725, "rental_uris": {"android": "https://dc.lft.to/lastmile_qr_scan", "ios": "https://dc.lft.to/lastmile_qr_scan"}, "is_disabled": 0, "fusion_lat": 0.0, "name": "b24ebcc612625741fa4b489bf04beb15", "fusion_lon": 0.0}, {"is_reserved": 0, "type": "electric_scooter", "bike_id": "f4c83588a9ea7f689f1b11c1d2697764", "lat": 38.91473583333333, "lon": -77.03183616666666, "rental_uris": {"android": "https://dc.lft.to/lastmile_qr_scan", "ios": "https://dc.lft.to/lastmile_qr_scan"}, "is_disabled": 0, "fusion_lat": 0.0, "name": "f4c83588a9ea7f689f1b11c1d2697764", "fusion_lon": 0.0}, {"is_reserved": 0, "type": "electric_scooter", "bike_id": "d02572201e57a88443a5d9de498738a9", "lat": 38.911955666666664, "lon": -77.03219583333333, "rental_uris": {"android": "https://dc.lft.to/lastmile_qr_scan", "ios": "https://dc.lft.to/lastmile_qr_scan"}, "is_disabled": 0, "fusion_lat": 0.0, "name": "d02572201e57a88443a5d9de498738a9", "fusion_lon": 0.0}, {"is_reserved": 0, "type": "electric_scooter", "bike_id": "5690dc3f9cc602fce117b09a2dd09918", "lat": 38.91404983333334, "lon": -77.03171416666666, "rental_uris": {"android": "https://dc.lft.to/lastmile_qr_scan", "ios": "https://dc.lft.to/lastmile_qr_scan"}, "is_disabled": 0, "fusion_lat": 0.0, "name": "5690dc3f9cc602fce117b09a2dd09918", "fusion_lon": 0.0}, {"is_reserved": 0, "type": "electric_scooter", "bike_id": "f47b22de5780b51998e001099551c688", "lat": 38.911076666666666, "lon": -77.07344616666667, "rental_uris": {"android": "https://dc.lft.to/lastmile_qr_scan", "ios": "https://dc.lft.to/lastmile_qr_scan"}, "is_disabled": 0, "fusion_lat": 0.0, "name": "f47b22de5780b51998e001099551c688", "fusion_lon": 0.0}, {"is_reserved": 0, "type": "electric_scooter", "bike_id": "03077c8d9959d305ceebdaa2e85e2620", "lat": 38.924034666666664, "lon": -77.01943766666666, "rental_uris": {"android": "https://dc.lft.to/lastmile_qr_scan", "ios": "https://dc.lft.to/lastmile_qr_scan"}, "is_disabled": 0, "fusion_lat": 0.0, "name": "03077c8d9959d305ceebdaa2e85e2620", "fusion_lon": 0.0}, {"is_reserved": 0, "type": "electric_scooter", "bike_id": "d928789e58620e3cb536af801fa1d164", "lat": 38.9230255, "lon": -77.03017733333333, "rental_uris": {"android": "https://dc.lft.to/lastmile_qr_scan", "ios": "https://dc.lft.to/lastmile_qr_scan"}, "is_disabled": 0, "fusion_lat": 0.0, "name": "d928789e58620e3cb536af801fa1d164", "fusion_lon": 0.0}, {"is_reserved": 0, "type": "electric_scooter", "bike_id": "cb28ab0bad30492f42e215294b070318", "lat": 38.898059833333335, "lon": -77.0461825, "rental_uris": {"android": "https://dc.lft.to/lastmile_qr_scan", "ios": "https://dc.lft.to/lastmile_qr_scan"}, "is_disabled": 0, "fusion_lat": 0.0, "name": "cb28ab0bad30492f42e215294b070318", "fusion_lon": 0.0}, {"is_reserved": 0, "type": "electric_scooter", "bike_id": "50900f904e4e80dfee7017eacc107272", "lat": 38.883007166666665, "lon": -76.948552, "rental_uris": {"android": "https://dc.lft.to/lastmile_qr_scan", "ios": "https://dc.lft.to/lastmile_qr_scan"}, "is_disabled": 0, "fusion_lat": 0.0, "name": "50900f904e4e80dfee7017eacc107272", "fusion_lon": 0.0}, {"is_reserved": 0, "type": "electric_scooter", "bike_id": "579f07811300d0ea51882f2ea75c0e5b", "lat": 38.921470166666666, "lon": -77.02093483333333, "rental_uris": {"android": "https://dc.lft.to/lastmile_qr_scan", "ios": "https://dc.lft.to/lastmile_qr_scan"}, "is_disabled": 0, "fusion_lat": 0.0, "name": "579f07811300d0ea51882f2ea75c0e5b", "fusion_lon": 0.0}, {"is_reserved": 0, "type": "electric_scooter", "bike_id": "5e9149be168374787d2ec80aa9ddaaee", "lat": 38.926125666666664, "lon": -77.02160433333333, "rental_uris": {"android": "https://dc.lft.to/lastmile_qr_scan", "ios": "https://dc.lft.to/lastmile_qr_scan"}, "is_disabled": 0, "fusion_lat": 0.0, "name": "5e9149be168374787d2ec80aa9ddaaee", "fusion_lon": 0.0}, {"is_reserved": 0, "type": "electric_scooter", "bike_id": "04287dc2d80f744dc05d11f600915e4d", "lat": 38.90592433333333, "lon": -77.0363285, "rental_uris": {"android": "https://dc.lft.to/lastmile_qr_scan", "ios": "https://dc.lft.to/lastmile_qr_scan"}, "is_disabled": 0, "fusion_lat": 0.0, "name": "04287dc2d80f744dc05d11f600915e4d", "fusion_lon": 0.0}, {"is_reserved": 0, "type": "electric_scooter", "bike_id": "e902b9b66eb6845af6cd22ef643e161f", "lat": 38.90985533333333, "lon": -77.0303985, "rental_uris": {"android": "https://dc.lft.to/lastmile_qr_scan", "ios": "https://dc.lft.to/lastmile_qr_scan"}, "is_disabled": 0, "fusion_lat": 0.0, "name": "e902b9b66eb6845af6cd22ef643e161f", "fusion_lon": 0.0}, {"is_reserved": 0, "type": "electric_scooter", "bike_id": "224eb782c84ed64cbd89fd8df518db73", "lat": 38.966475, "lon": -77.00892883333333, "rental_uris": {"android": "https://dc.lft.to/lastmile_qr_scan", "ios": "https://dc.lft.to/lastmile_qr_scan"}, "is_disabled": 0, "fusion_lat": 0.0, "name": "224eb782c84ed64cbd89fd8df518db73", "fusion_lon": 0.0}, {"is_reserved": 0, "type": "electric_scooter", "bike_id": "6739349a524ec0a44aeb0d76b0e91f5c", "lat": 38.918705333333335, "lon": -77.01353716666667, "rental_uris": {"android": "https://dc.lft.to/lastmile_qr_scan", "ios": "https://dc.lft.to/lastmile_qr_scan"}, "is_disabled": 0, "fusion_lat": 0.0, "name": "6739349a524ec0a44aeb0d76b0e91f5c", "fusion_lon": 0.0}, {"is_reserved": 0, "type": "electric_scooter", "bike_id": "9416a77105ebe48f0c3787831c6c2c3a", "lat": 38.952599166666666, "lon": -77.02387916666666, "rental_uris": {"android": "https://dc.lft.to/lastmile_qr_scan", "ios": "https://dc.lft.to/lastmile_qr_scan"}, "is_disabled": 0, "fusion_lat": 0.0, "name": "9416a77105ebe48f0c3787831c6c2c3a", "fusion_lon": 0.0}, {"is_reserved": 0, "type": "electric_scooter", "bike_id": "214ea59a6450406bc7475f414c97d19f", "lat": 38.900332166666665, "lon": -77.0021035, "rental_uris": {"android": "https://dc.lft.to/lastmile_qr_scan", "ios": "https://dc.lft.to/lastmile_qr_scan"}, "is_disabled": 0, "fusion_lat": 0.0, "name": "214ea59a6450406bc7475f414c97d19f", "fusion_lon": 0.0}, {"is_reserved": 0, "type": "electric_scooter", "bike_id": "31be727c7adefaa57ca35352bb663c32", "lat": 38.900156833333334, "lon": -77.04505183333333, "rental_uris": {"android": "https://dc.lft.to/lastmile_qr_scan", "ios": "https://dc.lft.to/lastmile_qr_scan"}, "is_disabled": 0, "fusion_lat": 0.0, "name": "31be727c7adefaa57ca35352bb663c32", "fusion_lon": 0.0}, {"is_reserved": 0, "type": "electric_bike", "bike_id": "5af00cbdef905b58487456747d522923", "lat": 38.99556533333333, "lon": -77.07489083333333, "rental_uris": {"android": "https://dc.lft.to/lastmile_qr_scan", "ios": "https://dc.lft.to/lastmile_qr_scan"}, "is_disabled": 0, "fusion_lat": 0.0, "name": "5af00cbdef905b58487456747d522923", "fusion_lon": 0.0}, {"is_reserved": 0, "type": "electric_scooter", "bike_id": "f4a92555efb244c08d0ecee1a415d778", "lat": 38.90607283333333, "lon": -77.03968683333333, "rental_uris": {"android": "https://dc.lft.to/lastmile_qr_scan", "ios": "https://dc.lft.to/lastmile_qr_scan"}, "is_disabled": 0, "fusion_lat": 0.0, "name": "f4a92555efb244c08d0ecee1a415d778", "fusion_lon": 0.0}, {"is_reserved": 0, "type": "electric_bike", "bike_id": "e1f985a894f0e285ea7d94fa0557a726", "lat": 38.838128166666664, "lon": -77.09525, "rental_uris": {"android": "https://dc.lft.to/lastmile_qr_scan", "ios": "https://dc.lft.to/lastmile_qr_scan"}, "is_disabled": 0, "fusion_lat": 0.0, "name": "e1f985a894f0e285ea7d94fa0557a726", "fusion_lon": 0.0}, {"is_reserved": 0, "type": "electric_scooter", "bike_id": "6d0b807ad0efb98097218c37a04ced6e", "lat": 38.90973183333333, "lon": -77.023855, "rental_uris": {"android": "https://dc.lft.to/lastmile_qr_scan", "ios": "https://dc.lft.to/lastmile_qr_scan"}, "is_disabled": 0, "fusion_lat": 0.0, "name": "6d0b807ad0efb98097218c37a04ced6e", "fusion_lon": 0.0}, {"is_reserved": 0, "type": "electric_scooter", "bike_id": "fa0692374baff8a1260472c736c4039e", "lat": 38.93504933333333, "lon": -77.02007666666667, "rental_uris": {"android": "https://dc.lft.to/lastmile_qr_scan", "ios": "https://dc.lft.to/lastmile_qr_scan"}, "is_disabled": 0, "fusion_lat": 0.0, "name": "fa0692374baff8a1260472c736c4039e", "fusion_lon": 0.0}, {"is_reserved": 0, "type": "electric_scooter", "bike_id": "44afc188efaeef1c292d11af0e099b79", "lat": 38.914758166666665, "lon": -77.03208683333334, "rental_uris": {"android": "https://dc.lft.to/lastmile_qr_scan", "ios": "https://dc.lft.to/lastmile_qr_scan"}, "is_disabled": 0, "fusion_lat": 0.0, "name": "44afc188efaeef1c292d11af0e099b79", "fusion_lon": 0.0}, {"is_reserved": 0, "type": "electric_scooter", "bike_id": "d71b173d47ac58116f7c4a0032edb53c", "lat": 38.89613283333333, "lon": -77.02794666666667, "rental_uris": {"android": "https://dc.lft.to/lastmile_qr_scan", "ios": "https://dc.lft.to/lastmile_qr_scan"}, "is_disabled": 0, "fusion_lat": 0.0, "name": "d71b173d47ac58116f7c4a0032edb53c", "fusion_lon": 0.0}, {"is_reserved": 0, "type": "electric_scooter", "bike_id": "ac61252f98406365a6699d2d28b450cf", "lat": 38.93064283333333, "lon": -77.03815533333334, "rental_uris": {"android": "https://dc.lft.to/lastmile_qr_scan", "ios": "https://dc.lft.to/lastmile_qr_scan"}, "is_disabled": 0, "fusion_lat": 0.0, "name": "ac61252f98406365a6699d2d28b450cf", "fusion_lon": 0.0}, {"is_reserved": 0, "type": "electric_bike", "bike_id": "f9fec10029b169c45b420fadf63302eb", "lat": 38.840481833333335, "lon": -76.97622783333334, "rental_uris": {"android": "https://dc.lft.to/lastmile_qr_scan", "ios": "https://dc.lft.to/lastmile_qr_scan"}, "is_disabled": 0, "fusion_lat": 0.0, "name": "f9fec10029b169c45b420fadf63302eb", "fusion_lon": 0.0}, {"is_reserved": 0, "type": "electric_scooter", "bike_id": "90ea57d7ea4c21eb820f59baea99acff", "lat": 38.93659266666667, "lon": -77.05495816666667, "rental_uris": {"android": "https://dc.lft.to/lastmile_qr_scan", "ios": "https://dc.lft.to/lastmile_qr_scan"}, "is_disabled": 0, "fusion_lat": 0.0, "name": "90ea57d7ea4c21eb820f59baea99acff", "fusion_lon": 0.0}, {"is_reserved": 0, "type": "electric_scooter", "bike_id": "235e373f6027755fbd630224728649da", "lat": 38.943033166666666, "lon": -77.059294, "rental_uris": {"android": "https://dc.lft.to/lastmile_qr_scan", "ios": "https://dc.lft.to/lastmile_qr_scan"}, "is_disabled": 0, "fusion_lat": 0.0, "name": "235e373f6027755fbd630224728649da", "fusion_lon": 0.0}, {"is_reserved": 0, "type": "electric_scooter", "bike_id": "d2e923504d1ed4dcc02daeb9b1c20a5c", "lat": 38.96134416666666, "lon": -77.08472183333333, "rental_uris": {"android": "https://dc.lft.to/lastmile_qr_scan", "ios": "https://dc.lft.to/lastmile_qr_scan"}, "is_disabled": 0, "fusion_lat": 0.0, "name": "d2e923504d1ed4dcc02daeb9b1c20a5c", "fusion_lon": 0.0}, {"is_reserved": 0, "type": "electric_scooter", "bike_id": "7c50b43746faaca6180956310b430a9d", "lat": 38.89732683333333, "lon": -77.04715166666666, "rental_uris": {"android": "https://dc.lft.to/lastmile_qr_scan", "ios": "https://dc.lft.to/lastmile_qr_scan"}, "is_disabled": 0, "fusion_lat": 0.0, "name": "7c50b43746faaca6180956310b430a9d", "fusion_lon": 0.0}, {"is_reserved": 0, "type": "electric_scooter", "bike_id": "d1daad9102526dab0aa9628af593e7fb", "lat": 38.90125716666667, "lon": -77.046328, "rental_uris": {"android": "https://dc.lft.to/lastmile_qr_scan", "ios": "https://dc.lft.to/lastmile_qr_scan"}, "is_disabled": 0, "fusion_lat": 0.0, "name": "d1daad9102526dab0aa9628af593e7fb", "fusion_lon": 0.0}, {"is_reserved": 0, "type": "electric_scooter", "bike_id": "b2af0cfdd129b80351940276fb372f48", "lat": 38.90301633333333, "lon": -76.9341775, "rental_uris": {"android": "https://dc.lft.to/lastmile_qr_scan", "ios": "https://dc.lft.to/lastmile_qr_scan"}, "is_disabled": 0, "fusion_lat": 0.0, "name": "b2af0cfdd129b80351940276fb372f48", "fusion_lon": 0.0}, {"is_reserved": 0, "type": "electric_scooter", "bike_id": "e9017d4ce867941eee69d7acc91f6485", "lat": 38.887308166666664, "lon": -77.0283125, "rental_uris": {"android": "https://dc.lft.to/lastmile_qr_scan", "ios": "https://dc.lft.to/lastmile_qr_scan"}, "is_disabled": 0, "fusion_lat": 0.0, "name": "e9017d4ce867941eee69d7acc91f6485", "fusion_lon": 0.0}, {"is_reserved": 0, "type": "electric_scooter", "bike_id": "1659a9e39b6b99e0455814ab019cb486", "lat": 38.921365, "lon": -77.01798866666667, "rental_uris": {"android": "https://dc.lft.to/lastmile_qr_scan", "ios": "https://dc.lft.to/lastmile_qr_scan"}, "is_disabled": 0, "fusion_lat": 0.0, "name": "1659a9e39b6b99e0455814ab019cb486", "fusion_lon": 0.0}, {"is_reserved": 0, "type": "electric_scooter", "bike_id": "1a1f933686dfc5f22413aa645766b012", "lat": 38.914043, "lon": -77.0288905, "rental_uris": {"android": "https://dc.lft.to/lastmile_qr_scan", "ios": "https://dc.lft.to/lastmile_qr_scan"}, "is_disabled": 0, "fusion_lat": 0.0, "name": "1a1f933686dfc5f22413aa645766b012", "fusion_lon": 0.0}, {"is_reserved": 0, "type": "electric_scooter", "bike_id": "c7ca2f66f22e9e975f8a727bb81c5563", "lat": 38.92119366666667, "lon": -77.0422555, "rental_uris": {"android": "https://dc.lft.to/lastmile_qr_scan", "ios": "https://dc.lft.to/lastmile_qr_scan"}, "is_disabled": 0, "fusion_lat": 0.0, "name": "c7ca2f66f22e9e975f8a727bb81c5563", "fusion_lon": 0.0}, {"is_reserved": 0, "type": "electric_scooter", "bike_id": "4374e4f0ae9f44e8951b404557e93a7c", "lat": 38.9163965, "lon": -77.031686, "rental_uris": {"android": "https://dc.lft.to/lastmile_qr_scan", "ios": "https://dc.lft.to/lastmile_qr_scan"}, "is_disabled": 0, "fusion_lat": 0.0, "name": "4374e4f0ae9f44e8951b404557e93a7c", "fusion_lon": 0.0}, {"is_reserved": 0, "type": "electric_scooter", "bike_id": "8343c783f0ce43bc62faafb970807dfb", "lat": 38.945139, "lon": -77.033631, "rental_uris": {"android": "https://dc.lft.to/lastmile_qr_scan", "ios": "https://dc.lft.to/lastmile_qr_scan"}, "is_disabled": 0, "fusion_lat": 0.0, "name": "8343c783f0ce43bc62faafb970807dfb", "fusion_lon": 0.0}, {"is_reserved": 0, "type": "electric_scooter", "bike_id": "23bcaf1a3fc2c0026c9896a13fa93b5f", "lat": 38.930541, "lon": -77.0394465, "rental_uris": {"android": "https://dc.lft.to/lastmile_qr_scan", "ios": "https://dc.lft.to/lastmile_qr_scan"}, "is_disabled": 0, "fusion_lat": 0.0, "name": "23bcaf1a3fc2c0026c9896a13fa93b5f", "fusion_lon": 0.0}, {"is_reserved": 0, "type": "electric_scooter", "bike_id": "29250895b0dd6294734c07393b25c380", "lat": 38.921370333333336, "lon": -77.01799033333333, "rental_uris": {"android": "https://dc.lft.to/lastmile_qr_scan", "ios": "https://dc.lft.to/lastmile_qr_scan"}, "is_disabled": 0, "fusion_lat": 0.0, "name": "29250895b0dd6294734c07393b25c380", "fusion_lon": 0.0}, {"is_reserved": 0, "type": "electric_scooter", "bike_id": "31aa0e1793624eaf5d9884146e6122cb", "lat": 38.90523666666667, "lon": -77.04349133333334, "rental_uris": {"android": "https://dc.lft.to/lastmile_qr_scan", "ios": "https://dc.lft.to/lastmile_qr_scan"}, "is_disabled": 0, "fusion_lat": 0.0, "name": "31aa0e1793624eaf5d9884146e6122cb", "fusion_lon": 0.0}, {"is_reserved": 0, "type": "electric_scooter", "bike_id": "fea5bbc2c88785d6a13682fe94ec2592", "lat": 38.8841145, "lon": -77.03047266666667, "rental_uris": {"android": "https://dc.lft.to/lastmile_qr_scan", "ios": "https://dc.lft.to/lastmile_qr_scan"}, "is_disabled": 0, "fusion_lat": 0.0, "name": "fea5bbc2c88785d6a13682fe94ec2592", "fusion_lon": 0.0}, {"is_reserved": 0, "type": "electric_scooter", "bike_id": "c24a7dc6b9e3fe44046f84f995f37b87", "lat": 38.92950483333333, "lon": -77.00410466666666, "rental_uris": {"android": "https://dc.lft.to/lastmile_qr_scan", "ios": "https://dc.lft.to/lastmile_qr_scan"}, "is_disabled": 0, "fusion_lat": 0.0, "name": "c24a7dc6b9e3fe44046f84f995f37b87", "fusion_lon": 0.0}, {"is_reserved": 0, "type": "electric_scooter", "bike_id": "04decfc804544ea048103406b33f403b", "lat": 38.909592333333336, "lon": -77.0435615, "rental_uris": {"android": "https://dc.lft.to/lastmile_qr_scan", "ios": "https://dc.lft.to/lastmile_qr_scan"}, "is_disabled": 0, "fusion_lat": 0.0, "name": "04decfc804544ea048103406b33f403b", "fusion_lon": 0.0}, {"is_reserved": 0, "type": "electric_scooter", "bike_id": "cae15ab62951f37cdb18de2dc5d88e49", "lat": 38.91330633333333, "lon": -77.01148266666667, "rental_uris": {"android": "https://dc.lft.to/lastmile_qr_scan", "ios": "https://dc.lft.to/lastmile_qr_scan"}, "is_disabled": 0, "fusion_lat": 0.0, "name": "cae15ab62951f37cdb18de2dc5d88e49", "fusion_lon": 0.0}, {"is_reserved": 0, "type": "electric_scooter", "bike_id": "4a6ccea5f07f8ce03ac8362c819fc36e", "lat": 38.904719166666666, "lon": -77.03556683333333, "rental_uris": {"android": "https://dc.lft.to/lastmile_qr_scan", "ios": "https://dc.lft.to/lastmile_qr_scan"}, "is_disabled": 0, "fusion_lat": 0.0, "name": "4a6ccea5f07f8ce03ac8362c819fc36e", "fusion_lon": 0.0}, {"is_reserved": 0, "type": "electric_scooter", "bike_id": "ed13b7e81736971ec33caabda55e9a13", "lat": 38.917026166666666, "lon": -77.0238465, "rental_uris": {"android": "https://dc.lft.to/lastmile_qr_scan", "ios": "https://dc.lft.to/lastmile_qr_scan"}, "is_disabled": 0, "fusion_lat": 0.0, "name": "ed13b7e81736971ec33caabda55e9a13", "fusion_lon": 0.0}, {"is_reserved": 0, "type": "electric_scooter", "bike_id": "66a851ed9c7c92b84fb498c6326d6b61", "lat": 38.951539333333336, "lon": -77.018652, "rental_uris": {"android": "https://dc.lft.to/lastmile_qr_scan", "ios": "https://dc.lft.to/lastmile_qr_scan"}, "is_disabled": 0, "fusion_lat": 0.0, "name": "66a851ed9c7c92b84fb498c6326d6b61", "fusion_lon": 0.0}, {"is_reserved": 0, "type": "electric_scooter", "bike_id": "db45acd2f4608170ec9ac96da142db03", "lat": 38.918065666666664, "lon": -77.03304466666667, "rental_uris": {"android": "https://dc.lft.to/lastmile_qr_scan", "ios": "https://dc.lft.to/lastmile_qr_scan"}, "is_disabled": 0, "fusion_lat": 0.0, "name": "db45acd2f4608170ec9ac96da142db03", "fusion_lon": 0.0}, {"is_reserved": 0, "type": "electric_scooter", "bike_id": "de846ee0d4d9265aa8b074eaf817886b", "lat": 38.90587466666667, "lon": -77.06278316666666, "rental_uris": {"android": "https://dc.lft.to/lastmile_qr_scan", "ios": "https://dc.lft.to/lastmile_qr_scan"}, "is_disabled": 0, "fusion_lat": 0.0, "name": "de846ee0d4d9265aa8b074eaf817886b", "fusion_lon": 0.0}, {"is_reserved": 0, "type": "electric_scooter", "bike_id": "0c5c573fd5e2d03ffeb7e0e8077579e1", "lat": 38.913561, "lon": -77.03353316666667, "rental_uris": {"android": "https://dc.lft.to/lastmile_qr_scan", "ios": "https://dc.lft.to/lastmile_qr_scan"}, "is_disabled": 0, "fusion_lat": 0.0, "name": "0c5c573fd5e2d03ffeb7e0e8077579e1", "fusion_lon": 0.0}, {"is_reserved": 0, "type": "electric_scooter", "bike_id": "64c8e54dad511b88f17f03ee3af933dd", "lat": 38.8975215, "lon": -77.0335325, "rental_uris": {"android": "https://dc.lft.to/lastmile_qr_scan", "ios": "https://dc.lft.to/lastmile_qr_scan"}, "is_disabled": 0, "fusion_lat": 0.0, "name": "64c8e54dad511b88f17f03ee3af933dd", "fusion_lon": 0.0}, {"is_reserved": 0, "type": "electric_scooter", "bike_id": "68e7b987d5c81c3f639cb8ac5b8abca4", "lat": 38.90714966666667, "lon": -77.01975433333334, "rental_uris": {"android": "https://dc.lft.to/lastmile_qr_scan", "ios": "https://dc.lft.to/lastmile_qr_scan"}, "is_disabled": 0, "fusion_lat": 0.0, "name": "68e7b987d5c81c3f639cb8ac5b8abca4", "fusion_lon": 0.0}, {"is_reserved": 0, "type": "electric_scooter", "bike_id": "76f32b38989bfa03365dadc18a72f508", "lat": 38.91795833333333, "lon": -77.032076, "rental_uris": {"android": "https://dc.lft.to/lastmile_qr_scan", "ios": "https://dc.lft.to/lastmile_qr_scan"}, "is_disabled": 0, "fusion_lat": 0.0, "name": "76f32b38989bfa03365dadc18a72f508", "fusion_lon": 0.0}, {"is_reserved": 0, "type": "electric_scooter", "bike_id": "a60bc3a366289d1bbeeca812da0e30d5", "lat": 38.914304, "lon": -77.031833, "rental_uris": {"android": "https://dc.lft.to/lastmile_qr_scan", "ios": "https://dc.lft.to/lastmile_qr_scan"}, "is_disabled": 0, "fusion_lat": 0.0, "name": "a60bc3a366289d1bbeeca812da0e30d5", "fusion_lon": 0.0}, {"is_reserved": 0, "type": "electric_scooter", "bike_id": "196b24f74b5e5a7b50ca644da2234e17", "lat": 38.90564066666666, "lon": -77.03078366666666, "rental_uris": {"android": "https://dc.lft.to/lastmile_qr_scan", "ios": "https://dc.lft.to/lastmile_qr_scan"}, "is_disabled": 0, "fusion_lat": 0.0, "name": "196b24f74b5e5a7b50ca644da2234e17", "fusion_lon": 0.0}, {"is_reserved": 0, "type": "electric_scooter", "bike_id": "f3fa552f11851366444a974098210301", "lat": 38.9039695, "lon": -77.06300033333333, "rental_uris": {"android": "https://dc.lft.to/lastmile_qr_scan", "ios": "https://dc.lft.to/lastmile_qr_scan"}, "is_disabled": 0, "fusion_lat": 0.0, "name": "f3fa552f11851366444a974098210301", "fusion_lon": 0.0}, {"is_reserved": 0, "type": "electric_bike", "bike_id": "3f1a179e8db195f1399ce3641d2086b7", "lat": 38.92422833333333, "lon": -77.05047, "rental_uris": {"android": "https://dc.lft.to/lastmile_qr_scan", "ios": "https://dc.lft.to/lastmile_qr_scan"}, "is_disabled": 0, "fusion_lat": 0.0, "name": "3f1a179e8db195f1399ce3641d2086b7", "fusion_lon": 0.0}, {"is_reserved": 0, "type": "electric_scooter", "bike_id": "2d6cf89e0b0712e129f1a304f4671271", "lat": 38.90171983333333, "lon": -77.04865466666666, "rental_uris": {"android": "https://dc.lft.to/lastmile_qr_scan", "ios": "https://dc.lft.to/lastmile_qr_scan"}, "is_disabled": 0, "fusion_lat": 0.0, "name": "2d6cf89e0b0712e129f1a304f4671271", "fusion_lon": 0.0}, {"is_reserved": 0, "type": "electric_scooter", "bike_id": "114fc1d29cb924f3255b9ead47d76bfe", "lat": 38.89236616666667, "lon": -77.01357233333333, "rental_uris": {"android": "https://dc.lft.to/lastmile_qr_scan", "ios": "https://dc.lft.to/lastmile_qr_scan"}, "is_disabled": 0, "fusion_lat": 0.0, "name": "114fc1d29cb924f3255b9ead47d76bfe", "fusion_lon": 0.0}, {"is_reserved": 0, "type": "electric_scooter", "bike_id": "578a3ca9686d9f16fe2a6df264df18b5", "lat": 38.91603416666667, "lon": -77.02411966666666, "rental_uris": {"android": "https://dc.lft.to/lastmile_qr_scan", "ios": "https://dc.lft.to/lastmile_qr_scan"}, "is_disabled": 0, "fusion_lat": 0.0, "name": "578a3ca9686d9f16fe2a6df264df18b5", "fusion_lon": 0.0}, {"is_reserved": 0, "type": "electric_scooter", "bike_id": "ec3d77fc1b15af54c0abbe7c4ac5763e", "lat": 38.88728666666667, "lon": -76.9837675, "rental_uris": {"android": "https://dc.lft.to/lastmile_qr_scan", "ios": "https://dc.lft.to/lastmile_qr_scan"}, "is_disabled": 0, "fusion_lat": 0.0, "name": "ec3d77fc1b15af54c0abbe7c4ac5763e", "fusion_lon": 0.0}, {"is_reserved": 0, "type": "electric_bike", "bike_id": "c13cb2a80374adb82794c43dc1b73d67", "lat": 38.92912966666667, "lon": -77.09740333333333, "rental_uris": {"android": "https://dc.lft.to/lastmile_qr_scan", "ios": "https://dc.lft.to/lastmile_qr_scan"}, "is_disabled": 0, "fusion_lat": 0.0, "name": "c13cb2a80374adb82794c43dc1b73d67", "fusion_lon": 0.0}, {"is_reserved": 0, "type": "electric_bike", "bike_id": "adf6040fc1f024551f31b13e23948383", "lat": 38.837077666666666, "lon": -77.00579666666667, "rental_uris": {"android": "https://dc.lft.to/lastmile_qr_scan", "ios": "https://dc.lft.to/lastmile_qr_scan"}, "is_disabled": 0, "fusion_lat": 0.0, "name": "adf6040fc1f024551f31b13e23948383", "fusion_lon": 0.0}, {"is_reserved": 0, "type": "electric_scooter", "bike_id": "2a9ea5f0db608e86b03ee1b7714fa665", "lat": 38.89491016666667, "lon": -77.019364, "rental_uris": {"android": "https://dc.lft.to/lastmile_qr_scan", "ios": "https://dc.lft.to/lastmile_qr_scan"}, "is_disabled": 0, "fusion_lat": 0.0, "name": "2a9ea5f0db608e86b03ee1b7714fa665", "fusion_lon": 0.0}, {"is_reserved": 0, "type": "electric_scooter", "bike_id": "976e1364f2ebc99130d92094fbb28b29", "lat": 38.916305666666666, "lon": -77.025434, "rental_uris": {"android": "https://dc.lft.to/lastmile_qr_scan", "ios": "https://dc.lft.to/lastmile_qr_scan"}, "is_disabled": 0, "fusion_lat": 0.0, "name": "976e1364f2ebc99130d92094fbb28b29", "fusion_lon": 0.0}, {"is_reserved": 0, "type": "electric_scooter", "bike_id": "75c2166758acdb383545c54afe7f678b", "lat": 38.878653, "lon": -76.962574, "rental_uris": {"android": "https://dc.lft.to/lastmile_qr_scan", "ios": "https://dc.lft.to/lastmile_qr_scan"}, "is_disabled": 0, "fusion_lat": 0.0, "name": "75c2166758acdb383545c54afe7f678b", "fusion_lon": 0.0}, {"is_reserved": 0, "type": "electric_scooter", "bike_id": "794efb36b600a03c7ebd71b102fd9e5d", "lat": 38.90801316666666, "lon": -77.04332066666667, "rental_uris": {"android": "https://dc.lft.to/lastmile_qr_scan", "ios": "https://dc.lft.to/lastmile_qr_scan"}, "is_disabled": 0, "fusion_lat": 0.0, "name": "794efb36b600a03c7ebd71b102fd9e5d", "fusion_lon": 0.0}, {"is_reserved": 0, "type": "electric_scooter", "bike_id": "10965547d5110803623d207dc0e2e4ce", "lat": 38.905091, "lon": -77.02949133333334, "rental_uris": {"android": "https://dc.lft.to/lastmile_qr_scan", "ios": "https://dc.lft.to/lastmile_qr_scan"}, "is_disabled": 0, "fusion_lat": 0.0, "name": "10965547d5110803623d207dc0e2e4ce", "fusion_lon": 0.0}, {"is_reserved": 0, "type": "electric_scooter", "bike_id": "f6e2fb3c83a100e0a0eb745e347faa91", "lat": 38.926101333333335, "lon": -77.02152966666667, "rental_uris": {"android": "https://dc.lft.to/lastmile_qr_scan", "ios": "https://dc.lft.to/lastmile_qr_scan"}, "is_disabled": 0, "fusion_lat": 0.0, "name": "f6e2fb3c83a100e0a0eb745e347faa91", "fusion_lon": 0.0}, {"is_reserved": 0, "type": "electric_scooter", "bike_id": "dac5bc05e2b00b47066bcdb7a7e426a4", "lat": 38.924288, "lon": -77.01933466666667, "rental_uris": {"android": "https://dc.lft.to/lastmile_qr_scan", "ios": "https://dc.lft.to/lastmile_qr_scan"}, "is_disabled": 0, "fusion_lat": 0.0, "name": "dac5bc05e2b00b47066bcdb7a7e426a4", "fusion_lon": 0.0}, {"is_reserved": 0, "type": "electric_scooter", "bike_id": "8398ecbdf098c51bf461cb7382bc6db0", "lat": 38.90057866666667, "lon": -77.00754066666667, "rental_uris": {"android": "https://dc.lft.to/lastmile_qr_scan", "ios": "https://dc.lft.to/lastmile_qr_scan"}, "is_disabled": 0, "fusion_lat": 0.0, "name": "8398ecbdf098c51bf461cb7382bc6db0", "fusion_lon": 0.0}, {"is_reserved": 0, "type": "electric_bike", "bike_id": "c641db5cd86f89455d3a87272d3c3a97", "lat": 38.95852033333333, "lon": -76.98612683333333, "rental_uris": {"android": "https://dc.lft.to/lastmile_qr_scan", "ios": "https://dc.lft.to/lastmile_qr_scan"}, "is_disabled": 0, "fusion_lat": 0.0, "name": "c641db5cd86f89455d3a87272d3c3a97", "fusion_lon": 0.0}, {"is_reserved": 0, "type": "electric_scooter", "bike_id": "30789ac5f237d273d11518c934e83331", "lat": 38.897881166666664, "lon": -77.016767, "rental_uris": {"android": "https://dc.lft.to/lastmile_qr_scan", "ios": "https://dc.lft.to/lastmile_qr_scan"}, "is_disabled": 0, "fusion_lat": 0.0, "name": "30789ac5f237d273d11518c934e83331", "fusion_lon": 0.0}, {"is_reserved": 0, "type": "electric_scooter", "bike_id": "29e0dc6ad7e926821a9b05856a522188", "lat": 38.95097766666667, "lon": -77.028055, "rental_uris": {"android": "https://dc.lft.to/lastmile_qr_scan", "ios": "https://dc.lft.to/lastmile_qr_scan"}, "is_disabled": 0, "fusion_lat": 0.0, "name": "29e0dc6ad7e926821a9b05856a522188", "fusion_lon": 0.0}, {"is_reserved": 0, "type": "electric_scooter", "bike_id": "7dbfad7ea41790ba5eb6452c12c6d058", "lat": 38.9301155, "lon": -77.023415, "rental_uris": {"android": "https://dc.lft.to/lastmile_qr_scan", "ios": "https://dc.lft.to/lastmile_qr_scan"}, "is_disabled": 0, "fusion_lat": 0.0, "name": "7dbfad7ea41790ba5eb6452c12c6d058", "fusion_lon": 0.0}, {"is_reserved": 0, "type": "electric_scooter", "bike_id": "af6951c17f849e71d6f1cf86d861033a", "lat": 38.91782333333333, "lon": -77.04100016666666, "rental_uris": {"android": "https://dc.lft.to/lastmile_qr_scan", "ios": "https://dc.lft.to/lastmile_qr_scan"}, "is_disabled": 0, "fusion_lat": 0.0, "name": "af6951c17f849e71d6f1cf86d861033a", "fusion_lon": 0.0}, {"is_reserved": 0, "type": "electric_bike", "bike_id": "38f164c4cc60cf2f241edcd4731308b9", "lat": 38.89648783333333, "lon": -76.9903115, "rental_uris": {"android": "https://dc.lft.to/lastmile_qr_scan", "ios": "https://dc.lft.to/lastmile_qr_scan"}, "is_disabled": 0, "fusion_lat": 0.0, "name": "38f164c4cc60cf2f241edcd4731308b9", "fusion_lon": 0.0}, {"is_reserved": 0, "type": "electric_scooter", "bike_id": "215eb4b17b5f1e7aac4d45cb1e6b1b28", "lat": 38.94027833333333, "lon": -77.02639366666666, "rental_uris": {"android": "https://dc.lft.to/lastmile_qr_scan", "ios": "https://dc.lft.to/lastmile_qr_scan"}, "is_disabled": 0, "fusion_lat": 0.0, "name": "215eb4b17b5f1e7aac4d45cb1e6b1b28", "fusion_lon": 0.0}, {"is_reserved": 0, "type": "electric_scooter", "bike_id": "483884eeac98005154823bfee46ef1c6", "lat": 38.91772433333333, "lon": -77.0319365, "rental_uris": {"android": "https://dc.lft.to/lastmile_qr_scan", "ios": "https://dc.lft.to/lastmile_qr_scan"}, "is_disabled": 0, "fusion_lat": 0.0, "name": "483884eeac98005154823bfee46ef1c6", "fusion_lon": 0.0}, {"is_reserved": 0, "type": "electric_bike", "bike_id": "7ec99ab8674d28a9dabfa995fb32637e", "lat": 38.8866025, "lon": -77.162309, "rental_uris": {"android": "https://dc.lft.to/lastmile_qr_scan", "ios": "https://dc.lft.to/lastmile_qr_scan"}, "is_disabled": 0, "fusion_lat": 0.0, "name": "7ec99ab8674d28a9dabfa995fb32637e", "fusion_lon": 0.0}, {"is_reserved": 0, "type": "electric_scooter", "bike_id": "7dafa31bc5e11e95629922c5c11e7d51", "lat": 38.8643065, "lon": -76.99861016666667, "rental_uris": {"android": "https://dc.lft.to/lastmile_qr_scan", "ios": "https://dc.lft.to/lastmile_qr_scan"}, "is_disabled": 0, "fusion_lat": 0.0, "name": "7dafa31bc5e11e95629922c5c11e7d51", "fusion_lon": 0.0}, {"is_reserved": 0, "type": "electric_scooter", "bike_id": "647919a7d55019b791ff535b70381258", "lat": 38.90061983333333, "lon": -76.98683283333334, "rental_uris": {"android": "https://dc.lft.to/lastmile_qr_scan", "ios": "https://dc.lft.to/lastmile_qr_scan"}, "is_disabled": 0, "fusion_lat": 0.0, "name": "647919a7d55019b791ff535b70381258", "fusion_lon": 0.0}, {"is_reserved": 0, "type": "electric_scooter", "bike_id": "d69febb345c8c7f6956ad62fceb3126d", "lat": 38.908447833333334, "lon": -77.05575066666667, "rental_uris": {"android": "https://dc.lft.to/lastmile_qr_scan", "ios": "https://dc.lft.to/lastmile_qr_scan"}, "is_disabled": 0, "fusion_lat": 0.0, "name": "d69febb345c8c7f6956ad62fceb3126d", "fusion_lon": 0.0}, {"is_reserved": 0, "type": "electric_scooter", "bike_id": "8acfbf34d74f2bea4b51d4b744670289", "lat": 38.91712233333333, "lon": -77.03725116666666, "rental_uris": {"android": "https://dc.lft.to/lastmile_qr_scan", "ios": "https://dc.lft.to/lastmile_qr_scan"}, "is_disabled": 0, "fusion_lat": 0.0, "name": "8acfbf34d74f2bea4b51d4b744670289", "fusion_lon": 0.0}, {"is_reserved": 0, "type": "electric_scooter", "bike_id": "fda58d742a77656c1c78270d5eeeb6a7", "lat": 38.9015385, "lon": -77.02879583333333, "rental_uris": {"android": "https://dc.lft.to/lastmile_qr_scan", "ios": "https://dc.lft.to/lastmile_qr_scan"}, "is_disabled": 0, "fusion_lat": 0.0, "name": "fda58d742a77656c1c78270d5eeeb6a7", "fusion_lon": 0.0}, {"is_reserved": 0, "type": "electric_scooter", "bike_id": "204fefbbb75ca255876fd9e602926f7d", "lat": 38.91407483333333, "lon": -77.03213566666666, "rental_uris": {"android": "https://dc.lft.to/lastmile_qr_scan", "ios": "https://dc.lft.to/lastmile_qr_scan"}, "is_disabled": 0, "fusion_lat": 0.0, "name": "204fefbbb75ca255876fd9e602926f7d", "fusion_lon": 0.0}, {"is_reserved": 0, "type": "electric_scooter", "bike_id": "79eb9c015e4ac99c1d3290a5a4b0d6c6", "lat": 38.88136, "lon": -76.99647433333334, "rental_uris": {"android": "https://dc.lft.to/lastmile_qr_scan", "ios": "https://dc.lft.to/lastmile_qr_scan"}, "is_disabled": 0, "fusion_lat": 0.0, "name": "79eb9c015e4ac99c1d3290a5a4b0d6c6", "fusion_lon": 0.0}, {"is_reserved": 0, "type": "electric_scooter", "bike_id": "e781fa4accf1a114711d9aa0377f36d0", "lat": 38.92610366666667, "lon": -77.02156983333333, "rental_uris": {"android": "https://dc.lft.to/lastmile_qr_scan", "ios": "https://dc.lft.to/lastmile_qr_scan"}, "is_disabled": 0, "fusion_lat": 0.0, "name": "e781fa4accf1a114711d9aa0377f36d0", "fusion_lon": 0.0}, {"is_reserved": 0, "type": "electric_scooter", "bike_id": "32d28498b32099bdd2022a5ff1c097da", "lat": 38.91813366666667, "lon": -77.03211283333333, "rental_uris": {"android": "https://dc.lft.to/lastmile_qr_scan", "ios": "https://dc.lft.to/lastmile_qr_scan"}, "is_disabled": 0, "fusion_lat": 0.0, "name": "32d28498b32099bdd2022a5ff1c097da", "fusion_lon": 0.0}, {"is_reserved": 0, "type": "electric_scooter", "bike_id": "ac635f1cc2b0b413255546bfb434d29d", "lat": 38.89652666666667, "lon": -77.05023466666667, "rental_uris": {"android": "https://dc.lft.to/lastmile_qr_scan", "ios": "https://dc.lft.to/lastmile_qr_scan"}, "is_disabled": 0, "fusion_lat": 0.0, "name": "ac635f1cc2b0b413255546bfb434d29d", "fusion_lon": 0.0}, {"is_reserved": 0, "type": "electric_scooter", "bike_id": "8517462e649c64a757126795bb6fee83", "lat": 38.8992465, "lon": -76.97829416666667, "rental_uris": {"android": "https://dc.lft.to/lastmile_qr_scan", "ios": "https://dc.lft.to/lastmile_qr_scan"}, "is_disabled": 0, "fusion_lat": 0.0, "name": "8517462e649c64a757126795bb6fee83", "fusion_lon": 0.0}, {"is_reserved": 0, "type": "electric_scooter", "bike_id": "6490ffede941206de39d0368c1a55463", "lat": 38.882679333333336, "lon": -77.003616, "rental_uris": {"android": "https://dc.lft.to/lastmile_qr_scan", "ios": "https://dc.lft.to/lastmile_qr_scan"}, "is_disabled": 0, "fusion_lat": 0.0, "name": "6490ffede941206de39d0368c1a55463", "fusion_lon": 0.0}, {"is_reserved": 0, "type": "electric_scooter", "bike_id": "3f908759781bbb4c256f13fd48695615", "lat": 38.928568, "lon": -77.03738733333333, "rental_uris": {"android": "https://dc.lft.to/lastmile_qr_scan", "ios": "https://dc.lft.to/lastmile_qr_scan"}, "is_disabled": 0, "fusion_lat": 0.0, "name": "3f908759781bbb4c256f13fd48695615", "fusion_lon": 0.0}, {"is_reserved": 0, "type": "electric_scooter", "bike_id": "e875923f8a71362570e8ec379411fe2f", "lat": 38.9138295, "lon": -77.03216216666667, "rental_uris": {"android": "https://dc.lft.to/lastmile_qr_scan", "ios": "https://dc.lft.to/lastmile_qr_scan"}, "is_disabled": 0, "fusion_lat": 0.0, "name": "e875923f8a71362570e8ec379411fe2f", "fusion_lon": 0.0}, {"is_reserved": 0, "type": "electric_scooter", "bike_id": "218a31fb4cd1c8a5c50412adfd61cc32", "lat": 38.894143166666666, "lon": -77.02327383333333, "rental_uris": {"android": "https://dc.lft.to/lastmile_qr_scan", "ios": "https://dc.lft.to/lastmile_qr_scan"}, "is_disabled": 0, "fusion_lat": 0.0, "name": "218a31fb4cd1c8a5c50412adfd61cc32", "fusion_lon": 0.0}, {"is_reserved": 0, "type": "electric_scooter", "bike_id": "550e813ce13793a973e3b59fd02cbc0b", "lat": 38.908303833333335, "lon": -76.98714733333334, "rental_uris": {"android": "https://dc.lft.to/lastmile_qr_scan", "ios": "https://dc.lft.to/lastmile_qr_scan"}, "is_disabled": 0, "fusion_lat": 0.0, "name": "550e813ce13793a973e3b59fd02cbc0b", "fusion_lon": 0.0}, {"is_reserved": 0, "type": "electric_scooter", "bike_id": "c598d87006c939ab12d4229c1d8e0d72", "lat": 38.9129835, "lon": -76.98474266666666, "rental_uris": {"android": "https://dc.lft.to/lastmile_qr_scan", "ios": "https://dc.lft.to/lastmile_qr_scan"}, "is_disabled": 0, "fusion_lat": 0.0, "name": "c598d87006c939ab12d4229c1d8e0d72", "fusion_lon": 0.0}, {"is_reserved": 0, "type": "electric_scooter", "bike_id": "74bd77605a3e29f41ed818abbb0b7d2d", "lat": 38.88603833333333, "lon": -77.00395833333333, "rental_uris": {"android": "https://dc.lft.to/lastmile_qr_scan", "ios": "https://dc.lft.to/lastmile_qr_scan"}, "is_disabled": 0, "fusion_lat": 0.0, "name": "74bd77605a3e29f41ed818abbb0b7d2d", "fusion_lon": 0.0}, {"is_reserved": 0, "type": "electric_scooter", "bike_id": "15574724ef437a1456b575e459955e2e", "lat": 38.902354333333335, "lon": -77.04363816666667, "rental_uris": {"android": "https://dc.lft.to/lastmile_qr_scan", "ios": "https://dc.lft.to/lastmile_qr_scan"}, "is_disabled": 0, "fusion_lat": 0.0, "name": "15574724ef437a1456b575e459955e2e", "fusion_lon": 0.0}, {"is_reserved": 0, "type": "electric_bike", "bike_id": "e273ad47af837f2c11155dcf2e6851c5", "lat": 39.01075766666667, "lon": -76.9106515, "rental_uris": {"android": "https://dc.lft.to/lastmile_qr_scan", "ios": "https://dc.lft.to/lastmile_qr_scan"}, "is_disabled": 0, "fusion_lat": 0.0, "name": "e273ad47af837f2c11155dcf2e6851c5", "fusion_lon": 0.0}, {"is_reserved": 0, "type": "electric_scooter", "bike_id": "ef43af15270ec2b676099e1c51567de4", "lat": 38.9241565, "lon": -77.01945666666667, "rental_uris": {"android": "https://dc.lft.to/lastmile_qr_scan", "ios": "https://dc.lft.to/lastmile_qr_scan"}, "is_disabled": 0, "fusion_lat": 0.0, "name": "ef43af15270ec2b676099e1c51567de4", "fusion_lon": 0.0}, {"is_reserved": 0, "type": "electric_scooter", "bike_id": "c321c62240ae7b3f127eb81d1c057548", "lat": 38.94619483333334, "lon": -77.0305795, "rental_uris": {"android": "https://dc.lft.to/lastmile_qr_scan", "ios": "https://dc.lft.to/lastmile_qr_scan"}, "is_disabled": 0, "fusion_lat": 0.0, "name": "c321c62240ae7b3f127eb81d1c057548", "fusion_lon": 0.0}, {"is_reserved": 0, "type": "electric_scooter", "bike_id": "c4d1709f3355797a808c8bf45d3cc8d0", "lat": 38.90245016666667, "lon": -77.027014, "rental_uris": {"android": "https://dc.lft.to/lastmile_qr_scan", "ios": "https://dc.lft.to/lastmile_qr_scan"}, "is_disabled": 0, "fusion_lat": 0.0, "name": "c4d1709f3355797a808c8bf45d3cc8d0", "fusion_lon": 0.0}, {"is_reserved": 0, "type": "electric_scooter", "bike_id": "0c9cd59c4473b4061ca01c78e64f61d5", "lat": 38.89735616666667, "lon": -77.021548, "rental_uris": {"android": "https://dc.lft.to/lastmile_qr_scan", "ios": "https://dc.lft.to/lastmile_qr_scan"}, "is_disabled": 0, "fusion_lat": 0.0, "name": "0c9cd59c4473b4061ca01c78e64f61d5", "fusion_lon": 0.0}, {"is_reserved": 0, "type": "electric_bike", "bike_id": "fb5afa2abaa95d4c3509f4f433eca396", "lat": 38.897536, "lon": -77.02945466666667, "rental_uris": {"android": "https://dc.lft.to/lastmile_qr_scan", "ios": "https://dc.lft.to/lastmile_qr_scan"}, "is_disabled": 0, "fusion_lat": 0.0, "name": "fb5afa2abaa95d4c3509f4f433eca396", "fusion_lon": 0.0}, {"is_reserved": 0, "type": "electric_scooter", "bike_id": "7f8a65d9679bfac07ed16fa9454361c4", "lat": 38.9016445, "lon": -77.02599366666666, "rental_uris": {"android": "https://dc.lft.to/lastmile_qr_scan", "ios": "https://dc.lft.to/lastmile_qr_scan"}, "is_disabled": 0, "fusion_lat": 0.0, "name": "7f8a65d9679bfac07ed16fa9454361c4", "fusion_lon": 0.0}, {"is_reserved": 0, "type": "electric_bike", "bike_id": "108ac4e97cbea43fbbce94b6194f3e4d", "lat": 38.88278116666667, "lon": -76.932372, "rental_uris": {"android": "https://dc.lft.to/lastmile_qr_scan", "ios": "https://dc.lft.to/lastmile_qr_scan"}, "is_disabled": 0, "fusion_lat": 0.0, "name": "108ac4e97cbea43fbbce94b6194f3e4d", "fusion_lon": 0.0}, {"is_reserved": 0, "type": "electric_scooter", "bike_id": "04ad5277ff15dba380a08434c1e78cac", "lat": 38.9021385, "lon": -77.0487085, "rental_uris": {"android": "https://dc.lft.to/lastmile_qr_scan", "ios": "https://dc.lft.to/lastmile_qr_scan"}, "is_disabled": 0, "fusion_lat": 0.0, "name": "04ad5277ff15dba380a08434c1e78cac", "fusion_lon": 0.0}, {"is_reserved": 0, "type": "electric_scooter", "bike_id": "48b60c828e25dffc17cc527a75360494", "lat": 38.895691166666666, "lon": -76.98225716666667, "rental_uris": {"android": "https://dc.lft.to/lastmile_qr_scan", "ios": "https://dc.lft.to/lastmile_qr_scan"}, "is_disabled": 0, "fusion_lat": 0.0, "name": "48b60c828e25dffc17cc527a75360494", "fusion_lon": 0.0}, {"is_reserved": 0, "type": "electric_scooter", "bike_id": "98ae8291c56ff8f11af78fa10a92b162", "lat": 38.9345515, "lon": -77.05809, "rental_uris": {"android": "https://dc.lft.to/lastmile_qr_scan", "ios": "https://dc.lft.to/lastmile_qr_scan"}, "is_disabled": 0, "fusion_lat": 0.0, "name": "98ae8291c56ff8f11af78fa10a92b162", "fusion_lon": 0.0}, {"is_reserved": 0, "type": "electric_bike", "bike_id": "38fbc409721da7e038db579bed00445f", "lat": 38.8492355, "lon": -77.08373983333334, "rental_uris": {"android": "https://dc.lft.to/lastmile_qr_scan", "ios": "https://dc.lft.to/lastmile_qr_scan"}, "is_disabled": 0, "fusion_lat": 0.0, "name": "38fbc409721da7e038db579bed00445f", "fusion_lon": 0.0}, {"is_reserved": 0, "type": "electric_scooter", "bike_id": "faa076671d6863a00f0b4048273b1c9d", "lat": 38.90973816666666, "lon": -77.03058683333333, "rental_uris": {"android": "https://dc.lft.to/lastmile_qr_scan", "ios": "https://dc.lft.to/lastmile_qr_scan"}, "is_disabled": 0, "fusion_lat": 0.0, "name": "faa076671d6863a00f0b4048273b1c9d", "fusion_lon": 0.0}, {"is_reserved": 0, "type": "electric_scooter", "bike_id": "a5c8114f02da40760f3f43f439abf03d", "lat": 38.910719, "lon": -76.99136416666667, "rental_uris": {"android": "https://dc.lft.to/lastmile_qr_scan", "ios": "https://dc.lft.to/lastmile_qr_scan"}, "is_disabled": 0, "fusion_lat": 0.0, "name": "a5c8114f02da40760f3f43f439abf03d", "fusion_lon": 0.0}, {"is_reserved": 0, "type": "electric_scooter", "bike_id": "62140bc3df79e045782c612432d0f3c0", "lat": 38.9226075, "lon": -77.01924616666666, "rental_uris": {"android": "https://dc.lft.to/lastmile_qr_scan", "ios": "https://dc.lft.to/lastmile_qr_scan"}, "is_disabled": 0, "fusion_lat": 0.0, "name": "62140bc3df79e045782c612432d0f3c0", "fusion_lon": 0.0}, {"is_reserved": 0, "type": "electric_scooter", "bike_id": "ad69cf2c53e05a2af6de9940c7cd6b72", "lat": 38.923177, "lon": -77.02804466666667, "rental_uris": {"android": "https://dc.lft.to/lastmile_qr_scan", "ios": "https://dc.lft.to/lastmile_qr_scan"}, "is_disabled": 0, "fusion_lat": 0.0, "name": "ad69cf2c53e05a2af6de9940c7cd6b72", "fusion_lon": 0.0}, {"is_reserved": 0, "type": "electric_scooter", "bike_id": "b413d101796e395a8dc77e5676b6b9c8", "lat": 38.9154845, "lon": -77.02089866666667, "rental_uris": {"android": "https://dc.lft.to/lastmile_qr_scan", "ios": "https://dc.lft.to/lastmile_qr_scan"}, "is_disabled": 0, "fusion_lat": 0.0, "name": "b413d101796e395a8dc77e5676b6b9c8", "fusion_lon": 0.0}, {"is_reserved": 0, "type": "electric_scooter", "bike_id": "95a4122b8a746a3e92a1cf6cd33be69a", "lat": 38.906961833333334, "lon": -76.99766166666667, "rental_uris": {"android": "https://dc.lft.to/lastmile_qr_scan", "ios": "https://dc.lft.to/lastmile_qr_scan"}, "is_disabled": 0, "fusion_lat": 0.0, "name": "95a4122b8a746a3e92a1cf6cd33be69a", "fusion_lon": 0.0}, {"is_reserved": 0, "type": "electric_scooter", "bike_id": "49ba011cd8b8ae62ebc2be2185965c22", "lat": 38.894566833333336, "lon": -77.04545, "rental_uris": {"android": "https://dc.lft.to/lastmile_qr_scan", "ios": "https://dc.lft.to/lastmile_qr_scan"}, "is_disabled": 0, "fusion_lat": 0.0, "name": "49ba011cd8b8ae62ebc2be2185965c22", "fusion_lon": 0.0}, {"is_reserved": 0, "type": "electric_scooter", "bike_id": "0ee6fd7e8373291537fce5bd97a8cbc8", "lat": 38.87484366666666, "lon": -77.01743083333334, "rental_uris": {"android": "https://dc.lft.to/lastmile_qr_scan", "ios": "https://dc.lft.to/lastmile_qr_scan"}, "is_disabled": 0, "fusion_lat": 0.0, "name": "0ee6fd7e8373291537fce5bd97a8cbc8", "fusion_lon": 0.0}, {"is_reserved": 0, "type": "electric_scooter", "bike_id": "0e34be5b409a5b60279115ca8c3f7bff", "lat": 38.89617483333333, "lon": -76.99730433333333, "rental_uris": {"android": "https://dc.lft.to/lastmile_qr_scan", "ios": "https://dc.lft.to/lastmile_qr_scan"}, "is_disabled": 0, "fusion_lat": 0.0, "name": "0e34be5b409a5b60279115ca8c3f7bff", "fusion_lon": 0.0}, {"is_reserved": 0, "type": "electric_scooter", "bike_id": "a161b31769668274bec1ad7122a38862", "lat": 38.875752, "lon": -77.00578766666666, "rental_uris": {"android": "https://dc.lft.to/lastmile_qr_scan", "ios": "https://dc.lft.to/lastmile_qr_scan"}, "is_disabled": 0, "fusion_lat": 0.0, "name": "a161b31769668274bec1ad7122a38862", "fusion_lon": 0.0}, {"is_reserved": 0, "type": "electric_scooter", "bike_id": "04a133242db8f73a2ac1ffd88d77799f", "lat": 38.9205865, "lon": -77.032041, "rental_uris": {"android": "https://dc.lft.to/lastmile_qr_scan", "ios": "https://dc.lft.to/lastmile_qr_scan"}, "is_disabled": 0, "fusion_lat": 0.0, "name": "04a133242db8f73a2ac1ffd88d77799f", "fusion_lon": 0.0}, {"is_reserved": 0, "type": "electric_scooter", "bike_id": "3e27f1a94f1db58ce3328f112e915720", "lat": 38.92974266666667, "lon": -77.0279255, "rental_uris": {"android": "https://dc.lft.to/lastmile_qr_scan", "ios": "https://dc.lft.to/lastmile_qr_scan"}, "is_disabled": 0, "fusion_lat": 0.0, "name": "3e27f1a94f1db58ce3328f112e915720", "fusion_lon": 0.0}, {"is_reserved": 0, "type": "electric_bike", "bike_id": "afdfdc8ade51ebbe83c87e9a09b75df7", "lat": 39.03564883333333, "lon": -77.03918883333333, "rental_uris": {"android": "https://dc.lft.to/lastmile_qr_scan", "ios": "https://dc.lft.to/lastmile_qr_scan"}, "is_disabled": 0, "fusion_lat": 0.0, "name": "afdfdc8ade51ebbe83c87e9a09b75df7", "fusion_lon": 0.0}, {"is_reserved": 0, "type": "electric_scooter", "bike_id": "b31e7e9afb24f47b21d84064d88eb291", "lat": 38.9323155, "lon": -76.99754833333333, "rental_uris": {"android": "https://dc.lft.to/lastmile_qr_scan", "ios": "https://dc.lft.to/lastmile_qr_scan"}, "is_disabled": 0, "fusion_lat": 0.0, "name": "b31e7e9afb24f47b21d84064d88eb291", "fusion_lon": 0.0}, {"is_reserved": 0, "type": "electric_scooter", "bike_id": "5309c6e2b0b6e5d624129c2fef34b5a0", "lat": 38.89936866666667, "lon": -76.94645, "rental_uris": {"android": "https://dc.lft.to/lastmile_qr_scan", "ios": "https://dc.lft.to/lastmile_qr_scan"}, "is_disabled": 0, "fusion_lat": 0.0, "name": "5309c6e2b0b6e5d624129c2fef34b5a0", "fusion_lon": 0.0}, {"is_reserved": 0, "type": "electric_scooter", "bike_id": "5c412910dfa742b5ee54d07df4f4f0d9", "lat": 38.921255333333335, "lon": -77.01901533333333, "rental_uris": {"android": "https://dc.lft.to/lastmile_qr_scan", "ios": "https://dc.lft.to/lastmile_qr_scan"}, "is_disabled": 0, "fusion_lat": 0.0, "name": "5c412910dfa742b5ee54d07df4f4f0d9", "fusion_lon": 0.0}, {"is_reserved": 0, "type": "electric_bike", "bike_id": "eb6b0b5b6e1d35d11fe48eb55da3ec43", "lat": 38.958734166666666, "lon": -76.970563, "rental_uris": {"android": "https://dc.lft.to/lastmile_qr_scan", "ios": "https://dc.lft.to/lastmile_qr_scan"}, "is_disabled": 0, "fusion_lat": 0.0, "name": "eb6b0b5b6e1d35d11fe48eb55da3ec43", "fusion_lon": 0.0}, {"is_reserved": 0, "type": "electric_scooter", "bike_id": "911aede6854c503ed6f007c1121877b8", "lat": 38.90059383333333, "lon": -77.03364566666667, "rental_uris": {"android": "https://dc.lft.to/lastmile_qr_scan", "ios": "https://dc.lft.to/lastmile_qr_scan"}, "is_disabled": 0, "fusion_lat": 0.0, "name": "911aede6854c503ed6f007c1121877b8", "fusion_lon": 0.0}, {"is_reserved": 0, "type": "electric_scooter", "bike_id": "3aa935ed8db246ddb2a0b60e70c30fbf", "lat": 38.907172833333334, "lon": -77.00814266666667, "rental_uris": {"android": "https://dc.lft.to/lastmile_qr_scan", "ios": "https://dc.lft.to/lastmile_qr_scan"}, "is_disabled": 0, "fusion_lat": 0.0, "name": "3aa935ed8db246ddb2a0b60e70c30fbf", "fusion_lon": 0.0}, {"is_reserved": 0, "type": "electric_scooter", "bike_id": "70d86e154a6b8f2cdbd53e1d1da722c0", "lat": 38.893290666666665, "lon": -77.03187766666667, "rental_uris": {"android": "https://dc.lft.to/lastmile_qr_scan", "ios": "https://dc.lft.to/lastmile_qr_scan"}, "is_disabled": 0, "fusion_lat": 0.0, "name": "70d86e154a6b8f2cdbd53e1d1da722c0", "fusion_lon": 0.0}, {"is_reserved": 0, "type": "electric_bike", "bike_id": "680e3bd328b8d12bfef3adb306018bb8", "lat": 38.945648, "lon": -76.95840166666666, "rental_uris": {"android": "https://dc.lft.to/lastmile_qr_scan", "ios": "https://dc.lft.to/lastmile_qr_scan"}, "is_disabled": 0, "fusion_lat": 0.0, "name": "680e3bd328b8d12bfef3adb306018bb8", "fusion_lon": 0.0}, {"is_reserved": 0, "type": "electric_scooter", "bike_id": "b8b985109e9462400ce6ac4d4ba46cfd", "lat": 38.911266833333336, "lon": -77.024053, "rental_uris": {"android": "https://dc.lft.to/lastmile_qr_scan", "ios": "https://dc.lft.to/lastmile_qr_scan"}, "is_disabled": 0, "fusion_lat": 0.0, "name": "b8b985109e9462400ce6ac4d4ba46cfd", "fusion_lon": 0.0}, {"is_reserved": 0, "type": "electric_scooter", "bike_id": "65bcb8da2f00461d5d3bc5247d225fe7", "lat": 38.917024166666664, "lon": -77.02831283333333, "rental_uris": {"android": "https://dc.lft.to/lastmile_qr_scan", "ios": "https://dc.lft.to/lastmile_qr_scan"}, "is_disabled": 0, "fusion_lat": 0.0, "name": "65bcb8da2f00461d5d3bc5247d225fe7", "fusion_lon": 0.0}, {"is_reserved": 0, "type": "electric_scooter", "bike_id": "12e1719c207cd5f672e1ecaf519c7a2b", "lat": 38.94440916666667, "lon": -77.02911966666667, "rental_uris": {"android": "https://dc.lft.to/lastmile_qr_scan", "ios": "https://dc.lft.to/lastmile_qr_scan"}, "is_disabled": 0, "fusion_lat": 0.0, "name": "12e1719c207cd5f672e1ecaf519c7a2b", "fusion_lon": 0.0}, {"is_reserved": 0, "type": "electric_bike", "bike_id": "57e6ccf12dafb51cf54de56e6c45fa96", "lat": 38.881237666666664, "lon": -76.997967, "rental_uris": {"android": "https://dc.lft.to/lastmile_qr_scan", "ios": "https://dc.lft.to/lastmile_qr_scan"}, "is_disabled": 0, "fusion_lat": 0.0, "name": "57e6ccf12dafb51cf54de56e6c45fa96", "fusion_lon": 0.0}, {"is_reserved": 0, "type": "electric_scooter", "bike_id": "7e1165e18515ec11c157460671419e46", "lat": 38.93696466666667, "lon": -77.02713416666667, "rental_uris": {"android": "https://dc.lft.to/lastmile_qr_scan", "ios": "https://dc.lft.to/lastmile_qr_scan"}, "is_disabled": 0, "fusion_lat": 0.0, "name": "7e1165e18515ec11c157460671419e46", "fusion_lon": 0.0}, {"is_reserved": 0, "type": "electric_scooter", "bike_id": "94d3553adb7c2829498245b28a565b40", "lat": 38.8716215, "lon": -77.01351533333333, "rental_uris": {"android": "https://dc.lft.to/lastmile_qr_scan", "ios": "https://dc.lft.to/lastmile_qr_scan"}, "is_disabled": 0, "fusion_lat": 0.0, "name": "94d3553adb7c2829498245b28a565b40", "fusion_lon": 0.0}, {"is_reserved": 0, "type": "electric_scooter", "bike_id": "b1ccd3c294bfbf33bc2e480863f591db", "lat": 38.906712666666664, "lon": -76.98023633333334, "rental_uris": {"android": "https://dc.lft.to/lastmile_qr_scan", "ios": "https://dc.lft.to/lastmile_qr_scan"}, "is_disabled": 0, "fusion_lat": 0.0, "name": "b1ccd3c294bfbf33bc2e480863f591db", "fusion_lon": 0.0}, {"is_reserved": 0, "type": "electric_scooter", "bike_id": "c8794c9ce5bc6451765347b09863d080", "lat": 38.9138525, "lon": -77.032105, "rental_uris": {"android": "https://dc.lft.to/lastmile_qr_scan", "ios": "https://dc.lft.to/lastmile_qr_scan"}, "is_disabled": 0, "fusion_lat": 0.0, "name": "c8794c9ce5bc6451765347b09863d080", "fusion_lon": 0.0}, {"is_reserved": 0, "type": "electric_scooter", "bike_id": "b182cdacc8c0aa6cbec1f045c7893d0b", "lat": 38.911268666666665, "lon": -77.02194433333334, "rental_uris": {"android": "https://dc.lft.to/lastmile_qr_scan", "ios": "https://dc.lft.to/lastmile_qr_scan"}, "is_disabled": 0, "fusion_lat": 0.0, "name": "b182cdacc8c0aa6cbec1f045c7893d0b", "fusion_lon": 0.0}, {"is_reserved": 0, "type": "electric_scooter", "bike_id": "99d54228bf1ec1fc70a43e6e74f85215", "lat": 38.92417866666667, "lon": -77.045501, "rental_uris": {"android": "https://dc.lft.to/lastmile_qr_scan", "ios": "https://dc.lft.to/lastmile_qr_scan"}, "is_disabled": 0, "fusion_lat": 0.0, "name": "99d54228bf1ec1fc70a43e6e74f85215", "fusion_lon": 0.0}, {"is_reserved": 0, "type": "electric_scooter", "bike_id": "4cf73120a47de7d9cd3f4bae6346a114", "lat": 38.9004225, "lon": -77.0243605, "rental_uris": {"android": "https://dc.lft.to/lastmile_qr_scan", "ios": "https://dc.lft.to/lastmile_qr_scan"}, "is_disabled": 0, "fusion_lat": 0.0, "name": "4cf73120a47de7d9cd3f4bae6346a114", "fusion_lon": 0.0}, {"is_reserved": 0, "type": "electric_scooter", "bike_id": "038f154c37882c5a5f8fa0b01869a961", "lat": 38.898528, "lon": -76.92753166666667, "rental_uris": {"android": "https://dc.lft.to/lastmile_qr_scan", "ios": "https://dc.lft.to/lastmile_qr_scan"}, "is_disabled": 0, "fusion_lat": 0.0, "name": "038f154c37882c5a5f8fa0b01869a961", "fusion_lon": 0.0}, {"is_reserved": 0, "type": "electric_scooter", "bike_id": "e2d6161b26ea75d985786b8d2ecbc8d2", "lat": 38.911278833333334, "lon": -77.0441195, "rental_uris": {"android": "https://dc.lft.to/lastmile_qr_scan", "ios": "https://dc.lft.to/lastmile_qr_scan"}, "is_disabled": 0, "fusion_lat": 0.0, "name": "e2d6161b26ea75d985786b8d2ecbc8d2", "fusion_lon": 0.0}, {"is_reserved": 0, "type": "electric_scooter", "bike_id": "a0ae49574338391b18ac148fb5fcfb94", "lat": 38.9202885, "lon": -77.03165666666666, "rental_uris": {"android": "https://dc.lft.to/lastmile_qr_scan", "ios": "https://dc.lft.to/lastmile_qr_scan"}, "is_disabled": 0, "fusion_lat": 0.0, "name": "a0ae49574338391b18ac148fb5fcfb94", "fusion_lon": 0.0}, {"is_reserved": 0, "type": "electric_scooter", "bike_id": "6988b1fbb44533677eb5608c8ebc8307", "lat": 38.905206, "lon": -77.01892766666667, "rental_uris": {"android": "https://dc.lft.to/lastmile_qr_scan", "ios": "https://dc.lft.to/lastmile_qr_scan"}, "is_disabled": 0, "fusion_lat": 0.0, "name": "6988b1fbb44533677eb5608c8ebc8307", "fusion_lon": 0.0}, {"is_reserved": 0, "type": "electric_scooter", "bike_id": "2d8990034875286e4dbf33bbf2f5508b", "lat": 38.896806, "lon": -77.00514833333334, "rental_uris": {"android": "https://dc.lft.to/lastmile_qr_scan", "ios": "https://dc.lft.to/lastmile_qr_scan"}, "is_disabled": 0, "fusion_lat": 0.0, "name": "2d8990034875286e4dbf33bbf2f5508b", "fusion_lon": 0.0}, {"is_reserved": 0, "type": "electric_scooter", "bike_id": "7de150e03c9904c5e61b4737f321a799", "lat": 38.90952766666667, "lon": -77.02385916666667, "rental_uris": {"android": "https://dc.lft.to/lastmile_qr_scan", "ios": "https://dc.lft.to/lastmile_qr_scan"}, "is_disabled": 0, "fusion_lat": 0.0, "name": "7de150e03c9904c5e61b4737f321a799", "fusion_lon": 0.0}, {"is_reserved": 0, "type": "electric_bike", "bike_id": "56bab307d67dd29c0ea5264c90b1a185", "lat": 38.88607916666667, "lon": -77.14228966666667, "rental_uris": {"android": "https://dc.lft.to/lastmile_qr_scan", "ios": "https://dc.lft.to/lastmile_qr_scan"}, "is_disabled": 0, "fusion_lat": 0.0, "name": "56bab307d67dd29c0ea5264c90b1a185", "fusion_lon": 0.0}, {"is_reserved": 0, "type": "electric_scooter", "bike_id": "f3e5b379f1bda8c7a1c95d4ffb6fdd98", "lat": 38.885135166666664, "lon": -77.011172, "rental_uris": {"android": "https://dc.lft.to/lastmile_qr_scan", "ios": "https://dc.lft.to/lastmile_qr_scan"}, "is_disabled": 0, "fusion_lat": 0.0, "name": "f3e5b379f1bda8c7a1c95d4ffb6fdd98", "fusion_lon": 0.0}, {"is_reserved": 0, "type": "electric_scooter", "bike_id": "98138fc712d3bfcc369807444b614494", "lat": 38.91455233333333, "lon": -77.032069, "rental_uris": {"android": "https://dc.lft.to/lastmile_qr_scan", "ios": "https://dc.lft.to/lastmile_qr_scan"}, "is_disabled": 0, "fusion_lat": 0.0, "name": "98138fc712d3bfcc369807444b614494", "fusion_lon": 0.0}, {"is_reserved": 0, "type": "electric_scooter", "bike_id": "4e6c4c826331dcf8729280e66ab7f5c0", "lat": 38.898612, "lon": -77.02945566666666, "rental_uris": {"android": "https://dc.lft.to/lastmile_qr_scan", "ios": "https://dc.lft.to/lastmile_qr_scan"}, "is_disabled": 0, "fusion_lat": 0.0, "name": "4e6c4c826331dcf8729280e66ab7f5c0", "fusion_lon": 0.0}, {"is_reserved": 0, "type": "electric_scooter", "bike_id": "47e2732e26fed87289c60c486b3cb52a", "lat": 38.91273433333333, "lon": -77.0238625, "rental_uris": {"android": "https://dc.lft.to/lastmile_qr_scan", "ios": "https://dc.lft.to/lastmile_qr_scan"}, "is_disabled": 0, "fusion_lat": 0.0, "name": "47e2732e26fed87289c60c486b3cb52a", "fusion_lon": 0.0}, {"is_reserved": 0, "type": "electric_scooter", "bike_id": "4391ed70ef9c5ade000cffb96f0c3c38", "lat": 38.8989935, "lon": -77.03280566666666, "rental_uris": {"android": "https://dc.lft.to/lastmile_qr_scan", "ios": "https://dc.lft.to/lastmile_qr_scan"}, "is_disabled": 0, "fusion_lat": 0.0, "name": "4391ed70ef9c5ade000cffb96f0c3c38", "fusion_lon": 0.0}, {"is_reserved": 0, "type": "electric_scooter", "bike_id": "e2af7c9c906801c368d696b62c640bcf", "lat": 38.908527666666664, "lon": -76.99965083333333, "rental_uris": {"android": "https://dc.lft.to/lastmile_qr_scan", "ios": "https://dc.lft.to/lastmile_qr_scan"}, "is_disabled": 0, "fusion_lat": 0.0, "name": "e2af7c9c906801c368d696b62c640bcf", "fusion_lon": 0.0}, {"is_reserved": 0, "type": "electric_scooter", "bike_id": "5f3655dcee29acd2f1ca2aeeca789f6c", "lat": 38.90731133333333, "lon": -77.042207, "rental_uris": {"android": "https://dc.lft.to/lastmile_qr_scan", "ios": "https://dc.lft.to/lastmile_qr_scan"}, "is_disabled": 0, "fusion_lat": 0.0, "name": "5f3655dcee29acd2f1ca2aeeca789f6c", "fusion_lon": 0.0}, {"is_reserved": 0, "type": "electric_bike", "bike_id": "6d4014e3175fb7e8f31405be74a0d930", "lat": 38.94670933333333, "lon": -76.99336516666666, "rental_uris": {"android": "https://dc.lft.to/lastmile_qr_scan", "ios": "https://dc.lft.to/lastmile_qr_scan"}, "is_disabled": 0, "fusion_lat": 0.0, "name": "6d4014e3175fb7e8f31405be74a0d930", "fusion_lon": 0.0}, {"is_reserved": 0, "type": "electric_scooter", "bike_id": "50f69bf70b1d0bcc1427d96a6f65a97d", "lat": 38.89640716666667, "lon": -77.04859833333333, "rental_uris": {"android": "https://dc.lft.to/lastmile_qr_scan", "ios": "https://dc.lft.to/lastmile_qr_scan"}, "is_disabled": 0, "fusion_lat": 0.0, "name": "50f69bf70b1d0bcc1427d96a6f65a97d", "fusion_lon": 0.0}, {"is_reserved": 0, "type": "electric_scooter", "bike_id": "481df2851e4e459999fdf01392159ac5", "lat": 38.894699, "lon": -76.99711433333333, "rental_uris": {"android": "https://dc.lft.to/lastmile_qr_scan", "ios": "https://dc.lft.to/lastmile_qr_scan"}, "is_disabled": 0, "fusion_lat": 0.0, "name": "481df2851e4e459999fdf01392159ac5", "fusion_lon": 0.0}, {"is_reserved": 0, "type": "electric_scooter", "bike_id": "9f4fd7e4e63984ba53a0d515ccf271f4", "lat": 38.915609, "lon": -77.04882366666666, "rental_uris": {"android": "https://dc.lft.to/lastmile_qr_scan", "ios": "https://dc.lft.to/lastmile_qr_scan"}, "is_disabled": 0, "fusion_lat": 0.0, "name": "9f4fd7e4e63984ba53a0d515ccf271f4", "fusion_lon": 0.0}, {"is_reserved": 0, "type": "electric_scooter", "bike_id": "47bed86996d0152a66413bc6a3983655", "lat": 38.934611333333336, "lon": -77.03074233333334, "rental_uris": {"android": "https://dc.lft.to/lastmile_qr_scan", "ios": "https://dc.lft.to/lastmile_qr_scan"}, "is_disabled": 0, "fusion_lat": 0.0, "name": "47bed86996d0152a66413bc6a3983655", "fusion_lon": 0.0}, {"is_reserved": 0, "type": "electric_scooter", "bike_id": "e1f70f74c9df0421b8548a963f5fb254", "lat": 38.921263833333335, "lon": -77.0366465, "rental_uris": {"android": "https://dc.lft.to/lastmile_qr_scan", "ios": "https://dc.lft.to/lastmile_qr_scan"}, "is_disabled": 0, "fusion_lat": 0.0, "name": "e1f70f74c9df0421b8548a963f5fb254", "fusion_lon": 0.0}, {"is_reserved": 0, "type": "electric_scooter", "bike_id": "4fb7e97975050e40c25cabb8f4e47a6c", "lat": 38.95909666666667, "lon": -77.00027866666667, "rental_uris": {"android": "https://dc.lft.to/lastmile_qr_scan", "ios": "https://dc.lft.to/lastmile_qr_scan"}, "is_disabled": 0, "fusion_lat": 0.0, "name": "4fb7e97975050e40c25cabb8f4e47a6c", "fusion_lon": 0.0}, {"is_reserved": 0, "type": "electric_scooter", "bike_id": "64de77ae542b31580f1df7710d180a87", "lat": 38.899372, "lon": -77.0033925, "rental_uris": {"android": "https://dc.lft.to/lastmile_qr_scan", "ios": "https://dc.lft.to/lastmile_qr_scan"}, "is_disabled": 0, "fusion_lat": 0.0, "name": "64de77ae542b31580f1df7710d180a87", "fusion_lon": 0.0}, {"is_reserved": 0, "type": "electric_scooter", "bike_id": "0ffa180225794b4c5aa9dae9d255b51a", "lat": 38.8874075, "lon": -77.00344783333334, "rental_uris": {"android": "https://dc.lft.to/lastmile_qr_scan", "ios": "https://dc.lft.to/lastmile_qr_scan"}, "is_disabled": 0, "fusion_lat": 0.0, "name": "0ffa180225794b4c5aa9dae9d255b51a", "fusion_lon": 0.0}, {"is_reserved": 0, "type": "electric_bike", "bike_id": "d3c9d6b78669dfdc30e3be25f3ca7433", "lat": 38.94262666666667, "lon": -76.99069866666666, "rental_uris": {"android": "https://dc.lft.to/lastmile_qr_scan", "ios": "https://dc.lft.to/lastmile_qr_scan"}, "is_disabled": 0, "fusion_lat": 0.0, "name": "d3c9d6b78669dfdc30e3be25f3ca7433", "fusion_lon": 0.0}, {"is_reserved": 0, "type": "electric_scooter", "bike_id": "17d449d90c88d8f90d7a6b654428a262", "lat": 38.8959895, "lon": -77.03010983333333, "rental_uris": {"android": "https://dc.lft.to/lastmile_qr_scan", "ios": "https://dc.lft.to/lastmile_qr_scan"}, "is_disabled": 0, "fusion_lat": 0.0, "name": "17d449d90c88d8f90d7a6b654428a262", "fusion_lon": 0.0}, {"is_reserved": 0, "type": "electric_scooter", "bike_id": "3914ec46164214a3bd61b0c6a39b8e91", "lat": 38.94850183333333, "lon": -77.02686066666666, "rental_uris": {"android": "https://dc.lft.to/lastmile_qr_scan", "ios": "https://dc.lft.to/lastmile_qr_scan"}, "is_disabled": 0, "fusion_lat": 0.0, "name": "3914ec46164214a3bd61b0c6a39b8e91", "fusion_lon": 0.0}, {"is_reserved": 0, "type": "electric_scooter", "bike_id": "d9f08321f72c6f3e147d18d64c2271f7", "lat": 38.903135666666664, "lon": -76.977989, "rental_uris": {"android": "https://dc.lft.to/lastmile_qr_scan", "ios": "https://dc.lft.to/lastmile_qr_scan"}, "is_disabled": 0, "fusion_lat": 0.0, "name": "d9f08321f72c6f3e147d18d64c2271f7", "fusion_lon": 0.0}, {"is_reserved": 0, "type": "electric_scooter", "bike_id": "dca4a4782c04a72a61c8fa3f20636c49", "lat": 38.901762833333336, "lon": -77.0248785, "rental_uris": {"android": "https://dc.lft.to/lastmile_qr_scan", "ios": "https://dc.lft.to/lastmile_qr_scan"}, "is_disabled": 0, "fusion_lat": 0.0, "name": "dca4a4782c04a72a61c8fa3f20636c49", "fusion_lon": 0.0}, {"is_reserved": 0, "type": "electric_scooter", "bike_id": "98f06f8a41d13991e37e2051a3652a24", "lat": 38.901191833333336, "lon": -77.04154766666667, "rental_uris": {"android": "https://dc.lft.to/lastmile_qr_scan", "ios": "https://dc.lft.to/lastmile_qr_scan"}, "is_disabled": 0, "fusion_lat": 0.0, "name": "98f06f8a41d13991e37e2051a3652a24", "fusion_lon": 0.0}, {"is_reserved": 0, "type": "electric_scooter", "bike_id": "7525c90258f0cac5ef752ffd54e36160", "lat": 38.93341866666667, "lon": -77.03633483333333, "rental_uris": {"android": "https://dc.lft.to/lastmile_qr_scan", "ios": "https://dc.lft.to/lastmile_qr_scan"}, "is_disabled": 0, "fusion_lat": 0.0, "name": "7525c90258f0cac5ef752ffd54e36160", "fusion_lon": 0.0}, {"is_reserved": 0, "type": "electric_scooter", "bike_id": "e4737be51efd438628345a51305a0628", "lat": 38.91962566666667, "lon": -77.04362233333333, "rental_uris": {"android": "https://dc.lft.to/lastmile_qr_scan", "ios": "https://dc.lft.to/lastmile_qr_scan"}, "is_disabled": 0, "fusion_lat": 0.0, "name": "e4737be51efd438628345a51305a0628", "fusion_lon": 0.0}, {"is_reserved": 0, "type": "electric_scooter", "bike_id": "6aff00b5445805dd24dee3781eb6c42b", "lat": 38.91762666666666, "lon": -77.024076, "rental_uris": {"android": "https://dc.lft.to/lastmile_qr_scan", "ios": "https://dc.lft.to/lastmile_qr_scan"}, "is_disabled": 0, "fusion_lat": 0.0, "name": "6aff00b5445805dd24dee3781eb6c42b", "fusion_lon": 0.0}, {"is_reserved": 0, "type": "electric_bike", "bike_id": "7a7f5f16fcf60f938ca6fe6b14d2655a", "lat": 38.944747166666666, "lon": -77.022564, "rental_uris": {"android": "https://dc.lft.to/lastmile_qr_scan", "ios": "https://dc.lft.to/lastmile_qr_scan"}, "is_disabled": 0, "fusion_lat": 0.0, "name": "7a7f5f16fcf60f938ca6fe6b14d2655a", "fusion_lon": 0.0}, {"is_reserved": 0, "type": "electric_scooter", "bike_id": "39c66831b097e41a4e8443ee33fbefdd", "lat": 38.90048266666667, "lon": -76.98846633333334, "rental_uris": {"android": "https://dc.lft.to/lastmile_qr_scan", "ios": "https://dc.lft.to/lastmile_qr_scan"}, "is_disabled": 0, "fusion_lat": 0.0, "name": "39c66831b097e41a4e8443ee33fbefdd", "fusion_lon": 0.0}, {"is_reserved": 0, "type": "electric_scooter", "bike_id": "558272da2bf67d21b9a353267d9a6404", "lat": 38.9019205, "lon": -77.02125116666667, "rental_uris": {"android": "https://dc.lft.to/lastmile_qr_scan", "ios": "https://dc.lft.to/lastmile_qr_scan"}, "is_disabled": 0, "fusion_lat": 0.0, "name": "558272da2bf67d21b9a353267d9a6404", "fusion_lon": 0.0}, {"is_reserved": 0, "type": "electric_scooter", "bike_id": "d67d16d5ae3754f4b7d2aae97dfc1b84", "lat": 38.90254483333333, "lon": -77.01822866666667, "rental_uris": {"android": "https://dc.lft.to/lastmile_qr_scan", "ios": "https://dc.lft.to/lastmile_qr_scan"}, "is_disabled": 0, "fusion_lat": 0.0, "name": "d67d16d5ae3754f4b7d2aae97dfc1b84", "fusion_lon": 0.0}, {"is_reserved": 0, "type": "electric_scooter", "bike_id": "e998aca0c97c3d9bb0e751542bfd430b", "lat": 38.8765645, "lon": -77.0207765, "rental_uris": {"android": "https://dc.lft.to/lastmile_qr_scan", "ios": "https://dc.lft.to/lastmile_qr_scan"}, "is_disabled": 0, "fusion_lat": 0.0, "name": "e998aca0c97c3d9bb0e751542bfd430b", "fusion_lon": 0.0}, {"is_reserved": 0, "type": "electric_scooter", "bike_id": "9430dca389af507a53828998a87cc86a", "lat": 38.88672416666667, "lon": -77.0020075, "rental_uris": {"android": "https://dc.lft.to/lastmile_qr_scan", "ios": "https://dc.lft.to/lastmile_qr_scan"}, "is_disabled": 0, "fusion_lat": 0.0, "name": "9430dca389af507a53828998a87cc86a", "fusion_lon": 0.0}, {"is_reserved": 0, "type": "electric_scooter", "bike_id": "5215c7d4f26f7b540ba467fc4647ee7b", "lat": 38.918186, "lon": -77.02588416666667, "rental_uris": {"android": "https://dc.lft.to/lastmile_qr_scan", "ios": "https://dc.lft.to/lastmile_qr_scan"}, "is_disabled": 0, "fusion_lat": 0.0, "name": "5215c7d4f26f7b540ba467fc4647ee7b", "fusion_lon": 0.0}, {"is_reserved": 0, "type": "electric_scooter", "bike_id": "1621e2c713d1702f8a02b930a4da1a49", "lat": 38.88532933333333, "lon": -76.98054883333333, "rental_uris": {"android": "https://dc.lft.to/lastmile_qr_scan", "ios": "https://dc.lft.to/lastmile_qr_scan"}, "is_disabled": 0, "fusion_lat": 0.0, "name": "1621e2c713d1702f8a02b930a4da1a49", "fusion_lon": 0.0}, {"is_reserved": 0, "type": "electric_scooter", "bike_id": "567fa095f7efa87c75be09fbd9a36486", "lat": 38.90042283333333, "lon": -77.03422216666667, "rental_uris": {"android": "https://dc.lft.to/lastmile_qr_scan", "ios": "https://dc.lft.to/lastmile_qr_scan"}, "is_disabled": 0, "fusion_lat": 0.0, "name": "567fa095f7efa87c75be09fbd9a36486", "fusion_lon": 0.0}, {"is_reserved": 0, "type": "electric_scooter", "bike_id": "38d2654e38fab32b7e87945b4ca010e1", "lat": 38.8672015, "lon": -76.98071083333333, "rental_uris": {"android": "https://dc.lft.to/lastmile_qr_scan", "ios": "https://dc.lft.to/lastmile_qr_scan"}, "is_disabled": 0, "fusion_lat": 0.0, "name": "38d2654e38fab32b7e87945b4ca010e1", "fusion_lon": 0.0}, {"is_reserved": 0, "type": "electric_scooter", "bike_id": "269806ab0c4b629918af39502229efc8", "lat": 38.9166445, "lon": -77.0246815, "rental_uris": {"android": "https://dc.lft.to/lastmile_qr_scan", "ios": "https://dc.lft.to/lastmile_qr_scan"}, "is_disabled": 0, "fusion_lat": 0.0, "name": "269806ab0c4b629918af39502229efc8", "fusion_lon": 0.0}, {"is_reserved": 0, "type": "electric_scooter", "bike_id": "02c06d92fcac333ba1967d092df9adf2", "lat": 38.936583, "lon": -77.02137333333333, "rental_uris": {"android": "https://dc.lft.to/lastmile_qr_scan", "ios": "https://dc.lft.to/lastmile_qr_scan"}, "is_disabled": 0, "fusion_lat": 0.0, "name": "02c06d92fcac333ba1967d092df9adf2", "fusion_lon": 0.0}, {"is_reserved": 0, "type": "electric_scooter", "bike_id": "2bd2b3fea7f9aac167482a108f3ca0c2", "lat": 38.92636733333333, "lon": -77.04250916666666, "rental_uris": {"android": "https://dc.lft.to/lastmile_qr_scan", "ios": "https://dc.lft.to/lastmile_qr_scan"}, "is_disabled": 0, "fusion_lat": 0.0, "name": "2bd2b3fea7f9aac167482a108f3ca0c2", "fusion_lon": 0.0}, {"is_reserved": 0, "type": "electric_scooter", "bike_id": "0a7363268f1925e9a11a6fc202bea09a", "lat": 38.914265666666665, "lon": -77.0465335, "rental_uris": {"android": "https://dc.lft.to/lastmile_qr_scan", "ios": "https://dc.lft.to/lastmile_qr_scan"}, "is_disabled": 0, "fusion_lat": 0.0, "name": "0a7363268f1925e9a11a6fc202bea09a", "fusion_lon": 0.0}, {"is_reserved": 0, "type": "electric_scooter", "bike_id": "bfc8bb9bc7fcc4c09f867eb8e511c90f", "lat": 38.92409816666667, "lon": -77.04262433333334, "rental_uris": {"android": "https://dc.lft.to/lastmile_qr_scan", "ios": "https://dc.lft.to/lastmile_qr_scan"}, "is_disabled": 0, "fusion_lat": 0.0, "name": "bfc8bb9bc7fcc4c09f867eb8e511c90f", "fusion_lon": 0.0}, {"is_reserved": 0, "type": "electric_scooter", "bike_id": "fc7f7b5c1b5c0feb09ea91303f537ace", "lat": 38.90585566666667, "lon": -77.02974983333333, "rental_uris": {"android": "https://dc.lft.to/lastmile_qr_scan", "ios": "https://dc.lft.to/lastmile_qr_scan"}, "is_disabled": 0, "fusion_lat": 0.0, "name": "fc7f7b5c1b5c0feb09ea91303f537ace", "fusion_lon": 0.0}, {"is_reserved": 0, "type": "electric_scooter", "bike_id": "d611ddfb4ce85625d282baee5cb436c6", "lat": 38.975195666666664, "lon": -77.01738583333334, "rental_uris": {"android": "https://dc.lft.to/lastmile_qr_scan", "ios": "https://dc.lft.to/lastmile_qr_scan"}, "is_disabled": 0, "fusion_lat": 0.0, "name": "d611ddfb4ce85625d282baee5cb436c6", "fusion_lon": 0.0}, {"is_reserved": 0, "type": "electric_scooter", "bike_id": "68871f0e3aedfaacafe98fc511d665c1", "lat": 38.89884433333334, "lon": -77.007355, "rental_uris": {"android": "https://dc.lft.to/lastmile_qr_scan", "ios": "https://dc.lft.to/lastmile_qr_scan"}, "is_disabled": 0, "fusion_lat": 0.0, "name": "68871f0e3aedfaacafe98fc511d665c1", "fusion_lon": 0.0}, {"is_reserved": 0, "type": "electric_scooter", "bike_id": "e2ed576025627444392e6da2bce9dd66", "lat": 38.9089945, "lon": -76.99618233333334, "rental_uris": {"android": "https://dc.lft.to/lastmile_qr_scan", "ios": "https://dc.lft.to/lastmile_qr_scan"}, "is_disabled": 0, "fusion_lat": 0.0, "name": "e2ed576025627444392e6da2bce9dd66", "fusion_lon": 0.0}, {"is_reserved": 0, "type": "electric_scooter", "bike_id": "da3b47dcf442146d4813e6ae1c86a176", "lat": 38.94327416666667, "lon": -77.012589, "rental_uris": {"android": "https://dc.lft.to/lastmile_qr_scan", "ios": "https://dc.lft.to/lastmile_qr_scan"}, "is_disabled": 0, "fusion_lat": 0.0, "name": "da3b47dcf442146d4813e6ae1c86a176", "fusion_lon": 0.0}, {"is_reserved": 0, "type": "electric_scooter", "bike_id": "325987f940180e93fe0cefb6ec8a9979", "lat": 38.92275633333333, "lon": -77.0213265, "rental_uris": {"android": "https://dc.lft.to/lastmile_qr_scan", "ios": "https://dc.lft.to/lastmile_qr_scan"}, "is_disabled": 0, "fusion_lat": 0.0, "name": "325987f940180e93fe0cefb6ec8a9979", "fusion_lon": 0.0}, {"is_reserved": 0, "type": "electric_scooter", "bike_id": "f6099076b56e041fb6f8bac0dd98fbbc", "lat": 38.8944045, "lon": -77.02634533333334, "rental_uris": {"android": "https://dc.lft.to/lastmile_qr_scan", "ios": "https://dc.lft.to/lastmile_qr_scan"}, "is_disabled": 0, "fusion_lat": 0.0, "name": "f6099076b56e041fb6f8bac0dd98fbbc", "fusion_lon": 0.0}, {"is_reserved": 0, "type": "electric_scooter", "bike_id": "ff02b22bf3befede8750b5cf5870e4be", "lat": 38.8923235, "lon": -77.04656, "rental_uris": {"android": "https://dc.lft.to/lastmile_qr_scan", "ios": "https://dc.lft.to/lastmile_qr_scan"}, "is_disabled": 0, "fusion_lat": 0.0, "name": "ff02b22bf3befede8750b5cf5870e4be", "fusion_lon": 0.0}, {"is_reserved": 0, "type": "electric_scooter", "bike_id": "6eb1e064e50b84b72b6a02b3af23166e", "lat": 38.913492833333336, "lon": -77.064159, "rental_uris": {"android": "https://dc.lft.to/lastmile_qr_scan", "ios": "https://dc.lft.to/lastmile_qr_scan"}, "is_disabled": 0, "fusion_lat": 0.0, "name": "6eb1e064e50b84b72b6a02b3af23166e", "fusion_lon": 0.0}, {"is_reserved": 0, "type": "electric_scooter", "bike_id": "917e893835ad391c595f03cd40401712", "lat": 38.92372683333333, "lon": -77.04310683333334, "rental_uris": {"android": "https://dc.lft.to/lastmile_qr_scan", "ios": "https://dc.lft.to/lastmile_qr_scan"}, "is_disabled": 0, "fusion_lat": 0.0, "name": "917e893835ad391c595f03cd40401712", "fusion_lon": 0.0}, {"is_reserved": 0, "type": "electric_scooter", "bike_id": "e10f34fcbd9b9316d81225e7d99d1548", "lat": 38.91568683333333, "lon": -77.02131666666666, "rental_uris": {"android": "https://dc.lft.to/lastmile_qr_scan", "ios": "https://dc.lft.to/lastmile_qr_scan"}, "is_disabled": 0, "fusion_lat": 0.0, "name": "e10f34fcbd9b9316d81225e7d99d1548", "fusion_lon": 0.0}, {"is_reserved": 0, "type": "electric_bike", "bike_id": "769afb1f110a124bc2f54cbf6522fd08", "lat": 38.9742315, "lon": -77.01256516666666, "rental_uris": {"android": "https://dc.lft.to/lastmile_qr_scan", "ios": "https://dc.lft.to/lastmile_qr_scan"}, "is_disabled": 0, "fusion_lat": 0.0, "name": "769afb1f110a124bc2f54cbf6522fd08", "fusion_lon": 0.0}, {"is_reserved": 0, "type": "electric_scooter", "bike_id": "ddfcabd9b9813dd2e29d6fcabaa87ef0", "lat": 38.9154975, "lon": -77.01222783333333, "rental_uris": {"android": "https://dc.lft.to/lastmile_qr_scan", "ios": "https://dc.lft.to/lastmile_qr_scan"}, "is_disabled": 0, "fusion_lat": 0.0, "name": "ddfcabd9b9813dd2e29d6fcabaa87ef0", "fusion_lon": 0.0}, {"is_reserved": 0, "type": "electric_scooter", "bike_id": "0733e20a1b3ba2791a30f5f42dd25d4e", "lat": 38.911129, "lon": -77.03832, "rental_uris": {"android": "https://dc.lft.to/lastmile_qr_scan", "ios": "https://dc.lft.to/lastmile_qr_scan"}, "is_disabled": 0, "fusion_lat": 0.0, "name": "0733e20a1b3ba2791a30f5f42dd25d4e", "fusion_lon": 0.0}, {"is_reserved": 0, "type": "electric_scooter", "bike_id": "57c18d2393367965fd1891bb8c2844d7", "lat": 38.897482333333336, "lon": -77.02536016666667, "rental_uris": {"android": "https://dc.lft.to/lastmile_qr_scan", "ios": "https://dc.lft.to/lastmile_qr_scan"}, "is_disabled": 0, "fusion_lat": 0.0, "name": "57c18d2393367965fd1891bb8c2844d7", "fusion_lon": 0.0}, {"is_reserved": 0, "type": "electric_scooter", "bike_id": "5e1138c82e7fe4e47819346006b3f888", "lat": 38.919284833333336, "lon": -77.02878633333333, "rental_uris": {"android": "https://dc.lft.to/lastmile_qr_scan", "ios": "https://dc.lft.to/lastmile_qr_scan"}, "is_disabled": 0, "fusion_lat": 0.0, "name": "5e1138c82e7fe4e47819346006b3f888", "fusion_lon": 0.0}, {"is_reserved": 0, "type": "electric_scooter", "bike_id": "a19bcff6f65ebdbebeee51f9a1877d92", "lat": 38.9140125, "lon": -77.03186416666667, "rental_uris": {"android": "https://dc.lft.to/lastmile_qr_scan", "ios": "https://dc.lft.to/lastmile_qr_scan"}, "is_disabled": 0, "fusion_lat": 0.0, "name": "a19bcff6f65ebdbebeee51f9a1877d92", "fusion_lon": 0.0}, {"is_reserved": 0, "type": "electric_scooter", "bike_id": "467a79c04633fb9e24597f8ac08cba12", "lat": 38.89729416666667, "lon": -77.0037665, "rental_uris": {"android": "https://dc.lft.to/lastmile_qr_scan", "ios": "https://dc.lft.to/lastmile_qr_scan"}, "is_disabled": 0, "fusion_lat": 0.0, "name": "467a79c04633fb9e24597f8ac08cba12", "fusion_lon": 0.0}, {"is_reserved": 0, "type": "electric_scooter", "bike_id": "f405936e09fe4eb8b5469c0fddc15976", "lat": 38.84626766666667, "lon": -76.98120516666667, "rental_uris": {"android": "https://dc.lft.to/lastmile_qr_scan", "ios": "https://dc.lft.to/lastmile_qr_scan"}, "is_disabled": 0, "fusion_lat": 0.0, "name": "f405936e09fe4eb8b5469c0fddc15976", "fusion_lon": 0.0}, {"is_reserved": 0, "type": "electric_scooter", "bike_id": "15808ee5ee6387222902e7b7f48e4aac", "lat": 38.915330833333336, "lon": -77.02188516666666, "rental_uris": {"android": "https://dc.lft.to/lastmile_qr_scan", "ios": "https://dc.lft.to/lastmile_qr_scan"}, "is_disabled": 0, "fusion_lat": 0.0, "name": "15808ee5ee6387222902e7b7f48e4aac", "fusion_lon": 0.0}, {"is_reserved": 0, "type": "electric_scooter", "bike_id": "a3bd7c25deaa5e2e1fb7b12e1a722366", "lat": 38.92421783333333, "lon": -77.01948416666667, "rental_uris": {"android": "https://dc.lft.to/lastmile_qr_scan", "ios": "https://dc.lft.to/lastmile_qr_scan"}, "is_disabled": 0, "fusion_lat": 0.0, "name": "a3bd7c25deaa5e2e1fb7b12e1a722366", "fusion_lon": 0.0}, {"is_reserved": 0, "type": "electric_scooter", "bike_id": "41c1209fc26da5a327c4a76eae638739", "lat": 38.863744833333335, "lon": -76.99058416666666, "rental_uris": {"android": "https://dc.lft.to/lastmile_qr_scan", "ios": "https://dc.lft.to/lastmile_qr_scan"}, "is_disabled": 0, "fusion_lat": 0.0, "name": "41c1209fc26da5a327c4a76eae638739", "fusion_lon": 0.0}, {"is_reserved": 0, "type": "electric_scooter", "bike_id": "31f0c97012d8662b258cf750ed9c529b", "lat": 38.899574666666666, "lon": -77.04764416666667, "rental_uris": {"android": "https://dc.lft.to/lastmile_qr_scan", "ios": "https://dc.lft.to/lastmile_qr_scan"}, "is_disabled": 0, "fusion_lat": 0.0, "name": "31f0c97012d8662b258cf750ed9c529b", "fusion_lon": 0.0}, {"is_reserved": 0, "type": "electric_scooter", "bike_id": "a62d57979e08decb4368d74a95a65995", "lat": 38.91998666666667, "lon": -77.071412, "rental_uris": {"android": "https://dc.lft.to/lastmile_qr_scan", "ios": "https://dc.lft.to/lastmile_qr_scan"}, "is_disabled": 0, "fusion_lat": 0.0, "name": "a62d57979e08decb4368d74a95a65995", "fusion_lon": 0.0}, {"is_reserved": 0, "type": "electric_scooter", "bike_id": "48e75f2b14b45116becc3d20ed0bcb1d", "lat": 38.899451166666665, "lon": -76.97706916666667, "rental_uris": {"android": "https://dc.lft.to/lastmile_qr_scan", "ios": "https://dc.lft.to/lastmile_qr_scan"}, "is_disabled": 0, "fusion_lat": 0.0, "name": "48e75f2b14b45116becc3d20ed0bcb1d", "fusion_lon": 0.0}, {"is_reserved": 0, "type": "electric_scooter", "bike_id": "db2ed2c87d9558743a51a5638da1ab2a", "lat": 38.9191885, "lon": -77.03336133333333, "rental_uris": {"android": "https://dc.lft.to/lastmile_qr_scan", "ios": "https://dc.lft.to/lastmile_qr_scan"}, "is_disabled": 0, "fusion_lat": 0.0, "name": "db2ed2c87d9558743a51a5638da1ab2a", "fusion_lon": 0.0}, {"is_reserved": 0, "type": "electric_bike", "bike_id": "367c54c820db006360e339630320758a", "lat": 38.995209333333335, "lon": -77.0378225, "rental_uris": {"android": "https://dc.lft.to/lastmile_qr_scan", "ios": "https://dc.lft.to/lastmile_qr_scan"}, "is_disabled": 0, "fusion_lat": 0.0, "name": "367c54c820db006360e339630320758a", "fusion_lon": 0.0}, {"is_reserved": 0, "type": "electric_scooter", "bike_id": "55e53b553a6f794e28e4ab357fcab5cd", "lat": 38.9113885, "lon": -77.0382365, "rental_uris": {"android": "https://dc.lft.to/lastmile_qr_scan", "ios": "https://dc.lft.to/lastmile_qr_scan"}, "is_disabled": 0, "fusion_lat": 0.0, "name": "55e53b553a6f794e28e4ab357fcab5cd", "fusion_lon": 0.0}, {"is_reserved": 0, "type": "electric_scooter", "bike_id": "9699de32aa7303aba1c82269aa11eecc", "lat": 38.894229833333334, "lon": -77.05595616666666, "rental_uris": {"android": "https://dc.lft.to/lastmile_qr_scan", "ios": "https://dc.lft.to/lastmile_qr_scan"}, "is_disabled": 0, "fusion_lat": 0.0, "name": "9699de32aa7303aba1c82269aa11eecc", "fusion_lon": 0.0}, {"is_reserved": 0, "type": "electric_scooter", "bike_id": "51c2b9d82b63c879faee2947a2fa0d80", "lat": 38.9071515, "lon": -77.03097733333334, "rental_uris": {"android": "https://dc.lft.to/lastmile_qr_scan", "ios": "https://dc.lft.to/lastmile_qr_scan"}, "is_disabled": 0, "fusion_lat": 0.0, "name": "51c2b9d82b63c879faee2947a2fa0d80", "fusion_lon": 0.0}, {"is_reserved": 0, "type": "electric_scooter", "bike_id": "bde7b6856734b95343d329baac441a83", "lat": 38.930959, "lon": -77.03737483333333, "rental_uris": {"android": "https://dc.lft.to/lastmile_qr_scan", "ios": "https://dc.lft.to/lastmile_qr_scan"}, "is_disabled": 0, "fusion_lat": 0.0, "name": "bde7b6856734b95343d329baac441a83", "fusion_lon": 0.0}, {"is_reserved": 0, "type": "electric_scooter", "bike_id": "702d3825d6327d7e9e94dd7d9b9df098", "lat": 38.91912266666667, "lon": -77.02948516666666, "rental_uris": {"android": "https://dc.lft.to/lastmile_qr_scan", "ios": "https://dc.lft.to/lastmile_qr_scan"}, "is_disabled": 0, "fusion_lat": 0.0, "name": "702d3825d6327d7e9e94dd7d9b9df098", "fusion_lon": 0.0}, {"is_reserved": 0, "type": "electric_scooter", "bike_id": "9a3a2158077bd47f40370284698a171b", "lat": 38.865272833333336, "lon": -76.9690815, "rental_uris": {"android": "https://dc.lft.to/lastmile_qr_scan", "ios": "https://dc.lft.to/lastmile_qr_scan"}, "is_disabled": 0, "fusion_lat": 0.0, "name": "9a3a2158077bd47f40370284698a171b", "fusion_lon": 0.0}, {"is_reserved": 0, "type": "electric_scooter", "bike_id": "1ed59125bd1433f8ea383448b490f413", "lat": 38.9237705, "lon": -77.019189, "rental_uris": {"android": "https://dc.lft.to/lastmile_qr_scan", "ios": "https://dc.lft.to/lastmile_qr_scan"}, "is_disabled": 0, "fusion_lat": 0.0, "name": "1ed59125bd1433f8ea383448b490f413", "fusion_lon": 0.0}, {"is_reserved": 0, "type": "electric_scooter", "bike_id": "2e8b774f9319319048a53eb404394ec3", "lat": 38.95936733333333, "lon": -77.031245, "rental_uris": {"android": "https://dc.lft.to/lastmile_qr_scan", "ios": "https://dc.lft.to/lastmile_qr_scan"}, "is_disabled": 0, "fusion_lat": 0.0, "name": "2e8b774f9319319048a53eb404394ec3", "fusion_lon": 0.0}, {"is_reserved": 0, "type": "electric_scooter", "bike_id": "a8c412ac662cf803135d64acced7df03", "lat": 38.90420616666667, "lon": -77.04373333333334, "rental_uris": {"android": "https://dc.lft.to/lastmile_qr_scan", "ios": "https://dc.lft.to/lastmile_qr_scan"}, "is_disabled": 0, "fusion_lat": 0.0, "name": "a8c412ac662cf803135d64acced7df03", "fusion_lon": 0.0}, {"is_reserved": 0, "type": "electric_scooter", "bike_id": "442a2b98d8fad158d6af8d0c43be5701", "lat": 38.926056833333334, "lon": -77.02153883333334, "rental_uris": {"android": "https://dc.lft.to/lastmile_qr_scan", "ios": "https://dc.lft.to/lastmile_qr_scan"}, "is_disabled": 0, "fusion_lat": 0.0, "name": "442a2b98d8fad158d6af8d0c43be5701", "fusion_lon": 0.0}, {"is_reserved": 0, "type": "electric_scooter", "bike_id": "3134ea2b7f14dd606e37276e623938c9", "lat": 38.89615366666666, "lon": -77.0441355, "rental_uris": {"android": "https://dc.lft.to/lastmile_qr_scan", "ios": "https://dc.lft.to/lastmile_qr_scan"}, "is_disabled": 0, "fusion_lat": 0.0, "name": "3134ea2b7f14dd606e37276e623938c9", "fusion_lon": 0.0}, {"is_reserved": 0, "type": "electric_scooter", "bike_id": "8bd5222f2105d8343ae5e94b0f7e4445", "lat": 38.91823816666667, "lon": -77.02971083333334, "rental_uris": {"android": "https://dc.lft.to/lastmile_qr_scan", "ios": "https://dc.lft.to/lastmile_qr_scan"}, "is_disabled": 0, "fusion_lat": 0.0, "name": "8bd5222f2105d8343ae5e94b0f7e4445", "fusion_lon": 0.0}, {"is_reserved": 0, "type": "electric_scooter", "bike_id": "258e0a0bba2318430a53670240e59ae2", "lat": 38.913144833333334, "lon": -77.03182616666666, "rental_uris": {"android": "https://dc.lft.to/lastmile_qr_scan", "ios": "https://dc.lft.to/lastmile_qr_scan"}, "is_disabled": 0, "fusion_lat": 0.0, "name": "258e0a0bba2318430a53670240e59ae2", "fusion_lon": 0.0}, {"is_reserved": 0, "type": "electric_scooter", "bike_id": "3b61151be77ce74e76e9921b2f31e604", "lat": 38.9052585, "lon": -77.06621283333334, "rental_uris": {"android": "https://dc.lft.to/lastmile_qr_scan", "ios": "https://dc.lft.to/lastmile_qr_scan"}, "is_disabled": 0, "fusion_lat": 0.0, "name": "3b61151be77ce74e76e9921b2f31e604", "fusion_lon": 0.0}, {"is_reserved": 0, "type": "electric_scooter", "bike_id": "08b338af592e51dea8e825c53581d846", "lat": 38.883792, "lon": -76.99371016666667, "rental_uris": {"android": "https://dc.lft.to/lastmile_qr_scan", "ios": "https://dc.lft.to/lastmile_qr_scan"}, "is_disabled": 0, "fusion_lat": 0.0, "name": "08b338af592e51dea8e825c53581d846", "fusion_lon": 0.0}, {"is_reserved": 0, "type": "electric_scooter", "bike_id": "14fb72cda8a1d8bde39d726887141390", "lat": 38.883751833333335, "lon": -76.92421266666666, "rental_uris": {"android": "https://dc.lft.to/lastmile_qr_scan", "ios": "https://dc.lft.to/lastmile_qr_scan"}, "is_disabled": 0, "fusion_lat": 0.0, "name": "14fb72cda8a1d8bde39d726887141390", "fusion_lon": 0.0}, {"is_reserved": 0, "type": "electric_scooter", "bike_id": "ef5b8c04078e6248cf94de37892bd6eb", "lat": 38.913427166666665, "lon": -77.03211566666667, "rental_uris": {"android": "https://dc.lft.to/lastmile_qr_scan", "ios": "https://dc.lft.to/lastmile_qr_scan"}, "is_disabled": 0, "fusion_lat": 0.0, "name": "ef5b8c04078e6248cf94de37892bd6eb", "fusion_lon": 0.0},