{"data": {"bikes": [{"rental_uris": {"android": "https://dc.lft.to/lastmile_qr_scan", "ios": "https://dc.lft.to/lastmile_qr_scan"}, "fusion_lat": 0.0, "is_reserved": 0, "lat": 38.8729415, "name": "be3777ad193a17ed3123c19b8c2cc836", "bike_id": "be3777ad193a17ed3123c19b8c2cc836", "is_disabled": 0, "fusion_lon": 0.0, "type": "electric_scooter", "lon": -77.0023035}, {"rental_uris": {"android": "https://dc.lft.to/lastmile_qr_scan", "ios": "https://dc.lft.to/lastmile_qr_scan"}, "fusion_lat": 0.0, "is_reserved": 0, "lat": 38.91846, "name": "e35c8fd0cdc9fceb076f270c2cb85004", "bike_id": "e35c8fd0cdc9fceb076f270c2cb85004", "is_disabled": 0, "fusion_lon": 0.0, "type": "electric_scooter", "lon": -77.02184566666666}, {"rental_uris": {"android": "https://dc.lft.to/lastmile_qr_scan", "ios": "https://dc.lft.to/lastmile_qr_scan"}, "fusion_lat": 0.0, "is_reserved": 0, "lat": 38.898365, "name": "a390ca73077eb28352de01ec29ec146b", "bike_id": "a390ca73077eb28352de01ec29ec146b", "is_disabled": 0, "fusion_lon": 0.0, "type": "electric_scooter", "lon": -77.04247083333334}, {"rental_uris": {"android": "https://dc.lft.to/lastmile_qr_scan", "ios": "https://dc.lft.to/lastmile_qr_scan"}, "fusion_lat": 0.0, "is_reserved": 0, "lat": 38.91601383333333, "name": "e8bf452d7bc712f19afb7fa44c2ab640", "bike_id": "e8bf452d7bc712f19afb7fa44c2ab640", "is_disabled": 0, "fusion_lon": 0.0, "type": "electric_scooter", "lon": -77.02288666666666}, {"rental_uris": {"android": "https://dc.lft.to/lastmile_qr_scan", "ios": "https://dc.lft.to/lastmile_qr_scan"}, "fusion_lat": 0.0, "is_reserved": 0, "lat": 38.8922115, "name": "5de34878762c9b678442117004c05d01", "bike_id": "5de34878762c9b678442117004c05d01", "is_disabled": 0, "fusion_lon": 0.0, "type": "electric_scooter", "lon": -77.039908}, {"rental_uris": {"android": "https://dc.lft.to/lastmile_qr_scan", "ios": "https://dc.lft.to/lastmile_qr_scan"}, "fusion_lat": 0.0, "is_reserved": 0, "lat": 38.88985916666667, "name": "4f23370a866bc9910b312b59bdb22640", "bike_id": "4f23370a866bc9910b312b59bdb22640", "is_disabled": 0, "fusion_lon": 0.0, "type": "electric_scooter", "lon": -77.00333316666666}, {"rental_uris": {"android": "https://dc.lft.to/lastmile_qr_scan", "ios": "https://dc.lft.to/lastmile_qr_scan"}, "fusion_lat": 0.0, "is_reserved": 0, "lat": 38.892278, "name": "f0b81efffe0ef9f20783a0f9e9e8b95f", "bike_id": "f0b81efffe0ef9f20783a0f9e9e8b95f", "is_disabled": 0, "fusion_lon": 0.0, "type": "electric_scooter", "lon": -77.02507783333333}, {"rental_uris": {"android": "https://dc.lft.to/lastmile_qr_scan", "ios": "https://dc.lft.to/lastmile_qr_scan"}, "fusion_lat": 0.0, "is_reserved": 0, "lat": 38.92237816666667, "name": "aea56093a6329877935908921fadd77c", "bike_id": "aea56093a6329877935908921fadd77c", "is_disabled": 0, "fusion_lon": 0.0, "type": "electric_scooter", "lon": -77.034691}, {"rental_uris": {"android": "https://dc.lft.to/lastmile_qr_scan", "ios": "https://dc.lft.to/lastmile_qr_scan"}, "fusion_lat": 0.0, "is_reserved": 0, "lat": 38.896237666666664, "name": "b6c037b9917446d8e213e672ba85e7ef", "bike_id": "b6c037b9917446d8e213e672ba85e7ef", "is_disabled": 0, "fusion_lon": 0.0, "type": "electric_scooter", "lon": -77.01631116666667}, {"rental_uris": {"android": "https://dc.lft.to/lastmile_qr_scan", "ios": "https://dc.lft.to/lastmile_qr_scan"}, "fusion_lat": 0.0, "is_reserved": 0, "lat": 38.920305666666664, "name": "7cd5c976ae015ec045ee1b36cd7aa949", "bike_id": "7cd5c976ae015ec045ee1b36cd7aa949", "is_disabled": 0, "fusion_lon": 0.0, "type": "electric_scooter", "lon": -76.9956555}, {"rental_uris": {"android": "https://dc.lft.to/lastmile_qr_scan", "ios": "https://dc.lft.to/lastmile_qr_scan"}, "fusion_lat": 0.0, "is_reserved": 0, "lat": 39.042345833333336, "name": "6cc135981ba3532fb558eb22e90ee65d", "bike_id": "6cc135981ba3532fb558eb22e90ee65d", "is_disabled": 0, "fusion_lon": 0.0, "type": "electric_bike", "lon": -76.99735833333334}, {"rental_uris": {"android": "https://dc.lft.to/lastmile_qr_scan", "ios": "https://dc.lft.to/lastmile_qr_scan"}, "fusion_lat": 0.0, "is_reserved": 0, "lat": 38.91212266666667, "name": "8980ee90fd39d970796a40958e249eb2", "bike_id": "8980ee90fd39d970796a40958e249eb2", "is_disabled": 0, "fusion_lon": 0.0, "type": "electric_scooter", "lon": -77.03853566666666}, {"rental_uris": {"android": "https://dc.lft.to/lastmile_qr_scan", "ios": "https://dc.lft.to/lastmile_qr_scan"}, "fusion_lat": 0.0, "is_reserved": 0, "lat": 38.9733855, "name": "69cffb78dd8499fdc19cc86e619ee5cf", "bike_id": "69cffb78dd8499fdc19cc86e619ee5cf", "is_disabled": 0, "fusion_lon": 0.0, "type": "electric_bike", "lon": -76.99584583333333}, {"rental_uris": {"android": "https://dc.lft.to/lastmile_qr_scan", "ios": "https://dc.lft.to/lastmile_qr_scan"}, "fusion_lat": 0.0, "is_reserved": 0, "lat": 38.913782499999996, "name": "2003a12e4bb62851583eae3e197eaafb", "bike_id": "2003a12e4bb62851583eae3e197eaafb", "is_disabled": 0, "fusion_lon": 0.0, "type": "electric_scooter", "lon": -77.06424933333334}, {"rental_uris": {"android": "https://dc.lft.to/lastmile_qr_scan", "ios": "https://dc.lft.to/lastmile_qr_scan"}, "fusion_lat": 0.0, "is_reserved": 0, "lat": 38.901377, "name": "616f175a281000b6a3bc12a0541f56d4", "bike_id": "616f175a281000b6a3bc12a0541f56d4", "is_disabled": 0, "fusion_lon": 0.0, "type": "electric_scooter", "lon": -77.04672816666667}, {"rental_uris": {"android": "https://dc.lft.to/lastmile_qr_scan", "ios": "https://dc.lft.to/lastmile_qr_scan"}, "fusion_lat": 0.0, "is_reserved": 0, "lat": 38.91869033333333, "name": "7ad52c32fe9493dcc8538a351a3b08c9", "bike_id": "7ad52c32fe9493dcc8538a351a3b08c9", "is_disabled": 0, "fusion_lon": 0.0, "type": "electric_scooter", "lon": -77.036724}, {"rental_uris": {"android": "https://dc.lft.to/lastmile_qr_scan", "ios": "https://dc.lft.to/lastmile_qr_scan"}, "fusion_lat": 0.0, "is_reserved": 0, "lat": 38.95214433333334, "name": "1118553daf767776835d025463f8e9b9", "bike_id": "1118553daf767776835d025463f8e9b9", "is_disabled": 0, "fusion_lon": 0.0, "type": "electric_scooter", "lon": -77.0160135}, {"rental_uris": {"android": "https://dc.lft.to/lastmile_qr_scan", "ios": "https://dc.lft.to/lastmile_qr_scan"}, "fusion_lat": 0.0, "is_reserved": 0, "lat": 38.920561666666664, "name": "11ace065700461b5f065965ae849c836", "bike_id": "11ace065700461b5f065965ae849c836", "is_disabled": 0, "fusion_lon": 0.0, "type": "electric_scooter", "lon": -76.98432683333333}, {"rental_uris": {"android": "https://dc.lft.to/lastmile_qr_scan", "ios": "https://dc.lft.to/lastmile_qr_scan"}, "fusion_lat": 0.0, "is_reserved": 0, "lat": 38.898295166666664, "name": "4f501fe39250fc6d56e79d8ec1cb9ef4", "bike_id": "4f501fe39250fc6d56e79d8ec1cb9ef4", "is_disabled": 0, "fusion_lon": 0.0, "type": "electric_scooter", "lon": -77.024926}, {"rental_uris": {"android": "https://dc.lft.to/lastmile_qr_scan", "ios": "https://dc.lft.to/lastmile_qr_scan"}, "fusion_lat": 0.0, "is_reserved": 0, "lat": 38.97368, "name": "8c89ee1fc8ba3bed607532a5627d5b18", "bike_id": "8c89ee1fc8ba3bed607532a5627d5b18", "is_disabled": 0, "fusion_lon": 0.0, "type": "electric_scooter", "lon": -77.01864483333334}, {"rental_uris": {"android": "https://dc.lft.to/lastmile_qr_scan", "ios": "https://dc.lft.to/lastmile_qr_scan"}, "fusion_lat": 0.0, "is_reserved": 0, "lat": 38.924463333333335, "name": "7726e04f9a1cf328a03922d8d4df0cf4", "bike_id": "7726e04f9a1cf328a03922d8d4df0cf4", "is_disabled": 0, "fusion_lon": 0.0, "type": "electric_scooter", "lon": -77.05218983333333}, {"rental_uris": {"android": "https://dc.lft.to/lastmile_qr_scan", "ios": "https://dc.lft.to/lastmile_qr_scan"}, "fusion_lat": 0.0, "is_reserved": 0, "lat": 38.929685666666664, "name": "ada928503c878a508d300aba62f58d83", "bike_id": "ada928503c878a508d300aba62f58d83", "is_disabled": 0, "fusion_lon": 0.0, "type": "electric_scooter", "lon": -77.0378415}, {"rental_uris": {"android": "https://dc.lft.to/lastmile_qr_scan", "ios": "https://dc.lft.to/lastmile_qr_scan"}, "fusion_lat": 0.0, "is_reserved": 0, "lat": 38.911916, "name": "b32e018d5219af10ca054def67a88b74", "bike_id": "b32e018d5219af10ca054def67a88b74", "is_disabled": 0, "fusion_lon": 0.0, "type": "electric_scooter", "lon": -77.00728633333334}, {"rental_uris": {"android": "https://dc.lft.to/lastmile_qr_scan", "ios": "https://dc.lft.to/lastmile_qr_scan"}, "fusion_lat": 0.0, "is_reserved": 0, "lat": 38.90689916666667, "name": "ea3ca8158268e7e8af264b2629bfc1c5", "bike_id": "ea3ca8158268e7e8af264b2629bfc1c5", "is_disabled": 0, "fusion_lon": 0.0, "type": "electric_scooter", "lon": -77.016236}, {"rental_uris": {"android": "https://dc.lft.to/lastmile_qr_scan", "ios": "https://dc.lft.to/lastmile_qr_scan"}, "fusion_lat": 0.0, "is_reserved": 0, "lat": 38.90140683333333, "name": "4309cf8cdea863c839560516545bf11e", "bike_id": "4309cf8cdea863c839560516545bf11e", "is_disabled": 0, "fusion_lon": 0.0, "type": "electric_scooter", "lon": -77.037801}, {"rental_uris": {"android": "https://dc.lft.to/lastmile_qr_scan", "ios": "https://dc.lft.to/lastmile_qr_scan"}, "fusion_lat": 0.0, "is_reserved": 0, "lat": 38.92479433333333, "name": "3193b2a7855aa56b2c9a611a8a4fc768", "bike_id": "3193b2a7855aa56b2c9a611a8a4fc768", "is_disabled": 0, "fusion_lon": 0.0, "type": "electric_scooter", "lon": -77.05213783333333}, {"rental_uris": {"android": "https://dc.lft.to/lastmile_qr_scan", "ios": "https://dc.lft.to/lastmile_qr_scan"}, "fusion_lat": 0.0, "is_reserved": 0, "lat": 38.8993145, "name": "8c0b8e566f1a1944eccacc1225e2798b", "bike_id": "8c0b8e566f1a1944eccacc1225e2798b", "is_disabled": 0, "fusion_lon": 0.0, "type": "electric_scooter", "lon": -77.027285}, {"rental_uris": {"android": "https://dc.lft.to/lastmile_qr_scan", "ios": "https://dc.lft.to/lastmile_qr_scan"}, "fusion_lat": 0.0, "is_reserved": 0, "lat": 38.9073575, "name": "1362fff895684d83bb313a3ee137d182", "bike_id": "1362fff895684d83bb313a3ee137d182", "is_disabled": 0, "fusion_lon": 0.0, "type": "electric_scooter", "lon": -77.00802466666667}, {"rental_uris": {"android": "https://dc.lft.to/lastmile_qr_scan", "ios": "https://dc.lft.to/lastmile_qr_scan"}, "fusion_lat": 0.0, "is_reserved": 0, "lat": 38.923153666666664, "name": "4bfea58556b4eaaec0223a343e0b1cd2", "bike_id": "4bfea58556b4eaaec0223a343e0b1cd2", "is_disabled": 0, "fusion_lon": 0.0, "type": "electric_scooter", "lon": -77.04573666666667}, {"rental_uris": {"android": "https://dc.lft.to/lastmile_qr_scan", "ios": "https://dc.lft.to/lastmile_qr_scan"}, "fusion_lat": 0.0, "is_reserved": 0, "lat": 38.90390283333333, "name": "ccae6f5efa55bbdf0e51c441149488fc", "bike_id": "ccae6f5efa55bbdf0e51c441149488fc", "is_disabled": 0, "fusion_lon": 0.0, "type": "electric_scooter", "lon": -76.981269}, {"rental_uris": {"android": "https://dc.lft.to/lastmile_qr_scan", "ios": "https://dc.lft.to/lastmile_qr_scan"}, "fusion_lat": 0.0, "is_reserved": 0, "lat": 38.908273666666666, "name": "84b29f83400b300aa577f5e762811df9", "bike_id": "84b29f83400b300aa577f5e762811df9", "is_disabled": 0, "fusion_lon": 0.0, "type": "electric_bike", "lon": -76.94160633333334}, {"rental_uris": {"android": "https://dc.lft.to/lastmile_qr_scan", "ios": "https://dc.lft.to/lastmile_qr_scan"}, "fusion_lat": 0.0, "is_reserved": 0, "lat": 38.917163333333335, "name": "1825ae0540f0ceef56d1bdfa7848bada", "bike_id": "1825ae0540f0ceef56d1bdfa7848bada", "is_disabled": 0, "fusion_lon": 0.0, "type": "electric_scooter", "lon": -77.03192033333333}, {"rental_uris": {"android": "https://dc.lft.to/lastmile_qr_scan", "ios": "https://dc.lft.to/lastmile_qr_scan"}, "fusion_lat": 0.0, "is_reserved": 0, "lat": 38.895594833333334, "name": "c72724edd3ad77781b486c1336851db2", "bike_id": "c72724edd3ad77781b486c1336851db2", "is_disabled": 0, "fusion_lon": 0.0, "type": "electric_scooter", "lon": -77.0111245}, {"rental_uris": {"android": "https://dc.lft.to/lastmile_qr_scan", "ios": "https://dc.lft.to/lastmile_qr_scan"}, "fusion_lat": 0.0, "is_reserved": 0, "lat": 38.877236833333335, "name": "ff7dbc422e80ff670e5605622c06cdb7", "bike_id": "ff7dbc422e80ff670e5605622c06cdb7", "is_disabled": 0, "fusion_lon": 0.0, "type": "electric_scooter", "lon": -77.01759533333333}, {"rental_uris": {"android": "https://dc.lft.to/lastmile_qr_scan", "ios": "https://dc.lft.to/lastmile_qr_scan"}, "fusion_lat": 0.0, "is_reserved": 0, "lat": 38.91419366666667, "name": "7adfb064aa3628f83a40bec873c39ed7", "bike_id": "7adfb064aa3628f83a40bec873c39ed7", "is_disabled": 0, "fusion_lon": 0.0, "type": "electric_scooter", "lon": -77.03172183333334}, {"rental_uris": {"android": "https://dc.lft.to/lastmile_qr_scan", "ios": "https://dc.lft.to/lastmile_qr_scan"}, "fusion_lat": 0.0, "is_reserved": 0, "lat": 38.838658, "name": "72b6798439de21694500e8b5d2cb2541", "bike_id": "72b6798439de21694500e8b5d2cb2541", "is_disabled": 0, "fusion_lon": 0.0, "type": "electric_bike", "lon": -76.99700733333333}, {"rental_uris": {"android": "https://dc.lft.to/lastmile_qr_scan", "ios": "https://dc.lft.to/lastmile_qr_scan"}, "fusion_lat": 0.0, "is_reserved": 0, "lat": 38.89781833333333, "name": "a0939b55e4e0bb9a87090e5209dd1cfa", "bike_id": "a0939b55e4e0bb9a87090e5209dd1cfa", "is_disabled": 0, "fusion_lon": 0.0, "type": "electric_bike", "lon": -77.01361916666667}, {"rental_uris": {"android": "https://dc.lft.to/lastmile_qr_scan", "ios": "https://dc.lft.to/lastmile_qr_scan"}, "fusion_lat": 0.0, "is_reserved": 0, "lat": 38.905897, "name": "99ecc4b35441a4e68cd530598c6447a0", "bike_id": "99ecc4b35441a4e68cd530598c6447a0", "is_disabled": 0, "fusion_lon": 0.0, "type": "electric_scooter", "lon": -77.01617616666667}, {"rental_uris": {"android": "https://dc.lft.to/lastmile_qr_scan", "ios": "https://dc.lft.to/lastmile_qr_scan"}, "fusion_lat": 0.0, "is_reserved": 0, "lat": 38.916610166666665, "name": "4196d107f53701d99780826d4ac96e3f", "bike_id": "4196d107f53701d99780826d4ac96e3f", "is_disabled": 0, "fusion_lon": 0.0, "type": "electric_scooter", "lon": -77.03859283333334}, {"rental_uris": {"android": "https://dc.lft.to/lastmile_qr_scan", "ios": "https://dc.lft.to/lastmile_qr_scan"}, "fusion_lat": 0.0, "is_reserved": 0, "lat": 38.944750666666664, "name": "baeeb1721ec691f0821a7385f8e849aa", "bike_id": "baeeb1721ec691f0821a7385f8e849aa", "is_disabled": 0, "fusion_lon": 0.0, "type": "electric_bike", "lon": -76.986912}, {"rental_uris": {"android": "https://dc.lft.to/lastmile_qr_scan", "ios": "https://dc.lft.to/lastmile_qr_scan"}, "fusion_lat": 0.0, "is_reserved": 0, "lat": 38.924986833333335, "name": "a990a77805cc5070cc2319def462d0bb", "bike_id": "a990a77805cc5070cc2319def462d0bb", "is_disabled": 0, "fusion_lon": 0.0, "type": "electric_scooter", "lon": -77.02399133333333}, {"rental_uris": {"android": "https://dc.lft.to/lastmile_qr_scan", "ios": "https://dc.lft.to/lastmile_qr_scan"}, "fusion_lat": 0.0, "is_reserved": 0, "lat": 38.89475133333333, "name": "6af644b4d581162c07356fbb41d6c768", "bike_id": "6af644b4d581162c07356fbb41d6c768", "is_disabled": 0, "fusion_lon": 0.0, "type": "electric_scooter", "lon": -76.99484466666667}, {"rental_uris": {"android": "https://dc.lft.to/lastmile_qr_scan", "ios": "https://dc.lft.to/lastmile_qr_scan"}, "fusion_lat": 0.0, "is_reserved": 0, "lat": 38.94651483333333, "name": "08a1f7c92c5381bc6e3f37ac7be3effb", "bike_id": "08a1f7c92c5381bc6e3f37ac7be3effb", "is_disabled": 0, "fusion_lon": 0.0, "type": "electric_scooter", "lon": -77.06478266666667}, {"rental_uris": {"android": "https://dc.lft.to/lastmile_qr_scan", "ios": "https://dc.lft.to/lastmile_qr_scan"}, "fusion_lat": 0.0, "is_reserved": 0, "lat": 38.9941245, "name": "589c143dddcf4632c5f34bafe5356df6", "bike_id": "589c143dddcf4632c5f34bafe5356df6", "is_disabled": 0, "fusion_lon": 0.0, "type": "electric_bike", "lon": -77.01803966666667}, {"rental_uris": {"android": "https://dc.lft.to/lastmile_qr_scan", "ios": "https://dc.lft.to/lastmile_qr_scan"}, "fusion_lat": 0.0, "is_reserved": 0, "lat": 38.940416666666664, "name": "1bdb5681b46669758e8d9f8a96d367e2", "bike_id": "1bdb5681b46669758e8d9f8a96d367e2", "is_disabled": 0, "fusion_lon": 0.0, "type": "electric_scooter", "lon": -77.0289835}, {"rental_uris": {"android": "https://dc.lft.to/lastmile_qr_scan", "ios": "https://dc.lft.to/lastmile_qr_scan"}, "fusion_lat": 0.0, "is_reserved": 0, "lat": 38.899858333333334, "name": "92bb927b441f4e53ce40e6438f0f0bc7", "bike_id": "92bb927b441f4e53ce40e6438f0f0bc7", "is_disabled": 0, "fusion_lon": 0.0, "type": "electric_scooter", "lon": -77.02238233333334}, {"rental_uris": {"android": "https://dc.lft.to/lastmile_qr_scan", "ios": "https://dc.lft.to/lastmile_qr_scan"}, "fusion_lat": 0.0, "is_reserved": 0, "lat": 38.89704783333333, "name": "636f60e9384afcc2240465a443023349", "bike_id": "636f60e9384afcc2240465a443023349", "is_disabled": 0, "fusion_lon": 0.0, "type": "electric_scooter", "lon": -77.01323133333334}, {"rental_uris": {"android": "https://dc.lft.to/lastmile_qr_scan", "ios": "https://dc.lft.to/lastmile_qr_scan"}, "fusion_lat": 0.0, "is_reserved": 0, "lat": 38.907357166666664, "name": "f9b110b40a1f2a2df2f2b3c66dde3f53", "bike_id": "f9b110b40a1f2a2df2f2b3c66dde3f53", "is_disabled": 0, "fusion_lon": 0.0, "type": "electric_scooter", "lon": -77.0467015}, {"rental_uris": {"android": "https://dc.lft.to/lastmile_qr_scan", "ios": "https://dc.lft.to/lastmile_qr_scan"}, "fusion_lat": 0.0, "is_reserved": 0, "lat": 38.88705366666667, "name": "ec8384490feb4df6b88fa4ee7039932a", "bike_id": "ec8384490feb4df6b88fa4ee7039932a", "is_disabled": 0, "fusion_lon": 0.0, "type": "electric_scooter", "lon": -77.00249883333333}, {"rental_uris": {"android": "https://dc.lft.to/lastmile_qr_scan", "ios": "https://dc.lft.to/lastmile_qr_scan"}, "fusion_lat": 0.0, "is_reserved": 0, "lat": 38.919008166666664, "name": "ad1304db8878973cd3b9720a573bd7b7", "bike_id": "ad1304db8878973cd3b9720a573bd7b7", "is_disabled": 0, "fusion_lon": 0.0, "type": "electric_scooter", "lon": -77.01952016666667}, {"rental_uris": {"android": "https://dc.lft.to/lastmile_qr_scan", "ios": "https://dc.lft.to/lastmile_qr_scan"}, "fusion_lat": 0.0, "is_reserved": 0, "lat": 38.905667333333334, "name": "a021603f9dc83378916274efe266f616", "bike_id": "a021603f9dc83378916274efe266f616", "is_disabled": 0, "fusion_lon": 0.0, "type": "electric_scooter", "lon": -77.02421033333333}, {"rental_uris": {"android": "https://dc.lft.to/lastmile_qr_scan", "ios": "https://dc.lft.to/lastmile_qr_scan"}, "fusion_lat": 0.0, "is_reserved": 0, "lat": 38.91755, "name": "90092adbb0ccb35166de699fb9c22d78", "bike_id": "90092adbb0ccb35166de699fb9c22d78", "is_disabled": 0, "fusion_lon": 0.0, "type": "electric_scooter", "lon": -77.02312583333334}, {"rental_uris": {"android": "https://dc.lft.to/lastmile_qr_scan", "ios": "https://dc.lft.to/lastmile_qr_scan"}, "fusion_lat": 0.0, "is_reserved": 0, "lat": 38.916362666666664, "name": "bb780d87ac4791de6193e36a8bc0b8f9", "bike_id": "bb780d87ac4791de6193e36a8bc0b8f9", "is_disabled": 0, "fusion_lon": 0.0, "type": "electric_scooter", "lon": -77.0297485}, {"rental_uris": {"android": "https://dc.lft.to/lastmile_qr_scan", "ios": "https://dc.lft.to/lastmile_qr_scan"}, "fusion_lat": 0.0, "is_reserved": 0, "lat": 38.898877, "name": "0e41f8712bfad84bdd86eb1e7d46109e", "bike_id": "0e41f8712bfad84bdd86eb1e7d46109e", "is_disabled": 0, "fusion_lon": 0.0, "type": "electric_scooter", "lon": -77.03335733333333}, {"rental_uris": {"android": "https://dc.lft.to/lastmile_qr_scan", "ios": "https://dc.lft.to/lastmile_qr_scan"}, "fusion_lat": 0.0, "is_reserved": 0, "lat": 38.965157, "name": "06b428481fecd51ff45df81e44e3329a", "bike_id": "06b428481fecd51ff45df81e44e3329a", "is_disabled": 0, "fusion_lon": 0.0, "type": "electric_scooter", "lon": -77.00200416666667}, {"rental_uris": {"android": "https://dc.lft.to/lastmile_qr_scan", "ios": "https://dc.lft.to/lastmile_qr_scan"}, "fusion_lat": 0.0, "is_reserved": 0, "lat": 38.9216265, "name": "96815458cf152034cff5e56f035212aa", "bike_id": "96815458cf152034cff5e56f035212aa", "is_disabled": 0, "fusion_lon": 0.0, "type": "electric_scooter", "lon": -77.033779}, {"rental_uris": {"android": "https://dc.lft.to/lastmile_qr_scan", "ios": "https://dc.lft.to/lastmile_qr_scan"}, "fusion_lat": 0.0, "is_reserved": 0, "lat": 38.89436883333333, "name": "4cc876f0fc97176c091dd1619f5df754", "bike_id": "4cc876f0fc97176c091dd1619f5df754", "is_disabled": 0, "fusion_lon": 0.0, "type": "electric_scooter", "lon": -77.02644766666667}, {"rental_uris": {"android": "https://dc.lft.to/lastmile_qr_scan", "ios": "https://dc.lft.to/lastmile_qr_scan"}, "fusion_lat": 0.0, "is_reserved": 0, "lat": 38.9263105, "name": "6339baad1182f4bdd3d7247889a632e7", "bike_id": "6339baad1182f4bdd3d7247889a632e7", "is_disabled": 0, "fusion_lon": 0.0, "type": "electric_scooter", "lon": -77.04255416666666}, {"rental_uris": {"android": "https://dc.lft.to/lastmile_qr_scan", "ios": "https://dc.lft.to/lastmile_qr_scan"}, "fusion_lat": 0.0, "is_reserved": 0, "lat": 38.90563133333333, "name": "e9ee96587c106ed2c0ed165c71508d7f", "bike_id": "e9ee96587c106ed2c0ed165c71508d7f", "is_disabled": 0, "fusion_lon": 0.0, "type": "electric_scooter", "lon": -77.0059525}, {"rental_uris": {"android": "https://dc.lft.to/lastmile_qr_scan", "ios": "https://dc.lft.to/lastmile_qr_scan"}, "fusion_lat": 0.0, "is_reserved": 0, "lat": 38.894776, "name": "651815e23e934740195140672b3b704c", "bike_id": "651815e23e934740195140672b3b704c", "is_disabled": 0, "fusion_lon": 0.0, "type": "electric_scooter", "lon": -77.027798}, {"rental_uris": {"android": "https://dc.lft.to/lastmile_qr_scan", "ios": "https://dc.lft.to/lastmile_qr_scan"}, "fusion_lat": 0.0, "is_reserved": 0, "lat": 38.924865833333335, "name": "2a8771ab4d4c7d04f4741d645370419f", "bike_id": "2a8771ab4d4c7d04f4741d645370419f", "is_disabled": 0, "fusion_lon": 0.0, "type": "electric_scooter", "lon": -77.02141716666667}, {"rental_uris": {"android": "https://dc.lft.to/lastmile_qr_scan", "ios": "https://dc.lft.to/lastmile_qr_scan"}, "fusion_lat": 0.0, "is_reserved": 0, "lat": 38.83297233333333, "name": "8739db7489cb4a9d9500f5454ce01952", "bike_id": "8739db7489cb4a9d9500f5454ce01952", "is_disabled": 0, "fusion_lon": 0.0, "type": "electric_bike", "lon": -77.084177}, {"rental_uris": {"android": "https://dc.lft.to/lastmile_qr_scan", "ios": "https://dc.lft.to/lastmile_qr_scan"}, "fusion_lat": 0.0, "is_reserved": 0, "lat": 38.916773166666665, "name": "589cfa543bc8607fb83b9e4132e2d6ee", "bike_id": "589cfa543bc8607fb83b9e4132e2d6ee", "is_disabled": 0, "fusion_lon": 0.0, "type": "electric_scooter", "lon": -77.03689433333334}, {"rental_uris": {"android": "https://dc.lft.to/lastmile_qr_scan", "ios": "https://dc.lft.to/lastmile_qr_scan"}, "fusion_lat": 0.0, "is_reserved": 0, "lat": 38.862236833333334, "name": "8d0111a3c1ba3bbec58ddae785c9a043", "bike_id": "8d0111a3c1ba3bbec58ddae785c9a043", "is_disabled": 0, "fusion_lon": 0.0, "type": "electric_scooter", "lon": -76.99457483333333}, {"rental_uris": {"android": "https://dc.lft.to/lastmile_qr_scan", "ios": "https://dc.lft.to/lastmile_qr_scan"}, "fusion_lat": 0.0, "is_reserved": 0, "lat": 38.901372, "name": "b2dd47a4dceefe6d5b4286343605c0d6", "bike_id": "b2dd47a4dceefe6d5b4286343605c0d6", "is_disabled": 0, "fusion_lon": 0.0, "type": "electric_bike", "lon": -77.0123565}, {"rental_uris": {"android": "https://dc.lft.to/lastmile_qr_scan", "ios": "https://dc.lft.to/lastmile_qr_scan"}, "fusion_lat": 0.0, "is_reserved": 0, "lat": 38.897851833333334, "name": "42ee2491a58efe513c2a01e7bf2ee27b", "bike_id": "42ee2491a58efe513c2a01e7bf2ee27b", "is_disabled": 0, "fusion_lon": 0.0, "type": "electric_scooter", "lon": -77.05012633333334}, {"rental_uris": {"android": "https://dc.lft.to/lastmile_qr_scan", "ios": "https://dc.lft.to/lastmile_qr_scan"}, "fusion_lat": 0.0, "is_reserved": 0, "lat": 38.9024125, "name": "a0f389946a645bf4744a6a5a798c4f02", "bike_id": "a0f389946a645bf4744a6a5a798c4f02", "is_disabled": 0, "fusion_lon": 0.0, "type": "electric_scooter", "lon": -77.00199216666667}, {"rental_uris": {"android": "https://dc.lft.to/lastmile_qr_scan", "ios": "https://dc.lft.to/lastmile_qr_scan"}, "fusion_lat": 0.0, "is_reserved": 0, "lat": 38.8879585, "name": "8d3f7a8562ff9bf49b2d74eda2aa77f0", "bike_id": "8d3f7a8562ff9bf49b2d74eda2aa77f0", "is_disabled": 0, "fusion_lon": 0.0, "type": "electric_scooter", "lon": -76.97714016666667}, {"rental_uris": {"android": "https://dc.lft.to/lastmile_qr_scan", "ios": "https://dc.lft.to/lastmile_qr_scan"}, "fusion_lat": 0.0, "is_reserved": 0, "lat": 38.932508166666665, "name": "38ad42477906b3aea78466700da1bc17", "bike_id": "38ad42477906b3aea78466700da1bc17", "is_disabled": 0, "fusion_lon": 0.0, "type": "electric_scooter", "lon": -77.0328315}, {"rental_uris": {"android": "https://dc.lft.to/lastmile_qr_scan", "ios": "https://dc.lft.to/lastmile_qr_scan"}, "fusion_lat": 0.0, "is_reserved": 0, "lat": 38.90672683333333, "name": "0d5f99c6c6cccceb147ef0c65c6a7965", "bike_id": "0d5f99c6c6cccceb147ef0c65c6a7965", "is_disabled": 0, "fusion_lon": 0.0, "type": "electric_scooter", "lon": -77.03800816666667}, {"rental_uris": {"android": "https://dc.lft.to/lastmile_qr_scan", "ios": "https://dc.lft.to/lastmile_qr_scan"}, "fusion_lat": 0.0, "is_reserved": 0, "lat": 38.90138783333333, "name": "286bf4c3995605969f5272362fd7a9bf", "bike_id": "286bf4c3995605969f5272362fd7a9bf", "is_disabled": 0, "fusion_lon": 0.0, "type": "electric_scooter", "lon": -77.04331466666666}, {"rental_uris": {"android": "https://dc.lft.to/lastmile_qr_scan", "ios": "https://dc.lft.to/lastmile_qr_scan"}, "fusion_lat": 0.0, "is_reserved": 0, "lat": 38.92529016666667, "name": "8373565a01a78d2929796a6183c8fe45", "bike_id": "8373565a01a78d2929796a6183c8fe45", "is_disabled": 0, "fusion_lon": 0.0, "type": "electric_scooter", "lon": -77.041231}, {"rental_uris": {"android": "https://dc.lft.to/lastmile_qr_scan", "ios": "https://dc.lft.to/lastmile_qr_scan"}, "fusion_lat": 0.0, "is_reserved": 0, "lat": 38.90871383333333, "name": "b2aa2fd986e36a0d90432f7ca27d6b01", "bike_id": "b2aa2fd986e36a0d90432f7ca27d6b01", "is_disabled": 0, "fusion_lon": 0.0, "type": "electric_scooter", "lon": -77.07159283333333}, {"rental_uris": {"android": "https://dc.lft.to/lastmile_qr_scan", "ios": "https://dc.lft.to/lastmile_qr_scan"}, "fusion_lat": 0.0, "is_reserved": 0, "lat": 38.884389, "name": "08b9eb2a271d7b723874551b6b3255ca", "bike_id": "08b9eb2a271d7b723874551b6b3255ca", "is_disabled": 0, "fusion_lon": 0.0, "type": "electric_scooter", "lon": -76.95771533333334}, {"rental_uris": {"android": "https://dc.lft.to/lastmile_qr_scan", "ios": "https://dc.lft.to/lastmile_qr_scan"}, "fusion_lat": 0.0, "is_reserved": 0, "lat": 38.883739, "name": "73f4a6d5e7efb506b8eaf3a7320e63f7", "bike_id": "73f4a6d5e7efb506b8eaf3a7320e63f7", "is_disabled": 0, "fusion_lon": 0.0, "type": "electric_scooter", "lon": -77.00874716666667}, {"rental_uris": {"android": "https://dc.lft.to/lastmile_qr_scan", "ios": "https://dc.lft.to/lastmile_qr_scan"}, "fusion_lat": 0.0, "is_reserved": 0, "lat": 38.901290333333336, "name": "5faeaf3cb27bad06d34762c25b8b97dc", "bike_id": "5faeaf3cb27bad06d34762c25b8b97dc", "is_disabled": 0, "fusion_lon": 0.0, "type": "electric_scooter", "lon": -77.05003733333334}, {"rental_uris": {"android": "https://dc.lft.to/lastmile_qr_scan", "ios": "https://dc.lft.to/lastmile_qr_scan"}, "fusion_lat": 0.0, "is_reserved": 0, "lat": 38.90715616666667, "name": "9a6659910e8bcda28e447fa06427c8e4", "bike_id": "9a6659910e8bcda28e447fa06427c8e4", "is_disabled": 0, "fusion_lon": 0.0, "type": "electric_scooter", "lon": -77.02687983333334}, {"rental_uris": {"android": "https://dc.lft.to/lastmile_qr_scan", "ios": "https://dc.lft.to/lastmile_qr_scan"}, "fusion_lat": 0.0, "is_reserved": 0, "lat": 38.8971215, "name": "4c3699c7b1155b30e9e74b45d62830bb", "bike_id": "4c3699c7b1155b30e9e74b45d62830bb", "is_disabled": 0, "fusion_lon": 0.0, "type": "electric_scooter", "lon": -77.02191133333334}, {"rental_uris": {"android": "https://dc.lft.to/lastmile_qr_scan", "ios": "https://dc.lft.to/lastmile_qr_scan"}, "fusion_lat": 0.0, "is_reserved": 0, "lat": 38.917609666666664, "name": "be0ca84c400adcbabf227ad9802db859", "bike_id": "be0ca84c400adcbabf227ad9802db859", "is_disabled": 0, "fusion_lon": 0.0, "type": "electric_scooter", "lon": -77.019154}, {"rental_uris": {"android": "https://dc.lft.to/lastmile_qr_scan", "ios": "https://dc.lft.to/lastmile_qr_scan"}, "fusion_lat": 0.0, "is_reserved": 0, "lat": 38.92684916666666, "name": "7a12d1c3b1ef16c79e94ec74aeae7a2a", "bike_id": "7a12d1c3b1ef16c79e94ec74aeae7a2a", "is_disabled": 0, "fusion_lon": 0.0, "type": "electric_scooter", "lon": -77.01502733333334}, {"rental_uris": {"android": "https://dc.lft.to/lastmile_qr_scan", "ios": "https://dc.lft.to/lastmile_qr_scan"}, "fusion_lat": 0.0, "is_reserved": 0, "lat": 38.903156, "name": "29803a2f66003366bfceb6f07d561cc8", "bike_id": "29803a2f66003366bfceb6f07d561cc8", "is_disabled": 0, "fusion_lon": 0.0, "type": "electric_scooter", "lon": -77.03188483333334}, {"rental_uris": {"android": "https://dc.lft.to/lastmile_qr_scan", "ios": "https://dc.lft.to/lastmile_qr_scan"}, "fusion_lat": 0.0, "is_reserved": 0, "lat": 38.93029833333333, "name": "aa3e19984bd4923d1451d7f996344616", "bike_id": "aa3e19984bd4923d1451d7f996344616", "is_disabled": 0, "fusion_lon": 0.0, "type": "electric_bike", "lon": -77.0556775}, {"rental_uris": {"android": "https://dc.lft.to/lastmile_qr_scan", "ios": "https://dc.lft.to/lastmile_qr_scan"}, "fusion_lat": 0.0, "is_reserved": 0, "lat": 38.936131, "name": "289cccc7014d6d592be356163d0f4488", "bike_id": "289cccc7014d6d592be356163d0f4488", "is_disabled": 0, "fusion_lon": 0.0, "type": "electric_scooter", "lon": -77.0586875}, {"rental_uris": {"android": "https://dc.lft.to/lastmile_qr_scan", "ios": "https://dc.lft.to/lastmile_qr_scan"}, "fusion_lat": 0.0, "is_reserved": 0, "lat": 38.88293783333334, "name": "e79bcbaa878f5b5f5ee84396890d433d", "bike_id": "e79bcbaa878f5b5f5ee84396890d433d", "is_disabled": 0, "fusion_lon": 0.0, "type": "electric_scooter", "lon": -76.98612333333334}, {"rental_uris": {"android": "https://dc.lft.to/lastmile_qr_scan", "ios": "https://dc.lft.to/lastmile_qr_scan"}, "fusion_lat": 0.0, "is_reserved": 0, "lat": 38.9106815, "name": "7cac0b28a7109ed4440ca8204740eac6", "bike_id": "7cac0b28a7109ed4440ca8204740eac6", "is_disabled": 0, "fusion_lon": 0.0, "type": "electric_scooter", "lon": -77.04611983333334}, {"rental_uris": {"android": "https://dc.lft.to/lastmile_qr_scan", "ios": "https://dc.lft.to/lastmile_qr_scan"}, "fusion_lat": 0.0, "is_reserved": 0, "lat": 38.949119333333336, "name": "d3fee4c8f2e8260143fbce40f4c9d2d8", "bike_id": "d3fee4c8f2e8260143fbce40f4c9d2d8", "is_disabled": 0, "fusion_lon": 0.0, "type": "electric_scooter", "lon": -77.0207475}, {"rental_uris": {"android": "https://dc.lft.to/lastmile_qr_scan", "ios": "https://dc.lft.to/lastmile_qr_scan"}, "fusion_lat": 0.0, "is_reserved": 0, "lat": 38.90184133333333, "name": "cb1097a1dc4661fc8a70323b0854f000", "bike_id": "cb1097a1dc4661fc8a70323b0854f000", "is_disabled": 0, "fusion_lon": 0.0, "type": "electric_scooter", "lon": -77.05106583333334}, {"rental_uris": {"android": "https://dc.lft.to/lastmile_qr_scan", "ios": "https://dc.lft.to/lastmile_qr_scan"}, "fusion_lat": 0.0, "is_reserved": 0, "lat": 38.901855, "name": "07609dfd080746f6992ad7d1ec637cdc", "bike_id": "07609dfd080746f6992ad7d1ec637cdc", "is_disabled": 0, "fusion_lon": 0.0, "type": "electric_scooter", "lon": -77.02093366666666}, {"rental_uris": {"android": "https://dc.lft.to/lastmile_qr_scan", "ios": "https://dc.lft.to/lastmile_qr_scan"}, "fusion_lat": 0.0, "is_reserved": 0, "lat": 38.90109666666667, "name": "1048b0382d4c0751a79c5ea5c471d903", "bike_id": "1048b0382d4c0751a79c5ea5c471d903", "is_disabled": 0, "fusion_lon": 0.0, "type": "electric_scooter", "lon": -77.030449}, {"rental_uris": {"android": "https://dc.lft.to/lastmile_qr_scan", "ios": "https://dc.lft.to/lastmile_qr_scan"}, "fusion_lat": 0.0, "is_reserved": 0, "lat": 38.931799833333336, "name": "0b61272f54cf02376c047d16137fd4d3", "bike_id": "0b61272f54cf02376c047d16137fd4d3", "is_disabled": 0, "fusion_lon": 0.0, "type": "electric_bike", "lon": -77.03134166666666}, {"rental_uris": {"android": "https://dc.lft.to/lastmile_qr_scan", "ios": "https://dc.lft.to/lastmile_qr_scan"}, "fusion_lat": 0.0, "is_reserved": 0, "lat": 38.8846675, "name": "71a3fcf4e73e29d3f649ec0008eb4a4c", "bike_id": "71a3fcf4e73e29d3f649ec0008eb4a4c", "is_disabled": 0, "fusion_lon": 0.0, "type": "electric_scooter", "lon": -76.99576266666666}, {"rental_uris": {"android": "https://dc.lft.to/lastmile_qr_scan", "ios": "https://dc.lft.to/lastmile_qr_scan"}, "fusion_lat": 0.0, "is_reserved": 0, "lat": 38.89465533333333, "name": "2cceec7dc7659032eb20ffefa9866ef3", "bike_id": "2cceec7dc7659032eb20ffefa9866ef3", "is_disabled": 0, "fusion_lon": 0.0, "type": "electric_scooter", "lon": -77.02424566666667}, {"rental_uris": {"android": "https://dc.lft.to/lastmile_qr_scan", "ios": "https://dc.lft.to/lastmile_qr_scan"}, "fusion_lat": 0.0, "is_reserved": 0, "lat": 38.90546766666667, "name": "e0cacb80d1f7863ba7816c0b5193a070", "bike_id": "e0cacb80d1f7863ba7816c0b5193a070", "is_disabled": 0, "fusion_lon": 0.0, "type": "electric_scooter", "lon": -77.03439366666667}, {"rental_uris": {"android": "https://dc.lft.to/lastmile_qr_scan", "ios": "https://dc.lft.to/lastmile_qr_scan"}, "fusion_lat": 0.0, "is_reserved": 0, "lat": 38.90260133333334, "name": "5d626e5548ab5982b95c56d27e2acdcb", "bike_id": "5d626e5548ab5982b95c56d27e2acdcb", "is_disabled": 0, "fusion_lon": 0.0, "type": "electric_scooter", "lon": -77.03747266666667}, {"rental_uris": {"android": "https://dc.lft.to/lastmile_qr_scan", "ios": "https://dc.lft.to/lastmile_qr_scan"}, "fusion_lat": 0.0, "is_reserved": 0, "lat": 38.944503833333336, "name": "130c00749acb81c71efeb219b5ab3af2", "bike_id": "130c00749acb81c71efeb219b5ab3af2", "is_disabled": 0, "fusion_lon": 0.0, "type": "electric_scooter", "lon": -77.02801283333334}, {"rental_uris": {"android": "https://dc.lft.to/lastmile_qr_scan", "ios": "https://dc.lft.to/lastmile_qr_scan"}, "fusion_lat": 0.0, "is_reserved": 0, "lat": 38.91269, "name": "f898edac09aca2b0a514ca20b9184abf", "bike_id": "f898edac09aca2b0a514ca20b9184abf", "is_disabled": 0, "fusion_lon": 0.0, "type": "electric_scooter", "lon": -77.00806633333333}, {"rental_uris": {"android": "https://dc.lft.to/lastmile_qr_scan", "ios": "https://dc.lft.to/lastmile_qr_scan"}, "fusion_lat": 0.0, "is_reserved": 0, "lat": 38.83028633333333, "name": "ff856f5d4da27c79ae0393f568a5e66e", "bike_id": "ff856f5d4da27c79ae0393f568a5e66e", "is_disabled": 0, "fusion_lon": 0.0, "type": "electric_bike", "lon": -77.08380216666667}, {"rental_uris": {"android": "https://dc.lft.to/lastmile_qr_scan", "ios": "https://dc.lft.to/lastmile_qr_scan"}, "fusion_lat": 0.0, "is_reserved": 0, "lat": 38.92361316666667, "name": "52c424e13d86d257272770aff77124fc", "bike_id": "52c424e13d86d257272770aff77124fc", "is_disabled": 0, "fusion_lon": 0.0, "type": "electric_scooter", "lon": -77.02069466666667}, {"rental_uris": {"android": "https://dc.lft.to/lastmile_qr_scan", "ios": "https://dc.lft.to/lastmile_qr_scan"}, "fusion_lat": 0.0, "is_reserved": 0, "lat": 38.89724783333333, "name": "72e13a02754df705a090c0f795c5b9b4", "bike_id": "72e13a02754df705a090c0f795c5b9b4", "is_disabled": 0, "fusion_lon": 0.0, "type": "electric_scooter", "lon": -77.003342}, {"rental_uris": {"android": "https://dc.lft.to/lastmile_qr_scan", "ios": "https://dc.lft.to/lastmile_qr_scan"}, "fusion_lat": 0.0, "is_reserved": 0, "lat": 38.85778783333333, "name": "e0b44d2f622293584d5ef290da7b0347", "bike_id": "e0b44d2f622293584d5ef290da7b0347", "is_disabled": 0, "fusion_lon": 0.0, "type": "electric_bike", "lon": -76.987677}, {"rental_uris": {"android": "https://dc.lft.to/lastmile_qr_scan", "ios": "https://dc.lft.to/lastmile_qr_scan"}, "fusion_lat": 0.0, "is_reserved": 0, "lat": 38.924678666666665, "name": "bb5ea00a8acd3c2e38b0b79b9e0beffa", "bike_id": "bb5ea00a8acd3c2e38b0b79b9e0beffa", "is_disabled": 0, "fusion_lon": 0.0, "type": "electric_scooter", "lon": -77.02111433333333}, {"rental_uris": {"android": "https://dc.lft.to/lastmile_qr_scan", "ios": "https://dc.lft.to/lastmile_qr_scan"}, "fusion_lat": 0.0, "is_reserved": 0, "lat": 38.926022833333334, "name": "3304945b74e7cb840b1c3965b5cb6ada", "bike_id": "3304945b74e7cb840b1c3965b5cb6ada", "is_disabled": 0, "fusion_lon": 0.0, "type": "electric_scooter", "lon": -77.02161766666667}, {"rental_uris": {"android": "https://dc.lft.to/lastmile_qr_scan", "ios": "https://dc.lft.to/lastmile_qr_scan"}, "fusion_lat": 0.0, "is_reserved": 0, "lat": 38.91642933333333, "name": "d7968170e02473c03068e7430ca13a3f", "bike_id": "d7968170e02473c03068e7430ca13a3f", "is_disabled": 0, "fusion_lon": 0.0, "type": "electric_scooter", "lon": -77.01057233333333}, {"rental_uris": {"android": "https://dc.lft.to/lastmile_qr_scan", "ios": "https://dc.lft.to/lastmile_qr_scan"}, "fusion_lat": 0.0, "is_reserved": 0, "lat": 38.89895416666667, "name": "2b70edebb3411ba26ee8a61c36408cad", "bike_id": "2b70edebb3411ba26ee8a61c36408cad", "is_disabled": 0, "fusion_lon": 0.0, "type": "electric_bike", "lon": -76.97893883333333}, {"rental_uris": {"android": "https://dc.lft.to/lastmile_qr_scan", "ios": "https://dc.lft.to/lastmile_qr_scan"}, "fusion_lat": 0.0, "is_reserved": 0, "lat": 38.936425, "name": "6dcb6d515785c75756cd3ffad5d316f2", "bike_id": "6dcb6d515785c75756cd3ffad5d316f2", "is_disabled": 0, "fusion_lon": 0.0, "type": "electric_scooter", "lon": -77.02418366666667}, {"rental_uris": {"android": "https://dc.lft.to/lastmile_qr_scan", "ios": "https://dc.lft.to/lastmile_qr_scan"}, "fusion_lat": 0.0, "is_reserved": 0, "lat": 38.90361166666667, "name": "5b97368133ee8aac26b796658773eb2e", "bike_id": "5b97368133ee8aac26b796658773eb2e", "is_disabled": 0, "fusion_lon": 0.0, "type": "electric_scooter", "lon": -77.039061}, {"rental_uris": {"android": "https://dc.lft.to/lastmile_qr_scan", "ios": "https://dc.lft.to/lastmile_qr_scan"}, "fusion_lat": 0.0, "is_reserved": 0, "lat": 38.887798333333336, "name": "e7ba71c978324dd520b9ce0890fd619a", "bike_id": "e7ba71c978324dd520b9ce0890fd619a", "is_disabled": 0, "fusion_lon": 0.0, "type": "electric_bike", "lon": -77.03254766666667}, {"rental_uris": {"android": "https://dc.lft.to/lastmile_qr_scan", "ios": "https://dc.lft.to/lastmile_qr_scan"}, "fusion_lat": 0.0, "is_reserved": 0, "lat": 38.928365, "name": "5334421bc526aa897c8431c9ee47887a", "bike_id": "5334421bc526aa897c8431c9ee47887a", "is_disabled": 0, "fusion_lon": 0.0, "type": "electric_scooter", "lon": -77.014194}, {"rental_uris": {"android": "https://dc.lft.to/lastmile_qr_scan", "ios": "https://dc.lft.to/lastmile_qr_scan"}, "fusion_lat": 0.0, "is_reserved": 0, "lat": 38.91776866666667, "name": "9ef5af48270322b72555ed77a8b6063f", "bike_id": "9ef5af48270322b72555ed77a8b6063f", "is_disabled": 0, "fusion_lon": 0.0, "type": "electric_scooter", "lon": -77.02310516666667}, {"rental_uris": {"android": "https://dc.lft.to/lastmile_qr_scan", "ios": "https://dc.lft.to/lastmile_qr_scan"}, "fusion_lat": 0.0, "is_reserved": 0, "lat": 38.91042, "name": "d8e328ba5cc9486670411ffd4e268b93", "bike_id": "d8e328ba5cc9486670411ffd4e268b93", "is_disabled": 0, "fusion_lon": 0.0, "type": "electric_scooter", "lon": -77.0146005}, {"rental_uris": {"android": "https://dc.lft.to/lastmile_qr_scan", "ios": "https://dc.lft.to/lastmile_qr_scan"}, "fusion_lat": 0.0, "is_reserved": 0, "lat": 38.903692666666664, "name": "3302181f8205eee530beb3a78b40ee4e", "bike_id": "3302181f8205eee530beb3a78b40ee4e", "is_disabled": 0, "fusion_lon": 0.0, "type": "electric_scooter", "lon": -77.02211}, {"rental_uris": {"android": "https://dc.lft.to/lastmile_qr_scan", "ios": "https://dc.lft.to/lastmile_qr_scan"}, "fusion_lat": 0.0, "is_reserved": 0, "lat": 38.86346483333333, "name": "c04226e8394be87c76b8750029e3c9ab", "bike_id": "c04226e8394be87c76b8750029e3c9ab", "is_disabled": 0, "fusion_lon": 0.0, "type": "electric_scooter", "lon": -76.9871075}, {"rental_uris": {"android": "https://dc.lft.to/lastmile_qr_scan", "ios": "https://dc.lft.to/lastmile_qr_scan"}, "fusion_lat": 0.0, "is_reserved": 0, "lat": 38.919009, "name": "a13d2e69136e060b23f5c0a18aad24cb", "bike_id": "a13d2e69136e060b23f5c0a18aad24cb", "is_disabled": 0, "fusion_lon": 0.0, "type": "electric_scooter", "lon": -77.00338533333333}, {"rental_uris": {"android": "https://dc.lft.to/lastmile_qr_scan", "ios": "https://dc.lft.to/lastmile_qr_scan"}, "fusion_lat": 0.0, "is_reserved": 0, "lat": 38.92741066666667, "name": "32bc18d87c5f44338f5c91a6b3bdc490", "bike_id": "32bc18d87c5f44338f5c91a6b3bdc490", "is_disabled": 0, "fusion_lon": 0.0, "type": "electric_scooter", "lon": -77.0326445}, {"rental_uris": {"android": "https://dc.lft.to/lastmile_qr_scan", "ios": "https://dc.lft.to/lastmile_qr_scan"}, "fusion_lat": 0.0, "is_reserved": 0, "lat": 38.87577366666667, "name": "58ffbf609de9a7b590be87a33edcd8cd", "bike_id": "58ffbf609de9a7b590be87a33edcd8cd", "is_disabled": 0, "fusion_lon": 0.0, "type": "electric_scooter", "lon": -77.02006666666666}, {"rental_uris": {"android": "https://dc.lft.to/lastmile_qr_scan", "ios": "https://dc.lft.to/lastmile_qr_scan"}, "fusion_lat": 0.0, "is_reserved": 0, "lat": 38.923922166666664, "name": "1b3b10304033938d626c1b109cdd261c", "bike_id": "1b3b10304033938d626c1b109cdd261c", "is_disabled": 0, "fusion_lon": 0.0, "type": "electric_scooter", "lon": -77.02507333333334}, {"rental_uris": {"android": "https://dc.lft.to/lastmile_qr_scan", "ios": "https://dc.lft.to/lastmile_qr_scan"}, "fusion_lat": 0.0, "is_reserved": 0, "lat": 38.905631166666666, "name": "c9c99241221bc24215b75066c383c8ab", "bike_id": "c9c99241221bc24215b75066c383c8ab", "is_disabled": 0, "fusion_lon": 0.0, "type": "electric_scooter", "lon": -77.02975166666667}, {"rental_uris": {"android": "https://dc.lft.to/lastmile_qr_scan", "ios": "https://dc.lft.to/lastmile_qr_scan"}, "fusion_lat": 0.0, "is_reserved": 0, "lat": 38.868700833333335, "name": "31593b773a013ea53efb9a44208b8732", "bike_id": "31593b773a013ea53efb9a44208b8732", "is_disabled": 0, "fusion_lon": 0.0, "type": "electric_scooter", "lon": -76.9866615}, {"rental_uris": {"android": "https://dc.lft.to/lastmile_qr_scan", "ios": "https://dc.lft.to/lastmile_qr_scan"}, "fusion_lat": 0.0, "is_reserved": 0, "lat": 38.896223, "name": "a67b9a521c8c5c72337f7a380c817c9a", "bike_id": "a67b9a521c8c5c72337f7a380c817c9a", "is_disabled": 0, "fusion_lon": 0.0, "type": "electric_scooter", "lon": -76.998509}, {"rental_uris": {"android": "https://dc.lft.to/lastmile_qr_scan", "ios": "https://dc.lft.to/lastmile_qr_scan"}, "fusion_lat": 0.0, "is_reserved": 0, "lat": 38.92071966666666, "name": "b872716cfd5093b3b4eb3e92f64d81ac", "bike_id": "b872716cfd5093b3b4eb3e92f64d81ac", "is_disabled": 0, "fusion_lon": 0.0, "type": "electric_scooter", "lon": -77.02322416666667}, {"rental_uris": {"android": "https://dc.lft.to/lastmile_qr_scan", "ios": "https://dc.lft.to/lastmile_qr_scan"}, "fusion_lat": 0.0, "is_reserved": 0, "lat": 38.90272566666667, "name": "609f74acddac292fc85827e45bea0174", "bike_id": "609f74acddac292fc85827e45bea0174", "is_disabled": 0, "fusion_lon": 0.0, "type": "electric_scooter", "lon": -77.04203716666666}, {"rental_uris": {"android": "https://dc.lft.to/lastmile_qr_scan", "ios": "https://dc.lft.to/lastmile_qr_scan"}, "fusion_lat": 0.0, "is_reserved": 0, "lat": 38.88679066666667, "name": "18c17eda0eaa1e38cb214aa86b95d3a6", "bike_id": "18c17eda0eaa1e38cb214aa86b95d3a6", "is_disabled": 0, "fusion_lon": 0.0, "type": "electric_scooter", "lon": -77.0020145}, {"rental_uris": {"android": "https://dc.lft.to/lastmile_qr_scan", "ios": "https://dc.lft.to/lastmile_qr_scan"}, "fusion_lat": 0.0, "is_reserved": 0, "lat": 38.875039666666666, "name": "ebf84711d7c3b1f408a4ff79c56ea7c6", "bike_id": "ebf84711d7c3b1f408a4ff79c56ea7c6", "is_disabled": 0, "fusion_lon": 0.0, "type": "electric_scooter", "lon": -77.00082833333333}, {"rental_uris": {"android": "https://dc.lft.to/lastmile_qr_scan", "ios": "https://dc.lft.to/lastmile_qr_scan"}, "fusion_lat": 0.0, "is_reserved": 0, "lat": 38.9309865, "name": "ba957dbd25380206259294a889ef75b0", "bike_id": "ba957dbd25380206259294a889ef75b0", "is_disabled": 0, "fusion_lon": 0.0, "type": "electric_scooter", "lon": -77.024779}, {"rental_uris": {"android": "https://dc.lft.to/lastmile_qr_scan", "ios": "https://dc.lft.to/lastmile_qr_scan"}, "fusion_lat": 0.0, "is_reserved": 0, "lat": 38.93952133333333, "name": "2e51194c05496051a8372d0dffa06e9b", "bike_id": "2e51194c05496051a8372d0dffa06e9b", "is_disabled": 0, "fusion_lon": 0.0, "type": "electric_scooter", "lon": -77.0276235}, {"rental_uris": {"android": "https://dc.lft.to/lastmile_qr_scan", "ios": "https://dc.lft.to/lastmile_qr_scan"}, "fusion_lat": 0.0, "is_reserved": 0, "lat": 38.903683666666666, "name": "72ceecb87b9e09a70fc694ff5414ca5d", "bike_id": "72ceecb87b9e09a70fc694ff5414ca5d", "is_disabled": 0, "fusion_lon": 0.0, "type": "electric_scooter", "lon": -77.03413583333334}, {"rental_uris": {"android": "https://dc.lft.to/lastmile_qr_scan", "ios": "https://dc.lft.to/lastmile_qr_scan"}, "fusion_lat": 0.0, "is_reserved": 0, "lat": 38.922448, "name": "c28a77e0c83102b7ec904cb8874c6cf1", "bike_id": "c28a77e0c83102b7ec904cb8874c6cf1", "is_disabled": 0, "fusion_lon": 0.0, "type": "electric_scooter", "lon": -77.019547}, {"rental_uris": {"android": "https://dc.lft.to/lastmile_qr_scan", "ios": "https://dc.lft.to/lastmile_qr_scan"}, "fusion_lat": 0.0, "is_reserved": 0, "lat": 38.91712616666667, "name": "8d8ccd02091d80c2c27848a721ace905", "bike_id": "8d8ccd02091d80c2c27848a721ace905", "is_disabled": 0, "fusion_lon": 0.0, "type": "electric_scooter", "lon": -77.034612}, {"rental_uris": {"android": "https://dc.lft.to/lastmile_qr_scan", "ios": "https://dc.lft.to/lastmile_qr_scan"}, "fusion_lat": 0.0, "is_reserved": 0, "lat": 38.917027, "name": "4f92e15dd745474f7a128e91c6bc2bde", "bike_id": "4f92e15dd745474f7a128e91c6bc2bde", "is_disabled": 0, "fusion_lon": 0.0, "type": "electric_bike", "lon": -77.05725433333333}, {"rental_uris": {"android": "https://dc.lft.to/lastmile_qr_scan", "ios": "https://dc.lft.to/lastmile_qr_scan"}, "fusion_lat": 0.0, "is_reserved": 0, "lat": 38.924567333333336, "name": "7acd6148ff8f1086d55ec0306cd1ab5b", "bike_id": "7acd6148ff8f1086d55ec0306cd1ab5b", "is_disabled": 0, "fusion_lon": 0.0, "type": "electric_scooter", "lon": -76.99914016666666}, {"rental_uris": {"android": "https://dc.lft.to/lastmile_qr_scan", "ios": "https://dc.lft.to/lastmile_qr_scan"}, "fusion_lat": 0.0, "is_reserved": 0, "lat": 38.9099085, "name": "536d310c011984942205a99613385697", "bike_id": "536d310c011984942205a99613385697", "is_disabled": 0, "fusion_lon": 0.0, "type": "electric_scooter", "lon": -77.023948}, {"rental_uris": {"android": "https://dc.lft.to/lastmile_qr_scan", "ios": "https://dc.lft.to/lastmile_qr_scan"}, "fusion_lat": 0.0, "is_reserved": 0, "lat": 38.901747, "name": "bd7536ae400f6b4f7ff2af70c438917b", "bike_id": "bd7536ae400f6b4f7ff2af70c438917b", "is_disabled": 0, "fusion_lon": 0.0, "type": "electric_scooter", "lon": -77.0465105}, {"rental_uris": {"android": "https://dc.lft.to/lastmile_qr_scan", "ios": "https://dc.lft.to/lastmile_qr_scan"}, "fusion_lat": 0.0, "is_reserved": 0, "lat": 38.90736883333334, "name": "0dd021b547c9aa68dee89063003ebaf2", "bike_id": "0dd021b547c9aa68dee89063003ebaf2", "is_disabled": 0, "fusion_lon": 0.0, "type": "electric_scooter", "lon": -76.93485716666666}, {"rental_uris": {"android": "https://dc.lft.to/lastmile_qr_scan", "ios": "https://dc.lft.to/lastmile_qr_scan"}, "fusion_lat": 0.0, "is_reserved": 0, "lat": 38.91199683333333, "name": "8f110a0b2a16cbec5e049894d2eacca2", "bike_id": "8f110a0b2a16cbec5e049894d2eacca2", "is_disabled": 0, "fusion_lon": 0.0, "type": "electric_scooter", "lon": -77.03846366666667}, {"rental_uris": {"android": "https://dc.lft.to/lastmile_qr_scan", "ios": "https://dc.lft.to/lastmile_qr_scan"}, "fusion_lat": 0.0, "is_reserved": 0, "lat": 38.92406183333333, "name": "da37e6549ad3ef064906ee66dc5d6fac", "bike_id": "da37e6549ad3ef064906ee66dc5d6fac", "is_disabled": 0, "fusion_lon": 0.0, "type": "electric_scooter", "lon": -77.03531066666666}, {"rental_uris": {"android": "https://dc.lft.to/lastmile_qr_scan", "ios": "https://dc.lft.to/lastmile_qr_scan"}, "fusion_lat": 0.0, "is_reserved": 0, "lat": 38.900342333333334, "name": "18e0222033db033f86ed6b4b5bbd3eef", "bike_id": "18e0222033db033f86ed6b4b5bbd3eef", "is_disabled": 0, "fusion_lon": 0.0, "type": "electric_scooter", "lon": -76.99851133333334}, {"rental_uris": {"android": "https://dc.lft.to/lastmile_qr_scan", "ios": "https://dc.lft.to/lastmile_qr_scan"}, "fusion_lat": 0.0, "is_reserved": 0, "lat": 38.903886666666665, "name": "902d3475972856f529819822d6c1820e", "bike_id": "902d3475972856f529819822d6c1820e", "is_disabled": 0, "fusion_lon": 0.0, "type": "electric_scooter", "lon": -77.01223333333333}, {"rental_uris": {"android": "https://dc.lft.to/lastmile_qr_scan", "ios": "https://dc.lft.to/lastmile_qr_scan"}, "fusion_lat": 0.0, "is_reserved": 0, "lat": 38.92393166666667, "name": "4c7ffb271da2d8cb68e0d4e2ed5e412e", "bike_id": "4c7ffb271da2d8cb68e0d4e2ed5e412e", "is_disabled": 0, "fusion_lon": 0.0, "type": "electric_scooter", "lon": -77.03665566666666}, {"rental_uris": {"android": "https://dc.lft.to/lastmile_qr_scan", "ios": "https://dc.lft.to/lastmile_qr_scan"}, "fusion_lat": 0.0, "is_reserved": 0, "lat": 38.9417785, "name": "cdfb76929d913128b6088ea0928ccb0a", "bike_id": "cdfb76929d913128b6088ea0928ccb0a", "is_disabled": 0, "fusion_lon": 0.0, "type": "electric_scooter", "lon": -77.031496}, {"rental_uris": {"android": "https://dc.lft.to/lastmile_qr_scan", "ios": "https://dc.lft.to/lastmile_qr_scan"}, "fusion_lat": 0.0, "is_reserved": 0, "lat": 38.882808833333335, "name": "25981c46ab6ce67893236ec5731ab4fd", "bike_id": "25981c46ab6ce67893236ec5731ab4fd", "is_disabled": 0, "fusion_lon": 0.0, "type": "electric_bike", "lon": -76.93234516666666}, {"rental_uris": {"android": "https://dc.lft.to/lastmile_qr_scan", "ios": "https://dc.lft.to/lastmile_qr_scan"}, "fusion_lat": 0.0, "is_reserved": 0, "lat": 38.913385166666664, "name": "4c2ac9edae6affcfe90610ed50b4f5f6", "bike_id": "4c2ac9edae6affcfe90610ed50b4f5f6", "is_disabled": 0, "fusion_lon": 0.0, "type": "electric_scooter", "lon": -77.03212083333334}, {"rental_uris": {"android": "https://dc.lft.to/lastmile_qr_scan", "ios": "https://dc.lft.to/lastmile_qr_scan"}, "fusion_lat": 0.0, "is_reserved": 0, "lat": 38.894446333333335, "name": "bc30c6400f9cec0579bb16d567b77a5d", "bike_id": "bc30c6400f9cec0579bb16d567b77a5d", "is_disabled": 0, "fusion_lon": 0.0, "type": "electric_bike", "lon": -77.04169166666667}, {"rental_uris": {"android": "https://dc.lft.to/lastmile_qr_scan", "ios": "https://dc.lft.to/lastmile_qr_scan"}, "fusion_lat": 0.0, "is_reserved": 0, "lat": 38.905544166666665, "name": "3583ef3f3947f27c2987d50472eef9a3", "bike_id": "3583ef3f3947f27c2987d50472eef9a3", "is_disabled": 0, "fusion_lon": 0.0, "type": "electric_scooter", "lon": -77.00284783333333}, {"rental_uris": {"android": "https://dc.lft.to/lastmile_qr_scan", "ios": "https://dc.lft.to/lastmile_qr_scan"}, "fusion_lat": 0.0, "is_reserved": 0, "lat": 38.893970833333334, "name": "d02398183c556a98d1aea45b214df214", "bike_id": "d02398183c556a98d1aea45b214df214", "is_disabled": 0, "fusion_lon": 0.0, "type": "electric_scooter", "lon": -77.02299966666666}, {"rental_uris": {"android": "https://dc.lft.to/lastmile_qr_scan", "ios": "https://dc.lft.to/lastmile_qr_scan"}, "fusion_lat": 0.0, "is_reserved": 0, "lat": 38.9178675, "name": "3bf8106f62c5f04b81f673fee87b38b5", "bike_id": "3bf8106f62c5f04b81f673fee87b38b5", "is_disabled": 0, "fusion_lon": 0.0, "type": "electric_scooter", "lon": -77.03455816666667}, {"rental_uris": {"android": "https://dc.lft.to/lastmile_qr_scan", "ios": "https://dc.lft.to/lastmile_qr_scan"}, "fusion_lat": 0.0, "is_reserved": 0, "lat": 38.907192333333334, "name": "dd093fe59c7a9fe705abb199b9d44e31", "bike_id": "dd093fe59c7a9fe705abb199b9d44e31", "is_disabled": 0, "fusion_lon": 0.0, "type": "electric_scooter", "lon": -77.02798933333334}, {"rental_uris": {"android": "https://dc.lft.to/lastmile_qr_scan", "ios": "https://dc.lft.to/lastmile_qr_scan"}, "fusion_lat": 0.0, "is_reserved": 0, "lat": 38.901456, "name": "0fb245c2c979c11cc87063387277e147", "bike_id": "0fb245c2c979c11cc87063387277e147", "is_disabled": 0, "fusion_lon": 0.0, "type": "electric_scooter", "lon": -77.02570866666667}, {"rental_uris": {"android": "https://dc.lft.to/lastmile_qr_scan", "ios": "https://dc.lft.to/lastmile_qr_scan"}, "fusion_lat": 0.0, "is_reserved": 0, "lat": 38.90779833333333, "name": "353e061f591ecae509c632b5631466c5", "bike_id": "353e061f591ecae509c632b5631466c5", "is_disabled": 0, "fusion_lon": 0.0, "type": "electric_scooter", "lon": -77.04508366666667}, {"rental_uris": {"android": "https://dc.lft.to/lastmile_qr_scan", "ios": "https://dc.lft.to/lastmile_qr_scan"}, "fusion_lat": 0.0, "is_reserved": 0, "lat": 38.885992, "name": "29241b83b361087174a29fc3dfbd4d84", "bike_id": "29241b83b361087174a29fc3dfbd4d84", "is_disabled": 0, "fusion_lon": 0.0, "type": "electric_scooter", "lon": -77.004083}, {"rental_uris": {"android": "https://dc.lft.to/lastmile_qr_scan", "ios": "https://dc.lft.to/lastmile_qr_scan"}, "fusion_lat": 0.0, "is_reserved": 0, "lat": 38.898836, "name": "009a37490c79f9e4686906b45989f800", "bike_id": "009a37490c79f9e4686906b45989f800", "is_disabled": 0, "fusion_lon": 0.0, "type": "electric_scooter", "lon": -77.0466925}, {"rental_uris": {"android": "https://dc.lft.to/lastmile_qr_scan", "ios": "https://dc.lft.to/lastmile_qr_scan"}, "fusion_lat": 0.0, "is_reserved": 0, "lat": 38.88865416666667, "name": "24725488c76cf602d06e6f04b038ea36", "bike_id": "24725488c76cf602d06e6f04b038ea36", "is_disabled": 0, "fusion_lon": 0.0, "type": "electric_scooter", "lon": -77.040125}, {"rental_uris": {"android": "https://dc.lft.to/lastmile_qr_scan", "ios": "https://dc.lft.to/lastmile_qr_scan"}, "fusion_lat": 0.0, "is_reserved": 0, "lat": 38.899580666666665, "name": "a22316db86ee059dfa5d1066b8a6ebe6", "bike_id": "a22316db86ee059dfa5d1066b8a6ebe6", "is_disabled": 0, "fusion_lon": 0.0, "type": "electric_scooter", "lon": -77.04843216666667}, {"rental_uris": {"android": "https://dc.lft.to/lastmile_qr_scan", "ios": "https://dc.lft.to/lastmile_qr_scan"}, "fusion_lat": 0.0, "is_reserved": 0, "lat": 38.9110825, "name": "72c164850211c77d6fa4f1e33525abf3", "bike_id": "72c164850211c77d6fa4f1e33525abf3", "is_disabled": 0, "fusion_lon": 0.0, "type": "electric_scooter", "lon": -77.03840233333334}, {"rental_uris": {"android": "https://dc.lft.to/lastmile_qr_scan", "ios": "https://dc.lft.to/lastmile_qr_scan"}, "fusion_lat": 0.0, "is_reserved": 0, "lat": 38.90567266666667, "name": "2d0a229894b59a20a6c68e801df2b97b", "bike_id": "2d0a229894b59a20a6c68e801df2b97b", "is_disabled": 0, "fusion_lon": 0.0, "type": "electric_scooter", "lon": -77.005862}, {"rental_uris": {"android": "https://dc.lft.to/lastmile_qr_scan", "ios": "https://dc.lft.to/lastmile_qr_scan"}, "fusion_lat": 0.0, "is_reserved": 0, "lat": 38.91415816666667, "name": "4217c2c37cca7b22b5cce311b8ae04ba", "bike_id": "4217c2c37cca7b22b5cce311b8ae04ba", "is_disabled": 0, "fusion_lon": 0.0, "type": "electric_scooter", "lon": -77.03173}, {"rental_uris": {"android": "https://dc.lft.to/lastmile_qr_scan", "ios": "https://dc.lft.to/lastmile_qr_scan"}, "fusion_lat": 0.0, "is_reserved": 0, "lat": 38.89581283333333, "name": "3b33fbce09d7db4d733d84ed433b86bb", "bike_id": "3b33fbce09d7db4d733d84ed433b86bb", "is_disabled": 0, "fusion_lon": 0.0, "type": "electric_scooter", "lon": -77.04144416666666}, {"rental_uris": {"android": "https://dc.lft.to/lastmile_qr_scan", "ios": "https://dc.lft.to/lastmile_qr_scan"}, "fusion_lat": 0.0, "is_reserved": 0, "lat": 38.91566783333333, "name": "d1dfecbedb26dd9e7194ea6ce1fd738b", "bike_id": "d1dfecbedb26dd9e7194ea6ce1fd738b", "is_disabled": 0, "fusion_lon": 0.0, "type": "electric_scooter", "lon": -77.02351716666666}, {"rental_uris": {"android": "https://dc.lft.to/lastmile_qr_scan", "ios": "https://dc.lft.to/lastmile_qr_scan"}, "fusion_lat": 0.0, "is_reserved": 0, "lat": 38.8872715, "name": "9c91590cede9cf50201f6468fe493255", "bike_id": "9c91590cede9cf50201f6468fe493255", "is_disabled": 0, "fusion_lon": 0.0, "type": "electric_scooter", "lon": -76.98382066666667}, {"rental_uris": {"android": "https://dc.lft.to/lastmile_qr_scan", "ios": "https://dc.lft.to/lastmile_qr_scan"}, "fusion_lat": 0.0, "is_reserved": 0, "lat": 38.9232705, "name": "a2ed2446730a049d3e6111f0f12f1484", "bike_id": "a2ed2446730a049d3e6111f0f12f1484", "is_disabled": 0, "fusion_lon": 0.0, "type": "electric_scooter", "lon": -77.01959383333333}, {"rental_uris": {"android": "https://dc.lft.to/lastmile_qr_scan", "ios": "https://dc.lft.to/lastmile_qr_scan"}, "fusion_lat": 0.0, "is_reserved": 0, "lat": 38.9275145, "name": "6ff7718cb566a32f72bc68e1c67a95b1", "bike_id": "6ff7718cb566a32f72bc68e1c67a95b1", "is_disabled": 0, "fusion_lon": 0.0, "type": "electric_scooter", "lon": -77.021159}, {"rental_uris": {"android": "https://dc.lft.to/lastmile_qr_scan", "ios": "https://dc.lft.to/lastmile_qr_scan"}, "fusion_lat": 0.0, "is_reserved": 0, "lat": 38.91510266666667, "name": "c8764a3a8cf4d200afe9d16e53af6382", "bike_id": "c8764a3a8cf4d200afe9d16e53af6382", "is_disabled": 0, "fusion_lon": 0.0, "type": "electric_scooter", "lon": -77.0321185}, {"rental_uris": {"android": "https://dc.lft.to/lastmile_qr_scan", "ios": "https://dc.lft.to/lastmile_qr_scan"}, "fusion_lat": 0.0, "is_reserved": 0, "lat": 38.894476833333336, "name": "65055a22789b61e6a8fc4f514893a11b", "bike_id": "65055a22789b61e6a8fc4f514893a11b", "is_disabled": 0, "fusion_lon": 0.0, "type": "electric_scooter", "lon": -77.04531083333333}, {"rental_uris": {"android": "https://dc.lft.to/lastmile_qr_scan", "ios": "https://dc.lft.to/lastmile_qr_scan"}, "fusion_lat": 0.0, "is_reserved": 0, "lat": 38.9188345, "name": "3bf60d6a21cc2cb7e49ab5e22ee381be", "bike_id": "3bf60d6a21cc2cb7e49ab5e22ee381be", "is_disabled": 0, "fusion_lon": 0.0, "type": "electric_scooter", "lon": -77.035053}, {"rental_uris": {"android": "https://dc.lft.to/lastmile_qr_scan", "ios": "https://dc.lft.to/lastmile_qr_scan"}, "fusion_lat": 0.0, "is_reserved": 0, "lat": 38.9211865, "name": "d53a6a4fb8d169387f764bdf004ea462", "bike_id": "d53a6a4fb8d169387f764bdf004ea462", "is_disabled": 0, "fusion_lon": 0.0, "type": "electric_scooter", "lon": -77.04443716666667}, {"rental_uris": {"android": "https://dc.lft.to/lastmile_qr_scan", "ios": "https://dc.lft.to/lastmile_qr_scan"}, "fusion_lat": 0.0, "is_reserved": 0, "lat": 38.924639166666665, "name": "f58daa1a481dfe7b9dab2961e70f173b", "bike_id": "f58daa1a481dfe7b9dab2961e70f173b", "is_disabled": 0, "fusion_lon": 0.0, "type": "electric_scooter", "lon": -77.05237833333334}, {"rental_uris": {"android": "https://dc.lft.to/lastmile_qr_scan", "ios": "https://dc.lft.to/lastmile_qr_scan"}, "fusion_lat": 0.0, "is_reserved": 0, "lat": 38.93632383333333, "name": "789649fd84650844e0f63829eccbbd90", "bike_id": "789649fd84650844e0f63829eccbbd90", "is_disabled": 0, "fusion_lon": 0.0, "type": "electric_scooter", "lon": -77.06483016666667}, {"rental_uris": {"android": "https://dc.lft.to/lastmile_qr_scan", "ios": "https://dc.lft.to/lastmile_qr_scan"}, "fusion_lat": 0.0, "is_reserved": 0, "lat": 38.900798333333334, "name": "3454734c660074bff393140b35b17a10", "bike_id": "3454734c660074bff393140b35b17a10", "is_disabled": 0, "fusion_lon": 0.0, "type": "electric_scooter", "lon": -77.0447055}, {"rental_uris": {"android": "https://dc.lft.to/lastmile_qr_scan", "ios": "https://dc.lft.to/lastmile_qr_scan"}, "fusion_lat": 0.0, "is_reserved": 0, "lat": 38.90317433333333, "name": "673081fbf5b6abb617e016f7099ff21c", "bike_id": "673081fbf5b6abb617e016f7099ff21c", "is_disabled": 0, "fusion_lon": 0.0, "type": "electric_scooter", "lon": -76.98146066666666}, {"rental_uris": {"android": "https://dc.lft.to/lastmile_qr_scan", "ios": "https://dc.lft.to/lastmile_qr_scan"}, "fusion_lat": 0.0, "is_reserved": 0, "lat": 38.97495266666667, "name": "d61b74eee43dd559de7afb313829b48f", "bike_id": "d61b74eee43dd559de7afb313829b48f", "is_disabled": 0, "fusion_lon": 0.0, "type": "electric_scooter", "lon": -77.017006}, {"rental_uris": {"android": "https://dc.lft.to/lastmile_qr_scan", "ios": "https://dc.lft.to/lastmile_qr_scan"}, "fusion_lat": 0.0, "is_reserved": 0, "lat": 38.9001305, "name": "b0a9e5766836f9b3eb1d507485ae24a0", "bike_id": "b0a9e5766836f9b3eb1d507485ae24a0", "is_disabled": 0, "fusion_lon": 0.0, "type": "electric_scooter", "lon": -77.03158766666667}, {"rental_uris": {"android": "https://dc.lft.to/lastmile_qr_scan", "ios": "https://dc.lft.to/lastmile_qr_scan"}, "fusion_lat": 0.0, "is_reserved": 0, "lat": 38.90832533333333, "name": "4268bc8fa3dab9f1b282b2ba33c60efb", "bike_id": "4268bc8fa3dab9f1b282b2ba33c60efb", "is_disabled": 0, "fusion_lon": 0.0, "type": "electric_scooter", "lon": -77.03176983333333}, {"rental_uris": {"android": "https://dc.lft.to/lastmile_qr_scan", "ios": "https://dc.lft.to/lastmile_qr_scan"}, "fusion_lat": 0.0, "is_reserved": 0, "lat": 38.902762833333334, "name": "a87f746b2297755fd3ed36fb810a260a", "bike_id": "a87f746b2297755fd3ed36fb810a260a", "is_disabled": 0, "fusion_lon": 0.0, "type": "electric_scooter", "lon": -77.0345175}, {"rental_uris": {"android": "https://dc.lft.to/lastmile_qr_scan", "ios": "https://dc.lft.to/lastmile_qr_scan"}, "fusion_lat": 0.0, "is_reserved": 0, "lat": 38.88794333333333, "name": "0fd409df2949b01993fd45f77db2d17d", "bike_id": "0fd409df2949b01993fd45f77db2d17d", "is_disabled": 0, "fusion_lon": 0.0, "type": "electric_scooter", "lon": -76.9771435}, {"rental_uris": {"android": "https://dc.lft.to/lastmile_qr_scan", "ios": "https://dc.lft.to/lastmile_qr_scan"}, "fusion_lat": 0.0, "is_reserved": 0, "lat": 38.893544, "name": "4d309dacfdb8bad6b6d55f7d39982cb6", "bike_id": "4d309dacfdb8bad6b6d55f7d39982cb6", "is_disabled": 0, "fusion_lon": 0.0, "type": "electric_scooter", "lon": -77.003352}, {"rental_uris": {"android": "https://dc.lft.to/lastmile_qr_scan", "ios": "https://dc.lft.to/lastmile_qr_scan"}, "fusion_lat": 0.0, "is_reserved": 0, "lat": 38.937695, "name": "d36f17a8d4283cfce53199e21a687337", "bike_id": "d36f17a8d4283cfce53199e21a687337", "is_disabled": 0, "fusion_lon": 0.0, "type": "electric_scooter", "lon": -77.024691}, {"rental_uris": {"android": "https://dc.lft.to/lastmile_qr_scan", "ios": "https://dc.lft.to/lastmile_qr_scan"}, "fusion_lat": 0.0, "is_reserved": 0, "lat": 38.884398833333336, "name": "3d4139f2a60e2cfaa0af491ebef06b6d", "bike_id": "3d4139f2a60e2cfaa0af491ebef06b6d", "is_disabled": 0, "fusion_lon": 0.0, "type": "electric_scooter", "lon": -77.003477}, {"rental_uris": {"android": "https://dc.lft.to/lastmile_qr_scan", "ios": "https://dc.lft.to/lastmile_qr_scan"}, "fusion_lat": 0.0, "is_reserved": 0, "lat": 38.919670833333335, "name": "888b2c8a2da5589e824ad6bf72e5bfea", "bike_id": "888b2c8a2da5589e824ad6bf72e5bfea", "is_disabled": 0, "fusion_lon": 0.0, "type": "electric_scooter", "lon": -77.042265}, {"rental_uris": {"android": "https://dc.lft.to/lastmile_qr_scan", "ios": "https://dc.lft.to/lastmile_qr_scan"}, "fusion_lat": 0.0, "is_reserved": 0, "lat": 38.92363316666667, "name": "466a0bc92ec30379368709134220c9c4", "bike_id": "466a0bc92ec30379368709134220c9c4", "is_disabled": 0, "fusion_lon": 0.0, "type": "electric_scooter", "lon": -77.02060983333334}, {"rental_uris": {"android": "https://dc.lft.to/lastmile_qr_scan", "ios": "https://dc.lft.to/lastmile_qr_scan"}, "fusion_lat": 0.0, "is_reserved": 0, "lat": 38.913856333333335, "name": "b5f2030b6824a1e84dbb797d701442fb", "bike_id": "b5f2030b6824a1e84dbb797d701442fb", "is_disabled": 0, "fusion_lon": 0.0, "type": "electric_scooter", "lon": -76.98423783333334}, {"rental_uris": {"android": "https://dc.lft.to/lastmile_qr_scan", "ios": "https://dc.lft.to/lastmile_qr_scan"}, "fusion_lat": 0.0, "is_reserved": 0, "lat": 38.933197, "name": "2830132a0f217f1a9debab612b098fa0", "bike_id": "2830132a0f217f1a9debab612b098fa0", "is_disabled": 0, "fusion_lon": 0.0, "type": "electric_scooter", "lon": -77.03073216666667}, {"rental_uris": {"android": "https://dc.lft.to/lastmile_qr_scan", "ios": "https://dc.lft.to/lastmile_qr_scan"}, "fusion_lat": 0.0, "is_reserved": 0, "lat": 38.8980715, "name": "d31d494ab9e3876fce7b0476d3e1369b", "bike_id": "d31d494ab9e3876fce7b0476d3e1369b", "is_disabled": 0, "fusion_lon": 0.0, "type": "electric_bike", "lon": -76.99083016666667}, {"rental_uris": {"android": "https://dc.lft.to/lastmile_qr_scan", "ios": "https://dc.lft.to/lastmile_qr_scan"}, "fusion_lat": 0.0, "is_reserved": 0, "lat": 38.88879383333333, "name": "dcd8674fffa1a5d04f27047a2c064b78", "bike_id": "dcd8674fffa1a5d04f27047a2c064b78", "is_disabled": 0, "fusion_lon": 0.0, "type": "electric_scooter", "lon": -76.99036966666667}, {"rental_uris": {"android": "https://dc.lft.to/lastmile_qr_scan", "ios": "https://dc.lft.to/lastmile_qr_scan"}, "fusion_lat": 0.0, "is_reserved": 0, "lat": 38.919115833333336, "name": "774fd56718d3154142c2271db0242667", "bike_id": "774fd56718d3154142c2271db0242667", "is_disabled": 0, "fusion_lon": 0.0, "type": "electric_scooter", "lon": -77.0179905}, {"rental_uris": {"android": "https://dc.lft.to/lastmile_qr_scan", "ios": "https://dc.lft.to/lastmile_qr_scan"}, "fusion_lat": 0.0, "is_reserved": 0, "lat": 38.915797, "name": "006c2d1582fd2100bcfc0f5fcab8fc7f", "bike_id": "006c2d1582fd2100bcfc0f5fcab8fc7f", "is_disabled": 0, "fusion_lon": 0.0, "type": "electric_scooter", "lon": -77.0124205}, {"rental_uris": {"android": "https://dc.lft.to/lastmile_qr_scan", "ios": "https://dc.lft.to/lastmile_qr_scan"}, "fusion_lat": 0.0, "is_reserved": 0, "lat": 38.98431933333333, "name": "40803bb9387dfbeec33c132ccef4359d", "bike_id": "40803bb9387dfbeec33c132ccef4359d", "is_disabled": 0, "fusion_lon": 0.0, "type": "electric_scooter", "lon": -77.0267935}, {"rental_uris": {"android": "https://dc.lft.to/lastmile_qr_scan", "ios": "https://dc.lft.to/lastmile_qr_scan"}, "fusion_lat": 0.0, "is_reserved": 0, "lat": 38.911498333333334, "name": "4396a1ff74ab6fbd02b00847793b0fba", "bike_id": "4396a1ff74ab6fbd02b00847793b0fba", "is_disabled": 0, "fusion_lon": 0.0, "type": "electric_scooter", "lon": -77.029592}, {"rental_uris": {"android": "https://dc.lft.to/lastmile_qr_scan", "ios": "https://dc.lft.to/lastmile_qr_scan"}, "fusion_lat": 0.0, "is_reserved": 0, "lat": 38.9080605, "name": "9b760bc247b625608e755b2bdbdf6983", "bike_id": "9b760bc247b625608e755b2bdbdf6983", "is_disabled": 0, "fusion_lon": 0.0, "type": "electric_scooter", "lon": -77.04193816666667}, {"rental_uris": {"android": "https://dc.lft.to/lastmile_qr_scan", "ios": "https://dc.lft.to/lastmile_qr_scan"}, "fusion_lat": 0.0, "is_reserved": 0, "lat": 38.89628183333333, "name": "369f4469ca7f314061384d1c83904785", "bike_id": "369f4469ca7f314061384d1c83904785", "is_disabled": 0, "fusion_lon": 0.0, "type": "electric_scooter", "lon": -77.02607583333334}, {"rental_uris": {"android": "https://dc.lft.to/lastmile_qr_scan", "ios": "https://dc.lft.to/lastmile_qr_scan"}, "fusion_lat": 0.0, "is_reserved": 0, "lat": 38.930854333333336, "name": "39efe2b8f8e6aaadb81480a0efc10161", "bike_id": "39efe2b8f8e6aaadb81480a0efc10161", "is_disabled": 0, "fusion_lon": 0.0, "type": "electric_scooter", "lon": -77.03771283333333}, {"rental_uris": {"android": "https://dc.lft.to/lastmile_qr_scan", "ios": "https://dc.lft.to/lastmile_qr_scan"}, "fusion_lat": 0.0, "is_reserved": 0, "lat": 38.80634633333333, "name": "713251a731f24abc20854b53fe052c13", "bike_id": "713251a731f24abc20854b53fe052c13", "is_disabled": 0, "fusion_lon": 0.0, "type": "electric_bike", "lon": -77.06257416666666}, {"rental_uris": {"android": "https://dc.lft.to/lastmile_qr_scan", "ios": "https://dc.lft.to/lastmile_qr_scan"}, "fusion_lat": 0.0, "is_reserved": 0, "lat": 38.91578783333333, "name": "1e1897fb1d6967e295c99801a1720484", "bike_id": "1e1897fb1d6967e295c99801a1720484", "is_disabled": 0, "fusion_lon": 0.0, "type": "electric_scooter", "lon": -77.01236466666667}, {"rental_uris": {"android": "https://dc.lft.to/lastmile_qr_scan", "ios": "https://dc.lft.to/lastmile_qr_scan"}, "fusion_lat": 0.0, "is_reserved": 0, "lat": 38.91893233333333, "name": "d1938a48e420299cd28d9c00ca76be01", "bike_id": "d1938a48e420299cd28d9c00ca76be01", "is_disabled": 0, "fusion_lon": 0.0, "type": "electric_scooter", "lon": -77.03552433333333}, {"rental_uris": {"android": "https://dc.lft.to/lastmile_qr_scan", "ios": "https://dc.lft.to/lastmile_qr_scan"}, "fusion_lat": 0.0, "is_reserved": 0, "lat": 38.92872583333333, "name": "a541f2001a5e76474c2002923f5c15ec", "bike_id": "a541f2001a5e76474c2002923f5c15ec", "is_disabled": 0, "fusion_lon": 0.0, "type": "electric_scooter", "lon": -77.02711483333333}, {"rental_uris": {"android": "https://dc.lft.to/lastmile_qr_scan", "ios": "https://dc.lft.to/lastmile_qr_scan"}, "fusion_lat": 0.0, "is_reserved": 0, "lat": 38.9385285, "name": "a2a3374fb7fcda96c33fd25da21d843e", "bike_id": "a2a3374fb7fcda96c33fd25da21d843e", "is_disabled": 0, "fusion_lon": 0.0, "type": "electric_scooter", "lon": -77.0248105}, {"rental_uris": {"android": "https://dc.lft.to/lastmile_qr_scan", "ios": "https://dc.lft.to/lastmile_qr_scan"}, "fusion_lat": 0.0, "is_reserved": 0, "lat": 38.919476833333334, "name": "8a53c84eb706b599709b53bc4b2da327", "bike_id": "8a53c84eb706b599709b53bc4b2da327", "is_disabled": 0, "fusion_lon": 0.0, "type": "electric_scooter", "lon": -76.99199516666667}, {"rental_uris": {"android": "https://dc.lft.to/lastmile_qr_scan", "ios": "https://dc.lft.to/lastmile_qr_scan"}, "fusion_lat": 0.0, "is_reserved": 0, "lat": 38.90084616666667, "name": "e1d9e9d135646492fc4543315bf9cd3e", "bike_id": "e1d9e9d135646492fc4543315bf9cd3e", "is_disabled": 0, "fusion_lon": 0.0, "type": "electric_scooter", "lon": -77.049039}, {"rental_uris": {"android": "https://dc.lft.to/lastmile_qr_scan", "ios": "https://dc.lft.to/lastmile_qr_scan"}, "fusion_lat": 0.0, "is_reserved": 0, "lat": 38.90194266666666, "name": "56b3b4025fa7f1033356759eb4d5b6d7", "bike_id": "56b3b4025fa7f1033356759eb4d5b6d7", "is_disabled": 0, "fusion_lon": 0.0, "type": "electric_scooter", "lon": -77.02180133333333}, {"rental_uris": {"android": "https://dc.lft.to/lastmile_qr_scan", "ios": "https://dc.lft.to/lastmile_qr_scan"}, "fusion_lat": 0.0, "is_reserved": 0, "lat": 38.96612416666667, "name": "f840d4a1eff37dbb476103328387ec0f", "bike_id": "f840d4a1eff37dbb476103328387ec0f", "is_disabled": 0, "fusion_lon": 0.0, "type": "electric_scooter", "lon": -77.02326066666667}, {"rental_uris": {"android": "https://dc.lft.to/lastmile_qr_scan", "ios": "https://dc.lft.to/lastmile_qr_scan"}, "fusion_lat": 0.0, "is_reserved": 0, "lat": 38.898557833333335, "name": "a26dc39e66dbb85b9b97044c01071955", "bike_id": "a26dc39e66dbb85b9b97044c01071955", "is_disabled": 0, "fusion_lon": 0.0, "type": "electric_scooter", "lon": -77.022215}, {"rental_uris": {"android": "https://dc.lft.to/lastmile_qr_scan", "ios": "https://dc.lft.to/lastmile_qr_scan"}, "fusion_lat": 0.0, "is_reserved": 0, "lat": 38.923185333333336, "name": "2eea5e46f17c612eabc3faf2962b5fea", "bike_id": "2eea5e46f17c612eabc3faf2962b5fea", "is_disabled": 0, "fusion_lon": 0.0, "type": "electric_scooter", "lon": -77.0211975}, {"rental_uris": {"android": "https://dc.lft.to/lastmile_qr_scan", "ios": "https://dc.lft.to/lastmile_qr_scan"}, "fusion_lat": 0.0, "is_reserved": 0, "lat": 38.936101, "name": "805f722eb2cefa1e49bd9580f2700122", "bike_id": "805f722eb2cefa1e49bd9580f2700122", "is_disabled": 0, "fusion_lon": 0.0, "type": "electric_scooter", "lon": -77.05586533333333}, {"rental_uris": {"android": "https://dc.lft.to/lastmile_qr_scan", "ios": "https://dc.lft.to/lastmile_qr_scan"}, "fusion_lat": 0.0, "is_reserved": 0, "lat": 38.89485166666667, "name": "23c85ade13805d9444d42ca65e0dd90c", "bike_id": "23c85ade13805d9444d42ca65e0dd90c", "is_disabled": 0, "fusion_lon": 0.0, "type": "electric_scooter", "lon": -77.0194035}, {"rental_uris": {"android": "https://dc.lft.to/lastmile_qr_scan", "ios": "https://dc.lft.to/lastmile_qr_scan"}, "fusion_lat": 0.0, "is_reserved": 0, "lat": 38.901371833333336, "name": "6e48da954359d273f7e07157625e23a4", "bike_id": "6e48da954359d273f7e07157625e23a4", "is_disabled": 0, "fusion_lon": 0.0, "type": "electric_scooter", "lon": -77.02741916666666}, {"rental_uris": {"android": "https://dc.lft.to/lastmile_qr_scan", "ios": "https://dc.lft.to/lastmile_qr_scan"}, "fusion_lat": 0.0, "is_reserved": 0, "lat": 38.89252966666667, "name": "b4ce88ccc31b6d709c8c88017b537a93", "bike_id": "b4ce88ccc31b6d709c8c88017b537a93", "is_disabled": 0, "fusion_lon": 0.0, "type": "electric_scooter", "lon": -77.0280145}, {"rental_uris": {"android": "https://dc.lft.to/lastmile_qr_scan", "ios": "https://dc.lft.to/lastmile_qr_scan"}, "fusion_lat": 0.0, "is_reserved": 0, "lat": 38.88726883333333, "name": "e0a8a7260654b90ddaa0254710f33c2a", "bike_id": "e0a8a7260654b90ddaa0254710f33c2a", "is_disabled": 0, "fusion_lon": 0.0, "type": "electric_scooter", "lon": -76.98381666666667}, {"rental_uris": {"android": "https://dc.lft.to/lastmile_qr_scan", "ios": "https://dc.lft.to/lastmile_qr_scan"}, "fusion_lat": 0.0, "is_reserved": 0, "lat": 38.926065666666666, "name": "0b1f34b9c6969ce953cbe0fb738278ae", "bike_id": "0b1f34b9c6969ce953cbe0fb738278ae", "is_disabled": 0, "fusion_lon": 0.0, "type": "electric_scooter", "lon": -77.02161366666667}, {"rental_uris": {"android": "https://dc.lft.to/lastmile_qr_scan", "ios": "https://dc.lft.to/lastmile_qr_scan"}, "fusion_lat": 0.0, "is_reserved": 0, "lat": 38.9000615, "name": "6bfb335fd3ec4f96386e5a5591085792", "bike_id": "6bfb335fd3ec4f96386e5a5591085792", "is_disabled": 0, "fusion_lon": 0.0, "type": "electric_scooter", "lon": -77.00676983333334}, {"rental_uris": {"android": "https://dc.lft.to/lastmile_qr_scan", "ios": "https://dc.lft.to/lastmile_qr_scan"}, "fusion_lat": 0.0, "is_reserved": 0, "lat": 38.8792405, "name": "7c13c47b1c9a99f5f785e7aa10661b5c", "bike_id": "7c13c47b1c9a99f5f785e7aa10661b5c", "is_disabled": 0, "fusion_lon": 0.0, "type": "electric_scooter", "lon": -77.02156566666666}, {"rental_uris": {"android": "https://dc.lft.to/lastmile_qr_scan", "ios": "https://dc.lft.to/lastmile_qr_scan"}, "fusion_lat": 0.0, "is_reserved": 0, "lat": 38.9260045, "name": "505f6c2615ffcef61c2881603ff38916", "bike_id": "505f6c2615ffcef61c2881603ff38916", "is_disabled": 0, "fusion_lon": 0.0, "type": "electric_scooter", "lon": -77.021603}, {"rental_uris": {"android": "https://dc.lft.to/lastmile_qr_scan", "ios": "https://dc.lft.to/lastmile_qr_scan"}, "fusion_lat": 0.0, "is_reserved": 0, "lat": 38.916466, "name": "e468c739f352aa43987cf250bb9180c7", "bike_id": "e468c739f352aa43987cf250bb9180c7", "is_disabled": 0, "fusion_lon": 0.0, "type": "electric_scooter", "lon": -77.01029566666666}, {"rental_uris": {"android": "https://dc.lft.to/lastmile_qr_scan", "ios": "https://dc.lft.to/lastmile_qr_scan"}, "fusion_lat": 0.0, "is_reserved": 0, "lat": 38.90629583333333, "name": "02a614607cb295042d82c09723a2bf07", "bike_id": "02a614607cb295042d82c09723a2bf07", "is_disabled": 0, "fusion_lon": 0.0, "type": "electric_scooter", "lon": -77.04343616666667}, {"rental_uris": {"android": "https://dc.lft.to/lastmile_qr_scan", "ios": "https://dc.lft.to/lastmile_qr_scan"}, "fusion_lat": 0.0, "is_reserved": 0, "lat": 38.915467166666666, "name": "2af285f3ff6a69d3d74eb247953d8fd3", "bike_id": "2af285f3ff6a69d3d74eb247953d8fd3", "is_disabled": 0, "fusion_lon": 0.0, "type": "electric_scooter", "lon": -77.02201733333334}, {"rental_uris": {"android": "https://dc.lft.to/lastmile_qr_scan", "ios": "https://dc.lft.to/lastmile_qr_scan"}, "fusion_lat": 0.0, "is_reserved": 0, "lat": 38.9056, "name": "f471fa5d8e44bd2824c83184a8edd0f9", "bike_id": "f471fa5d8e44bd2824c83184a8edd0f9", "is_disabled": 0, "fusion_lon": 0.0, "type": "electric_scooter", "lon": -77.00587716666666}, {"rental_uris": {"android": "https://dc.lft.to/lastmile_qr_scan", "ios": "https://dc.lft.to/lastmile_qr_scan"}, "fusion_lat": 0.0, "is_reserved": 0, "lat": 38.8999245, "name": "5135d114bae48ae0fe8fbaac678b718e", "bike_id": "5135d114bae48ae0fe8fbaac678b718e", "is_disabled": 0, "fusion_lon": 0.0, "type": "electric_scooter", "lon": -77.0007165}, {"rental_uris": {"android": "https://dc.lft.to/lastmile_qr_scan", "ios": "https://dc.lft.to/lastmile_qr_scan"}, "fusion_lat": 0.0, "is_reserved": 0, "lat": 38.912445166666664, "name": "3e69c081461992374e9434fdfe40b9ad", "bike_id": "3e69c081461992374e9434fdfe40b9ad", "is_disabled": 0, "fusion_lon": 0.0, "type": "electric_scooter", "lon": -77.03211683333333}, {"rental_uris": {"android": "https://dc.lft.to/lastmile_qr_scan", "ios": "https://dc.lft.to/lastmile_qr_scan"}, "fusion_lat": 0.0, "is_reserved": 0, "lat": 38.907425, "name": "82a1dc36cc832a63ce2ac2886ee258f1", "bike_id": "82a1dc36cc832a63ce2ac2886ee258f1", "is_disabled": 0, "fusion_lon": 0.0, "type": "electric_scooter", "lon": -77.00268433333333}, {"rental_uris": {"android": "https://dc.lft.to/lastmile_qr_scan", "ios": "https://dc.lft.to/lastmile_qr_scan"}, "fusion_lat": 0.0, "is_reserved": 0, "lat": 38.909016666666666, "name": "467c7ac988e787fd7b4c4d3ca6d45e3c", "bike_id": "467c7ac988e787fd7b4c4d3ca6d45e3c", "is_disabled": 0, "fusion_lon": 0.0, "type": "electric_scooter", "lon": -76.99121316666667}, {"rental_uris": {"android": "https://dc.lft.to/lastmile_qr_scan", "ios": "https://dc.lft.to/lastmile_qr_scan"}, "fusion_lat": 0.0, "is_reserved": 0, "lat": 38.90246666666667, "name": "89747d704b312a9fda639881b9a14363", "bike_id": "89747d704b312a9fda639881b9a14363", "is_disabled": 0, "fusion_lon": 0.0, "type": "electric_scooter", "lon": -77.00188866666667}, {"rental_uris": {"android": "https://dc.lft.to/lastmile_qr_scan", "ios": "https://dc.lft.to/lastmile_qr_scan"}, "fusion_lat": 0.0, "is_reserved": 0, "lat": 38.8961455, "name": "00324fcbb072e986642831d5edbf0328", "bike_id": "00324fcbb072e986642831d5edbf0328", "is_disabled": 0, "fusion_lon": 0.0, "type": "electric_scooter", "lon": -76.97689916666667}, {"rental_uris": {"android": "https://dc.lft.to/lastmile_qr_scan", "ios": "https://dc.lft.to/lastmile_qr_scan"}, "fusion_lat": 0.0, "is_reserved": 0, "lat": 38.88396633333333, "name": "bd2f68ce6ae9ce5108fab5a12fbef2e1", "bike_id": "bd2f68ce6ae9ce5108fab5a12fbef2e1", "is_disabled": 0, "fusion_lon": 0.0, "type": "electric_scooter", "lon": -76.93049316666666}, {"rental_uris": {"android": "https://dc.lft.to/lastmile_qr_scan", "ios": "https://dc.lft.to/lastmile_qr_scan"}, "fusion_lat": 0.0, "is_reserved": 0, "lat": 38.89272116666667, "name": "214efb0c1340b08b64b50fb8bafe0b8f", "bike_id": "214efb0c1340b08b64b50fb8bafe0b8f", "is_disabled": 0, "fusion_lon": 0.0, "type": "electric_scooter", "lon": -76.930015}, {"rental_uris": {"android": "https://dc.lft.to/lastmile_qr_scan", "ios": "https://dc.lft.to/lastmile_qr_scan"}, "fusion_lat": 0.0, "is_reserved": 0, "lat": 38.90012016666667, "name": "5e5e1c0b651a39651fcb6f36744d5a56", "bike_id": "5e5e1c0b651a39651fcb6f36744d5a56", "is_disabled": 0, "fusion_lon": 0.0, "type": "electric_scooter", "lon": -76.93025033333333}, {"rental_uris": {"android": "https://dc.lft.to/lastmile_qr_scan", "ios": "https://dc.lft.to/lastmile_qr_scan"}, "fusion_lat": 0.0, "is_reserved": 0, "lat": 38.929295, "name": "c28edd7428b3106f4f8dfc6348a39ece", "bike_id": "c28edd7428b3106f4f8dfc6348a39ece", "is_disabled": 0, "fusion_lon": 0.0, "type": "electric_scooter", "lon": -77.0296305}, {"rental_uris": {"android": "https://dc.lft.to/lastmile_qr_scan", "ios": "https://dc.lft.to/lastmile_qr_scan"}, "fusion_lat": 0.0, "is_reserved": 0, "lat": 38.905700333333336, "name": "23961899089254fea3fa9ac645bdb976", "bike_id": "23961899089254fea3fa9ac645bdb976", "is_disabled": 0, "fusion_lon": 0.0, "type": "electric_scooter", "lon": -77.04238666666667}, {"rental_uris": {"android": "https://dc.lft.to/lastmile_qr_scan", "ios": "https://dc.lft.to/lastmile_qr_scan"}, "fusion_lat": 0.0, "is_reserved": 0, "lat": 38.8973195, "name": "0fbe8c3b58afc384b1f5fc60ede0c52e", "bike_id": "0fbe8c3b58afc384b1f5fc60ede0c52e", "is_disabled": 0, "fusion_lon": 0.0, "type": "electric_bike", "lon": -77.02235433333334}, {"rental_uris": {"android": "https://dc.lft.to/lastmile_qr_scan", "ios": "https://dc.lft.to/lastmile_qr_scan"}, "fusion_lat": 0.0, "is_reserved": 0, "lat": 38.8853855, "name": "b12a4cb8d0c297ac19b6b8f4eae17277", "bike_id": "b12a4cb8d0c297ac19b6b8f4eae17277", "is_disabled": 0, "fusion_lon": 0.0, "type": "electric_scooter", "lon": -77.02189666666666}, {"rental_uris": {"android": "https://dc.lft.to/lastmile_qr_scan", "ios": "https://dc.lft.to/lastmile_qr_scan"}, "fusion_lat": 0.0, "is_reserved": 0, "lat": 38.874970833333336, "name": "0e1c82320214aa79af890cc4b0eadf18", "bike_id": "0e1c82320214aa79af890cc4b0eadf18", "is_disabled": 0, "fusion_lon": 0.0, "type": "electric_scooter", "lon": -76.9997965}, {"rental_uris": {"android": "https://dc.lft.to/lastmile_qr_scan", "ios": "https://dc.lft.to/lastmile_qr_scan"}, "fusion_lat": 0.0, "is_reserved": 0, "lat": 38.904317, "name": "c995ab7b3f074be614cc64d123a796f3", "bike_id": "c995ab7b3f074be614cc64d123a796f3", "is_disabled": 0, "fusion_lon": 0.0, "type": "electric_scooter", "lon": -77.02592183333333}, {"rental_uris": {"android": "https://dc.lft.to/lastmile_qr_scan", "ios": "https://dc.lft.to/lastmile_qr_scan"}, "fusion_lat": 0.0, "is_reserved": 0, "lat": 38.909095666666666, "name": "2fd8794133b01bd0a118b0597c83976b", "bike_id": "2fd8794133b01bd0a118b0597c83976b", "is_disabled": 0, "fusion_lon": 0.0, "type": "electric_scooter", "lon": -77.03106916666667}, {"rental_uris": {"android": "https://dc.lft.to/lastmile_qr_scan", "ios": "https://dc.lft.to/lastmile_qr_scan"}, "fusion_lat": 0.0, "is_reserved": 0, "lat": 38.934586333333336, "name": "88e6319fa71264f38174df5037bc5231", "bike_id": "88e6319fa71264f38174df5037bc5231", "is_disabled": 0, "fusion_lon": 0.0, "type": "electric_scooter", "lon": -77.02736983333334}, {"rental_uris": {"android": "https://dc.lft.to/lastmile_qr_scan", "ios": "https://dc.lft.to/lastmile_qr_scan"}, "fusion_lat": 0.0, "is_reserved": 0, "lat": 38.8991355, "name": "73fee7af93c59c888cbbd863cecd2278", "bike_id": "73fee7af93c59c888cbbd863cecd2278", "is_disabled": 0, "fusion_lon": 0.0, "type": "electric_scooter", "lon": -76.93372316666667}, {"rental_uris": {"android": "https://dc.lft.to/lastmile_qr_scan", "ios": "https://dc.lft.to/lastmile_qr_scan"}, "fusion_lat": 0.0, "is_reserved": 0, "lat": 38.92356983333333, "name": "5dca7b76222a27e1d7b175615389ac29", "bike_id": "5dca7b76222a27e1d7b175615389ac29", "is_disabled": 0, "fusion_lon": 0.0, "type": "electric_bike", "lon": -77.035183}, {"rental_uris": {"android": "https://dc.lft.to/lastmile_qr_scan", "ios": "https://dc.lft.to/lastmile_qr_scan"}, "fusion_lat": 0.0, "is_reserved": 0, "lat": 38.9223095, "name": "0757badf8e9f1dcbf853dc8803bf328f", "bike_id": "0757badf8e9f1dcbf853dc8803bf328f", "is_disabled": 0, "fusion_lon": 0.0, "type": "electric_bike", "lon": -77.02333833333333}, {"rental_uris": {"android": "https://dc.lft.to/lastmile_qr_scan", "ios": "https://dc.lft.to/lastmile_qr_scan"}, "fusion_lat": 0.0, "is_reserved": 0, "lat": 38.913224, "name": "e41dcc36188d271bd8ead36f034eb59c", "bike_id": "e41dcc36188d271bd8ead36f034eb59c", "is_disabled": 0, "fusion_lon": 0.0, "type": "electric_scooter", "lon": -77.04730833333333}, {"rental_uris": {"android": "https://dc.lft.to/lastmile_qr_scan", "ios": "https://dc.lft.to/lastmile_qr_scan"}, "fusion_lat": 0.0, "is_reserved": 0, "lat": 38.92239766666667, "name": "851ec4af5c5d1849e4b9da68ca5e7233", "bike_id": "851ec4af5c5d1849e4b9da68ca5e7233", "is_disabled": 0, "fusion_lon": 0.0, "type": "electric_scooter", "lon": -77.0367295}, {"rental_uris": {"android": "https://dc.lft.to/lastmile_qr_scan", "ios": "https://dc.lft.to/lastmile_qr_scan"}, "fusion_lat": 0.0, "is_reserved": 0, "lat": 38.926848, "name": "0e9a17c335e31549982976a72e888bad", "bike_id": "0e9a17c335e31549982976a72e888bad", "is_disabled": 0, "fusion_lon": 0.0, "type": "electric_scooter", "lon": -77.02967983333333}, {"rental_uris": {"android": "https://dc.lft.to/lastmile_qr_scan", "ios": "https://dc.lft.to/lastmile_qr_scan"}, "fusion_lat": 0.0, "is_reserved": 0, "lat": 38.90461116666667, "name": "954f8286b0d48c719d23fd4bb35eb33e", "bike_id": "954f8286b0d48c719d23fd4bb35eb33e", "is_disabled": 0, "fusion_lon": 0.0, "type": "electric_scooter", "lon": -77.038489}, {"rental_uris": {"android": "https://dc.lft.to/lastmile_qr_scan", "ios": "https://dc.lft.to/lastmile_qr_scan"}, "fusion_lat": 0.0, "is_reserved": 0, "lat": 38.92056516666667, "name": "4c02864229e363bcc08191641f1333b4", "bike_id": "4c02864229e363bcc08191641f1333b4", "is_disabled": 0, "fusion_lon": 0.0, "type": "electric_scooter", "lon": -77.03470233333333}, {"rental_uris": {"android": "https://dc.lft.to/lastmile_qr_scan", "ios": "https://dc.lft.to/lastmile_qr_scan"}, "fusion_lat": 0.0, "is_reserved": 0, "lat": 38.8879445, "name": "36bfaa027c8eda6d95256a14632bfe17", "bike_id": "36bfaa027c8eda6d95256a14632bfe17", "is_disabled": 0, "fusion_lon": 0.0, "type": "electric_scooter", "lon": -76.97715516666666}, {"rental_uris": {"android": "https://dc.lft.to/lastmile_qr_scan", "ios": "https://dc.lft.to/lastmile_qr_scan"}, "fusion_lat": 0.0, "is_reserved": 0, "lat": 38.90481233333333, "name": "c2e509bf1a67feb341d3d66371e847e8", "bike_id": "c2e509bf1a67feb341d3d66371e847e8", "is_disabled": 0, "fusion_lon": 0.0, "type": "electric_scooter", "lon": -77.041853}, {"rental_uris": {"android": "https://dc.lft.to/lastmile_qr_scan", "ios": "https://dc.lft.to/lastmile_qr_scan"}, "fusion_lat": 0.0, "is_reserved": 0, "lat": 38.91962083333333, "name": "d8f8a3d87595f23a697f6fd68484eb16", "bike_id": "d8f8a3d87595f23a697f6fd68484eb16", "is_disabled": 0, "fusion_lon": 0.0, "type": "electric_scooter", "lon": -77.02349966666667}, {"rental_uris": {"android": "https://dc.lft.to/lastmile_qr_scan", "ios": "https://dc.lft.to/lastmile_qr_scan"}, "fusion_lat": 0.0, "is_reserved": 0, "lat": 38.906187, "name": "5b9d00e13b24799aefaa5c13e433b585", "bike_id": "5b9d00e13b24799aefaa5c13e433b585", "is_disabled": 0, "fusion_lon": 0.0, "type": "electric_scooter", "lon": -77.0505275}, {"rental_uris": {"android": "https://dc.lft.to/lastmile_qr_scan", "ios": "https://dc.lft.to/lastmile_qr_scan"}, "fusion_lat": 0.0, "is_reserved": 0, "lat": 38.872975833333335, "name": "35381fe70f8a98f92e6b368ce1dd2441", "bike_id": "35381fe70f8a98f92e6b368ce1dd2441", "is_disabled": 0, "fusion_lon": 0.0, "type": "electric_scooter", "lon": -77.015579}, {"rental_uris": {"android": "https://dc.lft.to/lastmile_qr_scan", "ios": "https://dc.lft.to/lastmile_qr_scan"}, "fusion_lat": 0.0, "is_reserved": 0, "lat": 38.882800833333334, "name": "873822742b4675bb61519070b4897634", "bike_id": "873822742b4675bb61519070b4897634", "is_disabled": 0, "fusion_lon": 0.0, "type": "electric_bike", "lon": -77.11184066666667}, {"rental_uris": {"android": "https://dc.lft.to/lastmile_qr_scan", "ios": "https://dc.lft.to/lastmile_qr_scan"}, "fusion_lat": 0.0, "is_reserved": 0, "lat": 38.93735083333333, "name": "e6039f0b1e5790788270d0dc344865ef", "bike_id": "e6039f0b1e5790788270d0dc344865ef", "is_disabled": 0, "fusion_lon": 0.0, "type": "electric_scooter", "lon": -77.08500283333333}, {"rental_uris": {"android": "https://dc.lft.to/lastmile_qr_scan", "ios": "https://dc.lft.to/lastmile_qr_scan"}, "fusion_lat": 0.0, "is_reserved": 0, "lat": 38.9242235, "name": "960ffb1ea34d5dc25b59e01a11b5e084", "bike_id": "960ffb1ea34d5dc25b59e01a11b5e084", "is_disabled": 0, "fusion_lon": 0.0, "type": "electric_scooter", "lon": -77.01950416666666}, {"rental_uris": {"android": "https://dc.lft.to/lastmile_qr_scan", "ios": "https://dc.lft.to/lastmile_qr_scan"}, "fusion_lat": 0.0, "is_reserved": 0, "lat": 38.902457166666665, "name": "6cbcad7c6b199afd69bb770902d07612", "bike_id": "6cbcad7c6b199afd69bb770902d07612", "is_disabled": 0, "fusion_lon": 0.0, "type": "electric_scooter", "lon": -77.03347033333333}, {"rental_uris": {"android": "https://dc.lft.to/lastmile_qr_scan", "ios": "https://dc.lft.to/lastmile_qr_scan"}, "fusion_lat": 0.0, "is_reserved": 0, "lat": 38.905872, "name": "78d6559a1e8b5bbafd3d2aad36ce3eeb", "bike_id": "78d6559a1e8b5bbafd3d2aad36ce3eeb", "is_disabled": 0, "fusion_lon": 0.0, "type": "electric_scooter", "lon": -77.01612916666667}, {"rental_uris": {"android": "https://dc.lft.to/lastmile_qr_scan", "ios": "https://dc.lft.to/lastmile_qr_scan"}, "fusion_lat": 0.0, "is_reserved": 0, "lat": 38.89750983333333, "name": "e5d1767c3e7dde07d28f4732f3cfe237", "bike_id": "e5d1767c3e7dde07d28f4732f3cfe237", "is_disabled": 0, "fusion_lon": 0.0, "type": "electric_scooter", "lon": -76.97696516666667}, {"rental_uris": {"android": "https://dc.lft.to/lastmile_qr_scan", "ios": "https://dc.lft.to/lastmile_qr_scan"}, "fusion_lat": 0.0, "is_reserved": 0, "lat": 38.929026666666665, "name": "862f0518faece943f656be5528fa8534", "bike_id": "862f0518faece943f656be5528fa8534", "is_disabled": 0, "fusion_lon": 0.0, "type": "electric_scooter", "lon": -77.01656666666666}, {"rental_uris": {"android": "https://dc.lft.to/lastmile_qr_scan", "ios": "https://dc.lft.to/lastmile_qr_scan"}, "fusion_lat": 0.0, "is_reserved": 0, "lat": 38.90422133333333, "name": "6fc25afa047b77dd3139bb0993c8137c", "bike_id": "6fc25afa047b77dd3139bb0993c8137c", "is_disabled": 0, "fusion_lon": 0.0, "type": "electric_scooter", "lon": -77.02591266666667}, {"rental_uris": {"android": "https://dc.lft.to/lastmile_qr_scan", "ios": "https://dc.lft.to/lastmile_qr_scan"}, "fusion_lat": 0.0, "is_reserved": 0, "lat": 38.903741, "name": "e7df24e52ffaebb81c32951fb21c0b78", "bike_id": "e7df24e52ffaebb81c32951fb21c0b78", "is_disabled": 0, "fusion_lon": 0.0, "type": "electric_scooter", "lon": -77.0479905}, {"rental_uris": {"android": "https://dc.lft.to/lastmile_qr_scan", "ios": "https://dc.lft.to/lastmile_qr_scan"}, "fusion_lat": 0.0, "is_reserved": 0, "lat": 38.907342, "name": "6e2efc30ce06b805cf87771445f5e297", "bike_id": "6e2efc30ce06b805cf87771445f5e297", "is_disabled": 0, "fusion_lon": 0.0, "type": "electric_scooter", "lon": -77.04169583333334}, {"rental_uris": {"android": "https://dc.lft.to/lastmile_qr_scan", "ios": "https://dc.lft.to/lastmile_qr_scan"}, "fusion_lat": 0.0, "is_reserved": 0, "lat": 38.94317866666667, "name": "1ce9488d4bb122b4a2b1ffee54bfb807", "bike_id": "1ce9488d4bb122b4a2b1ffee54bfb807", "is_disabled": 0, "fusion_lon": 0.0, "type": "electric_bike", "lon": -76.9901695}, {"rental_uris": {"android": "https://dc.lft.to/lastmile_qr_scan", "ios": "https://dc.lft.to/lastmile_qr_scan"}, "fusion_lat": 0.0, "is_reserved": 0, "lat": 38.89224266666667, "name": "2f070e20b34059eca0479e6da3b39934", "bike_id": "2f070e20b34059eca0479e6da3b39934", "is_disabled": 0, "fusion_lon": 0.0, "type": "electric_scooter", "lon": -77.03188816666666}, {"rental_uris": {"android": "https://dc.lft.to/lastmile_qr_scan", "ios": "https://dc.lft.to/lastmile_qr_scan"}, "fusion_lat": 0.0, "is_reserved": 0, "lat": 38.923628, "name": "5710ffa5f41e7daef5f968ee2684b19a", "bike_id": "5710ffa5f41e7daef5f968ee2684b19a", "is_disabled": 0, "fusion_lon": 0.0, "type": "electric_scooter", "lon": -77.050316}, {"rental_uris": {"android": "https://dc.lft.to/lastmile_qr_scan", "ios": "https://dc.lft.to/lastmile_qr_scan"}, "fusion_lat": 0.0, "is_reserved": 0, "lat": 38.8830135, "name": "ee434b592e88ad6344c5b2eda8ae1ee7", "bike_id": "ee434b592e88ad6344c5b2eda8ae1ee7", "is_disabled": 0, "fusion_lon": 0.0, "type": "electric_scooter", "lon": -77.00360566666667}, {"rental_uris": {"android": "https://dc.lft.to/lastmile_qr_scan", "ios": "https://dc.lft.to/lastmile_qr_scan"}, "fusion_lat": 0.0, "is_reserved": 0, "lat": 38.898635166666665, "name": "c292087b477bc111b4d575452fc05299", "bike_id": "c292087b477bc111b4d575452fc05299", "is_disabled": 0, "fusion_lon": 0.0, "type": "electric_scooter", "lon": -77.04893116666666}, {"rental_uris": {"android": "https://dc.lft.to/lastmile_qr_scan", "ios": "https://dc.lft.to/lastmile_qr_scan"}, "fusion_lat": 0.0, "is_reserved": 0, "lat": 38.856003333333334, "name": "9375fab5f18f9dc0b064f1436aa757b5", "bike_id": "9375fab5f18f9dc0b064f1436aa757b5", "is_disabled": 0, "fusion_lon": 0.0, "type": "electric_bike", "lon": -76.97456016666666}, {"rental_uris": {"android": "https://dc.lft.to/lastmile_qr_scan", "ios": "https://dc.lft.to/lastmile_qr_scan"}, "fusion_lat": 0.0, "is_reserved": 0, "lat": 38.9125875, "name": "93fbd5a34865675a83ad957a460edc7e", "bike_id": "93fbd5a34865675a83ad957a460edc7e", "is_disabled": 0, "fusion_lon": 0.0, "type": "electric_scooter", "lon": -77.04554566666667}, {"rental_uris": {"android": "https://dc.lft.to/lastmile_qr_scan", "ios": "https://dc.lft.to/lastmile_qr_scan"}, "fusion_lat": 0.0, "is_reserved": 0, "lat": 38.9339895, "name": "46e2be2c5487ae7bdadb99574e2b3703", "bike_id": "46e2be2c5487ae7bdadb99574e2b3703", "is_disabled": 0, "fusion_lon": 0.0, "type": "electric_scooter", "lon": -77.05744616666667}, {"rental_uris": {"android": "https://dc.lft.to/lastmile_qr_scan", "ios": "https://dc.lft.to/lastmile_qr_scan"}, "fusion_lat": 0.0, "is_reserved": 0, "lat": 38.80668633333333, "name": "511e1527fff7174d001b29087f2bad02", "bike_id": "511e1527fff7174d001b29087f2bad02", "is_disabled": 0, "fusion_lon": 0.0, "type": "electric_bike", "lon": -77.08756933333333}, {"rental_uris": {"android": "https://dc.lft.to/lastmile_qr_scan", "ios": "https://dc.lft.to/lastmile_qr_scan"}, "fusion_lat": 0.0, "is_reserved": 0, "lat": 38.9133935, "name": "bf24b2c1990ca64526a45e022afbd52a", "bike_id": "bf24b2c1990ca64526a45e022afbd52a", "is_disabled": 0, "fusion_lon": 0.0, "type": "electric_scooter", "lon": -77.03210183333333}, {"rental_uris": {"android": "https://dc.lft.to/lastmile_qr_scan", "ios": "https://dc.lft.to/lastmile_qr_scan"}, "fusion_lat": 0.0, "is_reserved": 0, "lat": 38.960277166666664, "name": "eca73dacc2370d2b9eb90f0fdd9a8692", "bike_id": "eca73dacc2370d2b9eb90f0fdd9a8692", "is_disabled": 0, "fusion_lon": 0.0, "type": "electric_scooter", "lon": -77.02425166666667}, {"rental_uris": {"android": "https://dc.lft.to/lastmile_qr_scan", "ios": "https://dc.lft.to/lastmile_qr_scan"}, "fusion_lat": 0.0, "is_reserved": 0, "lat": 38.9003935, "name": "128b90f0b6f99673804af1996bb668d7", "bike_id": "128b90f0b6f99673804af1996bb668d7", "is_disabled": 0, "fusion_lon": 0.0, "type": "electric_scooter", "lon": -77.04354333333333}, {"rental_uris": {"android": "https://dc.lft.to/lastmile_qr_scan", "ios": "https://dc.lft.to/lastmile_qr_scan"}, "fusion_lat": 0.0, "is_reserved": 0, "lat": 38.9389265, "name": "ed68ce5024a302738df01220a953766e", "bike_id": "ed68ce5024a302738df01220a953766e", "is_disabled": 0, "fusion_lon": 0.0, "type": "electric_scooter", "lon": -77.01766433333333}, {"rental_uris": {"android": "https://dc.lft.to/lastmile_qr_scan", "ios": "https://dc.lft.to/lastmile_qr_scan"}, "fusion_lat": 0.0, "is_reserved": 0, "lat": 38.93595466666667, "name": "ac171e5e2890f08f7f3d79a2db28b066", "bike_id": "ac171e5e2890f08f7f3d79a2db28b066", "is_disabled": 0, "fusion_lon": 0.0, "type": "electric_scooter", "lon": -77.03371933333334}, {"rental_uris": {"android": "https://dc.lft.to/lastmile_qr_scan", "ios": "https://dc.lft.to/lastmile_qr_scan"}, "fusion_lat": 0.0, "is_reserved": 0, "lat": 38.91913433333333, "name": "74fdfd8d4ce163c7e1e605303fafed8b", "bike_id": "74fdfd8d4ce163c7e1e605303fafed8b", "is_disabled": 0, "fusion_lon": 0.0, "type": "electric_scooter", "lon": -77.02400116666666}, {"rental_uris": {"android": "https://dc.lft.to/lastmile_qr_scan", "ios": "https://dc.lft.to/lastmile_qr_scan"}, "fusion_lat": 0.0, "is_reserved": 0, "lat": 38.90034466666667, "name": "bb1c7a789af7c3042b1039335397d9aa", "bike_id": "bb1c7a789af7c3042b1039335397d9aa", "is_disabled": 0, "fusion_lon": 0.0, "type": "electric_scooter", "lon": -76.98833916666666}, {"rental_uris": {"android": "https://dc.lft.to/lastmile_qr_scan", "ios": "https://dc.lft.to/lastmile_qr_scan"}, "fusion_lat": 0.0, "is_reserved": 0, "lat": 38.90425483333333, "name": "d47c1b139de1cd3507b761a8794d99f1", "bike_id": "d47c1b139de1cd3507b761a8794d99f1", "is_disabled": 0, "fusion_lon": 0.0, "type": "electric_scooter", "lon": -77.02593666666667}, {"rental_uris": {"android": "https://dc.lft.to/lastmile_qr_scan", "ios": "https://dc.lft.to/lastmile_qr_scan"}, "fusion_lat": 0.0, "is_reserved": 0, "lat": 38.89960216666667, "name": "10f479910d300afb5f1aa5a7a41a1f15", "bike_id": "10f479910d300afb5f1aa5a7a41a1f15", "is_disabled": 0, "fusion_lon": 0.0, "type": "electric_bike", "lon": -76.98675016666667}, {"rental_uris": {"android": "https://dc.lft.to/lastmile_qr_scan", "ios": "https://dc.lft.to/lastmile_qr_scan"}, "fusion_lat": 0.0, "is_reserved": 0, "lat": 38.921719833333334, "name": "01aa69c0c7d801a40d84947f7e876b89", "bike_id": "01aa69c0c7d801a40d84947f7e876b89", "is_disabled": 0, "fusion_lon": 0.0, "type": "electric_scooter", "lon": -77.0266705}, {"rental_uris": {"android": "https://dc.lft.to/lastmile_qr_scan", "ios": "https://dc.lft.to/lastmile_qr_scan"}, "fusion_lat": 0.0, "is_reserved": 0, "lat": 38.893537333333335, "name": "a83a835d32a987f79d0023e51f5453d7", "bike_id": "a83a835d32a987f79d0023e51f5453d7", "is_disabled": 0, "fusion_lon": 0.0, "type": "electric_scooter", "lon": -77.017473}, {"rental_uris": {"android": "https://dc.lft.to/lastmile_qr_scan", "ios": "https://dc.lft.to/lastmile_qr_scan"}, "fusion_lat": 0.0, "is_reserved": 0, "lat": 38.926091, "name": "bf68284560ca6ac003a764b54531eff0", "bike_id": "bf68284560ca6ac003a764b54531eff0", "is_disabled": 0, "fusion_lon": 0.0, "type": "electric_scooter", "lon": -77.02161833333334}, {"rental_uris": {"android": "https://dc.lft.to/lastmile_qr_scan", "ios": "https://dc.lft.to/lastmile_qr_scan"}, "fusion_lat": 0.0, "is_reserved": 0, "lat": 38.930141, "name": "a57a8c097db59dafb4345b86c37960e5", "bike_id": "a57a8c097db59dafb4345b86c37960e5", "is_disabled": 0, "fusion_lon": 0.0, "type": "electric_scooter", "lon": -77.03659483333334}, {"rental_uris": {"android": "https://dc.lft.to/lastmile_qr_scan", "ios": "https://dc.lft.to/lastmile_qr_scan"}, "fusion_lat": 0.0, "is_reserved": 0, "lat": 38.8948325, "name": "0c678b2a4f552acf0b74c2e0e8c6e4da", "bike_id": "0c678b2a4f552acf0b74c2e0e8c6e4da", "is_disabled": 0, "fusion_lon": 0.0, "type": "electric_scooter", "lon": -76.99575533333334}, {"rental_uris": {"android": "https://dc.lft.to/lastmile_qr_scan", "ios": "https://dc.lft.to/lastmile_qr_scan"}, "fusion_lat": 0.0, "is_reserved": 0, "lat": 38.900056, "name": "ecbb1225a054e1fd470605ce24e4034d", "bike_id": "ecbb1225a054e1fd470605ce24e4034d", "is_disabled": 0, "fusion_lon": 0.0, "type": "electric_scooter", "lon": -77.03377983333333}, {"rental_uris": {"android": "https://dc.lft.to/lastmile_qr_scan", "ios": "https://dc.lft.to/lastmile_qr_scan"}, "fusion_lat": 0.0, "is_reserved": 0, "lat": 38.86487, "name": "b953682ea4d8639ffd8afdc398d16f78", "bike_id": "b953682ea4d8639ffd8afdc398d16f78", "is_disabled": 0, "fusion_lon": 0.0, "type": "electric_scooter", "lon": -76.97752016666666}, {"rental_uris": {"android": "https://dc.lft.to/lastmile_qr_scan", "ios": "https://dc.lft.to/lastmile_qr_scan"}, "fusion_lat": 0.0, "is_reserved": 0, "lat": 38.9285695, "name": "416ca6bf5f469b854f81b24dde5087b2", "bike_id": "416ca6bf5f469b854f81b24dde5087b2", "is_disabled": 0, "fusion_lon": 0.0, "type": "electric_scooter", "lon": -77.0342245}, {"rental_uris": {"android": "https://dc.lft.to/lastmile_qr_scan", "ios": "https://dc.lft.to/lastmile_qr_scan"}, "fusion_lat": 0.0, "is_reserved": 0, "lat": 38.900907333333336, "name": "0efacfe99c7fa2d99886bad6f4664c4b", "bike_id": "0efacfe99c7fa2d99886bad6f4664c4b", "is_disabled": 0, "fusion_lon": 0.0, "type": "electric_scooter", "lon": -77.024884}, {"rental_uris": {"android": "https://dc.lft.to/lastmile_qr_scan", "ios": "https://dc.lft.to/lastmile_qr_scan"}, "fusion_lat": 0.0, "is_reserved": 0, "lat": 38.897654, "name": "400ec52a7461fec5cace06ae77407fc2", "bike_id": "400ec52a7461fec5cace06ae77407fc2", "is_disabled": 0, "fusion_lon": 0.0, "type": "electric_scooter", "lon": -77.02692566666667}, {"rental_uris": {"android": "https://dc.lft.to/lastmile_qr_scan", "ios": "https://dc.lft.to/lastmile_qr_scan"}, "fusion_lat": 0.0, "is_reserved": 0, "lat": 38.91269033333333, "name": "ef217b86b1e8e79611edc5ea130e4596", "bike_id": "ef217b86b1e8e79611edc5ea130e4596", "is_disabled": 0, "fusion_lon": 0.0, "type": "electric_scooter", "lon": -77.02211383333334}, {"rental_uris": {"android": "https://dc.lft.to/lastmile_qr_scan", "ios": "https://dc.lft.to/lastmile_qr_scan"},