{"data": {"bikes": [{"lat": 38.914054166666666, "fusion_lat": 0.0, "type": "electric_scooter", "bike_id": "58eba858af6cb37811bc9e5df72a45d2", "rental_uris": {"ios": "https://dc.lft.to/lastmile_qr_scan", "android": "https://dc.lft.to/lastmile_qr_scan"}, "fusion_lon": 0.0, "lon": -77.03218316666667, "name": "58eba858af6cb37811bc9e5df72a45d2", "is_reserved": 0, "is_disabled": 0}, {"lat": 38.9248005, "fusion_lat": 0.0, "type": "electric_scooter", "bike_id": "e50bc61e82fae3a4b2ee641c5a8a05ef", "rental_uris": {"ios": "https://dc.lft.to/lastmile_qr_scan", "android": "https://dc.lft.to/lastmile_qr_scan"}, "fusion_lon": 0.0, "lon": -77.03910466666666, "name": "e50bc61e82fae3a4b2ee641c5a8a05ef", "is_reserved": 0, "is_disabled": 0}, {"lat": 38.87739966666667, "fusion_lat": 0.0, "type": "electric_scooter", "bike_id": "0f6dab58325e5c92dedd3687f685175f", "rental_uris": {"ios": "https://dc.lft.to/lastmile_qr_scan", "android": "https://dc.lft.to/lastmile_qr_scan"}, "fusion_lon": 0.0, "lon": -76.99486266666666, "name": "0f6dab58325e5c92dedd3687f685175f", "is_reserved": 0, "is_disabled": 0}, {"lat": 38.91857, "fusion_lat": 0.0, "type": "electric_scooter", "bike_id": "6e9af9265ee300477444d297bc934a42", "rental_uris": {"ios": "https://dc.lft.to/lastmile_qr_scan", "android": "https://dc.lft.to/lastmile_qr_scan"}, "fusion_lon": 0.0, "lon": -77.01352283333334, "name": "6e9af9265ee300477444d297bc934a42", "is_reserved": 0, "is_disabled": 0}, {"lat": 38.903537166666666, "fusion_lat": 0.0, "type": "electric_scooter", "bike_id": "3c962a8a2319254db013f53e10e77523", "rental_uris": {"ios": "https://dc.lft.to/lastmile_qr_scan", "android": "https://dc.lft.to/lastmile_qr_scan"}, "fusion_lon": 0.0, "lon": -77.02201833333334, "name": "3c962a8a2319254db013f53e10e77523", "is_reserved": 0, "is_disabled": 0}, {"lat": 38.941916666666664, "fusion_lat": 0.0, "type": "electric_scooter", "bike_id": "d1475060faf302d77fdf033d47cb3208", "rental_uris": {"ios": "https://dc.lft.to/lastmile_qr_scan", "android": "https://dc.lft.to/lastmile_qr_scan"}, "fusion_lon": 0.0, "lon": -77.02482133333334, "name": "d1475060faf302d77fdf033d47cb3208", "is_reserved": 0, "is_disabled": 0}, {"lat": 38.92334233333333, "fusion_lat": 0.0, "type": "electric_scooter", "bike_id": "2517c49d4b8c7061064bc693e1ce5a31", "rental_uris": {"ios": "https://dc.lft.to/lastmile_qr_scan", "android": "https://dc.lft.to/lastmile_qr_scan"}, "fusion_lon": 0.0, "lon": -77.0352945, "name": "2517c49d4b8c7061064bc693e1ce5a31", "is_reserved": 0, "is_disabled": 0}, {"lat": 38.907730666666666, "fusion_lat": 0.0, "type": "electric_scooter", "bike_id": "6bffe35567ac8cb053ef47c6dbeb446a", "rental_uris": {"ios": "https://dc.lft.to/lastmile_qr_scan", "android": "https://dc.lft.to/lastmile_qr_scan"}, "fusion_lon": 0.0, "lon": -77.03856366666666, "name": "6bffe35567ac8cb053ef47c6dbeb446a", "is_reserved": 0, "is_disabled": 0}, {"lat": 38.918003666666664, "fusion_lat": 0.0, "type": "electric_scooter", "bike_id": "3a94e210e926be4841416a61af248865", "rental_uris": {"ios": "https://dc.lft.to/lastmile_qr_scan", "android": "https://dc.lft.to/lastmile_qr_scan"}, "fusion_lon": 0.0, "lon": -77.03443066666667, "name": "3a94e210e926be4841416a61af248865", "is_reserved": 0, "is_disabled": 0}, {"lat": 38.91996616666667, "fusion_lat": 0.0, "type": "electric_scooter", "bike_id": "e819302cf9a80ea6b1f1dcdd9a956450", "rental_uris": {"ios": "https://dc.lft.to/lastmile_qr_scan", "android": "https://dc.lft.to/lastmile_qr_scan"}, "fusion_lon": 0.0, "lon": -77.04764133333333, "name": "e819302cf9a80ea6b1f1dcdd9a956450", "is_reserved": 0, "is_disabled": 0}, {"lat": 38.9072815, "fusion_lat": 0.0, "type": "electric_scooter", "bike_id": "5cc5f6a7b81af41cd451fc995f4758d3", "rental_uris": {"ios": "https://dc.lft.to/lastmile_qr_scan", "android": "https://dc.lft.to/lastmile_qr_scan"}, "fusion_lon": 0.0, "lon": -77.04495883333334, "name": "5cc5f6a7b81af41cd451fc995f4758d3", "is_reserved": 0, "is_disabled": 0}, {"lat": 38.91694916666667, "fusion_lat": 0.0, "type": "electric_scooter", "bike_id": "945a51804fac63674fa7ba7f726a98da", "rental_uris": {"ios": "https://dc.lft.to/lastmile_qr_scan", "android": "https://dc.lft.to/lastmile_qr_scan"}, "fusion_lon": 0.0, "lon": -77.02437216666667, "name": "945a51804fac63674fa7ba7f726a98da", "is_reserved": 0, "is_disabled": 0}, {"lat": 38.89045866666667, "fusion_lat": 0.0, "type": "electric_scooter", "bike_id": "6884e3994c5be5265871b7b1b7952630", "rental_uris": {"ios": "https://dc.lft.to/lastmile_qr_scan", "android": "https://dc.lft.to/lastmile_qr_scan"}, "fusion_lon": 0.0, "lon": -76.93750966666667, "name": "6884e3994c5be5265871b7b1b7952630", "is_reserved": 0, "is_disabled": 0}, {"lat": 38.99008366666666, "fusion_lat": 0.0, "type": "electric_bike", "bike_id": "f5c8708e697b90f638069cecc051048c", "rental_uris": {"ios": "https://dc.lft.to/lastmile_qr_scan", "android": "https://dc.lft.to/lastmile_qr_scan"}, "fusion_lon": 0.0, "lon": -77.00443033333333, "name": "f5c8708e697b90f638069cecc051048c", "is_reserved": 0, "is_disabled": 0}, {"lat": 38.86380833333333, "fusion_lat": 0.0, "type": "electric_scooter", "bike_id": "553235515425c6cbbda458f18b371eb0", "rental_uris": {"ios": "https://dc.lft.to/lastmile_qr_scan", "android": "https://dc.lft.to/lastmile_qr_scan"}, "fusion_lon": 0.0, "lon": -76.991262, "name": "553235515425c6cbbda458f18b371eb0", "is_reserved": 0, "is_disabled": 0}, {"lat": 38.9396575, "fusion_lat": 0.0, "type": "electric_scooter", "bike_id": "739fe72e49d388c301e6cff7c611053f", "rental_uris": {"ios": "https://dc.lft.to/lastmile_qr_scan", "android": "https://dc.lft.to/lastmile_qr_scan"}, "fusion_lon": 0.0, "lon": -77.03279633333334, "name": "739fe72e49d388c301e6cff7c611053f", "is_reserved": 0, "is_disabled": 0}, {"lat": 38.9245995, "fusion_lat": 0.0, "type": "electric_scooter", "bike_id": "96e2eae9d04d89cdba5202871e5e3f03", "rental_uris": {"ios": "https://dc.lft.to/lastmile_qr_scan", "android": "https://dc.lft.to/lastmile_qr_scan"}, "fusion_lon": 0.0, "lon": -77.02155783333333, "name": "96e2eae9d04d89cdba5202871e5e3f03", "is_reserved": 0, "is_disabled": 0}, {"lat": 38.91608466666667, "fusion_lat": 0.0, "type": "electric_scooter", "bike_id": "80fc7beddcbe5ffb3f44456de3961638", "rental_uris": {"ios": "https://dc.lft.to/lastmile_qr_scan", "android": "https://dc.lft.to/lastmile_qr_scan"}, "fusion_lon": 0.0, "lon": -77.041511, "name": "80fc7beddcbe5ffb3f44456de3961638", "is_reserved": 0, "is_disabled": 0}, {"lat": 38.892291166666666, "fusion_lat": 0.0, "type": "electric_scooter", "bike_id": "4c1b884518607093dc4d2607583729c2", "rental_uris": {"ios": "https://dc.lft.to/lastmile_qr_scan", "android": "https://dc.lft.to/lastmile_qr_scan"}, "fusion_lon": 0.0, "lon": -77.02799416666667, "name": "4c1b884518607093dc4d2607583729c2", "is_reserved": 0, "is_disabled": 0}, {"lat": 38.939733333333336, "fusion_lat": 0.0, "type": "electric_scooter", "bike_id": "9c6b896d1852fc4de4217bbbb013b5cb", "rental_uris": {"ios": "https://dc.lft.to/lastmile_qr_scan", "android": "https://dc.lft.to/lastmile_qr_scan"}, "fusion_lon": 0.0, "lon": -77.03288983333333, "name": "9c6b896d1852fc4de4217bbbb013b5cb", "is_reserved": 0, "is_disabled": 0}, {"lat": 38.9072445, "fusion_lat": 0.0, "type": "electric_scooter", "bike_id": "2165d169f51499b0bc6617bc9fa4f794", "rental_uris": {"ios": "https://dc.lft.to/lastmile_qr_scan", "android": "https://dc.lft.to/lastmile_qr_scan"}, "fusion_lon": 0.0, "lon": -77.035297, "name": "2165d169f51499b0bc6617bc9fa4f794", "is_reserved": 0, "is_disabled": 0}, {"lat": 38.920651, "fusion_lat": 0.0, "type": "electric_scooter", "bike_id": "89c3bffb227ff2a77d384e629e9f0d13", "rental_uris": {"ios": "https://dc.lft.to/lastmile_qr_scan", "android": "https://dc.lft.to/lastmile_qr_scan"}, "fusion_lon": 0.0, "lon": -77.02404466666667, "name": "89c3bffb227ff2a77d384e629e9f0d13", "is_reserved": 0, "is_disabled": 0}, {"lat": 38.9170845, "fusion_lat": 0.0, "type": "electric_scooter", "bike_id": "39a2e4a0879b82755e8e1da4612ae41f", "rental_uris": {"ios": "https://dc.lft.to/lastmile_qr_scan", "android": "https://dc.lft.to/lastmile_qr_scan"}, "fusion_lon": 0.0, "lon": -77.03790666666667, "name": "39a2e4a0879b82755e8e1da4612ae41f", "is_reserved": 0, "is_disabled": 0}, {"lat": 38.92176883333333, "fusion_lat": 0.0, "type": "electric_scooter", "bike_id": "d9df11f5719affda0860750cb54412a7", "rental_uris": {"ios": "https://dc.lft.to/lastmile_qr_scan", "android": "https://dc.lft.to/lastmile_qr_scan"}, "fusion_lon": 0.0, "lon": -77.03832583333333, "name": "d9df11f5719affda0860750cb54412a7", "is_reserved": 0, "is_disabled": 0}, {"lat": 38.8935375, "fusion_lat": 0.0, "type": "electric_scooter", "bike_id": "37eca095e5ac752b667630f1550d0be7", "rental_uris": {"ios": "https://dc.lft.to/lastmile_qr_scan", "android": "https://dc.lft.to/lastmile_qr_scan"}, "fusion_lon": 0.0, "lon": -76.9865505, "name": "37eca095e5ac752b667630f1550d0be7", "is_reserved": 0, "is_disabled": 0}, {"lat": 38.904083166666666, "fusion_lat": 0.0, "type": "electric_scooter", "bike_id": "9c05d2966c6bce4a87701832d638a5ad", "rental_uris": {"ios": "https://dc.lft.to/lastmile_qr_scan", "android": "https://dc.lft.to/lastmile_qr_scan"}, "fusion_lon": 0.0, "lon": -76.98105983333333, "name": "9c05d2966c6bce4a87701832d638a5ad", "is_reserved": 0, "is_disabled": 0}, {"lat": 38.88733383333334, "fusion_lat": 0.0, "type": "electric_scooter", "bike_id": "6701fe4edeb43eb06842d8ba2fb355cb", "rental_uris": {"ios": "https://dc.lft.to/lastmile_qr_scan", "android": "https://dc.lft.to/lastmile_qr_scan"}, "fusion_lon": 0.0, "lon": -77.02820133333333, "name": "6701fe4edeb43eb06842d8ba2fb355cb", "is_reserved": 0, "is_disabled": 0}, {"lat": 38.889572, "fusion_lat": 0.0, "type": "electric_scooter", "bike_id": "e792f0486c7d24a0d543d0b19c79c68b", "rental_uris": {"ios": "https://dc.lft.to/lastmile_qr_scan", "android": "https://dc.lft.to/lastmile_qr_scan"}, "fusion_lon": 0.0, "lon": -77.08562883333333, "name": "e792f0486c7d24a0d543d0b19c79c68b", "is_reserved": 0, "is_disabled": 0}, {"lat": 38.95803166666666, "fusion_lat": 0.0, "type": "electric_scooter", "bike_id": "8536488171e6496cb45bcdfb126a4db5", "rental_uris": {"ios": "https://dc.lft.to/lastmile_qr_scan", "android": "https://dc.lft.to/lastmile_qr_scan"}, "fusion_lon": 0.0, "lon": -77.01511716666667, "name": "8536488171e6496cb45bcdfb126a4db5", "is_reserved": 0, "is_disabled": 0}, {"lat": 38.916292, "fusion_lat": 0.0, "type": "electric_scooter", "bike_id": "c651bb5c51b47ab28c96824e72a5af4d", "rental_uris": {"ios": "https://dc.lft.to/lastmile_qr_scan", "android": "https://dc.lft.to/lastmile_qr_scan"}, "fusion_lon": 0.0, "lon": -77.05063783333334, "name": "c651bb5c51b47ab28c96824e72a5af4d", "is_reserved": 0, "is_disabled": 0}, {"lat": 38.8982675, "fusion_lat": 0.0, "type": "electric_scooter", "bike_id": "2bfdc92a29382dfecb200cd9351a0782", "rental_uris": {"ios": "https://dc.lft.to/lastmile_qr_scan", "android": "https://dc.lft.to/lastmile_qr_scan"}, "fusion_lon": 0.0, "lon": -76.9465485, "name": "2bfdc92a29382dfecb200cd9351a0782", "is_reserved": 0, "is_disabled": 0}, {"lat": 38.83796133333333, "fusion_lat": 0.0, "type": "electric_scooter", "bike_id": "21a22c83c92a9bc607d2256164dc3c7d", "rental_uris": {"ios": "https://dc.lft.to/lastmile_qr_scan", "android": "https://dc.lft.to/lastmile_qr_scan"}, "fusion_lon": 0.0, "lon": -77.00449816666666, "name": "21a22c83c92a9bc607d2256164dc3c7d", "is_reserved": 0, "is_disabled": 0}, {"lat": 38.9208, "fusion_lat": 0.0, "type": "electric_bike", "bike_id": "e1be0ca58f2144a1a2e45a6c4b09736f", "rental_uris": {"ios": "https://dc.lft.to/lastmile_qr_scan", "android": "https://dc.lft.to/lastmile_qr_scan"}, "fusion_lon": 0.0, "lon": -77.0747385, "name": "e1be0ca58f2144a1a2e45a6c4b09736f", "is_reserved": 0, "is_disabled": 0}, {"lat": 38.91819433333333, "fusion_lat": 0.0, "type": "electric_scooter", "bike_id": "ff9e0286c38e0ffb42daf7dc52f12d85", "rental_uris": {"ios": "https://dc.lft.to/lastmile_qr_scan", "android": "https://dc.lft.to/lastmile_qr_scan"}, "fusion_lon": 0.0, "lon": -77.035647, "name": "ff9e0286c38e0ffb42daf7dc52f12d85", "is_reserved": 0, "is_disabled": 0}, {"lat": 38.905629166666664, "fusion_lat": 0.0, "type": "electric_scooter", "bike_id": "2430593822e54b55a3f1c4b70576fe0a", "rental_uris": {"ios": "https://dc.lft.to/lastmile_qr_scan", "android": "https://dc.lft.to/lastmile_qr_scan"}, "fusion_lon": 0.0, "lon": -77.00714233333333, "name": "2430593822e54b55a3f1c4b70576fe0a", "is_reserved": 0, "is_disabled": 0}, {"lat": 38.8611615, "fusion_lat": 0.0, "type": "electric_scooter", "bike_id": "ea1df87ea51b38f6251017346f4938ab", "rental_uris": {"ios": "https://dc.lft.to/lastmile_qr_scan", "android": "https://dc.lft.to/lastmile_qr_scan"}, "fusion_lon": 0.0, "lon": -76.98892916666667, "name": "ea1df87ea51b38f6251017346f4938ab", "is_reserved": 0, "is_disabled": 0}, {"lat": 38.956869166666664, "fusion_lat": 0.0, "type": "electric_bike", "bike_id": "d9ca8da590578454b1582bd7676c644d", "rental_uris": {"ios": "https://dc.lft.to/lastmile_qr_scan", "android": "https://dc.lft.to/lastmile_qr_scan"}, "fusion_lon": 0.0, "lon": -77.02224183333334, "name": "d9ca8da590578454b1582bd7676c644d", "is_reserved": 0, "is_disabled": 0}, {"lat": 38.938397, "fusion_lat": 0.0, "type": "electric_scooter", "bike_id": "16231adc99b8ec172a68a052d0c260ce", "rental_uris": {"ios": "https://dc.lft.to/lastmile_qr_scan", "android": "https://dc.lft.to/lastmile_qr_scan"}, "fusion_lon": 0.0, "lon": -77.0722375, "name": "16231adc99b8ec172a68a052d0c260ce", "is_reserved": 0, "is_disabled": 0}, {"lat": 38.966082166666666, "fusion_lat": 0.0, "type": "electric_scooter", "bike_id": "c73ef5f46f044067e9d43c45cd0b779c", "rental_uris": {"ios": "https://dc.lft.to/lastmile_qr_scan", "android": "https://dc.lft.to/lastmile_qr_scan"}, "fusion_lon": 0.0, "lon": -77.02745333333333, "name": "c73ef5f46f044067e9d43c45cd0b779c", "is_reserved": 0, "is_disabled": 0}, {"lat": 39.000301, "fusion_lat": 0.0, "type": "electric_bike", "bike_id": "618c67a2e7853e6478ed1f0b6f19bf01", "rental_uris": {"ios": "https://dc.lft.to/lastmile_qr_scan", "android": "https://dc.lft.to/lastmile_qr_scan"}, "fusion_lon": 0.0, "lon": -77.04742083333333, "name": "618c67a2e7853e6478ed1f0b6f19bf01", "is_reserved": 0, "is_disabled": 0}, {"lat": 38.906734166666666, "fusion_lat": 0.0, "type": "electric_scooter", "bike_id": "5902a7532f92393a91b0c85b025fea39", "rental_uris": {"ios": "https://dc.lft.to/lastmile_qr_scan", "android": "https://dc.lft.to/lastmile_qr_scan"}, "fusion_lon": 0.0, "lon": -76.98945083333334, "name": "5902a7532f92393a91b0c85b025fea39", "is_reserved": 0, "is_disabled": 0}, {"lat": 38.9111715, "fusion_lat": 0.0, "type": "electric_scooter", "bike_id": "e0ab70faaf3aec6da79350451d6495aa", "rental_uris": {"ios": "https://dc.lft.to/lastmile_qr_scan", "android": "https://dc.lft.to/lastmile_qr_scan"}, "fusion_lon": 0.0, "lon": -77.0298545, "name": "e0ab70faaf3aec6da79350451d6495aa", "is_reserved": 0, "is_disabled": 0}, {"lat": 38.918874833333334, "fusion_lat": 0.0, "type": "electric_scooter", "bike_id": "4ab52187c44685d34a7e664af75333d4", "rental_uris": {"ios": "https://dc.lft.to/lastmile_qr_scan", "android": "https://dc.lft.to/lastmile_qr_scan"}, "fusion_lon": 0.0, "lon": -77.02183983333333, "name": "4ab52187c44685d34a7e664af75333d4", "is_reserved": 0, "is_disabled": 0}, {"lat": 38.93541066666667, "fusion_lat": 0.0, "type": "electric_scooter", "bike_id": "4f34aa8ed9472bbb8f5d1a7af00adb44", "rental_uris": {"ios": "https://dc.lft.to/lastmile_qr_scan", "android": "https://dc.lft.to/lastmile_qr_scan"}, "fusion_lon": 0.0, "lon": -77.05744216666666, "name": "4f34aa8ed9472bbb8f5d1a7af00adb44", "is_reserved": 0, "is_disabled": 0}, {"lat": 38.919509833333336, "fusion_lat": 0.0, "type": "electric_scooter", "bike_id": "eceee24e488696e1fe9cb0381beea643", "rental_uris": {"ios": "https://dc.lft.to/lastmile_qr_scan", "android": "https://dc.lft.to/lastmile_qr_scan"}, "fusion_lon": 0.0, "lon": -77.0236805, "name": "eceee24e488696e1fe9cb0381beea643", "is_reserved": 0, "is_disabled": 0}, {"lat": 38.913703, "fusion_lat": 0.0, "type": "electric_scooter", "bike_id": "86f4f81ade36c86a147646bc1ed4bde5", "rental_uris": {"ios": "https://dc.lft.to/lastmile_qr_scan", "android": "https://dc.lft.to/lastmile_qr_scan"}, "fusion_lon": 0.0, "lon": -77.01567466666667, "name": "86f4f81ade36c86a147646bc1ed4bde5", "is_reserved": 0, "is_disabled": 0}, {"lat": 38.89196333333334, "fusion_lat": 0.0, "type": "electric_scooter", "bike_id": "ec03add76952d3a1c9bd7ccf3a0e7c3a", "rental_uris": {"ios": "https://dc.lft.to/lastmile_qr_scan", "android": "https://dc.lft.to/lastmile_qr_scan"}, "fusion_lon": 0.0, "lon": -76.99381883333334, "name": "ec03add76952d3a1c9bd7ccf3a0e7c3a", "is_reserved": 0, "is_disabled": 0}, {"lat": 39.002896, "fusion_lat": 0.0, "type": "electric_bike", "bike_id": "ac55624a22e8ad8e62a1a0316c051637", "rental_uris": {"ios": "https://dc.lft.to/lastmile_qr_scan", "android": "https://dc.lft.to/lastmile_qr_scan"}, "fusion_lon": 0.0, "lon": -76.90293283333334, "name": "ac55624a22e8ad8e62a1a0316c051637", "is_reserved": 0, "is_disabled": 0}, {"lat": 38.95090416666667, "fusion_lat": 0.0, "type": "electric_bike", "bike_id": "72f37f6c63dd4b25b4fc6640fce3a835", "rental_uris": {"ios": "https://dc.lft.to/lastmile_qr_scan", "android": "https://dc.lft.to/lastmile_qr_scan"}, "fusion_lon": 0.0, "lon": -77.01227216666666, "name": "72f37f6c63dd4b25b4fc6640fce3a835", "is_reserved": 0, "is_disabled": 0}, {"lat": 38.813366, "fusion_lat": 0.0, "type": "electric_bike", "bike_id": "10756fb5fe83769b9c85aa9839ec0ae5", "rental_uris": {"ios": "https://dc.lft.to/lastmile_qr_scan", "android": "https://dc.lft.to/lastmile_qr_scan"}, "fusion_lon": 0.0, "lon": -77.05086316666667, "name": "10756fb5fe83769b9c85aa9839ec0ae5", "is_reserved": 0, "is_disabled": 0}, {"lat": 38.913303666666664, "fusion_lat": 0.0, "type": "electric_scooter", "bike_id": "266b925129eb7950ca550a0495046324", "rental_uris": {"ios": "https://dc.lft.to/lastmile_qr_scan", "android": "https://dc.lft.to/lastmile_qr_scan"}, "fusion_lon": 0.0, "lon": -77.04862533333333, "name": "266b925129eb7950ca550a0495046324", "is_reserved": 0, "is_disabled": 0}, {"lat": 38.89974466666666, "fusion_lat": 0.0, "type": "electric_scooter", "bike_id": "d1c6c97cdf3ea3daa252903f97d2dd57", "rental_uris": {"ios": "https://dc.lft.to/lastmile_qr_scan", "android": "https://dc.lft.to/lastmile_qr_scan"}, "fusion_lon": 0.0, "lon": -77.019058, "name": "d1c6c97cdf3ea3daa252903f97d2dd57", "is_reserved": 0, "is_disabled": 0}, {"lat": 38.9006945, "fusion_lat": 0.0, "type": "electric_scooter", "bike_id": "460c46172b7751e0fdfd0718768e8efa", "rental_uris": {"ios": "https://dc.lft.to/lastmile_qr_scan", "android": "https://dc.lft.to/lastmile_qr_scan"}, "fusion_lon": 0.0, "lon": -77.0131715, "name": "460c46172b7751e0fdfd0718768e8efa", "is_reserved": 0, "is_disabled": 0}, {"lat": 38.8764605, "fusion_lat": 0.0, "type": "electric_scooter", "bike_id": "d3cb463767b15163829a8fd1184c76a0", "rental_uris": {"ios": "https://dc.lft.to/lastmile_qr_scan", "android": "https://dc.lft.to/lastmile_qr_scan"}, "fusion_lon": 0.0, "lon": -77.00112033333333, "name": "d3cb463767b15163829a8fd1184c76a0", "is_reserved": 0, "is_disabled": 0}, {"lat": 38.90568783333333, "fusion_lat": 0.0, "type": "electric_scooter", "bike_id": "fd14df8218ce556f084f1733a58de4a0", "rental_uris": {"ios": "https://dc.lft.to/lastmile_qr_scan", "android": "https://dc.lft.to/lastmile_qr_scan"}, "fusion_lon": 0.0, "lon": -77.02501683333334, "name": "fd14df8218ce556f084f1733a58de4a0", "is_reserved": 0, "is_disabled": 0}, {"lat": 38.89723816666667, "fusion_lat": 0.0, "type": "electric_scooter", "bike_id": "b6f92b87842c4d301c6793422dc72e65", "rental_uris": {"ios": "https://dc.lft.to/lastmile_qr_scan", "android": "https://dc.lft.to/lastmile_qr_scan"}, "fusion_lon": 0.0, "lon": -77.0467285, "name": "b6f92b87842c4d301c6793422dc72e65", "is_reserved": 0, "is_disabled": 0}, {"lat": 38.90014733333334, "fusion_lat": 0.0, "type": "electric_scooter", "bike_id": "a146255c61f15a902060bd4c333c9ed4", "rental_uris": {"ios": "https://dc.lft.to/lastmile_qr_scan", "android": "https://dc.lft.to/lastmile_qr_scan"}, "fusion_lon": 0.0, "lon": -77.01260333333333, "name": "a146255c61f15a902060bd4c333c9ed4", "is_reserved": 0, "is_disabled": 0}, {"lat": 38.892237333333334, "fusion_lat": 0.0, "type": "electric_scooter", "bike_id": "3113a590bc0f1e63d23a3f177ce76f1c", "rental_uris": {"ios": "https://dc.lft.to/lastmile_qr_scan", "android": "https://dc.lft.to/lastmile_qr_scan"}, "fusion_lon": 0.0, "lon": -77.041969, "name": "3113a590bc0f1e63d23a3f177ce76f1c", "is_reserved": 0, "is_disabled": 0}, {"lat": 38.918165333333334, "fusion_lat": 0.0, "type": "electric_scooter", "bike_id": "3ef206fbe7fc89fdcb5ace07271c2ba8", "rental_uris": {"ios": "https://dc.lft.to/lastmile_qr_scan", "android": "https://dc.lft.to/lastmile_qr_scan"}, "fusion_lon": 0.0, "lon": -77.04507333333333, "name": "3ef206fbe7fc89fdcb5ace07271c2ba8", "is_reserved": 0, "is_disabled": 0}, {"lat": 38.93416366666666, "fusion_lat": 0.0, "type": "electric_scooter", "bike_id": "f54f6f66e36185e6fb1761283c74f0e2", "rental_uris": {"ios": "https://dc.lft.to/lastmile_qr_scan", "android": "https://dc.lft.to/lastmile_qr_scan"}, "fusion_lon": 0.0, "lon": -77.01980533333334, "name": "f54f6f66e36185e6fb1761283c74f0e2", "is_reserved": 0, "is_disabled": 0}, {"lat": 38.916903166666664, "fusion_lat": 0.0, "type": "electric_scooter", "bike_id": "4a55b185c959b22d719005f660ebcd19", "rental_uris": {"ios": "https://dc.lft.to/lastmile_qr_scan", "android": "https://dc.lft.to/lastmile_qr_scan"}, "fusion_lon": 0.0, "lon": -77.0092245, "name": "4a55b185c959b22d719005f660ebcd19", "is_reserved": 0, "is_disabled": 0}, {"lat": 38.91267966666667, "fusion_lat": 0.0, "type": "electric_scooter", "bike_id": "b538a52be1e92f907fa2bc7daf65e47f", "rental_uris": {"ios": "https://dc.lft.to/lastmile_qr_scan", "android": "https://dc.lft.to/lastmile_qr_scan"}, "fusion_lon": 0.0, "lon": -77.0168185, "name": "b538a52be1e92f907fa2bc7daf65e47f", "is_reserved": 0, "is_disabled": 0}, {"lat": 38.937177, "fusion_lat": 0.0, "type": "electric_scooter", "bike_id": "fefbb460fefe22f9d4326802a13c4470", "rental_uris": {"ios": "https://dc.lft.to/lastmile_qr_scan", "android": "https://dc.lft.to/lastmile_qr_scan"}, "fusion_lon": 0.0, "lon": -77.036342, "name": "fefbb460fefe22f9d4326802a13c4470", "is_reserved": 0, "is_disabled": 0}, {"lat": 38.936282, "fusion_lat": 0.0, "type": "electric_scooter", "bike_id": "290596b53560826b859fbb1e9c440007", "rental_uris": {"ios": "https://dc.lft.to/lastmile_qr_scan", "android": "https://dc.lft.to/lastmile_qr_scan"}, "fusion_lon": 0.0, "lon": -77.0377325, "name": "290596b53560826b859fbb1e9c440007", "is_reserved": 0, "is_disabled": 0}, {"lat": 38.889933666666664, "fusion_lat": 0.0, "type": "electric_scooter", "bike_id": "12d3f73bab226eda5fe4eb4748896aad", "rental_uris": {"ios": "https://dc.lft.to/lastmile_qr_scan", "android": "https://dc.lft.to/lastmile_qr_scan"}, "fusion_lon": 0.0, "lon": -76.9544005, "name": "12d3f73bab226eda5fe4eb4748896aad", "is_reserved": 0, "is_disabled": 0}, {"lat": 38.91006566666667, "fusion_lat": 0.0, "type": "electric_scooter", "bike_id": "680b573cd688da13151cc029f604ba6b", "rental_uris": {"ios": "https://dc.lft.to/lastmile_qr_scan", "android": "https://dc.lft.to/lastmile_qr_scan"}, "fusion_lon": 0.0, "lon": -77.02092533333334, "name": "680b573cd688da13151cc029f604ba6b", "is_reserved": 0, "is_disabled": 0}, {"lat": 38.87946083333333, "fusion_lat": 0.0, "type": "electric_scooter", "bike_id": "c4fd8c650883bfb226122394e39cda8c", "rental_uris": {"ios": "https://dc.lft.to/lastmile_qr_scan", "android": "https://dc.lft.to/lastmile_qr_scan"}, "fusion_lon": 0.0, "lon": -77.00779283333334, "name": "c4fd8c650883bfb226122394e39cda8c", "is_reserved": 0, "is_disabled": 0}, {"lat": 38.90724933333333, "fusion_lat": 0.0, "type": "electric_scooter", "bike_id": "f8629e2f689233d162a5c9878686c34d", "rental_uris": {"ios": "https://dc.lft.to/lastmile_qr_scan", "android": "https://dc.lft.to/lastmile_qr_scan"}, "fusion_lon": 0.0, "lon": -77.02729133333334, "name": "f8629e2f689233d162a5c9878686c34d", "is_reserved": 0, "is_disabled": 0}, {"lat": 38.925303166666666, "fusion_lat": 0.0, "type": "electric_scooter", "bike_id": "b29c2675a4cc0a59df28264dabfe53f9", "rental_uris": {"ios": "https://dc.lft.to/lastmile_qr_scan", "android": "https://dc.lft.to/lastmile_qr_scan"}, "fusion_lon": 0.0, "lon": -77.02123383333333, "name": "b29c2675a4cc0a59df28264dabfe53f9", "is_reserved": 0, "is_disabled": 0}, {"lat": 38.920893, "fusion_lat": 0.0, "type": "electric_scooter", "bike_id": "3c299fec2abd69ada7fd8bdc5e97b548", "rental_uris": {"ios": "https://dc.lft.to/lastmile_qr_scan", "android": "https://dc.lft.to/lastmile_qr_scan"}, "fusion_lon": 0.0, "lon": -77.02493916666667, "name": "3c299fec2abd69ada7fd8bdc5e97b548", "is_reserved": 0, "is_disabled": 0}, {"lat": 38.835150166666665, "fusion_lat": 0.0, "type": "electric_bike", "bike_id": "52828c662b4d44ce902d4fc9b62042d5", "rental_uris": {"ios": "https://dc.lft.to/lastmile_qr_scan", "android": "https://dc.lft.to/lastmile_qr_scan"}, "fusion_lon": 0.0, "lon": -76.98672266666667, "name": "52828c662b4d44ce902d4fc9b62042d5", "is_reserved": 0, "is_disabled": 0}, {"lat": 38.91417333333333, "fusion_lat": 0.0, "type": "electric_scooter", "bike_id": "624882f9f16cd560e3c123d55fb6073c", "rental_uris": {"ios": "https://dc.lft.to/lastmile_qr_scan", "android": "https://dc.lft.to/lastmile_qr_scan"}, "fusion_lon": 0.0, "lon": -77.03168933333333, "name": "624882f9f16cd560e3c123d55fb6073c", "is_reserved": 0, "is_disabled": 0}, {"lat": 38.91013433333333, "fusion_lat": 0.0, "type": "electric_scooter", "bike_id": "fc34bf958a6b19fbcac15dc3aa7c9b56", "rental_uris": {"ios": "https://dc.lft.to/lastmile_qr_scan", "android": "https://dc.lft.to/lastmile_qr_scan"}, "fusion_lon": 0.0, "lon": -77.03440233333333, "name": "fc34bf958a6b19fbcac15dc3aa7c9b56", "is_reserved": 0, "is_disabled": 0}, {"lat": 38.93575766666667, "fusion_lat": 0.0, "type": "electric_bike", "bike_id": "4842be7342092c657afe0a7532d07275", "rental_uris": {"ios": "https://dc.lft.to/lastmile_qr_scan", "android": "https://dc.lft.to/lastmile_qr_scan"}, "fusion_lon": 0.0, "lon": -77.02119116666667, "name": "4842be7342092c657afe0a7532d07275", "is_reserved": 0, "is_disabled": 0}, {"lat": 38.9212175, "fusion_lat": 0.0, "type": "electric_scooter", "bike_id": "a8ccedc14fc2282959b9ec2c717f5f3b", "rental_uris": {"ios": "https://dc.lft.to/lastmile_qr_scan", "android": "https://dc.lft.to/lastmile_qr_scan"}, "fusion_lon": 0.0, "lon": -77.01211316666667, "name": "a8ccedc14fc2282959b9ec2c717f5f3b", "is_reserved": 0, "is_disabled": 0}, {"lat": 38.88739116666667, "fusion_lat": 0.0, "type": "electric_scooter", "bike_id": "a91ac562f67e512a7659e353aa829fec", "rental_uris": {"ios": "https://dc.lft.to/lastmile_qr_scan", "android": "https://dc.lft.to/lastmile_qr_scan"}, "fusion_lon": 0.0, "lon": -77.03158916666666, "name": "a91ac562f67e512a7659e353aa829fec", "is_reserved": 0, "is_disabled": 0}, {"lat": 38.915720666666665, "fusion_lat": 0.0, "type": "electric_bike", "bike_id": "8af26946e3e3a966dee72bc6e6cc8bdd", "rental_uris": {"ios": "https://dc.lft.to/lastmile_qr_scan", "android": "https://dc.lft.to/lastmile_qr_scan"}, "fusion_lon": 0.0, "lon": -77.05026166666667, "name": "8af26946e3e3a966dee72bc6e6cc8bdd", "is_reserved": 0, "is_disabled": 0}, {"lat": 38.9046955, "fusion_lat": 0.0, "type": "electric_scooter", "bike_id": "08e92655e4c028a14a69c23892697386", "rental_uris": {"ios": "https://dc.lft.to/lastmile_qr_scan", "android": "https://dc.lft.to/lastmile_qr_scan"}, "fusion_lon": 0.0, "lon": -77.029443, "name": "08e92655e4c028a14a69c23892697386", "is_reserved": 0, "is_disabled": 0}, {"lat": 38.902992833333336, "fusion_lat": 0.0, "type": "electric_scooter", "bike_id": "1e9df2212cddf64f86baf94a7ff881f4", "rental_uris": {"ios": "https://dc.lft.to/lastmile_qr_scan", "android": "https://dc.lft.to/lastmile_qr_scan"}, "fusion_lon": 0.0, "lon": -77.01627566666667, "name": "1e9df2212cddf64f86baf94a7ff881f4", "is_reserved": 0, "is_disabled": 0}, {"lat": 38.914697, "fusion_lat": 0.0, "type": "electric_scooter", "bike_id": "af67b9ffefe9915579ac079392532130", "rental_uris": {"ios": "https://dc.lft.to/lastmile_qr_scan", "android": "https://dc.lft.to/lastmile_qr_scan"}, "fusion_lon": 0.0, "lon": -77.0382955, "name": "af67b9ffefe9915579ac079392532130", "is_reserved": 0, "is_disabled": 0}, {"lat": 38.926428666666666, "fusion_lat": 0.0, "type": "electric_scooter", "bike_id": "a22688cb7989929efd9040b2c3d4c2e5", "rental_uris": {"ios": "https://dc.lft.to/lastmile_qr_scan", "android": "https://dc.lft.to/lastmile_qr_scan"}, "fusion_lon": 0.0, "lon": -77.02159816666666, "name": "a22688cb7989929efd9040b2c3d4c2e5", "is_reserved": 0, "is_disabled": 0}, {"lat": 38.887706333333334, "fusion_lat": 0.0, "type": "electric_scooter", "bike_id": "6eac7904f0b505f3cfd6bc43a212b8a8", "rental_uris": {"ios": "https://dc.lft.to/lastmile_qr_scan", "android": "https://dc.lft.to/lastmile_qr_scan"}, "fusion_lon": 0.0, "lon": -77.02840533333334, "name": "6eac7904f0b505f3cfd6bc43a212b8a8", "is_reserved": 0, "is_disabled": 0}, {"lat": 38.89348433333333, "fusion_lat": 0.0, "type": "electric_bike", "bike_id": "47a79445232ccd8f8ec6d6d474bc6255", "rental_uris": {"ios": "https://dc.lft.to/lastmile_qr_scan", "android": "https://dc.lft.to/lastmile_qr_scan"}, "fusion_lon": 0.0, "lon": -76.99262183333333, "name": "47a79445232ccd8f8ec6d6d474bc6255", "is_reserved": 0, "is_disabled": 0}, {"lat": 38.907983, "fusion_lat": 0.0, "type": "electric_scooter", "bike_id": "d4ff07d2fc062e3e1062719be040b0b7", "rental_uris": {"ios": "https://dc.lft.to/lastmile_qr_scan", "android": "https://dc.lft.to/lastmile_qr_scan"}, "fusion_lon": 0.0, "lon": -77.04343766666666, "name": "d4ff07d2fc062e3e1062719be040b0b7", "is_reserved": 0, "is_disabled": 0}, {"lat": 38.8718495, "fusion_lat": 0.0, "type": "electric_scooter", "bike_id": "bbdfcd69b7f4aa2ef8616782437a6d80", "rental_uris": {"ios": "https://dc.lft.to/lastmile_qr_scan", "android": "https://dc.lft.to/lastmile_qr_scan"}, "fusion_lon": 0.0, "lon": -77.00641166666666, "name": "bbdfcd69b7f4aa2ef8616782437a6d80", "is_reserved": 0, "is_disabled": 0}, {"lat": 38.8428545, "fusion_lat": 0.0, "type": "electric_bike", "bike_id": "846fdb742a128745d0147cf27efde037", "rental_uris": {"ios": "https://dc.lft.to/lastmile_qr_scan", "android": "https://dc.lft.to/lastmile_qr_scan"}, "fusion_lon": 0.0, "lon": -77.0752655, "name": "846fdb742a128745d0147cf27efde037", "is_reserved": 0, "is_disabled": 0}, {"lat": 38.89762116666667, "fusion_lat": 0.0, "type": "electric_scooter", "bike_id": "eb4d35d18ba51141849fd6edc18d2f8a", "rental_uris": {"ios": "https://dc.lft.to/lastmile_qr_scan", "android": "https://dc.lft.to/lastmile_qr_scan"}, "fusion_lon": 0.0, "lon": -77.043289, "name": "eb4d35d18ba51141849fd6edc18d2f8a", "is_reserved": 0, "is_disabled": 0}, {"lat": 38.892235, "fusion_lat": 0.0, "type": "electric_scooter", "bike_id": "f556514f9865c1eaf6ed29c71978a762", "rental_uris": {"ios": "https://dc.lft.to/lastmile_qr_scan", "android": "https://dc.lft.to/lastmile_qr_scan"}, "fusion_lon": 0.0, "lon": -77.04470816666667, "name": "f556514f9865c1eaf6ed29c71978a762", "is_reserved": 0, "is_disabled": 0}, {"lat": 38.966743, "fusion_lat": 0.0, "type": "electric_bike", "bike_id": "6893336d6559c4745e8f4c262d21bc36", "rental_uris": {"ios": "https://dc.lft.to/lastmile_qr_scan", "android": "https://dc.lft.to/lastmile_qr_scan"}, "fusion_lon": 0.0, "lon": -77.0226505, "name": "6893336d6559c4745e8f4c262d21bc36", "is_reserved": 0, "is_disabled": 0}, {"lat": 38.92794166666667, "fusion_lat": 0.0, "type": "electric_scooter", "bike_id": "2bb09e63c4f2d3d4e4dc5a1481adea6b", "rental_uris": {"ios": "https://dc.lft.to/lastmile_qr_scan", "android": "https://dc.lft.to/lastmile_qr_scan"}, "fusion_lon": 0.0, "lon": -77.05361116666667, "name": "2bb09e63c4f2d3d4e4dc5a1481adea6b", "is_reserved": 0, "is_disabled": 0}, {"lat": 38.935146833333334, "fusion_lat": 0.0, "type": "electric_scooter", "bike_id": "97f02336d53d4dfe06c931fd0bec4911", "rental_uris": {"ios": "https://dc.lft.to/lastmile_qr_scan", "android": "https://dc.lft.to/lastmile_qr_scan"}, "fusion_lon": 0.0, "lon": -77.032833, "name": "97f02336d53d4dfe06c931fd0bec4911", "is_reserved": 0, "is_disabled": 0}, {"lat": 38.873398333333334, "fusion_lat": 0.0, "type": "electric_scooter", "bike_id": "da0684b15a8897b9029acaf9b7694785", "rental_uris": {"ios": "https://dc.lft.to/lastmile_qr_scan", "android": "https://dc.lft.to/lastmile_qr_scan"}, "fusion_lon": 0.0, "lon": -76.967888, "name": "da0684b15a8897b9029acaf9b7694785", "is_reserved": 0, "is_disabled": 0}, {"lat": 38.97883366666667, "fusion_lat": 0.0, "type": "electric_bike", "bike_id": "81eee555f07d41e6d53192fce0fe2278", "rental_uris": {"ios": "https://dc.lft.to/lastmile_qr_scan", "android": "https://dc.lft.to/lastmile_qr_scan"}, "fusion_lon": 0.0, "lon": -77.06028983333333, "name": "81eee555f07d41e6d53192fce0fe2278", "is_reserved": 0, "is_disabled": 0}, {"lat": 38.988141666666664, "fusion_lat": 0.0, "type": "electric_bike", "bike_id": "50aceca16f72224df3efd50483207f6a", "rental_uris": {"ios": "https://dc.lft.to/lastmile_qr_scan", "android": "https://dc.lft.to/lastmile_qr_scan"}, "fusion_lon": 0.0, "lon": -76.99646, "name": "50aceca16f72224df3efd50483207f6a", "is_reserved": 0, "is_disabled": 0}, {"lat": 38.904566333333335, "fusion_lat": 0.0, "type": "electric_scooter", "bike_id": "bb252c52d7640a1d66ad837d11e8d6e6", "rental_uris": {"ios": "https://dc.lft.to/lastmile_qr_scan", "android": "https://dc.lft.to/lastmile_qr_scan"}, "fusion_lon": 0.0, "lon": -77.01878916666666, "name": "bb252c52d7640a1d66ad837d11e8d6e6", "is_reserved": 0, "is_disabled": 0}, {"lat": 38.897448833333335, "fusion_lat": 0.0, "type": "electric_scooter", "bike_id": "34dd35de32f9a6a902fc7cc8637d5331", "rental_uris": {"ios": "https://dc.lft.to/lastmile_qr_scan", "android": "https://dc.lft.to/lastmile_qr_scan"}, "fusion_lon": 0.0, "lon": -77.02804016666667, "name": "34dd35de32f9a6a902fc7cc8637d5331", "is_reserved": 0, "is_disabled": 0}, {"lat": 38.842520666666665, "fusion_lat": 0.0, "type": "electric_bike", "bike_id": "d3fe55ed5e6632ea2ac7fd0124758b45", "rental_uris": {"ios": "https://dc.lft.to/lastmile_qr_scan", "android": "https://dc.lft.to/lastmile_qr_scan"}, "fusion_lon": 0.0, "lon": -76.9884615, "name": "d3fe55ed5e6632ea2ac7fd0124758b45", "is_reserved": 0, "is_disabled": 0}, {"lat": 38.92059866666666, "fusion_lat": 0.0, "type": "electric_scooter", "bike_id": "7b92d9e56ba1193be7236f0700837976", "rental_uris": {"ios": "https://dc.lft.to/lastmile_qr_scan", "android": "https://dc.lft.to/lastmile_qr_scan"}, "fusion_lon": 0.0, "lon": -77.02509316666666, "name": "7b92d9e56ba1193be7236f0700837976", "is_reserved": 0, "is_disabled": 0}, {"lat": 38.838111, "fusion_lat": 0.0, "type": "electric_bike", "bike_id": "f9574d0a107726f34b8c31428dd80064", "rental_uris": {"ios": "https://dc.lft.to/lastmile_qr_scan", "android": "https://dc.lft.to/lastmile_qr_scan"}, "fusion_lon": 0.0, "lon": -77.09518866666667, "name": "f9574d0a107726f34b8c31428dd80064", "is_reserved": 0, "is_disabled": 0}, {"lat": 38.906704, "fusion_lat": 0.0, "type": "electric_scooter", "bike_id": "6b53e7794f0be65767983d5ba7c97797", "rental_uris": {"ios": "https://dc.lft.to/lastmile_qr_scan", "android": "https://dc.lft.to/lastmile_qr_scan"}, "fusion_lon": 0.0, "lon": -77.044648, "name": "6b53e7794f0be65767983d5ba7c97797", "is_reserved": 0, "is_disabled": 0}, {"lat": 38.914869333333336, "fusion_lat": 0.0, "type": "electric_scooter", "bike_id": "e41defabdb5f12cecc8f26220f810021", "rental_uris": {"ios": "https://dc.lft.to/lastmile_qr_scan", "android": "https://dc.lft.to/lastmile_qr_scan"}, "fusion_lon": 0.0, "lon": -77.04535516666667, "name": "e41defabdb5f12cecc8f26220f810021", "is_reserved": 0, "is_disabled": 0}, {"lat": 38.93470533333333, "fusion_lat": 0.0, "type": "electric_scooter", "bike_id": "6eccfb03e568f4f56265c052a25bd693", "rental_uris": {"ios": "https://dc.lft.to/lastmile_qr_scan", "android": "https://dc.lft.to/lastmile_qr_scan"}, "fusion_lon": 0.0, "lon": -77.03581233333334, "name": "6eccfb03e568f4f56265c052a25bd693", "is_reserved": 0, "is_disabled": 0}, {"lat": 38.91746666666667, "fusion_lat": 0.0, "type": "electric_scooter", "bike_id": "adcd5c624d7582e51346a687dc5bfdfe", "rental_uris": {"ios": "https://dc.lft.to/lastmile_qr_scan", "android": "https://dc.lft.to/lastmile_qr_scan"}, "fusion_lon": 0.0, "lon": -77.06940833333333, "name": "adcd5c624d7582e51346a687dc5bfdfe", "is_reserved": 0, "is_disabled": 0}, {"lat": 38.89175616666667, "fusion_lat": 0.0, "type": "electric_scooter", "bike_id": "be029a714b37db88478ead0c2ebec037", "rental_uris": {"ios": "https://dc.lft.to/lastmile_qr_scan", "android": "https://dc.lft.to/lastmile_qr_scan"}, "fusion_lon": 0.0, "lon": -77.01556716666667, "name": "be029a714b37db88478ead0c2ebec037", "is_reserved": 0, "is_disabled": 0}, {"lat": 38.91690283333333, "fusion_lat": 0.0, "type": "electric_scooter", "bike_id": "afb8cd0be32c0e65b68b750efd8af4e1", "rental_uris": {"ios": "https://dc.lft.to/lastmile_qr_scan", "android": "https://dc.lft.to/lastmile_qr_scan"}, "fusion_lon": 0.0, "lon": -77.03860233333333, "name": "afb8cd0be32c0e65b68b750efd8af4e1", "is_reserved": 0, "is_disabled": 0}, {"lat": 38.908157833333334, "fusion_lat": 0.0, "type": "electric_scooter", "bike_id": "3ba5ff6b149a52a61791f0a971dce3b2", "rental_uris": {"ios": "https://dc.lft.to/lastmile_qr_scan", "android": "https://dc.lft.to/lastmile_qr_scan"}, "fusion_lon": 0.0, "lon": -77.0730745, "name": "3ba5ff6b149a52a61791f0a971dce3b2", "is_reserved": 0, "is_disabled": 0}, {"lat": 38.8922035, "fusion_lat": 0.0, "type": "electric_scooter", "bike_id": "e3c46073789d66008c1476e5f104c7e8", "rental_uris": {"ios": "https://dc.lft.to/lastmile_qr_scan", "android": "https://dc.lft.to/lastmile_qr_scan"}, "fusion_lon": 0.0, "lon": -77.0446515, "name": "e3c46073789d66008c1476e5f104c7e8", "is_reserved": 0, "is_disabled": 0}, {"lat": 38.92102083333333, "fusion_lat": 0.0, "type": "electric_scooter", "bike_id": "8e2593921ada7843bd1ba08d5e35f8ad", "rental_uris": {"ios": "https://dc.lft.to/lastmile_qr_scan", "android": "https://dc.lft.to/lastmile_qr_scan"}, "fusion_lon": 0.0, "lon": -77.04678316666667, "name": "8e2593921ada7843bd1ba08d5e35f8ad", "is_reserved": 0, "is_disabled": 0}, {"lat": 38.91794016666667, "fusion_lat": 0.0, "type": "electric_scooter", "bike_id": "d5993bce5672f455ffe40ad236b52acb", "rental_uris": {"ios": "https://dc.lft.to/lastmile_qr_scan", "android": "https://dc.lft.to/lastmile_qr_scan"}, "fusion_lon": 0.0, "lon": -77.03636383333334, "name": "d5993bce5672f455ffe40ad236b52acb", "is_reserved": 0, "is_disabled": 0}, {"lat": 38.89913033333333, "fusion_lat": 0.0, "type": "electric_scooter", "bike_id": "480d49d11fa59149991922a751b3f71a", "rental_uris": {"ios": "https://dc.lft.to/lastmile_qr_scan", "android": "https://dc.lft.to/lastmile_qr_scan"}, "fusion_lon": 0.0, "lon": -76.94547716666666, "name": "480d49d11fa59149991922a751b3f71a", "is_reserved": 0, "is_disabled": 0}, {"lat": 38.89491683333333, "fusion_lat": 0.0, "type": "electric_scooter", "bike_id": "e92c3d8abff29570a4c5e9f1132cd221", "rental_uris": {"ios": "https://dc.lft.to/lastmile_qr_scan", "android": "https://dc.lft.to/lastmile_qr_scan"}, "fusion_lon": 0.0, "lon": -77.021594, "name": "e92c3d8abff29570a4c5e9f1132cd221", "is_reserved": 0, "is_disabled": 0}, {"lat": 38.930892, "fusion_lat": 0.0, "type": "electric_scooter", "bike_id": "017045eacd96c1a5f72373cfcd919cf5", "rental_uris": {"ios": "https://dc.lft.to/lastmile_qr_scan", "android": "https://dc.lft.to/lastmile_qr_scan"}, "fusion_lon": 0.0, "lon": -77.0234945, "name": "017045eacd96c1a5f72373cfcd919cf5", "is_reserved": 0, "is_disabled": 0}, {"lat": 38.90501, "fusion_lat": 0.0, "type": "electric_scooter", "bike_id": "c4e10108c988cc4fb6e3ffd908db407d", "rental_uris": {"ios": "https://dc.lft.to/lastmile_qr_scan", "android": "https://dc.lft.to/lastmile_qr_scan"}, "fusion_lon": 0.0, "lon": -77.03028466666666, "name": "c4e10108c988cc4fb6e3ffd908db407d", "is_reserved": 0, "is_disabled": 0}, {"lat": 38.90968433333333, "fusion_lat": 0.0, "type": "electric_scooter", "bike_id": "b8cec1e57b10f0883544898d5784810c", "rental_uris": {"ios": "https://dc.lft.to/lastmile_qr_scan", "android": "https://dc.lft.to/lastmile_qr_scan"}, "fusion_lon": 0.0, "lon": -77.039834, "name": "b8cec1e57b10f0883544898d5784810c", "is_reserved": 0, "is_disabled": 0}, {"lat": 38.832480833333335, "fusion_lat": 0.0, "type": "electric_bike", "bike_id": "024a5aa6cebea2928a9deb98fa930eda", "rental_uris": {"ios": "https://dc.lft.to/lastmile_qr_scan", "android": "https://dc.lft.to/lastmile_qr_scan"}, "fusion_lon": 0.0, "lon": -77.0072335, "name": "024a5aa6cebea2928a9deb98fa930eda", "is_reserved": 0, "is_disabled": 0}, {"lat": 38.90717316666667, "fusion_lat": 0.0, "type": "electric_scooter", "bike_id": "e6feb76425e6bb312f9a22f6194cd66b", "rental_uris": {"ios": "https://dc.lft.to/lastmile_qr_scan", "android": "https://dc.lft.to/lastmile_qr_scan"}, "fusion_lon": 0.0, "lon": -77.02510233333334, "name": "e6feb76425e6bb312f9a22f6194cd66b", "is_reserved": 0, "is_disabled": 0}, {"lat": 38.91478983333333, "fusion_lat": 0.0, "type": "electric_scooter", "bike_id": "099bbcd64fa5052a5749a85ec092f081", "rental_uris": {"ios": "https://dc.lft.to/lastmile_qr_scan", "android": "https://dc.lft.to/lastmile_qr_scan"}, "fusion_lon": 0.0, "lon": -77.038344, "name": "099bbcd64fa5052a5749a85ec092f081", "is_reserved": 0, "is_disabled": 0}, {"lat": 38.916422, "fusion_lat": 0.0, "type": "electric_scooter", "bike_id": "8dfa08d4dbcf0ab1a9decea9b31ea80a", "rental_uris": {"ios": "https://dc.lft.to/lastmile_qr_scan", "android": "https://dc.lft.to/lastmile_qr_scan"}, "fusion_lon": 0.0, "lon": -77.04816433333333, "name": "8dfa08d4dbcf0ab1a9decea9b31ea80a", "is_reserved": 0, "is_disabled": 0}, {"lat": 38.93525283333334, "fusion_lat": 0.0, "type": "electric_scooter", "bike_id": "90bec9809620d44f9b7e17686e86ab32", "rental_uris": {"ios": "https://dc.lft.to/lastmile_qr_scan", "android": "https://dc.lft.to/lastmile_qr_scan"}, "fusion_lon": 0.0, "lon": -77.03258016666666, "name": "90bec9809620d44f9b7e17686e86ab32", "is_reserved": 0, "is_disabled": 0}, {"lat": 38.95218366666667, "fusion_lat": 0.0, "type": "electric_scooter", "bike_id": "4dc00cec1f3037157eace203720e8f02", "rental_uris": {"ios": "https://dc.lft.to/lastmile_qr_scan", "android": "https://dc.lft.to/lastmile_qr_scan"}, "fusion_lon": 0.0, "lon": -77.01749816666667, "name": "4dc00cec1f3037157eace203720e8f02", "is_reserved": 0, "is_disabled": 0}, {"lat": 38.9474205, "fusion_lat": 0.0, "type": "electric_scooter", "bike_id": "b2e2fd81030c95943b633aef32424b7b", "rental_uris": {"ios": "https://dc.lft.to/lastmile_qr_scan", "android": "https://dc.lft.to/lastmile_qr_scan"}, "fusion_lon": 0.0, "lon": -77.0161585, "name": "b2e2fd81030c95943b633aef32424b7b", "is_reserved": 0, "is_disabled": 0}, {"lat": 38.907151999999996, "fusion_lat": 0.0, "type": "electric_scooter", "bike_id": "f1e53bd9116e5234dbf7ae72ef5726e0", "rental_uris": {"ios": "https://dc.lft.to/lastmile_qr_scan", "android": "https://dc.lft.to/lastmile_qr_scan"}, "fusion_lon": 0.0, "lon": -77.04658283333333, "name": "f1e53bd9116e5234dbf7ae72ef5726e0", "is_reserved": 0, "is_disabled": 0}, {"lat": 38.931897, "fusion_lat": 0.0, "type": "electric_scooter", "bike_id": "a637edaf04a0b313af2740c287a126cf", "rental_uris": {"ios": "https://dc.lft.to/lastmile_qr_scan", "android": "https://dc.lft.to/lastmile_qr_scan"}, "fusion_lon": 0.0, "lon": -77.0297975, "name": "a637edaf04a0b313af2740c287a126cf", "is_reserved": 0, "is_disabled": 0}, {"lat": 38.92811783333333, "fusion_lat": 0.0, "type": "electric_scooter", "bike_id": "61fcbb68ca54201b9612db9cb5686e56", "rental_uris": {"ios": "https://dc.lft.to/lastmile_qr_scan", "android": "https://dc.lft.to/lastmile_qr_scan"}, "fusion_lon": 0.0, "lon": -77.05393083333334, "name": "61fcbb68ca54201b9612db9cb5686e56", "is_reserved": 0, "is_disabled": 0}, {"lat": 38.906891333333334, "fusion_lat": 0.0, "type": "electric_scooter", "bike_id": "2813d5ac78729b555821837843d978e8", "rental_uris": {"ios": "https://dc.lft.to/lastmile_qr_scan", "android": "https://dc.lft.to/lastmile_qr_scan"}, "fusion_lon": 0.0, "lon": -76.99981183333334, "name": "2813d5ac78729b555821837843d978e8", "is_reserved": 0, "is_disabled": 0}, {"lat": 38.91027666666667, "fusion_lat": 0.0, "type": "electric_scooter", "bike_id": "406c0407881d98953e0ce5a72d4e905b", "rental_uris": {"ios": "https://dc.lft.to/lastmile_qr_scan", "android": "https://dc.lft.to/lastmile_qr_scan"}, "fusion_lon": 0.0, "lon": -77.029356, "name": "406c0407881d98953e0ce5a72d4e905b", "is_reserved": 0, "is_disabled": 0}, {"lat": 38.91410533333333, "fusion_lat": 0.0, "type": "electric_scooter", "bike_id": "7b786572371e08ab43a29087b4ecaa8f", "rental_uris": {"ios": "https://dc.lft.to/lastmile_qr_scan", "android": "https://dc.lft.to/lastmile_qr_scan"}, "fusion_lon": 0.0, "lon": -77.03545983333333, "name": "7b786572371e08ab43a29087b4ecaa8f", "is_reserved": 0, "is_disabled": 0}, {"lat": 38.90144566666667, "fusion_lat": 0.0, "type": "electric_scooter", "bike_id": "3b8a678d57655f882594af3326a75021", "rental_uris": {"ios": "https://dc.lft.to/lastmile_qr_scan", "android": "https://dc.lft.to/lastmile_qr_scan"}, "fusion_lon": 0.0, "lon": -77.01594816666666, "name": "3b8a678d57655f882594af3326a75021", "is_reserved": 0, "is_disabled": 0}, {"lat": 38.9066445, "fusion_lat": 0.0, "type": "electric_scooter", "bike_id": "3fb49aa3e486462ffa93ac06ab48e3d8", "rental_uris": {"ios": "https://dc.lft.to/lastmile_qr_scan", "android": "https://dc.lft.to/lastmile_qr_scan"}, "fusion_lon": 0.0, "lon": -77.0379875, "name": "3fb49aa3e486462ffa93ac06ab48e3d8", "is_reserved": 0, "is_disabled": 0}, {"lat": 38.892229, "fusion_lat": 0.0, "type": "electric_scooter", "bike_id": "d7e76a413297f6f37cc1ccf7d84e0926", "rental_uris": {"ios": "https://dc.lft.to/lastmile_qr_scan", "android": "https://dc.lft.to/lastmile_qr_scan"}, "fusion_lon": 0.0, "lon": -77.03163933333333, "name": "d7e76a413297f6f37cc1ccf7d84e0926", "is_reserved": 0, "is_disabled": 0}, {"lat": 39.00478916666667, "fusion_lat": 0.0, "type": "electric_bike", "bike_id": "8f50d39ac3b06479cf66be57eb6352aa", "rental_uris": {"ios": "https://dc.lft.to/lastmile_qr_scan", "android": "https://dc.lft.to/lastmile_qr_scan"}, "fusion_lon": 0.0, "lon": -77.02181966666667, "name": "8f50d39ac3b06479cf66be57eb6352aa", "is_reserved": 0, "is_disabled": 0}, {"lat": 38.83144633333333, "fusion_lat": 0.0, "type": "electric_bike", "bike_id": "6b0ec7cdc8ff7c6c38aeebc3f6828020", "rental_uris": {"ios": "https://dc.lft.to/lastmile_qr_scan", "android": "https://dc.lft.to/lastmile_qr_scan"}, "fusion_lon": 0.0, "lon": -76.99401866666666, "name": "6b0ec7cdc8ff7c6c38aeebc3f6828020", "is_reserved": 0, "is_disabled": 0}, {"lat": 38.90966516666667, "fusion_lat": 0.0, "type": "electric_scooter", "bike_id": "c8ad9ca7125031586277864152c1728e", "rental_uris": {"ios": "https://dc.lft.to/lastmile_qr_scan", "android": "https://dc.lft.to/lastmile_qr_scan"}, "fusion_lon": 0.0, "lon": -77.02386066666666, "name": "c8ad9ca7125031586277864152c1728e", "is_reserved": 0, "is_disabled": 0}, {"lat": 38.9223815, "fusion_lat": 0.0, "type": "electric_scooter", "bike_id": "99c0269506860a8b90a3486da2c61e32", "rental_uris": {"ios": "https://dc.lft.to/lastmile_qr_scan", "android": "https://dc.lft.to/lastmile_qr_scan"}, "fusion_lon": 0.0, "lon": -77.04478416666667, "name": "99c0269506860a8b90a3486da2c61e32", "is_reserved": 0, "is_disabled": 0}, {"lat": 38.913107333333336, "fusion_lat": 0.0, "type": "electric_scooter", "bike_id": "f496d54f5140fffbf10c12647a0db339", "rental_uris": {"ios": "https://dc.lft.to/lastmile_qr_scan", "android": "https://dc.lft.to/lastmile_qr_scan"}, "fusion_lon": 0.0, "lon": -77.03633316666667, "name": "f496d54f5140fffbf10c12647a0db339", "is_reserved": 0, "is_disabled": 0}, {"lat": 38.892458, "fusion_lat": 0.0, "type": "electric_scooter", "bike_id": "8eefeeeaaba5fd786c3e5a0fbea30699", "rental_uris": {"ios": "https://dc.lft.to/lastmile_qr_scan", "android": "https://dc.lft.to/lastmile_qr_scan"}, "fusion_lon": 0.0, "lon": -76.98830016666666, "name": "8eefeeeaaba5fd786c3e5a0fbea30699", "is_reserved": 0, "is_disabled": 0}, {"lat": 38.93675433333333, "fusion_lat": 0.0, "type": "electric_scooter", "bike_id": "2d06e1f0aabcdb007c3257701d3acf74", "rental_uris": {"ios": "https://dc.lft.to/lastmile_qr_scan", "android": "https://dc.lft.to/lastmile_qr_scan"}, "fusion_lon": 0.0, "lon": -77.03587016666667, "name": "2d06e1f0aabcdb007c3257701d3acf74", "is_reserved": 0, "is_disabled": 0}, {"lat": 38.91745133333333, "fusion_lat": 0.0, "type": "electric_scooter", "bike_id": "74b6bc8c2b4c64202cddbb086c112cf3", "rental_uris": {"ios": "https://dc.lft.to/lastmile_qr_scan", "android": "https://dc.lft.to/lastmile_qr_scan"}, "fusion_lon": 0.0, "lon": -77.01694066666667, "name": "74b6bc8c2b4c64202cddbb086c112cf3", "is_reserved": 0, "is_disabled": 0}, {"lat": 38.89230283333333, "fusion_lat": 0.0, "type": "electric_scooter", "bike_id": "d19fee475f08db5ece4067fd76dbf6ee", "rental_uris": {"ios": "https://dc.lft.to/lastmile_qr_scan", "android": "https://dc.lft.to/lastmile_qr_scan"}, "fusion_lon": 0.0, "lon": -77.05004316666667, "name": "d19fee475f08db5ece4067fd76dbf6ee", "is_reserved": 0, "is_disabled": 0}, {"lat": 38.9051935, "fusion_lat": 0.0, "type": "electric_scooter", "bike_id": "59f4c8f5a19e6e9801f67e83d78e23ec", "rental_uris": {"ios": "https://dc.lft.to/lastmile_qr_scan", "android": "https://dc.lft.to/lastmile_qr_scan"}, "fusion_lon": 0.0, "lon": -77.06744433333333, "name": "59f4c8f5a19e6e9801f67e83d78e23ec", "is_reserved": 0, "is_disabled": 0}, {"lat": 38.8977145, "fusion_lat": 0.0, "type": "electric_scooter", "bike_id": "50d8d5755c6ec6265eb7faaf7e340449", "rental_uris": {"ios": "https://dc.lft.to/lastmile_qr_scan", "android": "https://dc.lft.to/lastmile_qr_scan"}, "fusion_lon": 0.0, "lon": -76.9915835, "name": "50d8d5755c6ec6265eb7faaf7e340449", "is_reserved": 0, "is_disabled": 0}, {"lat": 38.91164766666667, "fusion_lat": 0.0, "type": "electric_scooter", "bike_id": "31e0bf53f5e188c65281965d646fe522", "rental_uris": {"ios": "https://dc.lft.to/lastmile_qr_scan", "android": "https://dc.lft.to/lastmile_qr_scan"}, "fusion_lon": 0.0, "lon": -77.00208316666667, "name": "31e0bf53f5e188c65281965d646fe522", "is_reserved": 0, "is_disabled": 0}, {"lat": 38.89235083333333, "fusion_lat": 0.0, "type": "electric_scooter", "bike_id": "af623515028429eb5774f93501f156d5", "rental_uris": {"ios": "https://dc.lft.to/lastmile_qr_scan", "android": "https://dc.lft.to/lastmile_qr_scan"}, "fusion_lon": 0.0, "lon": -77.021792, "name": "af623515028429eb5774f93501f156d5", "is_reserved": 0, "is_disabled": 0}, {"lat": 38.9236505, "fusion_lat": 0.0, "type": "electric_scooter", "bike_id": "7f9c62e495b7a02a70c897c37cb7c564", "rental_uris": {"ios": "https://dc.lft.to/lastmile_qr_scan", "android": "https://dc.lft.to/lastmile_qr_scan"}, "fusion_lon": 0.0, "lon": -77.050473, "name": "7f9c62e495b7a02a70c897c37cb7c564", "is_reserved": 0, "is_disabled": 0}, {"lat": 38.9046515, "fusion_lat": 0.0, "type": "electric_scooter", "bike_id": "52bdbab77f8a74d747c38383b4d941b4", "rental_uris": {"ios": "https://dc.lft.to/lastmile_qr_scan", "android": "https://dc.lft.to/lastmile_qr_scan"}, "fusion_lon": 0.0, "lon": -77.05315466666667, "name": "52bdbab77f8a74d747c38383b4d941b4", "is_reserved": 0, "is_disabled": 0}, {"lat": 38.88732916666667, "fusion_lat": 0.0, "type": "electric_scooter", "bike_id": "84c3dd3280d2a415ce1b67d151a200a2", "rental_uris": {"ios": "https://dc.lft.to/lastmile_qr_scan", "android": "https://dc.lft.to/lastmile_qr_scan"}, "fusion_lon": 0.0, "lon": -76.98357, "name": "84c3dd3280d2a415ce1b67d151a200a2", "is_reserved": 0, "is_disabled": 0}, {"lat": 38.925836, "fusion_lat": 0.0, "type": "electric_scooter", "bike_id": "408c3c3334de89b760551721f38a881c", "rental_uris": {"ios": "https://dc.lft.to/lastmile_qr_scan", "android": "https://dc.lft.to/lastmile_qr_scan"}, "fusion_lon": 0.0, "lon": -77.03201166666666, "name": "408c3c3334de89b760551721f38a881c", "is_reserved": 0, "is_disabled": 0}, {"lat": 38.912652, "fusion_lat": 0.0, "type": "electric_scooter", "bike_id": "15d5fc978d2be53ff798b53bbe1325c3", "rental_uris": {"ios": "https://dc.lft.to/lastmile_qr_scan", "android": "https://dc.lft.to/lastmile_qr_scan"}, "fusion_lon": 0.0, "lon": -77.02208983333334, "name": "15d5fc978d2be53ff798b53bbe1325c3", "is_reserved": 0, "is_disabled": 0}, {"lat": 38.97475416666666, "fusion_lat": 0.0, "type": "electric_scooter", "bike_id": "dba99a1eb0f4de88f13e68ec8b3ccef6", "rental_uris": {"ios": "https://dc.lft.to/lastmile_qr_scan", "android": "https://dc.lft.to/lastmile_qr_scan"}, "fusion_lon": 0.0, "lon": -77.0139655, "name": "dba99a1eb0f4de88f13e68ec8b3ccef6", "is_reserved": 0, "is_disabled": 0}, {"lat": 38.946039999999996, "fusion_lat": 0.0, "type": "electric_scooter", "bike_id": "4dcfd1e5e464ac895e0ea9a7e888f610", "rental_uris": {"ios": "https://dc.lft.to/lastmile_qr_scan", "android": "https://dc.lft.to/lastmile_qr_scan"}, "fusion_lon": 0.0, "lon": -77.02672716666666, "name": "4dcfd1e5e464ac895e0ea9a7e888f610", "is_reserved": 0, "is_disabled": 0}, {"lat": 38.9379785, "fusion_lat": 0.0, "type": "electric_scooter", "bike_id": "70c1fbfbdc03dece9ea45521484ba551", "rental_uris": {"ios": "https://dc.lft.to/lastmile_qr_scan", "android": "https://dc.lft.to/lastmile_qr_scan"}, "fusion_lon": 0.0, "lon": -77.0241255, "name": "70c1fbfbdc03dece9ea45521484ba551", "is_reserved": 0, "is_disabled": 0}, {"lat": 38.917170666666664, "fusion_lat": 0.0, "type": "electric_scooter", "bike_id": "5140d48b01740303da4ccbec72f910af", "rental_uris": {"ios": "https://dc.lft.to/lastmile_qr_scan", "android": "https://dc.lft.to/lastmile_qr_scan"}, "fusion_lon": 0.0, "lon": -77.04085883333333, "name": "5140d48b01740303da4ccbec72f910af", "is_reserved": 0, "is_disabled": 0}, {"lat": 38.899725333333336, "fusion_lat": 0.0, "type": "electric_scooter", "bike_id": "e5d9a837e2319b00fce2dc77a86815a3", "rental_uris": {"ios": "https://dc.lft.to/lastmile_qr_scan", "android": "https://dc.lft.to/lastmile_qr_scan"}, "fusion_lon": 0.0, "lon": -76.9950345, "name": "e5d9a837e2319b00fce2dc77a86815a3", "is_reserved": 0, "is_disabled": 0}, {"lat": 38.90725316666666, "fusion_lat": 0.0, "type": "electric_scooter", "bike_id": "5384abb5cce8c73f824e802e4b07d91a", "rental_uris": {"ios": "https://dc.lft.to/lastmile_qr_scan", "android": "https://dc.lft.to/lastmile_qr_scan"}, "fusion_lon": 0.0, "lon": -77.011304, "name": "5384abb5cce8c73f824e802e4b07d91a", "is_reserved": 0, "is_disabled": 0}, {"lat": 38.89825666666667, "fusion_lat": 0.0, "type": "electric_scooter", "bike_id": "ec5d60204231e834a1f56cc3edefb990", "rental_uris": {"ios": "https://dc.lft.to/lastmile_qr_scan", "android": "https://dc.lft.to/lastmile_qr_scan"}, "fusion_lon": 0.0, "lon": -77.050323, "name": "ec5d60204231e834a1f56cc3edefb990", "is_reserved": 0, "is_disabled": 0}, {"lat": 38.848233, "fusion_lat": 0.0, "type": "electric_bike", "bike_id": "c0afbb25e266820e89611b1e50b82e0a", "rental_uris": {"ios": "https://dc.lft.to/lastmile_qr_scan", "android": "https://dc.lft.to/lastmile_qr_scan"}, "fusion_lon": 0.0, "lon": -77.07888166666666, "name": "c0afbb25e266820e89611b1e50b82e0a", "is_reserved": 0, "is_disabled": 0}, {"lat": 38.928392333333335, "fusion_lat": 0.0, "type": "electric_scooter", "bike_id": "6a35ba3d3247ff4e74daeca5e5ec34e6", "rental_uris": {"ios": "https://dc.lft.to/lastmile_qr_scan", "android": "https://dc.lft.to/lastmile_qr_scan"}, "fusion_lon": 0.0, "lon": -77.02003616666667, "name": "6a35ba3d3247ff4e74daeca5e5ec34e6", "is_reserved": 0, "is_disabled": 0}, {"lat": 38.862136666666665, "fusion_lat": 0.0, "type": "electric_scooter", "bike_id": "bb3cca61689dea2f940d9c2572573276", "rental_uris": {"ios": "https://dc.lft.to/lastmile_qr_scan", "android": "https://dc.lft.to/lastmile_qr_scan"}, "fusion_lon": 0.0, "lon": -76.9944495, "name": "bb3cca61689dea2f940d9c2572573276", "is_reserved": 0, "is_disabled": 0}, {"lat": 38.9489185, "fusion_lat": 0.0, "type": "electric_scooter", "bike_id": "ea5bbb2ab02c156290ba38395a04969c", "rental_uris": {"ios": "https://dc.lft.to/lastmile_qr_scan", "android": "https://dc.lft.to/lastmile_qr_scan"}, "fusion_lon": 0.0, "lon": -77.01854283333333, "name": "ea5bbb2ab02c156290ba38395a04969c", "is_reserved": 0, "is_disabled": 0}, {"lat": 38.8825875, "fusion_lat": 0.0, "type": "electric_scooter", "bike_id": "66dca4e02de3a4d68f43a87eba3cfc51", "rental_uris": {"ios": "https://dc.lft.to/lastmile_qr_scan", "android": "https://dc.lft.to/lastmile_qr_scan"}, "fusion_lon": 0.0, "lon": -76.996127, "name": "66dca4e02de3a4d68f43a87eba3cfc51", "is_reserved": 0, "is_disabled": 0}, {"lat": 38.907796, "fusion_lat": 0.0, "type": "electric_scooter", "bike_id": "83cdef6c1b89ba866bd4c405213162a0", "rental_uris": {"ios": "https://dc.lft.to/lastmile_qr_scan", "android": "https://dc.lft.to/lastmile_qr_scan"}, "fusion_lon": 0.0, "lon": -77.02959166666666, "name": "83cdef6c1b89ba866bd4c405213162a0", "is_reserved": 0, "is_disabled": 0}, {"lat": 38.90273416666667, "fusion_lat": 0.0, "type": "electric_scooter", "bike_id": "a9a0f6cebbcf855cbefda7f12cdc93c6", "rental_uris": {"ios": "https://dc.lft.to/lastmile_qr_scan", "android": "https://dc.lft.to/lastmile_qr_scan"}, "fusion_lon": 0.0, "lon": -77.03828383333334, "name": "a9a0f6cebbcf855cbefda7f12cdc93c6", "is_reserved": 0, "is_disabled": 0}, {"lat": 38.8922045, "fusion_lat": 0.0, "type": "electric_scooter", "bike_id": "01a69dfa49f8cc0b8ef97d9560824235", "rental_uris": {"ios": "https://dc.lft.to/lastmile_qr_scan", "android": "https://dc.lft.to/lastmile_qr_scan"}, "fusion_lon": 0.0, "lon": -77.02370566666667, "name": "01a69dfa49f8cc0b8ef97d9560824235", "is_reserved": 0, "is_disabled": 0}, {"lat": 38.90794066666667, "fusion_lat": 0.0, "type": "electric_scooter", "bike_id": "76afb46ce2e8da9ec364bca0f4d3f520", "rental_uris": {"ios": "https://dc.lft.to/lastmile_qr_scan", "android": "https://dc.lft.to/lastmile_qr_scan"}, "fusion_lon": 0.0, "lon": -77.04336283333333, "name": "76afb46ce2e8da9ec364bca0f4d3f520", "is_reserved": 0, "is_disabled": 0}, {"lat": 38.903402166666666, "fusion_lat": 0.0, "type": "electric_scooter", "bike_id": "05a7a6f1f4a1cb54072d60871beb7e36", "rental_uris": {"ios": "https://dc.lft.to/lastmile_qr_scan", "android": "https://dc.lft.to/lastmile_qr_scan"}, "fusion_lon": 0.0, "lon": -77.0074575, "name": "05a7a6f1f4a1cb54072d60871beb7e36", "is_reserved": 0, "is_disabled": 0}, {"lat": 38.945030333333335, "fusion_lat": 0.0, "type": "electric_scooter", "bike_id": "ea5cb0396d3bb4605f7f621bbcbc3b96", "rental_uris": {"ios": "https://dc.lft.to/lastmile_qr_scan", "android": "https://dc.lft.to/lastmile_qr_scan"}, "fusion_lon": 0.0, "lon": -77.03831733333334, "name": "ea5cb0396d3bb4605f7f621bbcbc3b96", "is_reserved": 0, "is_disabled": 0}, {"lat": 38.93566033333333, "fusion_lat": 0.0, "type": "electric_scooter", "bike_id": "16a8bdda8b4a49ce34cc35beeb57576d", "rental_uris": {"ios": "https://dc.lft.to/lastmile_qr_scan", "android": "https://dc.lft.to/lastmile_qr_scan"}, "fusion_lon": 0.0, "lon": -77.05832216666667, "name": "16a8bdda8b4a49ce34cc35beeb57576d", "is_reserved": 0, "is_disabled": 0}, {"lat": 38.9020775, "fusion_lat": 0.0, "type": "electric_scooter", "bike_id": "961e53e3a017374bfa8789133837945b", "rental_uris": {"ios": "https://dc.lft.to/lastmile_qr_scan", "android": "https://dc.lft.to/lastmile_qr_scan"}, "fusion_lon": 0.0, "lon": -77.02384483333333, "name": "961e53e3a017374bfa8789133837945b", "is_reserved": 0, "is_disabled": 0}, {"lat": 38.8995815, "fusion_lat": 0.0, "type": "electric_scooter", "bike_id": "0db84f5ae22a4c0444bb030814b26434", "rental_uris": {"ios": "https://dc.lft.to/lastmile_qr_scan", "android": "https://dc.lft.to/lastmile_qr_scan"}, "fusion_lon": 0.0, "lon": -77.04722283333334, "name": "0db84f5ae22a4c0444bb030814b26434", "is_reserved": 0, "is_disabled": 0}, {"lat": 38.9767365, "fusion_lat": 0.0, "type": "electric_bike", "bike_id": "b4a1ed9d1f38cbcb33a2fc49aea527aa", "rental_uris": {"ios": "https://dc.lft.to/lastmile_qr_scan", "android": "https://dc.lft.to/lastmile_qr_scan"}, "fusion_lon": 0.0, "lon": -77.01928966666667, "name": "b4a1ed9d1f38cbcb33a2fc49aea527aa", "is_reserved": 0, "is_disabled": 0}, {"lat": 38.9246055, "fusion_lat": 0.0, "type": "electric_scooter", "bike_id": "2043bf2f52bb909b0a48ddd55053ab35", "rental_uris": {"ios": "https://dc.lft.to/lastmile_qr_scan", "android": "https://dc.lft.to/lastmile_qr_scan"}, "fusion_lon": 0.0, "lon": -77.02157316666667, "name": "2043bf2f52bb909b0a48ddd55053ab35", "is_reserved": 0, "is_disabled": 0}, {"lat": 38.909693833333336, "fusion_lat": 0.0, "type": "electric_scooter", "bike_id": "f1ed2c4aa0f5da77a6917df4da8a7a90", "rental_uris": {"ios": "https://dc.lft.to/lastmile_qr_scan", "android": "https://dc.lft.to/lastmile_qr_scan"}, "fusion_lon": 0.0, "lon": -76.98470966666666, "name": "f1ed2c4aa0f5da77a6917df4da8a7a90", "is_reserved": 0, "is_disabled": 0}, {"lat": 38.923882166666665, "fusion_lat": 0.0, "type": "electric_scooter", "bike_id": "afd5f5e019ca0286c5f517e223a25018", "rental_uris": {"ios": "https://dc.lft.to/lastmile_qr_scan", "android": "https://dc.lft.to/lastmile_qr_scan"}, "fusion_lon": 0.0, "lon": -77.03203033333334, "name": "afd5f5e019ca0286c5f517e223a25018", "is_reserved": 0, "is_disabled": 0}, {"lat": 38.9176455, "fusion_lat": 0.0, "type": "electric_scooter", "bike_id": "34a560ccc392277d6f87c13a818b2e72", "rental_uris": {"ios": "https://dc.lft.to/lastmile_qr_scan", "android": "https://dc.lft.to/lastmile_qr_scan"}, "fusion_lon": 0.0, "lon": -77.03211816666666, "name": "34a560ccc392277d6f87c13a818b2e72", "is_reserved": 0, "is_disabled": 0}, {"lat": 38.932028333333335, "fusion_lat": 0.0, "type": "electric_scooter", "bike_id": "80f6044d9f4290b05934c9fbfdfc93a5", "rental_uris": {"ios": "https://dc.lft.to/lastmile_qr_scan", "android": "https://dc.lft.to/lastmile_qr_scan"}, "fusion_lon": 0.0, "lon": -77.03661033333333, "name": "80f6044d9f4290b05934c9fbfdfc93a5", "is_reserved": 0, "is_disabled": 0}, {"lat": 38.9062025, "fusion_lat": 0.0, "type": "electric_scooter", "bike_id": "4aa0486ea7481838b59fc896d2718309", "rental_uris": {"ios": "https://dc.lft.to/lastmile_qr_scan", "android": "https://dc.lft.to/lastmile_qr_scan"}, "fusion_lon": 0.0, "lon": -77.0073605, "name": "4aa0486ea7481838b59fc896d2718309", "is_reserved": 0, "is_disabled": 0}, {"lat": 38.909725333333334, "fusion_lat": 0.0, "type": "electric_scooter", "bike_id": "552cc97d457416d729c26026ef4610de", "rental_uris": {"ios": "https://dc.lft.to/lastmile_qr_scan", "android": "https://dc.lft.to/lastmile_qr_scan"}, "fusion_lon": 0.0, "lon": -77.03865316666666, "name": "552cc97d457416d729c26026ef4610de", "is_reserved": 0, "is_disabled": 0}, {"lat": 38.93240316666667, "fusion_lat": 0.0, "type": "electric_scooter", "bike_id": "ae72977a221f1d880ba3b84a2b8dc9ce", "rental_uris": {"ios": "https://dc.lft.to/lastmile_qr_scan", "android": "https://dc.lft.to/lastmile_qr_scan"}, "fusion_lon": 0.0, "lon": -77.032682, "name": "ae72977a221f1d880ba3b84a2b8dc9ce", "is_reserved": 0, "is_disabled": 0}, {"lat": 38.930027, "fusion_lat": 0.0, "type": "electric_bike", "bike_id": "5cc3e0ef424e3dd36fb50023dbcecf77", "rental_uris": {"ios": "https://dc.lft.to/lastmile_qr_scan", "android": "https://dc.lft.to/lastmile_qr_scan"}, "fusion_lon": 0.0, "lon": -77.02307166666667, "name": "5cc3e0ef424e3dd36fb50023dbcecf77", "is_reserved": 0, "is_disabled": 0}, {"lat": 38.97353433333333, "fusion_lat": 0.0, "type": "electric_scooter", "bike_id": "fedbe06d46c5c8b8cf0ccd47ca1ae02f", "rental_uris": {"ios": "https://dc.lft.to/lastmile_qr_scan", "android": "https://dc.lft.to/lastmile_qr_scan"}, "fusion_lon": 0.0, "lon": -77.02787466666666, "name": "fedbe06d46c5c8b8cf0ccd47ca1ae02f", "is_reserved": 0, "is_disabled": 0}, {"lat": 38.926772166666666, "fusion_lat": 0.0, "type": "electric_scooter", "bike_id": "baeffe86967d2380b61a1c81db6ae40b", "rental_uris": {"ios": "https://dc.lft.to/lastmile_qr_scan", "android": "https://dc.lft.to/lastmile_qr_scan"}, "fusion_lon": 0.0, "lon": -77.02572166666667, "name": "baeffe86967d2380b61a1c81db6ae40b", "is_reserved": 0, "is_disabled": 0}, {"lat": 38.875739, "fusion_lat": 0.0, "type": "electric_scooter", "bike_id": "dda5da488dfa0861217ba4267df3b6d9", "rental_uris": {"ios": "https://dc.lft.to/lastmile_qr_scan", "android": "https://dc.lft.to/lastmile_qr_scan"}, "fusion_lon": 0.0, "lon": -77.00594433333333, "name": "dda5da488dfa0861217ba4267df3b6d9", "is_reserved": 0, "is_disabled": 0}, {"lat": 38.913405, "fusion_lat": 0.0, "type": "electric_scooter", "bike_id": "6177b446f3a24cbc7ca70e0a4a04837b", "rental_uris": {"ios": "https://dc.lft.to/lastmile_qr_scan", "android": "https://dc.lft.to/lastmile_qr_scan"}, "fusion_lon": 0.0, "lon": -77.003293, "name": "6177b446f3a24cbc7ca70e0a4a04837b", "is_reserved": 0, "is_disabled": 0}, {"lat": 38.9046705, "fusion_lat": 0.0, "type": "electric_scooter", "bike_id": "156733de5630949ec7c6d4ef5ae8c39e", "rental_uris": {"ios": "https://dc.lft.to/lastmile_qr_scan", "android": "https://dc.lft.to/lastmile_qr_scan"}, "fusion_lon": 0.0, "lon": -77.06597083333334, "name": "156733de5630949ec7c6d4ef5ae8c39e", "is_reserved": 0, "is_disabled": 0}, {"lat": 38.91721033333334, "fusion_lat": 0.0, "type": "electric_scooter", "bike_id": "847c9509b96af44be86e84d41a6af597", "rental_uris": {"ios": "https://dc.lft.to/lastmile_qr_scan", "android": "https://dc.lft.to/lastmile_qr_scan"}, "fusion_lon": 0.0, "lon": -77.0334735, "name": "847c9509b96af44be86e84d41a6af597", "is_reserved": 0, "is_disabled": 0}, {"lat": 38.892516, "fusion_lat": 0.0, "type": "electric_bike", "bike_id": "dcc4fbcaf734d54880fc5e50f34b7303", "rental_uris": {"ios": "https://dc.lft.to/lastmile_qr_scan", "android": "https://dc.lft.to/lastmile_qr_scan"}, "fusion_lon": 0.0, "lon": -76.9854085, "name": "dcc4fbcaf734d54880fc5e50f34b7303", "is_reserved": 0, "is_disabled": 0}, {"lat": 38.917119166666666, "fusion_lat": 0.0, "type": "electric_scooter", "bike_id": "d3b6580c04b0520f40dcd6af46bf891e", "rental_uris": {"ios": "https://dc.lft.to/lastmile_qr_scan", "android": "https://dc.lft.to/lastmile_qr_scan"}, "fusion_lon": 0.0, "lon": -77.0386605, "name": "d3b6580c04b0520f40dcd6af46bf891e", "is_reserved": 0, "is_disabled": 0}, {"lat": 38.9879235, "fusion_lat": 0.0, "type": "electric_bike", "bike_id": "71a841f856498e05fb0fb9dbec92533d", "rental_uris": {"ios": "https://dc.lft.to/lastmile_qr_scan", "android": "https://dc.lft.to/lastmile_qr_scan"}, "fusion_lon": 0.0, "lon": -77.1410125, "name": "71a841f856498e05fb0fb9dbec92533d", "is_reserved": 0, "is_disabled": 0}, {"lat": 38.895461, "fusion_lat": 0.0, "type": "electric_scooter", "bike_id": "6b5682623091cfa58438742a57589a8a", "rental_uris": {"ios": "https://dc.lft.to/lastmile_qr_scan", "android": "https://dc.lft.to/lastmile_qr_scan"}, "fusion_lon": 0.0, "lon": -76.98338116666666, "name": "6b5682623091cfa58438742a57589a8a", "is_reserved": 0, "is_disabled": 0}, {"lat": 38.83866883333334, "fusion_lat": 0.0, "type": "electric_bike", "bike_id": "429967bcd1668f845ff506080716ab81", "rental_uris": {"ios": "https://dc.lft.to/lastmile_qr_scan", "android": "https://dc.lft.to/lastmile_qr_scan"}, "fusion_lon": 0.0, "lon": -76.99708033333333, "name": "429967bcd1668f845ff506080716ab81", "is_reserved": 0, "is_disabled": 0}, {"lat": 38.92134716666666, "fusion_lat": 0.0, "type": "electric_scooter", "bike_id": "8355324ba0ef7d48ac737f5e9633cdf6", "rental_uris": {"ios": "https://dc.lft.to/lastmile_qr_scan", "android": "https://dc.lft.to/lastmile_qr_scan"}, "fusion_lon": 0.0, "lon": -77.0180865, "name": "8355324ba0ef7d48ac737f5e9633cdf6", "is_reserved": 0, "is_disabled": 0}, {"lat": 38.924264666666666, "fusion_lat": 0.0, "type": "electric_scooter", "bike_id": "cb3a1b57eeecbe21c2fadd33852bae6c", "rental_uris": {"ios": "https://dc.lft.to/lastmile_qr_scan", "android": "https://dc.lft.to/lastmile_qr_scan"}, "fusion_lon": 0.0, "lon": -77.05182666666667, "name": "cb3a1b57eeecbe21c2fadd33852bae6c", "is_reserved": 0, "is_disabled": 0}, {"lat": 38.94204116666667, "fusion_lat": 0.0, "type": "electric_scooter", "bike_id": "1e35cc498d3150328878a753bb14a3e2", "rental_uris": {"ios": "https://dc.lft.to/lastmile_qr_scan", "android": "https://dc.lft.to/lastmile_qr_scan"}, "fusion_lon": 0.0, "lon": -77.02592066666666, "name": "1e35cc498d3150328878a753bb14a3e2", "is_reserved": 0, "is_disabled": 0}, {"lat": 38.91875783333333, "fusion_lat": 0.0, "type": "electric_scooter", "bike_id": "d791d265ff2c947a6c1e242ef734f7e8", "rental_uris": {"ios": "https://dc.lft.to/lastmile_qr_scan", "android": "https://dc.lft.to/lastmile_qr_scan"}, "fusion_lon": 0.0, "lon": -77.03496966666667, "name": "d791d265ff2c947a6c1e242ef734f7e8", "is_reserved": 0, "is_disabled": 0}, {"lat": 38.87667283333333, "fusion_lat": 0.0, "type": "electric_scooter", "bike_id": "a26bc98db42a27709bb57a03ff686ac2", "rental_uris": {"ios": "https://dc.lft.to/lastmile_qr_scan", "android": "https://dc.lft.to/lastmile_qr_scan"}, "fusion_lon": 0.0, "lon": -77.00276666666667, "name": "a26bc98db42a27709bb57a03ff686ac2", "is_reserved": 0, "is_disabled": 0}, {"lat": 38.9366385, "fusion_lat": 0.0, "type": "electric_bike", "bike_id": "c9daafe700b043397beef82ad6703557", "rental_uris": {"ios": "https://dc.lft.to/lastmile_qr_scan", "android": "https://dc.lft.to/lastmile_qr_scan"}, "fusion_lon": 0.0, "lon": -77.03429216666666, "name": "c9daafe700b043397beef82ad6703557", "is_reserved": 0, "is_disabled": 0}, {"lat": 38.924632333333335, "fusion_lat": 0.0, "type": "electric_scooter", "bike_id": "a691e9cb33cde0712efc92612c27b70f", "rental_uris": {"ios": "https://dc.lft.to/lastmile_qr_scan", "android": "https://dc.lft.to/lastmile_qr_scan"}, "fusion_lon": 0.0, "lon": -77.07901316666667, "name": "a691e9cb33cde0712efc92612c27b70f", "is_reserved": 0, "is_disabled": 0}, {"lat": 38.9160115, "fusion_lat": 0.0, "type": "electric_scooter", "bike_id": "98f7674f1dbb17412cf228509e8336c4", "rental_uris": {"ios": "https://dc.lft.to/lastmile_qr_scan", "android": "https://dc.lft.to/lastmile_qr_scan"}, "fusion_lon": 0.0, "lon": -77.03946616666667, "name": "98f7674f1dbb17412cf228509e8336c4", "is_reserved": 0, "is_disabled": 0}, {"lat": 38.920555, "fusion_lat": 0.0, "type": "electric_bike", "bike_id": "7c46cbeda7cb2d62d08c8cd9baea4b6a", "rental_uris": {"ios": "https://dc.lft.to/lastmile_qr_scan", "android": "https://dc.lft.to/lastmile_qr_scan"}, "fusion_lon": 0.0, "lon": -77.2413125, "name": "7c46cbeda7cb2d62d08c8cd9baea4b6a", "is_reserved": 0, "is_disabled": 0}, {"lat": 38.9030625, "fusion_lat": 0.0, "type": "electric_scooter", "bike_id": "77f3b9c2f07cad7660b8a95cf9cc3820", "rental_uris": {"ios": "https://dc.lft.to/lastmile_qr_scan", "android": "https://dc.lft.to/lastmile_qr_scan"}, "fusion_lon": 0.0, "lon": -77.01634383333334, "name": "77f3b9c2f07cad7660b8a95cf9cc3820", "is_reserved": 0, "is_disabled": 0}, {"lat": 38.91714016666667, "fusion_lat": 0.0, "type": "electric_scooter", "bike_id": "386f3a0096e844eaccc2e2e8021d1e73", "rental_uris": {"ios": "https://dc.lft.to/lastmile_qr_scan", "android": "https://dc.lft.to/lastmile_qr_scan"}, "fusion_lon": 0.0, "lon": -77.0324805, "name": "386f3a0096e844eaccc2e2e8021d1e73", "is_reserved": 0, "is_disabled": 0}, {"lat": 38.92034016666667, "fusion_lat": 0.0, "type": "electric_scooter", "bike_id": "1bbe60308bb4f8545f6d4f3082840e7f", "rental_uris": {"ios": "https://dc.lft.to/lastmile_qr_scan", "android": "https://dc.lft.to/lastmile_qr_scan"}, "fusion_lon": 0.0, "lon": -77.036643, "name": "1bbe60308bb4f8545f6d4f3082840e7f", "is_reserved": 0, "is_disabled": 0}, {"lat": 38.907934, "fusion_lat": 0.0, "type": "electric_scooter", "bike_id": "56e5b80b1e9b6cb960d8bd8af027eba7", "rental_uris": {"ios": "https://dc.lft.to/lastmile_qr_scan", "android": "https://dc.lft.to/lastmile_qr_scan"}, "fusion_lon": 0.0, "lon": -77.011106, "name": "56e5b80b1e9b6cb960d8bd8af027eba7", "is_reserved": 0, "is_disabled": 0}, {"lat": 38.90044266666666, "fusion_lat": 0.0, "type": "electric_scooter", "bike_id": "d3a3983b760b2adeff1db557e824746e", "rental_uris": {"ios": "https://dc.lft.to/lastmile_qr_scan", "android": "https://dc.lft.to/lastmile_qr_scan"}, "fusion_lon": 0.0, "lon": -77.02412683333333, "name": "d3a3983b760b2adeff1db557e824746e", "is_reserved": 0, "is_disabled": 0}, {"lat": 38.9207425, "fusion_lat": 0.0, "type": "electric_bike", "bike_id": "9887869bdcc97393f355bbad2592bd38", "rental_uris": {"ios": "https://dc.lft.to/lastmile_qr_scan", "android": "https://dc.lft.to/lastmile_qr_scan"}, "fusion_lon": 0.0, "lon": -77.02421433333333, "name": "9887869bdcc97393f355bbad2592bd38", "is_reserved": 0, "is_disabled": 0}, {"lat": 38.91949233333333, "fusion_lat": 0.0, "type": "electric_scooter", "bike_id": "a2414e19faebdaad185c625a6fb1af99", "rental_uris": {"ios": "https://dc.lft.to/lastmile_qr_scan", "android": "https://dc.lft.to/lastmile_qr_scan"}, "fusion_lon": 0.0, "lon": -77.02489, "name": "a2414e19faebdaad185c625a6fb1af99", "is_reserved": 0, "is_disabled": 0}, {"lat": 38.9565295, "fusion_lat": 0.0, "type": "electric_bike", "bike_id": "2eb877f2fc564ce957d127a428724ea7", "rental_uris": {"ios": "https://dc.lft.to/lastmile_qr_scan", "android": "https://dc.lft.to/lastmile_qr_scan"}, "fusion_lon": 0.0, "lon": -77.0329385, "name": "2eb877f2fc564ce957d127a428724ea7", "is_reserved": 0, "is_disabled": 0}, {"lat": 38.914993333333335, "fusion_lat": 0.0, "type": "electric_scooter", "bike_id": "218e19ef2cd9daea0a52af2bd7572b45", "rental_uris": {"ios": "https://dc.lft.to/lastmile_qr_scan", "android": "https://dc.lft.to/lastmile_qr_scan"}, "fusion_lon": 0.0, "lon": -77.01999216666667, "name": "218e19ef2cd9daea0a52af2bd7572b45", "is_reserved": 0, "is_disabled": 0}, {"lat": 38.922597833333334, "fusion_lat": 0.0, "type": "electric_scooter", "bike_id": "24c98c0fb4632b6b4b37a4139761672f", "rental_uris": {"ios": "https://dc.lft.to/lastmile_qr_scan", "android": "https://dc.lft.to/lastmile_qr_scan"}, "fusion_lon": 0.0, "lon": -77.019471, "name": "24c98c0fb4632b6b4b37a4139761672f", "is_reserved": 0, "is_disabled": 0}, {"lat": 38.9328385, "fusion_lat": 0.0, "type": "electric_scooter", "bike_id": "da0101a8668f3915caf32c7a429a170a", "rental_uris": {"ios": "https://dc.lft.to/lastmile_qr_scan", "android": "https://dc.lft.to/lastmile_qr_scan"}, "fusion_lon": 0.0, "lon": -76.984354, "name": "da0101a8668f3915caf32c7a429a170a", "is_reserved": 0, "is_disabled": 0}, {"lat": 38.91233416666667, "fusion_lat": 0.0, "type": "electric_scooter", "bike_id": "a4d87813c274ac80550d2dd42391389e", "rental_uris": {"ios": "https://dc.lft.to/lastmile_qr_scan", "android": "https://dc.lft.to/lastmile_qr_scan"}, "fusion_lon": 0.0, "lon": -77.04059233333334, "name": "a4d87813c274ac80550d2dd42391389e", "is_reserved": 0, "is_disabled": 0}, {"lat": 38.912013333333334, "fusion_lat": 0.0, "type": "electric_scooter", "bike_id": "58b4907387c6c5062c970de209fc0b19", "rental_uris": {"ios": "https://dc.lft.to/lastmile_qr_scan", "android": "https://dc.lft.to/lastmile_qr_scan"}, "fusion_lon": 0.0, "lon": -77.0189335, "name": "58b4907387c6c5062c970de209fc0b19", "is_reserved": 0, "is_disabled": 0}, {"lat": 38.92761733333333, "fusion_lat": 0.0, "type": "electric_scooter", "bike_id": "6bde1d27607d7d836786a594058d1277", "rental_uris": {"ios": "https://dc.lft.to/lastmile_qr_scan", "android": "https://dc.lft.to/lastmile_qr_scan"}, "fusion_lon": 0.0, "lon": -77.05266883333333, "name": "6bde1d27607d7d836786a594058d1277", "is_reserved": 0, "is_disabled": 0}, {"lat": 38.94708416666667, "fusion_lat": 0.0, "type": "electric_scooter", "bike_id": "21cd47dcfc8b2cb39aa5e931199f5b92", "rental_uris": {"ios": "https://dc.lft.to/lastmile_qr_scan", "android": "https://dc.lft.to/lastmile_qr_scan"}, "fusion_lon": 0.0, "lon": -77.01937383333333, "name": "21cd47dcfc8b2cb39aa5e931199f5b92", "is_reserved": 0, "is_disabled": 0}, {"lat": 38.90282783333333, "fusion_lat": 0.0, "type": "electric_scooter", "bike_id": "2b6f7ef682e515607c864bc906985a60", "rental_uris": {"ios": "https://dc.lft.to/lastmile_qr_scan", "android": "https://dc.lft.to/lastmile_qr_scan"}, "fusion_lon": 0.0, "lon": -77.01826683333333, "name": "2b6f7ef682e515607c864bc906985a60", "is_reserved": 0, "is_disabled": 0}, {"lat": 38.9139245, "fusion_lat": 0.0, "type": "electric_scooter", "bike_id": "3c4ade067891d83de2d39a01b58fffe0", "rental_uris": {"ios": "https://dc.lft.to/lastmile_qr_scan", "android": "https://dc.lft.to/lastmile_qr_scan"}, "fusion_lon": 0.0, "lon": -77.010144, "name": "3c4ade067891d83de2d39a01b58fffe0", "is_reserved": 0, "is_disabled": 0}, {"lat": 38.91176266666667, "fusion_lat": 0.0, "type": "electric_scooter", "bike_id": "13118b3b4b8866a30b907de46f677d49", "rental_uris": {"ios": "https://dc.lft.to/lastmile_qr_scan", "android": "https://dc.lft.to/lastmile_qr_scan"}, "fusion_lon": 0.0, "lon": -77.01696133333333, "name": "13118b3b4b8866a30b907de46f677d49", "is_reserved": 0, "is_disabled": 0}, {"lat": 38.92081666666667, "fusion_lat": 0.0, "type": "electric_scooter", "bike_id": "665699abe368486671f213c2b017ec16", "rental_uris": {"ios": "https://dc.lft.to/lastmile_qr_scan", "android": "https://dc.lft.to/lastmile_qr_scan"}, "fusion_lon": 0.0, "lon": -77.023893, "name": "665699abe368486671f213c2b017ec16", "is_reserved": 0, "is_disabled": 0}, {"lat": 38.9112865, "fusion_lat": 0.0, "type": "electric_scooter", "bike_id": "54c3d8ee646f9597fd5670148cfb84b5", "rental_uris": {"ios": "https://dc.lft.to/lastmile_qr_scan", "android": "https://dc.lft.to/lastmile_qr_scan"}, "fusion_lon": 0.0, "lon": -77.05272816666667, "name": "54c3d8ee646f9597fd5670148cfb84b5", "is_reserved": 0, "is_disabled": 0}, {"lat": 38.898876, "fusion_lat": 0.0, "type": "electric_scooter", "bike_id": "209476fd191ee0a026394b7af9c69bf2", "rental_uris": {"ios": "https://dc.lft.to/lastmile_qr_scan", "android": "https://dc.lft.to/lastmile_qr_scan"}, "fusion_lon": 0.0, "lon": -76.93173783333333, "name": "209476fd191ee0a026394b7af9c69bf2", "is_reserved": 0, "is_disabled": 0}, {"lat": 38.93242633333333, "fusion_lat": 0.0, "type": "electric_scooter", "bike_id": "5e609b72cf3ef073599f42ab5413eca7", "rental_uris": {"ios": "https://dc.lft.to/lastmile_qr_scan", "android": "https://dc.lft.to/lastmile_qr_scan"}, "fusion_lon": 0.0, "lon": -77.03270133333334, "name": "5e609b72cf3ef073599f42ab5413eca7", "is_reserved": 0, "is_disabled": 0}, {"lat": 38.930797, "fusion_lat": 0.0, "type": "electric_scooter", "bike_id": "50d7997c84d5568e507569e05a20bc04", "rental_uris": {"ios": "https://dc.lft.to/lastmile_qr_scan", "android": "https://dc.lft.to/lastmile_qr_scan"}, "fusion_lon": 0.0, "lon": -76.99619133333333, "name": "50d7997c84d5568e507569e05a20bc04", "is_reserved": 0, "is_disabled": 0}, {"lat": 38.8998935, "fusion_lat": 0.0, "type": "electric_scooter", "bike_id": "c16fee59784f29f16ee813196f6c61d6", "rental_uris": {"ios": "https://dc.lft.to/lastmile_qr_scan", "android": "https://dc.lft.to/lastmile_qr_scan"}, "fusion_lon": 0.0, "lon": -77.02364816666666, "name": "c16fee59784f29f16ee813196f6c61d6", "is_reserved": 0, "is_disabled": 0}, {"lat": 38.921948, "fusion_lat": 0.0, "type": "electric_scooter", "bike_id": "33b4c644b35dc5081cf479f5e009d395", "rental_uris": {"ios": "https://dc.lft.to/lastmile_qr_scan", "android": "https://dc.lft.to/lastmile_qr_scan"}, "fusion_lon": 0.0, "lon": -77.04251433333333, "name": "33b4c644b35dc5081cf479f5e009d395", "is_reserved": 0, "is_disabled": 0}, {"lat": 38.89196716666667, "fusion_lat": 0.0, "type": "electric_scooter", "bike_id": "c58f28cc4d023416625f0a4761b6ff04", "rental_uris": {"ios": "https://dc.lft.to/lastmile_qr_scan", "android": "https://dc.lft.to/lastmile_qr_scan"}, "fusion_lon": 0.0, "lon": -77.02379383333333, "name": "c58f28cc4d023416625f0a4761b6ff04", "is_reserved": 0, "is_disabled": 0}, {"lat": 39.070452, "fusion_lat": 0.0, "type": "electric_bike", "bike_id": "27894438c60c0ffa530cc232a65a1f01", "rental_uris": {"ios": "https://dc.lft.to/lastmile_qr_scan", "android": "https://dc.lft.to/lastmile_qr_scan"}, "fusion_lon": 0.0, "lon": -77.11527383333333, "name": "27894438c60c0ffa530cc232a65a1f01", "is_reserved": 0, "is_disabled": 0}, {"lat": 38.93894366666667, "fusion_lat": 0.0, "type": "electric_scooter", "bike_id": "9e32fbe2feaba62527f54f6fb72137dc", "rental_uris": {"ios": "https://dc.lft.to/lastmile_qr_scan", "android": "https://dc.lft.to/lastmile_qr_scan"}, "fusion_lon": 0.0, "lon": -77.0176195, "name": "9e32fbe2feaba62527f54f6fb72137dc", "is_reserved": 0, "is_disabled": 0}, {"lat": 38.892241, "fusion_lat": 0.0, "type": "electric_scooter", "bike_id": "118ee42574271934a170e4e4df55184e", "rental_uris": {"ios": "https://dc.lft.to/lastmile_qr_scan", "android": "https://dc.lft.to/lastmile_qr_scan"}, "fusion_lon": 0.0, "lon": -77.04333316666667, "name": "118ee42574271934a170e4e4df55184e", "is_reserved": 0, "is_disabled": 0}, {"lat": 38.86232966666667, "fusion_lat": 0.0, "type": "electric_scooter", "bike_id": "1f859bc6eaf9dbf7abd745195c997e59", "rental_uris": {"ios": "https://dc.lft.to/lastmile_qr_scan", "android": "https://dc.lft.to/lastmile_qr_scan"}, "fusion_lon": 0.0, "lon": -76.99553516666667, "name": "1f859bc6eaf9dbf7abd745195c997e59", "is_reserved": 0, "is_disabled": 0}, {"lat": 38.912402, "fusion_lat": 0.0, "type": "electric_scooter", "bike_id": "243fb30595c07fa8e3e006963e3f2061", "rental_uris": {"ios": "https://dc.lft.to/lastmile_qr_scan", "android": "https://dc.lft.to/lastmile_qr_scan"}, "fusion_lon": 0.0, "lon": -77.048785, "name": "243fb30595c07fa8e3e006963e3f2061", "is_reserved": 0, "is_disabled": 0}, {"lat": 38.898933, "fusion_lat": 0.0, "type": "electric_scooter", "bike_id": "a6900a362d6e4ec13b64b3907cda7dee", "rental_uris": {"ios": "https://dc.lft.to/lastmile_qr_scan", "android": "https://dc.lft.to/lastmile_qr_scan"}, "fusion_lon": 0.0, "lon": -77.04873783333333, "name": "a6900a362d6e4ec13b64b3907cda7dee", "is_reserved": 0, "is_disabled": 0}, {"lat": 38.95709216666667, "fusion_lat": 0.0, "type": "electric_scooter", "bike_id": "22aaf4380503271b7dd6eee953043255", "rental_uris": {"ios": "https://dc.lft.to/lastmile_qr_scan", "android": "https://dc.lft.to/lastmile_qr_scan"}, "fusion_lon": 0.0, "lon": -77.02400866666666, "name": "22aaf4380503271b7dd6eee953043255", "is_reserved": 0, "is_disabled": 0}, {"lat": 38.906486, "fusion_lat": 0.0, "type": "electric_scooter", "bike_id": "3ddce4f5fc0d897da3edd16dafc3ba24", "rental_uris": {"ios": "https://dc.lft.to/lastmile_qr_scan", "android": "https://dc.lft.to/lastmile_qr_scan"}, "fusion_lon": 0.0, "lon": -77.01427433333333, "name": "3ddce4f5fc0d897da3edd16dafc3ba24", "is_reserved": 0, "is_disabled": 0}, {"lat": 38.820470666666665, "fusion_lat": 0.0, "type": "electric_bike", "bike_id": "549c1a28dd52bd6dad0e23bfafd31c54", "rental_uris": {"ios": "https://dc.lft.to/lastmile_qr_scan", "android": "https://dc.lft.to/lastmile_qr_scan"}, "fusion_lon": 0.0, "lon": -77.05357183333334, "name": "549c1a28dd52bd6dad0e23bfafd31c54", "is_reserved": 0, "is_disabled": 0}, {"lat": 38.9041095, "fusion_lat": 0.0, "type": "electric_scooter", "bike_id": "54add6383218d65b59b334887144f653", "rental_uris": {"ios": "https://dc.lft.to/lastmile_qr_scan", "android": "https://dc.lft.to/lastmile_qr_scan"}, "fusion_lon": 0.0, "lon": -76.97331466666667, "name": "54add6383218d65b59b334887144f653", "is_reserved": 0, "is_disabled": 0}, {"lat": 38.912714666666666, "fusion_lat": 0.0, "type": "electric_scooter", "bike_id": "d8af5d98c8be9742a3673779f83f28fc", "rental_uris": {"ios": "https://dc.lft.to/lastmile_qr_scan", "android": "https://dc.lft.to/lastmile_qr_scan"}, "fusion_lon": 0.0, "lon": -77.03262533333333, "name": "d8af5d98c8be9742a3673779f83f28fc", "is_reserved": 0, "is_disabled": 0}, {"lat": 38.919040833333334, "fusion_lat": 0.0, "type": "electric_scooter", "bike_id": "ef194a741590a94af203d7fa4d5fc56a", "rental_uris": {"ios": "https://dc.lft.to/lastmile_qr_scan", "android": "https://dc.lft.to/lastmile_qr_scan"}, "fusion_lon": 0.0, "lon": -77.0470645, "name": "ef194a741590a94af203d7fa4d5fc56a", "is_reserved": 0, "is_disabled": 0}, {"lat": 38.89784933333333, "fusion_lat": 0.0, "type": "electric_scooter", "bike_id": "adb7fbc800147ffc04c87f71d429d11a", "rental_uris": {"ios": "https://dc.lft.to/lastmile_qr_scan", "android": "https://dc.lft.to/lastmile_qr_scan"}, "fusion_lon": 0.0, "lon": -77.01069383333333, "name": "adb7fbc800147ffc04c87f71d429d11a", "is_reserved": 0, "is_disabled": 0}, {"lat": 38.94192266666667, "fusion_lat": 0.0, "type": "electric_scooter", "bike_id": "057dc39aa79fbafaccbbb2624fc0e6ab", "rental_uris": {"ios": "https://dc.lft.to/lastmile_qr_scan", "android": "https://dc.lft.to/lastmile_qr_scan"}, "fusion_lon": 0.0, "lon": -77.03844616666666, "name": "057dc39aa79fbafaccbbb2624fc0e6ab", "is_reserved": 0, "is_disabled": 0}, {"lat": 38.90144266666667, "fusion_lat": 0.0, "type": "electric_scooter", "bike_id": "c7ab13b2c33816bdb93c98297dc3f4ff", "rental_uris": {"ios": "https://dc.lft.to/lastmile_qr_scan", "android": "https://dc.lft.to/lastmile_qr_scan"}, "fusion_lon": 0.0, "lon": -77.04195133333333, "name": "c7ab13b2c33816bdb93c98297dc3f4ff", "is_reserved": 0, "is_disabled": 0}, {"lat": 38.90576133333333, "fusion_lat": 0.0, "type": "electric_scooter", "bike_id": "cc830775d95e259247bb519feea58073", "rental_uris": {"ios": "https://dc.lft.to/lastmile_qr_scan", "android": "https://dc.lft.to/lastmile_qr_scan"}, "fusion_lon": 0.0, "lon": -77.02201683333334, "name": "cc830775d95e259247bb519feea58073", "is_reserved": 0, "is_disabled": 0}, {"lat": 38.887319166666664, "fusion_lat": 0.0, "type": "electric_scooter", "bike_id": "90e015ee4fedf62408a66196b8d829c8", "rental_uris": {"ios": "https://dc.lft.to/lastmile_qr_scan", "android": "https://dc.lft.to/lastmile_qr_scan"}, "fusion_lon": 0.0, "lon": -76.9835505, "name": "90e015ee4fedf62408a66196b8d829c8", "is_reserved": 0, "is_disabled": 0}, {"lat": 38.9059305, "fusion_lat": 0.0, "type": "electric_scooter", "bike_id": "fdb90ddb64cf0f2db2a1fd9ccbdfddef", "rental_uris": {"ios": "https://dc.lft.to/lastmile_qr_scan", "android": "https://dc.lft.to/lastmile_qr_scan"}, "fusion_lon": 0.0, "lon": -77.021818, "name": "fdb90ddb64cf0f2db2a1fd9ccbdfddef", "is_reserved": 0, "is_disabled": 0}, {"lat": 38.919076, "fusion_lat": 0.0, "type": "electric_scooter", "bike_id": "58119acadba818f435e9f9ec7959e849", "rental_uris": {"ios": "https://dc.lft.to/lastmile_qr_scan", "android": "https://dc.lft.to/lastmile_qr_scan"}, "fusion_lon": 0.0, "lon": -77.0204825, "name": "58119acadba818f435e9f9ec7959e849", "is_reserved": 0, "is_disabled": 0}, {"lat": 38.94292083333333, "fusion_lat": 0.0, "type": "electric_scooter", "bike_id": "768b458274f8c56bc2986c4d7a1967b6", "rental_uris": {"ios": "https://dc.lft.to/lastmile_qr_scan", "android": "https://dc.lft.to/lastmile_qr_scan"}, "fusion_lon": 0.0, "lon": -77.02170116666667, "name": "768b458274f8c56bc2986c4d7a1967b6", "is_reserved": 0, "is_disabled": 0}, {"lat": 38.884297833333335, "fusion_lat": 0.0, "type": "electric_scooter", "bike_id": "8d684b9ca27e8b205d0aef0640c9e056", "rental_uris": {"ios": "https://dc.lft.to/lastmile_qr_scan", "android": "https://dc.lft.to/lastmile_qr_scan"}, "fusion_lon": 0.0, "lon": -76.95753283333333, "name": "8d684b9ca27e8b205d0aef0640c9e056", "is_reserved": 0, "is_disabled": 0}, {"lat": 38.8676045, "fusion_lat": 0.0, "type": "electric_bike", "bike_id": "c705a6570852fb6ac17414f20bdbf6d4", "rental_uris": {"ios": "https://dc.lft.to/lastmile_qr_scan", "android": "https://dc.lft.to/lastmile_qr_scan"}, "fusion_lon": 0.0, "lon": -76.9453545, "name": "c705a6570852fb6ac17414f20bdbf6d4", "is_reserved": 0, "is_disabled": 0}, {"lat": 38.88611566666667, "fusion_lat": 0.0, "type": "electric_bike", "bike_id": "418d6cbfb96ea6ac5cf4a0eb0cc4681a", "rental_uris": {"ios": "https://dc.lft.to/lastmile_qr_scan", "android": "https://dc.lft.to/lastmile_qr_scan"}, "fusion_lon": 0.0, "lon": -77.0007365, "name": "418d6cbfb96ea6ac5cf4a0eb0cc4681a", "is_reserved": 0, "is_disabled": 0}, {"lat": 38.923547, "fusion_lat": 0.0, "type": "electric_scooter", "bike_id": "2b86c207bd6b33abb2a7f85ba5991350", "rental_uris": {"ios": "https://dc.lft.to/lastmile_qr_scan", "android": "https://dc.lft.to/lastmile_qr_scan"}, "fusion_lon": 0.0, "lon": -76.99949566666666, "name": "2b86c207bd6b33abb2a7f85ba5991350", "is_reserved": 0, "is_disabled": 0}, {"lat": 38.893565, "fusion_lat": 0.0, "type": "electric_scooter", "bike_id": "6f19d8f9b393871c684f5766e5a914b0", "rental_uris": {"ios": "https://dc.lft.to/lastmile_qr_scan", "android": "https://dc.lft.to/lastmile_qr_scan"}, "fusion_lon": 0.0, "lon": -77.00331316666667, "name": "6f19d8f9b393871c684f5766e5a914b0", "is_reserved": 0, "is_disabled": 0}, {"lat": 38.9225525, "fusion_lat": 0.0, "type": "electric_scooter", "bike_id": "5a12169b9d92d2b0867c8c8927936e0f", "rental_uris": {"ios": "https://dc.lft.to/lastmile_qr_scan", "android": "https://dc.lft.to/lastmile_qr_scan"}, "fusion_lon": 0.0, "lon": -77.05281816666667, "name": "5a12169b9d92d2b0867c8c8927936e0f", "is_reserved": 0, "is_disabled": 0}, {"lat": 38.87549, "fusion_lat": 0.0, "type": "electric_scooter", "bike_id": "0d0dd19d0a879b1f4f94dcf73245234d", "rental_uris": {"ios": "https://dc.lft.to/lastmile_qr_scan", "android": "https://dc.lft.to/lastmile_qr_scan"}, "fusion_lon": 0.0, "lon": -77.005302, "name": "0d0dd19d0a879b1f4f94dcf73245234d", "is_reserved": 0, "is_disabled": 0}, {"lat": 38.894437333333336, "fusion_lat": 0.0, "type": "electric_scooter", "bike_id": "f208618b3eb084b1d8f368909a36516a", "rental_uris": {"ios": "https://dc.lft.to/lastmile_qr_scan", "android": "https://dc.lft.to/lastmile_qr_scan"}, "fusion_lon": 0.0, "lon": -77.010756, "name": "f208618b3eb084b1d8f368909a36516a", "is_reserved": 0, "is_disabled": 0}, {"lat": 38.94335933333333, "fusion_lat": 0.0, "type": "electric_scooter", "bike_id": "6e698f48be92e5cb8870eb18a82b0a87", "rental_uris": {"ios": "https://dc.lft.to/lastmile_qr_scan", "android": "https://dc.lft.to/lastmile_qr_scan"}, "fusion_lon": 0.0, "lon": -76.983148, "name": "6e698f48be92e5cb8870eb18a82b0a87", "is_reserved": 0, "is_disabled": 0}, {"lat": 38.90652383333333, "fusion_lat": 0.0, "type": "electric_scooter", "bike_id": "e820beca2316687872524171f653ae71", "rental_uris": {"ios": "https://dc.lft.to/lastmile_qr_scan", "android": "https://dc.lft.to/lastmile_qr_scan"}, "fusion_lon": 0.0, "lon": -77.01436383333333, "name": "e820beca2316687872524171f653ae71", "is_reserved": 0, "is_disabled": 0}, {"lat": 38.91635, "fusion_lat": 0.0, "type": "electric_scooter", "bike_id": "7535ee2f9041e7616d7043d9a02bfd6d", "rental_uris": {"ios": "https://dc.lft.to/lastmile_qr_scan", "android": "https://dc.lft.to/lastmile_qr_scan"}, "fusion_lon": 0.0, "lon": -77.03006983333333, "name": "7535ee2f9041e7616d7043d9a02bfd6d", "is_reserved": 0, "is_disabled": 0}, {"lat": 38.90971166666667, "fusion_lat": 0.0, "type": "electric_bike", "bike_id": "d27f32a85ce448d7b8a56f461fa7d0c8", "rental_uris": {"ios": "https://dc.lft.to/lastmile_qr_scan", "android": "https://dc.lft.to/lastmile_qr_scan"}, "fusion_lon": 0.0, "lon": -77.08824833333334, "name": "d27f32a85ce448d7b8a56f461fa7d0c8", "is_reserved": 0, "is_disabled": 0}, {"lat": 38.9604675, "fusion_lat": 0.0, "type": "electric_bike", "bike_id": "a8f98e0f14bd35e0193d545a816447d3", "rental_uris": {"ios": "https://dc.lft.to/lastmile_qr_scan", "android": "https://dc.lft.to/lastmile_qr_scan"}, "fusion_lon": 0.0, "lon": -76.93995433333333, "name": "a8f98e0f14bd35e0193d545a816447d3", "is_reserved": 0, "is_disabled": 0}, {"lat": 38.96613583333333, "fusion_lat": 0.0, "type": "electric_scooter", "bike_id": "575d7741331f83d043f51c7529219286", "rental_uris": {"ios": "https://dc.lft.to/lastmile_qr_scan", "android": "https://dc.lft.to/lastmile_qr_scan"}, "fusion_lon": 0.0, "lon": -77.02744583333333, "name": "575d7741331f83d043f51c7529219286", "is_reserved": 0, "is_disabled": 0}, {"lat": 38.923452, "fusion_lat": 0.0, "type": "electric_scooter", "bike_id": "5be1e997927b73bec9c49efec10679bf", "rental_uris": {"ios": "https://dc.lft.to/lastmile_qr_scan", "android": "https://dc.lft.to/lastmile_qr_scan"}, "fusion_lon": 0.0, "lon": -77.05181, "name": "5be1e997927b73bec9c49efec10679bf", "is_reserved": 0, "is_disabled": 0}, {"lat": 38.9155845, "fusion_lat": 0.0, "type": "electric_scooter", "bike_id": "cd2ada30c867ea0daaa19ac3a4db1dde", "rental_uris": {"ios": "https://dc.lft.to/lastmile_qr_scan", "android": "https://dc.lft.to/lastmile_qr_scan"}, "fusion_lon": 0.0, "lon": -77.03948783333334, "name": "cd2ada30c867ea0daaa19ac3a4db1dde", "is_reserved": 0, "is_disabled": 0}, {"lat": 38.92053033333333, "fusion_lat": 0.0, "type": "electric_scooter", "bike_id": "0e0e7d5648f72dce95b886855dbff7b2", "rental_uris": {"ios": "https://dc.lft.to/lastmile_qr_scan", "android": "https://dc.lft.to/lastmile_qr_scan"}, "fusion_lon": 0.0, "lon": -77.0244195, "name": "0e0e7d5648f72dce95b886855dbff7b2", "is_reserved": 0, "is_disabled": 0}, {"lat": 38.8982975, "fusion_lat": 0.0, "type": "electric_scooter", "bike_id": "1620754fba586cfc534021df4b014f87", "rental_uris": {"ios": "https://dc.lft.to/lastmile_qr_scan", "android": "https://dc.lft.to/lastmile_qr_scan"}, "fusion_lon": 0.0, "lon": -77.04908783333333, "name": "1620754fba586cfc534021df4b014f87", "is_reserved": 0, "is_disabled": 0}, {"lat": 38.887613333333334, "fusion_lat": 0.0, "type": "electric_scooter", "bike_id": "2e44e170b76a3d056188d411ca485f69", "rental_uris": {"ios": "https://dc.lft.to/lastmile_qr_scan", "android": "https://dc.lft.to/lastmile_qr_scan"}, "fusion_lon": 0.0, "lon": -77.00043516666666, "name": "2e44e170b76a3d056188d411ca485f69", "is_reserved": 0, "is_disabled": 0}, {"lat": 38.87933733333333, "fusion_lat": 0.0, "type": "electric_scooter", "bike_id": "9a3c4b7f6cd84948941f03edd1137252", "rental_uris": {"ios": "https://dc.lft.to/lastmile_qr_scan", "android": "https://dc.lft.to/lastmile_qr_scan"}, "fusion_lon": 0.0, "lon": -77.00773, "name": "9a3c4b7f6cd84948941f03edd1137252", "is_reserved": 0, "is_disabled": 0}, {"lat": 38.94450416666667, "fusion_lat": 0.0, "type": "electric_scooter", "bike_id": "99c3c420d54dceb2020f5fd4bbf55803", "rental_uris": {"ios": "https://dc.lft.to/lastmile_qr_scan", "android": "https://dc.lft.to/lastmile_qr_scan"}, "fusion_lon": 0.0, "lon": -77.063562, "name": "99c3c420d54dceb2020f5fd4bbf55803", "is_reserved": 0, "is_disabled": 0}, {"lat": 38.9031485, "fusion_lat": 0.0, "type": "electric_scooter", "bike_id": "6a8bd2e8ed7552ce4e31a28e36e3d02b", "rental_uris": {"ios": "https://dc.lft.to/lastmile_qr_scan", "android": "https://dc.lft.to/lastmile_qr_scan"}, "fusion_lon": 0.0, "lon": -76.977947, "name": "6a8bd2e8ed7552ce4e31a28e36e3d02b", "is_reserved": 0, "is_disabled": 0}, {"lat": 38.916749833333334, "fusion_lat": 0.0, "type": "electric_scooter", "bike_id": "3601d6101748a4e13cdc2a1945f2cc12", "rental_uris": {"ios": "https://dc.lft.to/lastmile_qr_scan", "android": "https://dc.lft.to/lastmile_qr_scan"}, "fusion_lon": 0.0, "lon": -77.022253, "name": "3601d6101748a4e13cdc2a1945f2cc12", "is_reserved": 0, "is_disabled": 0}, {"lat": 38.91658533333333, "fusion_lat": 0.0, "type": "electric_scooter", "bike_id": "20539695672e733d2114446ad03b5447", "rental_uris": {"ios": "https://dc.lft.to/lastmile_qr_scan", "android": "https://dc.lft.to/lastmile_qr_scan"}, "fusion_lon": 0.0, "lon": -77.038505, "name": "20539695672e733d2114446ad03b5447", "is_reserved": 0, "is_disabled": 0}, {"lat": 38.91416566666667, "fusion_lat": 0.0, "type": "electric_scooter", "bike_id": "cf9d3414459dc78e2d8e51adf2f90239", "rental_uris": {"ios": "https://dc.lft.to/lastmile_qr_scan", "android": "https://dc.lft.to/lastmile_qr_scan"}, "fusion_lon": 0.0, "lon": -77.02238116666666, "name": "cf9d3414459dc78e2d8e51adf2f90239", "is_reserved": 0, "is_disabled": 0}, {"lat": 38.8953365, "fusion_lat": 0.0, "type": "electric_scooter", "bike_id": "2d5308da47ad6a709f785bb60c45b39d", "rental_uris": {"ios": "https://dc.lft.to/lastmile_qr_scan", "android": "https://dc.lft.to/lastmile_qr_scan"}, "fusion_lon": 0.0, "lon": -77.01136416666667, "name": "2d5308da47ad6a709f785bb60c45b39d", "is_reserved": 0, "is_disabled": 0}, {"lat": 38.897274, "fusion_lat": 0.0, "type": "electric_bike", "bike_id": "d87b8fd9becd5b8e15a86c6920147997", "rental_uris": {"ios": "https://dc.lft.to/lastmile_qr_scan", "android": "https://dc.lft.to/lastmile_qr_scan"}, "fusion_lon": 0.0, "lon": -76.97344483333333, "name": "d87b8fd9becd5b8e15a86c6920147997", "is_reserved": 0, "is_disabled": 0}, {"lat": 38.9148375, "fusion_lat": 0.0, "type": "electric_scooter", "bike_id": "787f3945b55fe102e0e3b0eef8900a60", "rental_uris": {"ios": "https://dc.lft.to/lastmile_qr_scan", "android": "https://dc.lft.to/lastmile_qr_scan"}, "fusion_lon": 0.0, "lon": -77.0218085, "name": "787f3945b55fe102e0e3b0eef8900a60", "is_reserved": 0, "is_disabled": 0}, {"lat": 38.906281166666666, "fusion_lat": 0.0, "type": "electric_scooter", "bike_id": "a5ce591038e3f47ef0ec70e1b81bbf38", "rental_uris": {"ios": "https://dc.lft.to/lastmile_qr_scan", "android": "https://dc.lft.to/lastmile_qr_scan"}, "fusion_lon": 0.0, "lon": -77.03968566666667, "name": "a5ce591038e3f47ef0ec70e1b81bbf38", "is_reserved": 0, "is_disabled": 0}, {"lat": 38.901137, "fusion_lat": 0.0, "type": "electric_scooter", "bike_id": "e2d382d011c1599d26791771449e437a", "rental_uris": {"ios": "https://dc.lft.to/lastmile_qr_scan", "android": "https://dc.lft.to/lastmile_qr_scan"}, "fusion_lon": 0.0, "lon": -77.02573483333333, "name": "e2d382d011c1599d26791771449e437a", "is_reserved": 0, "is_disabled": 0}, {"lat": 38.90960033333333, "fusion_lat": 0.0, "type": "electric_scooter", "bike_id": "87cb81ccad9042900e98ce6dc408a257", "rental_uris": {"ios": "https://dc.lft.to/lastmile_qr_scan", "android": "https://dc.lft.to/lastmile_qr_scan"}, "fusion_lon": 0.0, "lon": -77.03431883333333, "name": "87cb81ccad9042900e98ce6dc408a257", "is_reserved": 0, "is_disabled": 0}, {"lat": 38.93198, "fusion_lat": 0.0, "type": "electric_scooter", "bike_id": "49bca7cbe5efe81c7099f8f4f5bc225a", "rental_uris": {"ios": "https://dc.lft.to/lastmile_qr_scan", "android": "https://dc.lft.to/lastmile_qr_scan"}, "fusion_lon": 0.0, "lon": -77.03750066666667, "name": "49bca7cbe5efe81c7099f8f4f5bc225a", "is_reserved": 0, "is_disabled": 0}, {"lat": 38.89196066666667, "fusion_lat": 0.0, "type": "electric_scooter", "bike_id": "730992461e2a8d3b789930acf4361d97", "rental_uris": {"ios": "https://dc.lft.to/lastmile_qr_scan", "android": "https://dc.lft.to/lastmile_qr_scan"}, "fusion_lon": 0.0, "lon": -77.02375216666667, "name": "730992461e2a8d3b789930acf4361d97", "is_reserved": 0, "is_disabled": 0}, {"lat": 38.92716166666666, "fusion_lat": 0.0, "type": "electric_scooter", "bike_id": "629b8c977d75c8ccff29c88fc9a82856", "rental_uris": {"ios": "https://dc.lft.to/lastmile_qr_scan", "android": "https://dc.lft.to/lastmile_qr_scan"}, "fusion_lon": 0.0, "lon": -77.05368683333333, "name": "629b8c977d75c8ccff29c88fc9a82856", "is_reserved": 0, "is_disabled": 0}, {"lat": 38.936084, "fusion_lat": 0.0, "type": "electric_scooter", "bike_id": "06c1ae2cd611275ffc94457187d3f622", "rental_uris": {"ios": "https://dc.lft.to/lastmile_qr_scan", "android": "https://dc.lft.to/lastmile_qr_scan"}, "fusion_lon": 0.0, "lon": -77.073068, "name": "06c1ae2cd611275ffc94457187d3f622", "is_reserved": 0, "is_disabled": 0}, {"lat": 38.898789666666666, "fusion_lat": 0.0, "type": "electric_scooter", "bike_id": "3ce116efe4020b2fe5c14ca7b500492d", "rental_uris": {"ios": "https://dc.lft.to/lastmile_qr_scan", "android": "https://dc.lft.to/lastmile_qr_scan"}, "fusion_lon": 0.0, "lon": -76.9318655, "name": "3ce116efe4020b2fe5c14ca7b500492d", "is_reserved": 0, "is_disabled": 0}, {"lat": 38.907846666666664, "fusion_lat": 0.0, "type": "electric_scooter", "bike_id": "640fd241e5030afa7018c1a732daac39", "rental_uris": {"ios": "https://dc.lft.to/lastmile_qr_scan", "android": "https://dc.lft.to/lastmile_qr_scan"}, "fusion_lon": 0.0, "lon": -77.03190366666666, "name": "640fd241e5030afa7018c1a732daac39", "is_reserved": 0, "is_disabled": 0}, {"lat": 38.91236516666667, "fusion_lat": 0.0, "type": "electric_scooter", "bike_id": "9629df7f4a8d13b6e74c3d35c67d17a4", "rental_uris": {"ios": "https://dc.lft.to/lastmile_qr_scan", "android": "https://dc.lft.to/lastmile_qr_scan"},