{"data": {"bikes": [{"lat": 38.974442833333335, "lon": -77.0961315, "is_disabled": 0, "bike_id": "41c9325bb0bcc2100fdbcdffdbe04462", "name": "41c9325bb0bcc2100fdbcdffdbe04462", "is_reserved": 0, "rental_uris": {"android": "https://dc.lft.to/lastmile_qr_scan", "ios": "https://dc.lft.to/lastmile_qr_scan"}, "type": "electric_bike", "fusion_lon": 0.0, "fusion_lat": 0.0}, {"lat": 38.924222666666665, "lon": -77.02018066666666, "is_disabled": 0, "bike_id": "7966fbbe551a979cafd85edff5a84e0c", "name": "7966fbbe551a979cafd85edff5a84e0c", "is_reserved": 0, "rental_uris": {"android": "https://dc.lft.to/lastmile_qr_scan", "ios": "https://dc.lft.to/lastmile_qr_scan"}, "type": "electric_scooter", "fusion_lon": 0.0, "fusion_lat": 0.0}, {"lat": 38.93429416666667, "lon": -77.04008216666666, "is_disabled": 0, "bike_id": "782cff058342eca8c47ac9e0d808a59e", "name": "782cff058342eca8c47ac9e0d808a59e", "is_reserved": 0, "rental_uris": {"android": "https://dc.lft.to/lastmile_qr_scan", "ios": "https://dc.lft.to/lastmile_qr_scan"}, "type": "electric_scooter", "fusion_lon": 0.0, "fusion_lat": 0.0}, {"lat": 38.87187683333333, "lon": -76.97383166666667, "is_disabled": 0, "bike_id": "1353d9fc699ba5dd0478af495f1a4ad9", "name": "1353d9fc699ba5dd0478af495f1a4ad9", "is_reserved": 0, "rental_uris": {"android": "https://dc.lft.to/lastmile_qr_scan", "ios": "https://dc.lft.to/lastmile_qr_scan"}, "type": "electric_scooter", "fusion_lon": 0.0, "fusion_lat": 0.0}, {"lat": 38.9441275, "lon": -77.02183316666667, "is_disabled": 0, "bike_id": "b6bd548fc026878c625c08169015b15d", "name": "b6bd548fc026878c625c08169015b15d", "is_reserved": 0, "rental_uris": {"android": "https://dc.lft.to/lastmile_qr_scan", "ios": "https://dc.lft.to/lastmile_qr_scan"}, "type": "electric_scooter", "fusion_lon": 0.0, "fusion_lat": 0.0}, {"lat": 38.9187985, "lon": -77.009246, "is_disabled": 0, "bike_id": "5fc7cd1ef6a0579d03e5fd1b539f9578", "name": "5fc7cd1ef6a0579d03e5fd1b539f9578", "is_reserved": 0, "rental_uris": {"android": "https://dc.lft.to/lastmile_qr_scan", "ios": "https://dc.lft.to/lastmile_qr_scan"}, "type": "electric_scooter", "fusion_lon": 0.0, "fusion_lat": 0.0}, {"lat": 38.90980416666667, "lon": -77.03188233333333, "is_disabled": 0, "bike_id": "46206dcafeeb26e20f70e420b82e0188", "name": "46206dcafeeb26e20f70e420b82e0188", "is_reserved": 0, "rental_uris": {"android": "https://dc.lft.to/lastmile_qr_scan", "ios": "https://dc.lft.to/lastmile_qr_scan"}, "type": "electric_scooter", "fusion_lon": 0.0, "fusion_lat": 0.0}, {"lat": 38.91693866666667, "lon": -77.02596633333333, "is_disabled": 0, "bike_id": "8d38836cd375d0945feb09fd74bac48b", "name": "8d38836cd375d0945feb09fd74bac48b", "is_reserved": 0, "rental_uris": {"android": "https://dc.lft.to/lastmile_qr_scan", "ios": "https://dc.lft.to/lastmile_qr_scan"}, "type": "electric_scooter", "fusion_lon": 0.0, "fusion_lat": 0.0}, {"lat": 38.90074583333333, "lon": -77.04862316666667, "is_disabled": 0, "bike_id": "5a4ea41569df961c1b54b30c457ad15a", "name": "5a4ea41569df961c1b54b30c457ad15a", "is_reserved": 0, "rental_uris": {"android": "https://dc.lft.to/lastmile_qr_scan", "ios": "https://dc.lft.to/lastmile_qr_scan"}, "type": "electric_scooter", "fusion_lon": 0.0, "fusion_lat": 0.0}, {"lat": 38.897330833333335, "lon": -77.055235, "is_disabled": 0, "bike_id": "3f266d26f69fa57032932322ea76ab29", "name": "3f266d26f69fa57032932322ea76ab29", "is_reserved": 0, "rental_uris": {"android": "https://dc.lft.to/lastmile_qr_scan", "ios": "https://dc.lft.to/lastmile_qr_scan"}, "type": "electric_scooter", "fusion_lon": 0.0, "fusion_lat": 0.0}, {"lat": 38.897217, "lon": -77.02532833333333, "is_disabled": 0, "bike_id": "ea2ea7a4f1ee9766890f1af8eb472066", "name": "ea2ea7a4f1ee9766890f1af8eb472066", "is_reserved": 0, "rental_uris": {"android": "https://dc.lft.to/lastmile_qr_scan", "ios": "https://dc.lft.to/lastmile_qr_scan"}, "type": "electric_scooter", "fusion_lon": 0.0, "fusion_lat": 0.0}, {"lat": 38.92740216666667, "lon": -77.02217666666667, "is_disabled": 0, "bike_id": "9283482ff2f3a7391cb6bcb8bb7c4a70", "name": "9283482ff2f3a7391cb6bcb8bb7c4a70", "is_reserved": 0, "rental_uris": {"android": "https://dc.lft.to/lastmile_qr_scan", "ios": "https://dc.lft.to/lastmile_qr_scan"}, "type": "electric_scooter", "fusion_lon": 0.0, "fusion_lat": 0.0}, {"lat": 38.928941333333334, "lon": -77.03238816666666, "is_disabled": 0, "bike_id": "a56aa001795fe925df0823bc4eaf11b4", "name": "a56aa001795fe925df0823bc4eaf11b4", "is_reserved": 0, "rental_uris": {"android": "https://dc.lft.to/lastmile_qr_scan", "ios": "https://dc.lft.to/lastmile_qr_scan"}, "type": "electric_scooter", "fusion_lon": 0.0, "fusion_lat": 0.0}, {"lat": 38.9242735, "lon": -77.04044516666667, "is_disabled": 0, "bike_id": "c0bb6027ad48159726c381c3dfa21e94", "name": "c0bb6027ad48159726c381c3dfa21e94", "is_reserved": 0, "rental_uris": {"android": "https://dc.lft.to/lastmile_qr_scan", "ios": "https://dc.lft.to/lastmile_qr_scan"}, "type": "electric_scooter", "fusion_lon": 0.0, "fusion_lat": 0.0}, {"lat": 38.93118716666667, "lon": -77.02137233333333, "is_disabled": 0, "bike_id": "ee124d4e15280b8921220c605d71f32c", "name": "ee124d4e15280b8921220c605d71f32c", "is_reserved": 0, "rental_uris": {"android": "https://dc.lft.to/lastmile_qr_scan", "ios": "https://dc.lft.to/lastmile_qr_scan"}, "type": "electric_scooter", "fusion_lon": 0.0, "fusion_lat": 0.0}, {"lat": 38.9367375, "lon": -77.03284883333333, "is_disabled": 0, "bike_id": "d1b8bed1f1db24af84d8dc285e4f87bb", "name": "d1b8bed1f1db24af84d8dc285e4f87bb", "is_reserved": 0, "rental_uris": {"android": "https://dc.lft.to/lastmile_qr_scan", "ios": "https://dc.lft.to/lastmile_qr_scan"}, "type": "electric_scooter", "fusion_lon": 0.0, "fusion_lat": 0.0}, {"lat": 38.81550633333333, "lon": -77.04634533333333, "is_disabled": 0, "bike_id": "e91ef9f8fdd553a1aca31e4ef749467a", "name": "e91ef9f8fdd553a1aca31e4ef749467a", "is_reserved": 0, "rental_uris": {"android": "https://dc.lft.to/lastmile_qr_scan", "ios": "https://dc.lft.to/lastmile_qr_scan"}, "type": "electric_bike", "fusion_lon": 0.0, "fusion_lat": 0.0}, {"lat": 38.89717516666666, "lon": -76.97872716666667, "is_disabled": 0, "bike_id": "fc9cc4b09ab7b902a67a7617995249e8", "name": "fc9cc4b09ab7b902a67a7617995249e8", "is_reserved": 0, "rental_uris": {"android": "https://dc.lft.to/lastmile_qr_scan", "ios": "https://dc.lft.to/lastmile_qr_scan"}, "type": "electric_scooter", "fusion_lon": 0.0, "fusion_lat": 0.0}, {"lat": 38.8936945, "lon": -77.04675716666667, "is_disabled": 0, "bike_id": "160d737d52aa1c11215350994f1668bf", "name": "160d737d52aa1c11215350994f1668bf", "is_reserved": 0, "rental_uris": {"android": "https://dc.lft.to/lastmile_qr_scan", "ios": "https://dc.lft.to/lastmile_qr_scan"}, "type": "electric_scooter", "fusion_lon": 0.0, "fusion_lat": 0.0}, {"lat": 38.90032383333333, "lon": -76.98597, "is_disabled": 0, "bike_id": "e5c346f958c97abae00e73abd99fec20", "name": "e5c346f958c97abae00e73abd99fec20", "is_reserved": 0, "rental_uris": {"android": "https://dc.lft.to/lastmile_qr_scan", "ios": "https://dc.lft.to/lastmile_qr_scan"}, "type": "electric_scooter", "fusion_lon": 0.0, "fusion_lat": 0.0}, {"lat": 38.899031, "lon": -77.00997633333333, "is_disabled": 0, "bike_id": "d45f76d0108c425eb6430d9eaaac8f52", "name": "d45f76d0108c425eb6430d9eaaac8f52", "is_reserved": 0, "rental_uris": {"android": "https://dc.lft.to/lastmile_qr_scan", "ios": "https://dc.lft.to/lastmile_qr_scan"}, "type": "electric_scooter", "fusion_lon": 0.0, "fusion_lat": 0.0}, {"lat": 38.90019566666667, "lon": -77.04492883333333, "is_disabled": 0, "bike_id": "cb660f8c7afb9db8cfc29f12ce31e15b", "name": "cb660f8c7afb9db8cfc29f12ce31e15b", "is_reserved": 0, "rental_uris": {"android": "https://dc.lft.to/lastmile_qr_scan", "ios": "https://dc.lft.to/lastmile_qr_scan"}, "type": "electric_scooter", "fusion_lon": 0.0, "fusion_lat": 0.0}, {"lat": 38.91495783333333, "lon": -77.01856566666666, "is_disabled": 0, "bike_id": "629b5046251ab5a7b35c1863be1efdf0", "name": "629b5046251ab5a7b35c1863be1efdf0", "is_reserved": 0, "rental_uris": {"android": "https://dc.lft.to/lastmile_qr_scan", "ios": "https://dc.lft.to/lastmile_qr_scan"}, "type": "electric_scooter", "fusion_lon": 0.0, "fusion_lat": 0.0}, {"lat": 38.92256966666667, "lon": -77.0327835, "is_disabled": 0, "bike_id": "ad3f566e6be2a918b7d2963aeb009a09", "name": "ad3f566e6be2a918b7d2963aeb009a09", "is_reserved": 0, "rental_uris": {"android": "https://dc.lft.to/lastmile_qr_scan", "ios": "https://dc.lft.to/lastmile_qr_scan"}, "type": "electric_scooter", "fusion_lon": 0.0, "fusion_lat": 0.0}, {"lat": 38.905912666666666, "lon": -77.024113, "is_disabled": 0, "bike_id": "f089f8ec5778eeef3cf3c2a5865a118f", "name": "f089f8ec5778eeef3cf3c2a5865a118f", "is_reserved": 0, "rental_uris": {"android": "https://dc.lft.to/lastmile_qr_scan", "ios": "https://dc.lft.to/lastmile_qr_scan"}, "type": "electric_scooter", "fusion_lon": 0.0, "fusion_lat": 0.0}, {"lat": 38.900811166666664, "lon": -77.0486705, "is_disabled": 0, "bike_id": "585842b048072ba80bd5b090433382a0", "name": "585842b048072ba80bd5b090433382a0", "is_reserved": 0, "rental_uris": {"android": "https://dc.lft.to/lastmile_qr_scan", "ios": "https://dc.lft.to/lastmile_qr_scan"}, "type": "electric_scooter", "fusion_lon": 0.0, "fusion_lat": 0.0}, {"lat": 38.89544, "lon": -76.98338216666667, "is_disabled": 0, "bike_id": "ce75aa1fd849ebc98c2d1ed99bf0fa58", "name": "ce75aa1fd849ebc98c2d1ed99bf0fa58", "is_reserved": 0, "rental_uris": {"android": "https://dc.lft.to/lastmile_qr_scan", "ios": "https://dc.lft.to/lastmile_qr_scan"}, "type": "electric_scooter", "fusion_lon": 0.0, "fusion_lat": 0.0}, {"lat": 38.914077, "lon": -77.0184125, "is_disabled": 0, "bike_id": "185c69d0d18f6d738c112dc0acf4d4fd", "name": "185c69d0d18f6d738c112dc0acf4d4fd", "is_reserved": 0, "rental_uris": {"android": "https://dc.lft.to/lastmile_qr_scan", "ios": "https://dc.lft.to/lastmile_qr_scan"}, "type": "electric_scooter", "fusion_lon": 0.0, "fusion_lat": 0.0}, {"lat": 38.8998125, "lon": -77.0419275, "is_disabled": 0, "bike_id": "311ac49d4a25b17edf75fd3da26d0058", "name": "311ac49d4a25b17edf75fd3da26d0058", "is_reserved": 0, "rental_uris": {"android": "https://dc.lft.to/lastmile_qr_scan", "ios": "https://dc.lft.to/lastmile_qr_scan"}, "type": "electric_scooter", "fusion_lon": 0.0, "fusion_lat": 0.0}, {"lat": 38.92244266666667, "lon": -77.07473383333334, "is_disabled": 0, "bike_id": "a2698f0497a55ad1c243fa6a9bb1426c", "name": "a2698f0497a55ad1c243fa6a9bb1426c", "is_reserved": 0, "rental_uris": {"android": "https://dc.lft.to/lastmile_qr_scan", "ios": "https://dc.lft.to/lastmile_qr_scan"}, "type": "electric_scooter", "fusion_lon": 0.0, "fusion_lat": 0.0}, {"lat": 38.90573166666667, "lon": -77.0345925, "is_disabled": 0, "bike_id": "2b5e9479d5d5fd8faee5de7ac0d6bc16", "name": "2b5e9479d5d5fd8faee5de7ac0d6bc16", "is_reserved": 0, "rental_uris": {"android": "https://dc.lft.to/lastmile_qr_scan", "ios": "https://dc.lft.to/lastmile_qr_scan"}, "type": "electric_scooter", "fusion_lon": 0.0, "fusion_lat": 0.0}, {"lat": 38.925341833333334, "lon": -77.03445816666667, "is_disabled": 0, "bike_id": "4f62062ec52bda9dd051569f126eb143", "name": "4f62062ec52bda9dd051569f126eb143", "is_reserved": 0, "rental_uris": {"android": "https://dc.lft.to/lastmile_qr_scan", "ios": "https://dc.lft.to/lastmile_qr_scan"}, "type": "electric_scooter", "fusion_lon": 0.0, "fusion_lat": 0.0}, {"lat": 38.91584533333333, "lon": -77.03209833333334, "is_disabled": 0, "bike_id": "aeb1cd8c0e30ebf4e111dff801b3976c", "name": "aeb1cd8c0e30ebf4e111dff801b3976c", "is_reserved": 0, "rental_uris": {"android": "https://dc.lft.to/lastmile_qr_scan", "ios": "https://dc.lft.to/lastmile_qr_scan"}, "type": "electric_scooter", "fusion_lon": 0.0, "fusion_lat": 0.0}, {"lat": 38.916073833333336, "lon": -77.031918, "is_disabled": 0, "bike_id": "714e03cc49c1bb4b39b5385aed0e3737", "name": "714e03cc49c1bb4b39b5385aed0e3737", "is_reserved": 0, "rental_uris": {"android": "https://dc.lft.to/lastmile_qr_scan", "ios": "https://dc.lft.to/lastmile_qr_scan"}, "type": "electric_scooter", "fusion_lon": 0.0, "fusion_lat": 0.0}, {"lat": 38.93267383333333, "lon": -77.019345, "is_disabled": 0, "bike_id": "1fc031563a50cb72049f3a7ba95fbbed", "name": "1fc031563a50cb72049f3a7ba95fbbed", "is_reserved": 0, "rental_uris": {"android": "https://dc.lft.to/lastmile_qr_scan", "ios": "https://dc.lft.to/lastmile_qr_scan"}, "type": "electric_scooter", "fusion_lon": 0.0, "fusion_lat": 0.0}, {"lat": 38.911033, "lon": -77.00933816666667, "is_disabled": 0, "bike_id": "7a57ee50394e36e89aae07a37606f970", "name": "7a57ee50394e36e89aae07a37606f970", "is_reserved": 0, "rental_uris": {"android": "https://dc.lft.to/lastmile_qr_scan", "ios": "https://dc.lft.to/lastmile_qr_scan"}, "type": "electric_scooter", "fusion_lon": 0.0, "fusion_lat": 0.0}, {"lat": 38.896195666666664, "lon": -77.04592633333333, "is_disabled": 0, "bike_id": "29d4258f5b02f8960d79d2138dcaea79", "name": "29d4258f5b02f8960d79d2138dcaea79", "is_reserved": 0, "rental_uris": {"android": "https://dc.lft.to/lastmile_qr_scan", "ios": "https://dc.lft.to/lastmile_qr_scan"}, "type": "electric_scooter", "fusion_lon": 0.0, "fusion_lat": 0.0}, {"lat": 38.9170325, "lon": -77.02856116666666, "is_disabled": 0, "bike_id": "4c5a3ba61eb08ed3263a08d6e3ad454e", "name": "4c5a3ba61eb08ed3263a08d6e3ad454e", "is_reserved": 0, "rental_uris": {"android": "https://dc.lft.to/lastmile_qr_scan", "ios": "https://dc.lft.to/lastmile_qr_scan"}, "type": "electric_scooter", "fusion_lon": 0.0, "fusion_lat": 0.0}, {"lat": 38.90633833333333, "lon": -77.01164116666666, "is_disabled": 0, "bike_id": "f2295edfbcc1ca87c91e202d8f8ba55b", "name": "f2295edfbcc1ca87c91e202d8f8ba55b", "is_reserved": 0, "rental_uris": {"android": "https://dc.lft.to/lastmile_qr_scan", "ios": "https://dc.lft.to/lastmile_qr_scan"}, "type": "electric_scooter", "fusion_lon": 0.0, "fusion_lat": 0.0}, {"lat": 38.923985333333334, "lon": -77.02125516666666, "is_disabled": 0, "bike_id": "15c8d6247535358a5c8cc97a1dbdbeee", "name": "15c8d6247535358a5c8cc97a1dbdbeee", "is_reserved": 0, "rental_uris": {"android": "https://dc.lft.to/lastmile_qr_scan", "ios": "https://dc.lft.to/lastmile_qr_scan"}, "type": "electric_scooter", "fusion_lon": 0.0, "fusion_lat": 0.0}, {"lat": 38.924313, "lon": -77.04043033333333, "is_disabled": 0, "bike_id": "3ef6c32b360814dc258436ebcc28b513", "name": "3ef6c32b360814dc258436ebcc28b513", "is_reserved": 0, "rental_uris": {"android": "https://dc.lft.to/lastmile_qr_scan", "ios": "https://dc.lft.to/lastmile_qr_scan"}, "type": "electric_scooter", "fusion_lon": 0.0, "fusion_lat": 0.0}, {"lat": 38.905857, "lon": -77.00235383333333, "is_disabled": 0, "bike_id": "92dc7b777ab68839509b4778ba79c2ba", "name": "92dc7b777ab68839509b4778ba79c2ba", "is_reserved": 0, "rental_uris": {"android": "https://dc.lft.to/lastmile_qr_scan", "ios": "https://dc.lft.to/lastmile_qr_scan"}, "type": "electric_scooter", "fusion_lon": 0.0, "fusion_lat": 0.0}, {"lat": 38.91842533333333, "lon": -77.0229425, "is_disabled": 0, "bike_id": "441c5f21d5d9f164e464384099193eaf", "name": "441c5f21d5d9f164e464384099193eaf", "is_reserved": 0, "rental_uris": {"android": "https://dc.lft.to/lastmile_qr_scan", "ios": "https://dc.lft.to/lastmile_qr_scan"}, "type": "electric_scooter", "fusion_lon": 0.0, "fusion_lat": 0.0}, {"lat": 38.90695783333334, "lon": -76.95252366666666, "is_disabled": 0, "bike_id": "00b4ffc98d60b058067ddd872059d6b7", "name": "00b4ffc98d60b058067ddd872059d6b7", "is_reserved": 0, "rental_uris": {"android": "https://dc.lft.to/lastmile_qr_scan", "ios": "https://dc.lft.to/lastmile_qr_scan"}, "type": "electric_bike", "fusion_lon": 0.0, "fusion_lat": 0.0}, {"lat": 38.902411666666666, "lon": -77.002046, "is_disabled": 0, "bike_id": "bb1afece818bdef86045674539f261fc", "name": "bb1afece818bdef86045674539f261fc", "is_reserved": 0, "rental_uris": {"android": "https://dc.lft.to/lastmile_qr_scan", "ios": "https://dc.lft.to/lastmile_qr_scan"}, "type": "electric_scooter", "fusion_lon": 0.0, "fusion_lat": 0.0}, {"lat": 38.897578833333334, "lon": -77.04830566666666, "is_disabled": 0, "bike_id": "a490c9ce5cc129ef719239c5102680c6", "name": "a490c9ce5cc129ef719239c5102680c6", "is_reserved": 0, "rental_uris": {"android": "https://dc.lft.to/lastmile_qr_scan", "ios": "https://dc.lft.to/lastmile_qr_scan"}, "type": "electric_scooter", "fusion_lon": 0.0, "fusion_lat": 0.0}, {"lat": 38.942642666666664, "lon": -77.029825, "is_disabled": 0, "bike_id": "3d0b6d36372ca615c3e11724ea6ced26", "name": "3d0b6d36372ca615c3e11724ea6ced26", "is_reserved": 0, "rental_uris": {"android": "https://dc.lft.to/lastmile_qr_scan", "ios": "https://dc.lft.to/lastmile_qr_scan"}, "type": "electric_scooter", "fusion_lon": 0.0, "fusion_lat": 0.0}, {"lat": 38.899351833333334, "lon": -77.0201355, "is_disabled": 0, "bike_id": "936632119572955cc741e3d365342790", "name": "936632119572955cc741e3d365342790", "is_reserved": 0, "rental_uris": {"android": "https://dc.lft.to/lastmile_qr_scan", "ios": "https://dc.lft.to/lastmile_qr_scan"}, "type": "electric_scooter", "fusion_lon": 0.0, "fusion_lat": 0.0}, {"lat": 38.9045645, "lon": -77.028557, "is_disabled": 0, "bike_id": "10fee1d19b1ffe2bc26d4b0742030fb7", "name": "10fee1d19b1ffe2bc26d4b0742030fb7", "is_reserved": 0, "rental_uris": {"android": "https://dc.lft.to/lastmile_qr_scan", "ios": "https://dc.lft.to/lastmile_qr_scan"}, "type": "electric_scooter", "fusion_lon": 0.0, "fusion_lat": 0.0}, {"lat": 38.925067, "lon": -77.03251283333333, "is_disabled": 0, "bike_id": "d17080376b04095956dd3dd60d7682b8", "name": "d17080376b04095956dd3dd60d7682b8", "is_reserved": 0, "rental_uris": {"android": "https://dc.lft.to/lastmile_qr_scan", "ios": "https://dc.lft.to/lastmile_qr_scan"}, "type": "electric_scooter", "fusion_lon": 0.0, "fusion_lat": 0.0}, {"lat": 38.983254333333335, "lon": -76.955013, "is_disabled": 0, "bike_id": "735528b258343121f7c81c898e96dafa", "name": "735528b258343121f7c81c898e96dafa", "is_reserved": 0, "rental_uris": {"android": "https://dc.lft.to/lastmile_qr_scan", "ios": "https://dc.lft.to/lastmile_qr_scan"}, "type": "electric_bike", "fusion_lon": 0.0, "fusion_lat": 0.0}, {"lat": 38.9081575, "lon": -77.03209583333333, "is_disabled": 0, "bike_id": "862d49cba6b71af008e99aa2b173d37f", "name": "862d49cba6b71af008e99aa2b173d37f", "is_reserved": 0, "rental_uris": {"android": "https://dc.lft.to/lastmile_qr_scan", "ios": "https://dc.lft.to/lastmile_qr_scan"}, "type": "electric_scooter", "fusion_lon": 0.0, "fusion_lat": 0.0}, {"lat": 38.878909666666665, "lon": -77.02318383333333, "is_disabled": 0, "bike_id": "38d485a93c96a5f6c2b48cb091286bd9", "name": "38d485a93c96a5f6c2b48cb091286bd9", "is_reserved": 0, "rental_uris": {"android": "https://dc.lft.to/lastmile_qr_scan", "ios": "https://dc.lft.to/lastmile_qr_scan"}, "type": "electric_scooter", "fusion_lon": 0.0, "fusion_lat": 0.0}, {"lat": 38.89983933333333, "lon": -77.04194233333334, "is_disabled": 0, "bike_id": "31cbb53abe289d97c60fa95d0f38855a", "name": "31cbb53abe289d97c60fa95d0f38855a", "is_reserved": 0, "rental_uris": {"android": "https://dc.lft.to/lastmile_qr_scan", "ios": "https://dc.lft.to/lastmile_qr_scan"}, "type": "electric_scooter", "fusion_lon": 0.0, "fusion_lat": 0.0}, {"lat": 38.894430666666665, "lon": -76.97727916666666, "is_disabled": 0, "bike_id": "77bf3a1e977761c876e02491470c95b8", "name": "77bf3a1e977761c876e02491470c95b8", "is_reserved": 0, "rental_uris": {"android": "https://dc.lft.to/lastmile_qr_scan", "ios": "https://dc.lft.to/lastmile_qr_scan"}, "type": "electric_scooter", "fusion_lon": 0.0, "fusion_lat": 0.0}, {"lat": 38.91634283333333, "lon": -77.04620533333333, "is_disabled": 0, "bike_id": "b41e2880f36c44560634bb11c27cffb7", "name": "b41e2880f36c44560634bb11c27cffb7", "is_reserved": 0, "rental_uris": {"android": "https://dc.lft.to/lastmile_qr_scan", "ios": "https://dc.lft.to/lastmile_qr_scan"}, "type": "electric_scooter", "fusion_lon": 0.0, "fusion_lat": 0.0}, {"lat": 38.92117283333333, "lon": -77.0412595, "is_disabled": 0, "bike_id": "233d9e016723e3dd82dda9830a2c4578", "name": "233d9e016723e3dd82dda9830a2c4578", "is_reserved": 0, "rental_uris": {"android": "https://dc.lft.to/lastmile_qr_scan", "ios": "https://dc.lft.to/lastmile_qr_scan"}, "type": "electric_scooter", "fusion_lon": 0.0, "fusion_lat": 0.0}, {"lat": 38.918184333333336, "lon": -77.0141595, "is_disabled": 0, "bike_id": "a5d1bb629fee7c9f23bc8980aad9563b", "name": "a5d1bb629fee7c9f23bc8980aad9563b", "is_reserved": 0, "rental_uris": {"android": "https://dc.lft.to/lastmile_qr_scan", "ios": "https://dc.lft.to/lastmile_qr_scan"}, "type": "electric_scooter", "fusion_lon": 0.0, "fusion_lat": 0.0}, {"lat": 38.91619033333333, "lon": -77.0280685, "is_disabled": 0, "bike_id": "38e9aca47907847422284631bf05daf5", "name": "38e9aca47907847422284631bf05daf5", "is_reserved": 0, "rental_uris": {"android": "https://dc.lft.to/lastmile_qr_scan", "ios": "https://dc.lft.to/lastmile_qr_scan"}, "type": "electric_scooter", "fusion_lon": 0.0, "fusion_lat": 0.0}, {"lat": 38.87792316666667, "lon": -76.99609266666667, "is_disabled": 0, "bike_id": "b43334d0434ee6ff0d029c3f225718eb", "name": "b43334d0434ee6ff0d029c3f225718eb", "is_reserved": 0, "rental_uris": {"android": "https://dc.lft.to/lastmile_qr_scan", "ios": "https://dc.lft.to/lastmile_qr_scan"}, "type": "electric_scooter", "fusion_lon": 0.0, "fusion_lat": 0.0}, {"lat": 38.88617933333333, "lon": -77.01790883333334, "is_disabled": 0, "bike_id": "79a9b9b09cf030609e8fb674bca91514", "name": "79a9b9b09cf030609e8fb674bca91514", "is_reserved": 0, "rental_uris": {"android": "https://dc.lft.to/lastmile_qr_scan", "ios": "https://dc.lft.to/lastmile_qr_scan"}, "type": "electric_scooter", "fusion_lon": 0.0, "fusion_lat": 0.0}, {"lat": 38.906840833333334, "lon": -76.99958516666666, "is_disabled": 0, "bike_id": "28a59a839dc6243d3727590515c8d35a", "name": "28a59a839dc6243d3727590515c8d35a", "is_reserved": 0, "rental_uris": {"android": "https://dc.lft.to/lastmile_qr_scan", "ios": "https://dc.lft.to/lastmile_qr_scan"}, "type": "electric_scooter", "fusion_lon": 0.0, "fusion_lat": 0.0}, {"lat": 38.8866205, "lon": -77.001129, "is_disabled": 0, "bike_id": "3c27954bc2393370e306ce70abdad255", "name": "3c27954bc2393370e306ce70abdad255", "is_reserved": 0, "rental_uris": {"android": "https://dc.lft.to/lastmile_qr_scan", "ios": "https://dc.lft.to/lastmile_qr_scan"}, "type": "electric_scooter", "fusion_lon": 0.0, "fusion_lat": 0.0}, {"lat": 38.8879915, "lon": -76.95325783333334, "is_disabled": 0, "bike_id": "d6c5690a2637cbd0360032eca2e42d7f", "name": "d6c5690a2637cbd0360032eca2e42d7f", "is_reserved": 0, "rental_uris": {"android": "https://dc.lft.to/lastmile_qr_scan", "ios": "https://dc.lft.to/lastmile_qr_scan"}, "type": "electric_scooter", "fusion_lon": 0.0, "fusion_lat": 0.0}, {"lat": 38.915661666666665, "lon": -77.04162066666666, "is_disabled": 0, "bike_id": "425e299201f7070835c85050bc99058a", "name": "425e299201f7070835c85050bc99058a", "is_reserved": 0, "rental_uris": {"android": "https://dc.lft.to/lastmile_qr_scan", "ios": "https://dc.lft.to/lastmile_qr_scan"}, "type": "electric_scooter", "fusion_lon": 0.0, "fusion_lat": 0.0}, {"lat": 38.897134666666666, "lon": -77.02177733333333, "is_disabled": 0, "bike_id": "2deed2c77d567154183c4b02d01ba9fb", "name": "2deed2c77d567154183c4b02d01ba9fb", "is_reserved": 0, "rental_uris": {"android": "https://dc.lft.to/lastmile_qr_scan", "ios": "https://dc.lft.to/lastmile_qr_scan"}, "type": "electric_scooter", "fusion_lon": 0.0, "fusion_lat": 0.0}, {"lat": 38.92457483333333, "lon": -77.02147133333334, "is_disabled": 0, "bike_id": "5092fa5bc478dd0dbace35b9ee8d3f4d", "name": "5092fa5bc478dd0dbace35b9ee8d3f4d", "is_reserved": 0, "rental_uris": {"android": "https://dc.lft.to/lastmile_qr_scan", "ios": "https://dc.lft.to/lastmile_qr_scan"}, "type": "electric_scooter", "fusion_lon": 0.0, "fusion_lat": 0.0}, {"lat": 38.892466166666665, "lon": -77.0396025, "is_disabled": 0, "bike_id": "d96b35f61845500a17dec5687131fa1e", "name": "d96b35f61845500a17dec5687131fa1e", "is_reserved": 0, "rental_uris": {"android": "https://dc.lft.to/lastmile_qr_scan", "ios": "https://dc.lft.to/lastmile_qr_scan"}, "type": "electric_scooter", "fusion_lon": 0.0, "fusion_lat": 0.0}, {"lat": 38.9166015, "lon": -77.02273216666667, "is_disabled": 0, "bike_id": "595b2b9a5887e3aab863d34425a39cd3", "name": "595b2b9a5887e3aab863d34425a39cd3", "is_reserved": 0, "rental_uris": {"android": "https://dc.lft.to/lastmile_qr_scan", "ios": "https://dc.lft.to/lastmile_qr_scan"}, "type": "electric_scooter", "fusion_lon": 0.0, "fusion_lat": 0.0}, {"lat": 38.907521333333335, "lon": -76.99872183333333, "is_disabled": 0, "bike_id": "eb5e9b680198376938cc408f80ddd270", "name": "eb5e9b680198376938cc408f80ddd270", "is_reserved": 0, "rental_uris": {"android": "https://dc.lft.to/lastmile_qr_scan", "ios": "https://dc.lft.to/lastmile_qr_scan"}, "type": "electric_scooter", "fusion_lon": 0.0, "fusion_lat": 0.0}, {"lat": 38.89792683333334, "lon": -77.01207916666667, "is_disabled": 0, "bike_id": "66151149c5a22403b3735ef780f405a7", "name": "66151149c5a22403b3735ef780f405a7", "is_reserved": 0, "rental_uris": {"android": "https://dc.lft.to/lastmile_qr_scan", "ios": "https://dc.lft.to/lastmile_qr_scan"}, "type": "electric_scooter", "fusion_lon": 0.0, "fusion_lat": 0.0}, {"lat": 38.900119333333336, "lon": -76.98601, "is_disabled": 0, "bike_id": "2ca92d0ebb08da32f61218cdb12c89f9", "name": "2ca92d0ebb08da32f61218cdb12c89f9", "is_reserved": 0, "rental_uris": {"android": "https://dc.lft.to/lastmile_qr_scan", "ios": "https://dc.lft.to/lastmile_qr_scan"}, "type": "electric_scooter", "fusion_lon": 0.0, "fusion_lat": 0.0}, {"lat": 38.925057, "lon": -77.02167466666667, "is_disabled": 0, "bike_id": "a11dd91e97f40d28a97a9f3617c374a4", "name": "a11dd91e97f40d28a97a9f3617c374a4", "is_reserved": 0, "rental_uris": {"android": "https://dc.lft.to/lastmile_qr_scan", "ios": "https://dc.lft.to/lastmile_qr_scan"}, "type": "electric_scooter", "fusion_lon": 0.0, "fusion_lat": 0.0}, {"lat": 38.87398433333333, "lon": -77.002235, "is_disabled": 0, "bike_id": "27cfc928c40f73db35bb9d4ddf1fbe30", "name": "27cfc928c40f73db35bb9d4ddf1fbe30", "is_reserved": 0, "rental_uris": {"android": "https://dc.lft.to/lastmile_qr_scan", "ios": "https://dc.lft.to/lastmile_qr_scan"}, "type": "electric_scooter", "fusion_lon": 0.0, "fusion_lat": 0.0}, {"lat": 38.8960615, "lon": -77.0253475, "is_disabled": 0, "bike_id": "07c0e8167f6dbae7add522fe81cab8e5", "name": "07c0e8167f6dbae7add522fe81cab8e5", "is_reserved": 0, "rental_uris": {"android": "https://dc.lft.to/lastmile_qr_scan", "ios": "https://dc.lft.to/lastmile_qr_scan"}, "type": "electric_scooter", "fusion_lon": 0.0, "fusion_lat": 0.0}, {"lat": 38.9003525, "lon": -77.00199266666667, "is_disabled": 0, "bike_id": "2dabe265306dbb93b62fa0c2160026ea", "name": "2dabe265306dbb93b62fa0c2160026ea", "is_reserved": 0, "rental_uris": {"android": "https://dc.lft.to/lastmile_qr_scan", "ios": "https://dc.lft.to/lastmile_qr_scan"}, "type": "electric_scooter", "fusion_lon": 0.0, "fusion_lat": 0.0}, {"lat": 38.934588, "lon": -77.05318766666667, "is_disabled": 0, "bike_id": "264e10734efc1961db204e374b33aa17", "name": "264e10734efc1961db204e374b33aa17", "is_reserved": 0, "rental_uris": {"android": "https://dc.lft.to/lastmile_qr_scan", "ios": "https://dc.lft.to/lastmile_qr_scan"}, "type": "electric_scooter", "fusion_lon": 0.0, "fusion_lat": 0.0}, {"lat": 38.9271165, "lon": -77.03267766666667, "is_disabled": 0, "bike_id": "4ce20d254b740448ad24855e4cebbcb9", "name": "4ce20d254b740448ad24855e4cebbcb9", "is_reserved": 0, "rental_uris": {"android": "https://dc.lft.to/lastmile_qr_scan", "ios": "https://dc.lft.to/lastmile_qr_scan"}, "type": "electric_scooter", "fusion_lon": 0.0, "fusion_lat": 0.0}, {"lat": 38.897912833333336, "lon": -77.01187433333334, "is_disabled": 0, "bike_id": "6af5352a7eed7bc153836e0badb8fb4a", "name": "6af5352a7eed7bc153836e0badb8fb4a", "is_reserved": 0, "rental_uris": {"android": "https://dc.lft.to/lastmile_qr_scan", "ios": "https://dc.lft.to/lastmile_qr_scan"}, "type": "electric_scooter", "fusion_lon": 0.0, "fusion_lat": 0.0}, {"lat": 38.90077933333333, "lon": -77.02688116666667, "is_disabled": 0, "bike_id": "344a8fe2a52c6ce21d9f4f1f36368b74", "name": "344a8fe2a52c6ce21d9f4f1f36368b74", "is_reserved": 0, "rental_uris": {"android": "https://dc.lft.to/lastmile_qr_scan", "ios": "https://dc.lft.to/lastmile_qr_scan"}, "type": "electric_scooter", "fusion_lon": 0.0, "fusion_lat": 0.0}, {"lat": 38.92446483333333, "lon": -77.02155816666667, "is_disabled": 0, "bike_id": "419e0acc2d9d3a4918d63118fde0fe84", "name": "419e0acc2d9d3a4918d63118fde0fe84", "is_reserved": 0, "rental_uris": {"android": "https://dc.lft.to/lastmile_qr_scan", "ios": "https://dc.lft.to/lastmile_qr_scan"}, "type": "electric_scooter", "fusion_lon": 0.0, "fusion_lat": 0.0}, {"lat": 38.9297565, "lon": -77.027913, "is_disabled": 0, "bike_id": "7f576f149efca6b96c91c3eed691f9b2", "name": "7f576f149efca6b96c91c3eed691f9b2", "is_reserved": 0, "rental_uris": {"android": "https://dc.lft.to/lastmile_qr_scan", "ios": "https://dc.lft.to/lastmile_qr_scan"}, "type": "electric_scooter", "fusion_lon": 0.0, "fusion_lat": 0.0}, {"lat": 38.905361166666665, "lon": -77.057721, "is_disabled": 0, "bike_id": "646b81f67911199911eac04657186a9f", "name": "646b81f67911199911eac04657186a9f", "is_reserved": 0, "rental_uris": {"android": "https://dc.lft.to/lastmile_qr_scan", "ios": "https://dc.lft.to/lastmile_qr_scan"}, "type": "electric_scooter", "fusion_lon": 0.0, "fusion_lat": 0.0}, {"lat": 38.884578, "lon": -76.99427016666667, "is_disabled": 0, "bike_id": "5970e4cde6c2f1e9d27bacb67aebdcb3", "name": "5970e4cde6c2f1e9d27bacb67aebdcb3", "is_reserved": 0, "rental_uris": {"android": "https://dc.lft.to/lastmile_qr_scan", "ios": "https://dc.lft.to/lastmile_qr_scan"}, "type": "electric_scooter", "fusion_lon": 0.0, "fusion_lat": 0.0}, {"lat": 38.911866333333336, "lon": -77.02187416666666, "is_disabled": 0, "bike_id": "cbdd93106a2ec406c510f80a70b6a54a", "name": "cbdd93106a2ec406c510f80a70b6a54a", "is_reserved": 0, "rental_uris": {"android": "https://dc.lft.to/lastmile_qr_scan", "ios": "https://dc.lft.to/lastmile_qr_scan"}, "type": "electric_scooter", "fusion_lon": 0.0, "fusion_lat": 0.0}, {"lat": 38.805084, "lon": -77.04810066666667, "is_disabled": 0, "bike_id": "499fd848680bea6221c695c69d0d80de", "name": "499fd848680bea6221c695c69d0d80de", "is_reserved": 0, "rental_uris": {"android": "https://dc.lft.to/lastmile_qr_scan", "ios": "https://dc.lft.to/lastmile_qr_scan"}, "type": "electric_bike", "fusion_lon": 0.0, "fusion_lat": 0.0}, {"lat": 38.90956583333333, "lon": -77.0328845, "is_disabled": 0, "bike_id": "a0777af0771d35a1855e19c32f553d08", "name": "a0777af0771d35a1855e19c32f553d08", "is_reserved": 0, "rental_uris": {"android": "https://dc.lft.to/lastmile_qr_scan", "ios": "https://dc.lft.to/lastmile_qr_scan"}, "type": "electric_scooter", "fusion_lon": 0.0, "fusion_lat": 0.0}, {"lat": 38.89424266666666, "lon": -77.09450783333334, "is_disabled": 0, "bike_id": "d3aabfffc1e28ff210af8f733af56664", "name": "d3aabfffc1e28ff210af8f733af56664", "is_reserved": 0, "rental_uris": {"android": "https://dc.lft.to/lastmile_qr_scan", "ios": "https://dc.lft.to/lastmile_qr_scan"}, "type": "electric_bike", "fusion_lon": 0.0, "fusion_lat": 0.0}, {"lat": 38.92146533333333, "lon": -77.0207355, "is_disabled": 0, "bike_id": "02f763fecf50f661dbd9efdee912c31d", "name": "02f763fecf50f661dbd9efdee912c31d", "is_reserved": 0, "rental_uris": {"android": "https://dc.lft.to/lastmile_qr_scan", "ios": "https://dc.lft.to/lastmile_qr_scan"}, "type": "electric_scooter", "fusion_lon": 0.0, "fusion_lat": 0.0}, {"lat": 39.02296666666667, "lon": -77.02106116666667, "is_disabled": 0, "bike_id": "7cd0fe4681149d7b2252e1fcfec7e2e2", "name": "7cd0fe4681149d7b2252e1fcfec7e2e2", "is_reserved": 0, "rental_uris": {"android": "https://dc.lft.to/lastmile_qr_scan", "ios": "https://dc.lft.to/lastmile_qr_scan"}, "type": "electric_bike", "fusion_lon": 0.0, "fusion_lat": 0.0}, {"lat": 38.90581316666667, "lon": -77.02968633333333, "is_disabled": 0, "bike_id": "199ae5461d74c6e8fae31797cb5b348e", "name": "199ae5461d74c6e8fae31797cb5b348e", "is_reserved": 0, "rental_uris": {"android": "https://dc.lft.to/lastmile_qr_scan", "ios": "https://dc.lft.to/lastmile_qr_scan"}, "type": "electric_scooter", "fusion_lon": 0.0, "fusion_lat": 0.0}, {"lat": 38.974812166666666, "lon": -76.9867875, "is_disabled": 0, "bike_id": "e42f34112f91f281c002c9b67bb6ef3e", "name": "e42f34112f91f281c002c9b67bb6ef3e", "is_reserved": 0, "rental_uris": {"android": "https://dc.lft.to/lastmile_qr_scan", "ios": "https://dc.lft.to/lastmile_qr_scan"}, "type": "electric_bike", "fusion_lon": 0.0, "fusion_lat": 0.0}, {"lat": 38.92952783333333, "lon": -77.055102, "is_disabled": 0, "bike_id": "5da9bf381e6290122c70382afeee63d9", "name": "5da9bf381e6290122c70382afeee63d9", "is_reserved": 0, "rental_uris": {"android": "https://dc.lft.to/lastmile_qr_scan", "ios": "https://dc.lft.to/lastmile_qr_scan"}, "type": "electric_scooter", "fusion_lon": 0.0, "fusion_lat": 0.0}, {"lat": 38.89410216666667, "lon": -77.024406, "is_disabled": 0, "bike_id": "ea326afb274d1abd52daca60c2e8358b", "name": "ea326afb274d1abd52daca60c2e8358b", "is_reserved": 0, "rental_uris": {"android": "https://dc.lft.to/lastmile_qr_scan", "ios": "https://dc.lft.to/lastmile_qr_scan"}, "type": "electric_scooter", "fusion_lon": 0.0, "fusion_lat": 0.0}, {"lat": 38.921649333333335, "lon": -77.021038, "is_disabled": 0, "bike_id": "4181a32bde637609b068e2bab349ca1e", "name": "4181a32bde637609b068e2bab349ca1e", "is_reserved": 0, "rental_uris": {"android": "https://dc.lft.to/lastmile_qr_scan", "ios": "https://dc.lft.to/lastmile_qr_scan"}, "type": "electric_scooter", "fusion_lon": 0.0, "fusion_lat": 0.0}, {"lat": 38.903446333333335, "lon": -77.04944733333333, "is_disabled": 0, "bike_id": "22eb4b4d32c8431cdc895720b64d45bd", "name": "22eb4b4d32c8431cdc895720b64d45bd", "is_reserved": 0, "rental_uris": {"android": "https://dc.lft.to/lastmile_qr_scan", "ios": "https://dc.lft.to/lastmile_qr_scan"}, "type": "electric_scooter", "fusion_lon": 0.0, "fusion_lat": 0.0}, {"lat": 38.892549, "lon": -77.04503966666667, "is_disabled": 0, "bike_id": "a7842c6d7d33d4b345d61d6e8aa4073b", "name": "a7842c6d7d33d4b345d61d6e8aa4073b", "is_reserved": 0, "rental_uris": {"android": "https://dc.lft.to/lastmile_qr_scan", "ios": "https://dc.lft.to/lastmile_qr_scan"}, "type": "electric_scooter", "fusion_lon": 0.0, "fusion_lat": 0.0}, {"lat": 38.946388, "lon": -76.993112, "is_disabled": 0, "bike_id": "c9337f7502e0671d47bd31c0138358b9", "name": "c9337f7502e0671d47bd31c0138358b9", "is_reserved": 0, "rental_uris": {"android": "https://dc.lft.to/lastmile_qr_scan", "ios": "https://dc.lft.to/lastmile_qr_scan"}, "type": "electric_bike", "fusion_lon": 0.0, "fusion_lat": 0.0}, {"lat": 38.899675, "lon": -77.04503316666667, "is_disabled": 0, "bike_id": "3d40484256c8539b4c074ff86f35cf6e", "name": "3d40484256c8539b4c074ff86f35cf6e", "is_reserved": 0, "rental_uris": {"android": "https://dc.lft.to/lastmile_qr_scan", "ios": "https://dc.lft.to/lastmile_qr_scan"}, "type": "electric_scooter", "fusion_lon": 0.0, "fusion_lat": 0.0}, {"lat": 38.91648583333333, "lon": -77.01024433333333, "is_disabled": 0, "bike_id": "3a945065bb9e069377b965dab31bd191", "name": "3a945065bb9e069377b965dab31bd191", "is_reserved": 0, "rental_uris": {"android": "https://dc.lft.to/lastmile_qr_scan", "ios": "https://dc.lft.to/lastmile_qr_scan"}, "type": "electric_scooter", "fusion_lon": 0.0, "fusion_lat": 0.0}, {"lat": 38.92339716666667, "lon": -77.02137266666666, "is_disabled": 0, "bike_id": "3bd89838b10314fa7ff0884f950b40ce", "name": "3bd89838b10314fa7ff0884f950b40ce", "is_reserved": 0, "rental_uris": {"android": "https://dc.lft.to/lastmile_qr_scan", "ios": "https://dc.lft.to/lastmile_qr_scan"}, "type": "electric_scooter", "fusion_lon": 0.0, "fusion_lat": 0.0}, {"lat": 38.920509833333334, "lon": -77.04189583333333, "is_disabled": 0, "bike_id": "1254772c5b87ab9e79f2f39191a857e1", "name": "1254772c5b87ab9e79f2f39191a857e1", "is_reserved": 0, "rental_uris": {"android": "https://dc.lft.to/lastmile_qr_scan", "ios": "https://dc.lft.to/lastmile_qr_scan"}, "type": "electric_scooter", "fusion_lon": 0.0, "fusion_lat": 0.0}, {"lat": 38.92369016666667, "lon": -77.01954733333334, "is_disabled": 0, "bike_id": "f6e8a352e1d962c05854919a7b03bab9", "name": "f6e8a352e1d962c05854919a7b03bab9", "is_reserved": 0, "rental_uris": {"android": "https://dc.lft.to/lastmile_qr_scan", "ios": "https://dc.lft.to/lastmile_qr_scan"}, "type": "electric_scooter", "fusion_lon": 0.0, "fusion_lat": 0.0}, {"lat": 38.80452666666667, "lon": -77.06077466666666, "is_disabled": 0, "bike_id": "007af17fdf671f04d5a7563048c2e350", "name": "007af17fdf671f04d5a7563048c2e350", "is_reserved": 0, "rental_uris": {"android": "https://dc.lft.to/lastmile_qr_scan", "ios": "https://dc.lft.to/lastmile_qr_scan"}, "type": "electric_bike", "fusion_lon": 0.0, "fusion_lat": 0.0}, {"lat": 38.871164, "lon": -77.0075295, "is_disabled": 0, "bike_id": "ce3d106c06648885bd5dc59c48e60747", "name": "ce3d106c06648885bd5dc59c48e60747", "is_reserved": 0, "rental_uris": {"android": "https://dc.lft.to/lastmile_qr_scan", "ios": "https://dc.lft.to/lastmile_qr_scan"}, "type": "electric_scooter", "fusion_lon": 0.0, "fusion_lat": 0.0}, {"lat": 38.931096833333335, "lon": -77.02118083333333, "is_disabled": 0, "bike_id": "6771c04ac5c49351afab3ebd6e3d3929", "name": "6771c04ac5c49351afab3ebd6e3d3929", "is_reserved": 0, "rental_uris": {"android": "https://dc.lft.to/lastmile_qr_scan", "ios": "https://dc.lft.to/lastmile_qr_scan"}, "type": "electric_scooter", "fusion_lon": 0.0, "fusion_lat": 0.0}, {"lat": 38.899728333333336, "lon": -77.03199266666667, "is_disabled": 0, "bike_id": "f27a939ea49c321029b9189a617b5cf4", "name": "f27a939ea49c321029b9189a617b5cf4", "is_reserved": 0, "rental_uris": {"android": "https://dc.lft.to/lastmile_qr_scan", "ios": "https://dc.lft.to/lastmile_qr_scan"}, "type": "electric_scooter", "fusion_lon": 0.0, "fusion_lat": 0.0}, {"lat": 38.861256166666664, "lon": -77.00322783333333, "is_disabled": 0, "bike_id": "dffe76ee1e9d2f6872b50605b4913d15", "name": "dffe76ee1e9d2f6872b50605b4913d15", "is_reserved": 0, "rental_uris": {"android": "https://dc.lft.to/lastmile_qr_scan", "ios": "https://dc.lft.to/lastmile_qr_scan"}, "type": "electric_scooter", "fusion_lon": 0.0, "fusion_lat": 0.0}, {"lat": 38.905753, "lon": -77.01856283333333, "is_disabled": 0, "bike_id": "f230392d680ba1dd94f031263de80f83", "name": "f230392d680ba1dd94f031263de80f83", "is_reserved": 0, "rental_uris": {"android": "https://dc.lft.to/lastmile_qr_scan", "ios": "https://dc.lft.to/lastmile_qr_scan"}, "type": "electric_scooter", "fusion_lon": 0.0, "fusion_lat": 0.0}, {"lat": 38.88322733333333, "lon": -77.003036, "is_disabled": 0, "bike_id": "1cc28cc3a588e17433c8df1300f07067", "name": "1cc28cc3a588e17433c8df1300f07067", "is_reserved": 0, "rental_uris": {"android": "https://dc.lft.to/lastmile_qr_scan", "ios": "https://dc.lft.to/lastmile_qr_scan"}, "type": "electric_scooter", "fusion_lon": 0.0, "fusion_lat": 0.0}, {"lat": 38.9209565, "lon": -77.03941983333333, "is_disabled": 0, "bike_id": "05a7826d609e74a3d9faac9e0553e38f", "name": "05a7826d609e74a3d9faac9e0553e38f", "is_reserved": 0, "rental_uris": {"android": "https://dc.lft.to/lastmile_qr_scan", "ios": "https://dc.lft.to/lastmile_qr_scan"}, "type": "electric_scooter", "fusion_lon": 0.0, "fusion_lat": 0.0}, {"lat": 38.92258266666666, "lon": -77.04305966666666, "is_disabled": 0, "bike_id": "3d4be2da51a6cc11c4dae04e66d1bbcd", "name": "3d4be2da51a6cc11c4dae04e66d1bbcd", "is_reserved": 0, "rental_uris": {"android": "https://dc.lft.to/lastmile_qr_scan", "ios": "https://dc.lft.to/lastmile_qr_scan"}, "type": "electric_scooter", "fusion_lon": 0.0, "fusion_lat": 0.0}, {"lat": 38.88608966666666, "lon": -76.98548433333333, "is_disabled": 0, "bike_id": "56380c169878d09128b41d0146d2344c", "name": "56380c169878d09128b41d0146d2344c", "is_reserved": 0, "rental_uris": {"android": "https://dc.lft.to/lastmile_qr_scan", "ios": "https://dc.lft.to/lastmile_qr_scan"}, "type": "electric_scooter", "fusion_lon": 0.0, "fusion_lat": 0.0}, {"lat": 38.921558833333336, "lon": -77.07240016666667, "is_disabled": 0, "bike_id": "82646212f486410486cdba39c24a64bd", "name": "82646212f486410486cdba39c24a64bd", "is_reserved": 0, "rental_uris": {"android": "https://dc.lft.to/lastmile_qr_scan", "ios": "https://dc.lft.to/lastmile_qr_scan"}, "type": "electric_scooter", "fusion_lon": 0.0, "fusion_lat": 0.0}, {"lat": 38.9261455, "lon": -77.021656, "is_disabled": 0, "bike_id": "ff525a04a891fc524d2033824ad08d0c", "name": "ff525a04a891fc524d2033824ad08d0c", "is_reserved": 0, "rental_uris": {"android": "https://dc.lft.to/lastmile_qr_scan", "ios": "https://dc.lft.to/lastmile_qr_scan"}, "type": "electric_scooter", "fusion_lon": 0.0, "fusion_lat": 0.0}, {"lat": 38.887480833333335, "lon": -77.01709283333334, "is_disabled": 0, "bike_id": "288dce33ca8c31f06c22200d6c6e163d", "name": "288dce33ca8c31f06c22200d6c6e163d", "is_reserved": 0, "rental_uris": {"android": "https://dc.lft.to/lastmile_qr_scan", "ios": "https://dc.lft.to/lastmile_qr_scan"}, "type": "electric_scooter", "fusion_lon": 0.0, "fusion_lat": 0.0}, {"lat": 38.906466, "lon": -77.006138, "is_disabled": 0, "bike_id": "853f608e38872e7484610df9b8538844", "name": "853f608e38872e7484610df9b8538844", "is_reserved": 0, "rental_uris": {"android": "https://dc.lft.to/lastmile_qr_scan", "ios": "https://dc.lft.to/lastmile_qr_scan"}, "type": "electric_scooter", "fusion_lon": 0.0, "fusion_lat": 0.0}, {"lat": 38.94720783333333, "lon": -77.09880016666666, "is_disabled": 0, "bike_id": "e4ecbbffe554d06b565233577b6cb244", "name": "e4ecbbffe554d06b565233577b6cb244", "is_reserved": 0, "rental_uris": {"android": "https://dc.lft.to/lastmile_qr_scan", "ios": "https://dc.lft.to/lastmile_qr_scan"}, "type": "electric_bike", "fusion_lon": 0.0, "fusion_lat": 0.0}, {"lat": 38.91042383333333, "lon": -76.99100883333334, "is_disabled": 0, "bike_id": "c6b69e817d2d7893de8a5992fb2bc616", "name": "c6b69e817d2d7893de8a5992fb2bc616", "is_reserved": 0, "rental_uris": {"android": "https://dc.lft.to/lastmile_qr_scan", "ios": "https://dc.lft.to/lastmile_qr_scan"}, "type": "electric_scooter", "fusion_lon": 0.0, "fusion_lat": 0.0}, {"lat": 38.98012216666667, "lon": -77.06413016666667, "is_disabled": 0, "bike_id": "3260ca89ead01071f51736219bf7e498", "name": "3260ca89ead01071f51736219bf7e498", "is_reserved": 0, "rental_uris": {"android": "https://dc.lft.to/lastmile_qr_scan", "ios": "https://dc.lft.to/lastmile_qr_scan"}, "type": "electric_bike", "fusion_lon": 0.0, "fusion_lat": 0.0}, {"lat": 38.836865333333336, "lon": -77.10345233333334, "is_disabled": 0, "bike_id": "27725007dc47ae082b876d8aa338959d", "name": "27725007dc47ae082b876d8aa338959d", "is_reserved": 0, "rental_uris": {"android": "https://dc.lft.to/lastmile_qr_scan", "ios": "https://dc.lft.to/lastmile_qr_scan"}, "type": "electric_bike", "fusion_lon": 0.0, "fusion_lat": 0.0}, {"lat": 38.89600383333333, "lon": -77.00913883333334, "is_disabled": 0, "bike_id": "b19b5f52ec6b1d708229d69b7d8c5ed7", "name": "b19b5f52ec6b1d708229d69b7d8c5ed7", "is_reserved": 0, "rental_uris": {"android": "https://dc.lft.to/lastmile_qr_scan", "ios": "https://dc.lft.to/lastmile_qr_scan"}, "type": "electric_scooter", "fusion_lon": 0.0, "fusion_lat": 0.0}, {"lat": 38.8961365, "lon": -77.00560983333334, "is_disabled": 0, "bike_id": "5c7883dfc7dd4004b4288f07d64f65e7", "name": "5c7883dfc7dd4004b4288f07d64f65e7", "is_reserved": 0, "rental_uris": {"android": "https://dc.lft.to/lastmile_qr_scan", "ios": "https://dc.lft.to/lastmile_qr_scan"}, "type": "electric_scooter", "fusion_lon": 0.0, "fusion_lat": 0.0}, {"lat": 38.833811, "lon": -77.00305033333333, "is_disabled": 0, "bike_id": "ae256b2f3f0665069b239f3f00ae41cd", "name": "ae256b2f3f0665069b239f3f00ae41cd", "is_reserved": 0, "rental_uris": {"android": "https://dc.lft.to/lastmile_qr_scan", "ios": "https://dc.lft.to/lastmile_qr_scan"}, "type": "electric_scooter", "fusion_lon": 0.0, "fusion_lat": 0.0}, {"lat": 38.918427333333334, "lon": -77.041763, "is_disabled": 0, "bike_id": "1275556b04aa156dc4fa4a2b52aae5c7", "name": "1275556b04aa156dc4fa4a2b52aae5c7", "is_reserved": 0, "rental_uris": {"android": "https://dc.lft.to/lastmile_qr_scan", "ios": "https://dc.lft.to/lastmile_qr_scan"}, "type": "electric_scooter", "fusion_lon": 0.0, "fusion_lat": 0.0}, {"lat": 38.89971083333333, "lon": -77.04718366666667, "is_disabled": 0, "bike_id": "8c37c42fae01eabfe4fe1097d829ada7", "name": "8c37c42fae01eabfe4fe1097d829ada7", "is_reserved": 0, "rental_uris": {"android": "https://dc.lft.to/lastmile_qr_scan", "ios": "https://dc.lft.to/lastmile_qr_scan"}, "type": "electric_scooter", "fusion_lon": 0.0, "fusion_lat": 0.0}, {"lat": 38.836072, "lon": -77.003721, "is_disabled": 0, "bike_id": "333fbb0e4e79f0efa76d69b3ac7c74dd", "name": "333fbb0e4e79f0efa76d69b3ac7c74dd", "is_reserved": 0, "rental_uris": {"android": "https://dc.lft.to/lastmile_qr_scan", "ios": "https://dc.lft.to/lastmile_qr_scan"}, "type": "electric_bike", "fusion_lon": 0.0, "fusion_lat": 0.0}, {"lat": 38.90962066666667, "lon": -77.03339316666667, "is_disabled": 0, "bike_id": "d47c301d6edd642e343495928b9cac19", "name": "d47c301d6edd642e343495928b9cac19", "is_reserved": 0, "rental_uris": {"android": "https://dc.lft.to/lastmile_qr_scan", "ios": "https://dc.lft.to/lastmile_qr_scan"}, "type": "electric_scooter", "fusion_lon": 0.0, "fusion_lat": 0.0}, {"lat": 38.922608333333336, "lon": -77.03639866666667, "is_disabled": 0, "bike_id": "87c9ea5396377984e5c79ed1283beea3", "name": "87c9ea5396377984e5c79ed1283beea3", "is_reserved": 0, "rental_uris": {"android": "https://dc.lft.to/lastmile_qr_scan", "ios": "https://dc.lft.to/lastmile_qr_scan"}, "type": "electric_scooter", "fusion_lon": 0.0, "fusion_lat": 0.0}, {"lat": 38.881205666666666, "lon": -77.01661066666666, "is_disabled": 0, "bike_id": "5df7d46f0306a7ffe52ab9a504366ffe", "name": "5df7d46f0306a7ffe52ab9a504366ffe", "is_reserved": 0, "rental_uris": {"android": "https://dc.lft.to/lastmile_qr_scan", "ios": "https://dc.lft.to/lastmile_qr_scan"}, "type": "electric_bike", "fusion_lon": 0.0, "fusion_lat": 0.0}, {"lat": 38.91422766666667, "lon": -77.03812616666667, "is_disabled": 0, "bike_id": "cc380388ad59b5f8a6c1f7b598f217e6", "name": "cc380388ad59b5f8a6c1f7b598f217e6", "is_reserved": 0, "rental_uris": {"android": "https://dc.lft.to/lastmile_qr_scan", "ios": "https://dc.lft.to/lastmile_qr_scan"}, "type": "electric_scooter", "fusion_lon": 0.0, "fusion_lat": 0.0}, {"lat": 38.963868833333336, "lon": -77.0276885, "is_disabled": 0, "bike_id": "bc60a1676dd0936eeecd89a76be69255", "name": "bc60a1676dd0936eeecd89a76be69255", "is_reserved": 0, "rental_uris": {"android": "https://dc.lft.to/lastmile_qr_scan", "ios": "https://dc.lft.to/lastmile_qr_scan"}, "type": "electric_scooter", "fusion_lon": 0.0, "fusion_lat": 0.0}, {"lat": 38.92161083333333, "lon": -77.04236066666667, "is_disabled": 0, "bike_id": "ba9167047382e6bddf5ae5d414a5998d", "name": "ba9167047382e6bddf5ae5d414a5998d", "is_reserved": 0, "rental_uris": {"android": "https://dc.lft.to/lastmile_qr_scan", "ios": "https://dc.lft.to/lastmile_qr_scan"}, "type": "electric_scooter", "fusion_lon": 0.0, "fusion_lat": 0.0}, {"lat": 38.925636833333336, "lon": -77.02693416666666, "is_disabled": 0, "bike_id": "2303016c5217ee2431c98650e9ee639e", "name": "2303016c5217ee2431c98650e9ee639e", "is_reserved": 0, "rental_uris": {"android": "https://dc.lft.to/lastmile_qr_scan", "ios": "https://dc.lft.to/lastmile_qr_scan"}, "type": "electric_scooter", "fusion_lon": 0.0, "fusion_lat": 0.0}, {"lat": 38.8777135, "lon": -76.99510633333334, "is_disabled": 0, "bike_id": "a4780c80c5e7754534ead47fea115247", "name": "a4780c80c5e7754534ead47fea115247", "is_reserved": 0, "rental_uris": {"android": "https://dc.lft.to/lastmile_qr_scan", "ios": "https://dc.lft.to/lastmile_qr_scan"}, "type": "electric_scooter", "fusion_lon": 0.0, "fusion_lat": 0.0}, {"lat": 38.89241883333333, "lon": -77.03180333333333, "is_disabled": 0, "bike_id": "ba569ba7454eb5684d6ffb459639e823", "name": "ba569ba7454eb5684d6ffb459639e823", "is_reserved": 0, "rental_uris": {"android": "https://dc.lft.to/lastmile_qr_scan", "ios": "https://dc.lft.to/lastmile_qr_scan"}, "type": "electric_scooter", "fusion_lon": 0.0, "fusion_lat": 0.0}, {"lat": 38.894887, "lon": -77.05513733333333, "is_disabled": 0, "bike_id": "e931c9d8f6ea2ae083d849c9b5bb4284", "name": "e931c9d8f6ea2ae083d849c9b5bb4284", "is_reserved": 0, "rental_uris": {"android": "https://dc.lft.to/lastmile_qr_scan", "ios": "https://dc.lft.to/lastmile_qr_scan"}, "type": "electric_scooter", "fusion_lon": 0.0, "fusion_lat": 0.0}, {"lat": 38.91708033333333, "lon": -77.09208616666666, "is_disabled": 0, "bike_id": "e5cebc2587f3b1cff77dbb47a4bf6ad0", "name": "e5cebc2587f3b1cff77dbb47a4bf6ad0", "is_reserved": 0, "rental_uris": {"android": "https://dc.lft.to/lastmile_qr_scan", "ios": "https://dc.lft.to/lastmile_qr_scan"}, "type": "electric_scooter", "fusion_lon": 0.0, "fusion_lat": 0.0}, {"lat": 38.908635, "lon": -77.01840183333333, "is_disabled": 0, "bike_id": "0c8a63d4c6a87eb281e253f4add2372f", "name": "0c8a63d4c6a87eb281e253f4add2372f", "is_reserved": 0, "rental_uris": {"android": "https://dc.lft.to/lastmile_qr_scan", "ios": "https://dc.lft.to/lastmile_qr_scan"}, "type": "electric_scooter", "fusion_lon": 0.0, "fusion_lat": 0.0}, {"lat": 38.8864895, "lon": -77.00092566666666, "is_disabled": 0, "bike_id": "beed3df6a89a94e9804b422de954027a", "name": "beed3df6a89a94e9804b422de954027a", "is_reserved": 0, "rental_uris": {"android": "https://dc.lft.to/lastmile_qr_scan", "ios": "https://dc.lft.to/lastmile_qr_scan"}, "type": "electric_scooter", "fusion_lon": 0.0, "fusion_lat": 0.0}, {"lat": 38.92243116666667, "lon": -77.00832683333333, "is_disabled": 0, "bike_id": "01dadf6db75d60589ce6ca43630bdd69", "name": "01dadf6db75d60589ce6ca43630bdd69", "is_reserved": 0, "rental_uris": {"android": "https://dc.lft.to/lastmile_qr_scan", "ios": "https://dc.lft.to/lastmile_qr_scan"}, "type": "electric_scooter", "fusion_lon": 0.0, "fusion_lat": 0.0}, {"lat": 38.9029735, "lon": -77.04690283333333, "is_disabled": 0, "bike_id": "62a262322120b600a942941795901051", "name": "62a262322120b600a942941795901051", "is_reserved": 0, "rental_uris": {"android": "https://dc.lft.to/lastmile_qr_scan", "ios": "https://dc.lft.to/lastmile_qr_scan"}, "type": "electric_scooter", "fusion_lon": 0.0, "fusion_lat": 0.0}, {"lat": 38.90061933333333, "lon": -77.04591216666667, "is_disabled": 0, "bike_id": "b9d4a0c929accb8611fc1b826616e2b8", "name": "b9d4a0c929accb8611fc1b826616e2b8", "is_reserved": 0, "rental_uris": {"android": "https://dc.lft.to/lastmile_qr_scan", "ios": "https://dc.lft.to/lastmile_qr_scan"}, "type": "electric_scooter", "fusion_lon": 0.0, "fusion_lat": 0.0}, {"lat": 38.953585833333335, "lon": -76.98096416666667, "is_disabled": 0, "bike_id": "71c97a18239a6accc3c6c15fbf410a6b", "name": "71c97a18239a6accc3c6c15fbf410a6b", "is_reserved": 0, "rental_uris": {"android": "https://dc.lft.to/lastmile_qr_scan", "ios": "https://dc.lft.to/lastmile_qr_scan"}, "type": "electric_bike", "fusion_lon": 0.0, "fusion_lat": 0.0}, {"lat": 38.922766833333334, "lon": -77.02130916666667, "is_disabled": 0, "bike_id": "7288f130f4d745b5743c18d3b46455a7", "name": "7288f130f4d745b5743c18d3b46455a7", "is_reserved": 0, "rental_uris": {"android": "https://dc.lft.to/lastmile_qr_scan", "ios": "https://dc.lft.to/lastmile_qr_scan"}, "type": "electric_scooter", "fusion_lon": 0.0, "fusion_lat": 0.0}, {"lat": 38.89851216666667, "lon": -77.046685, "is_disabled": 0, "bike_id": "31f1c8b71fef16e8f97af264c2134197", "name": "31f1c8b71fef16e8f97af264c2134197", "is_reserved": 0, "rental_uris": {"android": "https://dc.lft.to/lastmile_qr_scan", "ios": "https://dc.lft.to/lastmile_qr_scan"}, "type": "electric_scooter", "fusion_lon": 0.0, "fusion_lat": 0.0}, {"lat": 38.92652266666666, "lon": -77.09024433333333, "is_disabled": 0, "bike_id": "63033da3f4789f70165352698c7f59b1", "name": "63033da3f4789f70165352698c7f59b1", "is_reserved": 0, "rental_uris": {"android": "https://dc.lft.to/lastmile_qr_scan", "ios": "https://dc.lft.to/lastmile_qr_scan"}, "type": "electric_bike", "fusion_lon": 0.0, "fusion_lat": 0.0}, {"lat": 38.943084, "lon": -77.0295215, "is_disabled": 0, "bike_id": "6d3f6d03b5b3a7fd51786a61cb5baf39", "name": "6d3f6d03b5b3a7fd51786a61cb5baf39", "is_reserved": 0, "rental_uris": {"android": "https://dc.lft.to/lastmile_qr_scan", "ios": "https://dc.lft.to/lastmile_qr_scan"}, "type": "electric_scooter", "fusion_lon": 0.0, "fusion_lat": 0.0}, {"lat": 38.911015, "lon": -77.00940016666667, "is_disabled": 0, "bike_id": "aaeefc7073d6e50d18db8a330cecc2b9", "name": "aaeefc7073d6e50d18db8a330cecc2b9", "is_reserved": 0, "rental_uris": {"android": "https://dc.lft.to/lastmile_qr_scan", "ios": "https://dc.lft.to/lastmile_qr_scan"}, "type": "electric_scooter", "fusion_lon": 0.0, "fusion_lat": 0.0}, {"lat": 38.92482583333334, "lon": -77.0219925, "is_disabled": 0, "bike_id": "b9ec4b4b9744236efed99a95a03d761c", "name": "b9ec4b4b9744236efed99a95a03d761c", "is_reserved": 0, "rental_uris": {"android": "https://dc.lft.to/lastmile_qr_scan", "ios": "https://dc.lft.to/lastmile_qr_scan"}, "type": "electric_scooter", "fusion_lon": 0.0, "fusion_lat": 0.0}, {"lat": 38.907163833333335, "lon": -76.99825016666666, "is_disabled": 0, "bike_id": "034cf5bce90355a499bf79fab1b6c103", "name": "034cf5bce90355a499bf79fab1b6c103", "is_reserved": 0, "rental_uris": {"android": "https://dc.lft.to/lastmile_qr_scan", "ios": "https://dc.lft.to/lastmile_qr_scan"}, "type": "electric_scooter", "fusion_lon": 0.0, "fusion_lat": 0.0}, {"lat": 38.97412033333333, "lon": -76.98414766666667, "is_disabled": 0, "bike_id": "e8113c7a0af88ee4441a1cb70fa56701", "name": "e8113c7a0af88ee4441a1cb70fa56701", "is_reserved": 0, "rental_uris": {"android": "https://dc.lft.to/lastmile_qr_scan", "ios": "https://dc.lft.to/lastmile_qr_scan"}, "type": "electric_bike", "fusion_lon": 0.0, "fusion_lat": 0.0}, {"lat": 38.9162725, "lon": -77.00502833333333, "is_disabled": 0, "bike_id": "37a81d14765acf8600df10d858f19fa5", "name": "37a81d14765acf8600df10d858f19fa5", "is_reserved": 0, "rental_uris": {"android": "https://dc.lft.to/lastmile_qr_scan", "ios": "https://dc.lft.to/lastmile_qr_scan"}, "type": "electric_scooter", "fusion_lon": 0.0, "fusion_lat": 0.0}, {"lat": 38.90009366666666, "lon": -77.03307316666667, "is_disabled": 0, "bike_id": "247197a1f950ae280433e482e59c8607", "name": "247197a1f950ae280433e482e59c8607", "is_reserved": 0, "rental_uris": {"android": "https://dc.lft.to/lastmile_qr_scan", "ios": "https://dc.lft.to/lastmile_qr_scan"}, "type": "electric_scooter", "fusion_lon": 0.0, "fusion_lat": 0.0}, {"lat": 38.9195315, "lon": -77.0247715, "is_disabled": 0, "bike_id": "9ae9501bb222e758fc205d83f37e6eee", "name": "9ae9501bb222e758fc205d83f37e6eee", "is_reserved": 0, "rental_uris": {"android": "https://dc.lft.to/lastmile_qr_scan", "ios": "https://dc.lft.to/lastmile_qr_scan"}, "type": "electric_scooter", "fusion_lon": 0.0, "fusion_lat": 0.0}, {"lat": 38.921354, "lon": -77.0187375, "is_disabled": 0, "bike_id": "8d3e6581eaed34f7933380e69d60205f", "name": "8d3e6581eaed34f7933380e69d60205f", "is_reserved": 0, "rental_uris": {"android": "https://dc.lft.to/lastmile_qr_scan", "ios": "https://dc.lft.to/lastmile_qr_scan"}, "type": "electric_scooter", "fusion_lon": 0.0, "fusion_lat": 0.0}, {"lat": 38.914970833333335, "lon": -77.02191033333334, "is_disabled": 0, "bike_id": "3389bbc6c6f9abda233f91517d16479c", "name": "3389bbc6c6f9abda233f91517d16479c", "is_reserved": 0, "rental_uris": {"android": "https://dc.lft.to/lastmile_qr_scan", "ios": "https://dc.lft.to/lastmile_qr_scan"}, "type": "electric_scooter", "fusion_lon": 0.0, "fusion_lat": 0.0}, {"lat": 38.92459433333333, "lon": -77.02239266666666, "is_disabled": 0, "bike_id": "35c36c5017cd3febfd1d78c34fc5ea5d", "name": "35c36c5017cd3febfd1d78c34fc5ea5d", "is_reserved": 0, "rental_uris": {"android": "https://dc.lft.to/lastmile_qr_scan", "ios": "https://dc.lft.to/lastmile_qr_scan"}, "type": "electric_scooter", "fusion_lon": 0.0, "fusion_lat": 0.0}, {"lat": 38.93537583333333, "lon": -77.0235975, "is_disabled": 0, "bike_id": "ad144c8c7bbac6fb16f90fdb4f0fd0eb", "name": "ad144c8c7bbac6fb16f90fdb4f0fd0eb", "is_reserved": 0, "rental_uris": {"android": "https://dc.lft.to/lastmile_qr_scan", "ios": "https://dc.lft.to/lastmile_qr_scan"}, "type": "electric_scooter", "fusion_lon": 0.0, "fusion_lat": 0.0}, {"lat": 38.8762975, "lon": -77.00678833333333, "is_disabled": 0, "bike_id": "f25e971373eb291152e2532b135385fd", "name": "f25e971373eb291152e2532b135385fd", "is_reserved": 0, "rental_uris": {"android": "https://dc.lft.to/lastmile_qr_scan", "ios": "https://dc.lft.to/lastmile_qr_scan"}, "type": "electric_scooter", "fusion_lon": 0.0, "fusion_lat": 0.0}, {"lat": 38.85242, "lon": -77.11411066666666, "is_disabled": 0, "bike_id": "99299a66ee0d20476f282608982f8540", "name": "99299a66ee0d20476f282608982f8540", "is_reserved": 0, "rental_uris": {"android": "https://dc.lft.to/lastmile_qr_scan", "ios": "https://dc.lft.to/lastmile_qr_scan"}, "type": "electric_bike", "fusion_lon": 0.0, "fusion_lat": 0.0}, {"lat": 38.9083325, "lon": -76.93473716666666, "is_disabled": 0, "bike_id": "840e35e309b5d0e944d98e96855c7262", "name": "840e35e309b5d0e944d98e96855c7262", "is_reserved": 0, "rental_uris": {"android": "https://dc.lft.to/lastmile_qr_scan", "ios": "https://dc.lft.to/lastmile_qr_scan"}, "type": "electric_scooter", "fusion_lon": 0.0, "fusion_lat": 0.0}, {"lat": 38.89841166666667, "lon": -77.00749016666667, "is_disabled": 0, "bike_id": "920c8f3af2730059ca227d57d81dafdb", "name": "920c8f3af2730059ca227d57d81dafdb", "is_reserved": 0, "rental_uris": {"android": "https://dc.lft.to/lastmile_qr_scan", "ios": "https://dc.lft.to/lastmile_qr_scan"}, "type": "electric_scooter", "fusion_lon": 0.0, "fusion_lat": 0.0}, {"lat": 38.922161833333334, "lon": -77.01817333333334, "is_disabled": 0, "bike_id": "95a181fd628ba87695b97e3f1b466c4c", "name": "95a181fd628ba87695b97e3f1b466c4c", "is_reserved": 0, "rental_uris": {"android": "https://dc.lft.to/lastmile_qr_scan", "ios": "https://dc.lft.to/lastmile_qr_scan"}, "type": "electric_scooter", "fusion_lon": 0.0, "fusion_lat": 0.0}, {"lat": 38.877502, "lon": -76.99524083333333, "is_disabled": 0, "bike_id": "5c04999018ffd599bb83896de0ee05cd", "name": "5c04999018ffd599bb83896de0ee05cd", "is_reserved": 0, "rental_uris": {"android": "https://dc.lft.to/lastmile_qr_scan", "ios": "https://dc.lft.to/lastmile_qr_scan"}, "type": "electric_scooter", "fusion_lon": 0.0, "fusion_lat": 0.0}, {"lat": 39.0065175, "lon": -76.900236, "is_disabled": 0, "bike_id": "1afcaafccba6280b5a0c562e79dcb499", "name": "1afcaafccba6280b5a0c562e79dcb499", "is_reserved": 0, "rental_uris": {"android": "https://dc.lft.to/lastmile_qr_scan", "ios": "https://dc.lft.to/lastmile_qr_scan"}, "type": "electric_bike", "fusion_lon": 0.0, "fusion_lat": 0.0}, {"lat": 38.91110066666667, "lon": -77.03830266666667, "is_disabled": 0, "bike_id": "95c966a9bc28ff5cd404207353cf4a40", "name": "95c966a9bc28ff5cd404207353cf4a40", "is_reserved": 0, "rental_uris": {"android": "https://dc.lft.to/lastmile_qr_scan", "ios": "https://dc.lft.to/lastmile_qr_scan"}, "type": "electric_scooter", "fusion_lon": 0.0, "fusion_lat": 0.0}, {"lat": 38.904006, "lon": -77.004315, "is_disabled": 0, "bike_id": "60f8fd6808d843abf9118942f21ea890", "name": "60f8fd6808d843abf9118942f21ea890", "is_reserved": 0, "rental_uris": {"android": "https://dc.lft.to/lastmile_qr_scan", "ios": "https://dc.lft.to/lastmile_qr_scan"}, "type": "electric_scooter", "fusion_lon": 0.0, "fusion_lat": 0.0}, {"lat": 38.924121, "lon": -77.021421, "is_disabled": 0, "bike_id": "34d6d14debccab90c4a41b684f7a7346", "name": "34d6d14debccab90c4a41b684f7a7346", "is_reserved": 0, "rental_uris": {"android": "https://dc.lft.to/lastmile_qr_scan", "ios": "https://dc.lft.to/lastmile_qr_scan"}, "type": "electric_scooter", "fusion_lon": 0.0, "fusion_lat": 0.0}, {"lat": 38.809818166666666, "lon": -77.07660666666666, "is_disabled": 0, "bike_id": "65cc92409b9e6c081ce99e91be26a4b8", "name": "65cc92409b9e6c081ce99e91be26a4b8", "is_reserved": 0, "rental_uris": {"android": "https://dc.lft.to/lastmile_qr_scan", "ios": "https://dc.lft.to/lastmile_qr_scan"}, "type": "electric_bike", "fusion_lon": 0.0, "fusion_lat": 0.0}, {"lat": 38.89998633333333, "lon": -77.02644183333334, "is_disabled": 0, "bike_id": "abb3aeddbf8387b31cda0aa430c4bd55", "name": "abb3aeddbf8387b31cda0aa430c4bd55", "is_reserved": 0, "rental_uris": {"android": "https://dc.lft.to/lastmile_qr_scan", "ios": "https://dc.lft.to/lastmile_qr_scan"}, "type": "electric_scooter", "fusion_lon": 0.0, "fusion_lat": 0.0}, {"lat": 38.91183083333333, "lon": -77.0219055, "is_disabled": 0, "bike_id": "d4cbed75b87dee7802743d7da9aed109", "name": "d4cbed75b87dee7802743d7da9aed109", "is_reserved": 0, "rental_uris": {"android": "https://dc.lft.to/lastmile_qr_scan", "ios": "https://dc.lft.to/lastmile_qr_scan"}, "type": "electric_scooter", "fusion_lon": 0.0, "fusion_lat": 0.0}, {"lat": 38.89919966666667, "lon": -77.047896, "is_disabled": 0, "bike_id": "be213fbd18f3acadcb162cb57f8c081b", "name": "be213fbd18f3acadcb162cb57f8c081b", "is_reserved": 0, "rental_uris": {"android": "https://dc.lft.to/lastmile_qr_scan", "ios": "https://dc.lft.to/lastmile_qr_scan"}, "type": "electric_scooter", "fusion_lon": 0.0, "fusion_lat": 0.0}, {"lat": 38.896275, "lon": -77.028465, "is_disabled": 0, "bike_id": "14b498b697f455a750abd58ed9260b7a", "name": "14b498b697f455a750abd58ed9260b7a", "is_reserved": 0, "rental_uris": {"android": "https://dc.lft.to/lastmile_qr_scan", "ios": "https://dc.lft.to/lastmile_qr_scan"}, "type": "electric_scooter", "fusion_lon": 0.0, "fusion_lat": 0.0}, {"lat": 38.90870483333333, "lon": -77.04047533333333, "is_disabled": 0, "bike_id": "f00c61fed3fd6c92c279ce7a6432b496", "name": "f00c61fed3fd6c92c279ce7a6432b496", "is_reserved": 0, "rental_uris": {"android": "https://dc.lft.to/lastmile_qr_scan", "ios": "https://dc.lft.to/lastmile_qr_scan"}, "type": "electric_scooter", "fusion_lon": 0.0, "fusion_lat": 0.0}, {"lat": 38.903684, "lon": -77.06006916666666, "is_disabled": 0, "bike_id": "177471466c88c765f5a1ab09b7139d3d", "name": "177471466c88c765f5a1ab09b7139d3d", "is_reserved": 0, "rental_uris": {"android": "https://dc.lft.to/lastmile_qr_scan", "ios": "https://dc.lft.to/lastmile_qr_scan"}, "type": "electric_scooter", "fusion_lon": 0.0, "fusion_lat": 0.0}, {"lat": 38.89824983333333, "lon": -77.0126635, "is_disabled": 0, "bike_id": "c686404f920b89c11cbd85341dcaa72e", "name": "c686404f920b89c11cbd85341dcaa72e", "is_reserved": 0, "rental_uris": {"android": "https://dc.lft.to/lastmile_qr_scan", "ios": "https://dc.lft.to/lastmile_qr_scan"}, "type": "electric_scooter", "fusion_lon": 0.0, "fusion_lat": 0.0}, {"lat": 38.90547516666667, "lon": -77.0295965, "is_disabled": 0, "bike_id": "b7f48318914216e9cabba403385a1870", "name": "b7f48318914216e9cabba403385a1870", "is_reserved": 0, "rental_uris": {"android": "https://dc.lft.to/lastmile_qr_scan", "ios": "https://dc.lft.to/lastmile_qr_scan"}, "type": "electric_scooter", "fusion_lon": 0.0, "fusion_lat": 0.0}, {"lat": 38.8939995, "lon": -76.97828933333334, "is_disabled": 0, "bike_id": "ea9b7745c581b5a763cd3e6f6a492e30", "name": "ea9b7745c581b5a763cd3e6f6a492e30", "is_reserved": 0, "rental_uris": {"android": "https://dc.lft.to/lastmile_qr_scan", "ios": "https://dc.lft.to/lastmile_qr_scan"}, "type": "electric_scooter", "fusion_lon": 0.0, "fusion_lat": 0.0}, {"lat": 38.926558166666666, "lon": -77.03854133333333, "is_disabled": 0, "bike_id": "e1cd3c7b3bd70894ad8c27de892e4021", "name": "e1cd3c7b3bd70894ad8c27de892e4021", "is_reserved": 0, "rental_uris": {"android": "https://dc.lft.to/lastmile_qr_scan", "ios": "https://dc.lft.to/lastmile_qr_scan"}, "type": "electric_scooter", "fusion_lon": 0.0, "fusion_lat": 0.0}, {"lat": 38.904216, "lon": -77.0263965, "is_disabled": 0, "bike_id": "1acd9a9c627cfb8e9f9f00c66efe5073", "name": "1acd9a9c627cfb8e9f9f00c66efe5073", "is_reserved": 0, "rental_uris": {"android": "https://dc.lft.to/lastmile_qr_scan", "ios": "https://dc.lft.to/lastmile_qr_scan"}, "type": "electric_scooter", "fusion_lon": 0.0, "fusion_lat": 0.0}, {"lat": 38.939618833333334, "lon": -76.9913505, "is_disabled": 0, "bike_id": "992ada08d399e7ebd7b4b14a429b5835", "name": "992ada08d399e7ebd7b4b14a429b5835", "is_reserved": 0, "rental_uris": {"android": "https://dc.lft.to/lastmile_qr_scan", "ios": "https://dc.lft.to/lastmile_qr_scan"}, "type": "electric_bike", "fusion_lon": 0.0, "fusion_lat": 0.0}, {"lat": 38.923714333333336, "lon": -77.02121666666666, "is_disabled": 0, "bike_id": "e4beafcab50ccdad124438660c3da4e1", "name": "e4beafcab50ccdad124438660c3da4e1", "is_reserved": 0, "rental_uris": {"android": "https://dc.lft.to/lastmile_qr_scan", "ios": "https://dc.lft.to/lastmile_qr_scan"}, "type": "electric_scooter", "fusion_lon": 0.0, "fusion_lat": 0.0}, {"lat": 38.904115, "lon": -76.9732875, "is_disabled": 0, "bike_id": "dea4dc3d0926d707a593110cd72aca50", "name": "dea4dc3d0926d707a593110cd72aca50", "is_reserved": 0, "rental_uris": {"android": "https://dc.lft.to/lastmile_qr_scan", "ios": "https://dc.lft.to/lastmile_qr_scan"}, "type": "electric_scooter", "fusion_lon": 0.0, "fusion_lat": 0.0}, {"lat": 38.92489233333333, "lon": -77.0218545, "is_disabled": 0, "bike_id": "e722ed65ee62992964d11de8315574d7", "name": "e722ed65ee62992964d11de8315574d7", "is_reserved": 0, "rental_uris": {"android": "https://dc.lft.to/lastmile_qr_scan", "ios": "https://dc.lft.to/lastmile_qr_scan"}, "type": "electric_scooter", "fusion_lon": 0.0, "fusion_lat": 0.0}, {"lat": 38.9035265, "lon": -76.98615616666666, "is_disabled": 0, "bike_id": "f2fb751d876411a3f560430be28e38d0", "name": "f2fb751d876411a3f560430be28e38d0", "is_reserved": 0, "rental_uris": {"android": "https://dc.lft.to/lastmile_qr_scan", "ios": "https://dc.lft.to/lastmile_qr_scan"}, "type": "electric_scooter", "fusion_lon": 0.0, "fusion_lat": 0.0}, {"lat": 38.875480833333334, "lon": -77.00533333333334, "is_disabled": 0, "bike_id": "9897f49d3918bf656477c0a15af825e2", "name": "9897f49d3918bf656477c0a15af825e2", "is_reserved": 0, "rental_uris": {"android": "https://dc.lft.to/lastmile_qr_scan", "ios": "https://dc.lft.to/lastmile_qr_scan"}, "type": "electric_scooter", "fusion_lon": 0.0, "fusion_lat": 0.0}, {"lat": 38.92180883333333, "lon": -77.04006683333333, "is_disabled": 0, "bike_id": "edab97c142d2872786afb7bd1ed3437d", "name": "edab97c142d2872786afb7bd1ed3437d", "is_reserved": 0, "rental_uris": {"android": "https://dc.lft.to/lastmile_qr_scan", "ios": "https://dc.lft.to/lastmile_qr_scan"}, "type": "electric_scooter", "fusion_lon": 0.0, "fusion_lat": 0.0}, {"lat": 38.926047, "lon": -77.02155616666667, "is_disabled": 0, "bike_id": "254eda27ae0e9916063dc18cc923e2e3", "name": "254eda27ae0e9916063dc18cc923e2e3", "is_reserved": 0, "rental_uris": {"android": "https://dc.lft.to/lastmile_qr_scan", "ios": "https://dc.lft.to/lastmile_qr_scan"}, "type": "electric_scooter", "fusion_lon": 0.0, "fusion_lat": 0.0}, {"lat": 38.91490183333333, "lon": -76.98070433333334, "is_disabled": 0, "bike_id": "ab7a76cc8ff0de5763d28f10bf3e5e27", "name": "ab7a76cc8ff0de5763d28f10bf3e5e27", "is_reserved": 0, "rental_uris": {"android": "https://dc.lft.to/lastmile_qr_scan", "ios": "https://dc.lft.to/lastmile_qr_scan"}, "type": "electric_scooter", "fusion_lon": 0.0, "fusion_lat": 0.0}, {"lat": 38.907849666666664, "lon": -77.07256566666666, "is_disabled": 0, "bike_id": "826e9f3b34ea03035fa97739a5e48077", "name": "826e9f3b34ea03035fa97739a5e48077", "is_reserved": 0, "rental_uris": {"android": "https://dc.lft.to/lastmile_qr_scan", "ios": "https://dc.lft.to/lastmile_qr_scan"}, "type": "electric_scooter", "fusion_lon": 0.0, "fusion_lat": 0.0}, {"lat": 38.881194666666666, "lon": -77.0150335, "is_disabled": 0, "bike_id": "ce2b1a4540bf3d3fa730e3622cb68b8b", "name": "ce2b1a4540bf3d3fa730e3622cb68b8b", "is_reserved": 0, "rental_uris": {"android": "https://dc.lft.to/lastmile_qr_scan", "ios": "https://dc.lft.to/lastmile_qr_scan"}, "type": "electric_scooter", "fusion_lon": 0.0, "fusion_lat": 0.0}, {"lat": 38.923690666666666, "lon": -77.02127816666666, "is_disabled": 0, "bike_id": "06e2768273274d6924af5bbc5fa4287f", "name": "06e2768273274d6924af5bbc5fa4287f", "is_reserved": 0, "rental_uris": {"android": "https://dc.lft.to/lastmile_qr_scan", "ios": "https://dc.lft.to/lastmile_qr_scan"}, "type": "electric_scooter", "fusion_lon": 0.0, "fusion_lat": 0.0}, {"lat": 38.855994333333335, "lon": -76.97272533333333, "is_disabled": 0, "bike_id": "88c7f5cbe8a7040fe063241464cc7967", "name": "88c7f5cbe8a7040fe063241464cc7967", "is_reserved": 0, "rental_uris": {"android": "https://dc.lft.to/lastmile_qr_scan", "ios": "https://dc.lft.to/lastmile_qr_scan"}, "type": "electric_bike", "fusion_lon": 0.0, "fusion_lat": 0.0}, {"lat": 38.907320666666664, "lon": -77.018408, "is_disabled": 0, "bike_id": "3f42d2236c28449361de347890bd69c5", "name": "3f42d2236c28449361de347890bd69c5", "is_reserved": 0, "rental_uris": {"android": "https://dc.lft.to/lastmile_qr_scan", "ios": "https://dc.lft.to/lastmile_qr_scan"}, "type": "electric_scooter", "fusion_lon": 0.0, "fusion_lat": 0.0}, {"lat": 38.92112266666667, "lon": -77.02048983333333, "is_disabled": 0, "bike_id": "9b2bd0376d22645ad21fe922f73619ba", "name": "9b2bd0376d22645ad21fe922f73619ba", "is_reserved": 0, "rental_uris": {"android": "https://dc.lft.to/lastmile_qr_scan", "ios": "https://dc.lft.to/lastmile_qr_scan"}, "type": "electric_scooter", "fusion_lon": 0.0, "fusion_lat": 0.0}, {"lat": 38.90412333333333, "lon": -76.973286, "is_disabled": 0, "bike_id": "392b3c35284e89905f998ba3ea0bb5ce", "name": "392b3c35284e89905f998ba3ea0bb5ce", "is_reserved": 0, "rental_uris": {"android": "https://dc.lft.to/lastmile_qr_scan", "ios": "https://dc.lft.to/lastmile_qr_scan"}, "type": "electric_scooter", "fusion_lon": 0.0, "fusion_lat": 0.0}, {"lat": 38.88123933333333, "lon": -77.01876533333333, "is_disabled": 0, "bike_id": "768fb316c3b94b84f012f6c62a23d9aa", "name": "768fb316c3b94b84f012f6c62a23d9aa", "is_reserved": 0, "rental_uris": {"android": "https://dc.lft.to/lastmile_qr_scan", "ios": "https://dc.lft.to/lastmile_qr_scan"}, "type": "electric_scooter", "fusion_lon": 0.0, "fusion_lat": 0.0}, {"lat": 38.8936415, "lon": -77.0448325, "is_disabled": 0, "bike_id": "8b5f89ce834625a4fa97b6a1822a345a", "name": "8b5f89ce834625a4fa97b6a1822a345a", "is_reserved": 0, "rental_uris": {"android": "https://dc.lft.to/lastmile_qr_scan", "ios": "https://dc.lft.to/lastmile_qr_scan"}, "type": "electric_scooter", "fusion_lon": 0.0, "fusion_lat": 0.0}, {"lat": 38.909986, "lon": -77.03337533333334, "is_disabled": 0, "bike_id": "215a502ea46239b2615303dfe983df9b", "name": "215a502ea46239b2615303dfe983df9b", "is_reserved": 0, "rental_uris": {"android": "https://dc.lft.to/lastmile_qr_scan", "ios": "https://dc.lft.to/lastmile_qr_scan"}, "type": "electric_scooter", "fusion_lon": 0.0, "fusion_lat": 0.0}, {"lat": 38.9224315, "lon": -77.028183, "is_disabled": 0, "bike_id": "ac2a082dac45d84dfd7c208ffb37984c", "name": "ac2a082dac45d84dfd7c208ffb37984c", "is_reserved": 0, "rental_uris": {"android": "https://dc.lft.to/lastmile_qr_scan", "ios": "https://dc.lft.to/lastmile_qr_scan"}, "type": "electric_scooter", "fusion_lon": 0.0, "fusion_lat": 0.0}, {"lat": 38.9012755, "lon": -77.03494083333334, "is_disabled": 0, "bike_id": "5e8703eea3d5eb27dbc2a0ceccdf90b3", "name": "5e8703eea3d5eb27dbc2a0ceccdf90b3", "is_reserved": 0, "rental_uris": {"android": "https://dc.lft.to/lastmile_qr_scan", "ios": "https://dc.lft.to/lastmile_qr_scan"}, "type": "electric_scooter", "fusion_lon": 0.0, "fusion_lat": 0.0}, {"lat": 38.900180666666664, "lon": -77.0123385, "is_disabled": 0, "bike_id": "c4605b52cf3e7367319660353a2fea49", "name": "c4605b52cf3e7367319660353a2fea49", "is_reserved": 0, "rental_uris": {"android": "https://dc.lft.to/lastmile_qr_scan", "ios": "https://dc.lft.to/lastmile_qr_scan"}, "type": "electric_scooter", "fusion_lon": 0.0, "fusion_lat": 0.0}, {"lat": 38.900941833333334, "lon": -77.016195, "is_disabled": 0, "bike_id": "9492c80d7b896a2c1be49b6e37af4297", "name": "9492c80d7b896a2c1be49b6e37af4297", "is_reserved": 0, "rental_uris": {"android": "https://dc.lft.to/lastmile_qr_scan", "ios": "https://dc.lft.to/lastmile_qr_scan"}, "type": "electric_scooter", "fusion_lon": 0.0, "fusion_lat": 0.0}, {"lat": 38.942760166666666, "lon": -77.029347, "is_disabled": 0, "bike_id": "2b361d9a50b742f61562d667d70d5ac8", "name": "2b361d9a50b742f61562d667d70d5ac8", "is_reserved": 0, "rental_uris": {"android": "https://dc.lft.to/lastmile_qr_scan", "ios": "https://dc.lft.to/lastmile_qr_scan"}, "type": "electric_scooter", "fusion_lon": 0.0, "fusion_lat": 0.0}, {"lat": 38.943461166666665, "lon": -77.02605516666667, "is_disabled": 0, "bike_id": "121cdf20e7cba511bd9c2863470d8e74", "name": "121cdf20e7cba511bd9c2863470d8e74", "is_reserved": 0, "rental_uris": {"android": "https://dc.lft.to/lastmile_qr_scan", "ios": "https://dc.lft.to/lastmile_qr_scan"}, "type": "electric_scooter", "fusion_lon": 0.0, "fusion_lat": 0.0}, {"lat": 38.87642016666667, "lon": -76.99396316666666, "is_disabled": 0, "bike_id": "95683103b82e6fd8713887097f088809", "name": "95683103b82e6fd8713887097f088809", "is_reserved": 0, "rental_uris": {"android": "https://dc.lft.to/lastmile_qr_scan", "ios": "https://dc.lft.to/lastmile_qr_scan"}, "type": "electric_scooter", "fusion_lon": 0.0, "fusion_lat": 0.0}, {"lat": 38.89621016666667, "lon": -76.9985375, "is_disabled": 0, "bike_id": "510aeb4fac24a6ca4e860567688584d1", "name": "510aeb4fac24a6ca4e860567688584d1", "is_reserved": 0, "rental_uris": {"android": "https://dc.lft.to/lastmile_qr_scan", "ios": "https://dc.lft.to/lastmile_qr_scan"}, "type": "electric_scooter", "fusion_lon": 0.0, "fusion_lat": 0.0}, {"lat": 38.8936555, "lon": -77.02069716666666, "is_disabled": 0, "bike_id": "db5deffe4ccc842175d6bfb7b9fa4594", "name": "db5deffe4ccc842175d6bfb7b9fa4594", "is_reserved": 0, "rental_uris": {"android": "https://dc.lft.to/lastmile_qr_scan", "ios": "https://dc.lft.to/lastmile_qr_scan"}, "type": "electric_scooter", "fusion_lon": 0.0, "fusion_lat": 0.0}, {"lat": 38.90588566666667, "lon": -77.02203566666667, "is_disabled": 0, "bike_id": "2a2413887d9206ecc214aff7efbee8e1", "name": "2a2413887d9206ecc214aff7efbee8e1", "is_reserved": 0, "rental_uris": {"android": "https://dc.lft.to/lastmile_qr_scan", "ios": "https://dc.lft.to/lastmile_qr_scan"}, "type": "electric_scooter", "fusion_lon": 0.0, "fusion_lat": 0.0}, {"lat": 38.921866666666666, "lon": -76.99734866666667, "is_disabled": 0, "bike_id": "477810bd340ef9c30375307f36255724", "name": "477810bd340ef9c30375307f36255724", "is_reserved": 0, "rental_uris": {"android": "https://dc.lft.to/lastmile_qr_scan", "ios": "https://dc.lft.to/lastmile_qr_scan"}, "type": "electric_scooter", "fusion_lon": 0.0, "fusion_lat": 0.0}, {"lat": 38.8823175, "lon": -76.93340316666666, "is_disabled": 0, "bike_id": "1d4a1dcee785fae12d8604c0f9a2d016", "name": "1d4a1dcee785fae12d8604c0f9a2d016", "is_reserved": 0, "rental_uris": {"android": "https://dc.lft.to/lastmile_qr_scan", "ios": "https://dc.lft.to/lastmile_qr_scan"}, "type": "electric_scooter", "fusion_lon": 0.0, "fusion_lat": 0.0}, {"lat": 38.8985265, "lon": -76.932125, "is_disabled": 0, "bike_id": "f3d1dc7e12148a70caa5d98648c75094", "name": "f3d1dc7e12148a70caa5d98648c75094", "is_reserved": 0, "rental_uris": {"android": "https://dc.lft.to/lastmile_qr_scan", "ios": "https://dc.lft.to/lastmile_qr_scan"}, "type": "electric_scooter", "fusion_lon": 0.0, "fusion_lat": 0.0}, {"lat": 38.918693166666664, "lon": -77.0415955, "is_disabled": 0, "bike_id": "a5746780a0a60d845f4bfad1ff894c57", "name": "a5746780a0a60d845f4bfad1ff894c57", "is_reserved": 0, "rental_uris": {"android": "https://dc.lft.to/lastmile_qr_scan", "ios": "https://dc.lft.to/lastmile_qr_scan"}, "type": "electric_scooter", "fusion_lon": 0.0, "fusion_lat": 0.0}, {"lat": 38.935920333333335, "lon": -77.074315, "is_disabled": 0, "bike_id": "8f67ee89374485403cc30cd1fbedd83f", "name": "8f67ee89374485403cc30cd1fbedd83f", "is_reserved": 0, "rental_uris": {"android": "https://dc.lft.to/lastmile_qr_scan", "ios": "https://dc.lft.to/lastmile_qr_scan"}, "type": "electric_scooter", "fusion_lon": 0.0, "fusion_lat": 0.0}, {"lat": 38.87247216666667, "lon": -76.97732883333333, "is_disabled": 0, "bike_id": "f477c640983e11f0f9495cb4ab517fa4", "name": "f477c640983e11f0f9495cb4ab517fa4", "is_reserved": 0, "rental_uris": {"android": "https://dc.lft.to/lastmile_qr_scan", "ios": "https://dc.lft.to/lastmile_qr_scan"}, "type": "electric_scooter", "fusion_lon": 0.0, "fusion_lat": 0.0}, {"lat": 38.904297166666666, "lon": -77.05336566666666, "is_disabled": 0, "bike_id": "4fd2a75ddc68896ebdd81d6713be31df", "name": "4fd2a75ddc68896ebdd81d6713be31df", "is_reserved": 0, "rental_uris": {"android": "https://dc.lft.to/lastmile_qr_scan", "ios": "https://dc.lft.to/lastmile_qr_scan"}, "type": "electric_scooter", "fusion_lon": 0.0, "fusion_lat": 0.0}, {"lat": 38.916933, "lon": -77.03780883333333, "is_disabled": 0, "bike_id": "3a900cd355584b5f5e89cb78cd5b1a72", "name": "3a900cd355584b5f5e89cb78cd5b1a72", "is_reserved": 0, "rental_uris": {"android": "https://dc.lft.to/lastmile_qr_scan", "ios": "https://dc.lft.to/lastmile_qr_scan"}, "type": "electric_scooter", "fusion_lon": 0.0, "fusion_lat": 0.0}, {"lat": 38.89367216666667, "lon": -77.02801083333334, "is_disabled": 0, "bike_id": "c9b2a5b3d4c50ec98bdb2bdf42176bc5", "name": "c9b2a5b3d4c50ec98bdb2bdf42176bc5", "is_reserved": 0, "rental_uris": {"android": "https://dc.lft.to/lastmile_qr_scan", "ios": "https://dc.lft.to/lastmile_qr_scan"}, "type": "electric_scooter", "fusion_lon": 0.0, "fusion_lat": 0.0}, {"lat": 38.9005395, "lon": -77.05144566666667, "is_disabled": 0, "bike_id": "a53dd211d73328528b5529a879d3cf74", "name": "a53dd211d73328528b5529a879d3cf74", "is_reserved": 0, "rental_uris": {"android": "https://dc.lft.to/lastmile_qr_scan", "ios": "https://dc.lft.to/lastmile_qr_scan"}, "type": "electric_scooter", "fusion_lon": 0.0, "fusion_lat": 0.0}, {"lat": 38.924839, "lon": -77.0223305, "is_disabled": 0, "bike_id": "b75ce57cd6dec019e3f2d606e75f923a", "name": "b75ce57cd6dec019e3f2d606e75f923a", "is_reserved": 0, "rental_uris": {"android": "https://dc.lft.to/lastmile_qr_scan", "ios": "https://dc.lft.to/lastmile_qr_scan"}, "type": "electric_scooter", "fusion_lon": 0.0, "fusion_lat": 0.0}, {"lat": 38.92415416666667, "lon": -77.02131233333333, "is_disabled": 0, "bike_id": "3804522c09ee9af484738f5e59930efb", "name": "3804522c09ee9af484738f5e59930efb", "is_reserved": 0, "rental_uris": {"android": "https://dc.lft.to/lastmile_qr_scan", "ios": "https://dc.lft.to/lastmile_qr_scan"}, "type": "electric_scooter", "fusion_lon": 0.0, "fusion_lat": 0.0}, {"lat": 38.90879, "lon": -77.03185683333334, "is_disabled": 0, "bike_id": "1481a40c6e225f77e4dad92bd6bca4ca", "name": "1481a40c6e225f77e4dad92bd6bca4ca", "is_reserved": 0, "rental_uris": {"android": "https://dc.lft.to/lastmile_qr_scan", "ios": "https://dc.lft.to/lastmile_qr_scan"}, "type": "electric_scooter", "fusion_lon": 0.0, "fusion_lat": 0.0}, {"lat": 38.910025, "lon": -76.9841945, "is_disabled": 0, "bike_id": "0a8944550a19e033bd4d2e3e418dd3d4", "name": "0a8944550a19e033bd4d2e3e418dd3d4", "is_reserved": 0, "rental_uris": {"android": "https://dc.lft.to/lastmile_qr_scan", "ios": "https://dc.lft.to/lastmile_qr_scan"}, "type": "electric_bike", "fusion_lon": 0.0, "fusion_lat": 0.0}, {"lat": 38.90800866666667, "lon": -77.03190783333334, "is_disabled": 0, "bike_id": "af99778efa8d6d669ed78e93a4b02284", "name": "af99778efa8d6d669ed78e93a4b02284", "is_reserved": 0, "rental_uris": {"android": "https://dc.lft.to/lastmile_qr_scan", "ios": "https://dc.lft.to/lastmile_qr_scan"}, "type": "electric_scooter", "fusion_lon": 0.0, "fusion_lat": 0.0}, {"lat": 38.89961016666667, "lon": -77.04497933333333, "is_disabled": 0, "bike_id": "07b34f55db1b023ed34456bb3f9a6295", "name": "07b34f55db1b023ed34456bb3f9a6295", "is_reserved": 0, "rental_uris": {"android": "https://dc.lft.to/lastmile_qr_scan", "ios": "https://dc.lft.to/lastmile_qr_scan"}, "type": "electric_scooter", "fusion_lon": 0.0, "fusion_lat": 0.0}, {"lat": 38.911142, "lon": -77.0383455, "is_disabled": 0, "bike_id": "e3a9f02e07bc8af8cd25c26e63200d7a", "name": "e3a9f02e07bc8af8cd25c26e63200d7a", "is_reserved": 0, "rental_uris": {"android": "https://dc.lft.to/lastmile_qr_scan", "ios": "https://dc.lft.to/lastmile_qr_scan"}, "type": "electric_scooter", "fusion_lon": 0.0, "fusion_lat": 0.0}, {"lat": 38.893603, "lon": -77.03214566666666, "is_disabled": 0, "bike_id": "09fe3dbf358763a515a266ed3facc02c", "name": "09fe3dbf358763a515a266ed3facc02c", "is_reserved": 0, "rental_uris": {"android": "https://dc.lft.to/lastmile_qr_scan", "ios": "https://dc.lft.to/lastmile_qr_scan"}, "type": "electric_scooter", "fusion_lon": 0.0, "fusion_lat": 0.0}, {"lat": 38.903613166666666, "lon": -77.01625233333333, "is_disabled": 0, "bike_id": "bb562d15909a9027664dc25add326b26", "name": "bb562d15909a9027664dc25add326b26", "is_reserved": 0, "rental_uris": {"android": "https://dc.lft.to/lastmile_qr_scan", "ios": "https://dc.lft.to/lastmile_qr_scan"}, "type": "electric_scooter", "fusion_lon": 0.0, "fusion_lat": 0.0}, {"lat": 38.92316433333333, "lon": -77.03581266666667, "is_disabled": 0, "bike_id": "b962fed3ee9760c14c364beb9b83fbc3", "name": "b962fed3ee9760c14c364beb9b83fbc3", "is_reserved": 0, "rental_uris": {"android": "https://dc.lft.to/lastmile_qr_scan", "ios": "https://dc.lft.to/lastmile_qr_scan"}, "type": "electric_scooter", "fusion_lon": 0.0, "fusion_lat": 0.0}, {"lat": 38.89862866666667, "lon": -77.02048516666666, "is_disabled": 0, "bike_id": "3c4e08c9f465e72ebc8a248c926cab7e", "name": "3c4e08c9f465e72ebc8a248c926cab7e", "is_reserved": 0, "rental_uris": {"android": "https://dc.lft.to/lastmile_qr_scan", "ios": "https://dc.lft.to/lastmile_qr_scan"}, "type": "electric_scooter", "fusion_lon": 0.0, "fusion_lat": 0.0}, {"lat": 38.90573833333333, "lon": -77.02423533333334, "is_disabled": 0, "bike_id": "320951fa11aed6554d5a653e636e7f61", "name": "320951fa11aed6554d5a653e636e7f61", "is_reserved": 0, "rental_uris": {"android": "https://dc.lft.to/lastmile_qr_scan", "ios": "https://dc.lft.to/lastmile_qr_scan"}, "type": "electric_scooter", "fusion_lon": 0.0, "fusion_lat": 0.0}, {"lat": 38.885033166666666, "lon": -77.00564616666666, "is_disabled": 0, "bike_id": "66c68564358d9b80f11e7c00e10bd1d4", "name": "66c68564358d9b80f11e7c00e10bd1d4", "is_reserved": 0, "rental_uris": {"android": "https://dc.lft.to/lastmile_qr_scan", "ios": "https://dc.lft.to/lastmile_qr_scan"}, "type": "electric_scooter", "fusion_lon": 0.0, "fusion_lat": 0.0}, {"lat": 38.93159816666667, "lon": -77.07846733333334, "is_disabled": 0, "bike_id": "d4be192572dea13ebf2cb2c15940be99", "name": "d4be192572dea13ebf2cb2c15940be99", "is_reserved": 0, "rental_uris": {"android": "https://dc.lft.to/lastmile_qr_scan", "ios": "https://dc.lft.to/lastmile_qr_scan"}, "type": "electric_scooter", "fusion_lon": 0.0, "fusion_lat": 0.0}, {"lat": 38.89231916666667, "lon": -77.05002283333333, "is_disabled": 0, "bike_id": "0e864d3c323ca1068735f92421162fd3", "name": "0e864d3c323ca1068735f92421162fd3", "is_reserved": 0, "rental_uris": {"android": "https://dc.lft.to/lastmile_qr_scan", "ios": "https://dc.lft.to/lastmile_qr_scan"}, "type": "electric_scooter", "fusion_lon": 0.0, "fusion_lat": 0.0}, {"lat": 38.900882, "lon": -77.05063566666666, "is_disabled": 0, "bike_id": "6eb25b7fc3d9fa552c3325832fe9e0e4", "name": "6eb25b7fc3d9fa552c3325832fe9e0e4", "is_reserved": 0, "rental_uris": {"android": "https://dc.lft.to/lastmile_qr_scan", "ios": "https://dc.lft.to/lastmile_qr_scan"}, "type": "electric_scooter", "fusion_lon": 0.0, "fusion_lat": 0.0}, {"lat": 38.911955, "lon": -77.0322235, "is_disabled": 0, "bike_id": "63fb93abb9652631f9e60fd705659bd7", "name": "63fb93abb9652631f9e60fd705659bd7", "is_reserved": 0, "rental_uris": {"android": "https://dc.lft.to/lastmile_qr_scan", "ios": "https://dc.lft.to/lastmile_qr_scan"}, "type": "electric_scooter", "fusion_lon": 0.0, "fusion_lat": 0.0}, {"lat": 38.924774, "lon": -77.0222025, "is_disabled": 0, "bike_id": "45cfdede4adee83013b5fef220d19f95", "name": "45cfdede4adee83013b5fef220d19f95", "is_reserved": 0, "rental_uris": {"android": "https://dc.lft.to/lastmile_qr_scan", "ios": "https://dc.lft.to/lastmile_qr_scan"}, "type": "electric_scooter", "fusion_lon": 0.0, "fusion_lat": 0.0}, {"lat": 38.89240083333333, "lon": -76.9845115, "is_disabled": 0, "bike_id": "3358bc0d4b1523387accebef67c4baa7", "name": "3358bc0d4b1523387accebef67c4baa7", "is_reserved": 0, "rental_uris": {"android": "https://dc.lft.to/lastmile_qr_scan", "ios": "https://dc.lft.to/lastmile_qr_scan"}, "type": "electric_scooter", "fusion_lon": 0.0, "fusion_lat": 0.0}, {"lat": 38.922761666666666, "lon": -77.019511, "is_disabled": 0, "bike_id": "f9f07c6abb230f19a12f90c4f9516442", "name": "f9f07c6abb230f19a12f90c4f9516442", "is_reserved": 0, "rental_uris": {"android": "https://dc.lft.to/lastmile_qr_scan", "ios": "https://dc.lft.to/lastmile_qr_scan"}, "type": "electric_scooter", "fusion_lon": 0.0, "fusion_lat": 0.0}, {"lat": 38.9196945, "lon": -77.02706316666666, "is_disabled": 0, "bike_id": "ee23f2c0062a51e20d12382875ef7082", "name": "ee23f2c0062a51e20d12382875ef7082", "is_reserved": 0, "rental_uris": {"android": "https://dc.lft.to/lastmile_qr_scan", "ios": "https://dc.lft.to/lastmile_qr_scan"}, "type": "electric_scooter", "fusion_lon": 0.0, "fusion_lat": 0.0}, {"lat": 38.93327633333333, "lon": -77.03813833333334, "is_disabled": 0, "bike_id": "0e2af66798ac8a803c29cea0d3bfc1da", "name": "0e2af66798ac8a803c29cea0d3bfc1da", "is_reserved": 0, "rental_uris": {"android": "https://dc.lft.to/lastmile_qr_scan", "ios": "https://dc.lft.to/lastmile_qr_scan"}, "type": "electric_scooter", "fusion_lon": 0.0, "fusion_lat": 0.0}, {"lat": 38.89562983333333, "lon": -77.02953116666667, "is_disabled": 0, "bike_id": "8c0d9aaa4e2208fca83c2b43cc3c7f7e", "name": "8c0d9aaa4e2208fca83c2b43cc3c7f7e", "is_reserved": 0, "rental_uris": {"android": "https://dc.lft.to/lastmile_qr_scan", "ios": "https://dc.lft.to/lastmile_qr_scan"}, "type": "electric_scooter", "fusion_lon": 0.0, "fusion_lat": 0.0}, {"lat": 38.923733166666665, "lon": -77.0194235, "is_disabled": 0, "bike_id": "6c5dbb7dee7b0bfb3073ee43784dd169", "name": "6c5dbb7dee7b0bfb3073ee43784dd169", "is_reserved": 0, "rental_uris": {"android": "https://dc.lft.to/lastmile_qr_scan", "ios": "https://dc.lft.to/lastmile_qr_scan"}, "type": "electric_scooter", "fusion_lon": 0.0, "fusion_lat": 0.0}, {"lat": 38.921776666666666, "lon": -77.02047366666666, "is_disabled": 0, "bike_id": "e0bc3b654f5d110cc26b9cf51e7c0615", "name": "e0bc3b654f5d110cc26b9cf51e7c0615", "is_reserved": 0, "rental_uris": {"android": "https://dc.lft.to/lastmile_qr_scan", "ios": "https://dc.lft.to/lastmile_qr_scan"}, "type": "electric_scooter", "fusion_lon": 0.0, "fusion_lat": 0.0}, {"lat": 38.91140516666667, "lon": -77.02805, "is_disabled": 0, "bike_id": "1d3539173a43cd52e4d80536507208ec", "name": "1d3539173a43cd52e4d80536507208ec", "is_reserved": 0, "rental_uris": {"android": "https://dc.lft.to/lastmile_qr_scan", "ios": "https://dc.lft.to/lastmile_qr_scan"}, "type": "electric_scooter", "fusion_lon": 0.0, "fusion_lat": 0.0}, {"lat": 38.918913833333335, "lon": -77.0412655, "is_disabled": 0, "bike_id": "014f99e0ae7924166f071107d2cc5019", "name": "014f99e0ae7924166f071107d2cc5019", "is_reserved": 0, "rental_uris": {"android": "https://dc.lft.to/lastmile_qr_scan", "ios": "https://dc.lft.to/lastmile_qr_scan"}, "type": "electric_scooter", "fusion_lon": 0.0, "fusion_lat": 0.0}, {"lat": 38.92421216666666, "lon": -77.03631116666666, "is_disabled": 0, "bike_id": "25f6dcfc6538f23735fca6e6cbde9fd7", "name": "25f6dcfc6538f23735fca6e6cbde9fd7", "is_reserved": 0, "rental_uris": {"android": "https://dc.lft.to/lastmile_qr_scan", "ios": "https://dc.lft.to/lastmile_qr_scan"}, "type": "electric_scooter", "fusion_lon": 0.0, "fusion_lat": 0.0}, {"lat": 38.89953766666667, "lon": -77.02988083333334, "is_disabled": 0, "bike_id": "af7fb90faecc27d52eb10aec9a4e4c5f", "name": "af7fb90faecc27d52eb10aec9a4e4c5f", "is_reserved": 0, "rental_uris": {"android": "https://dc.lft.to/lastmile_qr_scan", "ios": "https://dc.lft.to/lastmile_qr_scan"}, "type": "electric_scooter", "fusion_lon": 0.0, "fusion_lat": 0.0}, {"lat": 38.9107605, "lon": -77.0161645, "is_disabled": 0, "bike_id": "90b8378f7a037ec3070a08f23e1add2b", "name": "90b8378f7a037ec3070a08f23e1add2b", "is_reserved": 0, "rental_uris": {"android": "https://dc.lft.to/lastmile_qr_scan", "ios": "https://dc.lft.to/lastmile_qr_scan"}, "type": "electric_scooter", "fusion_lon": 0.0, "fusion_lat": 0.0}, {"lat": 38.926162833333336, "lon": -77.02167483333334, "is_disabled": 0, "bike_id": "0927b2e08b15a1f41a06afeb1c519756", "name": "0927b2e08b15a1f41a06afeb1c519756", "is_reserved": 0, "rental_uris": {"android": "https://dc.lft.to/lastmile_qr_scan", "ios": "https://dc.lft.to/lastmile_qr_scan"}, "type": "electric_scooter", "fusion_lon": 0.0, "fusion_lat": 0.0}, {"lat": 38.82046183333333, "lon": -77.0536035, "is_disabled": 0, "bike_id": "0c01c905f82dba175018fe3b87ec3f24", "name": "0c01c905f82dba175018fe3b87ec3f24", "is_reserved": 0, "rental_uris": {"android": "https://dc.lft.to/lastmile_qr_scan", "ios": "https://dc.lft.to/lastmile_qr_scan"}, "type": "electric_bike", "fusion_lon": 0.0, "fusion_lat": 0.0}, {"lat": 38.865530166666666, "lon": -76.941525, "is_disabled": 0, "bike_id": "47be19f545847c74228dd9a5f122b03f", "name": "47be19f545847c74228dd9a5f122b03f", "is_reserved": 0, "rental_uris": {"android": "https://dc.lft.to/lastmile_qr_scan", "ios": "https://dc.lft.to/lastmile_qr_scan"}, "type": "electric_bike", "fusion_lon": 0.0, "fusion_lat": 0.0}, {"lat": 38.92359833333333, "lon": -77.02059666666666, "is_disabled": 0, "bike_id": "ebdec30d7815db3e4d76b22ccf2573b3", "name": "ebdec30d7815db3e4d76b22ccf2573b3", "is_reserved": 0, "rental_uris": {"android": "https://dc.lft.to/lastmile_qr_scan", "ios": "https://dc.lft.to/lastmile_qr_scan"}, "type": "electric_scooter", "fusion_lon": 0.0, "fusion_lat": 0.0}, {"lat": 38.920165, "lon": -77.071698, "is_disabled": 0, "bike_id": "1b0be6ba5f6a76918e20f07f5df2d02c", "name": "1b0be6ba5f6a76918e20f07f5df2d02c", "is_reserved": 0, "rental_uris": {"android": "https://dc.lft.to/lastmile_qr_scan", "ios": "https://dc.lft.to/lastmile_qr_scan"}, "type": "electric_scooter", "fusion_lon": 0.0, "fusion_lat": 0.0}, {"lat": 38.9206185, "lon": -77.04192466666667, "is_disabled": 0, "bike_id": "a46bfd496e2f4dad386834da85c5f26d", "name": "a46bfd496e2f4dad386834da85c5f26d", "is_reserved": 0, "rental_uris": {"android": "https://dc.lft.to/lastmile_qr_scan", "ios": "https://dc.lft.to/lastmile_qr_scan"}, "type": "electric_scooter", "fusion_lon": 0.0, "fusion_lat": 0.0}, {"lat": 38.932095833333335, "lon": -77.02661183333333, "is_disabled": 0, "bike_id": "6a47cbc265b9d2eb795c18b9ddee435b", "name": "6a47cbc265b9d2eb795c18b9ddee435b", "is_reserved": 0, "rental_uris": {"android": "https://dc.lft.to/lastmile_qr_scan", "ios": "https://dc.lft.to/lastmile_qr_scan"}, "type": "electric_scooter", "fusion_lon": 0.0, "fusion_lat": 0.0}, {"lat": 38.92412483333333, "lon": -77.02718383333334, "is_disabled": 0, "bike_id": "4861962735ca063c2cf97059f39a679b", "name": "4861962735ca063c2cf97059f39a679b", "is_reserved": 0, "rental_uris": {"android": "https://dc.lft.to/lastmile_qr_scan", "ios": "https://dc.lft.to/lastmile_qr_scan"}, "type": "electric_scooter", "fusion_lon": 0.0, "fusion_lat": 0.0}, {"lat": 38.902404833333335, "lon": -77.0020115, "is_disabled": 0, "bike_id": "1731a9874b4e812189e9654a2c36b1ad", "name": "1731a9874b4e812189e9654a2c36b1ad", "is_reserved": 0, "rental_uris": {"android": "https://dc.lft.to/lastmile_qr_scan", "ios": "https://dc.lft.to/lastmile_qr_scan"}, "type": "electric_scooter", "fusion_lon": 0.0, "fusion_lat": 0.0}, {"lat": 38.89943, "lon": -76.93767483333333, "is_disabled": 0, "bike_id": "f758ec22e8ebf98a4233a53f7a85d568", "name": "f758ec22e8ebf98a4233a53f7a85d568", "is_reserved": 0, "rental_uris": {"android": "https://dc.lft.to/lastmile_qr_scan", "ios": "https://dc.lft.to/lastmile_qr_scan"}, "type": "electric_scooter", "fusion_lon": 0.0, "fusion_lat": 0.0}, {"lat": 39.03474283333333, "lon": -77.04105, "is_disabled": 0, "bike_id": "9f6cd214c42800ca3e4779d92982402e", "name": "9f6cd214c42800ca3e4779d92982402e", "is_reserved": 0, "rental_uris": {"android": "https://dc.lft.to/lastmile_qr_scan", "ios": "https://dc.lft.to/lastmile_qr_scan"}, "type": "electric_bike", "fusion_lon": 0.0, "fusion_lat": 0.0}, {"lat": 38.9231895, "lon": -77.02902833333333, "is_disabled": 0, "bike_id": "09a916464f83aed142fd8cf3cd4f5670", "name": "09a916464f83aed142fd8cf3cd4f5670", "is_reserved": 0, "rental_uris": {"android": "https://dc.lft.to/lastmile_qr_scan", "ios": "https://dc.lft.to/lastmile_qr_scan"}, "type": "electric_scooter", "fusion_lon": 0.0, "fusion_lat": 0.0}, {"lat": 38.8731535, "lon": -77.010691, "is_disabled": 0, "bike_id": "846210429f7dc43cc57c77c65fa96442", "name": "846210429f7dc43cc57c77c65fa96442", "is_reserved": 0, "rental_uris": {"android": "https://dc.lft.to/lastmile_qr_scan", "ios": "https://dc.lft.to/lastmile_qr_scan"}, "type": "electric_scooter", "fusion_lon": 0.0, "fusion_lat": 0.0}, {"lat": 38.92369433333333, "lon": -77.02141533333334, "is_disabled": 0, "bike_id": "d305ab2995dfc27e7c91b177f0ad1178", "name": "d305ab2995dfc27e7c91b177f0ad1178", "is_reserved": 0, "rental_uris": {"android": "https://dc.lft.to/lastmile_qr_scan", "ios": "https://dc.lft.to/lastmile_qr_scan"}, "type": "electric_scooter", "fusion_lon": 0.0, "fusion_lat": 0.0}, {"lat": 38.91277066666667, "lon": -77.03184433333334, "is_disabled": 0, "bike_id": "f70a598d306b34c32bcc7e43068e7487", "name": "f70a598d306b34c32bcc7e43068e7487", "is_reserved": 0, "rental_uris": {"android": "https://dc.lft.to/lastmile_qr_scan", "ios": "https://dc.lft.to/lastmile_qr_scan"}, "type": "electric_scooter", "fusion_lon": 0.0, "fusion_lat": 0.0}, {"lat": 38.914356, "lon": -77.0322265, "is_disabled": 0, "bike_id": "cb9552f7b3f0c5587af77a5c827f9307", "name": "cb9552f7b3f0c5587af77a5c827f9307", "is_reserved": 0, "rental_uris": {"android": "https://dc.lft.to/lastmile_qr_scan", "ios": "https://dc.lft.to/lastmile_qr_scan"}, "type": "electric_scooter", "fusion_lon": 0.0, "fusion_lat": 0.0}, {"lat": 38.902354833333334, "lon": -77.0513295, "is_disabled": 0, "bike_id": "4fa9fc76c947a89f9374247d2f953370", "name": "4fa9fc76c947a89f9374247d2f953370", "is_reserved": 0, "rental_uris": {"android": "https://dc.lft.to/lastmile_qr_scan", "ios": "https://dc.lft.to/lastmile_qr_scan"}, "type": "electric_scooter", "fusion_lon": 0.0, "fusion_lat": 0.0}, {"lat": 38.838693, "lon": -76.99707866666667, "is_disabled": 0, "bike_id": "7ce7c80d662ab5a65a0c409679a68a2e", "name": "7ce7c80d662ab5a65a0c409679a68a2e", "is_reserved": 0, "rental_uris": {"android": "https://dc.lft.to/lastmile_qr_scan", "ios": "https://dc.lft.to/lastmile_qr_scan"}, "type": "electric_bike", "fusion_lon": 0.0, "fusion_lat": 0.0}, {"lat": 38.917715666666666, "lon": -77.04058166666667, "is_disabled": 0, "bike_id": "ed576380372f638d97204dd45b15c398", "name": "ed576380372f638d97204dd45b15c398", "is_reserved": 0, "rental_uris": {"android": "https://dc.lft.to/lastmile_qr_scan", "ios": "https://dc.lft.to/lastmile_qr_scan"}, "type": "electric_scooter", "fusion_lon": 0.0, "fusion_lat": 0.0}, {"lat": 38.9518985, "lon": -76.95122766666667, "is_disabled": 0, "bike_id": "1c36eca06a08f4de56550d9527b9bc16", "name": "1c36eca06a08f4de56550d9527b9bc16", "is_reserved": 0, "rental_uris": {"android": "https://dc.lft.to/lastmile_qr_scan", "ios": "https://dc.lft.to/lastmile_qr_scan"}, "type": "electric_bike", "fusion_lon": 0.0, "fusion_lat": 0.0}, {"lat": 38.89854666666667, "lon": -77.04498283333334, "is_disabled": 0, "bike_id": "e8d1a388938da0ea218d18980b0efa33", "name": "e8d1a388938da0ea218d18980b0efa33", "is_reserved": 0, "rental_uris": {"android": "https://dc.lft.to/lastmile_qr_scan", "ios": "https://dc.lft.to/lastmile_qr_scan"}, "type": "electric_scooter", "fusion_lon": 0.0, "fusion_lat": 0.0}, {"lat": 38.9159965, "lon": -77.0240885, "is_disabled": 0, "bike_id": "855174deb9b3e65019317661e24ac441", "name": "855174deb9b3e65019317661e24ac441", "is_reserved": 0, "rental_uris": {"android": "https://dc.lft.to/lastmile_qr_scan", "ios": "https://dc.lft.to/lastmile_qr_scan"}, "type": "electric_scooter", "fusion_lon": 0.0, "fusion_lat": 0.0}, {"lat": 38.9069005, "lon": -77.0719035, "is_disabled": 0, "bike_id": "3d0f870068da7eb26c2da5d3ab7a7586", "name": "3d0f870068da7eb26c2da5d3ab7a7586", "is_reserved": 0, "rental_uris": {"android": "https://dc.lft.to/lastmile_qr_scan", "ios": "https://dc.lft.to/lastmile_qr_scan"}, "type": "electric_scooter", "fusion_lon": 0.0, "fusion_lat": 0.0}, {"lat": 38.93285083333333, "lon": -77.02815466666667, "is_disabled": 0, "bike_id": "1274b27f9ce777c403e8cc81389f62b3", "name": "1274b27f9ce777c403e8cc81389f62b3", "is_reserved": 0, "rental_uris": {"android": "https://dc.lft.to/lastmile_qr_scan", "ios": "https://dc.lft.to/lastmile_qr_scan"}, "type": "electric_scooter", "fusion_lon": 0.0, "fusion_lat": 0.0}, {"lat": 38.918115, "lon": -77.02505216666667, "is_disabled": 0, "bike_id": "f86b39f5b72753322d59a67055a6d264", "name": "f86b39f5b72753322d59a67055a6d264", "is_reserved": 0, "rental_uris": {"android": "https://dc.lft.to/lastmile_qr_scan", "ios": "https://dc.lft.to/lastmile_qr_scan"}, "type": "electric_scooter", "fusion_lon": 0.0, "fusion_lat": 0.0}, {"lat": 38.92434633333333, "lon": -77.02247866666667, "is_disabled": 0, "bike_id": "d4e16c5094266ed6c62b7e3707f54f08", "name": "d4e16c5094266ed6c62b7e3707f54f08", "is_reserved": 0, "rental_uris": {"android": "https://dc.lft.to/lastmile_qr_scan", "ios": "https://dc.lft.to/lastmile_qr_scan"}, "type": "electric_scooter", "fusion_lon": 0.0, "fusion_lat": 0.0}, {"lat": 38.9188565, "lon": -76.96432933333334, "is_disabled": 0, "bike_id": "819e7e2278ca64cf5b3a9d1c8792d1e9", "name": "819e7e2278ca64cf5b3a9d1c8792d1e9", "is_reserved": 0, "rental_uris": {"android": "https://dc.lft.to/lastmile_qr_scan", "ios": "https://dc.lft.to/lastmile_qr_scan"}, "type": "electric_bike", "fusion_lon": 0.0, "fusion_lat": 0.0}, {"lat": 38.9227195, "lon": -77.01957333333333, "is_disabled": 0, "bike_id": "a585f81b81dc752aef0af387baae26c4", "name": "a585f81b81dc752aef0af387baae26c4", "is_reserved": 0, "rental_uris": {"android": "https://dc.lft.to/lastmile_qr_scan", "ios": "https://dc.lft.to/lastmile_qr_scan"}, "type": "electric_scooter", "fusion_lon": 0.0, "fusion_lat": 0.0}, {"lat": 38.895821833333336, "lon": -77.0295135, "is_disabled": 0, "bike_id": "b1636dae0bd6b4b83076f4d8f43fd398", "name": "b1636dae0bd6b4b83076f4d8f43fd398", "is_reserved": 0, "rental_uris": {"android": "https://dc.lft.to/lastmile_qr_scan", "ios": "https://dc.lft.to/lastmile_qr_scan"}, "type": "electric_scooter", "fusion_lon": 0.0, "fusion_lat": 0.0}, {"lat": 38.92249966666667, "lon": -77.028191, "is_disabled": 0, "bike_id": "0b0ba9605447dcd8277f60b5217e75b2", "name": "0b0ba9605447dcd8277f60b5217e75b2", "is_reserved": 0, "rental_uris": {"android": "https://dc.lft.to/lastmile_qr_scan", "ios": "https://dc.lft.to/lastmile_qr_scan"}, "type": "electric_scooter", "fusion_lon": 0.0, "fusion_lat": 0.0}, {"lat": 38.936829833333334, "lon": -77.06621666666666, "is_disabled": 0, "bike_id": "2a6ed3e5f729db67c81285442fcae66f", "name": "2a6ed3e5f729db67c81285442fcae66f", "is_reserved": 0, "rental_uris": {"android": "https://dc.lft.to/lastmile_qr_scan", "ios": "https://dc.lft.to/lastmile_qr_scan"}, "type": "electric_scooter", "fusion_lon": 0.0, "fusion_lat": 0.0}, {"lat": 38.88759233333333, "lon": -77.00047166666667, "is_disabled": 0, "bike_id": "a0900b9288b9caefc87782e6dd1e44d8", "name": "a0900b9288b9caefc87782e6dd1e44d8", "is_reserved": 0, "rental_uris": {"android": "https://dc.lft.to/lastmile_qr_scan", "ios": "https://dc.lft.to/lastmile_qr_scan"}, "type": "electric_scooter", "fusion_lon": 0.0, "fusion_lat": 0.0},