{"data": {"bikes": [{"lat": 38.92149883333333, "is_disabled": 0, "type": "electric_scooter", "lon": -76.96924833333334, "bike_id": "403d220281c0ccd7405e739a54e9f9e3", "fusion_lat": 0.0, "name": "403d220281c0ccd7405e739a54e9f9e3", "is_reserved": 0, "rental_uris": {"android": "https://dc.lft.to/lastmile_qr_scan", "ios": "https://dc.lft.to/lastmile_qr_scan"}, "fusion_lon": 0.0}, {"lat": 38.902561666666664, "is_disabled": 0, "type": "electric_scooter", "lon": -77.0173095, "bike_id": "38292ad56b19d7da96dfa9aac32307dc", "fusion_lat": 0.0, "name": "38292ad56b19d7da96dfa9aac32307dc", "is_reserved": 0, "rental_uris": {"android": "https://dc.lft.to/lastmile_qr_scan", "ios": "https://dc.lft.to/lastmile_qr_scan"}, "fusion_lon": 0.0}, {"lat": 38.92055783333333, "is_disabled": 0, "type": "electric_scooter", "lon": -77.0236465, "bike_id": "31c7144a345f4c12f7e676e21e893bf9", "fusion_lat": 0.0, "name": "31c7144a345f4c12f7e676e21e893bf9", "is_reserved": 0, "rental_uris": {"android": "https://dc.lft.to/lastmile_qr_scan", "ios": "https://dc.lft.to/lastmile_qr_scan"}, "fusion_lon": 0.0}, {"lat": 38.8999915, "is_disabled": 0, "type": "electric_scooter", "lon": -77.0215305, "bike_id": "bb53247ecd851cce2d3e8378fb3e5f2b", "fusion_lat": 0.0, "name": "bb53247ecd851cce2d3e8378fb3e5f2b", "is_reserved": 0, "rental_uris": {"android": "https://dc.lft.to/lastmile_qr_scan", "ios": "https://dc.lft.to/lastmile_qr_scan"}, "fusion_lon": 0.0}, {"lat": 38.896773833333334, "is_disabled": 0, "type": "electric_scooter", "lon": -77.0239885, "bike_id": "f990c48f964e1a4221bad865210eb4d4", "fusion_lat": 0.0, "name": "f990c48f964e1a4221bad865210eb4d4", "is_reserved": 0, "rental_uris": {"android": "https://dc.lft.to/lastmile_qr_scan", "ios": "https://dc.lft.to/lastmile_qr_scan"}, "fusion_lon": 0.0}, {"lat": 38.8616815, "is_disabled": 0, "type": "electric_bike", "lon": -76.95064433333333, "bike_id": "0f3a228aa12cd3608ffc2e47074433af", "fusion_lat": 0.0, "name": "0f3a228aa12cd3608ffc2e47074433af", "is_reserved": 0, "rental_uris": {"android": "https://dc.lft.to/lastmile_qr_scan", "ios": "https://dc.lft.to/lastmile_qr_scan"}, "fusion_lon": 0.0}, {"lat": 38.911978, "is_disabled": 0, "type": "electric_scooter", "lon": -77.00431833333333, "bike_id": "2d4e0d8f04f8974585be677b5fd6093b", "fusion_lat": 0.0, "name": "2d4e0d8f04f8974585be677b5fd6093b", "is_reserved": 0, "rental_uris": {"android": "https://dc.lft.to/lastmile_qr_scan", "ios": "https://dc.lft.to/lastmile_qr_scan"}, "fusion_lon": 0.0}, {"lat": 38.887671166666664, "is_disabled": 0, "type": "electric_scooter", "lon": -76.95596466666667, "bike_id": "f677c0fdf0975458889c2d1418353ef5", "fusion_lat": 0.0, "name": "f677c0fdf0975458889c2d1418353ef5", "is_reserved": 0, "rental_uris": {"android": "https://dc.lft.to/lastmile_qr_scan", "ios": "https://dc.lft.to/lastmile_qr_scan"}, "fusion_lon": 0.0}, {"lat": 38.89227566666667, "is_disabled": 0, "type": "electric_scooter", "lon": -77.048626, "bike_id": "1ddcdef75460b74a9e27125a40944d4a", "fusion_lat": 0.0, "name": "1ddcdef75460b74a9e27125a40944d4a", "is_reserved": 0, "rental_uris": {"android": "https://dc.lft.to/lastmile_qr_scan", "ios": "https://dc.lft.to/lastmile_qr_scan"}, "fusion_lon": 0.0}, {"lat": 38.892215, "is_disabled": 0, "type": "electric_scooter", "lon": -77.04863466666667, "bike_id": "678fefa07f4e736cf7fc656f68c2f55c", "fusion_lat": 0.0, "name": "678fefa07f4e736cf7fc656f68c2f55c", "is_reserved": 0, "rental_uris": {"android": "https://dc.lft.to/lastmile_qr_scan", "ios": "https://dc.lft.to/lastmile_qr_scan"}, "fusion_lon": 0.0}, {"lat": 38.90534616666667, "is_disabled": 0, "type": "electric_scooter", "lon": -77.0593205, "bike_id": "c31e5129ab747d57abc82de63c774604", "fusion_lat": 0.0, "name": "c31e5129ab747d57abc82de63c774604", "is_reserved": 0, "rental_uris": {"android": "https://dc.lft.to/lastmile_qr_scan", "ios": "https://dc.lft.to/lastmile_qr_scan"}, "fusion_lon": 0.0}, {"lat": 38.92110983333333, "is_disabled": 0, "type": "electric_scooter", "lon": -77.04206983333333, "bike_id": "361164e01b2efd9b146c0b9ec38c90f7", "fusion_lat": 0.0, "name": "361164e01b2efd9b146c0b9ec38c90f7", "is_reserved": 0, "rental_uris": {"android": "https://dc.lft.to/lastmile_qr_scan", "ios": "https://dc.lft.to/lastmile_qr_scan"}, "fusion_lon": 0.0}, {"lat": 38.90494866666667, "is_disabled": 0, "type": "electric_scooter", "lon": -77.00130916666667, "bike_id": "79be757e2a62d3d0ab3cdda18f6a3132", "fusion_lat": 0.0, "name": "79be757e2a62d3d0ab3cdda18f6a3132", "is_reserved": 0, "rental_uris": {"android": "https://dc.lft.to/lastmile_qr_scan", "ios": "https://dc.lft.to/lastmile_qr_scan"}, "fusion_lon": 0.0}, {"lat": 38.91772016666667, "is_disabled": 0, "type": "electric_scooter", "lon": -77.0150415, "bike_id": "f8df882737a26e697a153b43cb4b2efb", "fusion_lat": 0.0, "name": "f8df882737a26e697a153b43cb4b2efb", "is_reserved": 0, "rental_uris": {"android": "https://dc.lft.to/lastmile_qr_scan", "ios": "https://dc.lft.to/lastmile_qr_scan"}, "fusion_lon": 0.0}, {"lat": 38.9191725, "is_disabled": 0, "type": "electric_scooter", "lon": -77.0287575, "bike_id": "cc294ca01fbd58f1d6f725b36611bfc8", "fusion_lat": 0.0, "name": "cc294ca01fbd58f1d6f725b36611bfc8", "is_reserved": 0, "rental_uris": {"android": "https://dc.lft.to/lastmile_qr_scan", "ios": "https://dc.lft.to/lastmile_qr_scan"}, "fusion_lon": 0.0}, {"lat": 38.90064183333333, "is_disabled": 0, "type": "electric_scooter", "lon": -77.02588866666666, "bike_id": "be4b0e53be9eaa77fc0a34d5e4a2ef21", "fusion_lat": 0.0, "name": "be4b0e53be9eaa77fc0a34d5e4a2ef21", "is_reserved": 0, "rental_uris": {"android": "https://dc.lft.to/lastmile_qr_scan", "ios": "https://dc.lft.to/lastmile_qr_scan"}, "fusion_lon": 0.0}, {"lat": 38.919701833333335, "is_disabled": 0, "type": "electric_scooter", "lon": -77.0134755, "bike_id": "d653aede46d01e8908f260b800c5c5b5", "fusion_lat": 0.0, "name": "d653aede46d01e8908f260b800c5c5b5", "is_reserved": 0, "rental_uris": {"android": "https://dc.lft.to/lastmile_qr_scan", "ios": "https://dc.lft.to/lastmile_qr_scan"}, "fusion_lon": 0.0}, {"lat": 38.91678433333333, "is_disabled": 0, "type": "electric_scooter", "lon": -77.029508, "bike_id": "81bd3cbe7a2acc7130f80a3b99bd9ae2", "fusion_lat": 0.0, "name": "81bd3cbe7a2acc7130f80a3b99bd9ae2", "is_reserved": 0, "rental_uris": {"android": "https://dc.lft.to/lastmile_qr_scan", "ios": "https://dc.lft.to/lastmile_qr_scan"}, "fusion_lon": 0.0}, {"lat": 38.8922445, "is_disabled": 0, "type": "electric_scooter", "lon": -77.04362016666667, "bike_id": "f3899dce18103d38a763c8c96cdf4a5e", "fusion_lat": 0.0, "name": "f3899dce18103d38a763c8c96cdf4a5e", "is_reserved": 0, "rental_uris": {"android": "https://dc.lft.to/lastmile_qr_scan", "ios": "https://dc.lft.to/lastmile_qr_scan"}, "fusion_lon": 0.0}, {"lat": 38.9071715, "is_disabled": 0, "type": "electric_scooter", "lon": -77.03430133333333, "bike_id": "1e1d4438ed1e7c71caf1b6c9b57a5970", "fusion_lat": 0.0, "name": "1e1d4438ed1e7c71caf1b6c9b57a5970", "is_reserved": 0, "rental_uris": {"android": "https://dc.lft.to/lastmile_qr_scan", "ios": "https://dc.lft.to/lastmile_qr_scan"}, "fusion_lon": 0.0}, {"lat": 38.91122516666667, "is_disabled": 0, "type": "electric_scooter", "lon": -77.03642533333333, "bike_id": "3f1bd4e28c8a07051530877aa511e349", "fusion_lat": 0.0, "name": "3f1bd4e28c8a07051530877aa511e349", "is_reserved": 0, "rental_uris": {"android": "https://dc.lft.to/lastmile_qr_scan", "ios": "https://dc.lft.to/lastmile_qr_scan"}, "fusion_lon": 0.0}, {"lat": 38.9039105, "is_disabled": 0, "type": "electric_scooter", "lon": -77.05390166666666, "bike_id": "8da1c79b46eaad194d02ee1154d5a2b8", "fusion_lat": 0.0, "name": "8da1c79b46eaad194d02ee1154d5a2b8", "is_reserved": 0, "rental_uris": {"android": "https://dc.lft.to/lastmile_qr_scan", "ios": "https://dc.lft.to/lastmile_qr_scan"}, "fusion_lon": 0.0}, {"lat": 38.90476666666667, "is_disabled": 0, "type": "electric_bike", "lon": -77.03089, "bike_id": "fd80f79aca574581bde4acb93d7941b9", "fusion_lat": 0.0, "name": "fd80f79aca574581bde4acb93d7941b9", "is_reserved": 0, "rental_uris": {"android": "https://dc.lft.to/lastmile_qr_scan", "ios": "https://dc.lft.to/lastmile_qr_scan"}, "fusion_lon": 0.0}, {"lat": 39.05202933333333, "is_disabled": 0, "type": "electric_bike", "lon": -77.1091895, "bike_id": "d22b5e7e7f031ea0cc0f77be69dba341", "fusion_lat": 0.0, "name": "d22b5e7e7f031ea0cc0f77be69dba341", "is_reserved": 0, "rental_uris": {"android": "https://dc.lft.to/lastmile_qr_scan", "ios": "https://dc.lft.to/lastmile_qr_scan"}, "fusion_lon": 0.0}, {"lat": 38.90257166666667, "is_disabled": 0, "type": "electric_scooter", "lon": -77.03202, "bike_id": "2ed5525dcded7b3612b4ee5621c3fae2", "fusion_lat": 0.0, "name": "2ed5525dcded7b3612b4ee5621c3fae2", "is_reserved": 0, "rental_uris": {"android": "https://dc.lft.to/lastmile_qr_scan", "ios": "https://dc.lft.to/lastmile_qr_scan"}, "fusion_lon": 0.0}, {"lat": 38.90958283333333, "is_disabled": 0, "type": "electric_scooter", "lon": -77.04788116666667, "bike_id": "3e4fef8180cf8f102048d38ae5a019f5", "fusion_lat": 0.0, "name": "3e4fef8180cf8f102048d38ae5a019f5", "is_reserved": 0, "rental_uris": {"android": "https://dc.lft.to/lastmile_qr_scan", "ios": "https://dc.lft.to/lastmile_qr_scan"}, "fusion_lon": 0.0}, {"lat": 38.8665335, "is_disabled": 0, "type": "electric_scooter", "lon": -76.980877, "bike_id": "88dbfcd4034bda789acdc06d51709df2", "fusion_lat": 0.0, "name": "88dbfcd4034bda789acdc06d51709df2", "is_reserved": 0, "rental_uris": {"android": "https://dc.lft.to/lastmile_qr_scan", "ios": "https://dc.lft.to/lastmile_qr_scan"}, "fusion_lon": 0.0}, {"lat": 38.97838266666667, "is_disabled": 0, "type": "electric_bike", "lon": -77.026529, "bike_id": "1210d89f974ad61813ec849bc12cf2b4", "fusion_lat": 0.0, "name": "1210d89f974ad61813ec849bc12cf2b4", "is_reserved": 0, "rental_uris": {"android": "https://dc.lft.to/lastmile_qr_scan", "ios": "https://dc.lft.to/lastmile_qr_scan"}, "fusion_lon": 0.0}, {"lat": 38.97882716666667, "is_disabled": 0, "type": "electric_scooter", "lon": -77.025485, "bike_id": "4d4b3a5fa3e5e33a8e6d627f6674bd91", "fusion_lat": 0.0, "name": "4d4b3a5fa3e5e33a8e6d627f6674bd91", "is_reserved": 0, "rental_uris": {"android": "https://dc.lft.to/lastmile_qr_scan", "ios": "https://dc.lft.to/lastmile_qr_scan"}, "fusion_lon": 0.0}, {"lat": 38.900121666666664, "is_disabled": 0, "type": "electric_scooter", "lon": -76.992144, "bike_id": "8852491967f814ca3ad2e660a8d6c433", "fusion_lat": 0.0, "name": "8852491967f814ca3ad2e660a8d6c433", "is_reserved": 0, "rental_uris": {"android": "https://dc.lft.to/lastmile_qr_scan", "ios": "https://dc.lft.to/lastmile_qr_scan"}, "fusion_lon": 0.0}, {"lat": 38.904796833333336, "is_disabled": 0, "type": "electric_scooter", "lon": -76.99207933333334, "bike_id": "d7d546ad0289d13b84fd27a454293633", "fusion_lat": 0.0, "name": "d7d546ad0289d13b84fd27a454293633", "is_reserved": 0, "rental_uris": {"android": "https://dc.lft.to/lastmile_qr_scan", "ios": "https://dc.lft.to/lastmile_qr_scan"}, "fusion_lon": 0.0}, {"lat": 38.8324305, "is_disabled": 0, "type": "electric_bike", "lon": -76.94625033333334, "bike_id": "badc6ad2cfc7050330e80dc24c0fdef9", "fusion_lat": 0.0, "name": "badc6ad2cfc7050330e80dc24c0fdef9", "is_reserved": 0, "rental_uris": {"android": "https://dc.lft.to/lastmile_qr_scan", "ios": "https://dc.lft.to/lastmile_qr_scan"}, "fusion_lon": 0.0}, {"lat": 38.8638905, "is_disabled": 0, "type": "electric_scooter", "lon": -76.9924615, "bike_id": "793dc43e190b09622235a1f85d454dd5", "fusion_lat": 0.0, "name": "793dc43e190b09622235a1f85d454dd5", "is_reserved": 0, "rental_uris": {"android": "https://dc.lft.to/lastmile_qr_scan", "ios": "https://dc.lft.to/lastmile_qr_scan"}, "fusion_lon": 0.0}, {"lat": 38.943067, "is_disabled": 0, "type": "electric_scooter", "lon": -77.05928233333333, "bike_id": "98fe43af49f9dd44b78ed1230a7f1b9d", "fusion_lat": 0.0, "name": "98fe43af49f9dd44b78ed1230a7f1b9d", "is_reserved": 0, "rental_uris": {"android": "https://dc.lft.to/lastmile_qr_scan", "ios": "https://dc.lft.to/lastmile_qr_scan"}, "fusion_lon": 0.0}, {"lat": 38.92447766666667, "is_disabled": 0, "type": "electric_scooter", "lon": -77.02034766666667, "bike_id": "7f4dff223e8f27d0a65a31446f7bc934", "fusion_lat": 0.0, "name": "7f4dff223e8f27d0a65a31446f7bc934", "is_reserved": 0, "rental_uris": {"android": "https://dc.lft.to/lastmile_qr_scan", "ios": "https://dc.lft.to/lastmile_qr_scan"}, "fusion_lon": 0.0}, {"lat": 38.860943, "is_disabled": 0, "type": "electric_scooter", "lon": -76.98375683333333, "bike_id": "8714a46ea4b6eabafe253dc2145dab37", "fusion_lat": 0.0, "name": "8714a46ea4b6eabafe253dc2145dab37", "is_reserved": 0, "rental_uris": {"android": "https://dc.lft.to/lastmile_qr_scan", "ios": "https://dc.lft.to/lastmile_qr_scan"}, "fusion_lon": 0.0}, {"lat": 38.85503283333333, "is_disabled": 0, "type": "electric_bike", "lon": -77.12047766666667, "bike_id": "951490ea5a4b5cfb75dbb099b2c24df5", "fusion_lat": 0.0, "name": "951490ea5a4b5cfb75dbb099b2c24df5", "is_reserved": 0, "rental_uris": {"android": "https://dc.lft.to/lastmile_qr_scan", "ios": "https://dc.lft.to/lastmile_qr_scan"}, "fusion_lon": 0.0}, {"lat": 38.92239766666667, "is_disabled": 0, "type": "electric_scooter", "lon": -77.029824, "bike_id": "50e46820f28d98045326d95eb0f87fb9", "fusion_lat": 0.0, "name": "50e46820f28d98045326d95eb0f87fb9", "is_reserved": 0, "rental_uris": {"android": "https://dc.lft.to/lastmile_qr_scan", "ios": "https://dc.lft.to/lastmile_qr_scan"}, "fusion_lon": 0.0}, {"lat": 38.9021145, "is_disabled": 0, "type": "electric_scooter", "lon": -77.02177083333333, "bike_id": "ac5b8724320b4bbc00a8000eed297368", "fusion_lat": 0.0, "name": "ac5b8724320b4bbc00a8000eed297368", "is_reserved": 0, "rental_uris": {"android": "https://dc.lft.to/lastmile_qr_scan", "ios": "https://dc.lft.to/lastmile_qr_scan"}, "fusion_lon": 0.0}, {"lat": 38.885007, "is_disabled": 0, "type": "electric_scooter", "lon": -77.01554683333333, "bike_id": "bb78c3f27cfa2b4131fd019cad9e0e08", "fusion_lat": 0.0, "name": "bb78c3f27cfa2b4131fd019cad9e0e08", "is_reserved": 0, "rental_uris": {"android": "https://dc.lft.to/lastmile_qr_scan", "ios": "https://dc.lft.to/lastmile_qr_scan"}, "fusion_lon": 0.0}, {"lat": 38.91334333333333, "is_disabled": 0, "type": "electric_scooter", "lon": -77.03121833333333, "bike_id": "52b8c8efcf47c7a6fd94efa5474587ae", "fusion_lat": 0.0, "name": "52b8c8efcf47c7a6fd94efa5474587ae", "is_reserved": 0, "rental_uris": {"android": "https://dc.lft.to/lastmile_qr_scan", "ios": "https://dc.lft.to/lastmile_qr_scan"}, "fusion_lon": 0.0}, {"lat": 38.898758666666666, "is_disabled": 0, "type": "electric_scooter", "lon": -76.931854, "bike_id": "80d47e53dd8a9715a9d6052904a6acb0", "fusion_lat": 0.0, "name": "80d47e53dd8a9715a9d6052904a6acb0", "is_reserved": 0, "rental_uris": {"android": "https://dc.lft.to/lastmile_qr_scan", "ios": "https://dc.lft.to/lastmile_qr_scan"}, "fusion_lon": 0.0}, {"lat": 38.9513875, "is_disabled": 0, "type": "electric_scooter", "lon": -77.0133255, "bike_id": "c931ba8ab71f10b88c8be7ae51b3fae0", "fusion_lat": 0.0, "name": "c931ba8ab71f10b88c8be7ae51b3fae0", "is_reserved": 0, "rental_uris": {"android": "https://dc.lft.to/lastmile_qr_scan", "ios": "https://dc.lft.to/lastmile_qr_scan"}, "fusion_lon": 0.0}, {"lat": 38.89491816666666, "is_disabled": 0, "type": "electric_scooter", "lon": -77.0216575, "bike_id": "de2a8b2b72925f4bacca5a951d25a038", "fusion_lat": 0.0, "name": "de2a8b2b72925f4bacca5a951d25a038", "is_reserved": 0, "rental_uris": {"android": "https://dc.lft.to/lastmile_qr_scan", "ios": "https://dc.lft.to/lastmile_qr_scan"}, "fusion_lon": 0.0}, {"lat": 38.9709175, "is_disabled": 0, "type": "electric_bike", "lon": -77.06963283333333, "bike_id": "d09aedbe6ab5c702b636f29d278d4339", "fusion_lat": 0.0, "name": "d09aedbe6ab5c702b636f29d278d4339", "is_reserved": 0, "rental_uris": {"android": "https://dc.lft.to/lastmile_qr_scan", "ios": "https://dc.lft.to/lastmile_qr_scan"}, "fusion_lon": 0.0}, {"lat": 38.925583, "is_disabled": 0, "type": "electric_scooter", "lon": -77.0329675, "bike_id": "9f782aaf9c8498b8f3135d437506a94b", "fusion_lat": 0.0, "name": "9f782aaf9c8498b8f3135d437506a94b", "is_reserved": 0, "rental_uris": {"android": "https://dc.lft.to/lastmile_qr_scan", "ios": "https://dc.lft.to/lastmile_qr_scan"}, "fusion_lon": 0.0}, {"lat": 38.918798833333334, "is_disabled": 0, "type": "electric_scooter", "lon": -77.04727966666667, "bike_id": "57976b04f39679bf8703a482cb96f00c", "fusion_lat": 0.0, "name": "57976b04f39679bf8703a482cb96f00c", "is_reserved": 0, "rental_uris": {"android": "https://dc.lft.to/lastmile_qr_scan", "ios": "https://dc.lft.to/lastmile_qr_scan"}, "fusion_lon": 0.0}, {"lat": 38.92587666666667, "is_disabled": 0, "type": "electric_scooter", "lon": -77.004782, "bike_id": "651c9cf3b6713aca53907147ae305184", "fusion_lat": 0.0, "name": "651c9cf3b6713aca53907147ae305184", "is_reserved": 0, "rental_uris": {"android": "https://dc.lft.to/lastmile_qr_scan", "ios": "https://dc.lft.to/lastmile_qr_scan"}, "fusion_lon": 0.0}, {"lat": 38.906507500000004, "is_disabled": 0, "type": "electric_scooter", "lon": -77.02502133333333, "bike_id": "355c9d2e7cde3187bbc819c743a582dc", "fusion_lat": 0.0, "name": "355c9d2e7cde3187bbc819c743a582dc", "is_reserved": 0, "rental_uris": {"android": "https://dc.lft.to/lastmile_qr_scan", "ios": "https://dc.lft.to/lastmile_qr_scan"}, "fusion_lon": 0.0}, {"lat": 38.90130033333333, "is_disabled": 0, "type": "electric_scooter", "lon": -76.997426, "bike_id": "55e206f16e2c0991771aad34d149ab4f", "fusion_lat": 0.0, "name": "55e206f16e2c0991771aad34d149ab4f", "is_reserved": 0, "rental_uris": {"android": "https://dc.lft.to/lastmile_qr_scan", "ios": "https://dc.lft.to/lastmile_qr_scan"}, "fusion_lon": 0.0}, {"lat": 38.9031845, "is_disabled": 0, "type": "electric_scooter", "lon": -76.978058, "bike_id": "839d33ed135e0b4ff652ccfd69fee38f", "fusion_lat": 0.0, "name": "839d33ed135e0b4ff652ccfd69fee38f", "is_reserved": 0, "rental_uris": {"android": "https://dc.lft.to/lastmile_qr_scan", "ios": "https://dc.lft.to/lastmile_qr_scan"}, "fusion_lon": 0.0}, {"lat": 38.90718866666667, "is_disabled": 0, "type": "electric_scooter", "lon": -77.04754683333333, "bike_id": "aed8c88f6a0068a1c95a471cb173caa7", "fusion_lat": 0.0, "name": "aed8c88f6a0068a1c95a471cb173caa7", "is_reserved": 0, "rental_uris": {"android": "https://dc.lft.to/lastmile_qr_scan", "ios": "https://dc.lft.to/lastmile_qr_scan"}, "fusion_lon": 0.0}, {"lat": 38.896825, "is_disabled": 0, "type": "electric_scooter", "lon": -76.99622016666666, "bike_id": "aae1bf44c8e648e8df2191b808e3cf05", "fusion_lat": 0.0, "name": "aae1bf44c8e648e8df2191b808e3cf05", "is_reserved": 0, "rental_uris": {"android": "https://dc.lft.to/lastmile_qr_scan", "ios": "https://dc.lft.to/lastmile_qr_scan"}, "fusion_lon": 0.0}, {"lat": 38.85326766666667, "is_disabled": 0, "type": "electric_bike", "lon": -76.98013366666666, "bike_id": "de047118e12a32fc852c7635b4f7a03f", "fusion_lat": 0.0, "name": "de047118e12a32fc852c7635b4f7a03f", "is_reserved": 0, "rental_uris": {"android": "https://dc.lft.to/lastmile_qr_scan", "ios": "https://dc.lft.to/lastmile_qr_scan"}, "fusion_lon": 0.0}, {"lat": 38.89503966666667, "is_disabled": 0, "type": "electric_scooter", "lon": -77.0229065, "bike_id": "1e6c48cbea2d74989b3fdf7835cc3c90", "fusion_lat": 0.0, "name": "1e6c48cbea2d74989b3fdf7835cc3c90", "is_reserved": 0, "rental_uris": {"android": "https://dc.lft.to/lastmile_qr_scan", "ios": "https://dc.lft.to/lastmile_qr_scan"}, "fusion_lon": 0.0}, {"lat": 38.93078366666667, "is_disabled": 0, "type": "electric_scooter", "lon": -77.01662816666666, "bike_id": "7ec90c8db3d38a4cd5a30ddd46581de6", "fusion_lat": 0.0, "name": "7ec90c8db3d38a4cd5a30ddd46581de6", "is_reserved": 0, "rental_uris": {"android": "https://dc.lft.to/lastmile_qr_scan", "ios": "https://dc.lft.to/lastmile_qr_scan"}, "fusion_lon": 0.0}, {"lat": 38.896829833333335, "is_disabled": 0, "type": "electric_scooter", "lon": -76.93606666666666, "bike_id": "ce3b259d061eff7555803f9adf9c63ad", "fusion_lat": 0.0, "name": "ce3b259d061eff7555803f9adf9c63ad", "is_reserved": 0, "rental_uris": {"android": "https://dc.lft.to/lastmile_qr_scan", "ios": "https://dc.lft.to/lastmile_qr_scan"}, "fusion_lon": 0.0}, {"lat": 38.920755, "is_disabled": 0, "type": "electric_scooter", "lon": -77.0418865, "bike_id": "94b64f1feb9087266f7981387488695c", "fusion_lat": 0.0, "name": "94b64f1feb9087266f7981387488695c", "is_reserved": 0, "rental_uris": {"android": "https://dc.lft.to/lastmile_qr_scan", "ios": "https://dc.lft.to/lastmile_qr_scan"}, "fusion_lon": 0.0}, {"lat": 38.895543, "is_disabled": 0, "type": "electric_scooter", "lon": -77.02194866666666, "bike_id": "892d916e24691f065bf821de4c4ddf0e", "fusion_lat": 0.0, "name": "892d916e24691f065bf821de4c4ddf0e", "is_reserved": 0, "rental_uris": {"android": "https://dc.lft.to/lastmile_qr_scan", "ios": "https://dc.lft.to/lastmile_qr_scan"}, "fusion_lon": 0.0}, {"lat": 38.90700133333333, "is_disabled": 0, "type": "electric_scooter", "lon": -77.034466, "bike_id": "cabd6374474f4660872543321fb2df81", "fusion_lat": 0.0, "name": "cabd6374474f4660872543321fb2df81", "is_reserved": 0, "rental_uris": {"android": "https://dc.lft.to/lastmile_qr_scan", "ios": "https://dc.lft.to/lastmile_qr_scan"}, "fusion_lon": 0.0}, {"lat": 38.8872335, "is_disabled": 0, "type": "electric_scooter", "lon": -76.95475683333333, "bike_id": "2983b4c88586f5e600adc623cfce6221", "fusion_lat": 0.0, "name": "2983b4c88586f5e600adc623cfce6221", "is_reserved": 0, "rental_uris": {"android": "https://dc.lft.to/lastmile_qr_scan", "ios": "https://dc.lft.to/lastmile_qr_scan"}, "fusion_lon": 0.0}, {"lat": 38.91600183333333, "is_disabled": 0, "type": "electric_scooter", "lon": -77.03207083333334, "bike_id": "c3779d0da224e3cce97a21a3a04d7d29", "fusion_lat": 0.0, "name": "c3779d0da224e3cce97a21a3a04d7d29", "is_reserved": 0, "rental_uris": {"android": "https://dc.lft.to/lastmile_qr_scan", "ios": "https://dc.lft.to/lastmile_qr_scan"}, "fusion_lon": 0.0}, {"lat": 38.925819, "is_disabled": 0, "type": "electric_scooter", "lon": -77.027583, "bike_id": "a51c87b3265a1fcbb9c06a147659ac50", "fusion_lat": 0.0, "name": "a51c87b3265a1fcbb9c06a147659ac50", "is_reserved": 0, "rental_uris": {"android": "https://dc.lft.to/lastmile_qr_scan", "ios": "https://dc.lft.to/lastmile_qr_scan"}, "fusion_lon": 0.0}, {"lat": 38.90378966666667, "is_disabled": 0, "type": "electric_scooter", "lon": -77.03880666666667, "bike_id": "d2507e7337402d2260dd9fbc1f69aeda", "fusion_lat": 0.0, "name": "d2507e7337402d2260dd9fbc1f69aeda", "is_reserved": 0, "rental_uris": {"android": "https://dc.lft.to/lastmile_qr_scan", "ios": "https://dc.lft.to/lastmile_qr_scan"}, "fusion_lon": 0.0}, {"lat": 38.902657166666664, "is_disabled": 0, "type": "electric_scooter", "lon": -77.02064916666667, "bike_id": "d3c58f4f5c5771be00745e713d171ac7", "fusion_lat": 0.0, "name": "d3c58f4f5c5771be00745e713d171ac7", "is_reserved": 0, "rental_uris": {"android": "https://dc.lft.to/lastmile_qr_scan", "ios": "https://dc.lft.to/lastmile_qr_scan"}, "fusion_lon": 0.0}, {"lat": 38.95216683333334, "is_disabled": 0, "type": "electric_scooter", "lon": -77.06888733333334, "bike_id": "cfdb1680de37062b60766670ee51a6ee", "fusion_lat": 0.0, "name": "cfdb1680de37062b60766670ee51a6ee", "is_reserved": 0, "rental_uris": {"android": "https://dc.lft.to/lastmile_qr_scan", "ios": "https://dc.lft.to/lastmile_qr_scan"}, "fusion_lon": 0.0}, {"lat": 38.9341315, "is_disabled": 0, "type": "electric_scooter", "lon": -77.02036983333333, "bike_id": "de159cc162df47f7de28af50263bdea7", "fusion_lat": 0.0, "name": "de159cc162df47f7de28af50263bdea7", "is_reserved": 0, "rental_uris": {"android": "https://dc.lft.to/lastmile_qr_scan", "ios": "https://dc.lft.to/lastmile_qr_scan"}, "fusion_lon": 0.0}, {"lat": 38.93175733333333, "is_disabled": 0, "type": "electric_scooter", "lon": -77.02814783333334, "bike_id": "0168e2cbe368d834fe8b9219c34463fb", "fusion_lat": 0.0, "name": "0168e2cbe368d834fe8b9219c34463fb", "is_reserved": 0, "rental_uris": {"android": "https://dc.lft.to/lastmile_qr_scan", "ios": "https://dc.lft.to/lastmile_qr_scan"}, "fusion_lon": 0.0}, {"lat": 38.87148666666667, "is_disabled": 0, "type": "electric_bike", "lon": -76.93670416666667, "bike_id": "67ff5281acbd7a33f02f25a8db6e3847", "fusion_lat": 0.0, "name": "67ff5281acbd7a33f02f25a8db6e3847", "is_reserved": 0, "rental_uris": {"android": "https://dc.lft.to/lastmile_qr_scan", "ios": "https://dc.lft.to/lastmile_qr_scan"}, "fusion_lon": 0.0}, {"lat": 38.90821033333334, "is_disabled": 0, "type": "electric_scooter", "lon": -76.9971185, "bike_id": "2787f0f001e0657186271c83ed49a067", "fusion_lat": 0.0, "name": "2787f0f001e0657186271c83ed49a067", "is_reserved": 0, "rental_uris": {"android": "https://dc.lft.to/lastmile_qr_scan", "ios": "https://dc.lft.to/lastmile_qr_scan"}, "fusion_lon": 0.0}, {"lat": 38.90024666666667, "is_disabled": 0, "type": "electric_scooter", "lon": -77.005876, "bike_id": "9fc293587eba88c1202ca39cc113b294", "fusion_lat": 0.0, "name": "9fc293587eba88c1202ca39cc113b294", "is_reserved": 0, "rental_uris": {"android": "https://dc.lft.to/lastmile_qr_scan", "ios": "https://dc.lft.to/lastmile_qr_scan"}, "fusion_lon": 0.0}, {"lat": 38.95078616666667, "is_disabled": 0, "type": "electric_bike", "lon": -77.01197183333333, "bike_id": "9a62e7933ead0cda459f08c7a217702c", "fusion_lat": 0.0, "name": "9a62e7933ead0cda459f08c7a217702c", "is_reserved": 0, "rental_uris": {"android": "https://dc.lft.to/lastmile_qr_scan", "ios": "https://dc.lft.to/lastmile_qr_scan"}, "fusion_lon": 0.0}, {"lat": 38.966245, "is_disabled": 0, "type": "electric_bike", "lon": -76.976693, "bike_id": "cd80d949337e48bbf59cc1d054e9ca14", "fusion_lat": 0.0, "name": "cd80d949337e48bbf59cc1d054e9ca14", "is_reserved": 0, "rental_uris": {"android": "https://dc.lft.to/lastmile_qr_scan", "ios": "https://dc.lft.to/lastmile_qr_scan"}, "fusion_lon": 0.0}, {"lat": 38.923606, "is_disabled": 0, "type": "electric_scooter", "lon": -77.0414075, "bike_id": "33387ad0acaaae913c49155f8f417e64", "fusion_lat": 0.0, "name": "33387ad0acaaae913c49155f8f417e64", "is_reserved": 0, "rental_uris": {"android": "https://dc.lft.to/lastmile_qr_scan", "ios": "https://dc.lft.to/lastmile_qr_scan"}, "fusion_lon": 0.0}, {"lat": 38.94430216666667, "is_disabled": 0, "type": "electric_scooter", "lon": -77.06304, "bike_id": "cf9a91dcbb39ce1991f78e9b5be662e4", "fusion_lat": 0.0, "name": "cf9a91dcbb39ce1991f78e9b5be662e4", "is_reserved": 0, "rental_uris": {"android": "https://dc.lft.to/lastmile_qr_scan", "ios": "https://dc.lft.to/lastmile_qr_scan"}, "fusion_lon": 0.0}, {"lat": 38.92253266666667, "is_disabled": 0, "type": "electric_scooter", "lon": -77.01968116666667, "bike_id": "676d3213fa4714ff6d3b88d0b72ca77b", "fusion_lat": 0.0, "name": "676d3213fa4714ff6d3b88d0b72ca77b", "is_reserved": 0, "rental_uris": {"android": "https://dc.lft.to/lastmile_qr_scan", "ios": "https://dc.lft.to/lastmile_qr_scan"}, "fusion_lon": 0.0}, {"lat": 38.88884083333333, "is_disabled": 0, "type": "electric_scooter", "lon": -76.93153633333333, "bike_id": "c1734065f77c40d60ec0123d8ce6861e", "fusion_lat": 0.0, "name": "c1734065f77c40d60ec0123d8ce6861e", "is_reserved": 0, "rental_uris": {"android": "https://dc.lft.to/lastmile_qr_scan", "ios": "https://dc.lft.to/lastmile_qr_scan"}, "fusion_lon": 0.0}, {"lat": 38.935821833333335, "is_disabled": 0, "type": "electric_bike", "lon": -77.10681416666667, "bike_id": "7ea4012f7b8f3366921a82c120adf0ad", "fusion_lat": 0.0, "name": "7ea4012f7b8f3366921a82c120adf0ad", "is_reserved": 0, "rental_uris": {"android": "https://dc.lft.to/lastmile_qr_scan", "ios": "https://dc.lft.to/lastmile_qr_scan"}, "fusion_lon": 0.0}, {"lat": 38.9198685, "is_disabled": 0, "type": "electric_scooter", "lon": -77.01213266666667, "bike_id": "0c8ee204bc3e878db931d3f9a751c3c0", "fusion_lat": 0.0, "name": "0c8ee204bc3e878db931d3f9a751c3c0", "is_reserved": 0, "rental_uris": {"android": "https://dc.lft.to/lastmile_qr_scan", "ios": "https://dc.lft.to/lastmile_qr_scan"}, "fusion_lon": 0.0}, {"lat": 38.9004115, "is_disabled": 0, "type": "electric_scooter", "lon": -76.9903755, "bike_id": "1da0e4eb16ac89d4dd5eee7d91fa7d8b", "fusion_lat": 0.0, "name": "1da0e4eb16ac89d4dd5eee7d91fa7d8b", "is_reserved": 0, "rental_uris": {"android": "https://dc.lft.to/lastmile_qr_scan", "ios": "https://dc.lft.to/lastmile_qr_scan"}, "fusion_lon": 0.0}, {"lat": 38.883160333333336, "is_disabled": 0, "type": "electric_scooter", "lon": -77.0093745, "bike_id": "8f63933894e638a7511760c741a1aa38", "fusion_lat": 0.0, "name": "8f63933894e638a7511760c741a1aa38", "is_reserved": 0, "rental_uris": {"android": "https://dc.lft.to/lastmile_qr_scan", "ios": "https://dc.lft.to/lastmile_qr_scan"}, "fusion_lon": 0.0}, {"lat": 38.919307, "is_disabled": 0, "type": "electric_scooter", "lon": -77.0415505, "bike_id": "90da741e54ed6f6a31a04910e28ce08e", "fusion_lat": 0.0, "name": "90da741e54ed6f6a31a04910e28ce08e", "is_reserved": 0, "rental_uris": {"android": "https://dc.lft.to/lastmile_qr_scan", "ios": "https://dc.lft.to/lastmile_qr_scan"}, "fusion_lon": 0.0}, {"lat": 38.906992, "is_disabled": 0, "type": "electric_scooter", "lon": -77.043481, "bike_id": "d23adaba9485ec8f6aa36459e439b7de", "fusion_lat": 0.0, "name": "d23adaba9485ec8f6aa36459e439b7de", "is_reserved": 0, "rental_uris": {"android": "https://dc.lft.to/lastmile_qr_scan", "ios": "https://dc.lft.to/lastmile_qr_scan"}, "fusion_lon": 0.0}, {"lat": 38.9052545, "is_disabled": 0, "type": "electric_scooter", "lon": -77.06447983333334, "bike_id": "b960ba4be99ab373034fb64873030cc7", "fusion_lat": 0.0, "name": "b960ba4be99ab373034fb64873030cc7", "is_reserved": 0, "rental_uris": {"android": "https://dc.lft.to/lastmile_qr_scan", "ios": "https://dc.lft.to/lastmile_qr_scan"}, "fusion_lon": 0.0}, {"lat": 38.916553, "is_disabled": 0, "type": "electric_bike", "lon": -77.04717233333334, "bike_id": "1c129e1ada309171dfef0cc3fa7716ce", "fusion_lat": 0.0, "name": "1c129e1ada309171dfef0cc3fa7716ce", "is_reserved": 0, "rental_uris": {"android": "https://dc.lft.to/lastmile_qr_scan", "ios": "https://dc.lft.to/lastmile_qr_scan"}, "fusion_lon": 0.0}, {"lat": 38.908693, "is_disabled": 0, "type": "electric_scooter", "lon": -77.04659533333333, "bike_id": "d49924a5e0aa8f08da99641722880e20", "fusion_lat": 0.0, "name": "d49924a5e0aa8f08da99641722880e20", "is_reserved": 0, "rental_uris": {"android": "https://dc.lft.to/lastmile_qr_scan", "ios": "https://dc.lft.to/lastmile_qr_scan"}, "fusion_lon": 0.0}, {"lat": 38.92199216666667, "is_disabled": 0, "type": "electric_scooter", "lon": -77.0425265, "bike_id": "29e526f638c1ad87f7b3e734fbac776a", "fusion_lat": 0.0, "name": "29e526f638c1ad87f7b3e734fbac776a", "is_reserved": 0, "rental_uris": {"android": "https://dc.lft.to/lastmile_qr_scan", "ios": "https://dc.lft.to/lastmile_qr_scan"}, "fusion_lon": 0.0}, {"lat": 38.90027716666667, "is_disabled": 0, "type": "electric_scooter", "lon": -76.9967015, "bike_id": "20132c58040e7dff39b7c6281e0ed2f1", "fusion_lat": 0.0, "name": "20132c58040e7dff39b7c6281e0ed2f1", "is_reserved": 0, "rental_uris": {"android": "https://dc.lft.to/lastmile_qr_scan", "ios": "https://dc.lft.to/lastmile_qr_scan"}, "fusion_lon": 0.0}, {"lat": 38.93554833333334, "is_disabled": 0, "type": "electric_scooter", "lon": -77.058796, "bike_id": "11e00c6e728f68179d10f2b26755e871", "fusion_lat": 0.0, "name": "11e00c6e728f68179d10f2b26755e871", "is_reserved": 0, "rental_uris": {"android": "https://dc.lft.to/lastmile_qr_scan", "ios": "https://dc.lft.to/lastmile_qr_scan"}, "fusion_lon": 0.0}, {"lat": 38.9220345, "is_disabled": 0, "type": "electric_scooter", "lon": -77.04015833333334, "bike_id": "a9a8e9a34b6b5197487b1d565d0e1706", "fusion_lat": 0.0, "name": "a9a8e9a34b6b5197487b1d565d0e1706", "is_reserved": 0, "rental_uris": {"android": "https://dc.lft.to/lastmile_qr_scan", "ios": "https://dc.lft.to/lastmile_qr_scan"}, "fusion_lon": 0.0}, {"lat": 38.89601733333333, "is_disabled": 0, "type": "electric_scooter", "lon": -77.012276, "bike_id": "b6b7a3735e322185e20d99fb2e6486af", "fusion_lat": 0.0, "name": "b6b7a3735e322185e20d99fb2e6486af", "is_reserved": 0, "rental_uris": {"android": "https://dc.lft.to/lastmile_qr_scan", "ios": "https://dc.lft.to/lastmile_qr_scan"}, "fusion_lon": 0.0}, {"lat": 38.867147, "is_disabled": 0, "type": "electric_scooter", "lon": -76.98725433333334, "bike_id": "1a639528641c7df20dd9b3146038855d", "fusion_lat": 0.0, "name": "1a639528641c7df20dd9b3146038855d", "is_reserved": 0, "rental_uris": {"android": "https://dc.lft.to/lastmile_qr_scan", "ios": "https://dc.lft.to/lastmile_qr_scan"}, "fusion_lon": 0.0}, {"lat": 38.957814, "is_disabled": 0, "type": "electric_scooter", "lon": -77.024652, "bike_id": "413cd959ddab3e864fc3a293dd6c4a66", "fusion_lat": 0.0, "name": "413cd959ddab3e864fc3a293dd6c4a66", "is_reserved": 0, "rental_uris": {"android": "https://dc.lft.to/lastmile_qr_scan", "ios": "https://dc.lft.to/lastmile_qr_scan"}, "fusion_lon": 0.0}, {"lat": 38.902539, "is_disabled": 0, "type": "electric_scooter", "lon": -77.01636433333333, "bike_id": "68063021809972d7575bd5c627178e14", "fusion_lat": 0.0, "name": "68063021809972d7575bd5c627178e14", "is_reserved": 0, "rental_uris": {"android": "https://dc.lft.to/lastmile_qr_scan", "ios": "https://dc.lft.to/lastmile_qr_scan"}, "fusion_lon": 0.0}, {"lat": 38.880543333333335, "is_disabled": 0, "type": "electric_scooter", "lon": -77.01765066666667, "bike_id": "2a089c7ed37df81eb10e5b533399798f", "fusion_lat": 0.0, "name": "2a089c7ed37df81eb10e5b533399798f", "is_reserved": 0, "rental_uris": {"android": "https://dc.lft.to/lastmile_qr_scan", "ios": "https://dc.lft.to/lastmile_qr_scan"}, "fusion_lon": 0.0}, {"lat": 38.86347683333334, "is_disabled": 0, "type": "electric_scooter", "lon": -76.99001516666667, "bike_id": "35c5f976f059cbe207f72e9feb6b5268", "fusion_lat": 0.0, "name": "35c5f976f059cbe207f72e9feb6b5268", "is_reserved": 0, "rental_uris": {"android": "https://dc.lft.to/lastmile_qr_scan", "ios": "https://dc.lft.to/lastmile_qr_scan"}, "fusion_lon": 0.0}, {"lat": 38.8429335, "is_disabled": 0, "type": "electric_scooter", "lon": -76.99947466666667, "bike_id": "824e4bb45a0bde8b35e8ac0c0cbeb861", "fusion_lat": 0.0, "name": "824e4bb45a0bde8b35e8ac0c0cbeb861", "is_reserved": 0, "rental_uris": {"android": "https://dc.lft.to/lastmile_qr_scan", "ios": "https://dc.lft.to/lastmile_qr_scan"}, "fusion_lon": 0.0}, {"lat": 38.919196166666666, "is_disabled": 0, "type": "electric_bike", "lon": -77.04626783333333, "bike_id": "074ccbf0e5ef368463859166bb181233", "fusion_lat": 0.0, "name": "074ccbf0e5ef368463859166bb181233", "is_reserved": 0, "rental_uris": {"android": "https://dc.lft.to/lastmile_qr_scan", "ios": "https://dc.lft.to/lastmile_qr_scan"}, "fusion_lon": 0.0}, {"lat": 38.955563833333336, "is_disabled": 0, "type": "electric_bike", "lon": -76.93546833333333, "bike_id": "18e059d025b330fbf868596e684eb173", "fusion_lat": 0.0, "name": "18e059d025b330fbf868596e684eb173", "is_reserved": 0, "rental_uris": {"android": "https://dc.lft.to/lastmile_qr_scan", "ios": "https://dc.lft.to/lastmile_qr_scan"}, "fusion_lon": 0.0}, {"lat": 38.93200516666667, "is_disabled": 0, "type": "electric_bike", "lon": -77.07825866666667, "bike_id": "2678d6b89891e837cf51b2a4ff71fe4b", "fusion_lat": 0.0, "name": "2678d6b89891e837cf51b2a4ff71fe4b", "is_reserved": 0, "rental_uris": {"android": "https://dc.lft.to/lastmile_qr_scan", "ios": "https://dc.lft.to/lastmile_qr_scan"}, "fusion_lon": 0.0}, {"lat": 38.904729833333334, "is_disabled": 0, "type": "electric_scooter", "lon": -77.0308895, "bike_id": "eb42067fe17e5a64afb28bd9e13b7f00", "fusion_lat": 0.0, "name": "eb42067fe17e5a64afb28bd9e13b7f00", "is_reserved": 0, "rental_uris": {"android": "https://dc.lft.to/lastmile_qr_scan", "ios": "https://dc.lft.to/lastmile_qr_scan"}, "fusion_lon": 0.0}, {"lat": 38.914803166666665, "is_disabled": 0, "type": "electric_scooter", "lon": -77.01819583333334, "bike_id": "b642ece757a049082ddaa19c57722ff7", "fusion_lat": 0.0, "name": "b642ece757a049082ddaa19c57722ff7", "is_reserved": 0, "rental_uris": {"android": "https://dc.lft.to/lastmile_qr_scan", "ios": "https://dc.lft.to/lastmile_qr_scan"}, "fusion_lon": 0.0}, {"lat": 38.899191, "is_disabled": 0, "type": "electric_scooter", "lon": -76.93382933333334, "bike_id": "31cdf12fd3d027f2b2ddaa2929873744", "fusion_lat": 0.0, "name": "31cdf12fd3d027f2b2ddaa2929873744", "is_reserved": 0, "rental_uris": {"android": "https://dc.lft.to/lastmile_qr_scan", "ios": "https://dc.lft.to/lastmile_qr_scan"}, "fusion_lon": 0.0}, {"lat": 38.92682383333333, "is_disabled": 0, "type": "electric_scooter", "lon": -77.0510825, "bike_id": "0315dfb5cee0de0c02507856b92bd4e5", "fusion_lat": 0.0, "name": "0315dfb5cee0de0c02507856b92bd4e5", "is_reserved": 0, "rental_uris": {"android": "https://dc.lft.to/lastmile_qr_scan", "ios": "https://dc.lft.to/lastmile_qr_scan"}, "fusion_lon": 0.0}, {"lat": 38.929863833333336, "is_disabled": 0, "type": "electric_scooter", "lon": -77.012732, "bike_id": "eefeea79b35d27ceb50fa6148872bde4", "fusion_lat": 0.0, "name": "eefeea79b35d27ceb50fa6148872bde4", "is_reserved": 0, "rental_uris": {"android": "https://dc.lft.to/lastmile_qr_scan", "ios": "https://dc.lft.to/lastmile_qr_scan"}, "fusion_lon": 0.0}, {"lat": 38.91824616666667, "is_disabled": 0, "type": "electric_scooter", "lon": -77.01210183333333, "bike_id": "0cdfa343c32380f9795db186faf1a3b8", "fusion_lat": 0.0, "name": "0cdfa343c32380f9795db186faf1a3b8", "is_reserved": 0, "rental_uris": {"android": "https://dc.lft.to/lastmile_qr_scan", "ios": "https://dc.lft.to/lastmile_qr_scan"}, "fusion_lon": 0.0}, {"lat": 38.916796, "is_disabled": 0, "type": "electric_scooter", "lon": -77.02958583333333, "bike_id": "dce6a9f13280e4a040ebd59cab16cff4", "fusion_lat": 0.0, "name": "dce6a9f13280e4a040ebd59cab16cff4", "is_reserved": 0, "rental_uris": {"android": "https://dc.lft.to/lastmile_qr_scan", "ios": "https://dc.lft.to/lastmile_qr_scan"}, "fusion_lon": 0.0}, {"lat": 38.854512166666666, "is_disabled": 0, "type": "electric_scooter", "lon": -76.98576166666666, "bike_id": "946a3c1120e1ce4afec1001807a49542", "fusion_lat": 0.0, "name": "946a3c1120e1ce4afec1001807a49542", "is_reserved": 0, "rental_uris": {"android": "https://dc.lft.to/lastmile_qr_scan", "ios": "https://dc.lft.to/lastmile_qr_scan"}, "fusion_lon": 0.0}, {"lat": 38.95807833333333, "is_disabled": 0, "type": "electric_scooter", "lon": -77.03159183333334, "bike_id": "08e3c29c6845c0247579c552bb716ad0", "fusion_lat": 0.0, "name": "08e3c29c6845c0247579c552bb716ad0", "is_reserved": 0, "rental_uris": {"android": "https://dc.lft.to/lastmile_qr_scan", "ios": "https://dc.lft.to/lastmile_qr_scan"}, "fusion_lon": 0.0}, {"lat": 38.895132333333336, "is_disabled": 0, "type": "electric_scooter", "lon": -77.02180033333333, "bike_id": "298ef0bf4166dfef99f0fda8611c1f8a", "fusion_lat": 0.0, "name": "298ef0bf4166dfef99f0fda8611c1f8a", "is_reserved": 0, "rental_uris": {"android": "https://dc.lft.to/lastmile_qr_scan", "ios": "https://dc.lft.to/lastmile_qr_scan"}, "fusion_lon": 0.0}, {"lat": 38.889691, "is_disabled": 0, "type": "electric_scooter", "lon": -76.9793565, "bike_id": "0ba00756d874b7b838a903e0af912a8a", "fusion_lat": 0.0, "name": "0ba00756d874b7b838a903e0af912a8a", "is_reserved": 0, "rental_uris": {"android": "https://dc.lft.to/lastmile_qr_scan", "ios": "https://dc.lft.to/lastmile_qr_scan"}, "fusion_lon": 0.0}, {"lat": 38.91744633333333, "is_disabled": 0, "type": "electric_scooter", "lon": -77.02118366666667, "bike_id": "22a7a9649b7fae259bcfce4896280486", "fusion_lat": 0.0, "name": "22a7a9649b7fae259bcfce4896280486", "is_reserved": 0, "rental_uris": {"android": "https://dc.lft.to/lastmile_qr_scan", "ios": "https://dc.lft.to/lastmile_qr_scan"}, "fusion_lon": 0.0}, {"lat": 38.86456116666667, "is_disabled": 0, "type": "electric_bike", "lon": -76.945438, "bike_id": "3eded9ee62d7e641c1a8dd49a3fd3761", "fusion_lat": 0.0, "name": "3eded9ee62d7e641c1a8dd49a3fd3761", "is_reserved": 0, "rental_uris": {"android": "https://dc.lft.to/lastmile_qr_scan", "ios": "https://dc.lft.to/lastmile_qr_scan"}, "fusion_lon": 0.0}, {"lat": 38.9182665, "is_disabled": 0, "type": "electric_scooter", "lon": -77.03179983333334, "bike_id": "b3399d46d7f4b29cc37342d04e0a74a7", "fusion_lat": 0.0, "name": "b3399d46d7f4b29cc37342d04e0a74a7", "is_reserved": 0, "rental_uris": {"android": "https://dc.lft.to/lastmile_qr_scan", "ios": "https://dc.lft.to/lastmile_qr_scan"}, "fusion_lon": 0.0}, {"lat": 38.871433333333336, "is_disabled": 0, "type": "electric_bike", "lon": -76.93700766666667, "bike_id": "ad2280a2cf470278e179785a63e36852", "fusion_lat": 0.0, "name": "ad2280a2cf470278e179785a63e36852", "is_reserved": 0, "rental_uris": {"android": "https://dc.lft.to/lastmile_qr_scan", "ios": "https://dc.lft.to/lastmile_qr_scan"}, "fusion_lon": 0.0}, {"lat": 38.90930866666667, "is_disabled": 0, "type": "electric_scooter", "lon": -76.9991315, "bike_id": "d829e4d92028d9e8bb5faff12313c4c1", "fusion_lat": 0.0, "name": "d829e4d92028d9e8bb5faff12313c4c1", "is_reserved": 0, "rental_uris": {"android": "https://dc.lft.to/lastmile_qr_scan", "ios": "https://dc.lft.to/lastmile_qr_scan"}, "fusion_lon": 0.0}, {"lat": 38.9215185, "is_disabled": 0, "type": "electric_scooter", "lon": -77.04239666666666, "bike_id": "31902005a06de1c72d9b8341237732e2", "fusion_lat": 0.0, "name": "31902005a06de1c72d9b8341237732e2", "is_reserved": 0, "rental_uris": {"android": "https://dc.lft.to/lastmile_qr_scan", "ios": "https://dc.lft.to/lastmile_qr_scan"}, "fusion_lon": 0.0}, {"lat": 38.89252, "is_disabled": 0, "type": "electric_bike", "lon": -76.99502733333334, "bike_id": "f8f14ce5d302d9f120c9172cb2a65417", "fusion_lat": 0.0, "name": "f8f14ce5d302d9f120c9172cb2a65417", "is_reserved": 0, "rental_uris": {"android": "https://dc.lft.to/lastmile_qr_scan", "ios": "https://dc.lft.to/lastmile_qr_scan"}, "fusion_lon": 0.0}, {"lat": 38.934674, "is_disabled": 0, "type": "electric_scooter", "lon": -77.03695183333333, "bike_id": "21c4e0127300067a941f6d0e035320cf", "fusion_lat": 0.0, "name": "21c4e0127300067a941f6d0e035320cf", "is_reserved": 0, "rental_uris": {"android": "https://dc.lft.to/lastmile_qr_scan", "ios": "https://dc.lft.to/lastmile_qr_scan"}, "fusion_lon": 0.0}, {"lat": 38.94631866666667, "is_disabled": 0, "type": "electric_scooter", "lon": -77.02526883333333, "bike_id": "23f56c4ccf9772c30f2375a72c78a788", "fusion_lat": 0.0, "name": "23f56c4ccf9772c30f2375a72c78a788", "is_reserved": 0, "rental_uris": {"android": "https://dc.lft.to/lastmile_qr_scan", "ios": "https://dc.lft.to/lastmile_qr_scan"}, "fusion_lon": 0.0}, {"lat": 38.92202566666667, "is_disabled": 0, "type": "electric_scooter", "lon": -77.04255933333333, "bike_id": "cd69ee4a579b01396d852133cfd6f644", "fusion_lat": 0.0, "name": "cd69ee4a579b01396d852133cfd6f644", "is_reserved": 0, "rental_uris": {"android": "https://dc.lft.to/lastmile_qr_scan", "ios": "https://dc.lft.to/lastmile_qr_scan"}, "fusion_lon": 0.0}, {"lat": 38.880085, "is_disabled": 0, "type": "electric_bike", "lon": -77.005673, "bike_id": "09f4a4653619a380a862ad21ecea98fc", "fusion_lat": 0.0, "name": "09f4a4653619a380a862ad21ecea98fc", "is_reserved": 0, "rental_uris": {"android": "https://dc.lft.to/lastmile_qr_scan", "ios": "https://dc.lft.to/lastmile_qr_scan"}, "fusion_lon": 0.0}, {"lat": 38.9040995, "is_disabled": 0, "type": "electric_scooter", "lon": -77.04339983333334, "bike_id": "2f215b820b7bf659e2d2f82644299abf", "fusion_lat": 0.0, "name": "2f215b820b7bf659e2d2f82644299abf", "is_reserved": 0, "rental_uris": {"android": "https://dc.lft.to/lastmile_qr_scan", "ios": "https://dc.lft.to/lastmile_qr_scan"}, "fusion_lon": 0.0}, {"lat": 38.90429866666667, "is_disabled": 0, "type": "electric_scooter", "lon": -77.02635716666667, "bike_id": "f8e0317c320128813e49446a46db5f3a", "fusion_lat": 0.0, "name": "f8e0317c320128813e49446a46db5f3a", "is_reserved": 0, "rental_uris": {"android": "https://dc.lft.to/lastmile_qr_scan", "ios": "https://dc.lft.to/lastmile_qr_scan"}, "fusion_lon": 0.0}, {"lat": 38.936466, "is_disabled": 0, "type": "electric_scooter", "lon": -77.020834, "bike_id": "fdf6f23152e9a0068a7beac9220e2048", "fusion_lat": 0.0, "name": "fdf6f23152e9a0068a7beac9220e2048", "is_reserved": 0, "rental_uris": {"android": "https://dc.lft.to/lastmile_qr_scan", "ios": "https://dc.lft.to/lastmile_qr_scan"}, "fusion_lon": 0.0}, {"lat": 38.9257345, "is_disabled": 0, "type": "electric_scooter", "lon": -77.037906, "bike_id": "b14a362362b0f0c95d84e209c4f14bb7", "fusion_lat": 0.0, "name": "b14a362362b0f0c95d84e209c4f14bb7", "is_reserved": 0, "rental_uris": {"android": "https://dc.lft.to/lastmile_qr_scan", "ios": "https://dc.lft.to/lastmile_qr_scan"}, "fusion_lon": 0.0}, {"lat": 38.87088, "is_disabled": 0, "type": "electric_scooter", "lon": -77.01216683333334, "bike_id": "60b7404e4a9da2d3a5f9d36a0b987c84", "fusion_lat": 0.0, "name": "60b7404e4a9da2d3a5f9d36a0b987c84", "is_reserved": 0, "rental_uris": {"android": "https://dc.lft.to/lastmile_qr_scan", "ios": "https://dc.lft.to/lastmile_qr_scan"}, "fusion_lon": 0.0}, {"lat": 38.93349466666667, "is_disabled": 0, "type": "electric_scooter", "lon": -77.023742, "bike_id": "b91be37296fabb979def29afd6f49168", "fusion_lat": 0.0, "name": "b91be37296fabb979def29afd6f49168", "is_reserved": 0, "rental_uris": {"android": "https://dc.lft.to/lastmile_qr_scan", "ios": "https://dc.lft.to/lastmile_qr_scan"}, "fusion_lon": 0.0}, {"lat": 38.900301666666664, "is_disabled": 0, "type": "electric_scooter", "lon": -77.040284, "bike_id": "5d5320703201701080c7ce53b3dbd9c1", "fusion_lat": 0.0, "name": "5d5320703201701080c7ce53b3dbd9c1", "is_reserved": 0, "rental_uris": {"android": "https://dc.lft.to/lastmile_qr_scan", "ios": "https://dc.lft.to/lastmile_qr_scan"}, "fusion_lon": 0.0}, {"lat": 38.92740916666666, "is_disabled": 0, "type": "electric_scooter", "lon": -77.022646, "bike_id": "c743e33b9ef5ed1a65c75758e9c736f6", "fusion_lat": 0.0, "name": "c743e33b9ef5ed1a65c75758e9c736f6", "is_reserved": 0, "rental_uris": {"android": "https://dc.lft.to/lastmile_qr_scan", "ios": "https://dc.lft.to/lastmile_qr_scan"}, "fusion_lon": 0.0}, {"lat": 38.88619883333333, "is_disabled": 0, "type": "electric_scooter", "lon": -77.02169583333334, "bike_id": "048ec05508eeffbf3b657dcec0e0b644", "fusion_lat": 0.0, "name": "048ec05508eeffbf3b657dcec0e0b644", "is_reserved": 0, "rental_uris": {"android": "https://dc.lft.to/lastmile_qr_scan", "ios": "https://dc.lft.to/lastmile_qr_scan"}, "fusion_lon": 0.0}, {"lat": 38.913998666666664, "is_disabled": 0, "type": "electric_scooter", "lon": -77.01500066666667, "bike_id": "4d9182c14298eeb654efb931a7de501b", "fusion_lat": 0.0, "name": "4d9182c14298eeb654efb931a7de501b", "is_reserved": 0, "rental_uris": {"android": "https://dc.lft.to/lastmile_qr_scan", "ios": "https://dc.lft.to/lastmile_qr_scan"}, "fusion_lon": 0.0}, {"lat": 38.920677833333336, "is_disabled": 0, "type": "electric_scooter", "lon": -77.04273466666666, "bike_id": "a5b4e15f1974cfc20854e244322902cd", "fusion_lat": 0.0, "name": "a5b4e15f1974cfc20854e244322902cd", "is_reserved": 0, "rental_uris": {"android": "https://dc.lft.to/lastmile_qr_scan", "ios": "https://dc.lft.to/lastmile_qr_scan"}, "fusion_lon": 0.0}, {"lat": 38.91781566666667, "is_disabled": 0, "type": "electric_scooter", "lon": -77.04104166666667, "bike_id": "e465787a1a048437bc4b92650a1ab870", "fusion_lat": 0.0, "name": "e465787a1a048437bc4b92650a1ab870", "is_reserved": 0, "rental_uris": {"android": "https://dc.lft.to/lastmile_qr_scan", "ios": "https://dc.lft.to/lastmile_qr_scan"}, "fusion_lon": 0.0}, {"lat": 38.916007, "is_disabled": 0, "type": "electric_scooter", "lon": -77.02392066666667, "bike_id": "829daa64d6a8cc918ad77d23f3c6671b", "fusion_lat": 0.0, "name": "829daa64d6a8cc918ad77d23f3c6671b", "is_reserved": 0, "rental_uris": {"android": "https://dc.lft.to/lastmile_qr_scan", "ios": "https://dc.lft.to/lastmile_qr_scan"}, "fusion_lon": 0.0}, {"lat": 38.905704666666665, "is_disabled": 0, "type": "electric_scooter", "lon": -77.0054545, "bike_id": "84c8cafbaeb50c850ffc0749a020be59", "fusion_lat": 0.0, "name": "84c8cafbaeb50c850ffc0749a020be59", "is_reserved": 0, "rental_uris": {"android": "https://dc.lft.to/lastmile_qr_scan", "ios": "https://dc.lft.to/lastmile_qr_scan"}, "fusion_lon": 0.0}, {"lat": 38.91991216666667, "is_disabled": 0, "type": "electric_scooter", "lon": -76.97305766666666, "bike_id": "d041a6f41798d6597b6cbe57649ac846", "fusion_lat": 0.0, "name": "d041a6f41798d6597b6cbe57649ac846", "is_reserved": 0, "rental_uris": {"android": "https://dc.lft.to/lastmile_qr_scan", "ios": "https://dc.lft.to/lastmile_qr_scan"}, "fusion_lon": 0.0}, {"lat": 38.965662333333334, "is_disabled": 0, "type": "electric_bike", "lon": -77.02299283333333, "bike_id": "575d73f3815ca6cc739d8f2aea1ea0e4", "fusion_lat": 0.0, "name": "575d73f3815ca6cc739d8f2aea1ea0e4", "is_reserved": 0, "rental_uris": {"android": "https://dc.lft.to/lastmile_qr_scan", "ios": "https://dc.lft.to/lastmile_qr_scan"}, "fusion_lon": 0.0}, {"lat": 38.9086935, "is_disabled": 0, "type": "electric_scooter", "lon": -77.04662016666667, "bike_id": "1fe68419e928a898d9464c8d0bd26fbb", "fusion_lat": 0.0, "name": "1fe68419e928a898d9464c8d0bd26fbb", "is_reserved": 0, "rental_uris": {"android": "https://dc.lft.to/lastmile_qr_scan", "ios": "https://dc.lft.to/lastmile_qr_scan"}, "fusion_lon": 0.0}, {"lat": 38.928783333333335, "is_disabled": 0, "type": "electric_bike", "lon": -77.0370315, "bike_id": "4231b297f12701dfef757df11b0c4eba", "fusion_lat": 0.0, "name": "4231b297f12701dfef757df11b0c4eba", "is_reserved": 0, "rental_uris": {"android": "https://dc.lft.to/lastmile_qr_scan", "ios": "https://dc.lft.to/lastmile_qr_scan"}, "fusion_lon": 0.0}, {"lat": 38.85977783333333, "is_disabled": 0, "type": "electric_bike", "lon": -77.05627666666666, "bike_id": "aeef6d2dc0443178880c828e662947e5", "fusion_lat": 0.0, "name": "aeef6d2dc0443178880c828e662947e5", "is_reserved": 0, "rental_uris": {"android": "https://dc.lft.to/lastmile_qr_scan", "ios": "https://dc.lft.to/lastmile_qr_scan"}, "fusion_lon": 0.0}, {"lat": 38.8461015, "is_disabled": 0, "type": "electric_bike", "lon": -76.96901066666666, "bike_id": "5129eba69b3e13450d5f167d01613c6e", "fusion_lat": 0.0, "name": "5129eba69b3e13450d5f167d01613c6e", "is_reserved": 0, "rental_uris": {"android": "https://dc.lft.to/lastmile_qr_scan", "ios": "https://dc.lft.to/lastmile_qr_scan"}, "fusion_lon": 0.0}, {"lat": 38.879707833333335, "is_disabled": 0, "type": "electric_scooter", "lon": -77.00598433333333, "bike_id": "206cf24b099e7500615156c4aee496a1", "fusion_lat": 0.0, "name": "206cf24b099e7500615156c4aee496a1", "is_reserved": 0, "rental_uris": {"android": "https://dc.lft.to/lastmile_qr_scan", "ios": "https://dc.lft.to/lastmile_qr_scan"}, "fusion_lon": 0.0}, {"lat": 38.934164, "is_disabled": 0, "type": "electric_bike", "lon": -77.02509833333333, "bike_id": "37c1bbb8e020d7cff8ed48d92a300710", "fusion_lat": 0.0, "name": "37c1bbb8e020d7cff8ed48d92a300710", "is_reserved": 0, "rental_uris": {"android": "https://dc.lft.to/lastmile_qr_scan", "ios": "https://dc.lft.to/lastmile_qr_scan"}, "fusion_lon": 0.0}, {"lat": 38.920274666666664, "is_disabled": 0, "type": "electric_scooter", "lon": -77.041978, "bike_id": "f80fbde4286a37723a88b148a0666b3b", "fusion_lat": 0.0, "name": "f80fbde4286a37723a88b148a0666b3b", "is_reserved": 0, "rental_uris": {"android": "https://dc.lft.to/lastmile_qr_scan", "ios": "https://dc.lft.to/lastmile_qr_scan"}, "fusion_lon": 0.0}, {"lat": 38.913552, "is_disabled": 0, "type": "electric_scooter", "lon": -77.01525166666667, "bike_id": "f42bae53bfdb91f35b09adcb12284bf1", "fusion_lat": 0.0, "name": "f42bae53bfdb91f35b09adcb12284bf1", "is_reserved": 0, "rental_uris": {"android": "https://dc.lft.to/lastmile_qr_scan", "ios": "https://dc.lft.to/lastmile_qr_scan"}, "fusion_lon": 0.0}, {"lat": 38.960159166666664, "is_disabled": 0, "type": "electric_scooter", "lon": -77.028299, "bike_id": "c7e325add6e1587cf08e2c195e0ac9cd", "fusion_lat": 0.0, "name": "c7e325add6e1587cf08e2c195e0ac9cd", "is_reserved": 0, "rental_uris": {"android": "https://dc.lft.to/lastmile_qr_scan", "ios": "https://dc.lft.to/lastmile_qr_scan"}, "fusion_lon": 0.0}, {"lat": 38.91270033333333, "is_disabled": 0, "type": "electric_scooter", "lon": -77.00487816666667, "bike_id": "2c5f8ad15ff7440504c0e46f9f3aa511", "fusion_lat": 0.0, "name": "2c5f8ad15ff7440504c0e46f9f3aa511", "is_reserved": 0, "rental_uris": {"android": "https://dc.lft.to/lastmile_qr_scan", "ios": "https://dc.lft.to/lastmile_qr_scan"}, "fusion_lon": 0.0}, {"lat": 38.9048095, "is_disabled": 0, "type": "electric_scooter", "lon": -77.00723533333333, "bike_id": "69f0c41af3963ecdfdef5fe6b3fa8301", "fusion_lat": 0.0, "name": "69f0c41af3963ecdfdef5fe6b3fa8301", "is_reserved": 0, "rental_uris": {"android": "https://dc.lft.to/lastmile_qr_scan", "ios": "https://dc.lft.to/lastmile_qr_scan"}, "fusion_lon": 0.0}, {"lat": 38.90844516666667, "is_disabled": 0, "type": "electric_scooter", "lon": -77.0385825, "bike_id": "33a79ac4130a67404fea302cf001e280", "fusion_lat": 0.0, "name": "33a79ac4130a67404fea302cf001e280", "is_reserved": 0, "rental_uris": {"android": "https://dc.lft.to/lastmile_qr_scan", "ios": "https://dc.lft.to/lastmile_qr_scan"}, "fusion_lon": 0.0}, {"lat": 38.904249666666665, "is_disabled": 0, "type": "electric_scooter", "lon": -76.99069183333333, "bike_id": "4f64379c26510c1108b198e9c6a5e57a", "fusion_lat": 0.0, "name": "4f64379c26510c1108b198e9c6a5e57a", "is_reserved": 0, "rental_uris": {"android": "https://dc.lft.to/lastmile_qr_scan", "ios": "https://dc.lft.to/lastmile_qr_scan"}, "fusion_lon": 0.0}, {"lat": 38.909607666666666, "is_disabled": 0, "type": "electric_scooter", "lon": -77.026799, "bike_id": "155fc4c460a98d1eed67b550efd41bd7", "fusion_lat": 0.0, "name": "155fc4c460a98d1eed67b550efd41bd7", "is_reserved": 0, "rental_uris": {"android": "https://dc.lft.to/lastmile_qr_scan", "ios": "https://dc.lft.to/lastmile_qr_scan"}, "fusion_lon": 0.0}, {"lat": 38.90142433333333, "is_disabled": 0, "type": "electric_scooter", "lon": -76.98055066666667, "bike_id": "f62425f00a5c16557f3f1bee3707e01a", "fusion_lat": 0.0, "name": "f62425f00a5c16557f3f1bee3707e01a", "is_reserved": 0, "rental_uris": {"android": "https://dc.lft.to/lastmile_qr_scan", "ios": "https://dc.lft.to/lastmile_qr_scan"}, "fusion_lon": 0.0}, {"lat": 38.91980483333333, "is_disabled": 0, "type": "electric_scooter", "lon": -77.0001825, "bike_id": "e586026c76e28c204c52a6a9c7d78242", "fusion_lat": 0.0, "name": "e586026c76e28c204c52a6a9c7d78242", "is_reserved": 0, "rental_uris": {"android": "https://dc.lft.to/lastmile_qr_scan", "ios": "https://dc.lft.to/lastmile_qr_scan"}, "fusion_lon": 0.0}, {"lat": 38.884726, "is_disabled": 0, "type": "electric_scooter", "lon": -76.99259983333333, "bike_id": "f11e930617ede0a79b129677a734548a", "fusion_lat": 0.0, "name": "f11e930617ede0a79b129677a734548a", "is_reserved": 0, "rental_uris": {"android": "https://dc.lft.to/lastmile_qr_scan", "ios": "https://dc.lft.to/lastmile_qr_scan"}, "fusion_lon": 0.0}, {"lat": 38.950745166666664, "is_disabled": 0, "type": "electric_scooter", "lon": -77.00874833333333, "bike_id": "a3ec710e9cc5cb15569fe1047b4d7fe3", "fusion_lat": 0.0, "name": "a3ec710e9cc5cb15569fe1047b4d7fe3", "is_reserved": 0, "rental_uris": {"android": "https://dc.lft.to/lastmile_qr_scan", "ios": "https://dc.lft.to/lastmile_qr_scan"}, "fusion_lon": 0.0}, {"lat": 38.919843166666666, "is_disabled": 0, "type": "electric_scooter", "lon": -76.97306533333334, "bike_id": "3af6bee022d4688a5a41ff0249a2a23b", "fusion_lat": 0.0, "name": "3af6bee022d4688a5a41ff0249a2a23b", "is_reserved": 0, "rental_uris": {"android": "https://dc.lft.to/lastmile_qr_scan", "ios": "https://dc.lft.to/lastmile_qr_scan"}, "fusion_lon": 0.0}, {"lat": 38.89982066666666, "is_disabled": 0, "type": "electric_scooter", "lon": -77.02296966666667, "bike_id": "5937ea4c97de840ed81a3a17d493fd1b", "fusion_lat": 0.0, "name": "5937ea4c97de840ed81a3a17d493fd1b", "is_reserved": 0, "rental_uris": {"android": "https://dc.lft.to/lastmile_qr_scan", "ios": "https://dc.lft.to/lastmile_qr_scan"}, "fusion_lon": 0.0}, {"lat": 38.87572816666667, "is_disabled": 0, "type": "electric_scooter", "lon": -77.012918, "bike_id": "2b98ef4a0a8827e28c46097ce1a81cb6", "fusion_lat": 0.0, "name": "2b98ef4a0a8827e28c46097ce1a81cb6", "is_reserved": 0, "rental_uris": {"android": "https://dc.lft.to/lastmile_qr_scan", "ios": "https://dc.lft.to/lastmile_qr_scan"}, "fusion_lon": 0.0}, {"lat": 38.880779833333335, "is_disabled": 0, "type": "electric_scooter", "lon": -76.985305, "bike_id": "b9b3d31354739843c6db91b38cfcb951", "fusion_lat": 0.0, "name": "b9b3d31354739843c6db91b38cfcb951", "is_reserved": 0, "rental_uris": {"android": "https://dc.lft.to/lastmile_qr_scan", "ios": "https://dc.lft.to/lastmile_qr_scan"}, "fusion_lon": 0.0}, {"lat": 38.9234675, "is_disabled": 0, "type": "electric_scooter", "lon": -77.03362233333333, "bike_id": "d5867bc773378065caacf894484caf78", "fusion_lat": 0.0, "name": "d5867bc773378065caacf894484caf78", "is_reserved": 0, "rental_uris": {"android": "https://dc.lft.to/lastmile_qr_scan", "ios": "https://dc.lft.to/lastmile_qr_scan"}, "fusion_lon": 0.0}, {"lat": 38.876577833333336, "is_disabled": 0, "type": "electric_scooter", "lon": -77.00426083333333, "bike_id": "2665e064300bd35969cfdba93e0e3a4f", "fusion_lat": 0.0, "name": "2665e064300bd35969cfdba93e0e3a4f", "is_reserved": 0, "rental_uris": {"android": "https://dc.lft.to/lastmile_qr_scan", "ios": "https://dc.lft.to/lastmile_qr_scan"}, "fusion_lon": 0.0}, {"lat": 38.959283166666665, "is_disabled": 0, "type": "electric_bike", "lon": -77.03122066666667, "bike_id": "433f950fb322fb141f2874a03efa889e", "fusion_lat": 0.0, "name": "433f950fb322fb141f2874a03efa889e", "is_reserved": 0, "rental_uris": {"android": "https://dc.lft.to/lastmile_qr_scan", "ios": "https://dc.lft.to/lastmile_qr_scan"}, "fusion_lon": 0.0}, {"lat": 38.90863983333333, "is_disabled": 0, "type": "electric_bike", "lon": -77.080796, "bike_id": "66457b057edc144300a5e81a350636e0", "fusion_lat": 0.0, "name": "66457b057edc144300a5e81a350636e0", "is_reserved": 0, "rental_uris": {"android": "https://dc.lft.to/lastmile_qr_scan", "ios": "https://dc.lft.to/lastmile_qr_scan"}, "fusion_lon": 0.0}, {"lat": 38.9540515, "is_disabled": 0, "type": "electric_scooter", "lon": -77.02750766666666, "bike_id": "e8180f0491dce0d91aa24e5750687a37", "fusion_lat": 0.0, "name": "e8180f0491dce0d91aa24e5750687a37", "is_reserved": 0, "rental_uris": {"android": "https://dc.lft.to/lastmile_qr_scan", "ios": "https://dc.lft.to/lastmile_qr_scan"}, "fusion_lon": 0.0}, {"lat": 38.9172395, "is_disabled": 0, "type": "electric_scooter", "lon": -77.04102616666667, "bike_id": "7c3e2245e72ae8f1baf1c636412ceaa9", "fusion_lat": 0.0, "name": "7c3e2245e72ae8f1baf1c636412ceaa9", "is_reserved": 0, "rental_uris": {"android": "https://dc.lft.to/lastmile_qr_scan", "ios": "https://dc.lft.to/lastmile_qr_scan"}, "fusion_lon": 0.0}, {"lat": 38.960206, "is_disabled": 0, "type": "electric_bike", "lon": -77.01728066666666, "bike_id": "158404cb3835e177c1cee013887489b0", "fusion_lat": 0.0, "name": "158404cb3835e177c1cee013887489b0", "is_reserved": 0, "rental_uris": {"android": "https://dc.lft.to/lastmile_qr_scan", "ios": "https://dc.lft.to/lastmile_qr_scan"}, "fusion_lon": 0.0}, {"lat": 39.02936116666667, "is_disabled": 0, "type": "electric_bike", "lon": -77.04926666666667, "bike_id": "40304d2dc9e0cd96a9f40cc0c7028c80", "fusion_lat": 0.0, "name": "40304d2dc9e0cd96a9f40cc0c7028c80", "is_reserved": 0, "rental_uris": {"android": "https://dc.lft.to/lastmile_qr_scan", "ios": "https://dc.lft.to/lastmile_qr_scan"}, "fusion_lon": 0.0}, {"lat": 38.86052883333333, "is_disabled": 0, "type": "electric_scooter", "lon": -77.05760633333334, "bike_id": "403b3a57be1746c0e7fae1cc5f19a2e2", "fusion_lat": 0.0, "name": "403b3a57be1746c0e7fae1cc5f19a2e2", "is_reserved": 0, "rental_uris": {"android": "https://dc.lft.to/lastmile_qr_scan", "ios": "https://dc.lft.to/lastmile_qr_scan"}, "fusion_lon": 0.0}, {"lat": 38.91918366666667, "is_disabled": 0, "type": "electric_scooter", "lon": -77.035489, "bike_id": "1305bf321d1f586527f8b44dc7923a91", "fusion_lat": 0.0, "name": "1305bf321d1f586527f8b44dc7923a91", "is_reserved": 0, "rental_uris": {"android": "https://dc.lft.to/lastmile_qr_scan", "ios": "https://dc.lft.to/lastmile_qr_scan"}, "fusion_lon": 0.0}, {"lat": 38.90619383333333, "is_disabled": 0, "type": "electric_scooter", "lon": -77.04349283333333, "bike_id": "9e115482f3ddd883547ac33c0cbc0033", "fusion_lat": 0.0, "name": "9e115482f3ddd883547ac33c0cbc0033", "is_reserved": 0, "rental_uris": {"android": "https://dc.lft.to/lastmile_qr_scan", "ios": "https://dc.lft.to/lastmile_qr_scan"}, "fusion_lon": 0.0}, {"lat": 38.91870216666667, "is_disabled": 0, "type": "electric_scooter", "lon": -77.042568, "bike_id": "57dedf5de54ce04f29912ab50f7cc8b4", "fusion_lat": 0.0, "name": "57dedf5de54ce04f29912ab50f7cc8b4", "is_reserved": 0, "rental_uris": {"android": "https://dc.lft.to/lastmile_qr_scan", "ios": "https://dc.lft.to/lastmile_qr_scan"}, "fusion_lon": 0.0}, {"lat": 38.91609916666667, "is_disabled": 0, "type": "electric_scooter", "lon": -77.03853466666666, "bike_id": "e223e370437681e4b8cf7f8f1f09eba8", "fusion_lat": 0.0, "name": "e223e370437681e4b8cf7f8f1f09eba8", "is_reserved": 0, "rental_uris": {"android": "https://dc.lft.to/lastmile_qr_scan", "ios": "https://dc.lft.to/lastmile_qr_scan"}, "fusion_lon": 0.0}, {"lat": 38.9723045, "is_disabled": 0, "type": "electric_bike", "lon": -76.99346016666667, "bike_id": "5c5aa7774618ca9b0bb3b10a1b5e24ea", "fusion_lat": 0.0, "name": "5c5aa7774618ca9b0bb3b10a1b5e24ea", "is_reserved": 0, "rental_uris": {"android": "https://dc.lft.to/lastmile_qr_scan", "ios": "https://dc.lft.to/lastmile_qr_scan"}, "fusion_lon": 0.0}, {"lat": 38.9003805, "is_disabled": 0, "type": "electric_scooter", "lon": -77.0336865, "bike_id": "e56049689fc789025b257f67c5a3767b", "fusion_lat": 0.0, "name": "e56049689fc789025b257f67c5a3767b", "is_reserved": 0, "rental_uris": {"android": "https://dc.lft.to/lastmile_qr_scan", "ios": "https://dc.lft.to/lastmile_qr_scan"}, "fusion_lon": 0.0}, {"lat": 38.921537666666666, "is_disabled": 0, "type": "electric_scooter", "lon": -77.03656066666667, "bike_id": "1c36404a9da97a4917510d3c224afe22", "fusion_lat": 0.0, "name": "1c36404a9da97a4917510d3c224afe22", "is_reserved": 0, "rental_uris": {"android": "https://dc.lft.to/lastmile_qr_scan", "ios": "https://dc.lft.to/lastmile_qr_scan"}, "fusion_lon": 0.0}, {"lat": 38.908574333333334, "is_disabled": 0, "type": "electric_scooter", "lon": -77.04418133333333, "bike_id": "18a44ad61d3576969bc2a39936d89e81", "fusion_lat": 0.0, "name": "18a44ad61d3576969bc2a39936d89e81", "is_reserved": 0, "rental_uris": {"android": "https://dc.lft.to/lastmile_qr_scan", "ios": "https://dc.lft.to/lastmile_qr_scan"}, "fusion_lon": 0.0}, {"lat": 38.93861016666666, "is_disabled": 0, "type": "electric_scooter", "lon": -77.025631, "bike_id": "fff3318842ce5c271f833a94875bf361", "fusion_lat": 0.0, "name": "fff3318842ce5c271f833a94875bf361", "is_reserved": 0, "rental_uris": {"android": "https://dc.lft.to/lastmile_qr_scan", "ios": "https://dc.lft.to/lastmile_qr_scan"}, "fusion_lon": 0.0}, {"lat": 38.8953385, "is_disabled": 0, "type": "electric_scooter", "lon": -77.010892, "bike_id": "8a1bfd2714422590bb863234cb9e41f8", "fusion_lat": 0.0, "name": "8a1bfd2714422590bb863234cb9e41f8", "is_reserved": 0, "rental_uris": {"android": "https://dc.lft.to/lastmile_qr_scan", "ios": "https://dc.lft.to/lastmile_qr_scan"}, "fusion_lon": 0.0}, {"lat": 38.91257266666667, "is_disabled": 0, "type": "electric_scooter", "lon": -77.00630533333333, "bike_id": "449397c984294e1feb1fc94f98ff6f07", "fusion_lat": 0.0, "name": "449397c984294e1feb1fc94f98ff6f07", "is_reserved": 0, "rental_uris": {"android": "https://dc.lft.to/lastmile_qr_scan", "ios": "https://dc.lft.to/lastmile_qr_scan"}, "fusion_lon": 0.0}, {"lat": 38.919566333333336, "is_disabled": 0, "type": "electric_scooter", "lon": -76.98081933333333, "bike_id": "dddd567f8b70f3cc19b56f9fc69da217", "fusion_lat": 0.0, "name": "dddd567f8b70f3cc19b56f9fc69da217", "is_reserved": 0, "rental_uris": {"android": "https://dc.lft.to/lastmile_qr_scan", "ios": "https://dc.lft.to/lastmile_qr_scan"}, "fusion_lon": 0.0}, {"lat": 38.91408066666666, "is_disabled": 0, "type": "electric_scooter", "lon": -77.0325575, "bike_id": "de1613be40b7d2dfcacc7f1ab8cfbe9b", "fusion_lat": 0.0, "name": "de1613be40b7d2dfcacc7f1ab8cfbe9b", "is_reserved": 0, "rental_uris": {"android": "https://dc.lft.to/lastmile_qr_scan", "ios": "https://dc.lft.to/lastmile_qr_scan"}, "fusion_lon": 0.0}, {"lat": 38.90611083333334, "is_disabled": 0, "type": "electric_scooter", "lon": -77.03958866666666, "bike_id": "be8d56374ec923db57e6dca5decde953", "fusion_lat": 0.0, "name": "be8d56374ec923db57e6dca5decde953", "is_reserved": 0, "rental_uris": {"android": "https://dc.lft.to/lastmile_qr_scan", "ios": "https://dc.lft.to/lastmile_qr_scan"}, "fusion_lon": 0.0}, {"lat": 38.90322066666667, "is_disabled": 0, "type": "electric_scooter", "lon": -77.03768783333334, "bike_id": "0415952708b2ffe293f8165afbd653f3", "fusion_lat": 0.0, "name": "0415952708b2ffe293f8165afbd653f3", "is_reserved": 0, "rental_uris": {"android": "https://dc.lft.to/lastmile_qr_scan", "ios": "https://dc.lft.to/lastmile_qr_scan"}, "fusion_lon": 0.0}, {"lat": 38.91846666666667, "is_disabled": 0, "type": "electric_scooter", "lon": -76.96545716666667, "bike_id": "1ea4d6c104ff2dca4795e3e0ebb28583", "fusion_lat": 0.0, "name": "1ea4d6c104ff2dca4795e3e0ebb28583", "is_reserved": 0, "rental_uris": {"android": "https://dc.lft.to/lastmile_qr_scan", "ios": "https://dc.lft.to/lastmile_qr_scan"}, "fusion_lon": 0.0}, {"lat": 38.923110666666666, "is_disabled": 0, "type": "electric_bike", "lon": -77.03656816666667, "bike_id": "f08fa91ee87979e04e6230bdc5892623", "fusion_lat": 0.0, "name": "f08fa91ee87979e04e6230bdc5892623", "is_reserved": 0, "rental_uris": {"android": "https://dc.lft.to/lastmile_qr_scan", "ios": "https://dc.lft.to/lastmile_qr_scan"}, "fusion_lon": 0.0}, {"lat": 38.89507066666667, "is_disabled": 0, "type": "electric_scooter", "lon": -77.02753216666666, "bike_id": "f574f194568cf1c6fc20b736d3013d08", "fusion_lat": 0.0, "name": "f574f194568cf1c6fc20b736d3013d08", "is_reserved": 0, "rental_uris": {"android": "https://dc.lft.to/lastmile_qr_scan", "ios": "https://dc.lft.to/lastmile_qr_scan"}, "fusion_lon": 0.0}, {"lat": 38.9185985, "is_disabled": 0, "type": "electric_scooter", "lon": -77.024322, "bike_id": "957bf0a312042f99e91be9056761dc2a", "fusion_lat": 0.0, "name": "957bf0a312042f99e91be9056761dc2a", "is_reserved": 0, "rental_uris": {"android": "https://dc.lft.to/lastmile_qr_scan", "ios": "https://dc.lft.to/lastmile_qr_scan"}, "fusion_lon": 0.0}, {"lat": 38.923856666666666, "is_disabled": 0, "type": "electric_scooter", "lon": -77.0307335, "bike_id": "54683caa6c4041ff1407820bc476c9f0", "fusion_lat": 0.0, "name": "54683caa6c4041ff1407820bc476c9f0", "is_reserved": 0, "rental_uris": {"android": "https://dc.lft.to/lastmile_qr_scan", "ios": "https://dc.lft.to/lastmile_qr_scan"}, "fusion_lon": 0.0}, {"lat": 38.8462885, "is_disabled": 0, "type": "electric_bike", "lon": -77.069349, "bike_id": "0b0553d5e999c6032c451f3c7e23912d", "fusion_lat": 0.0, "name": "0b0553d5e999c6032c451f3c7e23912d", "is_reserved": 0, "rental_uris": {"android": "https://dc.lft.to/lastmile_qr_scan", "ios": "https://dc.lft.to/lastmile_qr_scan"}, "fusion_lon": 0.0}, {"lat": 38.90961566666667, "is_disabled": 0, "type": "electric_scooter", "lon": -77.022725, "bike_id": "3370603db507c82a3d3905c75ef3ae69", "fusion_lat": 0.0, "name": "3370603db507c82a3d3905c75ef3ae69", "is_reserved": 0, "rental_uris": {"android": "https://dc.lft.to/lastmile_qr_scan", "ios": "https://dc.lft.to/lastmile_qr_scan"}, "fusion_lon": 0.0}, {"lat": 38.89278866666667, "is_disabled": 0, "type": "electric_scooter", "lon": -77.0503285, "bike_id": "0fcc84411d9577f9bdb3494f0c5e218b", "fusion_lat": 0.0, "name": "0fcc84411d9577f9bdb3494f0c5e218b", "is_reserved": 0, "rental_uris": {"android": "https://dc.lft.to/lastmile_qr_scan", "ios": "https://dc.lft.to/lastmile_qr_scan"}, "fusion_lon": 0.0}, {"lat": 38.919854, "is_disabled": 0, "type": "electric_scooter", "lon": -77.04162583333333, "bike_id": "9df27cee8420855d0214c63f9d5e3023", "fusion_lat": 0.0, "name": "9df27cee8420855d0214c63f9d5e3023", "is_reserved": 0, "rental_uris": {"android": "https://dc.lft.to/lastmile_qr_scan", "ios": "https://dc.lft.to/lastmile_qr_scan"}, "fusion_lon": 0.0}, {"lat": 38.896211666666666, "is_disabled": 0, "type": "electric_scooter", "lon": -76.99297616666666, "bike_id": "c43ee411545086cf6b7f5c0015e4d83d", "fusion_lat": 0.0, "name": "c43ee411545086cf6b7f5c0015e4d83d", "is_reserved": 0, "rental_uris": {"android": "https://dc.lft.to/lastmile_qr_scan", "ios": "https://dc.lft.to/lastmile_qr_scan"}, "fusion_lon": 0.0}, {"lat": 38.86116833333333, "is_disabled": 0, "type": "electric_scooter", "lon": -76.98376616666667, "bike_id": "64c970ddcd08479dcb97a816667252dc", "fusion_lat": 0.0, "name": "64c970ddcd08479dcb97a816667252dc", "is_reserved": 0, "rental_uris": {"android": "https://dc.lft.to/lastmile_qr_scan", "ios": "https://dc.lft.to/lastmile_qr_scan"}, "fusion_lon": 0.0}, {"lat": 38.84030666666666, "is_disabled": 0, "type": "electric_bike", "lon": -76.975841, "bike_id": "ccd8e2055cfc494d56bfb74ae764ccdf", "fusion_lat": 0.0, "name": "ccd8e2055cfc494d56bfb74ae764ccdf", "is_reserved": 0, "rental_uris": {"android": "https://dc.lft.to/lastmile_qr_scan", "ios": "https://dc.lft.to/lastmile_qr_scan"}, "fusion_lon": 0.0}, {"lat": 38.9003, "is_disabled": 0, "type": "electric_scooter", "lon": -77.04038983333334, "bike_id": "af4c7076f00b3064765aaf89bec90152", "fusion_lat": 0.0, "name": "af4c7076f00b3064765aaf89bec90152", "is_reserved": 0, "rental_uris": {"android": "https://dc.lft.to/lastmile_qr_scan", "ios": "https://dc.lft.to/lastmile_qr_scan"}, "fusion_lon": 0.0}, {"lat": 38.90253033333333, "is_disabled": 0, "type": "electric_scooter", "lon": -77.02902383333333, "bike_id": "42c2820705a44beeecc53533e2342d84", "fusion_lat": 0.0, "name": "42c2820705a44beeecc53533e2342d84", "is_reserved": 0, "rental_uris": {"android": "https://dc.lft.to/lastmile_qr_scan", "ios": "https://dc.lft.to/lastmile_qr_scan"}, "fusion_lon": 0.0}, {"lat": 38.89188733333334, "is_disabled": 0, "type": "electric_scooter", "lon": -76.99622683333334, "bike_id": "80d4aab0d33c9226b6f10e666457ea09", "fusion_lat": 0.0, "name": "80d4aab0d33c9226b6f10e666457ea09", "is_reserved": 0, "rental_uris": {"android": "https://dc.lft.to/lastmile_qr_scan", "ios": "https://dc.lft.to/lastmile_qr_scan"}, "fusion_lon": 0.0}, {"lat": 38.93538783333333, "is_disabled": 0, "type": "electric_scooter", "lon": -77.03402466666667, "bike_id": "e5d6f0890c22300fb19d46a42b577c22", "fusion_lat": 0.0, "name": "e5d6f0890c22300fb19d46a42b577c22", "is_reserved": 0, "rental_uris": {"android": "https://dc.lft.to/lastmile_qr_scan", "ios": "https://dc.lft.to/lastmile_qr_scan"}, "fusion_lon": 0.0}, {"lat": 38.92538666666667, "is_disabled": 0, "type": "electric_scooter", "lon": -77.03452, "bike_id": "3e3f78b5527724c6893c06482d178d70", "fusion_lat": 0.0, "name": "3e3f78b5527724c6893c06482d178d70", "is_reserved": 0, "rental_uris": {"android": "https://dc.lft.to/lastmile_qr_scan", "ios": "https://dc.lft.to/lastmile_qr_scan"}, "fusion_lon": 0.0}, {"lat": 39.058109333333334, "is_disabled": 0, "type": "electric_bike", "lon": -77.12627183333333, "bike_id": "fb2052ff8baf4b17188fd5aa1d1232a8", "fusion_lat": 0.0, "name": "fb2052ff8baf4b17188fd5aa1d1232a8", "is_reserved": 0, "rental_uris": {"android": "https://dc.lft.to/lastmile_qr_scan", "ios": "https://dc.lft.to/lastmile_qr_scan"}, "fusion_lon": 0.0}, {"lat": 38.90038966666667, "is_disabled": 0, "type": "electric_scooter", "lon": -76.98560683333334, "bike_id": "2e01e988a00d6f6217372725b2668c1f", "fusion_lat": 0.0, "name": "2e01e988a00d6f6217372725b2668c1f", "is_reserved": 0, "rental_uris": {"android": "https://dc.lft.to/lastmile_qr_scan", "ios": "https://dc.lft.to/lastmile_qr_scan"}, "fusion_lon": 0.0}, {"lat": 38.92397616666667, "is_disabled": 0, "type": "electric_scooter", "lon": -77.0245485, "bike_id": "8487e942ca9719cb9a2649ec7e5504d4", "fusion_lat": 0.0, "name": "8487e942ca9719cb9a2649ec7e5504d4", "is_reserved": 0, "rental_uris": {"android": "https://dc.lft.to/lastmile_qr_scan", "ios": "https://dc.lft.to/lastmile_qr_scan"}, "fusion_lon": 0.0}, {"lat": 38.8793675, "is_disabled": 0, "type": "electric_scooter", "lon": -77.007252, "bike_id": "3bc80d64f5ee2e2b805c7dafa378bfd1", "fusion_lat": 0.0, "name": "3bc80d64f5ee2e2b805c7dafa378bfd1", "is_reserved": 0, "rental_uris": {"android": "https://dc.lft.to/lastmile_qr_scan", "ios": "https://dc.lft.to/lastmile_qr_scan"}, "fusion_lon": 0.0}, {"lat": 38.930082666666664, "is_disabled": 0, "type": "electric_scooter", "lon": -76.99484266666667, "bike_id": "b239efd09f935a9b440dd3afd060d23b", "fusion_lat": 0.0, "name": "b239efd09f935a9b440dd3afd060d23b", "is_reserved": 0, "rental_uris": {"android": "https://dc.lft.to/lastmile_qr_scan", "ios": "https://dc.lft.to/lastmile_qr_scan"}, "fusion_lon": 0.0}, {"lat": 38.92993083333333, "is_disabled": 0, "type": "electric_bike", "lon": -77.023114, "bike_id": "1b0c1fd008da6f8a18bb32ee18babc37", "fusion_lat": 0.0, "name": "1b0c1fd008da6f8a18bb32ee18babc37", "is_reserved": 0, "rental_uris": {"android": "https://dc.lft.to/lastmile_qr_scan", "ios": "https://dc.lft.to/lastmile_qr_scan"}, "fusion_lon": 0.0}, {"lat": 38.93480016666667, "is_disabled": 0, "type": "electric_scooter", "lon": -77.03655233333333, "bike_id": "b1fba7322974ae323d74cdd232d81bca", "fusion_lat": 0.0, "name": "b1fba7322974ae323d74cdd232d81bca", "is_reserved": 0, "rental_uris": {"android": "https://dc.lft.to/lastmile_qr_scan", "ios": "https://dc.lft.to/lastmile_qr_scan"}, "fusion_lon": 0.0}, {"lat": 38.9236905, "is_disabled": 0, "type": "electric_scooter", "lon": -77.07677916666667, "bike_id": "2271daa3fb57efa28c2a0383ad145971", "fusion_lat": 0.0, "name": "2271daa3fb57efa28c2a0383ad145971", "is_reserved": 0, "rental_uris": {"android": "https://dc.lft.to/lastmile_qr_scan", "ios": "https://dc.lft.to/lastmile_qr_scan"}, "fusion_lon": 0.0}, {"lat": 38.922719, "is_disabled": 0, "type": "electric_scooter", "lon": -77.04249533333333, "bike_id": "55c27b55995e868c88475cf85c4dd95f", "fusion_lat": 0.0, "name": "55c27b55995e868c88475cf85c4dd95f", "is_reserved": 0, "rental_uris": {"android": "https://dc.lft.to/lastmile_qr_scan", "ios": "https://dc.lft.to/lastmile_qr_scan"}, "fusion_lon": 0.0}, {"lat": 38.9060805, "is_disabled": 0, "type": "electric_scooter", "lon": -77.05858233333333, "bike_id": "8312e0c84c5dab469dbc04fb69059000", "fusion_lat": 0.0, "name": "8312e0c84c5dab469dbc04fb69059000", "is_reserved": 0, "rental_uris": {"android": "https://dc.lft.to/lastmile_qr_scan", "ios": "https://dc.lft.to/lastmile_qr_scan"}, "fusion_lon": 0.0}, {"lat": 38.907137166666665, "is_disabled": 0, "type": "electric_scooter", "lon": -77.04398516666667, "bike_id": "8f4c91e386f0e38ffd4a8d4043637747", "fusion_lat": 0.0, "name": "8f4c91e386f0e38ffd4a8d4043637747", "is_reserved": 0, "rental_uris": {"android": "https://dc.lft.to/lastmile_qr_scan", "ios": "https://dc.lft.to/lastmile_qr_scan"}, "fusion_lon": 0.0}, {"lat": 38.89292866666667, "is_disabled": 0, "type": "electric_bike", "lon": -77.00143166666666, "bike_id": "05b259d28938eadf400882afd9f2cd45", "fusion_lat": 0.0, "name": "05b259d28938eadf400882afd9f2cd45", "is_reserved": 0, "rental_uris": {"android": "https://dc.lft.to/lastmile_qr_scan", "ios": "https://dc.lft.to/lastmile_qr_scan"}, "fusion_lon": 0.0}, {"lat": 38.892026333333334, "is_disabled": 0, "type": "electric_bike", "lon": -76.97055216666666, "bike_id": "0cb1d8c0b979905abd7349b383608dd7", "fusion_lat": 0.0, "name": "0cb1d8c0b979905abd7349b383608dd7", "is_reserved": 0, "rental_uris": {"android": "https://dc.lft.to/lastmile_qr_scan", "ios": "https://dc.lft.to/lastmile_qr_scan"}, "fusion_lon": 0.0}, {"lat": 38.8842815, "is_disabled": 0, "type": "electric_bike", "lon": -76.98086466666666, "bike_id": "15144ebed56e5bba328ff58fc8a28607", "fusion_lat": 0.0, "name": "15144ebed56e5bba328ff58fc8a28607", "is_reserved": 0, "rental_uris": {"android": "https://dc.lft.to/lastmile_qr_scan", "ios": "https://dc.lft.to/lastmile_qr_scan"}, "fusion_lon": 0.0}, {"lat": 38.903214166666665, "is_disabled": 0, "type": "electric_scooter", "lon": -77.033112, "bike_id": "ae20cab896bc7fd9e13bb765a2ed1d56", "fusion_lat": 0.0, "name": "ae20cab896bc7fd9e13bb765a2ed1d56", "is_reserved": 0, "rental_uris": {"android": "https://dc.lft.to/lastmile_qr_scan", "ios": "https://dc.lft.to/lastmile_qr_scan"}, "fusion_lon": 0.0}, {"lat": 38.90903, "is_disabled": 0, "type": "electric_scooter", "lon": -77.086205, "bike_id": "eeeb19050377d4c99213f2fc2e55965e", "fusion_lat": 0.0, "name": "eeeb19050377d4c99213f2fc2e55965e", "is_reserved": 0, "rental_uris": {"android": "https://dc.lft.to/lastmile_qr_scan", "ios": "https://dc.lft.to/lastmile_qr_scan"}, "fusion_lon": 0.0}, {"lat": 38.895332, "is_disabled": 0, "type": "electric_scooter", "lon": -77.0111335, "bike_id": "edb507c00e9c118177f3640dbe8b8b39", "fusion_lat": 0.0, "name": "edb507c00e9c118177f3640dbe8b8b39", "is_reserved": 0, "rental_uris": {"android": "https://dc.lft.to/lastmile_qr_scan", "ios": "https://dc.lft.to/lastmile_qr_scan"}, "fusion_lon": 0.0}, {"lat": 38.918649, "is_disabled": 0, "type": "electric_scooter", "lon": -77.07423183333333, "bike_id": "7419dc2d4624e33249d89a0d4e9b6983", "fusion_lat": 0.0, "name": "7419dc2d4624e33249d89a0d4e9b6983", "is_reserved": 0, "rental_uris": {"android": "https://dc.lft.to/lastmile_qr_scan", "ios": "https://dc.lft.to/lastmile_qr_scan"}, "fusion_lon": 0.0}, {"lat": 38.891228166666664, "is_disabled": 0, "type": "electric_scooter", "lon": -76.94090616666666, "bike_id": "d148f41f99b8cdb24073af94c3540ccb", "fusion_lat": 0.0, "name": "d148f41f99b8cdb24073af94c3540ccb", "is_reserved": 0, "rental_uris": {"android": "https://dc.lft.to/lastmile_qr_scan", "ios": "https://dc.lft.to/lastmile_qr_scan"}, "fusion_lon": 0.0}, {"lat": 38.90392, "is_disabled": 0, "type": "electric_scooter", "lon": -77.0330105, "bike_id": "1b9b0fa283d4be6df8f45155f00dcb55", "fusion_lat": 0.0, "name": "1b9b0fa283d4be6df8f45155f00dcb55", "is_reserved": 0, "rental_uris": {"android": "https://dc.lft.to/lastmile_qr_scan", "ios": "https://dc.lft.to/lastmile_qr_scan"}, "fusion_lon": 0.0}, {"lat": 38.910820666666666, "is_disabled": 0, "type": "electric_scooter", "lon": -77.076423, "bike_id": "2ba7137682ff54983d5626ae2639efed", "fusion_lat": 0.0, "name": "2ba7137682ff54983d5626ae2639efed", "is_reserved": 0, "rental_uris": {"android": "https://dc.lft.to/lastmile_qr_scan", "ios": "https://dc.lft.to/lastmile_qr_scan"}, "fusion_lon": 0.0}, {"lat": 38.90008433333333, "is_disabled": 0, "type": "electric_scooter", "lon": -76.99847966666667, "bike_id": "e1878d93976f138a9c60a6e466e9c4f3", "fusion_lat": 0.0, "name": "e1878d93976f138a9c60a6e466e9c4f3", "is_reserved": 0, "rental_uris": {"android": "https://dc.lft.to/lastmile_qr_scan", "ios": "https://dc.lft.to/lastmile_qr_scan"}, "fusion_lon": 0.0}, {"lat": 38.93289, "is_disabled": 0, "type": "electric_bike", "lon": -77.03631416666667, "bike_id": "d83449f7d52915741b94297b1cf3bcf5", "fusion_lat": 0.0, "name": "d83449f7d52915741b94297b1cf3bcf5", "is_reserved": 0, "rental_uris": {"android": "https://dc.lft.to/lastmile_qr_scan", "ios": "https://dc.lft.to/lastmile_qr_scan"}, "fusion_lon": 0.0}, {"lat": 39.01591633333334, "is_disabled": 0, "type": "electric_bike", "lon": -77.0442865, "bike_id": "30a7ccc2f0e53ff6eed8e282151b3433", "fusion_lat": 0.0, "name": "30a7ccc2f0e53ff6eed8e282151b3433", "is_reserved": 0, "rental_uris": {"android": "https://dc.lft.to/lastmile_qr_scan", "ios": "https://dc.lft.to/lastmile_qr_scan"}, "fusion_lon": 0.0}, {"lat": 38.905166, "is_disabled": 0, "type": "electric_scooter", "lon": -77.06878933333333, "bike_id": "e5accadcc8ed18eb6105254ed9d30fb6", "fusion_lat": 0.0, "name": "e5accadcc8ed18eb6105254ed9d30fb6", "is_reserved": 0, "rental_uris": {"android": "https://dc.lft.to/lastmile_qr_scan", "ios": "https://dc.lft.to/lastmile_qr_scan"}, "fusion_lon": 0.0}, {"lat": 38.9332745, "is_disabled": 0, "type": "electric_scooter", "lon": -77.0571325, "bike_id": "0e227a8099205845ecaa16db0ffe3190", "fusion_lat": 0.0, "name": "0e227a8099205845ecaa16db0ffe3190", "is_reserved": 0, "rental_uris": {"android": "https://dc.lft.to/lastmile_qr_scan", "ios": "https://dc.lft.to/lastmile_qr_scan"}, "fusion_lon": 0.0}, {"lat": 38.90143966666667, "is_disabled": 0, "type": "electric_scooter", "lon": -77.01825016666666, "bike_id": "755ace0fea4c27f60cfab3de131bc93e", "fusion_lat": 0.0, "name": "755ace0fea4c27f60cfab3de131bc93e", "is_reserved": 0, "rental_uris": {"android": "https://dc.lft.to/lastmile_qr_scan", "ios": "https://dc.lft.to/lastmile_qr_scan"}, "fusion_lon": 0.0}, {"lat": 38.9354355, "is_disabled": 0, "type": "electric_scooter", "lon": -77.0342265, "bike_id": "3f9deccc81760027a890e3069830b38f", "fusion_lat": 0.0, "name": "3f9deccc81760027a890e3069830b38f", "is_reserved": 0, "rental_uris": {"android": "https://dc.lft.to/lastmile_qr_scan", "ios": "https://dc.lft.to/lastmile_qr_scan"}, "fusion_lon": 0.0}, {"lat": 38.88427883333333, "is_disabled": 0, "type": "electric_scooter", "lon": -77.03046516666667, "bike_id": "36280f9418e7ea7e41adadb63661fd91", "fusion_lat": 0.0, "name": "36280f9418e7ea7e41adadb63661fd91", "is_reserved": 0, "rental_uris": {"android": "https://dc.lft.to/lastmile_qr_scan", "ios": "https://dc.lft.to/lastmile_qr_scan"}, "fusion_lon": 0.0}, {"lat": 38.9480425, "is_disabled": 0, "type": "electric_scooter", "lon": -77.0790855, "bike_id": "ff9d3395156c03c71558f614c3f4fc98", "fusion_lat": 0.0, "name": "ff9d3395156c03c71558f614c3f4fc98", "is_reserved": 0, "rental_uris": {"android": "https://dc.lft.to/lastmile_qr_scan", "ios": "https://dc.lft.to/lastmile_qr_scan"}, "fusion_lon": 0.0}, {"lat": 38.92184783333333, "is_disabled": 0, "type": "electric_scooter", "lon": -77.04230666666666, "bike_id": "287b25f6dd2b83728671f5a1e6b91404", "fusion_lat": 0.0, "name": "287b25f6dd2b83728671f5a1e6b91404", "is_reserved": 0, "rental_uris": {"android": "https://dc.lft.to/lastmile_qr_scan", "ios": "https://dc.lft.to/lastmile_qr_scan"}, "fusion_lon": 0.0}, {"lat": 39.03046483333333, "is_disabled": 0, "type": "electric_bike", "lon": -77.09479116666667, "bike_id": "157742bcb14aa70e2ce3374387137a17", "fusion_lat": 0.0, "name": "157742bcb14aa70e2ce3374387137a17", "is_reserved": 0, "rental_uris": {"android": "https://dc.lft.to/lastmile_qr_scan", "ios": "https://dc.lft.to/lastmile_qr_scan"}, "fusion_lon": 0.0}, {"lat": 38.9350615, "is_disabled": 0, "type": "electric_scooter", "lon": -77.02403866666667, "bike_id": "075aa85c03f35c26a44990879f449385", "fusion_lat": 0.0, "name": "075aa85c03f35c26a44990879f449385", "is_reserved": 0, "rental_uris": {"android": "https://dc.lft.to/lastmile_qr_scan", "ios": "https://dc.lft.to/lastmile_qr_scan"}, "fusion_lon": 0.0}, {"lat": 38.90077766666667, "is_disabled": 0, "type": "electric_scooter", "lon": -77.05313716666667, "bike_id": "1ccc001fed7c979652da19c460fd4305", "fusion_lat": 0.0, "name": "1ccc001fed7c979652da19c460fd4305", "is_reserved": 0, "rental_uris": {"android": "https://dc.lft.to/lastmile_qr_scan", "ios": "https://dc.lft.to/lastmile_qr_scan"}, "fusion_lon": 0.0}, {"lat": 38.9463255, "is_disabled": 0, "type": "electric_scooter", "lon": -77.0184375, "bike_id": "379286c9451d4cc5f7f322a8976a594b", "fusion_lat": 0.0, "name": "379286c9451d4cc5f7f322a8976a594b", "is_reserved": 0, "rental_uris": {"android": "https://dc.lft.to/lastmile_qr_scan", "ios": "https://dc.lft.to/lastmile_qr_scan"}, "fusion_lon": 0.0}, {"lat": 38.88706366666667, "is_disabled": 0, "type": "electric_scooter", "lon": -77.00153116666667, "bike_id": "c8dfa023aa2743c5656e2f63d48371ca", "fusion_lat": 0.0, "name": "c8dfa023aa2743c5656e2f63d48371ca", "is_reserved": 0, "rental_uris": {"android": "https://dc.lft.to/lastmile_qr_scan", "ios": "https://dc.lft.to/lastmile_qr_scan"}, "fusion_lon": 0.0}, {"lat": 38.929164, "is_disabled": 0, "type": "electric_scooter", "lon": -77.03298166666667, "bike_id": "18348bf680b93136beff9a1fb76a9192", "fusion_lat": 0.0, "name": "18348bf680b93136beff9a1fb76a9192", "is_reserved": 0, "rental_uris": {"android": "https://dc.lft.to/lastmile_qr_scan", "ios": "https://dc.lft.to/lastmile_qr_scan"}, "fusion_lon": 0.0}, {"lat": 38.9220035, "is_disabled": 0, "type": "electric_scooter", "lon": -77.0425445, "bike_id": "53f4ab3b6ec9f6e0c965d304d3c64fa3", "fusion_lat": 0.0, "name": "53f4ab3b6ec9f6e0c965d304d3c64fa3", "is_reserved": 0, "rental_uris": {"android": "https://dc.lft.to/lastmile_qr_scan", "ios": "https://dc.lft.to/lastmile_qr_scan"}, "fusion_lon": 0.0}, {"lat": 38.93684283333333, "is_disabled": 0, "type": "electric_scooter", "lon": -77.0357085, "bike_id": "f5a0413ae732e89dcc7180e746fa1a2b", "fusion_lat": 0.0, "name": "f5a0413ae732e89dcc7180e746fa1a2b", "is_reserved": 0, "rental_uris": {"android": "https://dc.lft.to/lastmile_qr_scan", "ios": "https://dc.lft.to/lastmile_qr_scan"}, "fusion_lon": 0.0}, {"lat": 38.929026, "is_disabled": 0, "type": "electric_scooter", "lon": -77.03277366666667, "bike_id": "c60ec8a1e15504367625a41b482b7b0c", "fusion_lat": 0.0, "name": "c60ec8a1e15504367625a41b482b7b0c", "is_reserved": 0, "rental_uris": {"android": "https://dc.lft.to/lastmile_qr_scan", "ios": "https://dc.lft.to/lastmile_qr_scan"}, "fusion_lon": 0.0}, {"lat": 38.89515816666667, "is_disabled": 0, "type": "electric_scooter", "lon": -77.04367583333334, "bike_id": "4c1a58f45eebf09894d88990e918c610", "fusion_lat": 0.0, "name": "4c1a58f45eebf09894d88990e918c610", "is_reserved": 0, "rental_uris": {"android": "https://dc.lft.to/lastmile_qr_scan", "ios": "https://dc.lft.to/lastmile_qr_scan"}, "fusion_lon": 0.0}, {"lat": 38.923268666666665, "is_disabled": 0, "type": "electric_scooter", "lon": -77.039055, "bike_id": "ff0851ff5cac1a7e052a648a12290924", "fusion_lat": 0.0, "name": "ff0851ff5cac1a7e052a648a12290924", "is_reserved": 0, "rental_uris": {"android": "https://dc.lft.to/lastmile_qr_scan", "ios": "https://dc.lft.to/lastmile_qr_scan"}, "fusion_lon": 0.0}, {"lat": 38.90971416666667, "is_disabled": 0, "type": "electric_scooter", "lon": -77.04509466666667, "bike_id": "149e43e41426ad3c132ea53760c2b9bb", "fusion_lat": 0.0, "name": "149e43e41426ad3c132ea53760c2b9bb", "is_reserved": 0, "rental_uris": {"android": "https://dc.lft.to/lastmile_qr_scan", "ios": "https://dc.lft.to/lastmile_qr_scan"}, "fusion_lon": 0.0}, {"lat": 38.9013735, "is_disabled": 0, "type": "electric_scooter", "lon": -77.00065733333334, "bike_id": "95aeddb8ed6af30da1c06e788ae07120", "fusion_lat": 0.0, "name": "95aeddb8ed6af30da1c06e788ae07120", "is_reserved": 0, "rental_uris": {"android": "https://dc.lft.to/lastmile_qr_scan", "ios": "https://dc.lft.to/lastmile_qr_scan"}, "fusion_lon": 0.0}, {"lat": 38.866568666666666, "is_disabled": 0, "type": "electric_scooter", "lon": -76.99014166666667, "bike_id": "0003ab7868f77561ab9ef4caded920f2", "fusion_lat": 0.0, "name": "0003ab7868f77561ab9ef4caded920f2", "is_reserved": 0, "rental_uris": {"android": "https://dc.lft.to/lastmile_qr_scan", "ios": "https://dc.lft.to/lastmile_qr_scan"}, "fusion_lon": 0.0}, {"lat": 38.90822083333333, "is_disabled": 0, "type": "electric_scooter", "lon": -76.941474, "bike_id": "2286cec230d8d1ef5db43cdee465e716", "fusion_lat": 0.0, "name": "2286cec230d8d1ef5db43cdee465e716", "is_reserved": 0, "rental_uris": {"android": "https://dc.lft.to/lastmile_qr_scan", "ios": "https://dc.lft.to/lastmile_qr_scan"}, "fusion_lon": 0.0}, {"lat": 38.921564833333335, "is_disabled": 0, "type": "electric_scooter", "lon": -77.0423855, "bike_id": "2bf753a8e46d411b53df073b9a08bf1b", "fusion_lat": 0.0, "name": "2bf753a8e46d411b53df073b9a08bf1b", "is_reserved": 0, "rental_uris": {"android": "https://dc.lft.to/lastmile_qr_scan", "ios": "https://dc.lft.to/lastmile_qr_scan"}, "fusion_lon": 0.0}, {"lat": 38.924816166666666, "is_disabled": 0, "type": "electric_scooter", "lon": -77.02722933333334, "bike_id": "1c02952f88f6563db70c7dd565173508", "fusion_lat": 0.0, "name": "1c02952f88f6563db70c7dd565173508", "is_reserved": 0, "rental_uris": {"android": "https://dc.lft.to/lastmile_qr_scan", "ios": "https://dc.lft.to/lastmile_qr_scan"}, "fusion_lon": 0.0}, {"lat": 38.917277166666665, "is_disabled": 0, "type": "electric_scooter", "lon": -77.04090616666667, "bike_id": "9a46cd27ef0a65b636412f1e88da4839", "fusion_lat": 0.0, "name": "9a46cd27ef0a65b636412f1e88da4839", "is_reserved": 0, "rental_uris": {"android": "https://dc.lft.to/lastmile_qr_scan", "ios": "https://dc.lft.to/lastmile_qr_scan"}, "fusion_lon": 0.0}, {"lat": 38.915948666666665, "is_disabled": 0, "type": "electric_scooter", "lon": -77.021272, "bike_id": "59e2fc3a65e72e027230a08ff3894f34", "fusion_lat": 0.0, "name": "59e2fc3a65e72e027230a08ff3894f34", "is_reserved": 0, "rental_uris": {"android": "https://dc.lft.to/lastmile_qr_scan", "ios": "https://dc.lft.to/lastmile_qr_scan"}, "fusion_lon": 0.0}, {"lat": 38.896239, "is_disabled": 0, "type": "electric_scooter", "lon": -77.02181633333333, "bike_id": "9a97d0b96ab31d7a027573b0293a3ad3", "fusion_lat": 0.0, "name": "9a97d0b96ab31d7a027573b0293a3ad3", "is_reserved": 0, "rental_uris": {"android": "https://dc.lft.to/lastmile_qr_scan", "ios": "https://dc.lft.to/lastmile_qr_scan"}, "fusion_lon": 0.0}, {"lat": 38.88738383333333, "is_disabled": 0, "type": "electric_scooter", "lon": -77.03228716666666, "bike_id": "28c77ae2dd08d7af54ea9b1daa454697", "fusion_lat": 0.0, "name": "28c77ae2dd08d7af54ea9b1daa454697", "is_reserved": 0, "rental_uris": {"android": "https://dc.lft.to/lastmile_qr_scan", "ios": "https://dc.lft.to/lastmile_qr_scan"}, "fusion_lon": 0.0}, {"lat": 38.938748, "is_disabled": 0, "type": "electric_scooter", "lon": -77.02447083333334, "bike_id": "5cfdb5de1c6ed98cf0761e0ff8f587c4", "fusion_lat": 0.0, "name": "5cfdb5de1c6ed98cf0761e0ff8f587c4", "is_reserved": 0, "rental_uris": {"android": "https://dc.lft.to/lastmile_qr_scan", "ios": "https://dc.lft.to/lastmile_qr_scan"}, "fusion_lon": 0.0}, {"lat": 38.88087183333333, "is_disabled": 0, "type": "electric_scooter", "lon": -76.99504683333333, "bike_id": "9882331fa5fd5dbca1502483d2816bf6", "fusion_lat": 0.0, "name": "9882331fa5fd5dbca1502483d2816bf6", "is_reserved": 0, "rental_uris": {"android": "https://dc.lft.to/lastmile_qr_scan", "ios": "https://dc.lft.to/lastmile_qr_scan"}, "fusion_lon": 0.0}, {"lat": 38.865605333333335, "is_disabled": 0, "type": "electric_scooter", "lon": -76.9894985, "bike_id": "2623a4785a0fe34576f71fa2c51443d7", "fusion_lat": 0.0, "name": "2623a4785a0fe34576f71fa2c51443d7", "is_reserved": 0, "rental_uris": {"android": "https://dc.lft.to/lastmile_qr_scan", "ios": "https://dc.lft.to/lastmile_qr_scan"}, "fusion_lon": 0.0}, {"lat": 38.8873335, "is_disabled": 0, "type": "electric_scooter", "lon": -77.0321265, "bike_id": "b86b04eda888950fcc050e1deb913573", "fusion_lat": 0.0, "name": "b86b04eda888950fcc050e1deb913573", "is_reserved": 0, "rental_uris": {"android": "https://dc.lft.to/lastmile_qr_scan", "ios": "https://dc.lft.to/lastmile_qr_scan"}, "fusion_lon": 0.0}, {"lat": 38.955558833333335, "is_disabled": 0, "type": "electric_scooter", "lon": -77.02229033333333, "bike_id": "a9fea2b649f547ca0d50ba627834188e", "fusion_lat": 0.0, "name": "a9fea2b649f547ca0d50ba627834188e", "is_reserved": 0, "rental_uris": {"android": "https://dc.lft.to/lastmile_qr_scan", "ios": "https://dc.lft.to/lastmile_qr_scan"}, "fusion_lon": 0.0}, {"lat": 38.909160666666665, "is_disabled": 0, "type": "electric_scooter", "lon": -77.03644316666667, "bike_id": "92ebd6d24d2e1860f20084e1c8140718", "fusion_lat": 0.0, "name": "92ebd6d24d2e1860f20084e1c8140718", "is_reserved": 0, "rental_uris": {"android": "https://dc.lft.to/lastmile_qr_scan", "ios": "https://dc.lft.to/lastmile_qr_scan"}, "fusion_lon": 0.0}, {"lat": 38.9079075, "is_disabled": 0, "type": "electric_scooter", "lon": -77.06900816666666, "bike_id": "8884c83a677c483580a287d9700f6c66", "fusion_lat": 0.0, "name": "8884c83a677c483580a287d9700f6c66", "is_reserved": 0, "rental_uris": {"android": "https://dc.lft.to/lastmile_qr_scan", "ios": "https://dc.lft.to/lastmile_qr_scan"}, "fusion_lon": 0.0}, {"lat": 38.88731166666667, "is_disabled": 0, "type": "electric_scooter", "lon": -77.02830983333334, "bike_id": "29419b1a31e039ccb92a74ed717b578d", "fusion_lat": 0.0, "name": "29419b1a31e039ccb92a74ed717b578d", "is_reserved": 0, "rental_uris": {"android": "https://dc.lft.to/lastmile_qr_scan", "ios": "https://dc.lft.to/lastmile_qr_scan"}, "fusion_lon": 0.0}, {"lat": 38.93976833333333, "is_disabled": 0, "type": "electric_scooter", "lon": -77.03590283333334, "bike_id": "0351756af78f481aa267f32c7f2e40f3", "fusion_lat": 0.0, "name": "0351756af78f481aa267f32c7f2e40f3", "is_reserved": 0, "rental_uris": {"android": "https://dc.lft.to/lastmile_qr_scan", "ios": "https://dc.lft.to/lastmile_qr_scan"}, "fusion_lon": 0.0}, {"lat": 38.8872235, "is_disabled": 0, "type": "electric_scooter", "lon": -77.01377816666667, "bike_id": "6dbe72fd35ba71dc98535c97012b57fe", "fusion_lat": 0.0, "name": "6dbe72fd35ba71dc98535c97012b57fe", "is_reserved": 0, "rental_uris": {"android": "https://dc.lft.to/lastmile_qr_scan", "ios": "https://dc.lft.to/lastmile_qr_scan"}, "fusion_lon": 0.0}, {"lat": 38.904682, "is_disabled": 0, "type": "electric_bike", "lon": -77.0675215, "bike_id": "3ae31bbaef97f0de789cbdf007aecaa5", "fusion_lat": 0.0, "name": "3ae31bbaef97f0de789cbdf007aecaa5", "is_reserved": 0, "rental_uris": {"android": "https://dc.lft.to/lastmile_qr_scan", "ios": "https://dc.lft.to/lastmile_qr_scan"}, "fusion_lon": 0.0}, {"lat": 38.96228083333333, "is_disabled": 0, "type": "electric_scooter", "lon": -77.02978633333333, "bike_id": "85fff1b8ccf21d0e9a6a84a221f5827e", "fusion_lat": 0.0, "name": "85fff1b8ccf21d0e9a6a84a221f5827e", "is_reserved": 0, "rental_uris": {"android": "https://dc.lft.to/lastmile_qr_scan", "ios": "https://dc.lft.to/lastmile_qr_scan"}, "fusion_lon": 0.0}, {"lat": 38.9030305, "is_disabled": 0, "type": "electric_scooter", "lon": -77.02063733333334, "bike_id": "55b002382d0e010d8e6471ea364e66f6", "fusion_lat": 0.0, "name": "55b002382d0e010d8e6471ea364e66f6", "is_reserved": 0, "rental_uris": {"android": "https://dc.lft.to/lastmile_qr_scan", "ios": "https://dc.lft.to/lastmile_qr_scan"}, "fusion_lon": 0.0}, {"lat": 38.91927183333333, "is_disabled": 0, "type": "electric_scooter", "lon": -77.00093816666667, "bike_id": "7c667e81cb933165927aa28625c12913", "fusion_lat": 0.0, "name": "7c667e81cb933165927aa28625c12913", "is_reserved": 0, "rental_uris": {"android": "https://dc.lft.to/lastmile_qr_scan", "ios": "https://dc.lft.to/lastmile_qr_scan"}, "fusion_lon": 0.0}, {"lat": 38.92457366666667, "is_disabled": 0, "type": "electric_scooter", "lon": -77.01219533333334, "bike_id": "31a0560e7bb100343bfd30e10c2dbd59", "fusion_lat": 0.0, "name": "31a0560e7bb100343bfd30e10c2dbd59", "is_reserved": 0, "rental_uris": {"android": "https://dc.lft.to/lastmile_qr_scan", "ios": "https://dc.lft.to/lastmile_qr_scan"}, "fusion_lon": 0.0}, {"lat": 38.9205195, "is_disabled": 0, "type": "electric_scooter", "lon": -77.03291083333333, "bike_id": "9e0f6d0fa48added01eef334b2eb856d", "fusion_lat": 0.0, "name": "9e0f6d0fa48added01eef334b2eb856d", "is_reserved": 0, "rental_uris": {"android": "https://dc.lft.to/lastmile_qr_scan", "ios": "https://dc.lft.to/lastmile_qr_scan"}, "fusion_lon": 0.0}, {"lat": 38.908705499999996, "is_disabled": 0, "type": "electric_scooter", "lon": -77.03672416666667, "bike_id": "5a37e0ae66e8e4b12e37ce5f7d90c71a", "fusion_lat": 0.0, "name": "5a37e0ae66e8e4b12e37ce5f7d90c71a", "is_reserved": 0, "rental_uris": {"android": "https://dc.lft.to/lastmile_qr_scan", "ios": "https://dc.lft.to/lastmile_qr_scan"}, "fusion_lon": 0.0}, {"lat": 38.908956333333336, "is_disabled": 0, "type": "electric_scooter", "lon": -77.03646633333334, "bike_id": "673f26eaa36df259631001e5bd56ab9c", "fusion_lat": 0.0, "name": "673f26eaa36df259631001e5bd56ab9c", "is_reserved": 0, "rental_uris": {"android": "https://dc.lft.to/lastmile_qr_scan", "ios": "https://dc.lft.to/lastmile_qr_scan"}, "fusion_lon": 0.0}, {"lat": 38.863598833333334, "is_disabled": 0, "type": "electric_scooter", "lon": -76.9827455, "bike_id": "0cb8f9c7c777c4ee116b4a46bd0be80a", "fusion_lat": 0.0, "name": "0cb8f9c7c777c4ee116b4a46bd0be80a", "is_reserved": 0, "rental_uris": {"android": "https://dc.lft.to/lastmile_qr_scan", "ios": "https://dc.lft.to/lastmile_qr_scan"}, "fusion_lon": 0.0}, {"lat": 38.894816, "is_disabled": 0, "type": "electric_scooter", "lon": -77.05028166666666, "bike_id": "4349693b1e90ab3dfdb591e644d1d294", "fusion_lat": 0.0, "name": "4349693b1e90ab3dfdb591e644d1d294", "is_reserved": 0, "rental_uris": {"android": "https://dc.lft.to/lastmile_qr_scan", "ios": "https://dc.lft.to/lastmile_qr_scan"}, "fusion_lon": 0.0}, {"lat": 38.897354, "is_disabled": 0, "type": "electric_scooter", "lon": -76.9471895, "bike_id": "108b29a609f353d6322385ef87389b28", "fusion_lat": 0.0, "name": "108b29a609f353d6322385ef87389b28", "is_reserved": 0, "rental_uris": {"android": "https://dc.lft.to/lastmile_qr_scan", "ios": "https://dc.lft.to/lastmile_qr_scan"}, "fusion_lon": 0.0}, {"lat": 38.91562, "is_disabled": 0, "type": "electric_scooter", "lon": -77.03161566666667, "bike_id": "5d0c92ea98f4458d93f2a7757f20f1de", "fusion_lat": 0.0, "name": "5d0c92ea98f4458d93f2a7757f20f1de", "is_reserved": 0, "rental_uris": {"android": "https://dc.lft.to/lastmile_qr_scan", "ios": "https://dc.lft.to/lastmile_qr_scan"}, "fusion_lon": 0.0}, {"lat": 38.903782166666666, "is_disabled": 0, "type": "electric_scooter", "lon": -77.0578695, "bike_id": "e1d9288561970b52f6120667034faa9d", "fusion_lat": 0.0, "name": "e1d9288561970b52f6120667034faa9d", "is_reserved": 0, "rental_uris": {"android": "https://dc.lft.to/lastmile_qr_scan", "ios": "https://dc.lft.to/lastmile_qr_scan"}, "fusion_lon": 0.0}, {"lat": 38.9535505, "is_disabled": 0, "type": "electric_bike", "lon": -76.980951, "bike_id": "526f01eb43980aed0be7ecb094fc71e9", "fusion_lat": 0.0, "name": "526f01eb43980aed0be7ecb094fc71e9", "is_reserved": 0, "rental_uris": {"android": "https://dc.lft.to/lastmile_qr_scan", "ios": "https://dc.lft.to/lastmile_qr_scan"}, "fusion_lon": 0.0}, {"lat": 38.927120333333335, "is_disabled": 0, "type": "electric_scooter", "lon": -77.024113, "bike_id": "685da6d3865e929e17bd3b458af99c2c", "fusion_lat": 0.0, "name": "685da6d3865e929e17bd3b458af99c2c", "is_reserved": 0, "rental_uris": {"android": "https://dc.lft.to/lastmile_qr_scan", "ios": "https://dc.lft.to/lastmile_qr_scan"}, "fusion_lon": 0.0}, {"lat": 38.9030595, "is_disabled": 0, "type": "electric_scooter", "lon": -77.051407, "bike_id": "6f10a398625929ff0db5ed633aea61e9", "fusion_lat": 0.0, "name": "6f10a398625929ff0db5ed633aea61e9", "is_reserved": 0, "rental_uris": {"android": "https://dc.lft.to/lastmile_qr_scan", "ios": "https://dc.lft.to/lastmile_qr_scan"}, "fusion_lon": 0.0}, {"lat": 38.914115333333335, "is_disabled": 0, "type": "electric_scooter", "lon": -77.03526283333333, "bike_id": "dca0aeaf52cc856a886e93ea97067555", "fusion_lat": 0.0, "name": "dca0aeaf52cc856a886e93ea97067555", "is_reserved": 0, "rental_uris": {"android": "https://dc.lft.to/lastmile_qr_scan", "ios": "https://dc.lft.to/lastmile_qr_scan"}, "fusion_lon": 0.0}, {"lat": 38.921736833333334, "is_disabled": 0, "type": "electric_scooter", "lon": -77.03814783333333, "bike_id": "02ec437a9c60f3b0d4d9b0c90559a33f", "fusion_lat": 0.0, "name": "02ec437a9c60f3b0d4d9b0c90559a33f", "is_reserved": 0, "rental_uris": {"android": "https://dc.lft.to/lastmile_qr_scan", "ios": "https://dc.lft.to/lastmile_qr_scan"}, "fusion_lon": 0.0}, {"lat": 38.893266833333335, "is_disabled": 0, "type": "electric_bike", "lon": -76.921163, "bike_id": "3b5b9dbf164e76719f71867132fe031f", "fusion_lat": 0.0, "name": "3b5b9dbf164e76719f71867132fe031f", "is_reserved": 0, "rental_uris": {"android": "https://dc.lft.to/lastmile_qr_scan", "ios": "https://dc.lft.to/lastmile_qr_scan"}, "fusion_lon": 0.0}, {"lat": 38.916824, "is_disabled": 0, "type": "electric_scooter", "lon": -77.02390733333333, "bike_id": "d7d1f82629f1fb022643d3d1658c9e85", "fusion_lat": 0.0, "name": "d7d1f82629f1fb022643d3d1658c9e85", "is_reserved": 0, "rental_uris": {"android": "https://dc.lft.to/lastmile_qr_scan", "ios": "https://dc.lft.to/lastmile_qr_scan"}, "fusion_lon": 0.0},