{"data": {"bikes": [{"is_disabled": 0, "fusion_lat": 0.0, "lat": 38.91995416666666, "type": "electric_scooter", "lon": -77.0321875, "is_reserved": 0, "fusion_lon": 0.0, "bike_id": "687b4c2f362b4d79816d5812a3817a8a", "name": "687b4c2f362b4d79816d5812a3817a8a", "rental_uris": {"ios": "https://dc.lft.to/lastmile_qr_scan", "android": "https://dc.lft.to/lastmile_qr_scan"}}, {"is_disabled": 0, "fusion_lat": 0.0, "lat": 38.8934175, "type": "electric_scooter", "lon": -77.01202416666666, "is_reserved": 0, "fusion_lon": 0.0, "bike_id": "ad40535bea84ac3228c359fce482a7a4", "name": "ad40535bea84ac3228c359fce482a7a4", "rental_uris": {"ios": "https://dc.lft.to/lastmile_qr_scan", "android": "https://dc.lft.to/lastmile_qr_scan"}}, {"is_disabled": 0, "fusion_lat": 0.0, "lat": 38.96172466666667, "type": "electric_bike", "lon": -76.995931, "is_reserved": 0, "fusion_lon": 0.0, "bike_id": "e670c18a952e80761e183c5a013d06d0", "name": "e670c18a952e80761e183c5a013d06d0", "rental_uris": {"ios": "https://dc.lft.to/lastmile_qr_scan", "android": "https://dc.lft.to/lastmile_qr_scan"}}, {"is_disabled": 0, "fusion_lat": 0.0, "lat": 38.88888016666667, "type": "electric_bike", "lon": -77.07945883333333, "is_reserved": 0, "fusion_lon": 0.0, "bike_id": "6c647e29bc627f178d93b4a6dd9d5108", "name": "6c647e29bc627f178d93b4a6dd9d5108", "rental_uris": {"ios": "https://dc.lft.to/lastmile_qr_scan", "android": "https://dc.lft.to/lastmile_qr_scan"}}, {"is_disabled": 0, "fusion_lat": 0.0, "lat": 38.938367666666664, "type": "electric_scooter", "lon": -77.0245285, "is_reserved": 0, "fusion_lon": 0.0, "bike_id": "e80e05f0f70f18608b906db99e7ef6bd", "name": "e80e05f0f70f18608b906db99e7ef6bd", "rental_uris": {"ios": "https://dc.lft.to/lastmile_qr_scan", "android": "https://dc.lft.to/lastmile_qr_scan"}}, {"is_disabled": 0, "fusion_lat": 0.0, "lat": 38.89994983333333, "type": "electric_scooter", "lon": -76.99943866666666, "is_reserved": 0, "fusion_lon": 0.0, "bike_id": "5c568f4e69cec0e5ed9cbb7ef4c42d9f", "name": "5c568f4e69cec0e5ed9cbb7ef4c42d9f", "rental_uris": {"ios": "https://dc.lft.to/lastmile_qr_scan", "android": "https://dc.lft.to/lastmile_qr_scan"}}, {"is_disabled": 0, "fusion_lat": 0.0, "lat": 38.89371666666667, "type": "electric_scooter", "lon": -76.94999783333333, "is_reserved": 0, "fusion_lon": 0.0, "bike_id": "42fb00f751c6818eec491ac38c8525dc", "name": "42fb00f751c6818eec491ac38c8525dc", "rental_uris": {"ios": "https://dc.lft.to/lastmile_qr_scan", "android": "https://dc.lft.to/lastmile_qr_scan"}}, {"is_disabled": 0, "fusion_lat": 0.0, "lat": 38.92496583333333, "type": "electric_scooter", "lon": -77.008948, "is_reserved": 0, "fusion_lon": 0.0, "bike_id": "5d4dc402be2ad98a467f42065795b594", "name": "5d4dc402be2ad98a467f42065795b594", "rental_uris": {"ios": "https://dc.lft.to/lastmile_qr_scan", "android": "https://dc.lft.to/lastmile_qr_scan"}}, {"is_disabled": 0, "fusion_lat": 0.0, "lat": 38.8734925, "type": "electric_scooter", "lon": -76.99159583333334, "is_reserved": 0, "fusion_lon": 0.0, "bike_id": "0ec81869d7301d9de9c051377e7e0e1f", "name": "0ec81869d7301d9de9c051377e7e0e1f", "rental_uris": {"ios": "https://dc.lft.to/lastmile_qr_scan", "android": "https://dc.lft.to/lastmile_qr_scan"}}, {"is_disabled": 0, "fusion_lat": 0.0, "lat": 38.882252666666666, "type": "electric_scooter", "lon": -76.9266385, "is_reserved": 0, "fusion_lon": 0.0, "bike_id": "b9554566450191cb98b304bf79f32c5e", "name": "b9554566450191cb98b304bf79f32c5e", "rental_uris": {"ios": "https://dc.lft.to/lastmile_qr_scan", "android": "https://dc.lft.to/lastmile_qr_scan"}}, {"is_disabled": 0, "fusion_lat": 0.0, "lat": 38.83930933333333, "type": "electric_bike", "lon": -77.07899916666666, "is_reserved": 0, "fusion_lon": 0.0, "bike_id": "f959cbe6fb9fdebf668e52356945504c", "name": "f959cbe6fb9fdebf668e52356945504c", "rental_uris": {"ios": "https://dc.lft.to/lastmile_qr_scan", "android": "https://dc.lft.to/lastmile_qr_scan"}}, {"is_disabled": 0, "fusion_lat": 0.0, "lat": 38.92065016666667, "type": "electric_scooter", "lon": -77.02376633333333, "is_reserved": 0, "fusion_lon": 0.0, "bike_id": "9716cd895450b5024c606feb398a870b", "name": "9716cd895450b5024c606feb398a870b", "rental_uris": {"ios": "https://dc.lft.to/lastmile_qr_scan", "android": "https://dc.lft.to/lastmile_qr_scan"}}, {"is_disabled": 0, "fusion_lat": 0.0, "lat": 39.08854733333333, "type": "electric_bike", "lon": -77.17841166666666, "is_reserved": 0, "fusion_lon": 0.0, "bike_id": "614dc7f0108bac24b4c86b2fdcd0eeb2", "name": "614dc7f0108bac24b4c86b2fdcd0eeb2", "rental_uris": {"ios": "https://dc.lft.to/lastmile_qr_scan", "android": "https://dc.lft.to/lastmile_qr_scan"}}, {"is_disabled": 0, "fusion_lat": 0.0, "lat": 38.9154975, "type": "electric_scooter", "lon": -77.03841716666666, "is_reserved": 0, "fusion_lon": 0.0, "bike_id": "c6bc377b587ca9f9944d0a08fa11e77b", "name": "c6bc377b587ca9f9944d0a08fa11e77b", "rental_uris": {"ios": "https://dc.lft.to/lastmile_qr_scan", "android": "https://dc.lft.to/lastmile_qr_scan"}}, {"is_disabled": 0, "fusion_lat": 0.0, "lat": 38.892189333333334, "type": "electric_scooter", "lon": -77.02630516666666, "is_reserved": 0, "fusion_lon": 0.0, "bike_id": "ea13e83e9eafc21704e569b98a647878", "name": "ea13e83e9eafc21704e569b98a647878", "rental_uris": {"ios": "https://dc.lft.to/lastmile_qr_scan", "android": "https://dc.lft.to/lastmile_qr_scan"}}, {"is_disabled": 0, "fusion_lat": 0.0, "lat": 38.89813216666667, "type": "electric_bike", "lon": -76.9907355, "is_reserved": 0, "fusion_lon": 0.0, "bike_id": "c545e00aa7f7fe5e90884a01673f7aa8", "name": "c545e00aa7f7fe5e90884a01673f7aa8", "rental_uris": {"ios": "https://dc.lft.to/lastmile_qr_scan", "android": "https://dc.lft.to/lastmile_qr_scan"}}, {"is_disabled": 0, "fusion_lat": 0.0, "lat": 38.9221225, "type": "electric_scooter", "lon": -77.0330075, "is_reserved": 0, "fusion_lon": 0.0, "bike_id": "77f4b673ec3de7abc3d5111fecfff5fb", "name": "77f4b673ec3de7abc3d5111fecfff5fb", "rental_uris": {"ios": "https://dc.lft.to/lastmile_qr_scan", "android": "https://dc.lft.to/lastmile_qr_scan"}}, {"is_disabled": 0, "fusion_lat": 0.0, "lat": 38.9324385, "type": "electric_scooter", "lon": -77.03863283333334, "is_reserved": 0, "fusion_lon": 0.0, "bike_id": "a46b28052d5b816b0c01375fa590545e", "name": "a46b28052d5b816b0c01375fa590545e", "rental_uris": {"ios": "https://dc.lft.to/lastmile_qr_scan", "android": "https://dc.lft.to/lastmile_qr_scan"}}, {"is_disabled": 0, "fusion_lat": 0.0, "lat": 38.92853483333333, "type": "electric_bike", "lon": -77.22223516666666, "is_reserved": 0, "fusion_lon": 0.0, "bike_id": "babcb1e89faf913d340b717686dde572", "name": "babcb1e89faf913d340b717686dde572", "rental_uris": {"ios": "https://dc.lft.to/lastmile_qr_scan", "android": "https://dc.lft.to/lastmile_qr_scan"}}, {"is_disabled": 0, "fusion_lat": 0.0, "lat": 38.8872175, "type": "electric_scooter", "lon": -77.03190333333333, "is_reserved": 0, "fusion_lon": 0.0, "bike_id": "5c1f5c8760917ff51ca66fbbbaf2d1c2", "name": "5c1f5c8760917ff51ca66fbbbaf2d1c2", "rental_uris": {"ios": "https://dc.lft.to/lastmile_qr_scan", "android": "https://dc.lft.to/lastmile_qr_scan"}}, {"is_disabled": 0, "fusion_lat": 0.0, "lat": 38.9072565, "type": "electric_scooter", "lon": -77.04009183333334, "is_reserved": 0, "fusion_lon": 0.0, "bike_id": "1af69d8d7c21b616240b48075ecf2612", "name": "1af69d8d7c21b616240b48075ecf2612", "rental_uris": {"ios": "https://dc.lft.to/lastmile_qr_scan", "android": "https://dc.lft.to/lastmile_qr_scan"}}, {"is_disabled": 0, "fusion_lat": 0.0, "lat": 38.98365833333333, "type": "electric_scooter", "lon": -77.02646, "is_reserved": 0, "fusion_lon": 0.0, "bike_id": "74e0b6966301b9dcaeb21e86039326a8", "name": "74e0b6966301b9dcaeb21e86039326a8", "rental_uris": {"ios": "https://dc.lft.to/lastmile_qr_scan", "android": "https://dc.lft.to/lastmile_qr_scan"}}, {"is_disabled": 0, "fusion_lat": 0.0, "lat": 38.8985045, "type": "electric_bike", "lon": -76.931881, "is_reserved": 0, "fusion_lon": 0.0, "bike_id": "79c965599389b9b5d34fa790db70e6b5", "name": "79c965599389b9b5d34fa790db70e6b5", "rental_uris": {"ios": "https://dc.lft.to/lastmile_qr_scan", "android": "https://dc.lft.to/lastmile_qr_scan"}}, {"is_disabled": 0, "fusion_lat": 0.0, "lat": 38.90503866666667, "type": "electric_scooter", "lon": -77.04340133333334, "is_reserved": 0, "fusion_lon": 0.0, "bike_id": "0286f24b874fa5c2988cc8c316bd4a50", "name": "0286f24b874fa5c2988cc8c316bd4a50", "rental_uris": {"ios": "https://dc.lft.to/lastmile_qr_scan", "android": "https://dc.lft.to/lastmile_qr_scan"}}, {"is_disabled": 0, "fusion_lat": 0.0, "lat": 38.923165166666664, "type": "electric_scooter", "lon": -77.045226, "is_reserved": 0, "fusion_lon": 0.0, "bike_id": "55c59d4302277fa7b5c1fd3bc9642460", "name": "55c59d4302277fa7b5c1fd3bc9642460", "rental_uris": {"ios": "https://dc.lft.to/lastmile_qr_scan", "android": "https://dc.lft.to/lastmile_qr_scan"}}, {"is_disabled": 0, "fusion_lat": 0.0, "lat": 38.8659385, "type": "electric_bike", "lon": -76.932308, "is_reserved": 0, "fusion_lon": 0.0, "bike_id": "c8b4e800d42fa6c7c8b6649c92bb5546", "name": "c8b4e800d42fa6c7c8b6649c92bb5546", "rental_uris": {"ios": "https://dc.lft.to/lastmile_qr_scan", "android": "https://dc.lft.to/lastmile_qr_scan"}}, {"is_disabled": 0, "fusion_lat": 0.0, "lat": 38.9846335, "type": "electric_bike", "lon": -76.95525083333334, "is_reserved": 0, "fusion_lon": 0.0, "bike_id": "ce488a17b5bdc8a82e9f9b613a14c7ce", "name": "ce488a17b5bdc8a82e9f9b613a14c7ce", "rental_uris": {"ios": "https://dc.lft.to/lastmile_qr_scan", "android": "https://dc.lft.to/lastmile_qr_scan"}}, {"is_disabled": 0, "fusion_lat": 0.0, "lat": 38.902694833333335, "type": "electric_scooter", "lon": -77.040595, "is_reserved": 0, "fusion_lon": 0.0, "bike_id": "2f1ae14ef044534bf0be1909771e810b", "name": "2f1ae14ef044534bf0be1909771e810b", "rental_uris": {"ios": "https://dc.lft.to/lastmile_qr_scan", "android": "https://dc.lft.to/lastmile_qr_scan"}}, {"is_disabled": 0, "fusion_lat": 0.0, "lat": 38.98596216666667, "type": "electric_bike", "lon": -77.03754833333333, "is_reserved": 0, "fusion_lon": 0.0, "bike_id": "c9fdbb71878e583d20229bdb2c120fad", "name": "c9fdbb71878e583d20229bdb2c120fad", "rental_uris": {"ios": "https://dc.lft.to/lastmile_qr_scan", "android": "https://dc.lft.to/lastmile_qr_scan"}}, {"is_disabled": 0, "fusion_lat": 0.0, "lat": 38.94269166666667, "type": "electric_scooter", "lon": -77.032618, "is_reserved": 0, "fusion_lon": 0.0, "bike_id": "83c4df9a08194a74142ba9e2229134f0", "name": "83c4df9a08194a74142ba9e2229134f0", "rental_uris": {"ios": "https://dc.lft.to/lastmile_qr_scan", "android": "https://dc.lft.to/lastmile_qr_scan"}}, {"is_disabled": 0, "fusion_lat": 0.0, "lat": 38.908475833333334, "type": "electric_scooter", "lon": -77.0319855, "is_reserved": 0, "fusion_lon": 0.0, "bike_id": "54c4eca08e5f818bfd14405e9091375a", "name": "54c4eca08e5f818bfd14405e9091375a", "rental_uris": {"ios": "https://dc.lft.to/lastmile_qr_scan", "android": "https://dc.lft.to/lastmile_qr_scan"}}, {"is_disabled": 0, "fusion_lat": 0.0, "lat": 38.91107133333333, "type": "electric_scooter", "lon": -77.04503083333333, "is_reserved": 0, "fusion_lon": 0.0, "bike_id": "c3fc05938c91bf85aaf8a2a1deb0c376", "name": "c3fc05938c91bf85aaf8a2a1deb0c376", "rental_uris": {"ios": "https://dc.lft.to/lastmile_qr_scan", "android": "https://dc.lft.to/lastmile_qr_scan"}}, {"is_disabled": 0, "fusion_lat": 0.0, "lat": 38.9308045, "type": "electric_scooter", "lon": -77.02790333333333, "is_reserved": 0, "fusion_lon": 0.0, "bike_id": "fca8ce80e4b7166669bc03e4daaa1bda", "name": "fca8ce80e4b7166669bc03e4daaa1bda", "rental_uris": {"ios": "https://dc.lft.to/lastmile_qr_scan", "android": "https://dc.lft.to/lastmile_qr_scan"}}, {"is_disabled": 0, "fusion_lat": 0.0, "lat": 38.92345533333334, "type": "electric_scooter", "lon": -77.018999, "is_reserved": 0, "fusion_lon": 0.0, "bike_id": "16ec38428135efbdd526b01d5457cb44", "name": "16ec38428135efbdd526b01d5457cb44", "rental_uris": {"ios": "https://dc.lft.to/lastmile_qr_scan", "android": "https://dc.lft.to/lastmile_qr_scan"}}, {"is_disabled": 0, "fusion_lat": 0.0, "lat": 38.921241333333334, "type": "electric_scooter", "lon": -77.01789233333334, "is_reserved": 0, "fusion_lon": 0.0, "bike_id": "ad3716a4c5fe81907025d244c5e2ea49", "name": "ad3716a4c5fe81907025d244c5e2ea49", "rental_uris": {"ios": "https://dc.lft.to/lastmile_qr_scan", "android": "https://dc.lft.to/lastmile_qr_scan"}}, {"is_disabled": 0, "fusion_lat": 0.0, "lat": 38.921681666666665, "type": "electric_scooter", "lon": -77.05137133333334, "is_reserved": 0, "fusion_lon": 0.0, "bike_id": "999abc722b7faa0d827ffbcd093b3813", "name": "999abc722b7faa0d827ffbcd093b3813", "rental_uris": {"ios": "https://dc.lft.to/lastmile_qr_scan", "android": "https://dc.lft.to/lastmile_qr_scan"}}, {"is_disabled": 0, "fusion_lat": 0.0, "lat": 38.900483333333334, "type": "electric_scooter", "lon": -77.00755866666667, "is_reserved": 0, "fusion_lon": 0.0, "bike_id": "e8c59e0152fdd02697e12d326ef8426f", "name": "e8c59e0152fdd02697e12d326ef8426f", "rental_uris": {"ios": "https://dc.lft.to/lastmile_qr_scan", "android": "https://dc.lft.to/lastmile_qr_scan"}}, {"is_disabled": 0, "fusion_lat": 0.0, "lat": 38.894104166666665, "type": "electric_scooter", "lon": -76.95666416666667, "is_reserved": 0, "fusion_lon": 0.0, "bike_id": "0ad0c158ab1963f3025d5d1027365a24", "name": "0ad0c158ab1963f3025d5d1027365a24", "rental_uris": {"ios": "https://dc.lft.to/lastmile_qr_scan", "android": "https://dc.lft.to/lastmile_qr_scan"}}, {"is_disabled": 0, "fusion_lat": 0.0, "lat": 38.89356816666667, "type": "electric_scooter", "lon": -77.00333983333333, "is_reserved": 0, "fusion_lon": 0.0, "bike_id": "b0ead3ffdd241490650d6faed1e6e53b", "name": "b0ead3ffdd241490650d6faed1e6e53b", "rental_uris": {"ios": "https://dc.lft.to/lastmile_qr_scan", "android": "https://dc.lft.to/lastmile_qr_scan"}}, {"is_disabled": 0, "fusion_lat": 0.0, "lat": 38.89998683333334, "type": "electric_scooter", "lon": -76.99791766666667, "is_reserved": 0, "fusion_lon": 0.0, "bike_id": "2a7b3d1306e4514d666c134ceeb208a0", "name": "2a7b3d1306e4514d666c134ceeb208a0", "rental_uris": {"ios": "https://dc.lft.to/lastmile_qr_scan", "android": "https://dc.lft.to/lastmile_qr_scan"}}, {"is_disabled": 0, "fusion_lat": 0.0, "lat": 38.910974, "type": "electric_scooter", "lon": -77.03179266666666, "is_reserved": 0, "fusion_lon": 0.0, "bike_id": "8813c0773d39c174cd6508d7e3c4bac9", "name": "8813c0773d39c174cd6508d7e3c4bac9", "rental_uris": {"ios": "https://dc.lft.to/lastmile_qr_scan", "android": "https://dc.lft.to/lastmile_qr_scan"}}, {"is_disabled": 0, "fusion_lat": 0.0, "lat": 38.91547533333333, "type": "electric_scooter", "lon": -77.03845566666666, "is_reserved": 0, "fusion_lon": 0.0, "bike_id": "b366c4b827f680062b83b55ae8d907bf", "name": "b366c4b827f680062b83b55ae8d907bf", "rental_uris": {"ios": "https://dc.lft.to/lastmile_qr_scan", "android": "https://dc.lft.to/lastmile_qr_scan"}}, {"is_disabled": 0, "fusion_lat": 0.0, "lat": 38.852215666666666, "type": "electric_bike", "lon": -77.12958683333333, "is_reserved": 0, "fusion_lon": 0.0, "bike_id": "4822cb5ef1723ec3937bcc07819661bc", "name": "4822cb5ef1723ec3937bcc07819661bc", "rental_uris": {"ios": "https://dc.lft.to/lastmile_qr_scan", "android": "https://dc.lft.to/lastmile_qr_scan"}}, {"is_disabled": 0, "fusion_lat": 0.0, "lat": 38.89218983333333, "type": "electric_scooter", "lon": -77.02138016666666, "is_reserved": 0, "fusion_lon": 0.0, "bike_id": "1643274c479d549ff0f8ffb0d7cdfa16", "name": "1643274c479d549ff0f8ffb0d7cdfa16", "rental_uris": {"ios": "https://dc.lft.to/lastmile_qr_scan", "android": "https://dc.lft.to/lastmile_qr_scan"}}, {"is_disabled": 0, "fusion_lat": 0.0, "lat": 38.91586366666667, "type": "electric_scooter", "lon": -77.04355866666667, "is_reserved": 0, "fusion_lon": 0.0, "bike_id": "7b078644f89a3bc4362671cb07927a2b", "name": "7b078644f89a3bc4362671cb07927a2b", "rental_uris": {"ios": "https://dc.lft.to/lastmile_qr_scan", "android": "https://dc.lft.to/lastmile_qr_scan"}}, {"is_disabled": 0, "fusion_lat": 0.0, "lat": 38.908078333333336, "type": "electric_scooter", "lon": -77.04331216666667, "is_reserved": 0, "fusion_lon": 0.0, "bike_id": "2b5f1102ab6739bdbc611be0406dde9a", "name": "2b5f1102ab6739bdbc611be0406dde9a", "rental_uris": {"ios": "https://dc.lft.to/lastmile_qr_scan", "android": "https://dc.lft.to/lastmile_qr_scan"}}, {"is_disabled": 0, "fusion_lat": 0.0, "lat": 38.8996625, "type": "electric_scooter", "lon": -77.04724066666667, "is_reserved": 0, "fusion_lon": 0.0, "bike_id": "a2e43b2739a9b4e2f7de62072f5d4fd3", "name": "a2e43b2739a9b4e2f7de62072f5d4fd3", "rental_uris": {"ios": "https://dc.lft.to/lastmile_qr_scan", "android": "https://dc.lft.to/lastmile_qr_scan"}}, {"is_disabled": 0, "fusion_lat": 0.0, "lat": 38.924748, "type": "electric_scooter", "lon": -77.03780716666667, "is_reserved": 0, "fusion_lon": 0.0, "bike_id": "fa33c4901dbcd0f1820f4f76dc91bfea", "name": "fa33c4901dbcd0f1820f4f76dc91bfea", "rental_uris": {"ios": "https://dc.lft.to/lastmile_qr_scan", "android": "https://dc.lft.to/lastmile_qr_scan"}}, {"is_disabled": 0, "fusion_lat": 0.0, "lat": 38.90668766666667, "type": "electric_scooter", "lon": -76.9878565, "is_reserved": 0, "fusion_lon": 0.0, "bike_id": "2727aa25482cb5179c3259ab542df888", "name": "2727aa25482cb5179c3259ab542df888", "rental_uris": {"ios": "https://dc.lft.to/lastmile_qr_scan", "android": "https://dc.lft.to/lastmile_qr_scan"}}, {"is_disabled": 0, "fusion_lat": 0.0, "lat": 38.900105, "type": "electric_scooter", "lon": -77.05254033333334, "is_reserved": 0, "fusion_lon": 0.0, "bike_id": "be41ccec36cefdc3fd0a08039d4397b9", "name": "be41ccec36cefdc3fd0a08039d4397b9", "rental_uris": {"ios": "https://dc.lft.to/lastmile_qr_scan", "android": "https://dc.lft.to/lastmile_qr_scan"}}, {"is_disabled": 0, "fusion_lat": 0.0, "lat": 38.9064955, "type": "electric_scooter", "lon": -77.0424165, "is_reserved": 0, "fusion_lon": 0.0, "bike_id": "9f8de1cca0262710e62026fdf8f55e5a", "name": "9f8de1cca0262710e62026fdf8f55e5a", "rental_uris": {"ios": "https://dc.lft.to/lastmile_qr_scan", "android": "https://dc.lft.to/lastmile_qr_scan"}}, {"is_disabled": 0, "fusion_lat": 0.0, "lat": 38.89521166666667, "type": "electric_scooter", "lon": -77.048494, "is_reserved": 0, "fusion_lon": 0.0, "bike_id": "d647ce03fb48f004d67a7f8fab8a4cb9", "name": "d647ce03fb48f004d67a7f8fab8a4cb9", "rental_uris": {"ios": "https://dc.lft.to/lastmile_qr_scan", "android": "https://dc.lft.to/lastmile_qr_scan"}}, {"is_disabled": 0, "fusion_lat": 0.0, "lat": 38.905643833333336, "type": "electric_scooter", "lon": -76.9814525, "is_reserved": 0, "fusion_lon": 0.0, "bike_id": "f13c79fdc6bee60fdd27294d63c8f8f3", "name": "f13c79fdc6bee60fdd27294d63c8f8f3", "rental_uris": {"ios": "https://dc.lft.to/lastmile_qr_scan", "android": "https://dc.lft.to/lastmile_qr_scan"}}, {"is_disabled": 0, "fusion_lat": 0.0, "lat": 38.9588565, "type": "electric_bike", "lon": -76.9247995, "is_reserved": 0, "fusion_lon": 0.0, "bike_id": "effd827ed409dfe7cd84675129d48108", "name": "effd827ed409dfe7cd84675129d48108", "rental_uris": {"ios": "https://dc.lft.to/lastmile_qr_scan", "android": "https://dc.lft.to/lastmile_qr_scan"}}, {"is_disabled": 0, "fusion_lat": 0.0, "lat": 38.8927635, "type": "electric_scooter", "lon": -77.05033283333333, "is_reserved": 0, "fusion_lon": 0.0, "bike_id": "97ee22b113ee0cf1e45d75c0a8e1b1d7", "name": "97ee22b113ee0cf1e45d75c0a8e1b1d7", "rental_uris": {"ios": "https://dc.lft.to/lastmile_qr_scan", "android": "https://dc.lft.to/lastmile_qr_scan"}}, {"is_disabled": 0, "fusion_lat": 0.0, "lat": 38.890445666666665, "type": "electric_scooter", "lon": -76.94078533333334, "is_reserved": 0, "fusion_lon": 0.0, "bike_id": "be8c646d405f1ff5c0d0b45e95816e06", "name": "be8c646d405f1ff5c0d0b45e95816e06", "rental_uris": {"ios": "https://dc.lft.to/lastmile_qr_scan", "android": "https://dc.lft.to/lastmile_qr_scan"}}, {"is_disabled": 0, "fusion_lat": 0.0, "lat": 38.905633333333334, "type": "electric_scooter", "lon": -77.04345283333333, "is_reserved": 0, "fusion_lon": 0.0, "bike_id": "91fe728576fa68a9a1d65262f9ebfca7", "name": "91fe728576fa68a9a1d65262f9ebfca7", "rental_uris": {"ios": "https://dc.lft.to/lastmile_qr_scan", "android": "https://dc.lft.to/lastmile_qr_scan"}}, {"is_disabled": 0, "fusion_lat": 0.0, "lat": 38.892162666666664, "type": "electric_scooter", "lon": -77.04635316666666, "is_reserved": 0, "fusion_lon": 0.0, "bike_id": "dc38e3ba9e74ef2837de078cebe5c2b8", "name": "dc38e3ba9e74ef2837de078cebe5c2b8", "rental_uris": {"ios": "https://dc.lft.to/lastmile_qr_scan", "android": "https://dc.lft.to/lastmile_qr_scan"}}, {"is_disabled": 0, "fusion_lat": 0.0, "lat": 38.90651866666666, "type": "electric_scooter", "lon": -77.03459966666667, "is_reserved": 0, "fusion_lon": 0.0, "bike_id": "bf17b048873b292caceb9db7e1704522", "name": "bf17b048873b292caceb9db7e1704522", "rental_uris": {"ios": "https://dc.lft.to/lastmile_qr_scan", "android": "https://dc.lft.to/lastmile_qr_scan"}}, {"is_disabled": 0, "fusion_lat": 0.0, "lat": 38.87549633333333, "type": "electric_scooter", "lon": -76.964891, "is_reserved": 0, "fusion_lon": 0.0, "bike_id": "23fd05557d24d2611b4b547bc0b53c7b", "name": "23fd05557d24d2611b4b547bc0b53c7b", "rental_uris": {"ios": "https://dc.lft.to/lastmile_qr_scan", "android": "https://dc.lft.to/lastmile_qr_scan"}}, {"is_disabled": 0, "fusion_lat": 0.0, "lat": 38.9304205, "type": "electric_scooter", "lon": -77.03220066666667, "is_reserved": 0, "fusion_lon": 0.0, "bike_id": "df3e0afc541700404a938b3eaa54b6c3", "name": "df3e0afc541700404a938b3eaa54b6c3", "rental_uris": {"ios": "https://dc.lft.to/lastmile_qr_scan", "android": "https://dc.lft.to/lastmile_qr_scan"}}, {"is_disabled": 0, "fusion_lat": 0.0, "lat": 38.906129, "type": "electric_scooter", "lon": -77.0399245, "is_reserved": 0, "fusion_lon": 0.0, "bike_id": "5231897952b01b7456034d024e5bf72e", "name": "5231897952b01b7456034d024e5bf72e", "rental_uris": {"ios": "https://dc.lft.to/lastmile_qr_scan", "android": "https://dc.lft.to/lastmile_qr_scan"}}, {"is_disabled": 0, "fusion_lat": 0.0, "lat": 38.9248015, "type": "electric_scooter", "lon": -77.02721233333334, "is_reserved": 0, "fusion_lon": 0.0, "bike_id": "487c69c6d7552ae64e42f727e3e4e86e", "name": "487c69c6d7552ae64e42f727e3e4e86e", "rental_uris": {"ios": "https://dc.lft.to/lastmile_qr_scan", "android": "https://dc.lft.to/lastmile_qr_scan"}}, {"is_disabled": 0, "fusion_lat": 0.0, "lat": 38.90512316666667, "type": "electric_scooter", "lon": -77.0687455, "is_reserved": 0, "fusion_lon": 0.0, "bike_id": "6643bd349191d3664383bf346b3eb1f4", "name": "6643bd349191d3664383bf346b3eb1f4", "rental_uris": {"ios": "https://dc.lft.to/lastmile_qr_scan", "android": "https://dc.lft.to/lastmile_qr_scan"}}, {"is_disabled": 0, "fusion_lat": 0.0, "lat": 38.924806333333336, "type": "electric_scooter", "lon": -77.025475, "is_reserved": 0, "fusion_lon": 0.0, "bike_id": "3f9a8f42669dd8c4d507ce7f12b5ecc6", "name": "3f9a8f42669dd8c4d507ce7f12b5ecc6", "rental_uris": {"ios": "https://dc.lft.to/lastmile_qr_scan", "android": "https://dc.lft.to/lastmile_qr_scan"}}, {"is_disabled": 0, "fusion_lat": 0.0, "lat": 38.87835166666667, "type": "electric_scooter", "lon": -77.022692, "is_reserved": 0, "fusion_lon": 0.0, "bike_id": "360125f08b527a0574d60edc3a47649d", "name": "360125f08b527a0574d60edc3a47649d", "rental_uris": {"ios": "https://dc.lft.to/lastmile_qr_scan", "android": "https://dc.lft.to/lastmile_qr_scan"}}, {"is_disabled": 0, "fusion_lat": 0.0, "lat": 38.919868666666666, "type": "electric_scooter", "lon": -77.04172116666666, "is_reserved": 0, "fusion_lon": 0.0, "bike_id": "13902266b9073e8e871dadba21fff3cb", "name": "13902266b9073e8e871dadba21fff3cb", "rental_uris": {"ios": "https://dc.lft.to/lastmile_qr_scan", "android": "https://dc.lft.to/lastmile_qr_scan"}}, {"is_disabled": 0, "fusion_lat": 0.0, "lat": 38.907347666666666, "type": "electric_scooter", "lon": -77.04369566666666, "is_reserved": 0, "fusion_lon": 0.0, "bike_id": "701ae4df8521196ad0e5a0c5e9b8edbe", "name": "701ae4df8521196ad0e5a0c5e9b8edbe", "rental_uris": {"ios": "https://dc.lft.to/lastmile_qr_scan", "android": "https://dc.lft.to/lastmile_qr_scan"}}, {"is_disabled": 0, "fusion_lat": 0.0, "lat": 38.89881533333333, "type": "electric_scooter", "lon": -76.931771, "is_reserved": 0, "fusion_lon": 0.0, "bike_id": "a03998c2e429a5e382440ff0caab5acd", "name": "a03998c2e429a5e382440ff0caab5acd", "rental_uris": {"ios": "https://dc.lft.to/lastmile_qr_scan", "android": "https://dc.lft.to/lastmile_qr_scan"}}, {"is_disabled": 0, "fusion_lat": 0.0, "lat": 38.92755433333333, "type": "electric_scooter", "lon": -77.00595583333333, "is_reserved": 0, "fusion_lon": 0.0, "bike_id": "997ab0edefa6d1d2629602ada23b5edc", "name": "997ab0edefa6d1d2629602ada23b5edc", "rental_uris": {"ios": "https://dc.lft.to/lastmile_qr_scan", "android": "https://dc.lft.to/lastmile_qr_scan"}}, {"is_disabled": 0, "fusion_lat": 0.0, "lat": 38.934974, "type": "electric_scooter", "lon": -77.0725535, "is_reserved": 0, "fusion_lon": 0.0, "bike_id": "1583048cb2f8864bab0564d010c9129b", "name": "1583048cb2f8864bab0564d010c9129b", "rental_uris": {"ios": "https://dc.lft.to/lastmile_qr_scan", "android": "https://dc.lft.to/lastmile_qr_scan"}}, {"is_disabled": 0, "fusion_lat": 0.0, "lat": 38.90105466666667, "type": "electric_scooter", "lon": -77.04373766666667, "is_reserved": 0, "fusion_lon": 0.0, "bike_id": "4670fbfa44899364e37d9b10429833fb", "name": "4670fbfa44899364e37d9b10429833fb", "rental_uris": {"ios": "https://dc.lft.to/lastmile_qr_scan", "android": "https://dc.lft.to/lastmile_qr_scan"}}, {"is_disabled": 0, "fusion_lat": 0.0, "lat": 38.903732, "type": "electric_scooter", "lon": -77.04482, "is_reserved": 0, "fusion_lon": 0.0, "bike_id": "43c93ab1f99e38ce6c8afd1c0ad5c69b", "name": "43c93ab1f99e38ce6c8afd1c0ad5c69b", "rental_uris": {"ios": "https://dc.lft.to/lastmile_qr_scan", "android": "https://dc.lft.to/lastmile_qr_scan"}}, {"is_disabled": 0, "fusion_lat": 0.0, "lat": 38.927436666666665, "type": "electric_scooter", "lon": -77.02536766666667, "is_reserved": 0, "fusion_lon": 0.0, "bike_id": "3f860c32b4a796e6b882fa360c0aac6e", "name": "3f860c32b4a796e6b882fa360c0aac6e", "rental_uris": {"ios": "https://dc.lft.to/lastmile_qr_scan", "android": "https://dc.lft.to/lastmile_qr_scan"}}, {"is_disabled": 0, "fusion_lat": 0.0, "lat": 38.912425666666664, "type": "electric_scooter", "lon": -77.01624083333333, "is_reserved": 0, "fusion_lon": 0.0, "bike_id": "8614b6aa19e0e2057840526ba445b32e", "name": "8614b6aa19e0e2057840526ba445b32e", "rental_uris": {"ios": "https://dc.lft.to/lastmile_qr_scan", "android": "https://dc.lft.to/lastmile_qr_scan"}}, {"is_disabled": 0, "fusion_lat": 0.0, "lat": 38.89819333333333, "type": "electric_scooter", "lon": -77.03327183333333, "is_reserved": 0, "fusion_lon": 0.0, "bike_id": "d6bb9d0f49e1b19345b38724e00dccfa", "name": "d6bb9d0f49e1b19345b38724e00dccfa", "rental_uris": {"ios": "https://dc.lft.to/lastmile_qr_scan", "android": "https://dc.lft.to/lastmile_qr_scan"}}, {"is_disabled": 0, "fusion_lat": 0.0, "lat": 38.933087666666665, "type": "electric_scooter", "lon": -77.029306, "is_reserved": 0, "fusion_lon": 0.0, "bike_id": "42d74327baeceda5d0ee84bb94fd376f", "name": "42d74327baeceda5d0ee84bb94fd376f", "rental_uris": {"ios": "https://dc.lft.to/lastmile_qr_scan", "android": "https://dc.lft.to/lastmile_qr_scan"}}, {"is_disabled": 0, "fusion_lat": 0.0, "lat": 38.8921615, "type": "electric_scooter", "lon": -77.026313, "is_reserved": 0, "fusion_lon": 0.0, "bike_id": "c2649737065ced1d005b885b688ff1a1", "name": "c2649737065ced1d005b885b688ff1a1", "rental_uris": {"ios": "https://dc.lft.to/lastmile_qr_scan", "android": "https://dc.lft.to/lastmile_qr_scan"}}, {"is_disabled": 0, "fusion_lat": 0.0, "lat": 38.89711366666667, "type": "electric_scooter", "lon": -77.03126433333334, "is_reserved": 0, "fusion_lon": 0.0, "bike_id": "39914b08df2e5d52ad839877933dd001", "name": "39914b08df2e5d52ad839877933dd001", "rental_uris": {"ios": "https://dc.lft.to/lastmile_qr_scan", "android": "https://dc.lft.to/lastmile_qr_scan"}}, {"is_disabled": 0, "fusion_lat": 0.0, "lat": 38.935715333333334, "type": "electric_scooter", "lon": -77.03264, "is_reserved": 0, "fusion_lon": 0.0, "bike_id": "ea8f9388a45f384a1d5a0d9133585040", "name": "ea8f9388a45f384a1d5a0d9133585040", "rental_uris": {"ios": "https://dc.lft.to/lastmile_qr_scan", "android": "https://dc.lft.to/lastmile_qr_scan"}}, {"is_disabled": 0, "fusion_lat": 0.0, "lat": 38.959561666666666, "type": "electric_bike", "lon": -77.10092183333333, "is_reserved": 0, "fusion_lon": 0.0, "bike_id": "2ad56aa3e0a44d128c3e6788dbc7c25c", "name": "2ad56aa3e0a44d128c3e6788dbc7c25c", "rental_uris": {"ios": "https://dc.lft.to/lastmile_qr_scan", "android": "https://dc.lft.to/lastmile_qr_scan"}}, {"is_disabled": 0, "fusion_lat": 0.0, "lat": 38.885048833333336, "type": "electric_scooter", "lon": -77.00561033333334, "is_reserved": 0, "fusion_lon": 0.0, "bike_id": "260ff81a698ffcd4f38b3c86016a294a", "name": "260ff81a698ffcd4f38b3c86016a294a", "rental_uris": {"ios": "https://dc.lft.to/lastmile_qr_scan", "android": "https://dc.lft.to/lastmile_qr_scan"}}, {"is_disabled": 0, "fusion_lat": 0.0, "lat": 38.9004175, "type": "electric_scooter", "lon": -76.98833816666667, "is_reserved": 0, "fusion_lon": 0.0, "bike_id": "c1de2f9ebe76e4ce5d461e34d0c2892f", "name": "c1de2f9ebe76e4ce5d461e34d0c2892f", "rental_uris": {"ios": "https://dc.lft.to/lastmile_qr_scan", "android": "https://dc.lft.to/lastmile_qr_scan"}}, {"is_disabled": 0, "fusion_lat": 0.0, "lat": 38.961439666666664, "type": "electric_scooter", "lon": -77.02781666666667, "is_reserved": 0, "fusion_lon": 0.0, "bike_id": "688a22fb262eba9a45005d352f824a18", "name": "688a22fb262eba9a45005d352f824a18", "rental_uris": {"ios": "https://dc.lft.to/lastmile_qr_scan", "android": "https://dc.lft.to/lastmile_qr_scan"}}, {"is_disabled": 0, "fusion_lat": 0.0, "lat": 38.909736, "type": "electric_scooter", "lon": -77.034242, "is_reserved": 0, "fusion_lon": 0.0, "bike_id": "c24d3d43ae49a207c350dff9f31fcf91", "name": "c24d3d43ae49a207c350dff9f31fcf91", "rental_uris": {"ios": "https://dc.lft.to/lastmile_qr_scan", "android": "https://dc.lft.to/lastmile_qr_scan"}}, {"is_disabled": 0, "fusion_lat": 0.0, "lat": 38.91553183333333, "type": "electric_scooter", "lon": -77.03373516666667, "is_reserved": 0, "fusion_lon": 0.0, "bike_id": "86576630360f6c9fd0525e2f561a0074", "name": "86576630360f6c9fd0525e2f561a0074", "rental_uris": {"ios": "https://dc.lft.to/lastmile_qr_scan", "android": "https://dc.lft.to/lastmile_qr_scan"}}, {"is_disabled": 0, "fusion_lat": 0.0, "lat": 38.926534, "type": "electric_scooter", "lon": -77.0371125, "is_reserved": 0, "fusion_lon": 0.0, "bike_id": "5bb4546deb16b47da6c429b79cc99307", "name": "5bb4546deb16b47da6c429b79cc99307", "rental_uris": {"ios": "https://dc.lft.to/lastmile_qr_scan", "android": "https://dc.lft.to/lastmile_qr_scan"}}, {"is_disabled": 0, "fusion_lat": 0.0, "lat": 38.88440666666666, "type": "electric_scooter", "lon": -77.030388, "is_reserved": 0, "fusion_lon": 0.0, "bike_id": "584d65a3f5d34b026752768f05c9478f", "name": "584d65a3f5d34b026752768f05c9478f", "rental_uris": {"ios": "https://dc.lft.to/lastmile_qr_scan", "android": "https://dc.lft.to/lastmile_qr_scan"}}, {"is_disabled": 0, "fusion_lat": 0.0, "lat": 38.89742066666667, "type": "electric_scooter", "lon": -77.000318, "is_reserved": 0, "fusion_lon": 0.0, "bike_id": "ffbd40a96ad6718a26084b33878c354b", "name": "ffbd40a96ad6718a26084b33878c354b", "rental_uris": {"ios": "https://dc.lft.to/lastmile_qr_scan", "android": "https://dc.lft.to/lastmile_qr_scan"}}, {"is_disabled": 0, "fusion_lat": 0.0, "lat": 38.89217633333333, "type": "electric_scooter", "lon": -77.02221083333333, "is_reserved": 0, "fusion_lon": 0.0, "bike_id": "ed164b448346338c4a9b02134424d536", "name": "ed164b448346338c4a9b02134424d536", "rental_uris": {"ios": "https://dc.lft.to/lastmile_qr_scan", "android": "https://dc.lft.to/lastmile_qr_scan"}}, {"is_disabled": 0, "fusion_lat": 0.0, "lat": 38.884758166666664, "type": "electric_scooter", "lon": -77.02194483333334, "is_reserved": 0, "fusion_lon": 0.0, "bike_id": "4d8a6a744de92e5857ada819e3081911", "name": "4d8a6a744de92e5857ada819e3081911", "rental_uris": {"ios": "https://dc.lft.to/lastmile_qr_scan", "android": "https://dc.lft.to/lastmile_qr_scan"}}, {"is_disabled": 0, "fusion_lat": 0.0, "lat": 38.9055725, "type": "electric_scooter", "lon": -77.05695666666666, "is_reserved": 0, "fusion_lon": 0.0, "bike_id": "eadd0486f3b8ad009e59d9aca417b8d2", "name": "eadd0486f3b8ad009e59d9aca417b8d2", "rental_uris": {"ios": "https://dc.lft.to/lastmile_qr_scan", "android": "https://dc.lft.to/lastmile_qr_scan"}}, {"is_disabled": 0, "fusion_lat": 0.0, "lat": 38.892133666666666, "type": "electric_scooter", "lon": -77.0005115, "is_reserved": 0, "fusion_lon": 0.0, "bike_id": "a70138070134b96dfe2c677a743e354b", "name": "a70138070134b96dfe2c677a743e354b", "rental_uris": {"ios": "https://dc.lft.to/lastmile_qr_scan", "android": "https://dc.lft.to/lastmile_qr_scan"}}, {"is_disabled": 0, "fusion_lat": 0.0, "lat": 38.89220816666667, "type": "electric_scooter", "lon": -77.02634866666666, "is_reserved": 0, "fusion_lon": 0.0, "bike_id": "69c6904e1fc1b56bea82509d57f80d2d", "name": "69c6904e1fc1b56bea82509d57f80d2d", "rental_uris": {"ios": "https://dc.lft.to/lastmile_qr_scan", "android": "https://dc.lft.to/lastmile_qr_scan"}}, {"is_disabled": 0, "fusion_lat": 0.0, "lat": 38.907791, "type": "electric_scooter", "lon": -77.0319925, "is_reserved": 0, "fusion_lon": 0.0, "bike_id": "ec120f5b512f69a54ed2381132fd8254", "name": "ec120f5b512f69a54ed2381132fd8254", "rental_uris": {"ios": "https://dc.lft.to/lastmile_qr_scan", "android": "https://dc.lft.to/lastmile_qr_scan"}}, {"is_disabled": 0, "fusion_lat": 0.0, "lat": 38.8446225, "type": "electric_scooter", "lon": -76.998642, "is_reserved": 0, "fusion_lon": 0.0, "bike_id": "703da355b36912fea70814efe1be6bcc", "name": "703da355b36912fea70814efe1be6bcc", "rental_uris": {"ios": "https://dc.lft.to/lastmile_qr_scan", "android": "https://dc.lft.to/lastmile_qr_scan"}}, {"is_disabled": 0, "fusion_lat": 0.0, "lat": 38.9047505, "type": "electric_scooter", "lon": -77.04873683333334, "is_reserved": 0, "fusion_lon": 0.0, "bike_id": "92066c1a04065b770c97216a4865e052", "name": "92066c1a04065b770c97216a4865e052", "rental_uris": {"ios": "https://dc.lft.to/lastmile_qr_scan", "android": "https://dc.lft.to/lastmile_qr_scan"}}, {"is_disabled": 0, "fusion_lat": 0.0, "lat": 38.912696833333335, "type": "electric_scooter", "lon": -77.03141233333334, "is_reserved": 0, "fusion_lon": 0.0, "bike_id": "05682bf5dcd9b6e805fff9827d497314", "name": "05682bf5dcd9b6e805fff9827d497314", "rental_uris": {"ios": "https://dc.lft.to/lastmile_qr_scan", "android": "https://dc.lft.to/lastmile_qr_scan"}}, {"is_disabled": 0, "fusion_lat": 0.0, "lat": 38.86059483333333, "type": "electric_bike", "lon": -77.05642083333333, "is_reserved": 0, "fusion_lon": 0.0, "bike_id": "0f1eb62889e0e3ea749c013a6d11a058", "name": "0f1eb62889e0e3ea749c013a6d11a058", "rental_uris": {"ios": "https://dc.lft.to/lastmile_qr_scan", "android": "https://dc.lft.to/lastmile_qr_scan"}}, {"is_disabled": 0, "fusion_lat": 0.0, "lat": 38.916932333333335, "type": "electric_scooter", "lon": -77.04601833333334, "is_reserved": 0, "fusion_lon": 0.0, "bike_id": "3555d78a3f59491dbe4029eee107cffc", "name": "3555d78a3f59491dbe4029eee107cffc", "rental_uris": {"ios": "https://dc.lft.to/lastmile_qr_scan", "android": "https://dc.lft.to/lastmile_qr_scan"}}, {"is_disabled": 0, "fusion_lat": 0.0, "lat": 38.93190216666667, "type": "electric_scooter", "lon": -77.0385245, "is_reserved": 0, "fusion_lon": 0.0, "bike_id": "ad4dd78ca35b026ff2162a58938f4dd9", "name": "ad4dd78ca35b026ff2162a58938f4dd9", "rental_uris": {"ios": "https://dc.lft.to/lastmile_qr_scan", "android": "https://dc.lft.to/lastmile_qr_scan"}}, {"is_disabled": 0, "fusion_lat": 0.0, "lat": 38.85955766666667, "type": "electric_scooter", "lon": -76.99100933333334, "is_reserved": 0, "fusion_lon": 0.0, "bike_id": "58c3e039fb600a909d6addf407023e2d", "name": "58c3e039fb600a909d6addf407023e2d", "rental_uris": {"ios": "https://dc.lft.to/lastmile_qr_scan", "android": "https://dc.lft.to/lastmile_qr_scan"}}, {"is_disabled": 0, "fusion_lat": 0.0, "lat": 38.892229666666665, "type": "electric_scooter", "lon": -77.04655183333334, "is_reserved": 0, "fusion_lon": 0.0, "bike_id": "c6cea7e3cbcaf7e34a3c18264c8ea852", "name": "c6cea7e3cbcaf7e34a3c18264c8ea852", "rental_uris": {"ios": "https://dc.lft.to/lastmile_qr_scan", "android": "https://dc.lft.to/lastmile_qr_scan"}}, {"is_disabled": 0, "fusion_lat": 0.0, "lat": 38.91804316666666, "type": "electric_scooter", "lon": -77.03303833333334, "is_reserved": 0, "fusion_lon": 0.0, "bike_id": "85e38b6d1a897b868d9dae06d2bf7a70", "name": "85e38b6d1a897b868d9dae06d2bf7a70", "rental_uris": {"ios": "https://dc.lft.to/lastmile_qr_scan", "android": "https://dc.lft.to/lastmile_qr_scan"}}, {"is_disabled": 0, "fusion_lat": 0.0, "lat": 38.939739, "type": "electric_scooter", "lon": -77.028929, "is_reserved": 0, "fusion_lon": 0.0, "bike_id": "a44c0a14276cf5a361ece6077d0439b4", "name": "a44c0a14276cf5a361ece6077d0439b4", "rental_uris": {"ios": "https://dc.lft.to/lastmile_qr_scan", "android": "https://dc.lft.to/lastmile_qr_scan"}}, {"is_disabled": 0, "fusion_lat": 0.0, "lat": 38.924765, "type": "electric_scooter", "lon": -77.02632383333334, "is_reserved": 0, "fusion_lon": 0.0, "bike_id": "3681b272a2c1e60e8adc07d0d2d1064d", "name": "3681b272a2c1e60e8adc07d0d2d1064d", "rental_uris": {"ios": "https://dc.lft.to/lastmile_qr_scan", "android": "https://dc.lft.to/lastmile_qr_scan"}}, {"is_disabled": 0, "fusion_lat": 0.0, "lat": 38.912982166666666, "type": "electric_scooter", "lon": -77.01964966666667, "is_reserved": 0, "fusion_lon": 0.0, "bike_id": "02404b3d6d8b1cbfe3db615bb8ebfd0c", "name": "02404b3d6d8b1cbfe3db615bb8ebfd0c", "rental_uris": {"ios": "https://dc.lft.to/lastmile_qr_scan", "android": "https://dc.lft.to/lastmile_qr_scan"}}, {"is_disabled": 0, "fusion_lat": 0.0, "lat": 38.91973133333333, "type": "electric_bike", "lon": -77.07015483333333, "is_reserved": 0, "fusion_lon": 0.0, "bike_id": "a3a6ef187b3dfb7de4c583ac433802cc", "name": "a3a6ef187b3dfb7de4c583ac433802cc", "rental_uris": {"ios": "https://dc.lft.to/lastmile_qr_scan", "android": "https://dc.lft.to/lastmile_qr_scan"}}, {"is_disabled": 0, "fusion_lat": 0.0, "lat": 38.917202833333334, "type": "electric_scooter", "lon": -77.03838383333333, "is_reserved": 0, "fusion_lon": 0.0, "bike_id": "1641e452424eaf5c668e66d8e3f5678c", "name": "1641e452424eaf5c668e66d8e3f5678c", "rental_uris": {"ios": "https://dc.lft.to/lastmile_qr_scan", "android": "https://dc.lft.to/lastmile_qr_scan"}}, {"is_disabled": 0, "fusion_lat": 0.0, "lat": 38.88742833333333, "type": "electric_scooter", "lon": -77.02574616666666, "is_reserved": 0, "fusion_lon": 0.0, "bike_id": "25879d069a9b52f0c3b62de557cfffa4", "name": "25879d069a9b52f0c3b62de557cfffa4", "rental_uris": {"ios": "https://dc.lft.to/lastmile_qr_scan", "android": "https://dc.lft.to/lastmile_qr_scan"}}, {"is_disabled": 0, "fusion_lat": 0.0, "lat": 38.9032605, "type": "electric_scooter", "lon": -77.05169666666667, "is_reserved": 0, "fusion_lon": 0.0, "bike_id": "08843131c44afb173a69be59099a6392", "name": "08843131c44afb173a69be59099a6392", "rental_uris": {"ios": "https://dc.lft.to/lastmile_qr_scan", "android": "https://dc.lft.to/lastmile_qr_scan"}}, {"is_disabled": 0, "fusion_lat": 0.0, "lat": 39.01592733333333, "type": "electric_bike", "lon": -77.04431333333333, "is_reserved": 0, "fusion_lon": 0.0, "bike_id": "f544da93a9db8e6f481d1cee8431e6dc", "name": "f544da93a9db8e6f481d1cee8431e6dc", "rental_uris": {"ios": "https://dc.lft.to/lastmile_qr_scan", "android": "https://dc.lft.to/lastmile_qr_scan"}}, {"is_disabled": 0, "fusion_lat": 0.0, "lat": 38.90393733333333, "type": "electric_scooter", "lon": -77.03448883333333, "is_reserved": 0, "fusion_lon": 0.0, "bike_id": "3a1ffb01aea3f381ac144b8fb160ec9b", "name": "3a1ffb01aea3f381ac144b8fb160ec9b", "rental_uris": {"ios": "https://dc.lft.to/lastmile_qr_scan", "android": "https://dc.lft.to/lastmile_qr_scan"}}, {"is_disabled": 0, "fusion_lat": 0.0, "lat": 38.90518616666667, "type": "electric_scooter", "lon": -77.06380183333333, "is_reserved": 0, "fusion_lon": 0.0, "bike_id": "6b9975512b1017bb7583edb162d1fc16", "name": "6b9975512b1017bb7583edb162d1fc16", "rental_uris": {"ios": "https://dc.lft.to/lastmile_qr_scan", "android": "https://dc.lft.to/lastmile_qr_scan"}}, {"is_disabled": 0, "fusion_lat": 0.0, "lat": 38.907277, "type": "electric_scooter", "lon": -77.01068733333334, "is_reserved": 0, "fusion_lon": 0.0, "bike_id": "c71dbffc3c743a6ff653f1803491656f", "name": "c71dbffc3c743a6ff653f1803491656f", "rental_uris": {"ios": "https://dc.lft.to/lastmile_qr_scan", "android": "https://dc.lft.to/lastmile_qr_scan"}}, {"is_disabled": 0, "fusion_lat": 0.0, "lat": 38.89121933333333, "type": "electric_scooter", "lon": -76.940871, "is_reserved": 0, "fusion_lon": 0.0, "bike_id": "1bede7b3364fdc4675577b993048b830", "name": "1bede7b3364fdc4675577b993048b830", "rental_uris": {"ios": "https://dc.lft.to/lastmile_qr_scan", "android": "https://dc.lft.to/lastmile_qr_scan"}}, {"is_disabled": 0, "fusion_lat": 0.0, "lat": 38.903948166666666, "type": "electric_scooter", "lon": -77.063761, "is_reserved": 0, "fusion_lon": 0.0, "bike_id": "7f68d80fb5c7ed5b28b6ef516e9745bc", "name": "7f68d80fb5c7ed5b28b6ef516e9745bc", "rental_uris": {"ios": "https://dc.lft.to/lastmile_qr_scan", "android": "https://dc.lft.to/lastmile_qr_scan"}}, {"is_disabled": 0, "fusion_lat": 0.0, "lat": 38.8812775, "type": "electric_scooter", "lon": -77.0266815, "is_reserved": 0, "fusion_lon": 0.0, "bike_id": "11acff8ec8cbd8f72424072fb4514d4c", "name": "11acff8ec8cbd8f72424072fb4514d4c", "rental_uris": {"ios": "https://dc.lft.to/lastmile_qr_scan", "android": "https://dc.lft.to/lastmile_qr_scan"}}, {"is_disabled": 0, "fusion_lat": 0.0, "lat": 38.80745483333333, "type": "electric_bike", "lon": -77.09430616666667, "is_reserved": 0, "fusion_lon": 0.0, "bike_id": "af7894deb67750dc052c46c87818ad1a", "name": "af7894deb67750dc052c46c87818ad1a", "rental_uris": {"ios": "https://dc.lft.to/lastmile_qr_scan", "android": "https://dc.lft.to/lastmile_qr_scan"}}, {"is_disabled": 0, "fusion_lat": 0.0, "lat": 38.89876733333333, "type": "electric_scooter", "lon": -76.93164083333333, "is_reserved": 0, "fusion_lon": 0.0, "bike_id": "e181565d5065f0790c61294a09214a70", "name": "e181565d5065f0790c61294a09214a70", "rental_uris": {"ios": "https://dc.lft.to/lastmile_qr_scan", "android": "https://dc.lft.to/lastmile_qr_scan"}}, {"is_disabled": 0, "fusion_lat": 0.0, "lat": 38.932416333333336, "type": "electric_scooter", "lon": -77.03071016666667, "is_reserved": 0, "fusion_lon": 0.0, "bike_id": "c35918d2a7c75d815316216cfe835a9e", "name": "c35918d2a7c75d815316216cfe835a9e", "rental_uris": {"ios": "https://dc.lft.to/lastmile_qr_scan", "android": "https://dc.lft.to/lastmile_qr_scan"}}, {"is_disabled": 0, "fusion_lat": 0.0, "lat": 38.934212, "type": "electric_scooter", "lon": -77.04414116666666, "is_reserved": 0, "fusion_lon": 0.0, "bike_id": "2b4089fd2c16ccb85909ce83c5a2b28d", "name": "2b4089fd2c16ccb85909ce83c5a2b28d", "rental_uris": {"ios": "https://dc.lft.to/lastmile_qr_scan", "android": "https://dc.lft.to/lastmile_qr_scan"}}, {"is_disabled": 0, "fusion_lat": 0.0, "lat": 38.919667833333335, "type": "electric_scooter", "lon": -77.04153066666667, "is_reserved": 0, "fusion_lon": 0.0, "bike_id": "c5163c04bf7f94617ad9d97c6ee3f3d2", "name": "c5163c04bf7f94617ad9d97c6ee3f3d2", "rental_uris": {"ios": "https://dc.lft.to/lastmile_qr_scan", "android": "https://dc.lft.to/lastmile_qr_scan"}}, {"is_disabled": 0, "fusion_lat": 0.0, "lat": 38.92454033333333, "type": "electric_scooter", "lon": -77.03277183333333, "is_reserved": 0, "fusion_lon": 0.0, "bike_id": "62fae01403a81fec432529f086906ddd", "name": "62fae01403a81fec432529f086906ddd", "rental_uris": {"ios": "https://dc.lft.to/lastmile_qr_scan", "android": "https://dc.lft.to/lastmile_qr_scan"}}, {"is_disabled": 0, "fusion_lat": 0.0, "lat": 38.9027745, "type": "electric_scooter", "lon": -77.03435016666667, "is_reserved": 0, "fusion_lon": 0.0, "bike_id": "bbad9f1f5e558df53081162afa727551", "name": "bbad9f1f5e558df53081162afa727551", "rental_uris": {"ios": "https://dc.lft.to/lastmile_qr_scan", "android": "https://dc.lft.to/lastmile_qr_scan"}}, {"is_disabled": 0, "fusion_lat": 0.0, "lat": 38.902691, "type": "electric_scooter", "lon": -77.04608016666667, "is_reserved": 0, "fusion_lon": 0.0, "bike_id": "85d3417573adf05541c2c061c8a0fdf3", "name": "85d3417573adf05541c2c061c8a0fdf3", "rental_uris": {"ios": "https://dc.lft.to/lastmile_qr_scan", "android": "https://dc.lft.to/lastmile_qr_scan"}}, {"is_disabled": 0, "fusion_lat": 0.0, "lat": 38.92151033333333, "type": "electric_scooter", "lon": -77.024267, "is_reserved": 0, "fusion_lon": 0.0, "bike_id": "55c9238386f2f441d2f5e4f33d986052", "name": "55c9238386f2f441d2f5e4f33d986052", "rental_uris": {"ios": "https://dc.lft.to/lastmile_qr_scan", "android": "https://dc.lft.to/lastmile_qr_scan"}}, {"is_disabled": 0, "fusion_lat": 0.0, "lat": 38.93759716666667, "type": "electric_scooter", "lon": -77.03141516666666, "is_reserved": 0, "fusion_lon": 0.0, "bike_id": "6525a2bba39c35be2e144d572ef87863", "name": "6525a2bba39c35be2e144d572ef87863", "rental_uris": {"ios": "https://dc.lft.to/lastmile_qr_scan", "android": "https://dc.lft.to/lastmile_qr_scan"}}, {"is_disabled": 0, "fusion_lat": 0.0, "lat": 38.948231, "type": "electric_scooter", "lon": -77.0243085, "is_reserved": 0, "fusion_lon": 0.0, "bike_id": "c2dbf539e9d9a2a10de13630e949fef4", "name": "c2dbf539e9d9a2a10de13630e949fef4", "rental_uris": {"ios": "https://dc.lft.to/lastmile_qr_scan", "android": "https://dc.lft.to/lastmile_qr_scan"}}, {"is_disabled": 0, "fusion_lat": 0.0, "lat": 38.88725216666667, "type": "electric_scooter", "lon": -77.03191533333333, "is_reserved": 0, "fusion_lon": 0.0, "bike_id": "f2315738718be029c84cade4fa796cc9", "name": "f2315738718be029c84cade4fa796cc9", "rental_uris": {"ios": "https://dc.lft.to/lastmile_qr_scan", "android": "https://dc.lft.to/lastmile_qr_scan"}}, {"is_disabled": 0, "fusion_lat": 0.0, "lat": 38.92545966666667, "type": "electric_scooter", "lon": -77.0407285, "is_reserved": 0, "fusion_lon": 0.0, "bike_id": "95231b8da965921979e2478b2ce850be", "name": "95231b8da965921979e2478b2ce850be", "rental_uris": {"ios": "https://dc.lft.to/lastmile_qr_scan", "android": "https://dc.lft.to/lastmile_qr_scan"}}, {"is_disabled": 0, "fusion_lat": 0.0, "lat": 38.9285195, "type": "electric_bike", "lon": -77.10676916666667, "is_reserved": 0, "fusion_lon": 0.0, "bike_id": "2f8fbd23d673a1ccd4f93d06f0739800", "name": "2f8fbd23d673a1ccd4f93d06f0739800", "rental_uris": {"ios": "https://dc.lft.to/lastmile_qr_scan", "android": "https://dc.lft.to/lastmile_qr_scan"}}, {"is_disabled": 0, "fusion_lat": 0.0, "lat": 38.90611166666667, "type": "electric_scooter", "lon": -77.065109, "is_reserved": 0, "fusion_lon": 0.0, "bike_id": "bf5bd376c2d5ff13df6866a98c1d3c52", "name": "bf5bd376c2d5ff13df6866a98c1d3c52", "rental_uris": {"ios": "https://dc.lft.to/lastmile_qr_scan", "android": "https://dc.lft.to/lastmile_qr_scan"}}, {"is_disabled": 0, "fusion_lat": 0.0, "lat": 38.901536166666666, "type": "electric_scooter", "lon": -77.0500545, "is_reserved": 0, "fusion_lon": 0.0, "bike_id": "d73917f490c6736537f8e8fd28720ecf", "name": "d73917f490c6736537f8e8fd28720ecf", "rental_uris": {"ios": "https://dc.lft.to/lastmile_qr_scan", "android": "https://dc.lft.to/lastmile_qr_scan"}}, {"is_disabled": 0, "fusion_lat": 0.0, "lat": 38.93004033333333, "type": "electric_scooter", "lon": -77.044347, "is_reserved": 0, "fusion_lon": 0.0, "bike_id": "41c7c3463b5f5d691c1bdccc280229e9", "name": "41c7c3463b5f5d691c1bdccc280229e9", "rental_uris": {"ios": "https://dc.lft.to/lastmile_qr_scan", "android": "https://dc.lft.to/lastmile_qr_scan"}}, {"is_disabled": 0, "fusion_lat": 0.0, "lat": 38.910587166666666, "type": "electric_scooter", "lon": -77.04582066666667, "is_reserved": 0, "fusion_lon": 0.0, "bike_id": "c1f194769dd80e05dc5fa105442d5899", "name": "c1f194769dd80e05dc5fa105442d5899", "rental_uris": {"ios": "https://dc.lft.to/lastmile_qr_scan", "android": "https://dc.lft.to/lastmile_qr_scan"}}, {"is_disabled": 0, "fusion_lat": 0.0, "lat": 38.942036333333334, "type": "electric_bike", "lon": -77.01824883333333, "is_reserved": 0, "fusion_lon": 0.0, "bike_id": "fe7242cb80dff2c3b8fc56fed3f1e179", "name": "fe7242cb80dff2c3b8fc56fed3f1e179", "rental_uris": {"ios": "https://dc.lft.to/lastmile_qr_scan", "android": "https://dc.lft.to/lastmile_qr_scan"}}, {"is_disabled": 0, "fusion_lat": 0.0, "lat": 38.939715, "type": "electric_scooter", "lon": -77.03590683333333, "is_reserved": 0, "fusion_lon": 0.0, "bike_id": "83abd3c5f64d0ac25e165a67cb505c33", "name": "83abd3c5f64d0ac25e165a67cb505c33", "rental_uris": {"ios": "https://dc.lft.to/lastmile_qr_scan", "android": "https://dc.lft.to/lastmile_qr_scan"}}, {"is_disabled": 0, "fusion_lat": 0.0, "lat": 38.90472483333333, "type": "electric_scooter", "lon": -77.04862516666667, "is_reserved": 0, "fusion_lon": 0.0, "bike_id": "be6de0d26ddeb61c7ec5a3a58bfe53b1", "name": "be6de0d26ddeb61c7ec5a3a58bfe53b1", "rental_uris": {"ios": "https://dc.lft.to/lastmile_qr_scan", "android": "https://dc.lft.to/lastmile_qr_scan"}}, {"is_disabled": 0, "fusion_lat": 0.0, "lat": 38.934521, "type": "electric_scooter", "lon": -77.03052933333333, "is_reserved": 0, "fusion_lon": 0.0, "bike_id": "7652377dc57b258c7c37433f39ef516c", "name": "7652377dc57b258c7c37433f39ef516c", "rental_uris": {"ios": "https://dc.lft.to/lastmile_qr_scan", "android": "https://dc.lft.to/lastmile_qr_scan"}}, {"is_disabled": 0, "fusion_lat": 0.0, "lat": 38.994, "type": "electric_bike", "lon": -77.03221066666667, "is_reserved": 0, "fusion_lon": 0.0, "bike_id": "d7e069a42155290759698b00ba6cfcc0", "name": "d7e069a42155290759698b00ba6cfcc0", "rental_uris": {"ios": "https://dc.lft.to/lastmile_qr_scan", "android": "https://dc.lft.to/lastmile_qr_scan"}}, {"is_disabled": 0, "fusion_lat": 0.0, "lat": 38.89477, "type": "electric_scooter", "lon": -77.04998283333333, "is_reserved": 0, "fusion_lon": 0.0, "bike_id": "dde3cf63fbc8ac34df871f152e43b1e0", "name": "dde3cf63fbc8ac34df871f152e43b1e0", "rental_uris": {"ios": "https://dc.lft.to/lastmile_qr_scan", "android": "https://dc.lft.to/lastmile_qr_scan"}}, {"is_disabled": 0, "fusion_lat": 0.0, "lat": 38.904763, "type": "electric_scooter", "lon": -77.05337683333333, "is_reserved": 0, "fusion_lon": 0.0, "bike_id": "b952a5251cf6643914c4b3fbbafaf763", "name": "b952a5251cf6643914c4b3fbbafaf763", "rental_uris": {"ios": "https://dc.lft.to/lastmile_qr_scan", "android": "https://dc.lft.to/lastmile_qr_scan"}}, {"is_disabled": 0, "fusion_lat": 0.0, "lat": 38.9280535, "type": "electric_scooter", "lon": -77.0141825, "is_reserved": 0, "fusion_lon": 0.0, "bike_id": "e2fcc3891e3c276704c6ec9a8f8cfacd", "name": "e2fcc3891e3c276704c6ec9a8f8cfacd", "rental_uris": {"ios": "https://dc.lft.to/lastmile_qr_scan", "android": "https://dc.lft.to/lastmile_qr_scan"}}, {"is_disabled": 0, "fusion_lat": 0.0, "lat": 38.8591495, "type": "electric_scooter", "lon": -76.989768, "is_reserved": 0, "fusion_lon": 0.0, "bike_id": "0e5cdb7de950a5774653fca6e7271837", "name": "0e5cdb7de950a5774653fca6e7271837", "rental_uris": {"ios": "https://dc.lft.to/lastmile_qr_scan", "android": "https://dc.lft.to/lastmile_qr_scan"}}, {"is_disabled": 0, "fusion_lat": 0.0, "lat": 38.90990216666667, "type": "electric_scooter", "lon": -77.03852583333334, "is_reserved": 0, "fusion_lon": 0.0, "bike_id": "9d570ea797ae2798c61734cf3828f0a3", "name": "9d570ea797ae2798c61734cf3828f0a3", "rental_uris": {"ios": "https://dc.lft.to/lastmile_qr_scan", "android": "https://dc.lft.to/lastmile_qr_scan"}}, {"is_disabled": 0, "fusion_lat": 0.0, "lat": 38.890432833333335, "type": "electric_scooter", "lon": -76.93746783333333, "is_reserved": 0, "fusion_lon": 0.0, "bike_id": "4cc11cd4131ef3dc84dd2b3a7de41155", "name": "4cc11cd4131ef3dc84dd2b3a7de41155", "rental_uris": {"ios": "https://dc.lft.to/lastmile_qr_scan", "android": "https://dc.lft.to/lastmile_qr_scan"}}, {"is_disabled": 0, "fusion_lat": 0.0, "lat": 38.90492416666667, "type": "electric_scooter", "lon": -77.04351666666666, "is_reserved": 0, "fusion_lon": 0.0, "bike_id": "23dbfe46a696a292707c18d423a862d5", "name": "23dbfe46a696a292707c18d423a862d5", "rental_uris": {"ios": "https://dc.lft.to/lastmile_qr_scan", "android": "https://dc.lft.to/lastmile_qr_scan"}}, {"is_disabled": 0, "fusion_lat": 0.0, "lat": 38.93034933333333, "type": "electric_scooter", "lon": -77.03218516666666, "is_reserved": 0, "fusion_lon": 0.0, "bike_id": "bb6731052f29feda30fb2a9df6583201", "name": "bb6731052f29feda30fb2a9df6583201", "rental_uris": {"ios": "https://dc.lft.to/lastmile_qr_scan", "android": "https://dc.lft.to/lastmile_qr_scan"}}, {"is_disabled": 0, "fusion_lat": 0.0, "lat": 38.92319583333333, "type": "electric_scooter", "lon": -77.03902016666666, "is_reserved": 0, "fusion_lon": 0.0, "bike_id": "66e3bad3f15f4680ce112c953fd5742a", "name": "66e3bad3f15f4680ce112c953fd5742a", "rental_uris": {"ios": "https://dc.lft.to/lastmile_qr_scan", "android": "https://dc.lft.to/lastmile_qr_scan"}}, {"is_disabled": 0, "fusion_lat": 0.0, "lat": 38.93630783333333, "type": "electric_scooter", "lon": -77.05878516666667, "is_reserved": 0, "fusion_lon": 0.0, "bike_id": "3d6d10304c092481f3a0d0a6e6f4e2bc", "name": "3d6d10304c092481f3a0d0a6e6f4e2bc", "rental_uris": {"ios": "https://dc.lft.to/lastmile_qr_scan", "android": "https://dc.lft.to/lastmile_qr_scan"}}, {"is_disabled": 0, "fusion_lat": 0.0, "lat": 38.8983315, "type": "electric_scooter", "lon": -76.94638366666666, "is_reserved": 0, "fusion_lon": 0.0, "bike_id": "d739e264c8052dd43506d6854019e7d5", "name": "d739e264c8052dd43506d6854019e7d5", "rental_uris": {"ios": "https://dc.lft.to/lastmile_qr_scan", "android": "https://dc.lft.to/lastmile_qr_scan"}}, {"is_disabled": 0, "fusion_lat": 0.0, "lat": 38.85809616666667, "type": "electric_scooter", "lon": -76.986514, "is_reserved": 0, "fusion_lon": 0.0, "bike_id": "eecb7451f27ad6212dbaedd954e33809", "name": "eecb7451f27ad6212dbaedd954e33809", "rental_uris": {"ios": "https://dc.lft.to/lastmile_qr_scan", "android": "https://dc.lft.to/lastmile_qr_scan"}}, {"is_disabled": 0, "fusion_lat": 0.0, "lat": 38.90140183333333, "type": "electric_scooter", "lon": -77.040354, "is_reserved": 0, "fusion_lon": 0.0, "bike_id": "ac8a6d7a991bb2d909d3b43774147da3", "name": "ac8a6d7a991bb2d909d3b43774147da3", "rental_uris": {"ios": "https://dc.lft.to/lastmile_qr_scan", "android": "https://dc.lft.to/lastmile_qr_scan"}}, {"is_disabled": 0, "fusion_lat": 0.0, "lat": 38.941815, "type": "electric_scooter", "lon": -77.03088383333333, "is_reserved": 0, "fusion_lon": 0.0, "bike_id": "5b1b424dcfabf1539cd978d02c2bd9e3", "name": "5b1b424dcfabf1539cd978d02c2bd9e3", "rental_uris": {"ios": "https://dc.lft.to/lastmile_qr_scan", "android": "https://dc.lft.to/lastmile_qr_scan"}}, {"is_disabled": 0, "fusion_lat": 0.0, "lat": 38.848651333333336, "type": "electric_bike", "lon": -77.20041633333334, "is_reserved": 0, "fusion_lon": 0.0, "bike_id": "c4484b4cf4a146611b55c5d37f45595c", "name": "c4484b4cf4a146611b55c5d37f45595c", "rental_uris": {"ios": "https://dc.lft.to/lastmile_qr_scan", "android": "https://dc.lft.to/lastmile_qr_scan"}}, {"is_disabled": 0, "fusion_lat": 0.0, "lat": 38.90861683333333, "type": "electric_scooter", "lon": -77.085969, "is_reserved": 0, "fusion_lon": 0.0, "bike_id": "5204f9917a19339ba4249685ec79d3be", "name": "5204f9917a19339ba4249685ec79d3be", "rental_uris": {"ios": "https://dc.lft.to/lastmile_qr_scan", "android": "https://dc.lft.to/lastmile_qr_scan"}}, {"is_disabled": 0, "fusion_lat": 0.0, "lat": 38.8746005, "type": "electric_scooter", "lon": -77.00940333333334, "is_reserved": 0, "fusion_lon": 0.0, "bike_id": "14e71f4155986b76e3f210ac20d67b15", "name": "14e71f4155986b76e3f210ac20d67b15", "rental_uris": {"ios": "https://dc.lft.to/lastmile_qr_scan", "android": "https://dc.lft.to/lastmile_qr_scan"}}, {"is_disabled": 0, "fusion_lat": 0.0, "lat": 38.90376783333333, "type": "electric_scooter", "lon": -77.04792016666667, "is_reserved": 0, "fusion_lon": 0.0, "bike_id": "bf3f977451d886f453087718ae79ef6a", "name": "bf3f977451d886f453087718ae79ef6a", "rental_uris": {"ios": "https://dc.lft.to/lastmile_qr_scan", "android": "https://dc.lft.to/lastmile_qr_scan"}}, {"is_disabled": 0, "fusion_lat": 0.0, "lat": 38.930588, "type": "electric_scooter", "lon": -77.04180333333333, "is_reserved": 0, "fusion_lon": 0.0, "bike_id": "765e93ee61c3bf81ec70bfd35a26b4d4", "name": "765e93ee61c3bf81ec70bfd35a26b4d4", "rental_uris": {"ios": "https://dc.lft.to/lastmile_qr_scan", "android": "https://dc.lft.to/lastmile_qr_scan"}}, {"is_disabled": 0, "fusion_lat": 0.0, "lat": 38.90144016666667, "type": "electric_scooter", "lon": -77.04391166666667, "is_reserved": 0, "fusion_lon": 0.0, "bike_id": "479749cf44fc8691c921eaa2e7ffd0b7", "name": "479749cf44fc8691c921eaa2e7ffd0b7", "rental_uris": {"ios": "https://dc.lft.to/lastmile_qr_scan", "android": "https://dc.lft.to/lastmile_qr_scan"}}, {"is_disabled": 0, "fusion_lat": 0.0, "lat": 38.920403666666665, "type": "electric_scooter", "lon": -77.03379366666667, "is_reserved": 0, "fusion_lon": 0.0, "bike_id": "d075d7110d61b41145abb89eacd5425d", "name": "d075d7110d61b41145abb89eacd5425d", "rental_uris": {"ios": "https://dc.lft.to/lastmile_qr_scan", "android": "https://dc.lft.to/lastmile_qr_scan"}}, {"is_disabled": 0, "fusion_lat": 0.0, "lat": 38.92048533333333, "type": "electric_scooter", "lon": -77.04179733333334, "is_reserved": 0, "fusion_lon": 0.0, "bike_id": "97589bd4d58a7391c951d0ef6beec1f1", "name": "97589bd4d58a7391c951d0ef6beec1f1", "rental_uris": {"ios": "https://dc.lft.to/lastmile_qr_scan", "android": "https://dc.lft.to/lastmile_qr_scan"}}, {"is_disabled": 0, "fusion_lat": 0.0, "lat": 38.917196833333335, "type": "electric_scooter", "lon": -77.03839433333333, "is_reserved": 0, "fusion_lon": 0.0, "bike_id": "6df7dc22867bd85143c21042633ccd6b", "name": "6df7dc22867bd85143c21042633ccd6b", "rental_uris": {"ios": "https://dc.lft.to/lastmile_qr_scan", "android": "https://dc.lft.to/lastmile_qr_scan"}}, {"is_disabled": 0, "fusion_lat": 0.0, "lat": 38.89910016666666, "type": "electric_scooter", "lon": -76.93353783333333, "is_reserved": 0, "fusion_lon": 0.0, "bike_id": "4366d468c2fbd0bf348eae25de1686c5", "name": "4366d468c2fbd0bf348eae25de1686c5", "rental_uris": {"ios": "https://dc.lft.to/lastmile_qr_scan", "android": "https://dc.lft.to/lastmile_qr_scan"}}, {"is_disabled": 0, "fusion_lat": 0.0, "lat": 38.90701033333333, "type": "electric_scooter", "lon": -77.0218285, "is_reserved": 0, "fusion_lon": 0.0, "bike_id": "d12cbdd15e04afb71d990948ba01d362", "name": "d12cbdd15e04afb71d990948ba01d362", "rental_uris": {"ios": "https://dc.lft.to/lastmile_qr_scan", "android": "https://dc.lft.to/lastmile_qr_scan"}}, {"is_disabled": 0, "fusion_lat": 0.0, "lat": 38.8842905, "type": "electric_scooter", "lon": -77.02570433333334, "is_reserved": 0, "fusion_lon": 0.0, "bike_id": "56688ec0a60db9834da7b255314d93cc", "name": "56688ec0a60db9834da7b255314d93cc", "rental_uris": {"ios": "https://dc.lft.to/lastmile_qr_scan", "android": "https://dc.lft.to/lastmile_qr_scan"}}, {"is_disabled": 0, "fusion_lat": 0.0, "lat": 38.91876333333333, "type": "electric_scooter", "lon": -77.03548683333334, "is_reserved": 0, "fusion_lon": 0.0, "bike_id": "6007b7fd30a81cc7dd2ec1d5d1125061", "name": "6007b7fd30a81cc7dd2ec1d5d1125061", "rental_uris": {"ios": "https://dc.lft.to/lastmile_qr_scan", "android": "https://dc.lft.to/lastmile_qr_scan"}}, {"is_disabled": 0, "fusion_lat": 0.0, "lat": 38.856418166666664, "type": "electric_bike", "lon": -77.1124595, "is_reserved": 0, "fusion_lon": 0.0, "bike_id": "18d71fa6f0a405ee5ed599eb92327229", "name": "18d71fa6f0a405ee5ed599eb92327229", "rental_uris": {"ios": "https://dc.lft.to/lastmile_qr_scan", "android": "https://dc.lft.to/lastmile_qr_scan"}}, {"is_disabled": 0, "fusion_lat": 0.0, "lat": 38.9200615, "type": "electric_scooter", "lon": -77.0712165, "is_reserved": 0, "fusion_lon": 0.0, "bike_id": "cf7a43a0437dd05cc4cf69ee914184af", "name": "cf7a43a0437dd05cc4cf69ee914184af", "rental_uris": {"ios": "https://dc.lft.to/lastmile_qr_scan", "android": "https://dc.lft.to/lastmile_qr_scan"}}, {"is_disabled": 0, "fusion_lat": 0.0, "lat": 38.903654833333334, "type": "electric_scooter", "lon": -77.041095, "is_reserved": 0, "fusion_lon": 0.0, "bike_id": "325782765798c325811b96012125434f", "name": "325782765798c325811b96012125434f", "rental_uris": {"ios": "https://dc.lft.to/lastmile_qr_scan", "android": "https://dc.lft.to/lastmile_qr_scan"}}, {"is_disabled": 0, "fusion_lat": 0.0, "lat": 38.90711816666666, "type": "electric_scooter", "lon": -77.03090383333333, "is_reserved": 0, "fusion_lon": 0.0, "bike_id": "76c9f09ef0c4a08626f52af1cba1ba95", "name": "76c9f09ef0c4a08626f52af1cba1ba95", "rental_uris": {"ios": "https://dc.lft.to/lastmile_qr_scan", "android": "https://dc.lft.to/lastmile_qr_scan"}}, {"is_disabled": 0, "fusion_lat": 0.0, "lat": 38.917114166666664, "type": "electric_scooter", "lon": -77.0310505, "is_reserved": 0, "fusion_lon": 0.0, "bike_id": "de1b4da43a00e12b97cebf77a0dc3add", "name": "de1b4da43a00e12b97cebf77a0dc3add", "rental_uris": {"ios": "https://dc.lft.to/lastmile_qr_scan", "android": "https://dc.lft.to/lastmile_qr_scan"}}, {"is_disabled": 0, "fusion_lat": 0.0, "lat": 38.9066895, "type": "electric_scooter", "lon": -77.03824116666667, "is_reserved": 0, "fusion_lon": 0.0, "bike_id": "ebd5e19b03b1cc0423a620bc85ee0815", "name": "ebd5e19b03b1cc0423a620bc85ee0815", "rental_uris": {"ios": "https://dc.lft.to/lastmile_qr_scan", "android": "https://dc.lft.to/lastmile_qr_scan"}}, {"is_disabled": 0, "fusion_lat": 0.0, "lat": 38.925774833333335, "type": "electric_scooter", "lon": -77.03917733333333, "is_reserved": 0, "fusion_lon": 0.0, "bike_id": "a8a5f8ad93c62218953d8406e96f8a24", "name": "a8a5f8ad93c62218953d8406e96f8a24", "rental_uris": {"ios": "https://dc.lft.to/lastmile_qr_scan", "android": "https://dc.lft.to/lastmile_qr_scan"}}, {"is_disabled": 0, "fusion_lat": 0.0, "lat": 38.90651866666666, "type": "electric_scooter", "lon": -77.03898966666667, "is_reserved": 0, "fusion_lon": 0.0, "bike_id": "2f76defd85f1f1bf822d4080ca3c4eb7", "name": "2f76defd85f1f1bf822d4080ca3c4eb7", "rental_uris": {"ios": "https://dc.lft.to/lastmile_qr_scan", "android": "https://dc.lft.to/lastmile_qr_scan"}}, {"is_disabled": 0, "fusion_lat": 0.0, "lat": 38.9121605, "type": "electric_scooter", "lon": -77.01204916666667, "is_reserved": 0, "fusion_lon": 0.0, "bike_id": "f150262b7e2f5388c2b828cc5c976d19", "name": "f150262b7e2f5388c2b828cc5c976d19", "rental_uris": {"ios": "https://dc.lft.to/lastmile_qr_scan", "android": "https://dc.lft.to/lastmile_qr_scan"}}, {"is_disabled": 0, "fusion_lat": 0.0, "lat": 38.9038955, "type": "electric_scooter", "lon": -77.045058, "is_reserved": 0, "fusion_lon": 0.0, "bike_id": "45075764771b20eb539706623639ce74", "name": "45075764771b20eb539706623639ce74", "rental_uris": {"ios": "https://dc.lft.to/lastmile_qr_scan", "android": "https://dc.lft.to/lastmile_qr_scan"}}, {"is_disabled": 0, "fusion_lat": 0.0, "lat": 38.87006433333333, "type": "electric_bike", "lon": -76.960167, "is_reserved": 0, "fusion_lon": 0.0, "bike_id": "f3f7bfa688fc18d6ca5cf2b494007c1d", "name": "f3f7bfa688fc18d6ca5cf2b494007c1d", "rental_uris": {"ios": "https://dc.lft.to/lastmile_qr_scan", "android": "https://dc.lft.to/lastmile_qr_scan"}}, {"is_disabled": 0, "fusion_lat": 0.0, "lat": 38.92359716666667, "type": "electric_scooter", "lon": -77.0508615, "is_reserved": 0, "fusion_lon": 0.0, "bike_id": "25c0fbd54b6cd4b8b7f0e3216e66129f", "name": "25c0fbd54b6cd4b8b7f0e3216e66129f", "rental_uris": {"ios": "https://dc.lft.to/lastmile_qr_scan", "android": "https://dc.lft.to/lastmile_qr_scan"}}, {"is_disabled": 0, "fusion_lat": 0.0, "lat": 38.93496616666667, "type": "electric_scooter", "lon": -77.05804916666666, "is_reserved": 0, "fusion_lon": 0.0, "bike_id": "c52b0059892c2b46bff359f4eb835486", "name": "c52b0059892c2b46bff359f4eb835486", "rental_uris": {"ios": "https://dc.lft.to/lastmile_qr_scan", "android": "https://dc.lft.to/lastmile_qr_scan"}}, {"is_disabled": 0, "fusion_lat": 0.0, "lat": 38.91273916666667, "type": "electric_scooter", "lon": -77.0450725, "is_reserved": 0, "fusion_lon": 0.0, "bike_id": "4296e4d65790fc715f66c804b13181ac", "name": "4296e4d65790fc715f66c804b13181ac", "rental_uris": {"ios": "https://dc.lft.to/lastmile_qr_scan", "android": "https://dc.lft.to/lastmile_qr_scan"}}, {"is_disabled": 0, "fusion_lat": 0.0, "lat": 38.89655883333333, "type": "electric_scooter", "lon": -77.02720983333333, "is_reserved": 0, "fusion_lon": 0.0, "bike_id": "4584b3217ffb88f7f5895a1455cb68a3", "name": "4584b3217ffb88f7f5895a1455cb68a3", "rental_uris": {"ios": "https://dc.lft.to/lastmile_qr_scan", "android": "https://dc.lft.to/lastmile_qr_scan"}}, {"is_disabled": 0, "fusion_lat": 0.0, "lat": 38.836846, "type": "electric_scooter", "lon": -77.00594183333334, "is_reserved": 0, "fusion_lon": 0.0, "bike_id": "6f470cde27b8c2e115c1e537b70798ab", "name": "6f470cde27b8c2e115c1e537b70798ab", "rental_uris": {"ios": "https://dc.lft.to/lastmile_qr_scan", "android": "https://dc.lft.to/lastmile_qr_scan"}}, {"is_disabled": 0, "fusion_lat": 0.0, "lat": 38.91397216666667, "type": "electric_scooter", "lon": -77.0434745, "is_reserved": 0, "fusion_lon": 0.0, "bike_id": "01d47d45e048ba21445bcef56b58cda7", "name": "01d47d45e048ba21445bcef56b58cda7", "rental_uris": {"ios": "https://dc.lft.to/lastmile_qr_scan", "android": "https://dc.lft.to/lastmile_qr_scan"}}, {"is_disabled": 0, "fusion_lat": 0.0, "lat": 38.9360995, "type": "electric_scooter", "lon": -77.08165216666667, "is_reserved": 0, "fusion_lon": 0.0, "bike_id": "b7d283b94945756d7c744913ed88a904", "name": "b7d283b94945756d7c744913ed88a904", "rental_uris": {"ios": "https://dc.lft.to/lastmile_qr_scan", "android": "https://dc.lft.to/lastmile_qr_scan"}}, {"is_disabled": 0, "fusion_lat": 0.0, "lat": 38.900404333333334, "type": "electric_scooter", "lon": -76.99753616666666, "is_reserved": 0, "fusion_lon": 0.0, "bike_id": "7c9180117e0eef9f318f8caa927fd8f9", "name": "7c9180117e0eef9f318f8caa927fd8f9", "rental_uris": {"ios": "https://dc.lft.to/lastmile_qr_scan", "android": "https://dc.lft.to/lastmile_qr_scan"}}, {"is_disabled": 0, "fusion_lat": 0.0, "lat": 38.904972, "type": "electric_scooter", "lon": -76.979277, "is_reserved": 0, "fusion_lon": 0.0, "bike_id": "118f5069cb71a1577cf9fe30af5fda58", "name": "118f5069cb71a1577cf9fe30af5fda58", "rental_uris": {"ios": "https://dc.lft.to/lastmile_qr_scan", "android": "https://dc.lft.to/lastmile_qr_scan"}}, {"is_disabled": 0, "fusion_lat": 0.0, "lat": 38.91754483333333, "type": "electric_scooter", "lon": -77.03184966666667, "is_reserved": 0, "fusion_lon": 0.0, "bike_id": "3acd56c0b9eef8673dd4ddc654e1b36b", "name": "3acd56c0b9eef8673dd4ddc654e1b36b", "rental_uris": {"ios": "https://dc.lft.to/lastmile_qr_scan", "android": "https://dc.lft.to/lastmile_qr_scan"}}, {"is_disabled": 0, "fusion_lat": 0.0, "lat": 38.880346, "type": "electric_scooter", "lon": -77.019245, "is_reserved": 0, "fusion_lon": 0.0, "bike_id": "92dd81372b17b10773ce8ce755910970", "name": "92dd81372b17b10773ce8ce755910970", "rental_uris": {"ios": "https://dc.lft.to/lastmile_qr_scan", "android": "https://dc.lft.to/lastmile_qr_scan"}}, {"is_disabled": 0, "fusion_lat": 0.0, "lat": 38.91838966666667, "type": "electric_scooter", "lon": -77.03216566666667, "is_reserved": 0, "fusion_lon": 0.0, "bike_id": "f33af2070561aeb7fb8597951b5988c7", "name": "f33af2070561aeb7fb8597951b5988c7", "rental_uris": {"ios": "https://dc.lft.to/lastmile_qr_scan", "android": "https://dc.lft.to/lastmile_qr_scan"}}, {"is_disabled": 0, "fusion_lat": 0.0, "lat": 38.902028333333334, "type": "electric_scooter", "lon": -77.0197105, "is_reserved": 0, "fusion_lon": 0.0, "bike_id": "6491b0f2fa94b812b5336c071816b7ce", "name": "6491b0f2fa94b812b5336c071816b7ce", "rental_uris": {"ios": "https://dc.lft.to/lastmile_qr_scan", "android": "https://dc.lft.to/lastmile_qr_scan"}}, {"is_disabled": 0, "fusion_lat": 0.0, "lat": 38.93672266666667, "type": "electric_bike", "lon": -76.95225916666666, "is_reserved": 0, "fusion_lon": 0.0, "bike_id": "f37c2c3979dac5daef73375a6c4f1a7a", "name": "f37c2c3979dac5daef73375a6c4f1a7a", "rental_uris": {"ios": "https://dc.lft.to/lastmile_qr_scan", "android": "https://dc.lft.to/lastmile_qr_scan"}}, {"is_disabled": 0, "fusion_lat": 0.0, "lat": 38.93359683333333, "type": "electric_scooter", "lon": -77.05716433333333, "is_reserved": 0, "fusion_lon": 0.0, "bike_id": "89c8862289b73c1699e72a04ff8df70e", "name": "89c8862289b73c1699e72a04ff8df70e", "rental_uris": {"ios": "https://dc.lft.to/lastmile_qr_scan", "android": "https://dc.lft.to/lastmile_qr_scan"}}, {"is_disabled": 0, "fusion_lat": 0.0, "lat": 38.91818516666667, "type": "electric_scooter", "lon": -77.03839483333333, "is_reserved": 0, "fusion_lon": 0.0, "bike_id": "f2851d785293bfca98e185c7a5803166", "name": "f2851d785293bfca98e185c7a5803166", "rental_uris": {"ios": "https://dc.lft.to/lastmile_qr_scan", "android": "https://dc.lft.to/lastmile_qr_scan"}}, {"is_disabled": 0, "fusion_lat": 0.0, "lat": 38.91051183333333, "type": "electric_scooter", "lon": -77.01526016666666, "is_reserved": 0, "fusion_lon": 0.0, "bike_id": "e61c605ec95f500e489f695d68273016", "name": "e61c605ec95f500e489f695d68273016", "rental_uris": {"ios": "https://dc.lft.to/lastmile_qr_scan", "android": "https://dc.lft.to/lastmile_qr_scan"}}, {"is_disabled": 0, "fusion_lat": 0.0, "lat": 38.87500583333333, "type": "electric_scooter", "lon": -77.00114783333333, "is_reserved": 0, "fusion_lon": 0.0, "bike_id": "14fed57cbadec96a5395c451574ca26b", "name": "14fed57cbadec96a5395c451574ca26b", "rental_uris": {"ios": "https://dc.lft.to/lastmile_qr_scan", "android": "https://dc.lft.to/lastmile_qr_scan"}}, {"is_disabled": 0, "fusion_lat": 0.0, "lat": 38.8850745, "type": "electric_scooter", "lon": -77.01590466666667, "is_reserved": 0, "fusion_lon": 0.0, "bike_id": "3fdd4a49bf8de4037ee27282848693f1", "name": "3fdd4a49bf8de4037ee27282848693f1", "rental_uris": {"ios": "https://dc.lft.to/lastmile_qr_scan", "android": "https://dc.lft.to/lastmile_qr_scan"}}, {"is_disabled": 0, "fusion_lat": 0.0, "lat": 38.905348000000004, "type": "electric_scooter", "lon": -77.04568516666667, "is_reserved": 0, "fusion_lon": 0.0, "bike_id": "1a4c230077c1ccb7a7f653ddfd839c83", "name": "1a4c230077c1ccb7a7f653ddfd839c83", "rental_uris": {"ios": "https://dc.lft.to/lastmile_qr_scan", "android": "https://dc.lft.to/lastmile_qr_scan"}}, {"is_disabled": 0, "fusion_lat": 0.0, "lat": 38.8921865, "type": "electric_scooter", "lon": -77.04646183333334, "is_reserved": 0, "fusion_lon": 0.0, "bike_id": "061f79732d5bd7876232e6e9a6ef738c", "name": "061f79732d5bd7876232e6e9a6ef738c", "rental_uris": {"ios": "https://dc.lft.to/lastmile_qr_scan", "android": "https://dc.lft.to/lastmile_qr_scan"}}, {"is_disabled": 0, "fusion_lat": 0.0, "lat": 38.923398, "type": "electric_scooter", "lon": -77.050748, "is_reserved": 0, "fusion_lon": 0.0, "bike_id": "04ca13a4b4239c8efef1e1657073a5e4", "name": "04ca13a4b4239c8efef1e1657073a5e4", "rental_uris": {"ios": "https://dc.lft.to/lastmile_qr_scan", "android": "https://dc.lft.to/lastmile_qr_scan"}}, {"is_disabled": 0, "fusion_lat": 0.0, "lat": 38.905057, "type": "electric_scooter", "lon": -77.06661716666666, "is_reserved": 0, "fusion_lon": 0.0, "bike_id": "f069fe2c1afec1fd7ba8d4a0efecc19e", "name": "f069fe2c1afec1fd7ba8d4a0efecc19e", "rental_uris": {"ios": "https://dc.lft.to/lastmile_qr_scan", "android": "https://dc.lft.to/lastmile_qr_scan"}}, {"is_disabled": 0, "fusion_lat": 0.0, "lat": 38.956343333333336, "type": "electric_scooter", "lon": -77.03303066666666, "is_reserved": 0, "fusion_lon": 0.0, "bike_id": "a2b21a2a397ad626338fb7b21eb73f0a", "name": "a2b21a2a397ad626338fb7b21eb73f0a", "rental_uris": {"ios": "https://dc.lft.to/lastmile_qr_scan", "android": "https://dc.lft.to/lastmile_qr_scan"}}, {"is_disabled": 0, "fusion_lat": 0.0, "lat": 38.90060616666667, "type": "electric_scooter", "lon": -77.05029333333333, "is_reserved": 0, "fusion_lon": 0.0, "bike_id": "c4f0f133b09c3b5d071a28c8825a2019", "name": "c4f0f133b09c3b5d071a28c8825a2019", "rental_uris": {"ios": "https://dc.lft.to/lastmile_qr_scan", "android": "https://dc.lft.to/lastmile_qr_scan"}}, {"is_disabled": 0, "fusion_lat": 0.0, "lat": 38.904871166666666, "type": "electric_scooter", "lon": -77.0678885, "is_reserved": 0, "fusion_lon": 0.0, "bike_id": "d07c41471f02f17c3b5260d745d62751", "name": "d07c41471f02f17c3b5260d745d62751", "rental_uris": {"ios": "https://dc.lft.to/lastmile_qr_scan", "android": "https://dc.lft.to/lastmile_qr_scan"}}, {"is_disabled": 0, "fusion_lat": 0.0, "lat": 38.90258633333333, "type": "electric_scooter", "lon": -77.04912616666667, "is_reserved": 0, "fusion_lon": 0.0, "bike_id": "17e398deaeb10cb0d1c1f18885944dc3", "name": "17e398deaeb10cb0d1c1f18885944dc3", "rental_uris": {"ios": "https://dc.lft.to/lastmile_qr_scan", "android": "https://dc.lft.to/lastmile_qr_scan"}}, {"is_disabled": 0, "fusion_lat": 0.0, "lat": 38.90953, "type": "electric_scooter", "lon": -77.0464445, "is_reserved": 0, "fusion_lon": 0.0, "bike_id": "f6b9d0eb6407bc027c231f9a4c49d216", "name": "f6b9d0eb6407bc027c231f9a4c49d216", "rental_uris": {"ios": "https://dc.lft.to/lastmile_qr_scan", "android": "https://dc.lft.to/lastmile_qr_scan"}}, {"is_disabled": 0, "fusion_lat": 0.0, "lat": 38.8719785, "type": "electric_scooter", "lon": -77.0060945, "is_reserved": 0, "fusion_lon": 0.0, "bike_id": "cf4ee55ac36809b22d8fd45160682fe8", "name": "cf4ee55ac36809b22d8fd45160682fe8", "rental_uris": {"ios": "https://dc.lft.to/lastmile_qr_scan", "android": "https://dc.lft.to/lastmile_qr_scan"}}, {"is_disabled": 0, "fusion_lat": 0.0, "lat": 38.914017666666666, "type": "electric_scooter", "lon": -77.03059966666666, "is_reserved": 0, "fusion_lon": 0.0, "bike_id": "28f4059dae72d1af4791ad56dfedc9da", "name": "28f4059dae72d1af4791ad56dfedc9da", "rental_uris": {"ios": "https://dc.lft.to/lastmile_qr_scan", "android": "https://dc.lft.to/lastmile_qr_scan"}}, {"is_disabled": 0, "fusion_lat": 0.0, "lat": 38.896158166666666, "type": "electric_scooter", "lon": -77.04411966666666, "is_reserved": 0, "fusion_lon": 0.0, "bike_id": "f783e560da76942e48b993e322c69bfa", "name": "f783e560da76942e48b993e322c69bfa", "rental_uris": {"ios": "https://dc.lft.to/lastmile_qr_scan", "android": "https://dc.lft.to/lastmile_qr_scan"}}, {"is_disabled": 0, "fusion_lat": 0.0, "lat": 38.91910633333333, "type": "electric_scooter", "lon": -77.04177283333334, "is_reserved": 0, "fusion_lon": 0.0, "bike_id": "835845770316232920088e414b516040", "name": "835845770316232920088e414b516040", "rental_uris": {"ios": "https://dc.lft.to/lastmile_qr_scan", "android": "https://dc.lft.to/lastmile_qr_scan"}}, {"is_disabled": 0, "fusion_lat": 0.0, "lat": 38.9231055, "type": "electric_scooter", "lon": -77.03958433333334, "is_reserved": 0, "fusion_lon": 0.0, "bike_id": "0da61989e83f61af552abbe7b3c79d3c", "name": "0da61989e83f61af552abbe7b3c79d3c", "rental_uris": {"ios": "https://dc.lft.to/lastmile_qr_scan", "android": "https://dc.lft.to/lastmile_qr_scan"}}, {"is_disabled": 0, "fusion_lat": 0.0, "lat": 38.903599666666665, "type": "electric_scooter", "lon": -77.04452816666667, "is_reserved": 0, "fusion_lon": 0.0, "bike_id": "8d7b4f968383c9ee5debbdee617b2134", "name": "8d7b4f968383c9ee5debbdee617b2134", "rental_uris": {"ios": "https://dc.lft.to/lastmile_qr_scan", "android": "https://dc.lft.to/lastmile_qr_scan"}}, {"is_disabled": 0, "fusion_lat": 0.0, "lat": 38.90140733333333, "type": "electric_scooter", "lon": -77.02848166666666, "is_reserved": 0, "fusion_lon": 0.0, "bike_id": "cb647ff9c2723941fac4e6e837d8e65e", "name": "cb647ff9c2723941fac4e6e837d8e65e", "rental_uris": {"ios": "https://dc.lft.to/lastmile_qr_scan", "android": "https://dc.lft.to/lastmile_qr_scan"}}, {"is_disabled": 0, "fusion_lat": 0.0, "lat": 38.9215135, "type": "electric_scooter", "lon": -77.04223916666666, "is_reserved": 0, "fusion_lon": 0.0, "bike_id": "7a17a1bf60b07fd5048fe5990960a1da", "name": "7a17a1bf60b07fd5048fe5990960a1da", "rental_uris": {"ios": "https://dc.lft.to/lastmile_qr_scan", "android": "https://dc.lft.to/lastmile_qr_scan"}}, {"is_disabled": 0, "fusion_lat": 0.0, "lat": 38.92145266666667, "type": "electric_scooter", "lon": -77.02431216666666, "is_reserved": 0, "fusion_lon": 0.0, "bike_id": "ffbb0ea060024aa466afd74317bc90ad", "name": "ffbb0ea060024aa466afd74317bc90ad", "rental_uris": {"ios": "https://dc.lft.to/lastmile_qr_scan", "android": "https://dc.lft.to/lastmile_qr_scan"}}, {"is_disabled": 0, "fusion_lat": 0.0, "lat": 38.936303333333335, "type": "electric_scooter", "lon": -77.058779, "is_reserved": 0, "fusion_lon": 0.0, "bike_id": "346cc217c27df7208843513bb9474cf9", "name": "346cc217c27df7208843513bb9474cf9", "rental_uris": {"ios": "https://dc.lft.to/lastmile_qr_scan", "android": "https://dc.lft.to/lastmile_qr_scan"}}, {"is_disabled": 0, "fusion_lat": 0.0, "lat": 38.9141205, "type": "electric_scooter", "lon": -77.019533, "is_reserved": 0, "fusion_lon": 0.0, "bike_id": "fc7cf0fe13a163a326c3be974966711b", "name": "fc7cf0fe13a163a326c3be974966711b", "rental_uris": {"ios": "https://dc.lft.to/lastmile_qr_scan", "android": "https://dc.lft.to/lastmile_qr_scan"}}, {"is_disabled": 0, "fusion_lat": 0.0, "lat": 38.918871833333334, "type": "electric_scooter", "lon": -77.03917466666667, "is_reserved": 0, "fusion_lon": 0.0, "bike_id": "196988996025014e34fea37bb7494806", "name": "196988996025014e34fea37bb7494806", "rental_uris": {"ios": "https://dc.lft.to/lastmile_qr_scan", "android": "https://dc.lft.to/lastmile_qr_scan"}}, {"is_disabled": 0, "fusion_lat": 0.0, "lat": 38.9173795, "type": "electric_scooter", "lon": -77.02116383333333, "is_reserved": 0, "fusion_lon": 0.0, "bike_id": "6e41a0efdf35edfbcf1367fd86e1afb4", "name": "6e41a0efdf35edfbcf1367fd86e1afb4", "rental_uris": {"ios": "https://dc.lft.to/lastmile_qr_scan", "android": "https://dc.lft.to/lastmile_qr_scan"}}, {"is_disabled": 0, "fusion_lat": 0.0, "lat": 38.896144166666666, "type": "electric_scooter", "lon": -76.95593016666666, "is_reserved": 0, "fusion_lon": 0.0, "bike_id": "98e02d3e5d364a1b4722186565f9e867", "name": "98e02d3e5d364a1b4722186565f9e867", "rental_uris": {"ios": "https://dc.lft.to/lastmile_qr_scan", "android": "https://dc.lft.to/lastmile_qr_scan"}}, {"is_disabled": 0, "fusion_lat": 0.0, "lat": 38.917196, "type": "electric_scooter", "lon": -77.038378, "is_reserved": 0, "fusion_lon": 0.0, "bike_id": "4d426d24800fd6544878d8271abc2cc5", "name": "4d426d24800fd6544878d8271abc2cc5", "rental_uris": {"ios": "https://dc.lft.to/lastmile_qr_scan", "android": "https://dc.lft.to/lastmile_qr_scan"}}, {"is_disabled": 0, "fusion_lat": 0.0, "lat": 38.90553033333333, "type": "electric_scooter", "lon": -77.03479483333334, "is_reserved": 0, "fusion_lon": 0.0, "bike_id": "cad59ea135e209f482bd6f97277928a9", "name": "cad59ea135e209f482bd6f97277928a9", "rental_uris": {"ios": "https://dc.lft.to/lastmile_qr_scan", "android": "https://dc.lft.to/lastmile_qr_scan"}}, {"is_disabled": 0, "fusion_lat": 0.0, "lat": 38.88744616666666, "type": "electric_scooter", "lon": -77.02168316666666, "is_reserved": 0, "fusion_lon": 0.0, "bike_id": "0e37e8a64837f002805d8c42c19cf5e5", "name": "0e37e8a64837f002805d8c42c19cf5e5", "rental_uris": {"ios": "https://dc.lft.to/lastmile_qr_scan", "android": "https://dc.lft.to/lastmile_qr_scan"}}, {"is_disabled": 0, "fusion_lat": 0.0, "lat": 38.895595166666666, "type": "electric_bike", "lon": -77.127329, "is_reserved": 0, "fusion_lon": 0.0, "bike_id": "cde3505a068deb564849525f05d32fde", "name": "cde3505a068deb564849525f05d32fde", "rental_uris": {"ios": "https://dc.lft.to/lastmile_qr_scan", "android": "https://dc.lft.to/lastmile_qr_scan"}}, {"is_disabled": 0, "fusion_lat": 0.0, "lat": 38.9132985, "type": "electric_scooter", "lon": -77.03014583333334, "is_reserved": 0, "fusion_lon": 0.0, "bike_id": "052f141ed12ab3126154dec74bb94c8a", "name": "052f141ed12ab3126154dec74bb94c8a", "rental_uris": {"ios": "https://dc.lft.to/lastmile_qr_scan", "android": "https://dc.lft.to/lastmile_qr_scan"}}, {"is_disabled": 0, "fusion_lat": 0.0, "lat": 38.90344966666667, "type": "electric_scooter", "lon": -76.97563933333333, "is_reserved": 0, "fusion_lon": 0.0, "bike_id": "ee97ffaf2ec75d0dc37e27d8131fc693", "name": "ee97ffaf2ec75d0dc37e27d8131fc693", "rental_uris": {"ios": "https://dc.lft.to/lastmile_qr_scan", "android": "https://dc.lft.to/lastmile_qr_scan"}}, {"is_disabled": 0, "fusion_lat": 0.0, "lat": 38.933169666666664, "type": "electric_scooter", "lon": -77.0327275, "is_reserved": 0, "fusion_lon": 0.0, "bike_id": "3b436336526fa5bd809baaede86647b0", "name": "3b436336526fa5bd809baaede86647b0", "rental_uris": {"ios": "https://dc.lft.to/lastmile_qr_scan", "android": "https://dc.lft.to/lastmile_qr_scan"}}, {"is_disabled": 0, "fusion_lat": 0.0, "lat": 38.90381983333333, "type": "electric_scooter", "lon": -77.010996, "is_reserved": 0, "fusion_lon": 0.0, "bike_id": "ff6fc6162047433dd241c9f0612f63d9", "name": "ff6fc6162047433dd241c9f0612f63d9", "rental_uris": {"ios": "https://dc.lft.to/lastmile_qr_scan", "android": "https://dc.lft.to/lastmile_qr_scan"}}, {"is_disabled": 0, "fusion_lat": 0.0, "lat": 38.86387766666667, "type": "electric_bike", "lon": -76.9898915, "is_reserved": 0, "fusion_lon": 0.0, "bike_id": "698ec0547374fa9e03d013f69fbb73e8", "name": "698ec0547374fa9e03d013f69fbb73e8", "rental_uris": {"ios": "https://dc.lft.to/lastmile_qr_scan", "android": "https://dc.lft.to/lastmile_qr_scan"}}, {"is_disabled": 0, "fusion_lat": 0.0, "lat": 38.925549333333336, "type": "electric_scooter", "lon": -77.0529705, "is_reserved": 0, "fusion_lon": 0.0, "bike_id": "2f0ed0cc0a2cd03bf05f9322cc11f072", "name": "2f0ed0cc0a2cd03bf05f9322cc11f072", "rental_uris": {"ios": "https://dc.lft.to/lastmile_qr_scan", "android": "https://dc.lft.to/lastmile_qr_scan"}}, {"is_disabled": 0, "fusion_lat": 0.0, "lat": 38.91233233333333, "type": "electric_scooter", "lon": -77.04875783333334, "is_reserved": 0, "fusion_lon": 0.0, "bike_id": "543ab6099db014912280e6f1587a2fa3", "name": "543ab6099db014912280e6f1587a2fa3", "rental_uris": {"ios": "https://dc.lft.to/lastmile_qr_scan", "android": "https://dc.lft.to/lastmile_qr_scan"}}, {"is_disabled": 0, "fusion_lat": 0.0, "lat": 38.94167566666667, "type": "electric_scooter", "lon": -77.04131283333334, "is_reserved": 0, "fusion_lon": 0.0, "bike_id": "78a0f4d4e92fd9fd3567fbea38703cd0", "name": "78a0f4d4e92fd9fd3567fbea38703cd0", "rental_uris": {"ios": "https://dc.lft.to/lastmile_qr_scan", "android": "https://dc.lft.to/lastmile_qr_scan"}}, {"is_disabled": 0, "fusion_lat": 0.0, "lat": 38.90682283333334, "type": "electric_scooter", "lon": -77.063604, "is_reserved": 0, "fusion_lon": 0.0, "bike_id": "14e7f0ec5224b6b5eae23215a19129b2", "name": "14e7f0ec5224b6b5eae23215a19129b2", "rental_uris": {"ios": "https://dc.lft.to/lastmile_qr_scan", "android": "https://dc.lft.to/lastmile_qr_scan"}}, {"is_disabled": 0, "fusion_lat": 0.0, "lat": 38.916921, "type": "electric_scooter", "lon": -77.03628316666666, "is_reserved": 0, "fusion_lon": 0.0, "bike_id": "9a389482c9a7c1ee7278a71ea9e6204e", "name": "9a389482c9a7c1ee7278a71ea9e6204e", "rental_uris": {"ios": "https://dc.lft.to/lastmile_qr_scan", "android": "https://dc.lft.to/lastmile_qr_scan"}}, {"is_disabled": 0, "fusion_lat": 0.0, "lat": 38.95193966666667, "type": "electric_bike", "lon": -76.96725166666667, "is_reserved": 0, "fusion_lon": 0.0, "bike_id": "8f6070861a7bccfd03a34abdfd8b0f1e", "name": "8f6070861a7bccfd03a34abdfd8b0f1e", "rental_uris": {"ios": "https://dc.lft.to/lastmile_qr_scan", "android": "https://dc.lft.to/lastmile_qr_scan"}}, {"is_disabled": 0, "fusion_lat": 0.0, "lat": 38.918424333333334, "type": "electric_scooter", "lon": -77.04501333333333, "is_reserved": 0, "fusion_lon": 0.0, "bike_id": "87a34d63869a3b82fbf750e3fa49d1dc", "name": "87a34d63869a3b82fbf750e3fa49d1dc", "rental_uris": {"ios": "https://dc.lft.to/lastmile_qr_scan", "android": "https://dc.lft.to/lastmile_qr_scan"}}, {"is_disabled": 0, "fusion_lat": 0.0, "lat": 39.0001025, "type": "electric_bike", "lon": -76.91078283333333, "is_reserved": 0, "fusion_lon": 0.0, "bike_id": "f80c706c43e9ae4f0aae11cd928dc5a8", "name": "f80c706c43e9ae4f0aae11cd928dc5a8", "rental_uris": {"ios": "https://dc.lft.to/lastmile_qr_scan", "android": "https://dc.lft.to/lastmile_qr_scan"}}, {"is_disabled": 0, "fusion_lat": 0.0, "lat": 38.905555666666665, "type": "electric_scooter", "lon": -77.038067, "is_reserved": 0, "fusion_lon": 0.0, "bike_id": "0dfba355c49e56729920d179beda3205", "name": "0dfba355c49e56729920d179beda3205", "rental_uris": {"ios": "https://dc.lft.to/lastmile_qr_scan", "android": "https://dc.lft.to/lastmile_qr_scan"}}, {"is_disabled": 0, "fusion_lat": 0.0, "lat": 38.90528616666667, "type": "electric_scooter", "lon": -77.0512355, "is_reserved": 0, "fusion_lon": 0.0, "bike_id": "2a7a8a3b068b895b87f086d419827038", "name": "2a7a8a3b068b895b87f086d419827038", "rental_uris": {"ios": "https://dc.lft.to/lastmile_qr_scan", "android": "https://dc.lft.to/lastmile_qr_scan"}}, {"is_disabled": 0, "fusion_lat": 0.0, "lat": 38.884877333333336, "type": "electric_scooter", "lon": -77.01519166666667, "is_reserved": 0, "fusion_lon": 0.0, "bike_id": "c5c3450a39f25b25e4dec3a8da62a709", "name": "c5c3450a39f25b25e4dec3a8da62a709", "rental_uris": {"ios": "https://dc.lft.to/lastmile_qr_scan", "android": "https://dc.lft.to/lastmile_qr_scan"}}, {"is_disabled": 0, "fusion_lat": 0.0, "lat": 38.91995466666667, "type": "electric_scooter", "lon": -77.03176966666666, "is_reserved": 0, "fusion_lon": 0.0, "bike_id": "c1bc36c0107accfb1c2ad15997d4d4cb", "name": "c1bc36c0107accfb1c2ad15997d4d4cb", "rental_uris": {"ios": "https://dc.lft.to/lastmile_qr_scan", "android": "https://dc.lft.to/lastmile_qr_scan"}}, {"is_disabled": 0, "fusion_lat": 0.0, "lat": 38.952729, "type": "electric_bike", "lon": -77.001991, "is_reserved": 0, "fusion_lon": 0.0, "bike_id": "86cff40d67a25fdf7e1dbbc477a787a4", "name": "86cff40d67a25fdf7e1dbbc477a787a4", "rental_uris": {"ios": "https://dc.lft.to/lastmile_qr_scan", "android": "https://dc.lft.to/lastmile_qr_scan"}}, {"is_disabled": 0, "fusion_lat": 0.0, "lat": 38.930998, "type": "electric_scooter", "lon": -77.0383545, "is_reserved": 0, "fusion_lon": 0.0, "bike_id": "4dfbef5a7c56bc0fcd0c949c4bb90390", "name": "4dfbef5a7c56bc0fcd0c949c4bb90390", "rental_uris": {"ios": "https://dc.lft.to/lastmile_qr_scan", "android": "https://dc.lft.to/lastmile_qr_scan"}}, {"is_disabled": 0, "fusion_lat": 0.0, "lat": 38.92128566666667, "type": "electric_scooter", "lon": -77.0179435, "is_reserved": 0, "fusion_lon": 0.0, "bike_id": "5d0dca9f6f5f0262639431d8f6d02d02", "name": "5d0dca9f6f5f0262639431d8f6d02d02", "rental_uris": {"ios": "https://dc.lft.to/lastmile_qr_scan", "android": "https://dc.lft.to/lastmile_qr_scan"}}, {"is_disabled": 0, "fusion_lat": 0.0, "lat": 38.905267333333335, "type": "electric_scooter", "lon": -77.02206216666667, "is_reserved": 0, "fusion_lon": 0.0, "bike_id": "f37b7097d3a4e2ca8485f67238ee4e4b", "name": "f37b7097d3a4e2ca8485f67238ee4e4b", "rental_uris": {"ios": "https://dc.lft.to/lastmile_qr_scan", "android": "https://dc.lft.to/lastmile_qr_scan"}}, {"is_disabled": 0, "fusion_lat": 0.0, "lat": 38.901267, "type": "electric_scooter", "lon": -77.00281216666667, "is_reserved": 0, "fusion_lon": 0.0, "bike_id": "e12584bcde8c3974347dd8b20f98c441", "name": "e12584bcde8c3974347dd8b20f98c441", "rental_uris": {"ios": "https://dc.lft.to/lastmile_qr_scan", "android": "https://dc.lft.to/lastmile_qr_scan"}}, {"is_disabled": 0, "fusion_lat": 0.0, "lat": 38.8661335, "type": "electric_scooter", "lon": -76.98694883333333, "is_reserved": 0, "fusion_lon": 0.0, "bike_id": "41717b660df76a327cb0ad67034ae89c", "name": "41717b660df76a327cb0ad67034ae89c", "rental_uris": {"ios": "https://dc.lft.to/lastmile_qr_scan", "android": "https://dc.lft.to/lastmile_qr_scan"}}, {"is_disabled": 0, "fusion_lat": 0.0, "lat": 38.8493215, "type": "electric_bike", "lon": -77.10016016666667, "is_reserved": 0, "fusion_lon": 0.0, "bike_id": "843e0c99cd5d73addffbe889ffe6d3c2", "name": "843e0c99cd5d73addffbe889ffe6d3c2", "rental_uris": {"ios": "https://dc.lft.to/lastmile_qr_scan", "android": "https://dc.lft.to/lastmile_qr_scan"}}, {"is_disabled": 0, "fusion_lat": 0.0, "lat": 38.8427535, "type": "electric_bike", "lon": -76.988465, "is_reserved": 0, "fusion_lon": 0.0, "bike_id": "fac6b8455ba8c6e8fafe06b0c031ae8c", "name": "fac6b8455ba8c6e8fafe06b0c031ae8c", "rental_uris": {"ios": "https://dc.lft.to/lastmile_qr_scan", "android": "https://dc.lft.to/lastmile_qr_scan"}}, {"is_disabled": 0, "fusion_lat": 0.0, "lat": 38.8937085, "type": "electric_scooter", "lon": -76.94999033333333, "is_reserved": 0, "fusion_lon": 0.0, "bike_id": "0b93e1c992d52d37d2be1cb24530e5f8", "name": "0b93e1c992d52d37d2be1cb24530e5f8", "rental_uris": {"ios": "https://dc.lft.to/lastmile_qr_scan", "android": "https://dc.lft.to/lastmile_qr_scan"}}, {"is_disabled": 0, "fusion_lat": 0.0, "lat": 38.842929833333336, "type": "electric_scooter", "lon": -76.99952116666667, "is_reserved": 0, "fusion_lon": 0.0, "bike_id": "e7a6990546b62fcb3f77bc02aa7b7f86", "name": "e7a6990546b62fcb3f77bc02aa7b7f86", "rental_uris": {"ios": "https://dc.lft.to/lastmile_qr_scan", "android": "https://dc.lft.to/lastmile_qr_scan"}}, {"is_disabled": 0, "fusion_lat": 0.0, "lat": 38.918836666666664, "type": "electric_scooter", "lon": -77.02970433333333, "is_reserved": 0, "fusion_lon": 0.0, "bike_id": "6e0618ee88e440c1f0112e0f2798b3a7", "name": "6e0618ee88e440c1f0112e0f2798b3a7", "rental_uris": {"ios": "https://dc.lft.to/lastmile_qr_scan", "android": "https://dc.lft.to/lastmile_qr_scan"}}, {"is_disabled": 0, "fusion_lat": 0.0, "lat": 38.907113833333334, "type": "electric_scooter", "lon": -77.04352033333333, "is_reserved": 0, "fusion_lon": 0.0, "bike_id": "a01a37b2780ffaacf365cdac228566e9", "name": "a01a37b2780ffaacf365cdac228566e9", "rental_uris": {"ios": "https://dc.lft.to/lastmile_qr_scan", "android": "https://dc.lft.to/lastmile_qr_scan"}}, {"is_disabled": 0, "fusion_lat": 0.0, "lat": 38.93087166666667, "type": "electric_scooter", "lon": -77.037451, "is_reserved": 0, "fusion_lon": 0.0, "bike_id": "a99e4a7e792ed293a6930719686116b9", "name": "a99e4a7e792ed293a6930719686116b9", "rental_uris": {"ios": "https://dc.lft.to/lastmile_qr_scan", "android": "https://dc.lft.to/lastmile_qr_scan"}}, {"is_disabled": 0, "fusion_lat": 0.0, "lat": 38.887431166666666, "type": "electric_scooter", "lon": -77.0216655, "is_reserved": 0, "fusion_lon": 0.0, "bike_id": "e244642afb1387efe3a71df442d30539", "name": "e244642afb1387efe3a71df442d30539", "rental_uris": {"ios": "https://dc.lft.to/lastmile_qr_scan", "android": "https://dc.lft.to/lastmile_qr_scan"}}, {"is_disabled": 0, "fusion_lat": 0.0, "lat": 38.89456233333333, "type": "electric_bike", "lon": -76.97037016666667, "is_reserved": 0, "fusion_lon": 0.0, "bike_id": "9eacdc3e96f7cdf0ac3c2615344cd405", "name": "9eacdc3e96f7cdf0ac3c2615344cd405", "rental_uris": {"ios": "https://dc.lft.to/lastmile_qr_scan", "android": "https://dc.lft.to/lastmile_qr_scan"}}, {"is_disabled": 0, "fusion_lat": 0.0, "lat": 38.89811916666667, "type": "electric_scooter", "lon": -77.033091, "is_reserved": 0, "fusion_lon": 0.0, "bike_id": "830412f17228c87d93625701879e9083", "name": "830412f17228c87d93625701879e9083", "rental_uris": {"ios": "https://dc.lft.to/lastmile_qr_scan", "android": "https://dc.lft.to/lastmile_qr_scan"}}, {"is_disabled": 0, "fusion_lat": 0.0, "lat": 38.84267666666667, "type": "electric_bike", "lon": -76.98845083333333, "is_reserved": 0, "fusion_lon": 0.0, "bike_id": "6d6743f6bdaef3d312cb8a126ebf5255", "name": "6d6743f6bdaef3d312cb8a126ebf5255", "rental_uris": {"ios": "https://dc.lft.to/lastmile_qr_scan", "android": "https://dc.lft.to/lastmile_qr_scan"}}, {"is_disabled": 0, "fusion_lat": 0.0, "lat": 38.88402766666667, "type": "electric_scooter", "lon": -77.01767866666667, "is_reserved": 0, "fusion_lon": 0.0, "bike_id": "024bfe77e13da8399af563c11028fba4", "name": "024bfe77e13da8399af563c11028fba4", "rental_uris": {"ios": "https://dc.lft.to/lastmile_qr_scan", "android": "https://dc.lft.to/lastmile_qr_scan"}}, {"is_disabled": 0, "fusion_lat": 0.0, "lat": 38.9021545, "type": "electric_scooter", "lon": -77.03386416666666, "is_reserved": 0, "fusion_lon": 0.0, "bike_id": "386d7a604dde77f99290d679275ad6ff", "name": "386d7a604dde77f99290d679275ad6ff", "rental_uris": {"ios": "https://dc.lft.to/lastmile_qr_scan", "android": "https://dc.lft.to/lastmile_qr_scan"}}, {"is_disabled": 0, "fusion_lat": 0.0, "lat": 38.92435183333333, "type": "electric_scooter", "lon": -77.0520675, "is_reserved": 0, "fusion_lon": 0.0, "bike_id": "2b5c2a4335610740164b1ec588eeefd3", "name": "2b5c2a4335610740164b1ec588eeefd3", "rental_uris": {"ios": "https://dc.lft.to/lastmile_qr_scan", "android": "https://dc.lft.to/lastmile_qr_scan"}}, {"is_disabled": 0, "fusion_lat": 0.0, "lat": 38.9168665, "type": "electric_scooter", "lon": -77.0297185, "is_reserved": 0, "fusion_lon": 0.0, "bike_id": "435007de835d92610fbd7129dbfd0882", "name": "435007de835d92610fbd7129dbfd0882", "rental_uris": {"ios": "https://dc.lft.to/lastmile_qr_scan", "android": "https://dc.lft.to/lastmile_qr_scan"}}, {"is_disabled": 0, "fusion_lat": 0.0, "lat": 38.878589, "type": "electric_scooter", "lon": -77.0074195, "is_reserved": 0, "fusion_lon": 0.0, "bike_id": "651b9077c500eab9caa2e0371537e21c", "name": "651b9077c500eab9caa2e0371537e21c", "rental_uris": {"ios": "https://dc.lft.to/lastmile_qr_scan", "android": "https://dc.lft.to/lastmile_qr_scan"}}, {"is_disabled": 0, "fusion_lat": 0.0, "lat": 38.90333366666667, "type": "electric_scooter", "lon": -76.97592883333333, "is_reserved": 0, "fusion_lon": 0.0, "bike_id": "990ed096b8e2af85938198ddb49a3865", "name": "990ed096b8e2af85938198ddb49a3865", "rental_uris": {"ios": "https://dc.lft.to/lastmile_qr_scan", "android": "https://dc.lft.to/lastmile_qr_scan"}}, {"is_disabled": 0, "fusion_lat": 0.0, "lat": 38.9342725, "type": "electric_scooter", "lon": -76.96509933333333, "is_reserved": 0, "fusion_lon": 0.0, "bike_id": "5eb9e5edbdb5c525c04b86e1556f69fe", "name": "5eb9e5edbdb5c525c04b86e1556f69fe", "rental_uris": {"ios": "https://dc.lft.to/lastmile_qr_scan", "android": "https://dc.lft.to/lastmile_qr_scan"}}, {"is_disabled": 0, "fusion_lat": 0.0, "lat": 38.92212633333333, "type": "electric_scooter", "lon": -77.03658083333333, "is_reserved": 0, "fusion_lon": 0.0, "bike_id": "ed836a57be1d8dc57f0812730002127e", "name": "ed836a57be1d8dc57f0812730002127e", "rental_uris": {"ios": "https://dc.lft.to/lastmile_qr_scan", "android": "https://dc.lft.to/lastmile_qr_scan"}}, {"is_disabled": 0, "fusion_lat": 0.0, "lat": 38.887169666666665, "type": "electric_bike", "lon": -77.13307233333333, "is_reserved": 0, "fusion_lon": 0.0, "bike_id": "648c3bf77cc407744b4c768bb6c15f35", "name": "648c3bf77cc407744b4c768bb6c15f35", "rental_uris": {"ios": "https://dc.lft.to/lastmile_qr_scan", "android": "https://dc.lft.to/lastmile_qr_scan"}}, {"is_disabled": 0, "fusion_lat": 0.0, "lat": 38.928429333333334, "type": "electric_scooter", "lon": -77.01585183333333, "is_reserved": 0, "fusion_lon": 0.0, "bike_id": "0d9d14b49417e2a3042e9f5f476b9265", "name": "0d9d14b49417e2a3042e9f5f476b9265", "rental_uris": {"ios": "https://dc.lft.to/lastmile_qr_scan", "android": "https://dc.lft.to/lastmile_qr_scan"}}, {"is_disabled": 0, "fusion_lat": 0.0, "lat": 38.871937833333334, "type": "electric_scooter", "lon": -77.00607066666667, "is_reserved": 0, "fusion_lon": 0.0, "bike_id": "a812f7eeebb25a66782c80bb0db66642", "name": "a812f7eeebb25a66782c80bb0db66642", "rental_uris": {"ios": "https://dc.lft.to/lastmile_qr_scan", "android": "https://dc.lft.to/lastmile_qr_scan"}}, {"is_disabled": 0, "fusion_lat": 0.0, "lat": 38.905803, "type": "electric_scooter", "lon": -77.04183666666667, "is_reserved": 0, "fusion_lon": 0.0, "bike_id": "26f7f24c0f1136aadaeaee42440eef02", "name": "26f7f24c0f1136aadaeaee42440eef02", "rental_uris": {"ios": "https://dc.lft.to/lastmile_qr_scan", "android": "https://dc.lft.to/lastmile_qr_scan"}}, {"is_disabled": 0, "fusion_lat": 0.0, "lat": 38.90144333333333, "type": "electric_scooter", "lon": -77.02554033333334, "is_reserved": 0, "fusion_lon": 0.0, "bike_id": "20467411d8d1c9bfcac0436c400fff63", "name": "20467411d8d1c9bfcac0436c400fff63", "rental_uris": {"ios": "https://dc.lft.to/lastmile_qr_scan", "android": "https://dc.lft.to/lastmile_qr_scan"}}, {"is_disabled": 0, "fusion_lat": 0.0, "lat": 38.919819, "type": "electric_scooter", "lon": -77.03805366666667, "is_reserved": 0, "fusion_lon": 0.0, "bike_id": "c01620d09653c7054ddcbf588f90fb14", "name": "c01620d09653c7054ddcbf588f90fb14", "rental_uris": {"ios": "https://dc.lft.to/lastmile_qr_scan", "android": "https://dc.lft.to/lastmile_qr_scan"}}, {"is_disabled": 0, "fusion_lat": 0.0, "lat": 38.885454833333334, "type": "electric_bike", "lon": -77.11787883333334, "is_reserved": 0, "fusion_lon": 0.0, "bike_id": "20ce2d478caebe881dcdc5dbfe02200e", "name": "20ce2d478caebe881dcdc5dbfe02200e", "rental_uris": {"ios": "https://dc.lft.to/lastmile_qr_scan", "android": "https://dc.lft.to/lastmile_qr_scan"}}, {"is_disabled": 0, "fusion_lat": 0.0, "lat": 38.880582833333335, "type": "electric_scooter", "lon": -76.9322165, "is_reserved": 0, "fusion_lon": 0.0, "bike_id": "cadd1f23b1dac4e165badb9adcb593d4", "name": "cadd1f23b1dac4e165badb9adcb593d4", "rental_uris": {"ios": "https://dc.lft.to/lastmile_qr_scan", "android": "https://dc.lft.to/lastmile_qr_scan"}}, {"is_disabled": 0, "fusion_lat": 0.0, "lat": 38.99852933333333, "type": "electric_bike", "lon": -77.02907566666667, "is_reserved": 0, "fusion_lon": 0.0, "bike_id": "193ce6505da631f538184bdb0e650c86", "name": "193ce6505da631f538184bdb0e650c86", "rental_uris": {"ios": "https://dc.lft.to/lastmile_qr_scan", "android": "https://dc.lft.to/lastmile_qr_scan"}}, {"is_disabled": 0, "fusion_lat": 0.0, "lat": 38.89816866666666, "type": "electric_scooter", "lon": -77.03310466666667, "is_reserved": 0, "fusion_lon": 0.0, "bike_id": "2e2f156c23768be849e7cb1175d57653", "name": "2e2f156c23768be849e7cb1175d57653", "rental_uris": {"ios": "https://dc.lft.to/lastmile_qr_scan", "android": "https://dc.lft.to/lastmile_qr_scan"}}, {"is_disabled": 0, "fusion_lat": 0.0, "lat": 38.9181245, "type": "electric_scooter", "lon": -77.02701283333333, "is_reserved": 0, "fusion_lon": 0.0, "bike_id": "a86044a7ebf5e410416e3140a6e9f6e2", "name": "a86044a7ebf5e410416e3140a6e9f6e2", "rental_uris": {"ios": "https://dc.lft.to/lastmile_qr_scan", "android": "https://dc.lft.to/lastmile_qr_scan"}}, {"is_disabled": 0, "fusion_lat": 0.0, "lat": 38.9237215, "type": "electric_scooter", "lon": -77.04131066666666, "is_reserved": 0, "fusion_lon": 0.0, "bike_id": "0151cd63e5414015a4670d3575b42b9b", "name": "0151cd63e5414015a4670d3575b42b9b", "rental_uris": {"ios": "https://dc.lft.to/lastmile_qr_scan", "android": "https://dc.lft.to/lastmile_qr_scan"}}, {"is_disabled": 0, "fusion_lat": 0.0, "lat": 38.885136333333335, "type": "electric_scooter", "lon": -77.00569266666666, "is_reserved": 0, "fusion_lon": 0.0, "bike_id": "0ac79c5237268752b31bbc069afafd13", "name": "0ac79c5237268752b31bbc069afafd13", "rental_uris": {"ios": "https://dc.lft.to/lastmile_qr_scan", "android": "https://dc.lft.to/lastmile_qr_scan"}}, {"is_disabled": 0, "fusion_lat": 0.0, "lat": 38.90739583333333, "type": "electric_scooter", "lon": -76.998366, "is_reserved": 0, "fusion_lon": 0.0, "bike_id": "06e60625a028ba5fdc7c223152a43927", "name": "06e60625a028ba5fdc7c223152a43927", "rental_uris": {"ios": "https://dc.lft.to/lastmile_qr_scan", "android": "https://dc.lft.to/lastmile_qr_scan"}}, {"is_disabled": 0, "fusion_lat": 0.0, "lat": 38.88635883333333, "type": "electric_bike", "lon": -76.954739, "is_reserved": 0, "fusion_lon": 0.0, "bike_id": "09368adac295e2d96a75e7f278d0f374", "name": "09368adac295e2d96a75e7f278d0f374", "rental_uris": {"ios": "https://dc.lft.to/lastmile_qr_scan", "android": "https://dc.lft.to/lastmile_qr_scan"}},