{"data": {"bikes": [{"lon": -76.97302233333333, "bike_id": "24e382e7560100ced9231ae2b702b215", "lat": 38.91652166666667, "fusion_lon": 0.0, "fusion_lat": 0.0, "type": "electric_bike", "name": "24e382e7560100ced9231ae2b702b215", "is_disabled": 0, "rental_uris": {"ios": "https://dc.lft.to/lastmile_qr_scan", "android": "https://dc.lft.to/lastmile_qr_scan"}, "is_reserved": 0}, {"lon": -76.98527583333333, "bike_id": "3969e51391e20a61c2e94bf520206e36", "lat": 38.86678833333333, "fusion_lon": 0.0, "fusion_lat": 0.0, "type": "electric_scooter", "name": "3969e51391e20a61c2e94bf520206e36", "is_disabled": 0, "rental_uris": {"ios": "https://dc.lft.to/lastmile_qr_scan", "android": "https://dc.lft.to/lastmile_qr_scan"}, "is_reserved": 0}, {"lon": -77.23332216666667, "bike_id": "42cf8c03761907cb2d0b27bb39b58432", "lat": 38.87280116666667, "fusion_lon": 0.0, "fusion_lat": 0.0, "type": "electric_bike", "name": "42cf8c03761907cb2d0b27bb39b58432", "is_disabled": 0, "rental_uris": {"ios": "https://dc.lft.to/lastmile_qr_scan", "android": "https://dc.lft.to/lastmile_qr_scan"}, "is_reserved": 0}, {"lon": -77.03184483333334, "bike_id": "2ba803975454a40c83d9c934e4e4de48", "lat": 38.908477166666664, "fusion_lon": 0.0, "fusion_lat": 0.0, "type": "electric_scooter", "name": "2ba803975454a40c83d9c934e4e4de48", "is_disabled": 0, "rental_uris": {"ios": "https://dc.lft.to/lastmile_qr_scan", "android": "https://dc.lft.to/lastmile_qr_scan"}, "is_reserved": 0}, {"lon": -76.9945275, "bike_id": "f0ab5372cf5bd39f1ee4c57b8541fd06", "lat": 38.86281666666667, "fusion_lon": 0.0, "fusion_lat": 0.0, "type": "electric_scooter", "name": "f0ab5372cf5bd39f1ee4c57b8541fd06", "is_disabled": 0, "rental_uris": {"ios": "https://dc.lft.to/lastmile_qr_scan", "android": "https://dc.lft.to/lastmile_qr_scan"}, "is_reserved": 0}, {"lon": -76.96534683333333, "bike_id": "be714beaea270a1603a0e488ef54dd85", "lat": 38.918417, "fusion_lon": 0.0, "fusion_lat": 0.0, "type": "electric_scooter", "name": "be714beaea270a1603a0e488ef54dd85", "is_disabled": 0, "rental_uris": {"ios": "https://dc.lft.to/lastmile_qr_scan", "android": "https://dc.lft.to/lastmile_qr_scan"}, "is_reserved": 0}, {"lon": -76.949914, "bike_id": "042e96263a14792c82f5cec99b2b1e2d", "lat": 38.8938255, "fusion_lon": 0.0, "fusion_lat": 0.0, "type": "electric_scooter", "name": "042e96263a14792c82f5cec99b2b1e2d", "is_disabled": 0, "rental_uris": {"ios": "https://dc.lft.to/lastmile_qr_scan", "android": "https://dc.lft.to/lastmile_qr_scan"}, "is_reserved": 0}, {"lon": -77.02697933333333, "bike_id": "e1ac89bdc9890b6d7eadb6eb8b5f094a", "lat": 38.908472833333335, "fusion_lon": 0.0, "fusion_lat": 0.0, "type": "electric_scooter", "name": "e1ac89bdc9890b6d7eadb6eb8b5f094a", "is_disabled": 0, "rental_uris": {"ios": "https://dc.lft.to/lastmile_qr_scan", "android": "https://dc.lft.to/lastmile_qr_scan"}, "is_reserved": 0}, {"lon": -76.9887625, "bike_id": "a3919892d00bd95a2324cae5ae88b9f9", "lat": 38.866648166666664, "fusion_lon": 0.0, "fusion_lat": 0.0, "type": "electric_scooter", "name": "a3919892d00bd95a2324cae5ae88b9f9", "is_disabled": 0, "rental_uris": {"ios": "https://dc.lft.to/lastmile_qr_scan", "android": "https://dc.lft.to/lastmile_qr_scan"}, "is_reserved": 0}, {"lon": -77.01575516666666, "bike_id": "b4559014e97cd1a5a553bc1035bfff31", "lat": 38.953223666666666, "fusion_lon": 0.0, "fusion_lat": 0.0, "type": "electric_bike", "name": "b4559014e97cd1a5a553bc1035bfff31", "is_disabled": 0, "rental_uris": {"ios": "https://dc.lft.to/lastmile_qr_scan", "android": "https://dc.lft.to/lastmile_qr_scan"}, "is_reserved": 0}, {"lon": -77.02793333333334, "bike_id": "270f05ebc80b1fa47cd7963a3bf309cf", "lat": 38.92963366666667, "fusion_lon": 0.0, "fusion_lat": 0.0, "type": "electric_scooter", "name": "270f05ebc80b1fa47cd7963a3bf309cf", "is_disabled": 0, "rental_uris": {"ios": "https://dc.lft.to/lastmile_qr_scan", "android": "https://dc.lft.to/lastmile_qr_scan"}, "is_reserved": 0}, {"lon": -77.039777, "bike_id": "5eac932de041a637a32a69da2d494fb4", "lat": 38.928025166666664, "fusion_lon": 0.0, "fusion_lat": 0.0, "type": "electric_scooter", "name": "5eac932de041a637a32a69da2d494fb4", "is_disabled": 0, "rental_uris": {"ios": "https://dc.lft.to/lastmile_qr_scan", "android": "https://dc.lft.to/lastmile_qr_scan"}, "is_reserved": 0}, {"lon": -77.001044, "bike_id": "e30834e40af92adc7d1dcc53945cd3d3", "lat": 38.91246866666667, "fusion_lon": 0.0, "fusion_lat": 0.0, "type": "electric_scooter", "name": "e30834e40af92adc7d1dcc53945cd3d3", "is_disabled": 0, "rental_uris": {"ios": "https://dc.lft.to/lastmile_qr_scan", "android": "https://dc.lft.to/lastmile_qr_scan"}, "is_reserved": 0}, {"lon": -77.0255685, "bike_id": "9c409682722721547dd36f56e8546876", "lat": 38.88399233333333, "fusion_lon": 0.0, "fusion_lat": 0.0, "type": "electric_scooter", "name": "9c409682722721547dd36f56e8546876", "is_disabled": 0, "rental_uris": {"ios": "https://dc.lft.to/lastmile_qr_scan", "android": "https://dc.lft.to/lastmile_qr_scan"}, "is_reserved": 0}, {"lon": -77.03156833333334, "bike_id": "030fbbb401b5225f0639e03ab8a27b3d", "lat": 38.91695516666667, "fusion_lon": 0.0, "fusion_lat": 0.0, "type": "electric_scooter", "name": "030fbbb401b5225f0639e03ab8a27b3d", "is_disabled": 0, "rental_uris": {"ios": "https://dc.lft.to/lastmile_qr_scan", "android": "https://dc.lft.to/lastmile_qr_scan"}, "is_reserved": 0}, {"lon": -77.02706966666666, "bike_id": "daaa585e2796f6a54288ac943a844ba6", "lat": 38.90672433333334, "fusion_lon": 0.0, "fusion_lat": 0.0, "type": "electric_scooter", "name": "daaa585e2796f6a54288ac943a844ba6", "is_disabled": 0, "rental_uris": {"ios": "https://dc.lft.to/lastmile_qr_scan", "android": "https://dc.lft.to/lastmile_qr_scan"}, "is_reserved": 0}, {"lon": -76.99472, "bike_id": "daf5faa2c53d6a5bd4ce8c42f0b65544", "lat": 38.88268583333333, "fusion_lon": 0.0, "fusion_lat": 0.0, "type": "electric_scooter", "name": "daf5faa2c53d6a5bd4ce8c42f0b65544", "is_disabled": 0, "rental_uris": {"ios": "https://dc.lft.to/lastmile_qr_scan", "android": "https://dc.lft.to/lastmile_qr_scan"}, "is_reserved": 0}, {"lon": -76.99779716666667, "bike_id": "da178bcaf600ae8156b6b89615324281", "lat": 38.844262666666665, "fusion_lon": 0.0, "fusion_lat": 0.0, "type": "electric_scooter", "name": "da178bcaf600ae8156b6b89615324281", "is_disabled": 0, "rental_uris": {"ios": "https://dc.lft.to/lastmile_qr_scan", "android": "https://dc.lft.to/lastmile_qr_scan"}, "is_reserved": 0}, {"lon": -77.0201015, "bike_id": "854afd8824bcbb68e9d336be2e348ab0", "lat": 38.924165, "fusion_lon": 0.0, "fusion_lat": 0.0, "type": "electric_scooter", "name": "854afd8824bcbb68e9d336be2e348ab0", "is_disabled": 0, "rental_uris": {"ios": "https://dc.lft.to/lastmile_qr_scan", "android": "https://dc.lft.to/lastmile_qr_scan"}, "is_reserved": 0}, {"lon": -77.03236416666667, "bike_id": "deab3d66dd4cbac876071a3314dfd279", "lat": 38.92470016666667, "fusion_lon": 0.0, "fusion_lat": 0.0, "type": "electric_scooter", "name": "deab3d66dd4cbac876071a3314dfd279", "is_disabled": 0, "rental_uris": {"ios": "https://dc.lft.to/lastmile_qr_scan", "android": "https://dc.lft.to/lastmile_qr_scan"}, "is_reserved": 0}, {"lon": -76.90474533333334, "bike_id": "15e315e5e901f32b311ddd199b71d4e5", "lat": 39.00296016666667, "fusion_lon": 0.0, "fusion_lat": 0.0, "type": "electric_bike", "name": "15e315e5e901f32b311ddd199b71d4e5", "is_disabled": 0, "rental_uris": {"ios": "https://dc.lft.to/lastmile_qr_scan", "android": "https://dc.lft.to/lastmile_qr_scan"}, "is_reserved": 0}, {"lon": -77.02241266666667, "bike_id": "a58f78ee9aff0541f811ab99854a1d83", "lat": 38.908707666666665, "fusion_lon": 0.0, "fusion_lat": 0.0, "type": "electric_scooter", "name": "a58f78ee9aff0541f811ab99854a1d83", "is_disabled": 0, "rental_uris": {"ios": "https://dc.lft.to/lastmile_qr_scan", "android": "https://dc.lft.to/lastmile_qr_scan"}, "is_reserved": 0}, {"lon": -76.94730883333334, "bike_id": "10e521ec300eb3919d7cf7d24fa6d61c", "lat": 38.8973635, "fusion_lon": 0.0, "fusion_lat": 0.0, "type": "electric_scooter", "name": "10e521ec300eb3919d7cf7d24fa6d61c", "is_disabled": 0, "rental_uris": {"ios": "https://dc.lft.to/lastmile_qr_scan", "android": "https://dc.lft.to/lastmile_qr_scan"}, "is_reserved": 0}, {"lon": -77.016242, "bike_id": "12e739842d8c95720a2ebdb633709d77", "lat": 38.965737833333336, "fusion_lon": 0.0, "fusion_lat": 0.0, "type": "electric_scooter", "name": "12e739842d8c95720a2ebdb633709d77", "is_disabled": 0, "rental_uris": {"ios": "https://dc.lft.to/lastmile_qr_scan", "android": "https://dc.lft.to/lastmile_qr_scan"}, "is_reserved": 0}, {"lon": -76.97707383333334, "bike_id": "1a2d84cb4e28073bb7640b92a1037a7c", "lat": 38.9491595, "fusion_lon": 0.0, "fusion_lat": 0.0, "type": "electric_bike", "name": "1a2d84cb4e28073bb7640b92a1037a7c", "is_disabled": 0, "rental_uris": {"ios": "https://dc.lft.to/lastmile_qr_scan", "android": "https://dc.lft.to/lastmile_qr_scan"}, "is_reserved": 0}, {"lon": -77.0452835, "bike_id": "ca59e8362d519838f611e60764945c2b", "lat": 38.91830816666667, "fusion_lon": 0.0, "fusion_lat": 0.0, "type": "electric_scooter", "name": "ca59e8362d519838f611e60764945c2b", "is_disabled": 0, "rental_uris": {"ios": "https://dc.lft.to/lastmile_qr_scan", "android": "https://dc.lft.to/lastmile_qr_scan"}, "is_reserved": 0}, {"lon": -77.027221, "bike_id": "a5986869b9b801789bca03422cbf48fd", "lat": 38.908663, "fusion_lon": 0.0, "fusion_lat": 0.0, "type": "electric_scooter", "name": "a5986869b9b801789bca03422cbf48fd", "is_disabled": 0, "rental_uris": {"ios": "https://dc.lft.to/lastmile_qr_scan", "android": "https://dc.lft.to/lastmile_qr_scan"}, "is_reserved": 0}, {"lon": -77.01200516666667, "bike_id": "b3b552cdb985498006af6a132d67b1e7", "lat": 38.88551733333333, "fusion_lon": 0.0, "fusion_lat": 0.0, "type": "electric_scooter", "name": "b3b552cdb985498006af6a132d67b1e7", "is_disabled": 0, "rental_uris": {"ios": "https://dc.lft.to/lastmile_qr_scan", "android": "https://dc.lft.to/lastmile_qr_scan"}, "is_reserved": 0}, {"lon": -77.360943, "bike_id": "f21771ef1cf5cadb51e0b873364acb0b", "lat": 38.9396075, "fusion_lon": 0.0, "fusion_lat": 0.0, "type": "electric_bike", "name": "f21771ef1cf5cadb51e0b873364acb0b", "is_disabled": 0, "rental_uris": {"ios": "https://dc.lft.to/lastmile_qr_scan", "android": "https://dc.lft.to/lastmile_qr_scan"}, "is_reserved": 0}, {"lon": -77.03202516666667, "bike_id": "ffee478c2c5ced793165d9574ed84249", "lat": 38.9207245, "fusion_lon": 0.0, "fusion_lat": 0.0, "type": "electric_scooter", "name": "ffee478c2c5ced793165d9574ed84249", "is_disabled": 0, "rental_uris": {"ios": "https://dc.lft.to/lastmile_qr_scan", "android": "https://dc.lft.to/lastmile_qr_scan"}, "is_reserved": 0}, {"lon": -77.05298266666667, "bike_id": "b278a43b20f488fa255a0616101304d2", "lat": 38.898883, "fusion_lon": 0.0, "fusion_lat": 0.0, "type": "electric_scooter", "name": "b278a43b20f488fa255a0616101304d2", "is_disabled": 0, "rental_uris": {"ios": "https://dc.lft.to/lastmile_qr_scan", "android": "https://dc.lft.to/lastmile_qr_scan"}, "is_reserved": 0}, {"lon": -77.020148, "bike_id": "6e1cea7b79d4928b66c958fc4cfb7da2", "lat": 38.9016695, "fusion_lon": 0.0, "fusion_lat": 0.0, "type": "electric_scooter", "name": "6e1cea7b79d4928b66c958fc4cfb7da2", "is_disabled": 0, "rental_uris": {"ios": "https://dc.lft.to/lastmile_qr_scan", "android": "https://dc.lft.to/lastmile_qr_scan"}, "is_reserved": 0}, {"lon": -77.024939, "bike_id": "6d65f71456bb964e8eb11ac0312714f7", "lat": 38.93098833333333, "fusion_lon": 0.0, "fusion_lat": 0.0, "type": "electric_scooter", "name": "6d65f71456bb964e8eb11ac0312714f7", "is_disabled": 0, "rental_uris": {"ios": "https://dc.lft.to/lastmile_qr_scan", "android": "https://dc.lft.to/lastmile_qr_scan"}, "is_reserved": 0}, {"lon": -77.032866, "bike_id": "6fadc97f711019db5dbc5acbe849aa80", "lat": 38.93982033333333, "fusion_lon": 0.0, "fusion_lat": 0.0, "type": "electric_scooter", "name": "6fadc97f711019db5dbc5acbe849aa80", "is_disabled": 0, "rental_uris": {"ios": "https://dc.lft.to/lastmile_qr_scan", "android": "https://dc.lft.to/lastmile_qr_scan"}, "is_reserved": 0}, {"lon": -77.03285516666666, "bike_id": "be33d0abdf5bbaa8da76ace1e3ad941d", "lat": 38.95645733333333, "fusion_lon": 0.0, "fusion_lat": 0.0, "type": "electric_scooter", "name": "be33d0abdf5bbaa8da76ace1e3ad941d", "is_disabled": 0, "rental_uris": {"ios": "https://dc.lft.to/lastmile_qr_scan", "android": "https://dc.lft.to/lastmile_qr_scan"}, "is_reserved": 0}, {"lon": -77.03181133333334, "bike_id": "86f92f3ea7b113d97823491dc8be32c8", "lat": 38.8923785, "fusion_lon": 0.0, "fusion_lat": 0.0, "type": "electric_scooter", "name": "86f92f3ea7b113d97823491dc8be32c8", "is_disabled": 0, "rental_uris": {"ios": "https://dc.lft.to/lastmile_qr_scan", "android": "https://dc.lft.to/lastmile_qr_scan"}, "is_reserved": 0}, {"lon": -77.01775183333334, "bike_id": "8190c873bf8fdffb40338f128d959819", "lat": 38.887184500000004, "fusion_lon": 0.0, "fusion_lat": 0.0, "type": "electric_scooter", "name": "8190c873bf8fdffb40338f128d959819", "is_disabled": 0, "rental_uris": {"ios": "https://dc.lft.to/lastmile_qr_scan", "android": "https://dc.lft.to/lastmile_qr_scan"}, "is_reserved": 0}, {"lon": -76.997939, "bike_id": "1e2ef4467625aa557c0ec4c2e93dbe72", "lat": 38.956446, "fusion_lon": 0.0, "fusion_lat": 0.0, "type": "electric_bike", "name": "1e2ef4467625aa557c0ec4c2e93dbe72", "is_disabled": 0, "rental_uris": {"ios": "https://dc.lft.to/lastmile_qr_scan", "android": "https://dc.lft.to/lastmile_qr_scan"}, "is_reserved": 0}, {"lon": -77.0586175, "bike_id": "7ec86f8c445dd20cbdbd2f4654e6b69c", "lat": 38.9354495, "fusion_lon": 0.0, "fusion_lat": 0.0, "type": "electric_scooter", "name": "7ec86f8c445dd20cbdbd2f4654e6b69c", "is_disabled": 0, "rental_uris": {"ios": "https://dc.lft.to/lastmile_qr_scan", "android": "https://dc.lft.to/lastmile_qr_scan"}, "is_reserved": 0}, {"lon": -77.036256, "bike_id": "80dbf008bd2f4f240a26b9ac1b1bb2d4", "lat": 38.93767166666667, "fusion_lon": 0.0, "fusion_lat": 0.0, "type": "electric_bike", "name": "80dbf008bd2f4f240a26b9ac1b1bb2d4", "is_disabled": 0, "rental_uris": {"ios": "https://dc.lft.to/lastmile_qr_scan", "android": "https://dc.lft.to/lastmile_qr_scan"}, "is_reserved": 0}, {"lon": -77.03179, "bike_id": "ee2f606ab849429dcf345bff6df916f7", "lat": 38.89222733333333, "fusion_lon": 0.0, "fusion_lat": 0.0, "type": "electric_scooter", "name": "ee2f606ab849429dcf345bff6df916f7", "is_disabled": 0, "rental_uris": {"ios": "https://dc.lft.to/lastmile_qr_scan", "android": "https://dc.lft.to/lastmile_qr_scan"}, "is_reserved": 0}, {"lon": -76.99473916666666, "bike_id": "7c219a944f31f85968e15f0163ceebef", "lat": 38.88267833333333, "fusion_lon": 0.0, "fusion_lat": 0.0, "type": "electric_scooter", "name": "7c219a944f31f85968e15f0163ceebef", "is_disabled": 0, "rental_uris": {"ios": "https://dc.lft.to/lastmile_qr_scan", "android": "https://dc.lft.to/lastmile_qr_scan"}, "is_reserved": 0}, {"lon": -77.04503216666667, "bike_id": "aa0b093a35dc1084e423584baf28d7c4", "lat": 38.911126833333334, "fusion_lon": 0.0, "fusion_lat": 0.0, "type": "electric_scooter", "name": "aa0b093a35dc1084e423584baf28d7c4", "is_disabled": 0, "rental_uris": {"ios": "https://dc.lft.to/lastmile_qr_scan", "android": "https://dc.lft.to/lastmile_qr_scan"}, "is_reserved": 0}, {"lon": -76.97328183333333, "bike_id": "06f0d74681d662f69d7c415a72d33d6b", "lat": 38.90480783333334, "fusion_lon": 0.0, "fusion_lat": 0.0, "type": "electric_bike", "name": "06f0d74681d662f69d7c415a72d33d6b", "is_disabled": 0, "rental_uris": {"ios": "https://dc.lft.to/lastmile_qr_scan", "android": "https://dc.lft.to/lastmile_qr_scan"}, "is_reserved": 0}, {"lon": -77.0386165, "bike_id": "8f74af2d053287c6bce1f3ed6102b0d0", "lat": 38.91183083333333, "fusion_lon": 0.0, "fusion_lat": 0.0, "type": "electric_scooter", "name": "8f74af2d053287c6bce1f3ed6102b0d0", "is_disabled": 0, "rental_uris": {"ios": "https://dc.lft.to/lastmile_qr_scan", "android": "https://dc.lft.to/lastmile_qr_scan"}, "is_reserved": 0}, {"lon": -77.02393433333333, "bike_id": "af0a58c45ed1e6782f51c54530fd33e7", "lat": 38.881333166666664, "fusion_lon": 0.0, "fusion_lat": 0.0, "type": "electric_scooter", "name": "af0a58c45ed1e6782f51c54530fd33e7", "is_disabled": 0, "rental_uris": {"ios": "https://dc.lft.to/lastmile_qr_scan", "android": "https://dc.lft.to/lastmile_qr_scan"}, "is_reserved": 0}, {"lon": -77.0320635, "bike_id": "3d105a5ec6d142b4fcab85d849ee725b", "lat": 38.91182166666667, "fusion_lon": 0.0, "fusion_lat": 0.0, "type": "electric_scooter", "name": "3d105a5ec6d142b4fcab85d849ee725b", "is_disabled": 0, "rental_uris": {"ios": "https://dc.lft.to/lastmile_qr_scan", "android": "https://dc.lft.to/lastmile_qr_scan"}, "is_reserved": 0}, {"lon": -77.03240833333334, "bike_id": "9f50b3268ab460d5971eac929243651d", "lat": 38.91557016666667, "fusion_lon": 0.0, "fusion_lat": 0.0, "type": "electric_scooter", "name": "9f50b3268ab460d5971eac929243651d", "is_disabled": 0, "rental_uris": {"ios": "https://dc.lft.to/lastmile_qr_scan", "android": "https://dc.lft.to/lastmile_qr_scan"}, "is_reserved": 0}, {"lon": -77.030689, "bike_id": "66c9f79eb86ebe287a44f236fe5781ec", "lat": 38.902771, "fusion_lon": 0.0, "fusion_lat": 0.0, "type": "electric_scooter", "name": "66c9f79eb86ebe287a44f236fe5781ec", "is_disabled": 0, "rental_uris": {"ios": "https://dc.lft.to/lastmile_qr_scan", "android": "https://dc.lft.to/lastmile_qr_scan"}, "is_reserved": 0}, {"lon": -77.023821, "bike_id": "b19da66fb831ed447117ebc1fe6ff9e1", "lat": 38.920033, "fusion_lon": 0.0, "fusion_lat": 0.0, "type": "electric_scooter", "name": "b19da66fb831ed447117ebc1fe6ff9e1", "is_disabled": 0, "rental_uris": {"ios": "https://dc.lft.to/lastmile_qr_scan", "android": "https://dc.lft.to/lastmile_qr_scan"}, "is_reserved": 0}, {"lon": -77.03412266666666, "bike_id": "7e6a74729bf9f12ca177b147d4cc6e8d", "lat": 38.92325666666667, "fusion_lon": 0.0, "fusion_lat": 0.0, "type": "electric_scooter", "name": "7e6a74729bf9f12ca177b147d4cc6e8d", "is_disabled": 0, "rental_uris": {"ios": "https://dc.lft.to/lastmile_qr_scan", "android": "https://dc.lft.to/lastmile_qr_scan"}, "is_reserved": 0}, {"lon": -77.03828066666667, "bike_id": "da0590b30d5e83fadc3f6b6b303da49a", "lat": 38.906778833333334, "fusion_lon": 0.0, "fusion_lat": 0.0, "type": "electric_scooter", "name": "da0590b30d5e83fadc3f6b6b303da49a", "is_disabled": 0, "rental_uris": {"ios": "https://dc.lft.to/lastmile_qr_scan", "android": "https://dc.lft.to/lastmile_qr_scan"}, "is_reserved": 0}, {"lon": -77.052726, "bike_id": "6158d0de95eb1f9412c075b0c9cc5db3", "lat": 38.927829333333335, "fusion_lon": 0.0, "fusion_lat": 0.0, "type": "electric_scooter", "name": "6158d0de95eb1f9412c075b0c9cc5db3", "is_disabled": 0, "rental_uris": {"ios": "https://dc.lft.to/lastmile_qr_scan", "android": "https://dc.lft.to/lastmile_qr_scan"}, "is_reserved": 0}, {"lon": -77.01749933333333, "bike_id": "371a22db46a759f7f292f3d19eec1745", "lat": 38.9026745, "fusion_lon": 0.0, "fusion_lat": 0.0, "type": "electric_scooter", "name": "371a22db46a759f7f292f3d19eec1745", "is_disabled": 0, "rental_uris": {"ios": "https://dc.lft.to/lastmile_qr_scan", "android": "https://dc.lft.to/lastmile_qr_scan"}, "is_reserved": 0}, {"lon": -76.975336, "bike_id": "de938cb8e9465eb11e3f17a0b494ad86", "lat": 38.90330083333333, "fusion_lon": 0.0, "fusion_lat": 0.0, "type": "electric_bike", "name": "de938cb8e9465eb11e3f17a0b494ad86", "is_disabled": 0, "rental_uris": {"ios": "https://dc.lft.to/lastmile_qr_scan", "android": "https://dc.lft.to/lastmile_qr_scan"}, "is_reserved": 0}, {"lon": -77.02116033333333, "bike_id": "c588515650e9beb580ed7e36dfb572df", "lat": 38.909719833333334, "fusion_lon": 0.0, "fusion_lat": 0.0, "type": "electric_scooter", "name": "c588515650e9beb580ed7e36dfb572df", "is_disabled": 0, "rental_uris": {"ios": "https://dc.lft.to/lastmile_qr_scan", "android": "https://dc.lft.to/lastmile_qr_scan"}, "is_reserved": 0}, {"lon": -77.0214515, "bike_id": "ac946acb9b94f10fa7a4eb167d164e4f", "lat": 38.900889, "fusion_lon": 0.0, "fusion_lat": 0.0, "type": "electric_scooter", "name": "ac946acb9b94f10fa7a4eb167d164e4f", "is_disabled": 0, "rental_uris": {"ios": "https://dc.lft.to/lastmile_qr_scan", "android": "https://dc.lft.to/lastmile_qr_scan"}, "is_reserved": 0}, {"lon": -77.05859333333333, "bike_id": "cea6e205d680978e7672cc95bd4a32e7", "lat": 38.936072333333335, "fusion_lon": 0.0, "fusion_lat": 0.0, "type": "electric_scooter", "name": "cea6e205d680978e7672cc95bd4a32e7", "is_disabled": 0, "rental_uris": {"ios": "https://dc.lft.to/lastmile_qr_scan", "android": "https://dc.lft.to/lastmile_qr_scan"}, "is_reserved": 0}, {"lon": -77.0276035, "bike_id": "aaeffcdf28e0fbed88d05a2d36dd221e", "lat": 38.944036, "fusion_lon": 0.0, "fusion_lat": 0.0, "type": "electric_scooter", "name": "aaeffcdf28e0fbed88d05a2d36dd221e", "is_disabled": 0, "rental_uris": {"ios": "https://dc.lft.to/lastmile_qr_scan", "android": "https://dc.lft.to/lastmile_qr_scan"}, "is_reserved": 0}, {"lon": -77.021953, "bike_id": "39f0ac2937a4db0dec518f0ac343c19a", "lat": 38.920008, "fusion_lon": 0.0, "fusion_lat": 0.0, "type": "electric_scooter", "name": "39f0ac2937a4db0dec518f0ac343c19a", "is_disabled": 0, "rental_uris": {"ios": "https://dc.lft.to/lastmile_qr_scan", "android": "https://dc.lft.to/lastmile_qr_scan"}, "is_reserved": 0}, {"lon": -77.024671, "bike_id": "d204f6fa647157869d9014ceed8baf7e", "lat": 38.90100533333333, "fusion_lon": 0.0, "fusion_lat": 0.0, "type": "electric_scooter", "name": "d204f6fa647157869d9014ceed8baf7e", "is_disabled": 0, "rental_uris": {"ios": "https://dc.lft.to/lastmile_qr_scan", "android": "https://dc.lft.to/lastmile_qr_scan"}, "is_reserved": 0}, {"lon": -77.0216265, "bike_id": "f812f928a9dbebc4a77f30069086fba7", "lat": 38.89746383333333, "fusion_lon": 0.0, "fusion_lat": 0.0, "type": "electric_scooter", "name": "f812f928a9dbebc4a77f30069086fba7", "is_disabled": 0, "rental_uris": {"ios": "https://dc.lft.to/lastmile_qr_scan", "android": "https://dc.lft.to/lastmile_qr_scan"}, "is_reserved": 0}, {"lon": -77.0217995, "bike_id": "b54212de6978f9033beb9aa1503b0502", "lat": 38.9095205, "fusion_lon": 0.0, "fusion_lat": 0.0, "type": "electric_scooter", "name": "b54212de6978f9033beb9aa1503b0502", "is_disabled": 0, "rental_uris": {"ios": "https://dc.lft.to/lastmile_qr_scan", "android": "https://dc.lft.to/lastmile_qr_scan"}, "is_reserved": 0}, {"lon": -77.024036, "bike_id": "de502bab9a68648798cc87209d236a59", "lat": 38.88290283333333, "fusion_lon": 0.0, "fusion_lat": 0.0, "type": "electric_scooter", "name": "de502bab9a68648798cc87209d236a59", "is_disabled": 0, "rental_uris": {"ios": "https://dc.lft.to/lastmile_qr_scan", "android": "https://dc.lft.to/lastmile_qr_scan"}, "is_reserved": 0}, {"lon": -77.0594995, "bike_id": "b207a0ff3b237c80c8ac4f38e1a121b8", "lat": 38.918391, "fusion_lon": 0.0, "fusion_lat": 0.0, "type": "electric_scooter", "name": "b207a0ff3b237c80c8ac4f38e1a121b8", "is_disabled": 0, "rental_uris": {"ios": "https://dc.lft.to/lastmile_qr_scan", "android": "https://dc.lft.to/lastmile_qr_scan"}, "is_reserved": 0}, {"lon": -77.03665983333333, "bike_id": "1d3fe4f66911dc7728d3fadbb5c3e5a8", "lat": 38.91813716666667, "fusion_lon": 0.0, "fusion_lat": 0.0, "type": "electric_scooter", "name": "1d3fe4f66911dc7728d3fadbb5c3e5a8", "is_disabled": 0, "rental_uris": {"ios": "https://dc.lft.to/lastmile_qr_scan", "android": "https://dc.lft.to/lastmile_qr_scan"}, "is_reserved": 0}, {"lon": -77.0367235, "bike_id": "9c5d0919d4ba37f80293b2be7c8e5e58", "lat": 38.908385833333334, "fusion_lon": 0.0, "fusion_lat": 0.0, "type": "electric_scooter", "name": "9c5d0919d4ba37f80293b2be7c8e5e58", "is_disabled": 0, "rental_uris": {"ios": "https://dc.lft.to/lastmile_qr_scan", "android": "https://dc.lft.to/lastmile_qr_scan"}, "is_reserved": 0}, {"lon": -77.01903516666667, "bike_id": "0957017c2da2e82e9ec99434d5dead9d", "lat": 38.88613316666667, "fusion_lon": 0.0, "fusion_lat": 0.0, "type": "electric_scooter", "name": "0957017c2da2e82e9ec99434d5dead9d", "is_disabled": 0, "rental_uris": {"ios": "https://dc.lft.to/lastmile_qr_scan", "android": "https://dc.lft.to/lastmile_qr_scan"}, "is_reserved": 0}, {"lon": -77.03177766666667, "bike_id": "bae5a9251e53c23833e1fd8c0e2b2737", "lat": 38.89224083333333, "fusion_lon": 0.0, "fusion_lat": 0.0, "type": "electric_scooter", "name": "bae5a9251e53c23833e1fd8c0e2b2737", "is_disabled": 0, "rental_uris": {"ios": "https://dc.lft.to/lastmile_qr_scan", "android": "https://dc.lft.to/lastmile_qr_scan"}, "is_reserved": 0}, {"lon": -76.98585716666666, "bike_id": "daa14404163cd262548c538b28b14ba8", "lat": 38.866855, "fusion_lon": 0.0, "fusion_lat": 0.0, "type": "electric_scooter", "name": "daa14404163cd262548c538b28b14ba8", "is_disabled": 0, "rental_uris": {"ios": "https://dc.lft.to/lastmile_qr_scan", "android": "https://dc.lft.to/lastmile_qr_scan"}, "is_reserved": 0}, {"lon": -77.02628816666666, "bike_id": "4a6789afa914d3d4acd83960e3d020bf", "lat": 38.962324333333335, "fusion_lon": 0.0, "fusion_lat": 0.0, "type": "electric_bike", "name": "4a6789afa914d3d4acd83960e3d020bf", "is_disabled": 0, "rental_uris": {"ios": "https://dc.lft.to/lastmile_qr_scan", "android": "https://dc.lft.to/lastmile_qr_scan"}, "is_reserved": 0}, {"lon": -77.0100095, "bike_id": "047c33a70a68099901cbda61bccbd3f4", "lat": 38.89478066666667, "fusion_lon": 0.0, "fusion_lat": 0.0, "type": "electric_scooter", "name": "047c33a70a68099901cbda61bccbd3f4", "is_disabled": 0, "rental_uris": {"ios": "https://dc.lft.to/lastmile_qr_scan", "android": "https://dc.lft.to/lastmile_qr_scan"}, "is_reserved": 0}, {"lon": -77.025377, "bike_id": "95453a087576a57798a32f894024c0b3", "lat": 38.9274965, "fusion_lon": 0.0, "fusion_lat": 0.0, "type": "electric_scooter", "name": "95453a087576a57798a32f894024c0b3", "is_disabled": 0, "rental_uris": {"ios": "https://dc.lft.to/lastmile_qr_scan", "android": "https://dc.lft.to/lastmile_qr_scan"}, "is_reserved": 0}, {"lon": -77.03863333333334, "bike_id": "ce65a298c3c00de14ecc2e2730b44b9d", "lat": 38.911773333333336, "fusion_lon": 0.0, "fusion_lat": 0.0, "type": "electric_scooter", "name": "ce65a298c3c00de14ecc2e2730b44b9d", "is_disabled": 0, "rental_uris": {"ios": "https://dc.lft.to/lastmile_qr_scan", "android": "https://dc.lft.to/lastmile_qr_scan"}, "is_reserved": 0}, {"lon": -76.9953315, "bike_id": "6125c0f8703a127d40701358f58e6ab9", "lat": 38.88376683333333, "fusion_lon": 0.0, "fusion_lat": 0.0, "type": "electric_scooter", "name": "6125c0f8703a127d40701358f58e6ab9", "is_disabled": 0, "rental_uris": {"ios": "https://dc.lft.to/lastmile_qr_scan", "android": "https://dc.lft.to/lastmile_qr_scan"}, "is_reserved": 0}, {"lon": -77.03428916666667, "bike_id": "ac0233884b98ca5ce410fd65d20715d1", "lat": 38.90244233333333, "fusion_lon": 0.0, "fusion_lat": 0.0, "type": "electric_scooter", "name": "ac0233884b98ca5ce410fd65d20715d1", "is_disabled": 0, "rental_uris": {"ios": "https://dc.lft.to/lastmile_qr_scan", "android": "https://dc.lft.to/lastmile_qr_scan"}, "is_reserved": 0}, {"lon": -77.03292083333334, "bike_id": "55b8634e63c10cde075e0f75f87221bb", "lat": 38.927522833333335, "fusion_lon": 0.0, "fusion_lat": 0.0, "type": "electric_scooter", "name": "55b8634e63c10cde075e0f75f87221bb", "is_disabled": 0, "rental_uris": {"ios": "https://dc.lft.to/lastmile_qr_scan", "android": "https://dc.lft.to/lastmile_qr_scan"}, "is_reserved": 0}, {"lon": -77.00067933333334, "bike_id": "40c0bf3fdf8faa31203441860cd635d6", "lat": 38.8999935, "fusion_lon": 0.0, "fusion_lat": 0.0, "type": "electric_scooter", "name": "40c0bf3fdf8faa31203441860cd635d6", "is_disabled": 0, "rental_uris": {"ios": "https://dc.lft.to/lastmile_qr_scan", "android": "https://dc.lft.to/lastmile_qr_scan"}, "is_reserved": 0}, {"lon": -77.01851533333334, "bike_id": "9d54e2cbb412e9daf1bc041d6ff641f9", "lat": 38.912567833333334, "fusion_lon": 0.0, "fusion_lat": 0.0, "type": "electric_scooter", "name": "9d54e2cbb412e9daf1bc041d6ff641f9", "is_disabled": 0, "rental_uris": {"ios": "https://dc.lft.to/lastmile_qr_scan", "android": "https://dc.lft.to/lastmile_qr_scan"}, "is_reserved": 0}, {"lon": -77.010972, "bike_id": "3f9eee47a0cb4d470eebce8aafcde3df", "lat": 38.903687833333336, "fusion_lon": 0.0, "fusion_lat": 0.0, "type": "electric_scooter", "name": "3f9eee47a0cb4d470eebce8aafcde3df", "is_disabled": 0, "rental_uris": {"ios": "https://dc.lft.to/lastmile_qr_scan", "android": "https://dc.lft.to/lastmile_qr_scan"}, "is_reserved": 0}, {"lon": -77.04861283333334, "bike_id": "0e071ae3182e41f4f5b27140424a1d27", "lat": 38.9162075, "fusion_lon": 0.0, "fusion_lat": 0.0, "type": "electric_scooter", "name": "0e071ae3182e41f4f5b27140424a1d27", "is_disabled": 0, "rental_uris": {"ios": "https://dc.lft.to/lastmile_qr_scan", "android": "https://dc.lft.to/lastmile_qr_scan"}, "is_reserved": 0}, {"lon": -77.03191433333333, "bike_id": "7af4a4ce59a28b67d6278835978457e3", "lat": 38.917493666666665, "fusion_lon": 0.0, "fusion_lat": 0.0, "type": "electric_scooter", "name": "7af4a4ce59a28b67d6278835978457e3", "is_disabled": 0, "rental_uris": {"ios": "https://dc.lft.to/lastmile_qr_scan", "android": "https://dc.lft.to/lastmile_qr_scan"}, "is_reserved": 0}, {"lon": -76.98842383333333, "bike_id": "49c19d0c54c9b169253dcedd6a5ae608", "lat": 38.8853475, "fusion_lon": 0.0, "fusion_lat": 0.0, "type": "electric_bike", "name": "49c19d0c54c9b169253dcedd6a5ae608", "is_disabled": 0, "rental_uris": {"ios": "https://dc.lft.to/lastmile_qr_scan", "android": "https://dc.lft.to/lastmile_qr_scan"}, "is_reserved": 0}, {"lon": -77.038063, "bike_id": "f483792c0b8b86ad6ff748ce7091d979", "lat": 38.931104500000004, "fusion_lon": 0.0, "fusion_lat": 0.0, "type": "electric_scooter", "name": "f483792c0b8b86ad6ff748ce7091d979", "is_disabled": 0, "rental_uris": {"ios": "https://dc.lft.to/lastmile_qr_scan", "android": "https://dc.lft.to/lastmile_qr_scan"}, "is_reserved": 0}, {"lon": -77.04096483333333, "bike_id": "d7945e652c99c7eae7d22fef0f0bb926", "lat": 38.917168833333335, "fusion_lon": 0.0, "fusion_lat": 0.0, "type": "electric_scooter", "name": "d7945e652c99c7eae7d22fef0f0bb926", "is_disabled": 0, "rental_uris": {"ios": "https://dc.lft.to/lastmile_qr_scan", "android": "https://dc.lft.to/lastmile_qr_scan"}, "is_reserved": 0}, {"lon": -77.000728, "bike_id": "23fe37d852748c077945155cdcbed668", "lat": 38.8737415, "fusion_lon": 0.0, "fusion_lat": 0.0, "type": "electric_scooter", "name": "23fe37d852748c077945155cdcbed668", "is_disabled": 0, "rental_uris": {"ios": "https://dc.lft.to/lastmile_qr_scan", "android": "https://dc.lft.to/lastmile_qr_scan"}, "is_reserved": 0}, {"lon": -77.02764333333333, "bike_id": "a23d04175240a897b3ea917fbd9a9442", "lat": 38.954266833333335, "fusion_lon": 0.0, "fusion_lat": 0.0, "type": "electric_scooter", "name": "a23d04175240a897b3ea917fbd9a9442", "is_disabled": 0, "rental_uris": {"ios": "https://dc.lft.to/lastmile_qr_scan", "android": "https://dc.lft.to/lastmile_qr_scan"}, "is_reserved": 0}, {"lon": -77.04825166666667, "bike_id": "a079bfcd3028a5faa0c52e59be5c3ff9", "lat": 38.911146333333335, "fusion_lon": 0.0, "fusion_lat": 0.0, "type": "electric_scooter", "name": "a079bfcd3028a5faa0c52e59be5c3ff9", "is_disabled": 0, "rental_uris": {"ios": "https://dc.lft.to/lastmile_qr_scan", "android": "https://dc.lft.to/lastmile_qr_scan"}, "is_reserved": 0}, {"lon": -77.04474283333333, "bike_id": "03b0427b2f6cdad6733e9e7e5de0c4cd", "lat": 38.92388583333333, "fusion_lon": 0.0, "fusion_lat": 0.0, "type": "electric_scooter", "name": "03b0427b2f6cdad6733e9e7e5de0c4cd", "is_disabled": 0, "rental_uris": {"ios": "https://dc.lft.to/lastmile_qr_scan", "android": "https://dc.lft.to/lastmile_qr_scan"}, "is_reserved": 0}, {"lon": -77.00562616666667, "bike_id": "2cdeaddd77e191926e5ae1bba7cea747", "lat": 38.87474016666667, "fusion_lon": 0.0, "fusion_lat": 0.0, "type": "electric_scooter", "name": "2cdeaddd77e191926e5ae1bba7cea747", "is_disabled": 0, "rental_uris": {"ios": "https://dc.lft.to/lastmile_qr_scan", "android": "https://dc.lft.to/lastmile_qr_scan"}, "is_reserved": 0}, {"lon": -76.90740916666667, "bike_id": "51b2cb4e126b62f4b6a61f13af907162", "lat": 38.89623916666667, "fusion_lon": 0.0, "fusion_lat": 0.0, "type": "electric_bike", "name": "51b2cb4e126b62f4b6a61f13af907162", "is_disabled": 0, "rental_uris": {"ios": "https://dc.lft.to/lastmile_qr_scan", "android": "https://dc.lft.to/lastmile_qr_scan"}, "is_reserved": 0}, {"lon": -76.9742525, "bike_id": "0aef9504832458bd65d511784e6657ef", "lat": 38.903986833333335, "fusion_lon": 0.0, "fusion_lat": 0.0, "type": "electric_scooter", "name": "0aef9504832458bd65d511784e6657ef", "is_disabled": 0, "rental_uris": {"ios": "https://dc.lft.to/lastmile_qr_scan", "android": "https://dc.lft.to/lastmile_qr_scan"}, "is_reserved": 0}, {"lon": -77.027003, "bike_id": "f2daed56436c92926704791870ca3550", "lat": 38.917818833333335, "fusion_lon": 0.0, "fusion_lat": 0.0, "type": "electric_scooter", "name": "f2daed56436c92926704791870ca3550", "is_disabled": 0, "rental_uris": {"ios": "https://dc.lft.to/lastmile_qr_scan", "android": "https://dc.lft.to/lastmile_qr_scan"}, "is_reserved": 0}, {"lon": -77.0329235, "bike_id": "872901adf74226f3086cb4d5560bc163", "lat": 38.928954166666664, "fusion_lon": 0.0, "fusion_lat": 0.0, "type": "electric_scooter", "name": "872901adf74226f3086cb4d5560bc163", "is_disabled": 0, "rental_uris": {"ios": "https://dc.lft.to/lastmile_qr_scan", "android": "https://dc.lft.to/lastmile_qr_scan"}, "is_reserved": 0}, {"lon": -77.02289133333333, "bike_id": "48d91e553ceae10b196ff720453c502b", "lat": 38.922276833333335, "fusion_lon": 0.0, "fusion_lat": 0.0, "type": "electric_scooter", "name": "48d91e553ceae10b196ff720453c502b", "is_disabled": 0, "rental_uris": {"ios": "https://dc.lft.to/lastmile_qr_scan", "android": "https://dc.lft.to/lastmile_qr_scan"}, "is_reserved": 0}, {"lon": -76.9852675, "bike_id": "9f7bec49fe8f667d06e3fd853a2e4927", "lat": 38.866865, "fusion_lon": 0.0, "fusion_lat": 0.0, "type": "electric_scooter", "name": "9f7bec49fe8f667d06e3fd853a2e4927", "is_disabled": 0, "rental_uris": {"ios": "https://dc.lft.to/lastmile_qr_scan", "android": "https://dc.lft.to/lastmile_qr_scan"}, "is_reserved": 0}, {"lon": -77.07453366666667, "bike_id": "711d0bb21901fb5e1df255f39b1bdaa3", "lat": 38.94510616666667, "fusion_lon": 0.0, "fusion_lat": 0.0, "type": "electric_scooter", "name": "711d0bb21901fb5e1df255f39b1bdaa3", "is_disabled": 0, "rental_uris": {"ios": "https://dc.lft.to/lastmile_qr_scan", "android": "https://dc.lft.to/lastmile_qr_scan"}, "is_reserved": 0}, {"lon": -77.03629683333334, "bike_id": "f32e0446e8543a109b83157a980f6677", "lat": 38.9307905, "fusion_lon": 0.0, "fusion_lat": 0.0, "type": "electric_scooter", "name": "f32e0446e8543a109b83157a980f6677", "is_disabled": 0, "rental_uris": {"ios": "https://dc.lft.to/lastmile_qr_scan", "android": "https://dc.lft.to/lastmile_qr_scan"}, "is_reserved": 0}, {"lon": -76.99935966666666, "bike_id": "4cd8a1c1c20546e1eb8857255755d3ef", "lat": 38.84315933333333, "fusion_lon": 0.0, "fusion_lat": 0.0, "type": "electric_scooter", "name": "4cd8a1c1c20546e1eb8857255755d3ef", "is_disabled": 0, "rental_uris": {"ios": "https://dc.lft.to/lastmile_qr_scan", "android": "https://dc.lft.to/lastmile_qr_scan"}, "is_reserved": 0}, {"lon": -77.027112, "bike_id": "0a0d0a91f0eb663ed2fe3278ed93a756", "lat": 38.906702, "fusion_lon": 0.0, "fusion_lat": 0.0, "type": "electric_scooter", "name": "0a0d0a91f0eb663ed2fe3278ed93a756", "is_disabled": 0, "rental_uris": {"ios": "https://dc.lft.to/lastmile_qr_scan", "android": "https://dc.lft.to/lastmile_qr_scan"}, "is_reserved": 0}, {"lon": -77.02703233333334, "bike_id": "64ee767e03557c60b7e3d21e9a8d7606", "lat": 38.917809, "fusion_lon": 0.0, "fusion_lat": 0.0, "type": "electric_scooter", "name": "64ee767e03557c60b7e3d21e9a8d7606", "is_disabled": 0, "rental_uris": {"ios": "https://dc.lft.to/lastmile_qr_scan", "android": "https://dc.lft.to/lastmile_qr_scan"}, "is_reserved": 0}, {"lon": -77.03434033333333, "bike_id": "bfacc236fb7cf10fb59848e0467a7eb1", "lat": 38.90978416666667, "fusion_lon": 0.0, "fusion_lat": 0.0, "type": "electric_scooter", "name": "bfacc236fb7cf10fb59848e0467a7eb1", "is_disabled": 0, "rental_uris": {"ios": "https://dc.lft.to/lastmile_qr_scan", "android": "https://dc.lft.to/lastmile_qr_scan"}, "is_reserved": 0}, {"lon": -77.12523033333333, "bike_id": "6cb9842b2e24a1c21dc3b3354a448610", "lat": 39.05628566666667, "fusion_lon": 0.0, "fusion_lat": 0.0, "type": "electric_bike", "name": "6cb9842b2e24a1c21dc3b3354a448610", "is_disabled": 0, "rental_uris": {"ios": "https://dc.lft.to/lastmile_qr_scan", "android": "https://dc.lft.to/lastmile_qr_scan"}, "is_reserved": 0}, {"lon": -76.93730916666667, "bike_id": "a083000383ba16ec1b13b0c5973d8758", "lat": 38.8901055, "fusion_lon": 0.0, "fusion_lat": 0.0, "type": "electric_scooter", "name": "a083000383ba16ec1b13b0c5973d8758", "is_disabled": 0, "rental_uris": {"ios": "https://dc.lft.to/lastmile_qr_scan", "android": "https://dc.lft.to/lastmile_qr_scan"}, "is_reserved": 0}, {"lon": -77.01730683333334, "bike_id": "8650df94beba4f9a1fec5d2f7e64ebb5", "lat": 38.942048166666666, "fusion_lon": 0.0, "fusion_lat": 0.0, "type": "electric_scooter", "name": "8650df94beba4f9a1fec5d2f7e64ebb5", "is_disabled": 0, "rental_uris": {"ios": "https://dc.lft.to/lastmile_qr_scan", "android": "https://dc.lft.to/lastmile_qr_scan"}, "is_reserved": 0}, {"lon": -77.05436333333333, "bike_id": "71f11808b92a042e89fe2c78a2c620c5", "lat": 38.92863033333333, "fusion_lon": 0.0, "fusion_lat": 0.0, "type": "electric_scooter", "name": "71f11808b92a042e89fe2c78a2c620c5", "is_disabled": 0, "rental_uris": {"ios": "https://dc.lft.to/lastmile_qr_scan", "android": "https://dc.lft.to/lastmile_qr_scan"}, "is_reserved": 0}, {"lon": -77.0244685, "bike_id": "00b0223e36ac0faf69de833164faa399", "lat": 38.91415966666667, "fusion_lon": 0.0, "fusion_lat": 0.0, "type": "electric_scooter", "name": "00b0223e36ac0faf69de833164faa399", "is_disabled": 0, "rental_uris": {"ios": "https://dc.lft.to/lastmile_qr_scan", "android": "https://dc.lft.to/lastmile_qr_scan"}, "is_reserved": 0}, {"lon": -77.03321583333333, "bike_id": "9fd9ace48b8d826b01a9c8ee600ab4c1", "lat": 38.901226666666666, "fusion_lon": 0.0, "fusion_lat": 0.0, "type": "electric_scooter", "name": "9fd9ace48b8d826b01a9c8ee600ab4c1", "is_disabled": 0, "rental_uris": {"ios": "https://dc.lft.to/lastmile_qr_scan", "android": "https://dc.lft.to/lastmile_qr_scan"}, "is_reserved": 0}, {"lon": -77.03201116666666, "bike_id": "f73d92edc1fe4e8664fa652c148ed960", "lat": 38.94411366666667, "fusion_lon": 0.0, "fusion_lat": 0.0, "type": "electric_scooter", "name": "f73d92edc1fe4e8664fa652c148ed960", "is_disabled": 0, "rental_uris": {"ios": "https://dc.lft.to/lastmile_qr_scan", "android": "https://dc.lft.to/lastmile_qr_scan"}, "is_reserved": 0}, {"lon": -77.0343135, "bike_id": "51e02f18f33fd10c9c07fbe2c0fcbcc4", "lat": 38.909707, "fusion_lon": 0.0, "fusion_lat": 0.0, "type": "electric_scooter", "name": "51e02f18f33fd10c9c07fbe2c0fcbcc4", "is_disabled": 0, "rental_uris": {"ios": "https://dc.lft.to/lastmile_qr_scan", "android": "https://dc.lft.to/lastmile_qr_scan"}, "is_reserved": 0}, {"lon": -77.045623, "bike_id": "cdbf9129e52257f862eee8522e674976", "lat": 38.8961295, "fusion_lon": 0.0, "fusion_lat": 0.0, "type": "electric_scooter", "name": "cdbf9129e52257f862eee8522e674976", "is_disabled": 0, "rental_uris": {"ios": "https://dc.lft.to/lastmile_qr_scan", "android": "https://dc.lft.to/lastmile_qr_scan"}, "is_reserved": 0}, {"lon": -77.04198333333333, "bike_id": "5ac8ccb56f39ea9994c560a8d13e4800", "lat": 38.920450833333334, "fusion_lon": 0.0, "fusion_lat": 0.0, "type": "electric_scooter", "name": "5ac8ccb56f39ea9994c560a8d13e4800", "is_disabled": 0, "rental_uris": {"ios": "https://dc.lft.to/lastmile_qr_scan", "android": "https://dc.lft.to/lastmile_qr_scan"}, "is_reserved": 0}, {"lon": -77.0376935, "bike_id": "88dc2fb87faa722d69e24ee61d8d0b8e", "lat": 38.92949433333333, "fusion_lon": 0.0, "fusion_lat": 0.0, "type": "electric_scooter", "name": "88dc2fb87faa722d69e24ee61d8d0b8e", "is_disabled": 0, "rental_uris": {"ios": "https://dc.lft.to/lastmile_qr_scan", "android": "https://dc.lft.to/lastmile_qr_scan"}, "is_reserved": 0}, {"lon": -77.02367466666666, "bike_id": "2d74a1de6ef4c1926778fe47b5673102", "lat": 38.902136, "fusion_lon": 0.0, "fusion_lat": 0.0, "type": "electric_scooter", "name": "2d74a1de6ef4c1926778fe47b5673102", "is_disabled": 0, "rental_uris": {"ios": "https://dc.lft.to/lastmile_qr_scan", "android": "https://dc.lft.to/lastmile_qr_scan"}, "is_reserved": 0}, {"lon": -77.0278505, "bike_id": "d46f94c28515780e6a6cb2f851a6d540", "lat": 38.8988635, "fusion_lon": 0.0, "fusion_lat": 0.0, "type": "electric_scooter", "name": "d46f94c28515780e6a6cb2f851a6d540", "is_disabled": 0, "rental_uris": {"ios": "https://dc.lft.to/lastmile_qr_scan", "android": "https://dc.lft.to/lastmile_qr_scan"}, "is_reserved": 0}, {"lon": -77.00546366666667, "bike_id": "fca7d4cd4705c54d3a190e56e9177790", "lat": 38.8746155, "fusion_lon": 0.0, "fusion_lat": 0.0, "type": "electric_scooter", "name": "fca7d4cd4705c54d3a190e56e9177790", "is_disabled": 0, "rental_uris": {"ios": "https://dc.lft.to/lastmile_qr_scan", "android": "https://dc.lft.to/lastmile_qr_scan"}, "is_reserved": 0}, {"lon": -77.00048066666666, "bike_id": "910d222dc1d595e182ddbf8f1adbbb36", "lat": 38.96769366666667, "fusion_lon": 0.0, "fusion_lat": 0.0, "type": "electric_bike", "name": "910d222dc1d595e182ddbf8f1adbbb36", "is_disabled": 0, "rental_uris": {"ios": "https://dc.lft.to/lastmile_qr_scan", "android": "https://dc.lft.to/lastmile_qr_scan"}, "is_reserved": 0}, {"lon": -77.03796966666667, "bike_id": "4703c13688ab4ede48f688c0791c30a8", "lat": 38.91035266666667, "fusion_lon": 0.0, "fusion_lat": 0.0, "type": "electric_scooter", "name": "4703c13688ab4ede48f688c0791c30a8", "is_disabled": 0, "rental_uris": {"ios": "https://dc.lft.to/lastmile_qr_scan", "android": "https://dc.lft.to/lastmile_qr_scan"}, "is_reserved": 0}, {"lon": -77.03929766666667, "bike_id": "5f4b4ee61197b9ad754f842eee873d99", "lat": 38.924905333333335, "fusion_lon": 0.0, "fusion_lat": 0.0, "type": "electric_scooter", "name": "5f4b4ee61197b9ad754f842eee873d99", "is_disabled": 0, "rental_uris": {"ios": "https://dc.lft.to/lastmile_qr_scan", "android": "https://dc.lft.to/lastmile_qr_scan"}, "is_reserved": 0}, {"lon": -77.07771166666667, "bike_id": "a00e4ff0dbf5a164ac689db679990a17", "lat": 38.9577405, "fusion_lon": 0.0, "fusion_lat": 0.0, "type": "electric_scooter", "name": "a00e4ff0dbf5a164ac689db679990a17", "is_disabled": 0, "rental_uris": {"ios": "https://dc.lft.to/lastmile_qr_scan", "android": "https://dc.lft.to/lastmile_qr_scan"}, "is_reserved": 0}, {"lon": -77.048592, "bike_id": "a3a9ee1f8b0591de4af47e89b236394b", "lat": 38.909621666666666, "fusion_lon": 0.0, "fusion_lat": 0.0, "type": "electric_scooter", "name": "a3a9ee1f8b0591de4af47e89b236394b", "is_disabled": 0, "rental_uris": {"ios": "https://dc.lft.to/lastmile_qr_scan", "android": "https://dc.lft.to/lastmile_qr_scan"}, "is_reserved": 0}, {"lon": -76.92103683333333, "bike_id": "747e9b7916270071b55ff8176a9ccaba", "lat": 38.89104533333333, "fusion_lon": 0.0, "fusion_lat": 0.0, "type": "electric_scooter", "name": "747e9b7916270071b55ff8176a9ccaba", "is_disabled": 0, "rental_uris": {"ios": "https://dc.lft.to/lastmile_qr_scan", "android": "https://dc.lft.to/lastmile_qr_scan"}, "is_reserved": 0}, {"lon": -77.13912133333334, "bike_id": "cac1c0de0b3118d6d0065e8aa94b95f5", "lat": 38.8730105, "fusion_lon": 0.0, "fusion_lat": 0.0, "type": "electric_bike", "name": "cac1c0de0b3118d6d0065e8aa94b95f5", "is_disabled": 0, "rental_uris": {"ios": "https://dc.lft.to/lastmile_qr_scan", "android": "https://dc.lft.to/lastmile_qr_scan"}, "is_reserved": 0}, {"lon": -77.02209966666666, "bike_id": "b89323f09c3fd6d243b525a2daef7717", "lat": 38.8935265, "fusion_lon": 0.0, "fusion_lat": 0.0, "type": "electric_scooter", "name": "b89323f09c3fd6d243b525a2daef7717", "is_disabled": 0, "rental_uris": {"ios": "https://dc.lft.to/lastmile_qr_scan", "android": "https://dc.lft.to/lastmile_qr_scan"}, "is_reserved": 0}, {"lon": -77.00879083333334, "bike_id": "dceaf34514e71fe32308769991769ad0", "lat": 38.82540983333333, "fusion_lon": 0.0, "fusion_lat": 0.0, "type": "electric_scooter", "name": "dceaf34514e71fe32308769991769ad0", "is_disabled": 0, "rental_uris": {"ios": "https://dc.lft.to/lastmile_qr_scan", "android": "https://dc.lft.to/lastmile_qr_scan"}, "is_reserved": 0}, {"lon": -77.0097295, "bike_id": "97d665551b0401930f7c86ccaf832624", "lat": 38.8707205, "fusion_lon": 0.0, "fusion_lat": 0.0, "type": "electric_scooter", "name": "97d665551b0401930f7c86ccaf832624", "is_disabled": 0, "rental_uris": {"ios": "https://dc.lft.to/lastmile_qr_scan", "android": "https://dc.lft.to/lastmile_qr_scan"}, "is_reserved": 0}, {"lon": -77.05615066666667, "bike_id": "61a029082c05b320ad580cd3be139955", "lat": 38.92349316666667, "fusion_lon": 0.0, "fusion_lat": 0.0, "type": "electric_scooter", "name": "61a029082c05b320ad580cd3be139955", "is_disabled": 0, "rental_uris": {"ios": "https://dc.lft.to/lastmile_qr_scan", "android": "https://dc.lft.to/lastmile_qr_scan"}, "is_reserved": 0}, {"lon": -77.05512583333334, "bike_id": "0e65700aa5c445672a3f66f7ec93daee", "lat": 38.929915666666666, "fusion_lon": 0.0, "fusion_lat": 0.0, "type": "electric_scooter", "name": "0e65700aa5c445672a3f66f7ec93daee", "is_disabled": 0, "rental_uris": {"ios": "https://dc.lft.to/lastmile_qr_scan", "android": "https://dc.lft.to/lastmile_qr_scan"}, "is_reserved": 0}, {"lon": -76.97209416666666, "bike_id": "556d9b3fb637878c4d9188778a2be663", "lat": 38.892921666666666, "fusion_lon": 0.0, "fusion_lat": 0.0, "type": "electric_bike", "name": "556d9b3fb637878c4d9188778a2be663", "is_disabled": 0, "rental_uris": {"ios": "https://dc.lft.to/lastmile_qr_scan", "android": "https://dc.lft.to/lastmile_qr_scan"}, "is_reserved": 0}, {"lon": -76.995031, "bike_id": "379bd435213ae042238a658dfde009eb", "lat": 38.862503833333335, "fusion_lon": 0.0, "fusion_lat": 0.0, "type": "electric_scooter", "name": "379bd435213ae042238a658dfde009eb", "is_disabled": 0, "rental_uris": {"ios": "https://dc.lft.to/lastmile_qr_scan", "android": "https://dc.lft.to/lastmile_qr_scan"}, "is_reserved": 0}, {"lon": -76.98837233333333, "bike_id": "1fcef92bab08b6d3421604d32c8f74b0", "lat": 38.896684, "fusion_lon": 0.0, "fusion_lat": 0.0, "type": "electric_scooter", "name": "1fcef92bab08b6d3421604d32c8f74b0", "is_disabled": 0, "rental_uris": {"ios": "https://dc.lft.to/lastmile_qr_scan", "android": "https://dc.lft.to/lastmile_qr_scan"}, "is_reserved": 0}, {"lon": -77.02699133333333, "bike_id": "358297c20d5054905270a9a4f1cb01c7", "lat": 38.9006665, "fusion_lon": 0.0, "fusion_lat": 0.0, "type": "electric_scooter", "name": "358297c20d5054905270a9a4f1cb01c7", "is_disabled": 0, "rental_uris": {"ios": "https://dc.lft.to/lastmile_qr_scan", "android": "https://dc.lft.to/lastmile_qr_scan"}, "is_reserved": 0}, {"lon": -77.058709, "bike_id": "9b34aad3aaad458cd94bd0c950e1c2e6", "lat": 38.9361465, "fusion_lon": 0.0, "fusion_lat": 0.0, "type": "electric_scooter", "name": "9b34aad3aaad458cd94bd0c950e1c2e6", "is_disabled": 0, "rental_uris": {"ios": "https://dc.lft.to/lastmile_qr_scan", "android": "https://dc.lft.to/lastmile_qr_scan"}, "is_reserved": 0}, {"lon": -77.08194416666667, "bike_id": "03b9b0f41b9f355caad9d4f26fff69a6", "lat": 38.935148, "fusion_lon": 0.0, "fusion_lat": 0.0, "type": "electric_scooter", "name": "03b9b0f41b9f355caad9d4f26fff69a6", "is_disabled": 0, "rental_uris": {"ios": "https://dc.lft.to/lastmile_qr_scan", "android": "https://dc.lft.to/lastmile_qr_scan"}, "is_reserved": 0}, {"lon": -76.9733015, "bike_id": "3e48d0d8044924759e0df0815ca669d0", "lat": 38.90481783333333, "fusion_lon": 0.0, "fusion_lat": 0.0, "type": "electric_bike", "name": "3e48d0d8044924759e0df0815ca669d0", "is_disabled": 0, "rental_uris": {"ios": "https://dc.lft.to/lastmile_qr_scan", "android": "https://dc.lft.to/lastmile_qr_scan"}, "is_reserved": 0}, {"lon": -77.0422705, "bike_id": "7540707ae672d847f1f1e3d711bf0274", "lat": 38.911015, "fusion_lon": 0.0, "fusion_lat": 0.0, "type": "electric_scooter", "name": "7540707ae672d847f1f1e3d711bf0274", "is_disabled": 0, "rental_uris": {"ios": "https://dc.lft.to/lastmile_qr_scan", "android": "https://dc.lft.to/lastmile_qr_scan"}, "is_reserved": 0}, {"lon": -77.042549, "bike_id": "d97783357d2460bab8e0c79dad867329", "lat": 38.9243665, "fusion_lon": 0.0, "fusion_lat": 0.0, "type": "electric_scooter", "name": "d97783357d2460bab8e0c79dad867329", "is_disabled": 0, "rental_uris": {"ios": "https://dc.lft.to/lastmile_qr_scan", "android": "https://dc.lft.to/lastmile_qr_scan"}, "is_reserved": 0}, {"lon": -76.91598866666666, "bike_id": "878b1d3151dabefab3b0e39dd2081dd0", "lat": 38.87983083333334, "fusion_lon": 0.0, "fusion_lat": 0.0, "type": "electric_bike", "name": "878b1d3151dabefab3b0e39dd2081dd0", "is_disabled": 0, "rental_uris": {"ios": "https://dc.lft.to/lastmile_qr_scan", "android": "https://dc.lft.to/lastmile_qr_scan"}, "is_reserved": 0}, {"lon": -76.99509033333334, "bike_id": "ca1edcd3f484d63c34f8d322f8ec99fa", "lat": 38.8830475, "fusion_lon": 0.0, "fusion_lat": 0.0, "type": "electric_scooter", "name": "ca1edcd3f484d63c34f8d322f8ec99fa", "is_disabled": 0, "rental_uris": {"ios": "https://dc.lft.to/lastmile_qr_scan", "android": "https://dc.lft.to/lastmile_qr_scan"}, "is_reserved": 0}, {"lon": -76.99050583333333, "bike_id": "4911131b7bfd5efa480de6c162573609", "lat": 38.88417833333333, "fusion_lon": 0.0, "fusion_lat": 0.0, "type": "electric_scooter", "name": "4911131b7bfd5efa480de6c162573609", "is_disabled": 0, "rental_uris": {"ios": "https://dc.lft.to/lastmile_qr_scan", "android": "https://dc.lft.to/lastmile_qr_scan"}, "is_reserved": 0}, {"lon": -77.04315783333334, "bike_id": "fa72d52d540904cb18d9b453c32c4f68", "lat": 38.89199333333333, "fusion_lon": 0.0, "fusion_lat": 0.0, "type": "electric_scooter", "name": "fa72d52d540904cb18d9b453c32c4f68", "is_disabled": 0, "rental_uris": {"ios": "https://dc.lft.to/lastmile_qr_scan", "android": "https://dc.lft.to/lastmile_qr_scan"}, "is_reserved": 0}, {"lon": -77.02162283333334, "bike_id": "e3cd087e24c55f6dcb0bd1287bcbd151", "lat": 38.897467166666665, "fusion_lon": 0.0, "fusion_lat": 0.0, "type": "electric_scooter", "name": "e3cd087e24c55f6dcb0bd1287bcbd151", "is_disabled": 0, "rental_uris": {"ios": "https://dc.lft.to/lastmile_qr_scan", "android": "https://dc.lft.to/lastmile_qr_scan"}, "is_reserved": 0}, {"lon": -76.9488375, "bike_id": "5695440d79b22d1782c5fd114b531ed1", "lat": 38.895110833333334, "fusion_lon": 0.0, "fusion_lat": 0.0, "type": "electric_scooter", "name": "5695440d79b22d1782c5fd114b531ed1", "is_disabled": 0, "rental_uris": {"ios": "https://dc.lft.to/lastmile_qr_scan", "android": "https://dc.lft.to/lastmile_qr_scan"}, "is_reserved": 0}, {"lon": -77.01771366666667, "bike_id": "74e8898bbfb30c8995934229751819a0", "lat": 38.900845833333335, "fusion_lon": 0.0, "fusion_lat": 0.0, "type": "electric_scooter", "name": "74e8898bbfb30c8995934229751819a0", "is_disabled": 0, "rental_uris": {"ios": "https://dc.lft.to/lastmile_qr_scan", "android": "https://dc.lft.to/lastmile_qr_scan"}, "is_reserved": 0}, {"lon": -77.03751266666667, "bike_id": "c6720c5a6052de523063a00707f895a8", "lat": 38.92908833333333, "fusion_lon": 0.0, "fusion_lat": 0.0, "type": "electric_scooter", "name": "c6720c5a6052de523063a00707f895a8", "is_disabled": 0, "rental_uris": {"ios": "https://dc.lft.to/lastmile_qr_scan", "android": "https://dc.lft.to/lastmile_qr_scan"}, "is_reserved": 0}, {"lon": -77.03863016666666, "bike_id": "26dc696966ec4b8f6ae92a3287d62632", "lat": 38.9082235, "fusion_lon": 0.0, "fusion_lat": 0.0, "type": "electric_scooter", "name": "26dc696966ec4b8f6ae92a3287d62632", "is_disabled": 0, "rental_uris": {"ios": "https://dc.lft.to/lastmile_qr_scan", "android": "https://dc.lft.to/lastmile_qr_scan"}, "is_reserved": 0}, {"lon": -77.0334985, "bike_id": "6dc4d3052fa35708ef287f20089f92c7", "lat": 38.892447833333335, "fusion_lon": 0.0, "fusion_lat": 0.0, "type": "electric_scooter", "name": "6dc4d3052fa35708ef287f20089f92c7", "is_disabled": 0, "rental_uris": {"ios": "https://dc.lft.to/lastmile_qr_scan", "android": "https://dc.lft.to/lastmile_qr_scan"}, "is_reserved": 0}, {"lon": -76.99613416666666, "bike_id": "69a9050bb4cc932978dcd0d4c1ee4e6e", "lat": 38.930870666666664, "fusion_lon": 0.0, "fusion_lat": 0.0, "type": "electric_scooter", "name": "69a9050bb4cc932978dcd0d4c1ee4e6e", "is_disabled": 0, "rental_uris": {"ios": "https://dc.lft.to/lastmile_qr_scan", "android": "https://dc.lft.to/lastmile_qr_scan"}, "is_reserved": 0}, {"lon": -77.032781, "bike_id": "8dd65235831ea23f7dd27360cade4ec7", "lat": 38.940939, "fusion_lon": 0.0, "fusion_lat": 0.0, "type": "electric_scooter", "name": "8dd65235831ea23f7dd27360cade4ec7", "is_disabled": 0, "rental_uris": {"ios": "https://dc.lft.to/lastmile_qr_scan", "android": "https://dc.lft.to/lastmile_qr_scan"}, "is_reserved": 0}, {"lon": -77.04658783333333, "bike_id": "90707694ec3750a8b45defded28fad1d", "lat": 38.9078735, "fusion_lon": 0.0, "fusion_lat": 0.0, "type": "electric_scooter", "name": "90707694ec3750a8b45defded28fad1d", "is_disabled": 0, "rental_uris": {"ios": "https://dc.lft.to/lastmile_qr_scan", "android": "https://dc.lft.to/lastmile_qr_scan"}, "is_reserved": 0}, {"lon": -77.04654, "bike_id": "f1660cff1edf379742c810f4b9203d8d", "lat": 38.91363833333333, "fusion_lon": 0.0, "fusion_lat": 0.0, "type": "electric_scooter", "name": "f1660cff1edf379742c810f4b9203d8d", "is_disabled": 0, "rental_uris": {"ios": "https://dc.lft.to/lastmile_qr_scan", "android": "https://dc.lft.to/lastmile_qr_scan"}, "is_reserved": 0}, {"lon": -76.9866235, "bike_id": "ebb146f8f3986e1a17ceb472f0151775", "lat": 38.8672935, "fusion_lon": 0.0, "fusion_lat": 0.0, "type": "electric_scooter", "name": "ebb146f8f3986e1a17ceb472f0151775", "is_disabled": 0, "rental_uris": {"ios": "https://dc.lft.to/lastmile_qr_scan", "android": "https://dc.lft.to/lastmile_qr_scan"}, "is_reserved": 0}, {"lon": -76.99525133333333, "bike_id": "966f207aaacbac331aaa6eaed3244916", "lat": 38.89173733333333, "fusion_lon": 0.0, "fusion_lat": 0.0, "type": "electric_scooter", "name": "966f207aaacbac331aaa6eaed3244916", "is_disabled": 0, "rental_uris": {"ios": "https://dc.lft.to/lastmile_qr_scan", "android": "https://dc.lft.to/lastmile_qr_scan"}, "is_reserved": 0}, {"lon": -77.03176083333334, "bike_id": "abc66da2dc60d2a2d74df127dbf07978", "lat": 38.92001966666667, "fusion_lon": 0.0, "fusion_lat": 0.0, "type": "electric_scooter", "name": "abc66da2dc60d2a2d74df127dbf07978", "is_disabled": 0, "rental_uris": {"ios": "https://dc.lft.to/lastmile_qr_scan", "android": "https://dc.lft.to/lastmile_qr_scan"}, "is_reserved": 0}, {"lon": -77.02496516666666, "bike_id": "d031d35249301ecfe22a033e74e1a969", "lat": 38.92594116666667, "fusion_lon": 0.0, "fusion_lat": 0.0, "type": "electric_scooter", "name": "d031d35249301ecfe22a033e74e1a969", "is_disabled": 0, "rental_uris": {"ios": "https://dc.lft.to/lastmile_qr_scan", "android": "https://dc.lft.to/lastmile_qr_scan"}, "is_reserved": 0}, {"lon": -77.16628733333333, "bike_id": "102bd762e421e228eebde167f4e91b9f", "lat": 38.888377, "fusion_lon": 0.0, "fusion_lat": 0.0, "type": "electric_bike", "name": "102bd762e421e228eebde167f4e91b9f", "is_disabled": 0, "rental_uris": {"ios": "https://dc.lft.to/lastmile_qr_scan", "android": "https://dc.lft.to/lastmile_qr_scan"}, "is_reserved": 0}, {"lon": -77.0318125, "bike_id": "1733fb3576a93531aefd57dc885357c1", "lat": 38.9183115, "fusion_lon": 0.0, "fusion_lat": 0.0, "type": "electric_scooter", "name": "1733fb3576a93531aefd57dc885357c1", "is_disabled": 0, "rental_uris": {"ios": "https://dc.lft.to/lastmile_qr_scan", "android": "https://dc.lft.to/lastmile_qr_scan"}, "is_reserved": 0}, {"lon": -77.03439866666666, "bike_id": "a54fb6636926ddb61cd4da3aac8a9f3a", "lat": 38.934348166666666, "fusion_lon": 0.0, "fusion_lat": 0.0, "type": "electric_scooter", "name": "a54fb6636926ddb61cd4da3aac8a9f3a", "is_disabled": 0, "rental_uris": {"ios": "https://dc.lft.to/lastmile_qr_scan", "android": "https://dc.lft.to/lastmile_qr_scan"}, "is_reserved": 0}, {"lon": -77.02048233333333, "bike_id": "d6a90d74fa4e22a5f04dfc6e39a92acd", "lat": 38.92331516666667, "fusion_lon": 0.0, "fusion_lat": 0.0, "type": "electric_scooter", "name": "d6a90d74fa4e22a5f04dfc6e39a92acd", "is_disabled": 0, "rental_uris": {"ios": "https://dc.lft.to/lastmile_qr_scan", "android": "https://dc.lft.to/lastmile_qr_scan"}, "is_reserved": 0}, {"lon": -77.03263016666666, "bike_id": "5b448b1f3553addbf867b8f13a2e4bbf", "lat": 38.93895033333333, "fusion_lon": 0.0, "fusion_lat": 0.0, "type": "electric_scooter", "name": "5b448b1f3553addbf867b8f13a2e4bbf", "is_disabled": 0, "rental_uris": {"ios": "https://dc.lft.to/lastmile_qr_scan", "android": "https://dc.lft.to/lastmile_qr_scan"}, "is_reserved": 0}, {"lon": -77.05598366666666, "bike_id": "34350b34002344ecfc9e5289985c909f", "lat": 38.9370145, "fusion_lon": 0.0, "fusion_lat": 0.0, "type": "electric_scooter", "name": "34350b34002344ecfc9e5289985c909f", "is_disabled": 0, "rental_uris": {"ios": "https://dc.lft.to/lastmile_qr_scan", "android": "https://dc.lft.to/lastmile_qr_scan"}, "is_reserved": 0}, {"lon": -77.04502133333334, "bike_id": "6b68f7b4e72cf7967b114e8e223bf8de", "lat": 38.911116, "fusion_lon": 0.0, "fusion_lat": 0.0, "type": "electric_scooter", "name": "6b68f7b4e72cf7967b114e8e223bf8de", "is_disabled": 0, "rental_uris": {"ios": "https://dc.lft.to/lastmile_qr_scan", "android": "https://dc.lft.to/lastmile_qr_scan"}, "is_reserved": 0}, {"lon": -77.02520633333333, "bike_id": "7efe4e3637907477e82057144516a5ca", "lat": 38.9126295, "fusion_lon": 0.0, "fusion_lat": 0.0, "type": "electric_scooter", "name": "7efe4e3637907477e82057144516a5ca", "is_disabled": 0, "rental_uris": {"ios": "https://dc.lft.to/lastmile_qr_scan", "android": "https://dc.lft.to/lastmile_qr_scan"}, "is_reserved": 0}, {"lon": -77.03626583333333, "bike_id": "7f71c53f2cbbcea95ac0183c731dff93", "lat": 38.91556716666667, "fusion_lon": 0.0, "fusion_lat": 0.0, "type": "electric_scooter", "name": "7f71c53f2cbbcea95ac0183c731dff93", "is_disabled": 0, "rental_uris": {"ios": "https://dc.lft.to/lastmile_qr_scan", "android": "https://dc.lft.to/lastmile_qr_scan"}, "is_reserved": 0}, {"lon": -77.03506333333333, "bike_id": "a66c42e7aaaf38c4a3799ec3912c19ca", "lat": 38.91184583333333, "fusion_lon": 0.0, "fusion_lat": 0.0, "type": "electric_scooter", "name": "a66c42e7aaaf38c4a3799ec3912c19ca", "is_disabled": 0, "rental_uris": {"ios": "https://dc.lft.to/lastmile_qr_scan", "android": "https://dc.lft.to/lastmile_qr_scan"}, "is_reserved": 0}, {"lon": -77.02953333333333, "bike_id": "8ca73895f05a2658f085b55c57e37771", "lat": 38.8966105, "fusion_lon": 0.0, "fusion_lat": 0.0, "type": "electric_scooter", "name": "8ca73895f05a2658f085b55c57e37771", "is_disabled": 0, "rental_uris": {"ios": "https://dc.lft.to/lastmile_qr_scan", "android": "https://dc.lft.to/lastmile_qr_scan"}, "is_reserved": 0}, {"lon": -76.9327985, "bike_id": "b32340be7123f88d2ffccd5690f7ab9d", "lat": 38.954262, "fusion_lon": 0.0, "fusion_lat": 0.0, "type": "electric_bike", "name": "b32340be7123f88d2ffccd5690f7ab9d", "is_disabled": 0, "rental_uris": {"ios": "https://dc.lft.to/lastmile_qr_scan", "android": "https://dc.lft.to/lastmile_qr_scan"}, "is_reserved": 0}, {"lon": -77.00122233333333, "bike_id": "94525874d0db04c9e5d609a90f5b6a17", "lat": 38.87822533333333, "fusion_lon": 0.0, "fusion_lat": 0.0, "type": "electric_scooter", "name": "94525874d0db04c9e5d609a90f5b6a17", "is_disabled": 0, "rental_uris": {"ios": "https://dc.lft.to/lastmile_qr_scan", "android": "https://dc.lft.to/lastmile_qr_scan"}, "is_reserved": 0}, {"lon": -77.023862, "bike_id": "cf564ae7f4b2e2511fb691da28f3e9db", "lat": 38.9063315, "fusion_lon": 0.0, "fusion_lat": 0.0, "type": "electric_scooter", "name": "cf564ae7f4b2e2511fb691da28f3e9db", "is_disabled": 0, "rental_uris": {"ios": "https://dc.lft.to/lastmile_qr_scan", "android": "https://dc.lft.to/lastmile_qr_scan"}, "is_reserved": 0}, {"lon": -77.00535283333333, "bike_id": "a9ef3f2f31faa4cebc20f37be4a0400d", "lat": 38.875506666666666, "fusion_lon": 0.0, "fusion_lat": 0.0, "type": "electric_scooter", "name": "a9ef3f2f31faa4cebc20f37be4a0400d", "is_disabled": 0, "rental_uris": {"ios": "https://dc.lft.to/lastmile_qr_scan", "android": "https://dc.lft.to/lastmile_qr_scan"}, "is_reserved": 0}, {"lon": -77.02090083333333, "bike_id": "eeeafeba3e030cba92b9f3f51d4ef0a3", "lat": 38.92914233333333, "fusion_lon": 0.0, "fusion_lat": 0.0, "type": "electric_scooter", "name": "eeeafeba3e030cba92b9f3f51d4ef0a3", "is_disabled": 0, "rental_uris": {"ios": "https://dc.lft.to/lastmile_qr_scan", "android": "https://dc.lft.to/lastmile_qr_scan"}, "is_reserved": 0}, {"lon": -77.02400583333333, "bike_id": "5dd38c2a686b3a1befa945df6c08c454", "lat": 38.91871783333333, "fusion_lon": 0.0, "fusion_lat": 0.0, "type": "electric_scooter", "name": "5dd38c2a686b3a1befa945df6c08c454", "is_disabled": 0, "rental_uris": {"ios": "https://dc.lft.to/lastmile_qr_scan", "android": "https://dc.lft.to/lastmile_qr_scan"}, "is_reserved": 0}, {"lon": -77.03215566666667, "bike_id": "dc3cc607f076a93ec97f378ca4db93b5", "lat": 38.93617866666666, "fusion_lon": 0.0, "fusion_lat": 0.0, "type": "electric_scooter", "name": "dc3cc607f076a93ec97f378ca4db93b5", "is_disabled": 0, "rental_uris": {"ios": "https://dc.lft.to/lastmile_qr_scan", "android": "https://dc.lft.to/lastmile_qr_scan"}, "is_reserved": 0}, {"lon": -77.0319825, "bike_id": "24e6ea9003294ac729017ecf0ecf5c7e", "lat": 38.915844, "fusion_lon": 0.0, "fusion_lat": 0.0, "type": "electric_scooter", "name": "24e6ea9003294ac729017ecf0ecf5c7e", "is_disabled": 0, "rental_uris": {"ios": "https://dc.lft.to/lastmile_qr_scan", "android": "https://dc.lft.to/lastmile_qr_scan"}, "is_reserved": 0}, {"lon": -77.027965, "bike_id": "6872b139362b57176f9c79bcf5950604", "lat": 38.9296025, "fusion_lon": 0.0, "fusion_lat": 0.0, "type": "electric_scooter", "name": "6872b139362b57176f9c79bcf5950604", "is_disabled": 0, "rental_uris": {"ios": "https://dc.lft.to/lastmile_qr_scan", "android": "https://dc.lft.to/lastmile_qr_scan"}, "is_reserved": 0}, {"lon": -76.9826525, "bike_id": "23586c6b2339022a50e3ccba2db68951", "lat": 38.9086005, "fusion_lon": 0.0, "fusion_lat": 0.0, "type": "electric_scooter", "name": "23586c6b2339022a50e3ccba2db68951", "is_disabled": 0, "rental_uris": {"ios": "https://dc.lft.to/lastmile_qr_scan", "android": "https://dc.lft.to/lastmile_qr_scan"}, "is_reserved": 0}, {"lon": -77.00455833333334, "bike_id": "502aa4cb643989711d88d757f417895a", "lat": 38.914403166666666, "fusion_lon": 0.0, "fusion_lat": 0.0, "type": "electric_scooter", "name": "502aa4cb643989711d88d757f417895a", "is_disabled": 0, "rental_uris": {"ios": "https://dc.lft.to/lastmile_qr_scan", "android": "https://dc.lft.to/lastmile_qr_scan"}, "is_reserved": 0}, {"lon": -76.98715983333334, "bike_id": "3684bff69dcc8063445884dafad9e299", "lat": 38.86627983333333, "fusion_lon": 0.0, "fusion_lat": 0.0, "type": "electric_scooter", "name": "3684bff69dcc8063445884dafad9e299", "is_disabled": 0, "rental_uris": {"ios": "https://dc.lft.to/lastmile_qr_scan", "android": "https://dc.lft.to/lastmile_qr_scan"}, "is_reserved": 0}, {"lon": -77.02692133333333, "bike_id": "6e2784a42f94c02d3c3e6a71dee1208d", "lat": 38.911692, "fusion_lon": 0.0, "fusion_lat": 0.0, "type": "electric_scooter", "name": "6e2784a42f94c02d3c3e6a71dee1208d", "is_disabled": 0, "rental_uris": {"ios": "https://dc.lft.to/lastmile_qr_scan", "android": "https://dc.lft.to/lastmile_qr_scan"}, "is_reserved": 0}, {"lon": -77.03662716666666, "bike_id": "88a3b12f7da7855291f41262d5a94e14", "lat": 38.93918, "fusion_lon": 0.0, "fusion_lat": 0.0, "type": "electric_bike", "name": "88a3b12f7da7855291f41262d5a94e14", "is_disabled": 0, "rental_uris": {"ios": "https://dc.lft.to/lastmile_qr_scan", "android": "https://dc.lft.to/lastmile_qr_scan"}, "is_reserved": 0}, {"lon": -76.95187866666667, "bike_id": "0f206a412a7f432a7447800c5bb9c2a2", "lat": 38.90738366666667, "fusion_lon": 0.0, "fusion_lat": 0.0, "type": "electric_scooter", "name": "0f206a412a7f432a7447800c5bb9c2a2", "is_disabled": 0, "rental_uris": {"ios": "https://dc.lft.to/lastmile_qr_scan", "android": "https://dc.lft.to/lastmile_qr_scan"}, "is_reserved": 0}, {"lon": -77.019651, "bike_id": "f3f1d17d2527ed722e65c5aca9a1f12b", "lat": 38.9220465, "fusion_lon": 0.0, "fusion_lat": 0.0, "type": "electric_scooter", "name": "f3f1d17d2527ed722e65c5aca9a1f12b", "is_disabled": 0, "rental_uris": {"ios": "https://dc.lft.to/lastmile_qr_scan", "android": "https://dc.lft.to/lastmile_qr_scan"}, "is_reserved": 0}, {"lon": -76.98197533333334, "bike_id": "8a3a0c1240f3c7a22f10514810763fd1", "lat": 38.89946066666667, "fusion_lon": 0.0, "fusion_lat": 0.0, "type": "electric_scooter", "name": "8a3a0c1240f3c7a22f10514810763fd1", "is_disabled": 0, "rental_uris": {"ios": "https://dc.lft.to/lastmile_qr_scan", "android": "https://dc.lft.to/lastmile_qr_scan"}, "is_reserved": 0}, {"lon": -77.04043733333333, "bike_id": "80a91c0b3423c770616074d6a1d4f31d", "lat": 38.923191, "fusion_lon": 0.0, "fusion_lat": 0.0, "type": "electric_scooter", "name": "80a91c0b3423c770616074d6a1d4f31d", "is_disabled": 0, "rental_uris": {"ios": "https://dc.lft.to/lastmile_qr_scan", "android": "https://dc.lft.to/lastmile_qr_scan"}, "is_reserved": 0}, {"lon": -77.01953533333334, "bike_id": "305353962081d48b192cc512708a2985", "lat": 38.922669, "fusion_lon": 0.0, "fusion_lat": 0.0, "type": "electric_scooter", "name": "305353962081d48b192cc512708a2985", "is_disabled": 0, "rental_uris": {"ios": "https://dc.lft.to/lastmile_qr_scan", "android": "https://dc.lft.to/lastmile_qr_scan"}, "is_reserved": 0}, {"lon": -77.02727166666666, "bike_id": "bcc2852fb8145812f732e4d6b1f765a5", "lat": 38.8972155, "fusion_lon": 0.0, "fusion_lat": 0.0, "type": "electric_scooter", "name": "bcc2852fb8145812f732e4d6b1f765a5", "is_disabled": 0, "rental_uris": {"ios": "https://dc.lft.to/lastmile_qr_scan", "android": "https://dc.lft.to/lastmile_qr_scan"}, "is_reserved": 0}, {"lon": -76.948936, "bike_id": "167e6effa04b9b5755277d5e8fe5b573", "lat": 38.89531783333334, "fusion_lon": 0.0, "fusion_lat": 0.0, "type": "electric_scooter", "name": "167e6effa04b9b5755277d5e8fe5b573", "is_disabled": 0, "rental_uris": {"ios": "https://dc.lft.to/lastmile_qr_scan", "android": "https://dc.lft.to/lastmile_qr_scan"}, "is_reserved": 0}, {"lon": -77.03900783333333, "bike_id": "4f0218ec02510830f2f26a1e912bc71a", "lat": 38.923474166666665, "fusion_lon": 0.0, "fusion_lat": 0.0, "type": "electric_scooter", "name": "4f0218ec02510830f2f26a1e912bc71a", "is_disabled": 0, "rental_uris": {"ios": "https://dc.lft.to/lastmile_qr_scan", "android": "https://dc.lft.to/lastmile_qr_scan"}, "is_reserved": 0}, {"lon": -77.02198516666667, "bike_id": "d0df96721cbc128f7b52934c928ad41c", "lat": 38.91650633333333, "fusion_lon": 0.0, "fusion_lat": 0.0, "type": "electric_scooter", "name": "d0df96721cbc128f7b52934c928ad41c", "is_disabled": 0, "rental_uris": {"ios": "https://dc.lft.to/lastmile_qr_scan", "android": "https://dc.lft.to/lastmile_qr_scan"}, "is_reserved": 0}, {"lon": -77.03840733333334, "bike_id": "72c605aa8bb3a58bf722e8f6fab49e1f", "lat": 38.910096333333335, "fusion_lon": 0.0, "fusion_lat": 0.0, "type": "electric_scooter", "name": "72c605aa8bb3a58bf722e8f6fab49e1f", "is_disabled": 0, "rental_uris": {"ios": "https://dc.lft.to/lastmile_qr_scan", "android": "https://dc.lft.to/lastmile_qr_scan"}, "is_reserved": 0}, {"lon": -77.02477533333334, "bike_id": "27a69506bda3b6ac09ec4712a35a098d", "lat": 38.925923166666664, "fusion_lon": 0.0, "fusion_lat": 0.0, "type": "electric_scooter", "name": "27a69506bda3b6ac09ec4712a35a098d", "is_disabled": 0, "rental_uris": {"ios": "https://dc.lft.to/lastmile_qr_scan", "android": "https://dc.lft.to/lastmile_qr_scan"}, "is_reserved": 0}, {"lon": -77.017069, "bike_id": "bde54ce8f2a1c97710d5dc0bdfe0489d", "lat": 38.90262516666667, "fusion_lon": 0.0, "fusion_lat": 0.0, "type": "electric_scooter", "name": "bde54ce8f2a1c97710d5dc0bdfe0489d", "is_disabled": 0, "rental_uris": {"ios": "https://dc.lft.to/lastmile_qr_scan", "android": "https://dc.lft.to/lastmile_qr_scan"}, "is_reserved": 0}, {"lon": -77.03339016666666, "bike_id": "db9bbd924396fad0413c92ff475ad161", "lat": 38.919179666666665, "fusion_lon": 0.0, "fusion_lat": 0.0, "type": "electric_scooter", "name": "db9bbd924396fad0413c92ff475ad161", "is_disabled": 0, "rental_uris": {"ios": "https://dc.lft.to/lastmile_qr_scan", "android": "https://dc.lft.to/lastmile_qr_scan"}, "is_reserved": 0}, {"lon": -76.97841766666667, "bike_id": "e3b69a88c256d22082f868d4e0d42b2e", "lat": 38.86567, "fusion_lon": 0.0, "fusion_lat": 0.0, "type": "electric_scooter", "name": "e3b69a88c256d22082f868d4e0d42b2e", "is_disabled": 0, "rental_uris": {"ios": "https://dc.lft.to/lastmile_qr_scan", "android": "https://dc.lft.to/lastmile_qr_scan"}, "is_reserved": 0}, {"lon": -77.038623, "bike_id": "21656b5fc4c35af9ebde0186e855ac02", "lat": 38.90969466666667, "fusion_lon": 0.0, "fusion_lat": 0.0, "type": "electric_scooter", "name": "21656b5fc4c35af9ebde0186e855ac02", "is_disabled": 0, "rental_uris": {"ios": "https://dc.lft.to/lastmile_qr_scan", "android": "https://dc.lft.to/lastmile_qr_scan"}, "is_reserved": 0}, {"lon": -77.037995, "bike_id": "0dbf4bc4e2ead3da8b05dfbb773c44bf", "lat": 38.93111066666667, "fusion_lon": 0.0, "fusion_lat": 0.0, "type": "electric_scooter", "name": "0dbf4bc4e2ead3da8b05dfbb773c44bf", "is_disabled": 0, "rental_uris": {"ios": "https://dc.lft.to/lastmile_qr_scan", "android": "https://dc.lft.to/lastmile_qr_scan"}, "is_reserved": 0}, {"lon": -77.023926, "bike_id": "3647d6a6f5014ebdda987c07c5659ccc", "lat": 38.915287666666664, "fusion_lon": 0.0, "fusion_lat": 0.0, "type": "electric_scooter", "name": "3647d6a6f5014ebdda987c07c5659ccc", "is_disabled": 0, "rental_uris": {"ios": "https://dc.lft.to/lastmile_qr_scan", "android": "https://dc.lft.to/lastmile_qr_scan"}, "is_reserved": 0}, {"lon": -77.04686466666666, "bike_id": "b4bd3c0fbec29ab09b09290cdf986549", "lat": 38.89746783333333, "fusion_lon": 0.0, "fusion_lat": 0.0, "type": "electric_scooter", "name": "b4bd3c0fbec29ab09b09290cdf986549", "is_disabled": 0, "rental_uris": {"ios": "https://dc.lft.to/lastmile_qr_scan", "android": "https://dc.lft.to/lastmile_qr_scan"}, "is_reserved": 0}, {"lon": -77.0252785, "bike_id": "267198d9c0e0ce077cb623f373ea4868", "lat": 38.92895266666667, "fusion_lon": 0.0, "fusion_lat": 0.0, "type": "electric_scooter", "name": "267198d9c0e0ce077cb623f373ea4868", "is_disabled": 0, "rental_uris": {"ios": "https://dc.lft.to/lastmile_qr_scan", "android": "https://dc.lft.to/lastmile_qr_scan"}, "is_reserved": 0}, {"lon": -76.965286, "bike_id": "56dd6985b0bd7bd889969afab1069d38", "lat": 38.876326166666665, "fusion_lon": 0.0, "fusion_lat": 0.0, "type": "electric_scooter", "name": "56dd6985b0bd7bd889969afab1069d38", "is_disabled": 0, "rental_uris": {"ios": "https://dc.lft.to/lastmile_qr_scan", "android": "https://dc.lft.to/lastmile_qr_scan"}, "is_reserved": 0}, {"lon": -77.0375375, "bike_id": "7372aefc72f506ece76e2a920c79c56b", "lat": 38.90775566666667, "fusion_lon": 0.0, "fusion_lat": 0.0, "type": "electric_scooter", "name": "7372aefc72f506ece76e2a920c79c56b", "is_disabled": 0, "rental_uris": {"ios": "https://dc.lft.to/lastmile_qr_scan", "android": "https://dc.lft.to/lastmile_qr_scan"}, "is_reserved": 0}, {"lon": -77.03334566666666, "bike_id": "70bd702bead86d1c8a581710c20a5e95", "lat": 38.898219833333336, "fusion_lon": 0.0, "fusion_lat": 0.0, "type": "electric_scooter", "name": "70bd702bead86d1c8a581710c20a5e95", "is_disabled": 0, "rental_uris": {"ios": "https://dc.lft.to/lastmile_qr_scan", "android": "https://dc.lft.to/lastmile_qr_scan"}, "is_reserved": 0}, {"lon": -77.02841933333333, "bike_id": "119faefe7849a5a39273fa422e995a70", "lat": 38.9342005, "fusion_lon": 0.0, "fusion_lat": 0.0, "type": "electric_scooter", "name": "119faefe7849a5a39273fa422e995a70", "is_disabled": 0, "rental_uris": {"ios": "https://dc.lft.to/lastmile_qr_scan", "android": "https://dc.lft.to/lastmile_qr_scan"}, "is_reserved": 0}, {"lon": -77.02874833333334, "bike_id": "ab9f07f34a083cd0f6455b4639c6c6b1", "lat": 38.916980333333335, "fusion_lon": 0.0, "fusion_lat": 0.0, "type": "electric_scooter", "name": "ab9f07f34a083cd0f6455b4639c6c6b1", "is_disabled": 0, "rental_uris": {"ios": "https://dc.lft.to/lastmile_qr_scan", "android": "https://dc.lft.to/lastmile_qr_scan"}, "is_reserved": 0}, {"lon": -77.01346616666666, "bike_id": "e7d12c80529f55fe774eebe1888a1359", "lat": 38.878137833333334, "fusion_lon": 0.0, "fusion_lat": 0.0, "type": "electric_scooter", "name": "e7d12c80529f55fe774eebe1888a1359", "is_disabled": 0, "rental_uris": {"ios": "https://dc.lft.to/lastmile_qr_scan", "android": "https://dc.lft.to/lastmile_qr_scan"}, "is_reserved": 0}, {"lon": -77.02291816666667, "bike_id": "e6c6ba2a7cd2fc0d992e442f2c48dc53", "lat": 38.907891666666664, "fusion_lon": 0.0, "fusion_lat": 0.0, "type": "electric_scooter", "name": "e6c6ba2a7cd2fc0d992e442f2c48dc53", "is_disabled": 0, "rental_uris": {"ios": "https://dc.lft.to/lastmile_qr_scan", "android": "https://dc.lft.to/lastmile_qr_scan"}, "is_reserved": 0}, {"lon": -77.0207505, "bike_id": "ed6d570fb102580b91bd86d274b365f7", "lat": 38.881843333333336, "fusion_lon": 0.0, "fusion_lat": 0.0, "type": "electric_scooter", "name": "ed6d570fb102580b91bd86d274b365f7", "is_disabled": 0, "rental_uris": {"ios": "https://dc.lft.to/lastmile_qr_scan", "android": "https://dc.lft.to/lastmile_qr_scan"}, "is_reserved": 0}, {"lon": -77.031931, "bike_id": "10424ee932228120c8113115d535e037", "lat": 38.912692166666666, "fusion_lon": 0.0, "fusion_lat": 0.0, "type": "electric_scooter", "name": "10424ee932228120c8113115d535e037", "is_disabled": 0, "rental_uris": {"ios": "https://dc.lft.to/lastmile_qr_scan", "android": "https://dc.lft.to/lastmile_qr_scan"}, "is_reserved": 0}, {"lon": -76.96096333333334, "bike_id": "e3a44323ad797e2ee1af4ab8b28efd81", "lat": 38.9187235, "fusion_lon": 0.0, "fusion_lat": 0.0, "type": "electric_bike", "name": "e3a44323ad797e2ee1af4ab8b28efd81", "is_disabled": 0, "rental_uris": {"ios": "https://dc.lft.to/lastmile_qr_scan", "android": "https://dc.lft.to/lastmile_qr_scan"}, "is_reserved": 0}, {"lon": -77.0321085, "bike_id": "27795d328444cd8f3067e1b0cc0fcaf4", "lat": 38.91926216666667, "fusion_lon": 0.0, "fusion_lat": 0.0, "type": "electric_scooter", "name": "27795d328444cd8f3067e1b0cc0fcaf4", "is_disabled": 0, "rental_uris": {"ios": "https://dc.lft.to/lastmile_qr_scan", "android": "https://dc.lft.to/lastmile_qr_scan"}, "is_reserved": 0}, {"lon": -77.04873683333334, "bike_id": "3e2ecb0239bb317b39b11e64f0e8a3d9", "lat": 38.8922985, "fusion_lon": 0.0, "fusion_lat": 0.0, "type": "electric_scooter", "name": "3e2ecb0239bb317b39b11e64f0e8a3d9", "is_disabled": 0, "rental_uris": {"ios": "https://dc.lft.to/lastmile_qr_scan", "android": "https://dc.lft.to/lastmile_qr_scan"}, "is_reserved": 0}, {"lon": -77.03442533333333, "bike_id": "ccf8efeb90f6a9b841bc4629d535b955", "lat": 38.918053, "fusion_lon": 0.0, "fusion_lat": 0.0, "type": "electric_scooter", "name": "ccf8efeb90f6a9b841bc4629d535b955", "is_disabled": 0, "rental_uris": {"ios": "https://dc.lft.to/lastmile_qr_scan", "android": "https://dc.lft.to/lastmile_qr_scan"}, "is_reserved": 0}, {"lon": -77.00577366666667, "bike_id": "7fc1b130b448a272113f96a21943f753", "lat": 38.835919833333335, "fusion_lon": 0.0, "fusion_lat": 0.0, "type": "electric_scooter", "name": "7fc1b130b448a272113f96a21943f753", "is_disabled": 0, "rental_uris": {"ios": "https://dc.lft.to/lastmile_qr_scan", "android": "https://dc.lft.to/lastmile_qr_scan"}, "is_reserved": 0}, {"lon": -76.9937315, "bike_id": "c74d819a9421e6bc2b8f8d5cb205c45f", "lat": 38.971911166666665, "fusion_lon": 0.0, "fusion_lat": 0.0, "type": "electric_bike", "name": "c74d819a9421e6bc2b8f8d5cb205c45f", "is_disabled": 0, "rental_uris": {"ios": "https://dc.lft.to/lastmile_qr_scan", "android": "https://dc.lft.to/lastmile_qr_scan"}, "is_reserved": 0}, {"lon": -77.04438916666666, "bike_id": "770d0f45b4fdbcaabdcbe4c42230feda", "lat": 38.9095345, "fusion_lon": 0.0, "fusion_lat": 0.0, "type": "electric_scooter", "name": "770d0f45b4fdbcaabdcbe4c42230feda", "is_disabled": 0, "rental_uris": {"ios": "https://dc.lft.to/lastmile_qr_scan", "android": "https://dc.lft.to/lastmile_qr_scan"}, "is_reserved": 0}, {"lon": -76.98752883333333, "bike_id": "03b04b2c843c70023d42858742796b46", "lat": 38.90011, "fusion_lon": 0.0, "fusion_lat": 0.0, "type": "electric_scooter", "name": "03b04b2c843c70023d42858742796b46", "is_disabled": 0, "rental_uris": {"ios": "https://dc.lft.to/lastmile_qr_scan", "android": "https://dc.lft.to/lastmile_qr_scan"}, "is_reserved": 0}, {"lon": -77.07007833333333, "bike_id": "28517aeef88798c3fcafa9bd7a7c9ace", "lat": 38.9585615, "fusion_lon": 0.0, "fusion_lat": 0.0, "type": "electric_scooter", "name": "28517aeef88798c3fcafa9bd7a7c9ace", "is_disabled": 0, "rental_uris": {"ios": "https://dc.lft.to/lastmile_qr_scan", "android": "https://dc.lft.to/lastmile_qr_scan"}, "is_reserved": 0}, {"lon": -77.02897816666666, "bike_id": "634ab5b6d8c05092afaec637c6b8f272", "lat": 38.9169835, "fusion_lon": 0.0, "fusion_lat": 0.0, "type": "electric_scooter", "name": "634ab5b6d8c05092afaec637c6b8f272", "is_disabled": 0, "rental_uris": {"ios": "https://dc.lft.to/lastmile_qr_scan", "android": "https://dc.lft.to/lastmile_qr_scan"}, "is_reserved": 0}, {"lon": -77.029489, "bike_id": "2b45064e6365b48c322c07d194b6baed", "lat": 38.88583066666666, "fusion_lon": 0.0, "fusion_lat": 0.0, "type": "electric_bike", "name": "2b45064e6365b48c322c07d194b6baed", "is_disabled": 0, "rental_uris": {"ios": "https://dc.lft.to/lastmile_qr_scan", "android": "https://dc.lft.to/lastmile_qr_scan"}, "is_reserved": 0}, {"lon": -77.0296435, "bike_id": "32f53294d5d88c15e5586b86044f2a0e", "lat": 38.8966555, "fusion_lon": 0.0, "fusion_lat": 0.0, "type": "electric_scooter", "name": "32f53294d5d88c15e5586b86044f2a0e", "is_disabled": 0, "rental_uris": {"ios": "https://dc.lft.to/lastmile_qr_scan", "android": "https://dc.lft.to/lastmile_qr_scan"}, "is_reserved": 0}, {"lon": -77.04680566666667, "bike_id": "c15adc97d37d516b632b293706c9d366", "lat": 38.89220366666667, "fusion_lon": 0.0, "fusion_lat": 0.0, "type": "electric_scooter", "name": "c15adc97d37d516b632b293706c9d366", "is_disabled": 0, "rental_uris": {"ios": "https://dc.lft.to/lastmile_qr_scan", "android": "https://dc.lft.to/lastmile_qr_scan"}, "is_reserved": 0}, {"lon": -77.0130645, "bike_id": "e06491102f98ac65af74e4be43cd58ce", "lat": 38.943279833333335, "fusion_lon": 0.0, "fusion_lat": 0.0, "type": "electric_scooter", "name": "e06491102f98ac65af74e4be43cd58ce", "is_disabled": 0, "rental_uris": {"ios": "https://dc.lft.to/lastmile_qr_scan", "android": "https://dc.lft.to/lastmile_qr_scan"}, "is_reserved": 0}, {"lon": -77.02233816666667, "bike_id": "fcdd219410350d1373c4545a5fcc8f75", "lat": 38.9620495, "fusion_lon": 0.0, "fusion_lat": 0.0, "type": "electric_scooter", "name": "fcdd219410350d1373c4545a5fcc8f75", "is_disabled": 0, "rental_uris": {"ios": "https://dc.lft.to/lastmile_qr_scan", "android": "https://dc.lft.to/lastmile_qr_scan"}, "is_reserved": 0}, {"lon": -77.02200416666666, "bike_id": "1c037336d5cf8d970c0c17e58e885778", "lat": 38.901315333333336, "fusion_lon": 0.0, "fusion_lat": 0.0, "type": "electric_scooter", "name": "1c037336d5cf8d970c0c17e58e885778", "is_disabled": 0, "rental_uris": {"ios": "https://dc.lft.to/lastmile_qr_scan", "android": "https://dc.lft.to/lastmile_qr_scan"}, "is_reserved": 0}, {"lon": -77.02795283333333, "bike_id": "47551c41c2cbc363628473e6665694f5", "lat": 38.895256, "fusion_lon": 0.0, "fusion_lat": 0.0, "type": "electric_scooter", "name": "47551c41c2cbc363628473e6665694f5", "is_disabled": 0, "rental_uris": {"ios": "https://dc.lft.to/lastmile_qr_scan", "android": "https://dc.lft.to/lastmile_qr_scan"}, "is_reserved": 0}, {"lon": -77.06012816666667, "bike_id": "3d057e656c56fd8c145d48d79fcb9c95", "lat": 38.90117166666667, "fusion_lon": 0.0, "fusion_lat": 0.0, "type": "electric_scooter", "name": "3d057e656c56fd8c145d48d79fcb9c95", "is_disabled": 0, "rental_uris": {"ios": "https://dc.lft.to/lastmile_qr_scan", "android": "https://dc.lft.to/lastmile_qr_scan"}, "is_reserved": 0}, {"lon": -76.9989705, "bike_id": "bf12f2c2ac44484c117d7bd9c6f0dad8", "lat": 38.9095615, "fusion_lon": 0.0, "fusion_lat": 0.0, "type": "electric_scooter", "name": "bf12f2c2ac44484c117d7bd9c6f0dad8", "is_disabled": 0, "rental_uris": {"ios": "https://dc.lft.to/lastmile_qr_scan", "android": "https://dc.lft.to/lastmile_qr_scan"}, "is_reserved": 0}, {"lon": -77.02957766666667, "bike_id": "fda180082fca65748e9520efe6fa9f8e", "lat": 38.90654683333333, "fusion_lon": 0.0, "fusion_lat": 0.0, "type": "electric_scooter", "name": "fda180082fca65748e9520efe6fa9f8e", "is_disabled": 0, "rental_uris": {"ios": "https://dc.lft.to/lastmile_qr_scan", "android": "https://dc.lft.to/lastmile_qr_scan"}, "is_reserved": 0}, {"lon": -77.0487705, "bike_id": "f14481a76c9ddee64c7233fc411a9a76", "lat": 38.892351, "fusion_lon": 0.0, "fusion_lat": 0.0, "type": "electric_scooter", "name": "f14481a76c9ddee64c7233fc411a9a76", "is_disabled": 0, "rental_uris": {"ios": "https://dc.lft.to/lastmile_qr_scan", "android": "https://dc.lft.to/lastmile_qr_scan"}, "is_reserved": 0}, {"lon": -77.02933216666666, "bike_id": "8c0026c5b61d75ad422debc1269a0d84", "lat": 38.91726216666667, "fusion_lon": 0.0, "fusion_lat": 0.0, "type": "electric_scooter", "name": "8c0026c5b61d75ad422debc1269a0d84", "is_disabled": 0, "rental_uris": {"ios": "https://dc.lft.to/lastmile_qr_scan", "android": "https://dc.lft.to/lastmile_qr_scan"}, "is_reserved": 0}, {"lon": -77.0253235, "bike_id": "20c6b78e6cdda037029b98d000265cbb", "lat": 38.90575533333333, "fusion_lon": 0.0, "fusion_lat": 0.0, "type": "electric_scooter", "name": "20c6b78e6cdda037029b98d000265cbb", "is_disabled": 0, "rental_uris": {"ios": "https://dc.lft.to/lastmile_qr_scan", "android": "https://dc.lft.to/lastmile_qr_scan"}, "is_reserved": 0}, {"lon": -77.020117, "bike_id": "f50b706cd79375afd362d660eedcfb5c", "lat": 38.92417966666667, "fusion_lon": 0.0, "fusion_lat": 0.0, "type": "electric_scooter", "name": "f50b706cd79375afd362d660eedcfb5c", "is_disabled": 0, "rental_uris": {"ios": "https://dc.lft.to/lastmile_qr_scan", "android": "https://dc.lft.to/lastmile_qr_scan"}, "is_reserved": 0}, {"lon": -77.0215985, "bike_id": "395bd4f75c30f921fa561896058f3072", "lat": 38.95078016666667, "fusion_lon": 0.0, "fusion_lat": 0.0, "type": "electric_scooter", "name": "395bd4f75c30f921fa561896058f3072", "is_disabled": 0, "rental_uris": {"ios": "https://dc.lft.to/lastmile_qr_scan", "android": "https://dc.lft.to/lastmile_qr_scan"}, "is_reserved": 0}, {"lon": -77.02259833333333, "bike_id": "ac951ec57365c77b9077c53aebf57204", "lat": 38.9667865, "fusion_lon": 0.0, "fusion_lat": 0.0, "type": "electric_bike", "name": "ac951ec57365c77b9077c53aebf57204", "is_disabled": 0, "rental_uris": {"ios": "https://dc.lft.to/lastmile_qr_scan", "android": "https://dc.lft.to/lastmile_qr_scan"}, "is_reserved": 0}, {"lon": -76.99608433333333, "bike_id": "13a6b145018893ed6384e5caf07112c8", "lat": 38.8870105, "fusion_lon": 0.0, "fusion_lat": 0.0, "type": "electric_scooter", "name": "13a6b145018893ed6384e5caf07112c8", "is_disabled": 0, "rental_uris": {"ios": "https://dc.lft.to/lastmile_qr_scan", "android": "https://dc.lft.to/lastmile_qr_scan"}, "is_reserved": 0}, {"lon": -77.03424983333333, "bike_id": "639e5764148732feffe166607ec62f23", "lat": 38.9026475, "fusion_lon": 0.0, "fusion_lat": 0.0, "type": "electric_scooter", "name": "639e5764148732feffe166607ec62f23", "is_disabled": 0, "rental_uris": {"ios": "https://dc.lft.to/lastmile_qr_scan", "android": "https://dc.lft.to/lastmile_qr_scan"}, "is_reserved": 0}, {"lon": -77.0344515, "bike_id": "197d3126fd43671f759e8a49f15afcff", "lat": 38.909743, "fusion_lon": 0.0, "fusion_lat": 0.0, "type": "electric_scooter", "name": "197d3126fd43671f759e8a49f15afcff", "is_disabled": 0, "rental_uris": {"ios": "https://dc.lft.to/lastmile_qr_scan", "android": "https://dc.lft.to/lastmile_qr_scan"}, "is_reserved": 0}, {"lon": -77.03665033333333, "bike_id": "ce0c7e9fe74b181ec0ffd5ac4ba15f85", "lat": 38.92128866666667, "fusion_lon": 0.0, "fusion_lat": 0.0, "type": "electric_scooter", "name": "ce0c7e9fe74b181ec0ffd5ac4ba15f85", "is_disabled": 0, "rental_uris": {"ios": "https://dc.lft.to/lastmile_qr_scan", "android": "https://dc.lft.to/lastmile_qr_scan"}, "is_reserved": 0}, {"lon": -77.05241066666666, "bike_id": "bcebe8d599c5efa8b526a6843a80d139", "lat": 38.9246625, "fusion_lon": 0.0, "fusion_lat": 0.0, "type": "electric_scooter", "name": "bcebe8d599c5efa8b526a6843a80d139", "is_disabled": 0, "rental_uris": {"ios": "https://dc.lft.to/lastmile_qr_scan", "android": "https://dc.lft.to/lastmile_qr_scan"}, "is_reserved": 0}, {"lon": -76.9898575, "bike_id": "b712331a1b35f59e2538873b9d345d54", "lat": 38.933620166666664, "fusion_lon": 0.0, "fusion_lat": 0.0, "type": "electric_scooter", "name": "b712331a1b35f59e2538873b9d345d54", "is_disabled": 0, "rental_uris": {"ios": "https://dc.lft.to/lastmile_qr_scan", "android": "https://dc.lft.to/lastmile_qr_scan"}, "is_reserved": 0}, {"lon": -77.041451, "bike_id": "af97defab07c6b14babd8a81ce220b52", "lat": 38.91981583333333, "fusion_lon": 0.0, "fusion_lat": 0.0, "type": "electric_scooter", "name": "af97defab07c6b14babd8a81ce220b52", "is_disabled": 0, "rental_uris": {"ios": "https://dc.lft.to/lastmile_qr_scan", "android": "https://dc.lft.to/lastmile_qr_scan"}, "is_reserved": 0}, {"lon": -76.980212, "bike_id": "b67d776bd9a64b6a1f5e9600f244c412", "lat": 38.8532975, "fusion_lon": 0.0, "fusion_lat": 0.0, "type": "electric_bike", "name": "b67d776bd9a64b6a1f5e9600f244c412", "is_disabled": 0, "rental_uris": {"ios": "https://dc.lft.to/lastmile_qr_scan", "android": "https://dc.lft.to/lastmile_qr_scan"}, "is_reserved": 0}, {"lon": -77.07969266666667, "bike_id": "d9450594e34a3e726f6cec5424a05ba2", "lat": 38.857276, "fusion_lon": 0.0, "fusion_lat": 0.0, "type": "electric_bike", "name": "d9450594e34a3e726f6cec5424a05ba2", "is_disabled": 0, "rental_uris": {"ios": "https://dc.lft.to/lastmile_qr_scan", "android": "https://dc.lft.to/lastmile_qr_scan"}, "is_reserved": 0}, {"lon": -76.99520533333333, "bike_id": "36a7c369001a10d6bfa0a47f47fe54f1", "lat": 38.86258733333333, "fusion_lon": 0.0, "fusion_lat": 0.0, "type": "electric_scooter", "name": "36a7c369001a10d6bfa0a47f47fe54f1", "is_disabled": 0, "rental_uris": {"ios": "https://dc.lft.to/lastmile_qr_scan", "android": "https://dc.lft.to/lastmile_qr_scan"}, "is_reserved": 0}, {"lon": -77.00615283333333, "bike_id": "2a7dd0c395b9a5354284e0ffa3aca3eb", "lat": 38.87179483333333, "fusion_lon": 0.0, "fusion_lat": 0.0, "type": "electric_scooter", "name": "2a7dd0c395b9a5354284e0ffa3aca3eb", "is_disabled": 0, "rental_uris": {"ios": "https://dc.lft.to/lastmile_qr_scan", "android": "https://dc.lft.to/lastmile_qr_scan"}, "is_reserved": 0}, {"lon": -76.94883433333334, "bike_id": "c265bf95325970df3a6a14c60f9037a6", "lat": 38.895100166666666, "fusion_lon": 0.0, "fusion_lat": 0.0, "type": "electric_scooter", "name": "c265bf95325970df3a6a14c60f9037a6", "is_disabled": 0, "rental_uris": {"ios": "https://dc.lft.to/lastmile_qr_scan", "android": "https://dc.lft.to/lastmile_qr_scan"}, "is_reserved": 0}, {"lon": -77.03115966666667, "bike_id": "40582303084077451ae4ef6f0fca7ee5", "lat": 38.91563716666667, "fusion_lon": 0.0, "fusion_lat": 0.0, "type": "electric_scooter", "name": "40582303084077451ae4ef6f0fca7ee5", "is_disabled": 0, "rental_uris": {"ios": "https://dc.lft.to/lastmile_qr_scan", "android": "https://dc.lft.to/lastmile_qr_scan"}, "is_reserved": 0}, {"lon": -76.99087133333333, "bike_id": "5ab5a60af7080ec0217907cee92d9bb5", "lat": 38.89800483333333, "fusion_lon": 0.0, "fusion_lat": 0.0, "type": "electric_bike", "name": "5ab5a60af7080ec0217907cee92d9bb5", "is_disabled": 0, "rental_uris": {"ios": "https://dc.lft.to/lastmile_qr_scan", "android": "https://dc.lft.to/lastmile_qr_scan"}, "is_reserved": 0}, {"lon": -77.03444566666667, "bike_id": "5fde864f492cae047b2d100e91e4c6eb", "lat": 38.91492383333333, "fusion_lon": 0.0, "fusion_lat": 0.0, "type": "electric_scooter", "name": "5fde864f492cae047b2d100e91e4c6eb", "is_disabled": 0, "rental_uris": {"ios": "https://dc.lft.to/lastmile_qr_scan", "android": "https://dc.lft.to/lastmile_qr_scan"}, "is_reserved": 0}, {"lon": -77.038288, "bike_id": "a9a0077205c23d112a94b7ce6f400a59", "lat": 38.90674766666667, "fusion_lon": 0.0, "fusion_lat": 0.0, "type": "electric_scooter", "name": "a9a0077205c23d112a94b7ce6f400a59", "is_disabled": 0, "rental_uris": {"ios": "https://dc.lft.to/lastmile_qr_scan", "android": "https://dc.lft.to/lastmile_qr_scan"}, "is_reserved": 0}, {"lon": -77.03300866666666, "bike_id": "a8c8c05c0ceaa76a986aa3853efdde52", "lat": 38.9286575, "fusion_lon": 0.0, "fusion_lat": 0.0, "type": "electric_scooter", "name": "a8c8c05c0ceaa76a986aa3853efdde52", "is_disabled": 0, "rental_uris": {"ios": "https://dc.lft.to/lastmile_qr_scan", "android": "https://dc.lft.to/lastmile_qr_scan"}, "is_reserved": 0}, {"lon": -77.00542983333334, "bike_id": "2adef624deab44a6a62fc96e3b9e0db3", "lat": 38.900370833333334, "fusion_lon": 0.0, "fusion_lat": 0.0, "type": "electric_scooter", "name": "2adef624deab44a6a62fc96e3b9e0db3", "is_disabled": 0, "rental_uris": {"ios": "https://dc.lft.to/lastmile_qr_scan", "android": "https://dc.lft.to/lastmile_qr_scan"}, "is_reserved": 0}, {"lon": -76.9889675, "bike_id": "2efe51b317fdf9f5bab2756a3d10c67e", "lat": 38.91347366666667, "fusion_lon": 0.0, "fusion_lat": 0.0, "type": "electric_scooter", "name": "2efe51b317fdf9f5bab2756a3d10c67e", "is_disabled": 0, "rental_uris": {"ios": "https://dc.lft.to/lastmile_qr_scan", "android": "https://dc.lft.to/lastmile_qr_scan"}, "is_reserved": 0}, {"lon": -77.00846433333334, "bike_id": "667b336b0665652decf698440b9eb0fe", "lat": 38.916319, "fusion_lon": 0.0, "fusion_lat": 0.0, "type": "electric_scooter", "name": "667b336b0665652decf698440b9eb0fe", "is_disabled": 0, "rental_uris": {"ios": "https://dc.lft.to/lastmile_qr_scan", "android": "https://dc.lft.to/lastmile_qr_scan"}, "is_reserved": 0}, {"lon": -77.0344655, "bike_id": "bab4a1ce97b903e81e8798abc37448bb", "lat": 38.909782166666666, "fusion_lon": 0.0, "fusion_lat": 0.0, "type": "electric_scooter", "name": "bab4a1ce97b903e81e8798abc37448bb", "is_disabled": 0, "rental_uris": {"ios": "https://dc.lft.to/lastmile_qr_scan", "android": "https://dc.lft.to/lastmile_qr_scan"}, "is_reserved": 0}, {"lon": -77.0220045, "bike_id": "b57c7eab09c61de39236155301241da0", "lat": 38.89623816666667, "fusion_lon": 0.0, "fusion_lat": 0.0, "type": "electric_scooter", "name": "b57c7eab09c61de39236155301241da0", "is_disabled": 0, "rental_uris": {"ios": "https://dc.lft.to/lastmile_qr_scan", "android": "https://dc.lft.to/lastmile_qr_scan"}, "is_reserved": 0}, {"lon": -77.04243616666666, "bike_id": "19ead7ed118db151628f6633cfa8a71c", "lat": 38.90942666666667, "fusion_lon": 0.0, "fusion_lat": 0.0, "type": "electric_scooter", "name": "19ead7ed118db151628f6633cfa8a71c", "is_disabled": 0, "rental_uris": {"ios": "https://dc.lft.to/lastmile_qr_scan", "android": "https://dc.lft.to/lastmile_qr_scan"}, "is_reserved": 0}, {"lon": -77.02185083333333, "bike_id": "6a7fb83b98da7a65d1b21bfafc39d0e4", "lat": 38.8996635, "fusion_lon": 0.0, "fusion_lat": 0.0, "type": "electric_scooter", "name": "6a7fb83b98da7a65d1b21bfafc39d0e4", "is_disabled": 0, "rental_uris": {"ios": "https://dc.lft.to/lastmile_qr_scan", "android": "https://dc.lft.to/lastmile_qr_scan"}, "is_reserved": 0}, {"lon": -76.97559483333333, "bike_id": "c50d4705de0e1516946d4010d88acbe0", "lat": 38.92458633333333, "fusion_lon": 0.0, "fusion_lat": 0.0, "type": "electric_bike", "name": "c50d4705de0e1516946d4010d88acbe0", "is_disabled": 0, "rental_uris": {"ios": "https://dc.lft.to/lastmile_qr_scan", "android": "https://dc.lft.to/lastmile_qr_scan"}, "is_reserved": 0}, {"lon": -77.01579216666667, "bike_id": "6cdd0ae89ac82d7d15e8b9ebe873d3d9", "lat": 38.88318533333333, "fusion_lon": 0.0, "fusion_lat": 0.0, "type": "electric_scooter", "name": "6cdd0ae89ac82d7d15e8b9ebe873d3d9", "is_disabled": 0, "rental_uris": {"ios": "https://dc.lft.to/lastmile_qr_scan", "android": "https://dc.lft.to/lastmile_qr_scan"}, "is_reserved": 0}, {"lon": -77.02087366666666, "bike_id": "f5c188e8ec4505e3b64d9976b6d684c0", "lat": 38.92910883333333, "fusion_lon": 0.0, "fusion_lat": 0.0, "type": "electric_scooter", "name": "f5c188e8ec4505e3b64d9976b6d684c0", "is_disabled": 0, "rental_uris": {"ios": "https://dc.lft.to/lastmile_qr_scan", "android": "https://dc.lft.to/lastmile_qr_scan"}, "is_reserved": 0}, {"lon": -77.0385055, "bike_id": "373d6b6bfd14c6901bf37c7d98020e96", "lat": 38.93238516666667, "fusion_lon": 0.0, "fusion_lat": 0.0, "type": "electric_scooter", "name": "373d6b6bfd14c6901bf37c7d98020e96", "is_disabled": 0, "rental_uris": {"ios": "https://dc.lft.to/lastmile_qr_scan", "android": "https://dc.lft.to/lastmile_qr_scan"}, "is_reserved": 0}, {"lon": -76.97857433333333, "bike_id": "2785c39a983c9e35d1cb917abb0b55f5", "lat": 38.907226666666666, "fusion_lon": 0.0, "fusion_lat": 0.0, "type": "electric_scooter", "name": "2785c39a983c9e35d1cb917abb0b55f5", "is_disabled": 0, "rental_uris": {"ios": "https://dc.lft.to/lastmile_qr_scan", "android": "https://dc.lft.to/lastmile_qr_scan"}, "is_reserved": 0}, {"lon": -77.03846666666666, "bike_id": "897cd8c7a50bf230680eaf1bf7be4596", "lat": 38.911848166666665, "fusion_lon": 0.0, "fusion_lat": 0.0, "type": "electric_scooter", "name": "897cd8c7a50bf230680eaf1bf7be4596", "is_disabled": 0, "rental_uris": {"ios": "https://dc.lft.to/lastmile_qr_scan", "android": "https://dc.lft.to/lastmile_qr_scan"}, "is_reserved": 0}, {"lon": -77.03256983333333, "bike_id": "338597d3224bb00a7bb3e88d181e6969", "lat": 38.9377255, "fusion_lon": 0.0, "fusion_lat": 0.0, "type": "electric_scooter", "name": "338597d3224bb00a7bb3e88d181e6969", "is_disabled": 0, "rental_uris": {"ios": "https://dc.lft.to/lastmile_qr_scan", "android": "https://dc.lft.to/lastmile_qr_scan"}, "is_reserved": 0}, {"lon": -77.02496033333334, "bike_id": "a34bfc5a7d95a766783b63802f3c8284", "lat": 38.92592466666667, "fusion_lon": 0.0, "fusion_lat": 0.0, "type": "electric_scooter", "name": "a34bfc5a7d95a766783b63802f3c8284", "is_disabled": 0, "rental_uris": {"ios": "https://dc.lft.to/lastmile_qr_scan", "android": "https://dc.lft.to/lastmile_qr_scan"}, "is_reserved": 0}, {"lon": -76.94991566666667, "bike_id": "b24db1d7dfa256419a7b20564517d78a", "lat": 38.893858333333334, "fusion_lon": 0.0, "fusion_lat": 0.0, "type": "electric_scooter", "name": "b24db1d7dfa256419a7b20564517d78a", "is_disabled": 0, "rental_uris": {"ios": "https://dc.lft.to/lastmile_qr_scan", "android": "https://dc.lft.to/lastmile_qr_scan"}, "is_reserved": 0}, {"lon": -77.04317933333333, "bike_id": "422aea291b4fda7bff671bb69ba74c5c", "lat": 38.8920005, "fusion_lon": 0.0, "fusion_lat": 0.0, "type": "electric_scooter", "name": "422aea291b4fda7bff671bb69ba74c5c", "is_disabled": 0, "rental_uris": {"ios": "https://dc.lft.to/lastmile_qr_scan", "android": "https://dc.lft.to/lastmile_qr_scan"}, "is_reserved": 0}, {"lon": -77.032543, "bike_id": "6c06ea47347fc325dedd44db0b66d3b0", "lat": 38.93134516666667, "fusion_lon": 0.0, "fusion_lat": 0.0, "type": "electric_scooter", "name": "6c06ea47347fc325dedd44db0b66d3b0", "is_disabled": 0, "rental_uris": {"ios": "https://dc.lft.to/lastmile_qr_scan", "android": "https://dc.lft.to/lastmile_qr_scan"}, "is_reserved": 0}, {"lon": -77.02150916666666, "bike_id": "9bbf1ece922ea143ebcfb2f0571b4d3a", "lat": 38.91555616666667, "fusion_lon": 0.0, "fusion_lat": 0.0, "type": "electric_scooter", "name": "9bbf1ece922ea143ebcfb2f0571b4d3a", "is_disabled": 0, "rental_uris": {"ios": "https://dc.lft.to/lastmile_qr_scan", "android": "https://dc.lft.to/lastmile_qr_scan"}, "is_reserved": 0}, {"lon": -77.00213566666666, "bike_id": "21284476291a2050f9d1fd8a28b62be4", "lat": 38.8954695, "fusion_lon": 0.0, "fusion_lat": 0.0, "type": "electric_scooter", "name": "21284476291a2050f9d1fd8a28b62be4", "is_disabled": 0, "rental_uris": {"ios": "https://dc.lft.to/lastmile_qr_scan", "android": "https://dc.lft.to/lastmile_qr_scan"}, "is_reserved": 0}, {"lon": -77.01475916666666, "bike_id": "9c067774392b1d9ad3baf14deebbc847", "lat": 38.94070116666666, "fusion_lon": 0.0, "fusion_lat": 0.0, "type": "electric_bike", "name": "9c067774392b1d9ad3baf14deebbc847", "is_disabled": 0, "rental_uris": {"ios": "https://dc.lft.to/lastmile_qr_scan", "android": "https://dc.lft.to/lastmile_qr_scan"}, "is_reserved": 0}, {"lon": -77.0324345, "bike_id": "f88cc8a3d333fbc278b7d7c79ced80dc", "lat": 38.9155815, "fusion_lon": 0.0, "fusion_lat": 0.0, "type": "electric_scooter", "name": "f88cc8a3d333fbc278b7d7c79ced80dc", "is_disabled": 0, "rental_uris": {"ios": "https://dc.lft.to/lastmile_qr_scan", "android": "https://dc.lft.to/lastmile_qr_scan"}, "is_reserved": 0}, {"lon": -77.032133, "bike_id": "5dfcd0b296485c596e315b4357fb4082", "lat": 38.884218833333335, "fusion_lon": 0.0, "fusion_lat": 0.0, "type": "electric_scooter", "name": "5dfcd0b296485c596e315b4357fb4082", "is_disabled": 0, "rental_uris": {"ios": "https://dc.lft.to/lastmile_qr_scan", "android": "https://dc.lft.to/lastmile_qr_scan"}, "is_reserved": 0}, {"lon": -77.05420083333334, "bike_id": "bfbadb86c84485408f3b8d55f21b79ed", "lat": 38.950484833333334, "fusion_lon": 0.0, "fusion_lat": 0.0, "type": "electric_scooter", "name": "bfbadb86c84485408f3b8d55f21b79ed", "is_disabled": 0, "rental_uris": {"ios": "https://dc.lft.to/lastmile_qr_scan", "android": "https://dc.lft.to/lastmile_qr_scan"}, "is_reserved": 0}, {"lon": -77.00532933333334, "bike_id": "f830006b2cad34ef797ebe04badab7c0", "lat": 38.92978433333333, "fusion_lon": 0.0, "fusion_lat": 0.0, "type": "electric_scooter", "name": "f830006b2cad34ef797ebe04badab7c0", "is_disabled": 0, "rental_uris": {"ios": "https://dc.lft.to/lastmile_qr_scan", "android": "https://dc.lft.to/lastmile_qr_scan"}, "is_reserved": 0}, {"lon": -77.05038166666667, "bike_id": "f83ea611abacea59eda4147bb123945d", "lat": 38.923587166666664, "fusion_lon": 0.0, "fusion_lat": 0.0, "type": "electric_scooter", "name": "f83ea611abacea59eda4147bb123945d", "is_disabled": 0, "rental_uris": {"ios": "https://dc.lft.to/lastmile_qr_scan", "android": "https://dc.lft.to/lastmile_qr_scan"}, "is_reserved": 0}, {"lon": -77.0218795, "bike_id": "91d1e62350b480c5ec2e6b4e6fd48bf4", "lat": 38.91511333333333, "fusion_lon": 0.0, "fusion_lat": 0.0, "type": "electric_scooter", "name": "91d1e62350b480c5ec2e6b4e6fd48bf4", "is_disabled": 0, "rental_uris": {"ios": "https://dc.lft.to/lastmile_qr_scan", "android": "https://dc.lft.to/lastmile_qr_scan"}, "is_reserved": 0}, {"lon": -77.02268583333333, "bike_id": "89a249c387f1ac4610705a0626797b42", "lat": 38.937637, "fusion_lon": 0.0, "fusion_lat": 0.0, "type": "electric_scooter", "name": "89a249c387f1ac4610705a0626797b42", "is_disabled": 0, "rental_uris": {"ios": "https://dc.lft.to/lastmile_qr_scan", "android": "https://dc.lft.to/lastmile_qr_scan"}, "is_reserved": 0}, {"lon": -77.02809833333333, "bike_id": "00f502d6a82cf600934d3be81cec943c", "lat": 38.91682616666667, "fusion_lon": 0.0, "fusion_lat": 0.0, "type": "electric_scooter", "name": "00f502d6a82cf600934d3be81cec943c", "is_disabled": 0, "rental_uris": {"ios": "https://dc.lft.to/lastmile_qr_scan", "android": "https://dc.lft.to/lastmile_qr_scan"}, "is_reserved": 0}, {"lon": -76.92621683333333, "bike_id": "47fe50d4d286b8bf97846621a6073d6f", "lat": 38.884596, "fusion_lon": 0.0, "fusion_lat": 0.0, "type": "electric_scooter", "name": "47fe50d4d286b8bf97846621a6073d6f", "is_disabled": 0, "rental_uris": {"ios": "https://dc.lft.to/lastmile_qr_scan", "android": "https://dc.lft.to/lastmile_qr_scan"}, "is_reserved": 0}, {"lon": -77.00357566666666, "bike_id": "2805681489528a8f837542d1ff809544", "lat": 38.8992785, "fusion_lon": 0.0, "fusion_lat": 0.0, "type": "electric_scooter", "name": "2805681489528a8f837542d1ff809544", "is_disabled": 0, "rental_uris": {"ios": "https://dc.lft.to/lastmile_qr_scan", "android": "https://dc.lft.to/lastmile_qr_scan"}, "is_reserved": 0},