{"data": {"bikes": [{"rental_uris": {"ios": "https://dc.lft.to/lastmile_qr_scan", "android": "https://dc.lft.to/lastmile_qr_scan"}, "lon": -77.03660533333333, "type": "electric_scooter", "fusion_lat": 0.0, "lat": 38.9182225, "name": "9a0a7da211e8e95ae6891610101aeec6", "fusion_lon": 0.0, "bike_id": "9a0a7da211e8e95ae6891610101aeec6", "is_disabled": 0, "is_reserved": 0}, {"rental_uris": {"ios": "https://dc.lft.to/lastmile_qr_scan", "android": "https://dc.lft.to/lastmile_qr_scan"}, "lon": -77.120245, "type": "electric_bike", "fusion_lat": 0.0, "lat": 38.855112166666665, "name": "c2be7587e8da1f49c47293ebd9c6ac90", "fusion_lon": 0.0, "bike_id": "c2be7587e8da1f49c47293ebd9c6ac90", "is_disabled": 0, "is_reserved": 0}, {"rental_uris": {"ios": "https://dc.lft.to/lastmile_qr_scan", "android": "https://dc.lft.to/lastmile_qr_scan"}, "lon": -77.000609, "type": "electric_scooter", "fusion_lat": 0.0, "lat": 38.90591233333333, "name": "4caf3338726a48f9624ad65546d3f9bb", "fusion_lon": 0.0, "bike_id": "4caf3338726a48f9624ad65546d3f9bb", "is_disabled": 0, "is_reserved": 0}, {"rental_uris": {"ios": "https://dc.lft.to/lastmile_qr_scan", "android": "https://dc.lft.to/lastmile_qr_scan"}, "lon": -77.03446633333333, "type": "electric_scooter", "fusion_lat": 0.0, "lat": 38.91818266666667, "name": "f4969b9bbd468853a49b1f0164a8b2c7", "fusion_lon": 0.0, "bike_id": "f4969b9bbd468853a49b1f0164a8b2c7", "is_disabled": 0, "is_reserved": 0}, {"rental_uris": {"ios": "https://dc.lft.to/lastmile_qr_scan", "android": "https://dc.lft.to/lastmile_qr_scan"}, "lon": -77.03279266666667, "type": "electric_scooter", "fusion_lat": 0.0, "lat": 38.9320365, "name": "d7bbda2ad5d6218ecf5aaf4a46e7560c", "fusion_lon": 0.0, "bike_id": "d7bbda2ad5d6218ecf5aaf4a46e7560c", "is_disabled": 0, "is_reserved": 0}, {"rental_uris": {"ios": "https://dc.lft.to/lastmile_qr_scan", "android": "https://dc.lft.to/lastmile_qr_scan"}, "lon": -77.0444365, "type": "electric_scooter", "fusion_lat": 0.0, "lat": 38.91012683333334, "name": "7d90998cb2d26881c6316f991b0e1675", "fusion_lon": 0.0, "bike_id": "7d90998cb2d26881c6316f991b0e1675", "is_disabled": 0, "is_reserved": 0}, {"rental_uris": {"ios": "https://dc.lft.to/lastmile_qr_scan", "android": "https://dc.lft.to/lastmile_qr_scan"}, "lon": -76.93175316666667, "type": "electric_scooter", "fusion_lat": 0.0, "lat": 38.898807833333336, "name": "017fa675802500360d5264380b9f078e", "fusion_lon": 0.0, "bike_id": "017fa675802500360d5264380b9f078e", "is_disabled": 0, "is_reserved": 0}, {"rental_uris": {"ios": "https://dc.lft.to/lastmile_qr_scan", "android": "https://dc.lft.to/lastmile_qr_scan"}, "lon": -77.01356883333334, "type": "electric_scooter", "fusion_lat": 0.0, "lat": 38.91936916666667, "name": "3a1d7f0f8ba33302f09fdd7735932e95", "fusion_lon": 0.0, "bike_id": "3a1d7f0f8ba33302f09fdd7735932e95", "is_disabled": 0, "is_reserved": 0}, {"rental_uris": {"ios": "https://dc.lft.to/lastmile_qr_scan", "android": "https://dc.lft.to/lastmile_qr_scan"}, "lon": -76.99498116666666, "type": "electric_scooter", "fusion_lat": 0.0, "lat": 38.86243666666667, "name": "6cea700eed9faec55b5d02050c62299f", "fusion_lon": 0.0, "bike_id": "6cea700eed9faec55b5d02050c62299f", "is_disabled": 0, "is_reserved": 0}, {"rental_uris": {"ios": "https://dc.lft.to/lastmile_qr_scan", "android": "https://dc.lft.to/lastmile_qr_scan"}, "lon": -77.01772733333334, "type": "electric_scooter", "fusion_lat": 0.0, "lat": 38.90569966666666, "name": "42688a992476ab41e1ab5ebad9ac8b90", "fusion_lon": 0.0, "bike_id": "42688a992476ab41e1ab5ebad9ac8b90", "is_disabled": 0, "is_reserved": 0}, {"rental_uris": {"ios": "https://dc.lft.to/lastmile_qr_scan", "android": "https://dc.lft.to/lastmile_qr_scan"}, "lon": -77.06404133333334, "type": "electric_bike", "fusion_lat": 0.0, "lat": 38.843497666666664, "name": "e4fbcecc853138e0c1bb661a34c1910a", "fusion_lon": 0.0, "bike_id": "e4fbcecc853138e0c1bb661a34c1910a", "is_disabled": 0, "is_reserved": 0}, {"rental_uris": {"ios": "https://dc.lft.to/lastmile_qr_scan", "android": "https://dc.lft.to/lastmile_qr_scan"}, "lon": -77.04337283333334, "type": "electric_scooter", "fusion_lat": 0.0, "lat": 38.892269666666664, "name": "3ceeb7b82d11a75b16558b3169ffb3ed", "fusion_lon": 0.0, "bike_id": "3ceeb7b82d11a75b16558b3169ffb3ed", "is_disabled": 0, "is_reserved": 0}, {"rental_uris": {"ios": "https://dc.lft.to/lastmile_qr_scan", "android": "https://dc.lft.to/lastmile_qr_scan"}, "lon": -76.9887865, "type": "electric_scooter", "fusion_lat": 0.0, "lat": 38.83240383333333, "name": "05d0376a28b3c986cd35419829e66627", "fusion_lon": 0.0, "bike_id": "05d0376a28b3c986cd35419829e66627", "is_disabled": 0, "is_reserved": 0}, {"rental_uris": {"ios": "https://dc.lft.to/lastmile_qr_scan", "android": "https://dc.lft.to/lastmile_qr_scan"}, "lon": -77.053839, "type": "electric_scooter", "fusion_lat": 0.0, "lat": 38.90270533333333, "name": "189f715cef3efc9521268678e9ffaddb", "fusion_lon": 0.0, "bike_id": "189f715cef3efc9521268678e9ffaddb", "is_disabled": 0, "is_reserved": 0}, {"rental_uris": {"ios": "https://dc.lft.to/lastmile_qr_scan", "android": "https://dc.lft.to/lastmile_qr_scan"}, "lon": -76.9927285, "type": "electric_scooter", "fusion_lat": 0.0, "lat": 38.92136416666666, "name": "27755f35f2ec752cf7ab1da6b4479a74", "fusion_lon": 0.0, "bike_id": "27755f35f2ec752cf7ab1da6b4479a74", "is_disabled": 0, "is_reserved": 0}, {"rental_uris": {"ios": "https://dc.lft.to/lastmile_qr_scan", "android": "https://dc.lft.to/lastmile_qr_scan"}, "lon": -76.995017, "type": "electric_scooter", "fusion_lat": 0.0, "lat": 38.899666, "name": "13d3e2f800e55817f2c5b5dfe3186055", "fusion_lon": 0.0, "bike_id": "13d3e2f800e55817f2c5b5dfe3186055", "is_disabled": 0, "is_reserved": 0}, {"rental_uris": {"ios": "https://dc.lft.to/lastmile_qr_scan", "android": "https://dc.lft.to/lastmile_qr_scan"}, "lon": -77.35307216666666, "type": "electric_bike", "fusion_lat": 0.0, "lat": 38.95001216666667, "name": "cffda64b5627ed439193e76004192f1e", "fusion_lon": 0.0, "bike_id": "cffda64b5627ed439193e76004192f1e", "is_disabled": 0, "is_reserved": 0}, {"rental_uris": {"ios": "https://dc.lft.to/lastmile_qr_scan", "android": "https://dc.lft.to/lastmile_qr_scan"}, "lon": -76.98730316666666, "type": "electric_scooter", "fusion_lat": 0.0, "lat": 38.8841985, "name": "a5cf293c987c06c8b076d621d623dfe5", "fusion_lon": 0.0, "bike_id": "a5cf293c987c06c8b076d621d623dfe5", "is_disabled": 0, "is_reserved": 0}, {"rental_uris": {"ios": "https://dc.lft.to/lastmile_qr_scan", "android": "https://dc.lft.to/lastmile_qr_scan"}, "lon": -77.01751333333333, "type": "electric_scooter", "fusion_lat": 0.0, "lat": 38.90379033333333, "name": "b94931d67b24d511b3803d1c790b5d7e", "fusion_lon": 0.0, "bike_id": "b94931d67b24d511b3803d1c790b5d7e", "is_disabled": 0, "is_reserved": 0}, {"rental_uris": {"ios": "https://dc.lft.to/lastmile_qr_scan", "android": "https://dc.lft.to/lastmile_qr_scan"}, "lon": -77.032217, "type": "electric_scooter", "fusion_lat": 0.0, "lat": 38.92589266666667, "name": "1948a9dee6aa8ef73cf2bed52cc8dfc1", "fusion_lon": 0.0, "bike_id": "1948a9dee6aa8ef73cf2bed52cc8dfc1", "is_disabled": 0, "is_reserved": 0}, {"rental_uris": {"ios": "https://dc.lft.to/lastmile_qr_scan", "android": "https://dc.lft.to/lastmile_qr_scan"}, "lon": -77.03858983333333, "type": "electric_scooter", "fusion_lat": 0.0, "lat": 38.909712666666664, "name": "573b013b92e11fceaf41b02ee30d7740", "fusion_lon": 0.0, "bike_id": "573b013b92e11fceaf41b02ee30d7740", "is_disabled": 0, "is_reserved": 0}, {"rental_uris": {"ios": "https://dc.lft.to/lastmile_qr_scan", "android": "https://dc.lft.to/lastmile_qr_scan"}, "lon": -77.0455125, "type": "electric_scooter", "fusion_lat": 0.0, "lat": 38.90374933333333, "name": "ccafa6748029d8747f0ff423851da180", "fusion_lon": 0.0, "bike_id": "ccafa6748029d8747f0ff423851da180", "is_disabled": 0, "is_reserved": 0}, {"rental_uris": {"ios": "https://dc.lft.to/lastmile_qr_scan", "android": "https://dc.lft.to/lastmile_qr_scan"}, "lon": -77.039567, "type": "electric_scooter", "fusion_lat": 0.0, "lat": 38.9012325, "name": "dfea91d05d74d0cd547f3c3c0e3d644a", "fusion_lon": 0.0, "bike_id": "dfea91d05d74d0cd547f3c3c0e3d644a", "is_disabled": 0, "is_reserved": 0}, {"rental_uris": {"ios": "https://dc.lft.to/lastmile_qr_scan", "android": "https://dc.lft.to/lastmile_qr_scan"}, "lon": -77.03522583333333, "type": "electric_scooter", "fusion_lat": 0.0, "lat": 38.923394333333334, "name": "179323fbba1a50728aaf6fe022da8002", "fusion_lon": 0.0, "bike_id": "179323fbba1a50728aaf6fe022da8002", "is_disabled": 0, "is_reserved": 0}, {"rental_uris": {"ios": "https://dc.lft.to/lastmile_qr_scan", "android": "https://dc.lft.to/lastmile_qr_scan"}, "lon": -77.03444883333333, "type": "electric_scooter", "fusion_lat": 0.0, "lat": 38.9182285, "name": "0b6370ffd5bcbbf3c1f7a7baa9beefbf", "fusion_lon": 0.0, "bike_id": "0b6370ffd5bcbbf3c1f7a7baa9beefbf", "is_disabled": 0, "is_reserved": 0}, {"rental_uris": {"ios": "https://dc.lft.to/lastmile_qr_scan", "android": "https://dc.lft.to/lastmile_qr_scan"}, "lon": -76.931732, "type": "electric_scooter", "fusion_lat": 0.0, "lat": 38.898871666666665, "name": "3f9def70f0567ae4e8e1b66c6506affa", "fusion_lon": 0.0, "bike_id": "3f9def70f0567ae4e8e1b66c6506affa", "is_disabled": 0, "is_reserved": 0}, {"rental_uris": {"ios": "https://dc.lft.to/lastmile_qr_scan", "android": "https://dc.lft.to/lastmile_qr_scan"}, "lon": -77.0432965, "type": "electric_scooter", "fusion_lat": 0.0, "lat": 38.895892, "name": "0d9b092c7472ae758b5f917bb0078d10", "fusion_lon": 0.0, "bike_id": "0d9b092c7472ae758b5f917bb0078d10", "is_disabled": 0, "is_reserved": 0}, {"rental_uris": {"ios": "https://dc.lft.to/lastmile_qr_scan", "android": "https://dc.lft.to/lastmile_qr_scan"}, "lon": -77.0346635, "type": "electric_scooter", "fusion_lat": 0.0, "lat": 38.917107333333334, "name": "43429ba50d76c1564f74d2fb67978ddc", "fusion_lon": 0.0, "bike_id": "43429ba50d76c1564f74d2fb67978ddc", "is_disabled": 0, "is_reserved": 0}, {"rental_uris": {"ios": "https://dc.lft.to/lastmile_qr_scan", "android": "https://dc.lft.to/lastmile_qr_scan"}, "lon": -77.03230366666666, "type": "electric_scooter", "fusion_lat": 0.0, "lat": 38.907647833333336, "name": "87a8dd52b0840daf7aa07e22ae168f18", "fusion_lon": 0.0, "bike_id": "87a8dd52b0840daf7aa07e22ae168f18", "is_disabled": 0, "is_reserved": 0}, {"rental_uris": {"ios": "https://dc.lft.to/lastmile_qr_scan", "android": "https://dc.lft.to/lastmile_qr_scan"}, "lon": -77.02850716666667, "type": "electric_scooter", "fusion_lat": 0.0, "lat": 38.887557666666666, "name": "a4f6c18f0db434664871ea0df05bed0a", "fusion_lon": 0.0, "bike_id": "a4f6c18f0db434664871ea0df05bed0a", "is_disabled": 0, "is_reserved": 0}, {"rental_uris": {"ios": "https://dc.lft.to/lastmile_qr_scan", "android": "https://dc.lft.to/lastmile_qr_scan"}, "lon": -77.03839466666666, "type": "electric_scooter", "fusion_lat": 0.0, "lat": 38.92644, "name": "e7c6ddeee2fd4d71e88e4dc6e8beca5d", "fusion_lon": 0.0, "bike_id": "e7c6ddeee2fd4d71e88e4dc6e8beca5d", "is_disabled": 0, "is_reserved": 0}, {"rental_uris": {"ios": "https://dc.lft.to/lastmile_qr_scan", "android": "https://dc.lft.to/lastmile_qr_scan"}, "lon": -77.04692683333333, "type": "electric_scooter", "fusion_lat": 0.0, "lat": 38.903724833333335, "name": "55a2e2b3d501f7c3908bbf8128089cd7", "fusion_lon": 0.0, "bike_id": "55a2e2b3d501f7c3908bbf8128089cd7", "is_disabled": 0, "is_reserved": 0}, {"rental_uris": {"ios": "https://dc.lft.to/lastmile_qr_scan", "android": "https://dc.lft.to/lastmile_qr_scan"}, "lon": -77.044837, "type": "electric_scooter", "fusion_lat": 0.0, "lat": 38.9187065, "name": "b9096234e626652cf4252dd99fbbdd63", "fusion_lon": 0.0, "bike_id": "b9096234e626652cf4252dd99fbbdd63", "is_disabled": 0, "is_reserved": 0}, {"rental_uris": {"ios": "https://dc.lft.to/lastmile_qr_scan", "android": "https://dc.lft.to/lastmile_qr_scan"}, "lon": -76.99887033333333, "type": "electric_scooter", "fusion_lat": 0.0, "lat": 38.907459833333334, "name": "218150ac68df57751b7bcade815828a7", "fusion_lon": 0.0, "bike_id": "218150ac68df57751b7bcade815828a7", "is_disabled": 0, "is_reserved": 0}, {"rental_uris": {"ios": "https://dc.lft.to/lastmile_qr_scan", "android": "https://dc.lft.to/lastmile_qr_scan"}, "lon": -77.02400533333333, "type": "electric_scooter", "fusion_lat": 0.0, "lat": 38.91730333333334, "name": "3594cdb23a6498f5d14ccaeaab210e1d", "fusion_lon": 0.0, "bike_id": "3594cdb23a6498f5d14ccaeaab210e1d", "is_disabled": 0, "is_reserved": 0}, {"rental_uris": {"ios": "https://dc.lft.to/lastmile_qr_scan", "android": "https://dc.lft.to/lastmile_qr_scan"}, "lon": -77.01514, "type": "electric_scooter", "fusion_lat": 0.0, "lat": 38.901624166666664, "name": "5c81f1fef078b60c761e380d76263e0e", "fusion_lon": 0.0, "bike_id": "5c81f1fef078b60c761e380d76263e0e", "is_disabled": 0, "is_reserved": 0}, {"rental_uris": {"ios": "https://dc.lft.to/lastmile_qr_scan", "android": "https://dc.lft.to/lastmile_qr_scan"}, "lon": -77.02631033333333, "type": "electric_scooter", "fusion_lat": 0.0, "lat": 38.896401, "name": "eb5e7c4ef522023fd57293295dec4437", "fusion_lon": 0.0, "bike_id": "eb5e7c4ef522023fd57293295dec4437", "is_disabled": 0, "is_reserved": 0}, {"rental_uris": {"ios": "https://dc.lft.to/lastmile_qr_scan", "android": "https://dc.lft.to/lastmile_qr_scan"}, "lon": -76.97211633333333, "type": "electric_scooter", "fusion_lat": 0.0, "lat": 38.854996166666666, "name": "82f98518e03b05e07b0697a289d27950", "fusion_lon": 0.0, "bike_id": "82f98518e03b05e07b0697a289d27950", "is_disabled": 0, "is_reserved": 0}, {"rental_uris": {"ios": "https://dc.lft.to/lastmile_qr_scan", "android": "https://dc.lft.to/lastmile_qr_scan"}, "lon": -76.94629783333333, "type": "electric_bike", "fusion_lat": 0.0, "lat": 38.946244166666666, "name": "4ce68885847eb9fbbaa15540ffbe3666", "fusion_lon": 0.0, "bike_id": "4ce68885847eb9fbbaa15540ffbe3666", "is_disabled": 0, "is_reserved": 0}, {"rental_uris": {"ios": "https://dc.lft.to/lastmile_qr_scan", "android": "https://dc.lft.to/lastmile_qr_scan"}, "lon": -77.02980133333334, "type": "electric_scooter", "fusion_lat": 0.0, "lat": 38.9622445, "name": "faac2b714a93d0101a51fcd1a0b77b85", "fusion_lon": 0.0, "bike_id": "faac2b714a93d0101a51fcd1a0b77b85", "is_disabled": 0, "is_reserved": 0}, {"rental_uris": {"ios": "https://dc.lft.to/lastmile_qr_scan", "android": "https://dc.lft.to/lastmile_qr_scan"}, "lon": -76.9888325, "type": "electric_scooter", "fusion_lat": 0.0, "lat": 38.86662366666667, "name": "321a79f69d4fb7e29166b5333cf64505", "fusion_lon": 0.0, "bike_id": "321a79f69d4fb7e29166b5333cf64505", "is_disabled": 0, "is_reserved": 0}, {"rental_uris": {"ios": "https://dc.lft.to/lastmile_qr_scan", "android": "https://dc.lft.to/lastmile_qr_scan"}, "lon": -77.08536266666667, "type": "electric_bike", "fusion_lat": 0.0, "lat": 38.856228333333334, "name": "d067cfc535eed881ca76327322962194", "fusion_lon": 0.0, "bike_id": "d067cfc535eed881ca76327322962194", "is_disabled": 0, "is_reserved": 0}, {"rental_uris": {"ios": "https://dc.lft.to/lastmile_qr_scan", "android": "https://dc.lft.to/lastmile_qr_scan"}, "lon": -77.04155916666667, "type": "electric_scooter", "fusion_lat": 0.0, "lat": 38.914221833333336, "name": "11a72e42dbb8b9d35dadaf3b9352b370", "fusion_lon": 0.0, "bike_id": "11a72e42dbb8b9d35dadaf3b9352b370", "is_disabled": 0, "is_reserved": 0}, {"rental_uris": {"ios": "https://dc.lft.to/lastmile_qr_scan", "android": "https://dc.lft.to/lastmile_qr_scan"}, "lon": -77.01163416666667, "type": "electric_scooter", "fusion_lat": 0.0, "lat": 38.90016833333333, "name": "259899382cd59bba5ce1b257ea19dd74", "fusion_lon": 0.0, "bike_id": "259899382cd59bba5ce1b257ea19dd74", "is_disabled": 0, "is_reserved": 0}, {"rental_uris": {"ios": "https://dc.lft.to/lastmile_qr_scan", "android": "https://dc.lft.to/lastmile_qr_scan"}, "lon": -77.02228366666667, "type": "electric_scooter", "fusion_lat": 0.0, "lat": 38.8922435, "name": "1eca2dfc72e52e4026825ac368af4a60", "fusion_lon": 0.0, "bike_id": "1eca2dfc72e52e4026825ac368af4a60", "is_disabled": 0, "is_reserved": 0}, {"rental_uris": {"ios": "https://dc.lft.to/lastmile_qr_scan", "android": "https://dc.lft.to/lastmile_qr_scan"}, "lon": -77.03836983333333, "type": "electric_scooter", "fusion_lat": 0.0, "lat": 38.90842816666667, "name": "3d1ad462c8e1ef5ae2651d5c210a0231", "fusion_lon": 0.0, "bike_id": "3d1ad462c8e1ef5ae2651d5c210a0231", "is_disabled": 0, "is_reserved": 0}, {"rental_uris": {"ios": "https://dc.lft.to/lastmile_qr_scan", "android": "https://dc.lft.to/lastmile_qr_scan"}, "lon": -76.985554, "type": "electric_scooter", "fusion_lat": 0.0, "lat": 38.8976615, "name": "0485bc8deed43d1748f628c0e63c24cb", "fusion_lon": 0.0, "bike_id": "0485bc8deed43d1748f628c0e63c24cb", "is_disabled": 0, "is_reserved": 0}, {"rental_uris": {"ios": "https://dc.lft.to/lastmile_qr_scan", "android": "https://dc.lft.to/lastmile_qr_scan"}, "lon": -77.05345416666667, "type": "electric_scooter", "fusion_lat": 0.0, "lat": 38.90249216666667, "name": "8de61239f82213ce4a776686e43e8fdb", "fusion_lon": 0.0, "bike_id": "8de61239f82213ce4a776686e43e8fdb", "is_disabled": 0, "is_reserved": 0}, {"rental_uris": {"ios": "https://dc.lft.to/lastmile_qr_scan", "android": "https://dc.lft.to/lastmile_qr_scan"}, "lon": -77.007673, "type": "electric_scooter", "fusion_lat": 0.0, "lat": 38.91120083333333, "name": "048e4c067a2b0fd71c784c3d9558bd22", "fusion_lon": 0.0, "bike_id": "048e4c067a2b0fd71c784c3d9558bd22", "is_disabled": 0, "is_reserved": 0}, {"rental_uris": {"ios": "https://dc.lft.to/lastmile_qr_scan", "android": "https://dc.lft.to/lastmile_qr_scan"}, "lon": -77.03279516666667, "type": "electric_scooter", "fusion_lat": 0.0, "lat": 38.92842, "name": "b0d09cc598ffd1252601d2d1d0e8deac", "fusion_lon": 0.0, "bike_id": "b0d09cc598ffd1252601d2d1d0e8deac", "is_disabled": 0, "is_reserved": 0}, {"rental_uris": {"ios": "https://dc.lft.to/lastmile_qr_scan", "android": "https://dc.lft.to/lastmile_qr_scan"}, "lon": -77.07250316666666, "type": "electric_scooter", "fusion_lat": 0.0, "lat": 38.93411483333333, "name": "7e35ed8fa101aa5564b974fcab181485", "fusion_lon": 0.0, "bike_id": "7e35ed8fa101aa5564b974fcab181485", "is_disabled": 0, "is_reserved": 0}, {"rental_uris": {"ios": "https://dc.lft.to/lastmile_qr_scan", "android": "https://dc.lft.to/lastmile_qr_scan"}, "lon": -76.930985, "type": "electric_scooter", "fusion_lat": 0.0, "lat": 38.901391, "name": "b9a3be20eaff0f703904fa97b7833e75", "fusion_lon": 0.0, "bike_id": "b9a3be20eaff0f703904fa97b7833e75", "is_disabled": 0, "is_reserved": 0}, {"rental_uris": {"ios": "https://dc.lft.to/lastmile_qr_scan", "android": "https://dc.lft.to/lastmile_qr_scan"}, "lon": -76.98009366666666, "type": "electric_bike", "fusion_lat": 0.0, "lat": 38.86283066666667, "name": "8a2e9a75ddff75050239986fdcdf3955", "fusion_lon": 0.0, "bike_id": "8a2e9a75ddff75050239986fdcdf3955", "is_disabled": 0, "is_reserved": 0}, {"rental_uris": {"ios": "https://dc.lft.to/lastmile_qr_scan", "android": "https://dc.lft.to/lastmile_qr_scan"}, "lon": -77.00428566666666, "type": "electric_scooter", "fusion_lat": 0.0, "lat": 38.90396833333333, "name": "fa1a12a5a0bf039e3e0a91bca96a3d5b", "fusion_lon": 0.0, "bike_id": "fa1a12a5a0bf039e3e0a91bca96a3d5b", "is_disabled": 0, "is_reserved": 0}, {"rental_uris": {"ios": "https://dc.lft.to/lastmile_qr_scan", "android": "https://dc.lft.to/lastmile_qr_scan"}, "lon": -77.02852716666666, "type": "electric_scooter", "fusion_lat": 0.0, "lat": 38.95086416666667, "name": "0dfdc373924270abecda193c410959a6", "fusion_lon": 0.0, "bike_id": "0dfdc373924270abecda193c410959a6", "is_disabled": 0, "is_reserved": 0}, {"rental_uris": {"ios": "https://dc.lft.to/lastmile_qr_scan", "android": "https://dc.lft.to/lastmile_qr_scan"}, "lon": -76.96507733333334, "type": "electric_scooter", "fusion_lat": 0.0, "lat": 38.87651566666667, "name": "dc9052cd449dfb7890265b4f50f7575f", "fusion_lon": 0.0, "bike_id": "dc9052cd449dfb7890265b4f50f7575f", "is_disabled": 0, "is_reserved": 0}, {"rental_uris": {"ios": "https://dc.lft.to/lastmile_qr_scan", "android": "https://dc.lft.to/lastmile_qr_scan"}, "lon": -77.04865933333333, "type": "electric_scooter", "fusion_lat": 0.0, "lat": 38.90089116666667, "name": "a1c6465a4e13f23c2d4f8af5c6fd9257", "fusion_lon": 0.0, "bike_id": "a1c6465a4e13f23c2d4f8af5c6fd9257", "is_disabled": 0, "is_reserved": 0}, {"rental_uris": {"ios": "https://dc.lft.to/lastmile_qr_scan", "android": "https://dc.lft.to/lastmile_qr_scan"}, "lon": -76.93829783333334, "type": "electric_scooter", "fusion_lat": 0.0, "lat": 38.8976145, "name": "ecca89e1c4e399edb6d15783f824e62b", "fusion_lon": 0.0, "bike_id": "ecca89e1c4e399edb6d15783f824e62b", "is_disabled": 0, "is_reserved": 0}, {"rental_uris": {"ios": "https://dc.lft.to/lastmile_qr_scan", "android": "https://dc.lft.to/lastmile_qr_scan"}, "lon": -77.03508233333334, "type": "electric_scooter", "fusion_lat": 0.0, "lat": 38.92149583333333, "name": "38f8364b2d04f127b39df393f76b243a", "fusion_lon": 0.0, "bike_id": "38f8364b2d04f127b39df393f76b243a", "is_disabled": 0, "is_reserved": 0}, {"rental_uris": {"ios": "https://dc.lft.to/lastmile_qr_scan", "android": "https://dc.lft.to/lastmile_qr_scan"}, "lon": -77.04354683333334, "type": "electric_scooter", "fusion_lat": 0.0, "lat": 38.926792666666664, "name": "fca3aad2b47cda5b88bf41d0fbdbd8f3", "fusion_lon": 0.0, "bike_id": "fca3aad2b47cda5b88bf41d0fbdbd8f3", "is_disabled": 0, "is_reserved": 0}, {"rental_uris": {"ios": "https://dc.lft.to/lastmile_qr_scan", "android": "https://dc.lft.to/lastmile_qr_scan"}, "lon": -77.02761216666667, "type": "electric_scooter", "fusion_lat": 0.0, "lat": 38.92311933333333, "name": "a4cd61a5a174d292230f7b44cb3fe0c5", "fusion_lon": 0.0, "bike_id": "a4cd61a5a174d292230f7b44cb3fe0c5", "is_disabled": 0, "is_reserved": 0}, {"rental_uris": {"ios": "https://dc.lft.to/lastmile_qr_scan", "android": "https://dc.lft.to/lastmile_qr_scan"}, "lon": -77.03022666666666, "type": "electric_scooter", "fusion_lat": 0.0, "lat": 38.89751066666667, "name": "3ca3a772d0ef033807f774c928109dd0", "fusion_lon": 0.0, "bike_id": "3ca3a772d0ef033807f774c928109dd0", "is_disabled": 0, "is_reserved": 0}, {"rental_uris": {"ios": "https://dc.lft.to/lastmile_qr_scan", "android": "https://dc.lft.to/lastmile_qr_scan"}, "lon": -77.0559, "type": "electric_scooter", "fusion_lat": 0.0, "lat": 38.90507933333333, "name": "a30fb2bae4a5956f3f4524fe061a788a", "fusion_lon": 0.0, "bike_id": "a30fb2bae4a5956f3f4524fe061a788a", "is_disabled": 0, "is_reserved": 0}, {"rental_uris": {"ios": "https://dc.lft.to/lastmile_qr_scan", "android": "https://dc.lft.to/lastmile_qr_scan"}, "lon": -77.02841166666667, "type": "electric_scooter", "fusion_lat": 0.0, "lat": 38.925755, "name": "c531be124e8edb07763156983a3e6150", "fusion_lon": 0.0, "bike_id": "c531be124e8edb07763156983a3e6150", "is_disabled": 0, "is_reserved": 0}, {"rental_uris": {"ios": "https://dc.lft.to/lastmile_qr_scan", "android": "https://dc.lft.to/lastmile_qr_scan"}, "lon": -77.04642383333334, "type": "electric_bike", "fusion_lat": 0.0, "lat": 38.85213666666667, "name": "894894a4f19c32ab63573404be1d36ee", "fusion_lon": 0.0, "bike_id": "894894a4f19c32ab63573404be1d36ee", "is_disabled": 0, "is_reserved": 0}, {"rental_uris": {"ios": "https://dc.lft.to/lastmile_qr_scan", "android": "https://dc.lft.to/lastmile_qr_scan"}, "lon": -77.02473733333333, "type": "electric_scooter", "fusion_lat": 0.0, "lat": 38.93766216666667, "name": "3719b544f9ef0f73bb88aab71a34f9d2", "fusion_lon": 0.0, "bike_id": "3719b544f9ef0f73bb88aab71a34f9d2", "is_disabled": 0, "is_reserved": 0}, {"rental_uris": {"ios": "https://dc.lft.to/lastmile_qr_scan", "android": "https://dc.lft.to/lastmile_qr_scan"}, "lon": -77.03638683333334, "type": "electric_scooter", "fusion_lat": 0.0, "lat": 38.902866833333334, "name": "c778e8ee52d7b4ff0fd821fd8cbefced", "fusion_lon": 0.0, "bike_id": "c778e8ee52d7b4ff0fd821fd8cbefced", "is_disabled": 0, "is_reserved": 0}, {"rental_uris": {"ios": "https://dc.lft.to/lastmile_qr_scan", "android": "https://dc.lft.to/lastmile_qr_scan"}, "lon": -77.04493783333334, "type": "electric_scooter", "fusion_lat": 0.0, "lat": 38.911043166666666, "name": "ca7b511ee435c1000b05b2907fb75589", "fusion_lon": 0.0, "bike_id": "ca7b511ee435c1000b05b2907fb75589", "is_disabled": 0, "is_reserved": 0}, {"rental_uris": {"ios": "https://dc.lft.to/lastmile_qr_scan", "android": "https://dc.lft.to/lastmile_qr_scan"}, "lon": -77.0302735, "type": "electric_scooter", "fusion_lat": 0.0, "lat": 38.89609316666667, "name": "97a26ac2bff0bb243f6f8f47a2218903", "fusion_lon": 0.0, "bike_id": "97a26ac2bff0bb243f6f8f47a2218903", "is_disabled": 0, "is_reserved": 0}, {"rental_uris": {"ios": "https://dc.lft.to/lastmile_qr_scan", "android": "https://dc.lft.to/lastmile_qr_scan"}, "lon": -77.04895633333334, "type": "electric_scooter", "fusion_lat": 0.0, "lat": 38.90196133333333, "name": "333f70cf1a8b1039affb5afa1dd2926a", "fusion_lon": 0.0, "bike_id": "333f70cf1a8b1039affb5afa1dd2926a", "is_disabled": 0, "is_reserved": 0}, {"rental_uris": {"ios": "https://dc.lft.to/lastmile_qr_scan", "android": "https://dc.lft.to/lastmile_qr_scan"}, "lon": -77.12965716666666, "type": "electric_bike", "fusion_lat": 0.0, "lat": 38.807960666666666, "name": "fe798bd34313ed969f542ccc86a21581", "fusion_lon": 0.0, "bike_id": "fe798bd34313ed969f542ccc86a21581", "is_disabled": 0, "is_reserved": 0}, {"rental_uris": {"ios": "https://dc.lft.to/lastmile_qr_scan", "android": "https://dc.lft.to/lastmile_qr_scan"}, "lon": -77.03351366666666, "type": "electric_scooter", "fusion_lat": 0.0, "lat": 38.895324, "name": "a0fc5700feff38c40e6baf218a0004cc", "fusion_lon": 0.0, "bike_id": "a0fc5700feff38c40e6baf218a0004cc", "is_disabled": 0, "is_reserved": 0}, {"rental_uris": {"ios": "https://dc.lft.to/lastmile_qr_scan", "android": "https://dc.lft.to/lastmile_qr_scan"}, "lon": -77.03927766666666, "type": "electric_scooter", "fusion_lat": 0.0, "lat": 38.921163666666665, "name": "23d9a704cf46f74a566ecf1b2a67846c", "fusion_lon": 0.0, "bike_id": "23d9a704cf46f74a566ecf1b2a67846c", "is_disabled": 0, "is_reserved": 0}, {"rental_uris": {"ios": "https://dc.lft.to/lastmile_qr_scan", "android": "https://dc.lft.to/lastmile_qr_scan"}, "lon": -77.0128335, "type": "electric_bike", "fusion_lat": 0.0, "lat": 39.00387116666667, "name": "cf898227ec21587d0d9e4706e8895a6e", "fusion_lon": 0.0, "bike_id": "cf898227ec21587d0d9e4706e8895a6e", "is_disabled": 0, "is_reserved": 0}, {"rental_uris": {"ios": "https://dc.lft.to/lastmile_qr_scan", "android": "https://dc.lft.to/lastmile_qr_scan"}, "lon": -77.01602533333333, "type": "electric_scooter", "fusion_lat": 0.0, "lat": 38.9020545, "name": "4d5b225dc3351c9a9dee64b29c40744a", "fusion_lon": 0.0, "bike_id": "4d5b225dc3351c9a9dee64b29c40744a", "is_disabled": 0, "is_reserved": 0}, {"rental_uris": {"ios": "https://dc.lft.to/lastmile_qr_scan", "android": "https://dc.lft.to/lastmile_qr_scan"}, "lon": -77.05523916666667, "type": "electric_scooter", "fusion_lat": 0.0, "lat": 38.8973245, "name": "91cbee390a0aa4954f3af2facb3cb2c8", "fusion_lon": 0.0, "bike_id": "91cbee390a0aa4954f3af2facb3cb2c8", "is_disabled": 0, "is_reserved": 0}, {"rental_uris": {"ios": "https://dc.lft.to/lastmile_qr_scan", "android": "https://dc.lft.to/lastmile_qr_scan"}, "lon": -77.04663133333334, "type": "electric_scooter", "fusion_lat": 0.0, "lat": 38.932968833333334, "name": "a5c692bd3fa7e7bb4693b33bd577a8de", "fusion_lon": 0.0, "bike_id": "a5c692bd3fa7e7bb4693b33bd577a8de", "is_disabled": 0, "is_reserved": 0}, {"rental_uris": {"ios": "https://dc.lft.to/lastmile_qr_scan", "android": "https://dc.lft.to/lastmile_qr_scan"}, "lon": -76.9324455, "type": "electric_scooter", "fusion_lat": 0.0, "lat": 38.89404316666667, "name": "c15ce3a8c6ee2f015ae5e0998b8b08c4", "fusion_lon": 0.0, "bike_id": "c15ce3a8c6ee2f015ae5e0998b8b08c4", "is_disabled": 0, "is_reserved": 0}, {"rental_uris": {"ios": "https://dc.lft.to/lastmile_qr_scan", "android": "https://dc.lft.to/lastmile_qr_scan"}, "lon": -77.024284, "type": "electric_scooter", "fusion_lat": 0.0, "lat": 38.915568, "name": "3d4fd7cec067bb87ef0bb9bd5b20f4e6", "fusion_lon": 0.0, "bike_id": "3d4fd7cec067bb87ef0bb9bd5b20f4e6", "is_disabled": 0, "is_reserved": 0}, {"rental_uris": {"ios": "https://dc.lft.to/lastmile_qr_scan", "android": "https://dc.lft.to/lastmile_qr_scan"}, "lon": -76.9906625, "type": "electric_scooter", "fusion_lat": 0.0, "lat": 38.863560166666666, "name": "54d41009740d7315ce8ff45a98792ec5", "fusion_lon": 0.0, "bike_id": "54d41009740d7315ce8ff45a98792ec5", "is_disabled": 0, "is_reserved": 0}, {"rental_uris": {"ios": "https://dc.lft.to/lastmile_qr_scan", "android": "https://dc.lft.to/lastmile_qr_scan"}, "lon": -77.0839315, "type": "electric_scooter", "fusion_lat": 0.0, "lat": 38.961020166666664, "name": "526309eb583b417f18de41f0a4109756", "fusion_lon": 0.0, "bike_id": "526309eb583b417f18de41f0a4109756", "is_disabled": 0, "is_reserved": 0}, {"rental_uris": {"ios": "https://dc.lft.to/lastmile_qr_scan", "android": "https://dc.lft.to/lastmile_qr_scan"}, "lon": -77.02332016666666, "type": "electric_scooter", "fusion_lat": 0.0, "lat": 38.930487166666666, "name": "13f963e3ed1362b7651b7f2ecdb7e607", "fusion_lon": 0.0, "bike_id": "13f963e3ed1362b7651b7f2ecdb7e607", "is_disabled": 0, "is_reserved": 0}, {"rental_uris": {"ios": "https://dc.lft.to/lastmile_qr_scan", "android": "https://dc.lft.to/lastmile_qr_scan"}, "lon": -76.97332683333333, "type": "electric_bike", "fusion_lat": 0.0, "lat": 38.8506145, "name": "84bcd19f28546d63682facf39230f4e8", "fusion_lon": 0.0, "bike_id": "84bcd19f28546d63682facf39230f4e8", "is_disabled": 0, "is_reserved": 0}, {"rental_uris": {"ios": "https://dc.lft.to/lastmile_qr_scan", "android": "https://dc.lft.to/lastmile_qr_scan"}, "lon": -77.05031466666667, "type": "electric_scooter", "fusion_lat": 0.0, "lat": 38.896613, "name": "64843efaa1fa7f133c76d31f15a71643", "fusion_lon": 0.0, "bike_id": "64843efaa1fa7f133c76d31f15a71643", "is_disabled": 0, "is_reserved": 0}, {"rental_uris": {"ios": "https://dc.lft.to/lastmile_qr_scan", "android": "https://dc.lft.to/lastmile_qr_scan"}, "lon": -77.04592616666666, "type": "electric_scooter", "fusion_lat": 0.0, "lat": 38.90226666666667, "name": "bc3d1340e76a879577f8167f213419b9", "fusion_lon": 0.0, "bike_id": "bc3d1340e76a879577f8167f213419b9", "is_disabled": 0, "is_reserved": 0}, {"rental_uris": {"ios": "https://dc.lft.to/lastmile_qr_scan", "android": "https://dc.lft.to/lastmile_qr_scan"}, "lon": -77.05270733333333, "type": "electric_scooter", "fusion_lat": 0.0, "lat": 38.910181, "name": "2556429a9615e330cf5a04c0713d1899", "fusion_lon": 0.0, "bike_id": "2556429a9615e330cf5a04c0713d1899", "is_disabled": 0, "is_reserved": 0}, {"rental_uris": {"ios": "https://dc.lft.to/lastmile_qr_scan", "android": "https://dc.lft.to/lastmile_qr_scan"}, "lon": -77.03800616666666, "type": "electric_scooter", "fusion_lat": 0.0, "lat": 38.92190866666667, "name": "33b27eaefda907c626c701f812458582", "fusion_lon": 0.0, "bike_id": "33b27eaefda907c626c701f812458582", "is_disabled": 0, "is_reserved": 0}, {"rental_uris": {"ios": "https://dc.lft.to/lastmile_qr_scan", "android": "https://dc.lft.to/lastmile_qr_scan"}, "lon": -77.03977983333333, "type": "electric_scooter", "fusion_lat": 0.0, "lat": 38.90265816666667, "name": "d7ed05a485289e0abb70c243ee3fdc65", "fusion_lon": 0.0, "bike_id": "d7ed05a485289e0abb70c243ee3fdc65", "is_disabled": 0, "is_reserved": 0}, {"rental_uris": {"ios": "https://dc.lft.to/lastmile_qr_scan", "android": "https://dc.lft.to/lastmile_qr_scan"}, "lon": -77.03669466666666, "type": "electric_scooter", "fusion_lat": 0.0, "lat": 38.930026833333336, "name": "f36661f7439f187ff68e48a49265aa49", "fusion_lon": 0.0, "bike_id": "f36661f7439f187ff68e48a49265aa49", "is_disabled": 0, "is_reserved": 0}, {"rental_uris": {"ios": "https://dc.lft.to/lastmile_qr_scan", "android": "https://dc.lft.to/lastmile_qr_scan"}, "lon": -77.02450433333334, "type": "electric_scooter", "fusion_lat": 0.0, "lat": 38.979404, "name": "b60a9944338f3953505b19310a44b1a6", "fusion_lon": 0.0, "bike_id": "b60a9944338f3953505b19310a44b1a6", "is_disabled": 0, "is_reserved": 0}, {"rental_uris": {"ios": "https://dc.lft.to/lastmile_qr_scan", "android": "https://dc.lft.to/lastmile_qr_scan"}, "lon": -77.03082333333333, "type": "electric_scooter", "fusion_lat": 0.0, "lat": 38.90459966666667, "name": "a3c11b96c1c0f91c16845e87873e1f67", "fusion_lon": 0.0, "bike_id": "a3c11b96c1c0f91c16845e87873e1f67", "is_disabled": 0, "is_reserved": 0}, {"rental_uris": {"ios": "https://dc.lft.to/lastmile_qr_scan", "android": "https://dc.lft.to/lastmile_qr_scan"}, "lon": -77.024207, "type": "electric_scooter", "fusion_lat": 0.0, "lat": 38.91824916666667, "name": "c362a11a4ceb7479ed285366a6f8f856", "fusion_lon": 0.0, "bike_id": "c362a11a4ceb7479ed285366a6f8f856", "is_disabled": 0, "is_reserved": 0}, {"rental_uris": {"ios": "https://dc.lft.to/lastmile_qr_scan", "android": "https://dc.lft.to/lastmile_qr_scan"}, "lon": -77.04131016666666, "type": "electric_scooter", "fusion_lat": 0.0, "lat": 38.92352116666667, "name": "8e53138fbc170a86e0f9bd1194da6f6d", "fusion_lon": 0.0, "bike_id": "8e53138fbc170a86e0f9bd1194da6f6d", "is_disabled": 0, "is_reserved": 0}, {"rental_uris": {"ios": "https://dc.lft.to/lastmile_qr_scan", "android": "https://dc.lft.to/lastmile_qr_scan"}, "lon": -77.047959, "type": "electric_scooter", "fusion_lat": 0.0, "lat": 38.907308, "name": "da255f14d10bf14dd7cb83478b751f0c", "fusion_lon": 0.0, "bike_id": "da255f14d10bf14dd7cb83478b751f0c", "is_disabled": 0, "is_reserved": 0}, {"rental_uris": {"ios": "https://dc.lft.to/lastmile_qr_scan", "android": "https://dc.lft.to/lastmile_qr_scan"}, "lon": -76.98436083333333, "type": "electric_scooter", "fusion_lat": 0.0, "lat": 38.9145625, "name": "25a581eb2acff7406f11cb2d7d46e708", "fusion_lon": 0.0, "bike_id": "25a581eb2acff7406f11cb2d7d46e708", "is_disabled": 0, "is_reserved": 0}, {"rental_uris": {"ios": "https://dc.lft.to/lastmile_qr_scan", "android": "https://dc.lft.to/lastmile_qr_scan"}, "lon": -76.99362083333334, "type": "electric_scooter", "fusion_lat": 0.0, "lat": 38.900418333333334, "name": "6e0ff0556a74711a7d11d28b346dc0f8", "fusion_lon": 0.0, "bike_id": "6e0ff0556a74711a7d11d28b346dc0f8", "is_disabled": 0, "is_reserved": 0}, {"rental_uris": {"ios": "https://dc.lft.to/lastmile_qr_scan", "android": "https://dc.lft.to/lastmile_qr_scan"}, "lon": -77.05760766666667, "type": "electric_scooter", "fusion_lat": 0.0, "lat": 38.92469116666667, "name": "8278af971f0543011f4831116c6a83d4", "fusion_lon": 0.0, "bike_id": "8278af971f0543011f4831116c6a83d4", "is_disabled": 0, "is_reserved": 0}, {"rental_uris": {"ios": "https://dc.lft.to/lastmile_qr_scan", "android": "https://dc.lft.to/lastmile_qr_scan"}, "lon": -76.99807783333333, "type": "electric_scooter", "fusion_lat": 0.0, "lat": 38.90007816666667, "name": "5838810ebb192c67f3b0877bc0623283", "fusion_lon": 0.0, "bike_id": "5838810ebb192c67f3b0877bc0623283", "is_disabled": 0, "is_reserved": 0}, {"rental_uris": {"ios": "https://dc.lft.to/lastmile_qr_scan", "android": "https://dc.lft.to/lastmile_qr_scan"}, "lon": -77.02462283333334, "type": "electric_scooter", "fusion_lat": 0.0, "lat": 38.902507166666666, "name": "8bff1f8dc51fbaf3bd13a3c8aa63d374", "fusion_lon": 0.0, "bike_id": "8bff1f8dc51fbaf3bd13a3c8aa63d374", "is_disabled": 0, "is_reserved": 0}, {"rental_uris": {"ios": "https://dc.lft.to/lastmile_qr_scan", "android": "https://dc.lft.to/lastmile_qr_scan"}, "lon": -77.02708233333334, "type": "electric_scooter", "fusion_lat": 0.0, "lat": 38.918133166666664, "name": "bee3e685ca54e6d5d861200737d748ae", "fusion_lon": 0.0, "bike_id": "bee3e685ca54e6d5d861200737d748ae", "is_disabled": 0, "is_reserved": 0}, {"rental_uris": {"ios": "https://dc.lft.to/lastmile_qr_scan", "android": "https://dc.lft.to/lastmile_qr_scan"}, "lon": -77.04457016666667, "type": "electric_scooter", "fusion_lat": 0.0, "lat": 38.905720333333335, "name": "dd0da06d13c6d0a7511912b713864944", "fusion_lon": 0.0, "bike_id": "dd0da06d13c6d0a7511912b713864944", "is_disabled": 0, "is_reserved": 0}, {"rental_uris": {"ios": "https://dc.lft.to/lastmile_qr_scan", "android": "https://dc.lft.to/lastmile_qr_scan"}, "lon": -77.011221, "type": "electric_scooter", "fusion_lat": 0.0, "lat": 38.911827833333334, "name": "89e04dab88ebcc7d18959426cd94ad49", "fusion_lon": 0.0, "bike_id": "89e04dab88ebcc7d18959426cd94ad49", "is_disabled": 0, "is_reserved": 0}, {"rental_uris": {"ios": "https://dc.lft.to/lastmile_qr_scan", "android": "https://dc.lft.to/lastmile_qr_scan"}, "lon": -76.89536133333333, "type": "electric_bike", "fusion_lat": 0.0, "lat": 38.94552516666667, "name": "7a6b7b9fe4c2e6b19ab520de54992d13", "fusion_lon": 0.0, "bike_id": "7a6b7b9fe4c2e6b19ab520de54992d13", "is_disabled": 0, "is_reserved": 0}, {"rental_uris": {"ios": "https://dc.lft.to/lastmile_qr_scan", "android": "https://dc.lft.to/lastmile_qr_scan"}, "lon": -77.0486655, "type": "electric_scooter", "fusion_lat": 0.0, "lat": 38.90946433333333, "name": "1c235d20103ed4a70d5dde05e6615acf", "fusion_lon": 0.0, "bike_id": "1c235d20103ed4a70d5dde05e6615acf", "is_disabled": 0, "is_reserved": 0}, {"rental_uris": {"ios": "https://dc.lft.to/lastmile_qr_scan", "android": "https://dc.lft.to/lastmile_qr_scan"}, "lon": -77.026982, "type": "electric_scooter", "fusion_lat": 0.0, "lat": 38.91867833333333, "name": "1b15d91c9cf824916073cb046b5f20df", "fusion_lon": 0.0, "bike_id": "1b15d91c9cf824916073cb046b5f20df", "is_disabled": 0, "is_reserved": 0}, {"rental_uris": {"ios": "https://dc.lft.to/lastmile_qr_scan", "android": "https://dc.lft.to/lastmile_qr_scan"}, "lon": -77.015782, "type": "electric_scooter", "fusion_lat": 0.0, "lat": 38.887482, "name": "639bae0d9391f73ceb7ea6d795d7ea0e", "fusion_lon": 0.0, "bike_id": "639bae0d9391f73ceb7ea6d795d7ea0e", "is_disabled": 0, "is_reserved": 0}, {"rental_uris": {"ios": "https://dc.lft.to/lastmile_qr_scan", "android": "https://dc.lft.to/lastmile_qr_scan"}, "lon": -77.02964566666667, "type": "electric_scooter", "fusion_lat": 0.0, "lat": 38.92523116666667, "name": "6489bc565f996e0a2ad3897ed8944bd6", "fusion_lon": 0.0, "bike_id": "6489bc565f996e0a2ad3897ed8944bd6", "is_disabled": 0, "is_reserved": 0}, {"rental_uris": {"ios": "https://dc.lft.to/lastmile_qr_scan", "android": "https://dc.lft.to/lastmile_qr_scan"}, "lon": -77.027639, "type": "electric_scooter", "fusion_lat": 0.0, "lat": 38.9169435, "name": "13cce692bf43bdadb169adb94e3fe5ae", "fusion_lon": 0.0, "bike_id": "13cce692bf43bdadb169adb94e3fe5ae", "is_disabled": 0, "is_reserved": 0}, {"rental_uris": {"ios": "https://dc.lft.to/lastmile_qr_scan", "android": "https://dc.lft.to/lastmile_qr_scan"}, "lon": -77.04547266666667, "type": "electric_scooter", "fusion_lat": 0.0, "lat": 38.90377216666667, "name": "88e55596f397f75b6235b98581f7b78c", "fusion_lon": 0.0, "bike_id": "88e55596f397f75b6235b98581f7b78c", "is_disabled": 0, "is_reserved": 0}, {"rental_uris": {"ios": "https://dc.lft.to/lastmile_qr_scan", "android": "https://dc.lft.to/lastmile_qr_scan"}, "lon": -77.0480635, "type": "electric_scooter", "fusion_lat": 0.0, "lat": 38.89737433333333, "name": "7e7505d97ef0063469befbd7cfb03fc1", "fusion_lon": 0.0, "bike_id": "7e7505d97ef0063469befbd7cfb03fc1", "is_disabled": 0, "is_reserved": 0}, {"rental_uris": {"ios": "https://dc.lft.to/lastmile_qr_scan", "android": "https://dc.lft.to/lastmile_qr_scan"}, "lon": -77.02374816666666, "type": "electric_scooter", "fusion_lat": 0.0, "lat": 38.91957883333333, "name": "9801f18b7f8d0e9bacd00a5b783c3e17", "fusion_lon": 0.0, "bike_id": "9801f18b7f8d0e9bacd00a5b783c3e17", "is_disabled": 0, "is_reserved": 0}, {"rental_uris": {"ios": "https://dc.lft.to/lastmile_qr_scan", "android": "https://dc.lft.to/lastmile_qr_scan"}, "lon": -77.012153, "type": "electric_scooter", "fusion_lat": 0.0, "lat": 38.92035683333334, "name": "a697f07379432ea3ce81eaf62e70a8e4", "fusion_lon": 0.0, "bike_id": "a697f07379432ea3ce81eaf62e70a8e4", "is_disabled": 0, "is_reserved": 0}, {"rental_uris": {"ios": "https://dc.lft.to/lastmile_qr_scan", "android": "https://dc.lft.to/lastmile_qr_scan"}, "lon": -76.99163616666667, "type": "electric_scooter", "fusion_lat": 0.0, "lat": 38.893410833333334, "name": "a49deee813b4af49934ff799e1e03057", "fusion_lon": 0.0, "bike_id": "a49deee813b4af49934ff799e1e03057", "is_disabled": 0, "is_reserved": 0}, {"rental_uris": {"ios": "https://dc.lft.to/lastmile_qr_scan", "android": "https://dc.lft.to/lastmile_qr_scan"}, "lon": -77.05514633333334, "type": "electric_scooter", "fusion_lat": 0.0, "lat": 38.91067833333334, "name": "733ccd35a1b32094957fa90baafc90e5", "fusion_lon": 0.0, "bike_id": "733ccd35a1b32094957fa90baafc90e5", "is_disabled": 0, "is_reserved": 0}, {"rental_uris": {"ios": "https://dc.lft.to/lastmile_qr_scan", "android": "https://dc.lft.to/lastmile_qr_scan"}, "lon": -77.02978233333333, "type": "electric_scooter", "fusion_lat": 0.0, "lat": 38.9162855, "name": "3c0a652cd19f479bf847ac20c65ee5d5", "fusion_lon": 0.0, "bike_id": "3c0a652cd19f479bf847ac20c65ee5d5", "is_disabled": 0, "is_reserved": 0}, {"rental_uris": {"ios": "https://dc.lft.to/lastmile_qr_scan", "android": "https://dc.lft.to/lastmile_qr_scan"}, "lon": -76.990585, "type": "electric_scooter", "fusion_lat": 0.0, "lat": 38.86353866666666, "name": "276e2d5095fdf1b832ef1fc4640bf42c", "fusion_lon": 0.0, "bike_id": "276e2d5095fdf1b832ef1fc4640bf42c", "is_disabled": 0, "is_reserved": 0}, {"rental_uris": {"ios": "https://dc.lft.to/lastmile_qr_scan", "android": "https://dc.lft.to/lastmile_qr_scan"}, "lon": -77.053472, "type": "electric_scooter", "fusion_lat": 0.0, "lat": 38.90469083333333, "name": "91650bf120b94df6c0605808255bd072", "fusion_lon": 0.0, "bike_id": "91650bf120b94df6c0605808255bd072", "is_disabled": 0, "is_reserved": 0}, {"rental_uris": {"ios": "https://dc.lft.to/lastmile_qr_scan", "android": "https://dc.lft.to/lastmile_qr_scan"}, "lon": -76.931604, "type": "electric_bike", "fusion_lat": 0.0, "lat": 38.908653, "name": "80b47132e1621b84cf663ea81b98cdf6", "fusion_lon": 0.0, "bike_id": "80b47132e1621b84cf663ea81b98cdf6", "is_disabled": 0, "is_reserved": 0}, {"rental_uris": {"ios": "https://dc.lft.to/lastmile_qr_scan", "android": "https://dc.lft.to/lastmile_qr_scan"}, "lon": -77.02760433333333, "type": "electric_scooter", "fusion_lat": 0.0, "lat": 38.95615133333333, "name": "55a5f909d9ba58df963082f48900ccf6", "fusion_lon": 0.0, "bike_id": "55a5f909d9ba58df963082f48900ccf6", "is_disabled": 0, "is_reserved": 0}, {"rental_uris": {"ios": "https://dc.lft.to/lastmile_qr_scan", "android": "https://dc.lft.to/lastmile_qr_scan"}, "lon": -77.00366983333333, "type": "electric_scooter", "fusion_lat": 0.0, "lat": 38.8380755, "name": "5f4fca662ed9b0144d7017e3a13ce9c8", "fusion_lon": 0.0, "bike_id": "5f4fca662ed9b0144d7017e3a13ce9c8", "is_disabled": 0, "is_reserved": 0}, {"rental_uris": {"ios": "https://dc.lft.to/lastmile_qr_scan", "android": "https://dc.lft.to/lastmile_qr_scan"}, "lon": -77.0271675, "type": "electric_scooter", "fusion_lat": 0.0, "lat": 38.909077833333335, "name": "d6028d0dca7277b4a4274ef6626e6bf8", "fusion_lon": 0.0, "bike_id": "d6028d0dca7277b4a4274ef6626e6bf8", "is_disabled": 0, "is_reserved": 0}, {"rental_uris": {"ios": "https://dc.lft.to/lastmile_qr_scan", "android": "https://dc.lft.to/lastmile_qr_scan"}, "lon": -77.00372433333334, "type": "electric_bike", "fusion_lat": 0.0, "lat": 38.83606316666667, "name": "93e331305bc5dd1eac19b0ca209ff636", "fusion_lon": 0.0, "bike_id": "93e331305bc5dd1eac19b0ca209ff636", "is_disabled": 0, "is_reserved": 0}, {"rental_uris": {"ios": "https://dc.lft.to/lastmile_qr_scan", "android": "https://dc.lft.to/lastmile_qr_scan"}, "lon": -77.09550116666666, "type": "electric_bike", "fusion_lat": 0.0, "lat": 38.837360833333335, "name": "e09aadf120832a224d03fb48ec07b873", "fusion_lon": 0.0, "bike_id": "e09aadf120832a224d03fb48ec07b873", "is_disabled": 0, "is_reserved": 0}, {"rental_uris": {"ios": "https://dc.lft.to/lastmile_qr_scan", "android": "https://dc.lft.to/lastmile_qr_scan"}, "lon": -77.0389165, "type": "electric_scooter", "fusion_lat": 0.0, "lat": 38.94397583333333, "name": "132784b78a0206174369631740bebc0a", "fusion_lon": 0.0, "bike_id": "132784b78a0206174369631740bebc0a", "is_disabled": 0, "is_reserved": 0}, {"rental_uris": {"ios": "https://dc.lft.to/lastmile_qr_scan", "android": "https://dc.lft.to/lastmile_qr_scan"}, "lon": -76.94142183333334, "type": "electric_scooter", "fusion_lat": 0.0, "lat": 38.896826, "name": "c66c04a1d807b07fbbdab0f734fcd962", "fusion_lon": 0.0, "bike_id": "c66c04a1d807b07fbbdab0f734fcd962", "is_disabled": 0, "is_reserved": 0}, {"rental_uris": {"ios": "https://dc.lft.to/lastmile_qr_scan", "android": "https://dc.lft.to/lastmile_qr_scan"}, "lon": -77.028909, "type": "electric_scooter", "fusion_lat": 0.0, "lat": 38.907223, "name": "b78af92b6383718404cd542637851a05", "fusion_lon": 0.0, "bike_id": "b78af92b6383718404cd542637851a05", "is_disabled": 0, "is_reserved": 0}, {"rental_uris": {"ios": "https://dc.lft.to/lastmile_qr_scan", "android": "https://dc.lft.to/lastmile_qr_scan"}, "lon": -77.03614983333334, "type": "electric_scooter", "fusion_lat": 0.0, "lat": 38.932620666666665, "name": "37fc6bcad77a9c6d5c6f7a5867133746", "fusion_lon": 0.0, "bike_id": "37fc6bcad77a9c6d5c6f7a5867133746", "is_disabled": 0, "is_reserved": 0}, {"rental_uris": {"ios": "https://dc.lft.to/lastmile_qr_scan", "android": "https://dc.lft.to/lastmile_qr_scan"}, "lon": -76.987141, "type": "electric_scooter", "fusion_lat": 0.0, "lat": 38.8626355, "name": "b4927ad8271004f67424bf58da691ded", "fusion_lon": 0.0, "bike_id": "b4927ad8271004f67424bf58da691ded", "is_disabled": 0, "is_reserved": 0}, {"rental_uris": {"ios": "https://dc.lft.to/lastmile_qr_scan", "android": "https://dc.lft.to/lastmile_qr_scan"}, "lon": -76.941751, "type": "electric_scooter", "fusion_lat": 0.0, "lat": 38.88222566666666, "name": "78fd3ba9e7eb951bdd09f446e4d49a6a", "fusion_lon": 0.0, "bike_id": "78fd3ba9e7eb951bdd09f446e4d49a6a", "is_disabled": 0, "is_reserved": 0}, {"rental_uris": {"ios": "https://dc.lft.to/lastmile_qr_scan", "android": "https://dc.lft.to/lastmile_qr_scan"}, "lon": -77.03226383333333, "type": "electric_scooter", "fusion_lat": 0.0, "lat": 38.9156125, "name": "98a9424d853e9da37a58c7b2ec20ce70", "fusion_lon": 0.0, "bike_id": "98a9424d853e9da37a58c7b2ec20ce70", "is_disabled": 0, "is_reserved": 0}, {"rental_uris": {"ios": "https://dc.lft.to/lastmile_qr_scan", "android": "https://dc.lft.to/lastmile_qr_scan"}, "lon": -77.05473266666667, "type": "electric_scooter", "fusion_lat": 0.0, "lat": 38.92099966666667, "name": "f0ccf03d52167dfdb9414c6a8ddfaa1f", "fusion_lon": 0.0, "bike_id": "f0ccf03d52167dfdb9414c6a8ddfaa1f", "is_disabled": 0, "is_reserved": 0}, {"rental_uris": {"ios": "https://dc.lft.to/lastmile_qr_scan", "android": "https://dc.lft.to/lastmile_qr_scan"}, "lon": -77.02713833333334, "type": "electric_scooter", "fusion_lat": 0.0, "lat": 38.924658, "name": "0de81a2a370f4daa673874357d9e4470", "fusion_lon": 0.0, "bike_id": "0de81a2a370f4daa673874357d9e4470", "is_disabled": 0, "is_reserved": 0}, {"rental_uris": {"ios": "https://dc.lft.to/lastmile_qr_scan", "android": "https://dc.lft.to/lastmile_qr_scan"}, "lon": -76.95532833333333, "type": "electric_scooter", "fusion_lat": 0.0, "lat": 38.887836666666665, "name": "e31d3c00e8cd67fde4a781ff42b48e23", "fusion_lon": 0.0, "bike_id": "e31d3c00e8cd67fde4a781ff42b48e23", "is_disabled": 0, "is_reserved": 0}, {"rental_uris": {"ios": "https://dc.lft.to/lastmile_qr_scan", "android": "https://dc.lft.to/lastmile_qr_scan"}, "lon": -77.0601225, "type": "electric_scooter", "fusion_lat": 0.0, "lat": 38.91262233333333, "name": "8f7483b5956b51e4e0c42f3b3f07dba6", "fusion_lon": 0.0, "bike_id": "8f7483b5956b51e4e0c42f3b3f07dba6", "is_disabled": 0, "is_reserved": 0}, {"rental_uris": {"ios": "https://dc.lft.to/lastmile_qr_scan", "android": "https://dc.lft.to/lastmile_qr_scan"}, "lon": -77.03735533333334, "type": "electric_scooter", "fusion_lat": 0.0, "lat": 38.929108166666666, "name": "b9e356f8e76fd425752689ae1727beee", "fusion_lon": 0.0, "bike_id": "b9e356f8e76fd425752689ae1727beee", "is_disabled": 0, "is_reserved": 0}, {"rental_uris": {"ios": "https://dc.lft.to/lastmile_qr_scan", "android": "https://dc.lft.to/lastmile_qr_scan"}, "lon": -77.01255316666666, "type": "electric_scooter", "fusion_lat": 0.0, "lat": 38.899665, "name": "56313185d20fa39240d6091761b6f70b", "fusion_lon": 0.0, "bike_id": "56313185d20fa39240d6091761b6f70b", "is_disabled": 0, "is_reserved": 0}, {"rental_uris": {"ios": "https://dc.lft.to/lastmile_qr_scan", "android": "https://dc.lft.to/lastmile_qr_scan"}, "lon": -77.13597616666667, "type": "electric_bike", "fusion_lat": 0.0, "lat": 39.053496, "name": "32819a0fc026ed16e5dc579a74ef7178", "fusion_lon": 0.0, "bike_id": "32819a0fc026ed16e5dc579a74ef7178", "is_disabled": 0, "is_reserved": 0}, {"rental_uris": {"ios": "https://dc.lft.to/lastmile_qr_scan", "android": "https://dc.lft.to/lastmile_qr_scan"}, "lon": -76.98617566666667, "type": "electric_scooter", "fusion_lat": 0.0, "lat": 38.868243666666665, "name": "3cf5df5a0e4a4b3edf0df0187424c6b4", "fusion_lon": 0.0, "bike_id": "3cf5df5a0e4a4b3edf0df0187424c6b4", "is_disabled": 0, "is_reserved": 0}, {"rental_uris": {"ios": "https://dc.lft.to/lastmile_qr_scan", "android": "https://dc.lft.to/lastmile_qr_scan"}, "lon": -77.04032316666667, "type": "electric_scooter", "fusion_lat": 0.0, "lat": 38.917064, "name": "e86d4dc29c3b8e9b95acf20bb73854bb", "fusion_lon": 0.0, "bike_id": "e86d4dc29c3b8e9b95acf20bb73854bb", "is_disabled": 0, "is_reserved": 0}, {"rental_uris": {"ios": "https://dc.lft.to/lastmile_qr_scan", "android": "https://dc.lft.to/lastmile_qr_scan"}, "lon": -77.033426, "type": "electric_scooter", "fusion_lat": 0.0, "lat": 38.919123666666664, "name": "fdbe14aa09ca10e52706a1787f2bb572", "fusion_lon": 0.0, "bike_id": "fdbe14aa09ca10e52706a1787f2bb572", "is_disabled": 0, "is_reserved": 0}, {"rental_uris": {"ios": "https://dc.lft.to/lastmile_qr_scan", "android": "https://dc.lft.to/lastmile_qr_scan"}, "lon": -76.98719166666666, "type": "electric_scooter", "fusion_lat": 0.0, "lat": 38.862625666666666, "name": "309585a1a9f58cd361c234d93b1c9f5e", "fusion_lon": 0.0, "bike_id": "309585a1a9f58cd361c234d93b1c9f5e", "is_disabled": 0, "is_reserved": 0}, {"rental_uris": {"ios": "https://dc.lft.to/lastmile_qr_scan", "android": "https://dc.lft.to/lastmile_qr_scan"}, "lon": -77.07877683333334, "type": "electric_scooter", "fusion_lat": 0.0, "lat": 38.925477666666666, "name": "8eb409c14fd14d97fa9cae7a2097090e", "fusion_lon": 0.0, "bike_id": "8eb409c14fd14d97fa9cae7a2097090e", "is_disabled": 0, "is_reserved": 0}, {"rental_uris": {"ios": "https://dc.lft.to/lastmile_qr_scan", "android": "https://dc.lft.to/lastmile_qr_scan"}, "lon": -77.0418085, "type": "electric_scooter", "fusion_lat": 0.0, "lat": 38.900551166666666, "name": "39162c64f3bf8610a1a10b543d3cc7eb", "fusion_lon": 0.0, "bike_id": "39162c64f3bf8610a1a10b543d3cc7eb", "is_disabled": 0, "is_reserved": 0}, {"rental_uris": {"ios": "https://dc.lft.to/lastmile_qr_scan", "android": "https://dc.lft.to/lastmile_qr_scan"}, "lon": -77.03420416666667, "type": "electric_scooter", "fusion_lat": 0.0, "lat": 38.902405333333334, "name": "9502709fdd7d4f084860bd7aa65a45ab", "fusion_lon": 0.0, "bike_id": "9502709fdd7d4f084860bd7aa65a45ab", "is_disabled": 0, "is_reserved": 0}, {"rental_uris": {"ios": "https://dc.lft.to/lastmile_qr_scan", "android": "https://dc.lft.to/lastmile_qr_scan"}, "lon": -77.02212316666666, "type": "electric_scooter", "fusion_lat": 0.0, "lat": 38.912683333333334, "name": "dc210de5accb1c32c57525d9128847b9", "fusion_lon": 0.0, "bike_id": "dc210de5accb1c32c57525d9128847b9", "is_disabled": 0, "is_reserved": 0}, {"rental_uris": {"ios": "https://dc.lft.to/lastmile_qr_scan", "android": "https://dc.lft.to/lastmile_qr_scan"}, "lon": -77.0334485, "type": "electric_scooter", "fusion_lat": 0.0, "lat": 38.9191095, "name": "bee840a071b40fc15f0e8f868e6851ea", "fusion_lon": 0.0, "bike_id": "bee840a071b40fc15f0e8f868e6851ea", "is_disabled": 0, "is_reserved": 0}, {"rental_uris": {"ios": "https://dc.lft.to/lastmile_qr_scan", "android": "https://dc.lft.to/lastmile_qr_scan"}, "lon": -77.0428265, "type": "electric_scooter", "fusion_lat": 0.0, "lat": 38.9085465, "name": "51573d0b97f97d6aa67eb80c27563deb", "fusion_lon": 0.0, "bike_id": "51573d0b97f97d6aa67eb80c27563deb", "is_disabled": 0, "is_reserved": 0}, {"rental_uris": {"ios": "https://dc.lft.to/lastmile_qr_scan", "android": "https://dc.lft.to/lastmile_qr_scan"}, "lon": -76.95818433333334, "type": "electric_scooter", "fusion_lat": 0.0, "lat": 38.890528333333336, "name": "1afb84b0ca20c9af3149329b7f6a8e75", "fusion_lon": 0.0, "bike_id": "1afb84b0ca20c9af3149329b7f6a8e75", "is_disabled": 0, "is_reserved": 0}, {"rental_uris": {"ios": "https://dc.lft.to/lastmile_qr_scan", "android": "https://dc.lft.to/lastmile_qr_scan"}, "lon": -77.02127783333333, "type": "electric_scooter", "fusion_lat": 0.0, "lat": 38.91560616666666, "name": "6dfe5a894ea9298d135db2330e69ac92", "fusion_lon": 0.0, "bike_id": "6dfe5a894ea9298d135db2330e69ac92", "is_disabled": 0, "is_reserved": 0}, {"rental_uris": {"ios": "https://dc.lft.to/lastmile_qr_scan", "android": "https://dc.lft.to/lastmile_qr_scan"}, "lon": -77.04130866666667, "type": "electric_scooter", "fusion_lat": 0.0, "lat": 38.92164833333333, "name": "94269eaa62610d7e1394bc4d5efc82f3", "fusion_lon": 0.0, "bike_id": "94269eaa62610d7e1394bc4d5efc82f3", "is_disabled": 0, "is_reserved": 0}, {"rental_uris": {"ios": "https://dc.lft.to/lastmile_qr_scan", "android": "https://dc.lft.to/lastmile_qr_scan"}, "lon": -77.0449215, "type": "electric_scooter", "fusion_lat": 0.0, "lat": 38.912862833333335, "name": "df87ca4fbd7954d90dc553b5423aa741", "fusion_lon": 0.0, "bike_id": "df87ca4fbd7954d90dc553b5423aa741", "is_disabled": 0, "is_reserved": 0}, {"rental_uris": {"ios": "https://dc.lft.to/lastmile_qr_scan", "android": "https://dc.lft.to/lastmile_qr_scan"}, "lon": -77.01746516666667, "type": "electric_scooter", "fusion_lat": 0.0, "lat": 38.903837, "name": "85322aa35bcd7f716565f3cf66395abe", "fusion_lon": 0.0, "bike_id": "85322aa35bcd7f716565f3cf66395abe", "is_disabled": 0, "is_reserved": 0}, {"rental_uris": {"ios": "https://dc.lft.to/lastmile_qr_scan", "android": "https://dc.lft.to/lastmile_qr_scan"}, "lon": -76.98621416666667, "type": "electric_scooter", "fusion_lat": 0.0, "lat": 38.86824166666667, "name": "55dde232f0cf90ae9e597611be58d5bc", "fusion_lon": 0.0, "bike_id": "55dde232f0cf90ae9e597611be58d5bc", "is_disabled": 0, "is_reserved": 0}, {"rental_uris": {"ios": "https://dc.lft.to/lastmile_qr_scan", "android": "https://dc.lft.to/lastmile_qr_scan"}, "lon": -77.0326565, "type": "electric_scooter", "fusion_lat": 0.0, "lat": 38.925563833333335, "name": "96ce2d49a84202daad3c9e4bd6ad76c1", "fusion_lon": 0.0, "bike_id": "96ce2d49a84202daad3c9e4bd6ad76c1", "is_disabled": 0, "is_reserved": 0}, {"rental_uris": {"ios": "https://dc.lft.to/lastmile_qr_scan", "android": "https://dc.lft.to/lastmile_qr_scan"}, "lon": -77.09524183333333, "type": "electric_bike", "fusion_lat": 0.0, "lat": 38.838114833333336, "name": "79b77c61286b91b390e0249de0ec06a9", "fusion_lon": 0.0, "bike_id": "79b77c61286b91b390e0249de0ec06a9", "is_disabled": 0, "is_reserved": 0}, {"rental_uris": {"ios": "https://dc.lft.to/lastmile_qr_scan", "android": "https://dc.lft.to/lastmile_qr_scan"}, "lon": -77.06372133333333, "type": "electric_bike", "fusion_lat": 0.0, "lat": 38.9051515, "name": "e8b4644d00929809a502e367c2639c6e", "fusion_lon": 0.0, "bike_id": "e8b4644d00929809a502e367c2639c6e", "is_disabled": 0, "is_reserved": 0}, {"rental_uris": {"ios": "https://dc.lft.to/lastmile_qr_scan", "android": "https://dc.lft.to/lastmile_qr_scan"}, "lon": -77.023994, "type": "electric_scooter", "fusion_lat": 0.0, "lat": 38.91723133333333, "name": "d414dedc940ebc67114088e7834ea445", "fusion_lon": 0.0, "bike_id": "d414dedc940ebc67114088e7834ea445", "is_disabled": 0, "is_reserved": 0}, {"rental_uris": {"ios": "https://dc.lft.to/lastmile_qr_scan", "android": "https://dc.lft.to/lastmile_qr_scan"}, "lon": -77.0582755, "type": "electric_scooter", "fusion_lat": 0.0, "lat": 38.934188666666664, "name": "e076b70c3b3b45f23026cf3610f33fe0", "fusion_lon": 0.0, "bike_id": "e076b70c3b3b45f23026cf3610f33fe0", "is_disabled": 0, "is_reserved": 0}, {"rental_uris": {"ios": "https://dc.lft.to/lastmile_qr_scan", "android": "https://dc.lft.to/lastmile_qr_scan"}, "lon": -77.05593166666667, "type": "electric_scooter", "fusion_lat": 0.0, "lat": 38.927833166666666, "name": "f7aea815c039d376f281629fcb3b785c", "fusion_lon": 0.0, "bike_id": "f7aea815c039d376f281629fcb3b785c", "is_disabled": 0, "is_reserved": 0}, {"rental_uris": {"ios": "https://dc.lft.to/lastmile_qr_scan", "android": "https://dc.lft.to/lastmile_qr_scan"}, "lon": -77.035623, "type": "electric_scooter", "fusion_lat": 0.0, "lat": 38.91815166666667, "name": "0fb208ddbf14bf76daae370bac8bd9e7", "fusion_lon": 0.0, "bike_id": "0fb208ddbf14bf76daae370bac8bd9e7", "is_disabled": 0, "is_reserved": 0}, {"rental_uris": {"ios": "https://dc.lft.to/lastmile_qr_scan", "android": "https://dc.lft.to/lastmile_qr_scan"}, "lon": -77.08360633333334, "type": "electric_scooter", "fusion_lat": 0.0, "lat": 38.930302833333336, "name": "031fd5192c616576a9710a49aaca0ce3", "fusion_lon": 0.0, "bike_id": "031fd5192c616576a9710a49aaca0ce3", "is_disabled": 0, "is_reserved": 0}, {"rental_uris": {"ios": "https://dc.lft.to/lastmile_qr_scan", "android": "https://dc.lft.to/lastmile_qr_scan"}, "lon": -76.9877275, "type": "electric_scooter", "fusion_lat": 0.0, "lat": 38.911755166666666, "name": "3dac06af8d9c5a3cc893f29004bc5456", "fusion_lon": 0.0, "bike_id": "3dac06af8d9c5a3cc893f29004bc5456", "is_disabled": 0, "is_reserved": 0}, {"rental_uris": {"ios": "https://dc.lft.to/lastmile_qr_scan", "android": "https://dc.lft.to/lastmile_qr_scan"}, "lon": -77.04823083333333, "type": "electric_scooter", "fusion_lat": 0.0, "lat": 38.89617666666667, "name": "849f6353e50d2bc85be180f5d703cde3", "fusion_lon": 0.0, "bike_id": "849f6353e50d2bc85be180f5d703cde3", "is_disabled": 0, "is_reserved": 0}, {"rental_uris": {"ios": "https://dc.lft.to/lastmile_qr_scan", "android": "https://dc.lft.to/lastmile_qr_scan"}, "lon": -77.02892183333333, "type": "electric_scooter", "fusion_lat": 0.0, "lat": 38.903619166666665, "name": "19118bd486aa00bc007dad8af1b7c306", "fusion_lon": 0.0, "bike_id": "19118bd486aa00bc007dad8af1b7c306", "is_disabled": 0, "is_reserved": 0}, {"rental_uris": {"ios": "https://dc.lft.to/lastmile_qr_scan", "android": "https://dc.lft.to/lastmile_qr_scan"}, "lon": -77.0308595, "type": "electric_scooter", "fusion_lat": 0.0, "lat": 38.9347545, "name": "2607fb981b667a0f71be39cc9a22e899", "fusion_lon": 0.0, "bike_id": "2607fb981b667a0f71be39cc9a22e899", "is_disabled": 0, "is_reserved": 0}, {"rental_uris": {"ios": "https://dc.lft.to/lastmile_qr_scan", "android": "https://dc.lft.to/lastmile_qr_scan"}, "lon": -77.01759116666666, "type": "electric_scooter", "fusion_lat": 0.0, "lat": 38.9389545, "name": "c6850ad7ad1c5452567759d84e30e753", "fusion_lon": 0.0, "bike_id": "c6850ad7ad1c5452567759d84e30e753", "is_disabled": 0, "is_reserved": 0}, {"rental_uris": {"ios": "https://dc.lft.to/lastmile_qr_scan", "android": "https://dc.lft.to/lastmile_qr_scan"}, "lon": -76.9789, "type": "electric_scooter", "fusion_lat": 0.0, "lat": 38.916726, "name": "f47cd8298b285ceff07223e517ebbc80", "fusion_lon": 0.0, "bike_id": "f47cd8298b285ceff07223e517ebbc80", "is_disabled": 0, "is_reserved": 0}, {"rental_uris": {"ios": "https://dc.lft.to/lastmile_qr_scan", "android": "https://dc.lft.to/lastmile_qr_scan"}, "lon": -77.12744533333333, "type": "electric_bike", "fusion_lat": 0.0, "lat": 38.88816083333333, "name": "9f391f57aec04d6c70550780568cd849", "fusion_lon": 0.0, "bike_id": "9f391f57aec04d6c70550780568cd849", "is_disabled": 0, "is_reserved": 0}, {"rental_uris": {"ios": "https://dc.lft.to/lastmile_qr_scan", "android": "https://dc.lft.to/lastmile_qr_scan"}, "lon": -76.93794983333333, "type": "electric_scooter", "fusion_lat": 0.0, "lat": 38.9129195, "name": "dca328ff5312884bfea3182930070a10", "fusion_lon": 0.0, "bike_id": "dca328ff5312884bfea3182930070a10", "is_disabled": 0, "is_reserved": 0}, {"rental_uris": {"ios": "https://dc.lft.to/lastmile_qr_scan", "android": "https://dc.lft.to/lastmile_qr_scan"}, "lon": -77.04961066666667, "type": "electric_scooter", "fusion_lat": 0.0, "lat": 38.89649166666667, "name": "a91dbd2b456fd80bc1a25e9594c5aec5", "fusion_lon": 0.0, "bike_id": "a91dbd2b456fd80bc1a25e9594c5aec5", "is_disabled": 0, "is_reserved": 0}, {"rental_uris": {"ios": "https://dc.lft.to/lastmile_qr_scan", "android": "https://dc.lft.to/lastmile_qr_scan"}, "lon": -77.008509, "type": "electric_scooter", "fusion_lat": 0.0, "lat": 38.9259615, "name": "6ad059b76168f22551e55fe85895f6c7", "fusion_lon": 0.0, "bike_id": "6ad059b76168f22551e55fe85895f6c7", "is_disabled": 0, "is_reserved": 0}, {"rental_uris": {"ios": "https://dc.lft.to/lastmile_qr_scan", "android": "https://dc.lft.to/lastmile_qr_scan"}, "lon": -77.0423585, "type": "electric_scooter", "fusion_lat": 0.0, "lat": 38.90812416666667, "name": "4a2c5f920f867195f34d921c553bfb63", "fusion_lon": 0.0, "bike_id": "4a2c5f920f867195f34d921c553bfb63", "is_disabled": 0, "is_reserved": 0}, {"rental_uris": {"ios": "https://dc.lft.to/lastmile_qr_scan", "android": "https://dc.lft.to/lastmile_qr_scan"}, "lon": -77.032657, "type": "electric_scooter", "fusion_lat": 0.0, "lat": 38.937306166666666, "name": "01242b38b3aed31b8558bbaad73a9d68", "fusion_lon": 0.0, "bike_id": "01242b38b3aed31b8558bbaad73a9d68", "is_disabled": 0, "is_reserved": 0}, {"rental_uris": {"ios": "https://dc.lft.to/lastmile_qr_scan", "android": "https://dc.lft.to/lastmile_qr_scan"}, "lon": -76.99545766666667, "type": "electric_scooter", "fusion_lat": 0.0, "lat": 38.92672983333333, "name": "848f7f3cb6c673be81eae5af80445969", "fusion_lon": 0.0, "bike_id": "848f7f3cb6c673be81eae5af80445969", "is_disabled": 0, "is_reserved": 0}, {"rental_uris": {"ios": "https://dc.lft.to/lastmile_qr_scan", "android": "https://dc.lft.to/lastmile_qr_scan"}, "lon": -77.0479505, "type": "electric_scooter", "fusion_lat": 0.0, "lat": 38.89761983333333, "name": "cddd56aa96449a91119b79662513a834", "fusion_lon": 0.0, "bike_id": "cddd56aa96449a91119b79662513a834", "is_disabled": 0, "is_reserved": 0}, {"rental_uris": {"ios": "https://dc.lft.to/lastmile_qr_scan", "android": "https://dc.lft.to/lastmile_qr_scan"}, "lon": -77.04482883333333, "type": "electric_scooter", "fusion_lat": 0.0, "lat": 38.9186445, "name": "cbaffd30a1532835f5dd3fe1308db6cc", "fusion_lon": 0.0, "bike_id": "cbaffd30a1532835f5dd3fe1308db6cc", "is_disabled": 0, "is_reserved": 0}, {"rental_uris": {"ios": "https://dc.lft.to/lastmile_qr_scan", "android": "https://dc.lft.to/lastmile_qr_scan"}, "lon": -77.01866633333333, "type": "electric_scooter", "fusion_lat": 0.0, "lat": 38.94896, "name": "b6d519d8baf22d492589cf7ff95c09c3", "fusion_lon": 0.0, "bike_id": "b6d519d8baf22d492589cf7ff95c09c3", "is_disabled": 0, "is_reserved": 0}, {"rental_uris": {"ios": "https://dc.lft.to/lastmile_qr_scan", "android": "https://dc.lft.to/lastmile_qr_scan"}, "lon": -76.96527033333334, "type": "electric_scooter", "fusion_lat": 0.0, "lat": 38.876298, "name": "51f80f6f6ec7bce5a9ec4edabd5ac974", "fusion_lon": 0.0, "bike_id": "51f80f6f6ec7bce5a9ec4edabd5ac974", "is_disabled": 0, "is_reserved": 0}, {"rental_uris": {"ios": "https://dc.lft.to/lastmile_qr_scan", "android": "https://dc.lft.to/lastmile_qr_scan"}, "lon": -76.997531, "type": "electric_scooter", "fusion_lat": 0.0, "lat": 38.909471, "name": "963f296a9f42521c27937dd2b3c744a7", "fusion_lon": 0.0, "bike_id": "963f296a9f42521c27937dd2b3c744a7", "is_disabled": 0, "is_reserved": 0}, {"rental_uris": {"ios": "https://dc.lft.to/lastmile_qr_scan", "android": "https://dc.lft.to/lastmile_qr_scan"}, "lon": -77.06607283333334, "type": "electric_scooter", "fusion_lat": 0.0, "lat": 38.905351833333334, "name": "63087552728d60ced9aced197a8a75fb", "fusion_lon": 0.0, "bike_id": "63087552728d60ced9aced197a8a75fb", "is_disabled": 0, "is_reserved": 0}, {"rental_uris": {"ios": "https://dc.lft.to/lastmile_qr_scan", "android": "https://dc.lft.to/lastmile_qr_scan"}, "lon": -77.08817283333333, "type": "electric_bike", "fusion_lat": 0.0, "lat": 38.911695, "name": "776cd8cac6fc0a82bf313cda58ef40a8", "fusion_lon": 0.0, "bike_id": "776cd8cac6fc0a82bf313cda58ef40a8", "is_disabled": 0, "is_reserved": 0}, {"rental_uris": {"ios": "https://dc.lft.to/lastmile_qr_scan", "android": "https://dc.lft.to/lastmile_qr_scan"}, "lon": -76.97421216666666, "type": "electric_bike", "fusion_lat": 0.0, "lat": 38.86430983333333, "name": "32dfb3eb7d85a2c3ac3d2fbf380b9ae4", "fusion_lon": 0.0, "bike_id": "32dfb3eb7d85a2c3ac3d2fbf380b9ae4", "is_disabled": 0, "is_reserved": 0}, {"rental_uris": {"ios": "https://dc.lft.to/lastmile_qr_scan", "android": "https://dc.lft.to/lastmile_qr_scan"}, "lon": -76.9977585, "type": "electric_scooter", "fusion_lat": 0.0, "lat": 38.8442605, "name": "9b12e2ece919cd3fa61d94900cf33990", "fusion_lon": 0.0, "bike_id": "9b12e2ece919cd3fa61d94900cf33990", "is_disabled": 0, "is_reserved": 0}, {"rental_uris": {"ios": "https://dc.lft.to/lastmile_qr_scan", "android": "https://dc.lft.to/lastmile_qr_scan"}, "lon": -77.01516633333334, "type": "electric_scooter", "fusion_lat": 0.0, "lat": 38.89818533333333, "name": "0602c3dae80040338ef15cecfba97df5", "fusion_lon": 0.0, "bike_id": "0602c3dae80040338ef15cecfba97df5", "is_disabled": 0, "is_reserved": 0}, {"rental_uris": {"ios": "https://dc.lft.to/lastmile_qr_scan", "android": "https://dc.lft.to/lastmile_qr_scan"}, "lon": -77.01867933333334, "type": "electric_scooter", "fusion_lat": 0.0, "lat": 38.91571916666667, "name": "ad623e90523daed9f55fd60d100c9fc4", "fusion_lon": 0.0, "bike_id": "ad623e90523daed9f55fd60d100c9fc4", "is_disabled": 0, "is_reserved": 0}, {"rental_uris": {"ios": "https://dc.lft.to/lastmile_qr_scan", "android": "https://dc.lft.to/lastmile_qr_scan"}, "lon": -77.04117183333334, "type": "electric_scooter", "fusion_lat": 0.0, "lat": 38.90578566666667, "name": "16dad7c6fef1cbab3f207e510e687d28", "fusion_lon": 0.0, "bike_id": "16dad7c6fef1cbab3f207e510e687d28", "is_disabled": 0, "is_reserved": 0}, {"rental_uris": {"ios": "https://dc.lft.to/lastmile_qr_scan", "android": "https://dc.lft.to/lastmile_qr_scan"}, "lon": -77.00004283333334, "type": "electric_bike", "fusion_lat": 0.0, "lat": 38.92397916666667, "name": "1794e6e7ebed74c4172d1d01878ec922", "fusion_lon": 0.0, "bike_id": "1794e6e7ebed74c4172d1d01878ec922", "is_disabled": 0, "is_reserved": 0}, {"rental_uris": {"ios": "https://dc.lft.to/lastmile_qr_scan", "android": "https://dc.lft.to/lastmile_qr_scan"}, "lon": -77.00216033333334, "type": "electric_scooter", "fusion_lat": 0.0, "lat": 38.90834433333333, "name": "9de042b6ac4aa6652985260ef39cffb5", "fusion_lon": 0.0, "bike_id": "9de042b6ac4aa6652985260ef39cffb5", "is_disabled": 0, "is_reserved": 0}, {"rental_uris": {"ios": "https://dc.lft.to/lastmile_qr_scan", "android": "https://dc.lft.to/lastmile_qr_scan"}, "lon": -77.02955716666666, "type": "electric_scooter", "fusion_lat": 0.0, "lat": 38.900535166666664, "name": "263e2a286d5ceaeb69d2c6e83fb76ecd", "fusion_lon": 0.0, "bike_id": "263e2a286d5ceaeb69d2c6e83fb76ecd", "is_disabled": 0, "is_reserved": 0}, {"rental_uris": {"ios": "https://dc.lft.to/lastmile_qr_scan", "android": "https://dc.lft.to/lastmile_qr_scan"}, "lon": -76.9573985, "type": "electric_scooter", "fusion_lat": 0.0, "lat": 38.89218, "name": "778a917ff7690c24e8228b393066a95f", "fusion_lon": 0.0, "bike_id": "778a917ff7690c24e8228b393066a95f", "is_disabled": 0, "is_reserved": 0}, {"rental_uris": {"ios": "https://dc.lft.to/lastmile_qr_scan", "android": "https://dc.lft.to/lastmile_qr_scan"}, "lon": -77.035109, "type": "electric_scooter", "fusion_lat": 0.0, "lat": 38.9215265, "name": "ea8782400bfa69c9b2b928af94684925", "fusion_lon": 0.0, "bike_id": "ea8782400bfa69c9b2b928af94684925", "is_disabled": 0, "is_reserved": 0}, {"rental_uris": {"ios": "https://dc.lft.to/lastmile_qr_scan", "android": "https://dc.lft.to/lastmile_qr_scan"}, "lon": -77.1318075, "type": "electric_bike", "fusion_lat": 0.0, "lat": 38.869136833333336, "name": "3cbb7affecc57bc46a219a7bd5b0108a", "fusion_lon": 0.0, "bike_id": "3cbb7affecc57bc46a219a7bd5b0108a", "is_disabled": 0, "is_reserved": 0}, {"rental_uris": {"ios": "https://dc.lft.to/lastmile_qr_scan", "android": "https://dc.lft.to/lastmile_qr_scan"}, "lon": -77.04883633333333, "type": "electric_scooter", "fusion_lat": 0.0, "lat": 38.903096, "name": "cf58e21379c490c093e5db108ec6ced6", "fusion_lon": 0.0, "bike_id": "cf58e21379c490c093e5db108ec6ced6", "is_disabled": 0, "is_reserved": 0}, {"rental_uris": {"ios": "https://dc.lft.to/lastmile_qr_scan", "android": "https://dc.lft.to/lastmile_qr_scan"}, "lon": -77.03624516666666, "type": "electric_scooter", "fusion_lat": 0.0, "lat": 38.93687833333333, "name": "cd0b3c85d010c98d47f3ec8dc2848041", "fusion_lon": 0.0, "bike_id": "cd0b3c85d010c98d47f3ec8dc2848041", "is_disabled": 0, "is_reserved": 0}, {"rental_uris": {"ios": "https://dc.lft.to/lastmile_qr_scan", "android": "https://dc.lft.to/lastmile_qr_scan"}, "lon": -77.05323783333333, "type": "electric_scooter", "fusion_lat": 0.0, "lat": 38.90293466666667, "name": "14fbbcd010f8de1bc838461ff6c89ce9", "fusion_lon": 0.0, "bike_id": "14fbbcd010f8de1bc838461ff6c89ce9", "is_disabled": 0, "is_reserved": 0}, {"rental_uris": {"ios": "https://dc.lft.to/lastmile_qr_scan", "android": "https://dc.lft.to/lastmile_qr_scan"}, "lon": -77.05071, "type": "electric_scooter", "fusion_lat": 0.0, "lat": 38.900538833333336, "name": "4e44025b2274d5581dd03a884f487306", "fusion_lon": 0.0, "bike_id": "4e44025b2274d5581dd03a884f487306", "is_disabled": 0, "is_reserved": 0}, {"rental_uris": {"ios": "https://dc.lft.to/lastmile_qr_scan", "android": "https://dc.lft.to/lastmile_qr_scan"}, "lon": -77.037951, "type": "electric_bike", "fusion_lat": 0.0, "lat": 38.9967215, "name": "188ea45ea99c792f516a7989e2c77882", "fusion_lon": 0.0, "bike_id": "188ea45ea99c792f516a7989e2c77882", "is_disabled": 0, "is_reserved": 0}, {"rental_uris": {"ios": "https://dc.lft.to/lastmile_qr_scan", "android": "https://dc.lft.to/lastmile_qr_scan"}, "lon": -76.9498625, "type": "electric_scooter", "fusion_lat": 0.0, "lat": 38.89367133333333, "name": "6ddfbc19ab4f34a42ce224bf0c9ac726", "fusion_lon": 0.0, "bike_id": "6ddfbc19ab4f34a42ce224bf0c9ac726", "is_disabled": 0, "is_reserved": 0}, {"rental_uris": {"ios": "https://dc.lft.to/lastmile_qr_scan", "android": "https://dc.lft.to/lastmile_qr_scan"}, "lon": -77.03588283333333, "type": "electric_scooter", "fusion_lat": 0.0, "lat": 38.932472, "name": "4ce504160a1f421563573b75a1c6c7ae", "fusion_lon": 0.0, "bike_id": "4ce504160a1f421563573b75a1c6c7ae", "is_disabled": 0, "is_reserved": 0}, {"rental_uris": {"ios": "https://dc.lft.to/lastmile_qr_scan", "android": "https://dc.lft.to/lastmile_qr_scan"}, "lon": -76.97731516666667, "type": "electric_scooter", "fusion_lat": 0.0, "lat": 38.872933333333336, "name": "1924a6109c64930e16aed2d500c49402", "fusion_lon": 0.0, "bike_id": "1924a6109c64930e16aed2d500c49402", "is_disabled": 0, "is_reserved": 0}, {"rental_uris": {"ios": "https://dc.lft.to/lastmile_qr_scan", "android": "https://dc.lft.to/lastmile_qr_scan"}, "lon": -77.0569895, "type": "electric_scooter", "fusion_lat": 0.0, "lat": 38.905387166666664, "name": "03732edd12b287142ff39368488ca982", "fusion_lon": 0.0, "bike_id": "03732edd12b287142ff39368488ca982", "is_disabled": 0, "is_reserved": 0}, {"rental_uris": {"ios": "https://dc.lft.to/lastmile_qr_scan", "android": "https://dc.lft.to/lastmile_qr_scan"}, "lon": -76.98904216666666, "type": "electric_scooter", "fusion_lat": 0.0, "lat": 38.86693733333333, "name": "7b47f3be7400ff9f1be45caee3cc2b2d", "fusion_lon": 0.0, "bike_id": "7b47f3be7400ff9f1be45caee3cc2b2d", "is_disabled": 0, "is_reserved": 0}, {"rental_uris": {"ios": "https://dc.lft.to/lastmile_qr_scan", "android": "https://dc.lft.to/lastmile_qr_scan"}, "lon": -77.03641216666666, "type": "electric_scooter", "fusion_lat": 0.0, "lat": 38.9126615, "name": "ad9c192cec1cbe8303f8e5471215bf6a", "fusion_lon": 0.0, "bike_id": "ad9c192cec1cbe8303f8e5471215bf6a", "is_disabled": 0, "is_reserved": 0}, {"rental_uris": {"ios": "https://dc.lft.to/lastmile_qr_scan", "android": "https://dc.lft.to/lastmile_qr_scan"}, "lon": -77.04121016666667, "type": "electric_scooter", "fusion_lat": 0.0, "lat": 38.92358466666667, "name": "1a813baef9c2a24fe21da06af09c4d76", "fusion_lon": 0.0, "bike_id": "1a813baef9c2a24fe21da06af09c4d76", "is_disabled": 0, "is_reserved": 0}, {"rental_uris": {"ios": "https://dc.lft.to/lastmile_qr_scan", "android": "https://dc.lft.to/lastmile_qr_scan"}, "lon": -76.95357333333334, "type": "electric_bike", "fusion_lat": 0.0, "lat": 38.93953333333333, "name": "9f801d843122d31c4cc802e77311d1bc", "fusion_lon": 0.0, "bike_id": "9f801d843122d31c4cc802e77311d1bc", "is_disabled": 0, "is_reserved": 0}, {"rental_uris": {"ios": "https://dc.lft.to/lastmile_qr_scan", "android": "https://dc.lft.to/lastmile_qr_scan"}, "lon": -77.04773216666666, "type": "electric_bike", "fusion_lat": 0.0, "lat": 39.0533065, "name": "359cc4c371deb00cfd6ae0311948eb49", "fusion_lon": 0.0, "bike_id": "359cc4c371deb00cfd6ae0311948eb49", "is_disabled": 0, "is_reserved": 0}, {"rental_uris": {"ios": "https://dc.lft.to/lastmile_qr_scan", "android": "https://dc.lft.to/lastmile_qr_scan"}, "lon": -77.17845333333334, "type": "electric_bike", "fusion_lat": 0.0, "lat": 39.088546666666666, "name": "182a57eb35238bb487288391a1f21e1c", "fusion_lon": 0.0, "bike_id": "182a57eb35238bb487288391a1f21e1c", "is_disabled": 0, "is_reserved": 0}, {"rental_uris": {"ios": "https://dc.lft.to/lastmile_qr_scan", "android": "https://dc.lft.to/lastmile_qr_scan"}, "lon": -76.9871835, "type": "electric_scooter", "fusion_lat": 0.0, "lat": 38.86704183333333, "name": "a0b9f25cc0c1a049e706efe1eb5922c4", "fusion_lon": 0.0, "bike_id": "a0b9f25cc0c1a049e706efe1eb5922c4", "is_disabled": 0, "is_reserved": 0}, {"rental_uris": {"ios": "https://dc.lft.to/lastmile_qr_scan", "android": "https://dc.lft.to/lastmile_qr_scan"}, "lon": -77.03300366666667, "type": "electric_scooter", "fusion_lat": 0.0, "lat": 38.928439166666664, "name": "2e7564da13fb3f51b49cf4117a574ca1", "fusion_lon": 0.0, "bike_id": "2e7564da13fb3f51b49cf4117a574ca1", "is_disabled": 0, "is_reserved": 0}, {"rental_uris": {"ios": "https://dc.lft.to/lastmile_qr_scan", "android": "https://dc.lft.to/lastmile_qr_scan"}, "lon": -77.0012515, "type": "electric_scooter", "fusion_lat": 0.0, "lat": 38.87802116666667, "name": "0d4febbcf2b4c84224f941ce5e59007b", "fusion_lon": 0.0, "bike_id": "0d4febbcf2b4c84224f941ce5e59007b", "is_disabled": 0, "is_reserved": 0}, {"rental_uris": {"ios": "https://dc.lft.to/lastmile_qr_scan", "android": "https://dc.lft.to/lastmile_qr_scan"}, "lon": -77.04255066666667, "type": "electric_scooter", "fusion_lat": 0.0, "lat": 38.92054433333333, "name": "45dd090f3849a9cd1d27a0fa1a275143", "fusion_lon": 0.0, "bike_id": "45dd090f3849a9cd1d27a0fa1a275143", "is_disabled": 0, "is_reserved": 0}, {"rental_uris": {"ios": "https://dc.lft.to/lastmile_qr_scan", "android": "https://dc.lft.to/lastmile_qr_scan"}, "lon": -77.037148, "type": "electric_scooter", "fusion_lat": 0.0, "lat": 38.926270333333335, "name": "04b4ae6c3c019cf4e6f4769017410cc2", "fusion_lon": 0.0, "bike_id": "04b4ae6c3c019cf4e6f4769017410cc2", "is_disabled": 0, "is_reserved": 0}, {"rental_uris": {"ios": "https://dc.lft.to/lastmile_qr_scan", "android": "https://dc.lft.to/lastmile_qr_scan"}, "lon": -76.98560716666667, "type": "electric_scooter", "fusion_lat": 0.0, "lat": 38.89952983333333, "name": "a27361cccea44dabaa16bc7799be8ff4", "fusion_lon": 0.0, "bike_id": "a27361cccea44dabaa16bc7799be8ff4", "is_disabled": 0, "is_reserved": 0}, {"rental_uris": {"ios": "https://dc.lft.to/lastmile_qr_scan", "android": "https://dc.lft.to/lastmile_qr_scan"}, "lon": -77.09673416666666, "type": "electric_scooter", "fusion_lat": 0.0, "lat": 38.917642, "name": "19591da9ae10d5e2a6beae4a8fe2dd88", "fusion_lon": 0.0, "bike_id": "19591da9ae10d5e2a6beae4a8fe2dd88", "is_disabled": 0, "is_reserved": 0}, {"rental_uris": {"ios": "https://dc.lft.to/lastmile_qr_scan", "android": "https://dc.lft.to/lastmile_qr_scan"}, "lon": -77.0322475, "type": "electric_scooter", "fusion_lat": 0.0, "lat": 38.90867516666667, "name": "c27389569e1ab40d64594f77bd50485f", "fusion_lon": 0.0, "bike_id": "c27389569e1ab40d64594f77bd50485f", "is_disabled": 0, "is_reserved": 0}, {"rental_uris": {"ios": "https://dc.lft.to/lastmile_qr_scan", "android": "https://dc.lft.to/lastmile_qr_scan"}, "lon": -76.988853, "type": "electric_scooter", "fusion_lat": 0.0, "lat": 38.86657066666667, "name": "d919b1286d838c64aad00a19f2d91766", "fusion_lon": 0.0, "bike_id": "d919b1286d838c64aad00a19f2d91766", "is_disabled": 0, "is_reserved": 0}, {"rental_uris": {"ios": "https://dc.lft.to/lastmile_qr_scan", "android": "https://dc.lft.to/lastmile_qr_scan"}, "lon": -77.04429816666666, "type": "electric_scooter", "fusion_lat": 0.0, "lat": 38.91925633333334, "name": "6c01cd4ba8cab82e6e145371597f843f", "fusion_lon": 0.0, "bike_id": "6c01cd4ba8cab82e6e145371597f843f", "is_disabled": 0, "is_reserved": 0}, {"rental_uris": {"ios": "https://dc.lft.to/lastmile_qr_scan", "android": "https://dc.lft.to/lastmile_qr_scan"}, "lon": -77.0370355, "type": "electric_scooter", "fusion_lat": 0.0, "lat": 38.92627, "name": "be85b0dbb0e3bfb62e4915164ebac256", "fusion_lon": 0.0, "bike_id": "be85b0dbb0e3bfb62e4915164ebac256", "is_disabled": 0, "is_reserved": 0}, {"rental_uris": {"ios": "https://dc.lft.to/lastmile_qr_scan", "android": "https://dc.lft.to/lastmile_qr_scan"}, "lon": -76.93749783333334, "type": "electric_scooter", "fusion_lat": 0.0, "lat": 38.9128615, "name": "cb0349ebfee4e78c99f531d1124128b9", "fusion_lon": 0.0, "bike_id": "cb0349ebfee4e78c99f531d1124128b9", "is_disabled": 0, "is_reserved": 0}, {"rental_uris": {"ios": "https://dc.lft.to/lastmile_qr_scan", "android": "https://dc.lft.to/lastmile_qr_scan"}, "lon": -76.97703566666667, "type": "electric_scooter", "fusion_lat": 0.0, "lat": 38.9024945, "name": "88c25c7fab0979c4b2e6d6fa5e3cee4d", "fusion_lon": 0.0, "bike_id": "88c25c7fab0979c4b2e6d6fa5e3cee4d", "is_disabled": 0, "is_reserved": 0}, {"rental_uris": {"ios": "https://dc.lft.to/lastmile_qr_scan", "android": "https://dc.lft.to/lastmile_qr_scan"}, "lon": -77.01396566666666, "type": "electric_scooter", "fusion_lat": 0.0, "lat": 38.919433833333336, "name": "d8b0e9527a465b129d654649ac595026", "fusion_lon": 0.0, "bike_id": "d8b0e9527a465b129d654649ac595026", "is_disabled": 0, "is_reserved": 0}, {"rental_uris": {"ios": "https://dc.lft.to/lastmile_qr_scan", "android": "https://dc.lft.to/lastmile_qr_scan"}, "lon": -77.03297133333334, "type": "electric_scooter", "fusion_lat": 0.0, "lat": 38.93481583333333, "name": "8f54f8172d6b0c23c55d40e8a8c92937", "fusion_lon": 0.0, "bike_id": "8f54f8172d6b0c23c55d40e8a8c92937", "is_disabled": 0, "is_reserved": 0}, {"rental_uris": {"ios": "https://dc.lft.to/lastmile_qr_scan", "android": "https://dc.lft.to/lastmile_qr_scan"}, "lon": -76.98593716666667, "type": "electric_bike", "fusion_lat": 0.0, "lat": 38.906193, "name": "fb58fddb094604706702c0e2573ea247", "fusion_lon": 0.0, "bike_id": "fb58fddb094604706702c0e2573ea247", "is_disabled": 0, "is_reserved": 0}, {"rental_uris": {"ios": "https://dc.lft.to/lastmile_qr_scan", "android": "https://dc.lft.to/lastmile_qr_scan"}, "lon": -77.12959, "type": "electric_bike", "fusion_lat": 0.0, "lat": 38.85216283333333, "name": "31d519c13ff3f1d487052525c6a60358", "fusion_lon": 0.0, "bike_id": "31d519c13ff3f1d487052525c6a60358", "is_disabled": 0, "is_reserved": 0}, {"rental_uris": {"ios": "https://dc.lft.to/lastmile_qr_scan", "android": "https://dc.lft.to/lastmile_qr_scan"}, "lon": -76.95990133333333, "type": "electric_scooter", "fusion_lat": 0.0, "lat": 38.880434666666666, "name": "bc46329776c732350327c7acc24034cd", "fusion_lon": 0.0, "bike_id": "bc46329776c732350327c7acc24034cd", "is_disabled": 0, "is_reserved": 0}, {"rental_uris": {"ios": "https://dc.lft.to/lastmile_qr_scan", "android": "https://dc.lft.to/lastmile_qr_scan"}, "lon": -77.03055166666667, "type": "electric_scooter", "fusion_lat": 0.0, "lat": 38.917181666666664, "name": "d7f1f2cd1abf2cded62f7c13ee545a79", "fusion_lon": 0.0, "bike_id": "d7f1f2cd1abf2cded62f7c13ee545a79", "is_disabled": 0, "is_reserved": 0}, {"rental_uris": {"ios": "https://dc.lft.to/lastmile_qr_scan", "android": "https://dc.lft.to/lastmile_qr_scan"}, "lon": -76.99698483333333, "type": "electric_scooter", "fusion_lat": 0.0, "lat": 38.90086566666667, "name": "89f91b74d101529a8f27cb072bfc2d6c", "fusion_lon": 0.0, "bike_id": "89f91b74d101529a8f27cb072bfc2d6c", "is_disabled": 0, "is_reserved": 0}, {"rental_uris": {"ios": "https://dc.lft.to/lastmile_qr_scan", "android": "https://dc.lft.to/lastmile_qr_scan"}, "lon": -77.02607883333333, "type": "electric_bike", "fusion_lat": 0.0, "lat": 38.962621, "name": "164e08c28e72cf1bd0537beff22e4a27", "fusion_lon": 0.0, "bike_id": "164e08c28e72cf1bd0537beff22e4a27", "is_disabled": 0, "is_reserved": 0}, {"rental_uris": {"ios": "https://dc.lft.to/lastmile_qr_scan", "android": "https://dc.lft.to/lastmile_qr_scan"}, "lon": -77.001993, "type": "electric_scooter", "fusion_lat": 0.0, "lat": 38.89982116666667, "name": "0845300e99b0c036c4c5de97f1d5d159", "fusion_lon": 0.0, "bike_id": "0845300e99b0c036c4c5de97f1d5d159", "is_disabled": 0, "is_reserved": 0}, {"rental_uris": {"ios": "https://dc.lft.to/lastmile_qr_scan", "android": "https://dc.lft.to/lastmile_qr_scan"}, "lon": -76.93229166666667, "type": "electric_bike", "fusion_lat": 0.0, "lat": 38.865947166666665, "name": "aa1886d35bdb7df98aac62d55b3f9e1b", "fusion_lon": 0.0, "bike_id": "aa1886d35bdb7df98aac62d55b3f9e1b", "is_disabled": 0, "is_reserved": 0}, {"rental_uris": {"ios": "https://dc.lft.to/lastmile_qr_scan", "android": "https://dc.lft.to/lastmile_qr_scan"}, "lon": -76.97292183333333, "type": "electric_scooter", "fusion_lat": 0.0, "lat": 38.9034235, "name": "947e2d3f42f69c76ecab395030b59439", "fusion_lon": 0.0, "bike_id": "947e2d3f42f69c76ecab395030b59439", "is_disabled": 0, "is_reserved": 0}, {"rental_uris": {"ios": "https://dc.lft.to/lastmile_qr_scan", "android": "https://dc.lft.to/lastmile_qr_scan"}, "lon": -76.94756266666667, "type": "electric_scooter", "fusion_lat": 0.0, "lat": 38.90056833333333, "name": "d11e8944e60af4d251c38fa7e58611a0", "fusion_lon": 0.0, "bike_id": "d11e8944e60af4d251c38fa7e58611a0", "is_disabled": 0, "is_reserved": 0}, {"rental_uris": {"ios": "https://dc.lft.to/lastmile_qr_scan", "android": "https://dc.lft.to/lastmile_qr_scan"}, "lon": -77.001939, "type": "electric_scooter", "fusion_lat": 0.0, "lat": 38.900381, "name": "5b42478a78d4265a03a9aa5c43716125", "fusion_lon": 0.0, "bike_id": "5b42478a78d4265a03a9aa5c43716125", "is_disabled": 0, "is_reserved": 0}, {"rental_uris": {"ios": "https://dc.lft.to/lastmile_qr_scan", "android": "https://dc.lft.to/lastmile_qr_scan"}, "lon": -77.06608083333333, "type": "electric_scooter", "fusion_lat": 0.0, "lat": 38.9057865, "name": "2335fc3d6e0c0ce0e22baeb599e1e443", "fusion_lon": 0.0, "bike_id": "2335fc3d6e0c0ce0e22baeb599e1e443", "is_disabled": 0, "is_reserved": 0}, {"rental_uris": {"ios": "https://dc.lft.to/lastmile_qr_scan", "android": "https://dc.lft.to/lastmile_qr_scan"}, "lon": -77.05474316666667, "type": "electric_scooter", "fusion_lat": 0.0, "lat": 38.893905833333335, "name": "607df81dd6623f82741ea629f0590d59", "fusion_lon": 0.0, "bike_id": "607df81dd6623f82741ea629f0590d59", "is_disabled": 0, "is_reserved": 0}, {"rental_uris": {"ios": "https://dc.lft.to/lastmile_qr_scan", "android": "https://dc.lft.to/lastmile_qr_scan"}, "lon": -76.98373516666666, "type": "electric_scooter", "fusion_lat": 0.0, "lat": 38.895537, "name": "bb7b3e7b6e03b721f2187071f586b5d2", "fusion_lon": 0.0, "bike_id": "bb7b3e7b6e03b721f2187071f586b5d2", "is_disabled": 0, "is_reserved": 0}, {"rental_uris": {"ios": "https://dc.lft.to/lastmile_qr_scan", "android": "https://dc.lft.to/lastmile_qr_scan"}, "lon": -77.03492616666666, "type": "electric_scooter", "fusion_lat": 0.0, "lat": 38.90246483333333, "name": "b4fee709fc7d55c7eefb6469d48bdc3a", "fusion_lon": 0.0, "bike_id": "b4fee709fc7d55c7eefb6469d48bdc3a", "is_disabled": 0, "is_reserved": 0}, {"rental_uris": {"ios": "https://dc.lft.to/lastmile_qr_scan", "android": "https://dc.lft.to/lastmile_qr_scan"}, "lon": -77.031776, "type": "electric_scooter", "fusion_lat": 0.0, "lat": 38.8995765, "name": "c615b9f3f0ee6e67a86928bcc37bb7bc", "fusion_lon": 0.0, "bike_id": "c615b9f3f0ee6e67a86928bcc37bb7bc", "is_disabled": 0, "is_reserved": 0}, {"rental_uris": {"ios": "https://dc.lft.to/lastmile_qr_scan", "android": "https://dc.lft.to/lastmile_qr_scan"}, "lon": -77.03320033333334, "type": "electric_scooter", "fusion_lat": 0.0, "lat": 38.9216535, "name": "55077325515d872132b42bc5987a0a56", "fusion_lon": 0.0, "bike_id": "55077325515d872132b42bc5987a0a56", "is_disabled": 0, "is_reserved": 0}, {"rental_uris": {"ios": "https://dc.lft.to/lastmile_qr_scan", "android": "https://dc.lft.to/lastmile_qr_scan"}, "lon": -77.00231416666666, "type": "electric_scooter", "fusion_lat": 0.0, "lat": 38.90558716666666, "name": "95454267381bb942b2d8b9ac8faa307c", "fusion_lon": 0.0, "bike_id": "95454267381bb942b2d8b9ac8faa307c", "is_disabled": 0, "is_reserved": 0}, {"rental_uris": {"ios": "https://dc.lft.to/lastmile_qr_scan", "android": "https://dc.lft.to/lastmile_qr_scan"}, "lon": -76.98410166666666, "type": "electric_scooter", "fusion_lat": 0.0, "lat": 38.913971, "name": "cfb38329acb63f0eb0f4a94e40763736", "fusion_lon": 0.0, "bike_id": "cfb38329acb63f0eb0f4a94e40763736", "is_disabled": 0, "is_reserved": 0}, {"rental_uris": {"ios": "https://dc.lft.to/lastmile_qr_scan", "android": "https://dc.lft.to/lastmile_qr_scan"}, "lon": -77.11426566666667, "type": "electric_bike", "fusion_lat": 0.0, "lat": 38.85248716666667, "name": "cc8504faa25616ef0888f72d627e71da", "fusion_lon": 0.0, "bike_id": "cc8504faa25616ef0888f72d627e71da", "is_disabled": 0, "is_reserved": 0}, {"rental_uris": {"ios": "https://dc.lft.to/lastmile_qr_scan", "android": "https://dc.lft.to/lastmile_qr_scan"}, "lon": -77.02693966666666, "type": "electric_scooter", "fusion_lat": 0.0, "lat": 38.908463166666664, "name": "424edb308fc4c33f138a4bb36961f001", "fusion_lon": 0.0, "bike_id": "424edb308fc4c33f138a4bb36961f001", "is_disabled": 0, "is_reserved": 0}, {"rental_uris": {"ios": "https://dc.lft.to/lastmile_qr_scan", "android": "https://dc.lft.to/lastmile_qr_scan"}, "lon": -76.99380183333334, "type": "electric_scooter", "fusion_lat": 0.0, "lat": 38.88725316666667, "name": "2e0abe241752a815363d38cf2ab56a6c", "fusion_lon": 0.0, "bike_id": "2e0abe241752a815363d38cf2ab56a6c", "is_disabled": 0, "is_reserved": 0}, {"rental_uris": {"ios": "https://dc.lft.to/lastmile_qr_scan", "android": "https://dc.lft.to/lastmile_qr_scan"}, "lon": -77.03631183333333, "type": "electric_scooter", "fusion_lat": 0.0, "lat": 38.918158166666664, "name": "7921e57e06ae0fe40e988ce93af3eee1", "fusion_lon": 0.0, "bike_id": "7921e57e06ae0fe40e988ce93af3eee1", "is_disabled": 0, "is_reserved": 0}, {"rental_uris": {"ios": "https://dc.lft.to/lastmile_qr_scan", "android": "https://dc.lft.to/lastmile_qr_scan"}, "lon": -77.0030465, "type": "electric_scooter", "fusion_lat": 0.0, "lat": 38.909363666666664, "name": "c1eb1d8a213db9313a811e04d8361e64", "fusion_lon": 0.0, "bike_id": "c1eb1d8a213db9313a811e04d8361e64", "is_disabled": 0, "is_reserved": 0}, {"rental_uris": {"ios": "https://dc.lft.to/lastmile_qr_scan", "android": "https://dc.lft.to/lastmile_qr_scan"}, "lon": -76.96786083333333, "type": "electric_scooter", "fusion_lat": 0.0, "lat": 38.86139466666667, "name": "2872d17810a8e5d1d45adf82ec2860f9", "fusion_lon": 0.0, "bike_id": "2872d17810a8e5d1d45adf82ec2860f9", "is_disabled": 0, "is_reserved": 0}, {"rental_uris": {"ios": "https://dc.lft.to/lastmile_qr_scan", "android": "https://dc.lft.to/lastmile_qr_scan"}, "lon": -77.07490066666666, "type": "electric_scooter", "fusion_lat": 0.0, "lat": 38.914916, "name": "19478531bdac9aa86dfe5907f98a39de", "fusion_lon": 0.0, "bike_id": "19478531bdac9aa86dfe5907f98a39de", "is_disabled": 0, "is_reserved": 0}, {"rental_uris": {"ios": "https://dc.lft.to/lastmile_qr_scan", "android": "https://dc.lft.to/lastmile_qr_scan"}, "lon": -77.05023033333333, "type": "electric_scooter", "fusion_lat": 0.0, "lat": 38.8965995, "name": "689f5338e4421bcae550e132ed215af7", "fusion_lon": 0.0, "bike_id": "689f5338e4421bcae550e132ed215af7", "is_disabled": 0, "is_reserved": 0}, {"rental_uris": {"ios": "https://dc.lft.to/lastmile_qr_scan", "android": "https://dc.lft.to/lastmile_qr_scan"}, "lon": -77.007951, "type": "electric_bike", "fusion_lat": 0.0, "lat": 38.949178, "name": "58b796efa654a1ad46dcc8fcb4c84334", "fusion_lon": 0.0, "bike_id": "58b796efa654a1ad46dcc8fcb4c84334", "is_disabled": 0, "is_reserved": 0}, {"rental_uris": {"ios": "https://dc.lft.to/lastmile_qr_scan", "android": "https://dc.lft.to/lastmile_qr_scan"}, "lon": -77.03214016666666, "type": "electric_scooter", "fusion_lat": 0.0, "lat": 38.9076205, "name": "ce3d996e4b1323807b227c89ad7f5207", "fusion_lon": 0.0, "bike_id": "ce3d996e4b1323807b227c89ad7f5207", "is_disabled": 0, "is_reserved": 0}, {"rental_uris": {"ios": "https://dc.lft.to/lastmile_qr_scan", "android": "https://dc.lft.to/lastmile_qr_scan"}, "lon": -77.12626866666666, "type": "electric_bike", "fusion_lat": 0.0, "lat": 39.05812566666667, "name": "0527e927826fd3df3075569ecb0924e3", "fusion_lon": 0.0, "bike_id": "0527e927826fd3df3075569ecb0924e3", "is_disabled": 0, "is_reserved": 0}, {"rental_uris": {"ios": "https://dc.lft.to/lastmile_qr_scan", "android": "https://dc.lft.to/lastmile_qr_scan"}, "lon": -77.01398866666666, "type": "electric_scooter", "fusion_lat": 0.0, "lat": 38.928588833333336, "name": "56a188ac3310ae87fc1682d2c12bd900", "fusion_lon": 0.0, "bike_id": "56a188ac3310ae87fc1682d2c12bd900", "is_disabled": 0, "is_reserved": 0}, {"rental_uris": {"ios": "https://dc.lft.to/lastmile_qr_scan", "android": "https://dc.lft.to/lastmile_qr_scan"}, "lon": -76.97826033333334, "type": "electric_bike", "fusion_lat": 0.0, "lat": 38.846092, "name": "65d79f4e548eddae93217481bfa1f901", "fusion_lon": 0.0, "bike_id": "65d79f4e548eddae93217481bfa1f901", "is_disabled": 0, "is_reserved": 0}, {"rental_uris": {"ios": "https://dc.lft.to/lastmile_qr_scan", "android": "https://dc.lft.to/lastmile_qr_scan"}, "lon": -77.039205, "type": "electric_scooter", "fusion_lat": 0.0, "lat": 38.92102366666667, "name": "b46438ef35a63fc335032ec3c59a49f9", "fusion_lon": 0.0, "bike_id": "b46438ef35a63fc335032ec3c59a49f9", "is_disabled": 0, "is_reserved": 0}, {"rental_uris": {"ios": "https://dc.lft.to/lastmile_qr_scan", "android": "https://dc.lft.to/lastmile_qr_scan"}, "lon": -77.17850516666667, "type": "electric_bike", "fusion_lat": 0.0, "lat": 39.089015333333336, "name": "e5cd9c250f2610c002d66e5e19f1de14", "fusion_lon": 0.0, "bike_id": "e5cd9c250f2610c002d66e5e19f1de14", "is_disabled": 0, "is_reserved": 0}, {"rental_uris": {"ios": "https://dc.lft.to/lastmile_qr_scan", "android": "https://dc.lft.to/lastmile_qr_scan"}, "lon": -77.04161, "type": "electric_scooter", "fusion_lat": 0.0, "lat": 38.91487566666667, "name": "8bdd108dae7435abd524c92f93aeb6e1", "fusion_lon": 0.0, "bike_id": "8bdd108dae7435abd524c92f93aeb6e1", "is_disabled": 0, "is_reserved": 0}, {"rental_uris": {"ios": "https://dc.lft.to/lastmile_qr_scan", "android": "https://dc.lft.to/lastmile_qr_scan"}, "lon": -77.04492366666666, "type": "electric_scooter", "fusion_lat": 0.0, "lat": 38.90860766666667, "name": "fe7cc267b4b9ef243f130fcb849a2f8f", "fusion_lon": 0.0, "bike_id": "fe7cc267b4b9ef243f130fcb849a2f8f", "is_disabled": 0, "is_reserved": 0}, {"rental_uris": {"ios": "https://dc.lft.to/lastmile_qr_scan", "android": "https://dc.lft.to/lastmile_qr_scan"}, "lon": -77.04119783333333, "type": "electric_scooter", "fusion_lat": 0.0, "lat": 38.8999915, "name": "9421c4296bca8694704dfcfb0e161f71", "fusion_lon": 0.0, "bike_id": "9421c4296bca8694704dfcfb0e161f71", "is_disabled": 0, "is_reserved": 0}, {"rental_uris": {"ios": "https://dc.lft.to/lastmile_qr_scan", "android": "https://dc.lft.to/lastmile_qr_scan"}, "lon": -76.95751666666666, "type": "electric_scooter", "fusion_lat": 0.0, "lat": 38.88435916666667, "name": "e8a6ffda7fabf564e9384b98cdb2bde9", "fusion_lon": 0.0, "bike_id": "e8a6ffda7fabf564e9384b98cdb2bde9", "is_disabled": 0, "is_reserved": 0}, {"rental_uris": {"ios": "https://dc.lft.to/lastmile_qr_scan", "android": "https://dc.lft.to/lastmile_qr_scan"}, "lon": -77.12506766666667, "type": "electric_bike", "fusion_lat": 0.0, "lat": 39.02421866666667, "name": "d76ee471718d4ba444e57d2b33499480", "fusion_lon": 0.0, "bike_id": "d76ee471718d4ba444e57d2b33499480", "is_disabled": 0, "is_reserved": 0}, {"rental_uris": {"ios": "https://dc.lft.to/lastmile_qr_scan", "android": "https://dc.lft.to/lastmile_qr_scan"}, "lon": -77.03294016666666, "type": "electric_scooter", "fusion_lat": 0.0, "lat": 38.9348575, "name": "8e757b6846b1ad1b09e08bbd49effff5", "fusion_lon": 0.0, "bike_id": "8e757b6846b1ad1b09e08bbd49effff5", "is_disabled": 0, "is_reserved": 0}, {"rental_uris": {"ios": "https://dc.lft.to/lastmile_qr_scan", "android": "https://dc.lft.to/lastmile_qr_scan"}, "lon": -77.01974266666667, "type": "electric_bike", "fusion_lat": 0.0, "lat": 38.878401, "name": "4f5e187db8114b9a6952b461095fa93f", "fusion_lon": 0.0, "bike_id": "4f5e187db8114b9a6952b461095fa93f", "is_disabled": 0, "is_reserved": 0}, {"rental_uris": {"ios": "https://dc.lft.to/lastmile_qr_scan", "android": "https://dc.lft.to/lastmile_qr_scan"}, "lon": -77.05215383333334, "type": "electric_scooter", "fusion_lat": 0.0, "lat": 38.92594866666666, "name": "eabbe45515307b39be81875f346fc770", "fusion_lon": 0.0, "bike_id": "eabbe45515307b39be81875f346fc770", "is_disabled": 0, "is_reserved": 0}, {"rental_uris": {"ios": "https://dc.lft.to/lastmile_qr_scan", "android": "https://dc.lft.to/lastmile_qr_scan"}, "lon": -77.03400883333333, "type": "electric_scooter", "fusion_lat": 0.0, "lat": 38.922702666666666, "name": "908397f4593ed6bfeca2fb13941b228f", "fusion_lon": 0.0, "bike_id": "908397f4593ed6bfeca2fb13941b228f", "is_disabled": 0, "is_reserved": 0}, {"rental_uris": {"ios": "https://dc.lft.to/lastmile_qr_scan", "android": "https://dc.lft.to/lastmile_qr_scan"}, "lon": -77.054979, "type": "electric_scooter", "fusion_lat": 0.0, "lat": 38.92978633333333, "name": "26b9cb362eb1311b6a98f56ccc971a0b", "fusion_lon": 0.0, "bike_id": "26b9cb362eb1311b6a98f56ccc971a0b", "is_disabled": 0, "is_reserved": 0}, {"rental_uris": {"ios": "https://dc.lft.to/lastmile_qr_scan", "android": "https://dc.lft.to/lastmile_qr_scan"}, "lon": -76.98977683333334, "type": "electric_scooter", "fusion_lat": 0.0, "lat": 38.859181666666665, "name": "4ff0330c208a39dea330efa97e1aa67b", "fusion_lon": 0.0, "bike_id": "4ff0330c208a39dea330efa97e1aa67b", "is_disabled": 0, "is_reserved": 0}, {"rental_uris": {"ios": "https://dc.lft.to/lastmile_qr_scan", "android": "https://dc.lft.to/lastmile_qr_scan"}, "lon": -77.02175683333333, "type": "electric_scooter", "fusion_lat": 0.0, "lat": 38.942877333333335, "name": "7aaffe053ab5aa5f42b65271fb542784", "fusion_lon": 0.0, "bike_id": "7aaffe053ab5aa5f42b65271fb542784", "is_disabled": 0, "is_reserved": 0}, {"rental_uris": {"ios": "https://dc.lft.to/lastmile_qr_scan", "android": "https://dc.lft.to/lastmile_qr_scan"}, "lon": -77.00280416666666, "type": "electric_scooter", "fusion_lat": 0.0, "lat": 38.89237766666667, "name": "dc571b3e5a5df5b2be73bd71a085bf09", "fusion_lon": 0.0, "bike_id": "dc571b3e5a5df5b2be73bd71a085bf09", "is_disabled": 0, "is_reserved": 0}, {"rental_uris": {"ios": "https://dc.lft.to/lastmile_qr_scan", "android": "https://dc.lft.to/lastmile_qr_scan"}, "lon": -76.94997583333334, "type": "electric_scooter", "fusion_lat": 0.0, "lat": 38.89372066666667, "name": "a0f1e9f8761234886b5edbc7991d1eea", "fusion_lon": 0.0, "bike_id": "a0f1e9f8761234886b5edbc7991d1eea", "is_disabled": 0, "is_reserved": 0}, {"rental_uris": {"ios": "https://dc.lft.to/lastmile_qr_scan", "android": "https://dc.lft.to/lastmile_qr_scan"}, "lon": -77.02533533333333, "type": "electric_scooter", "fusion_lat": 0.0, "lat": 38.94306866666667, "name": "f76b69de5d8c7be81f41d17dd9b22172", "fusion_lon": 0.0, "bike_id": "f76b69de5d8c7be81f41d17dd9b22172", "is_disabled": 0, "is_reserved": 0}, {"rental_uris": {"ios": "https://dc.lft.to/lastmile_qr_scan", "android": "https://dc.lft.to/lastmile_qr_scan"}, "lon": -77.03648683333333, "type": "electric_scooter", "fusion_lat": 0.0, "lat": 38.9026965, "name": "f990e62122d4b7633a4b168a371104e0", "fusion_lon": 0.0, "bike_id": "f990e62122d4b7633a4b168a371104e0", "is_disabled": 0, "is_reserved": 0}, {"rental_uris": {"ios": "https://dc.lft.to/lastmile_qr_scan", "android": "https://dc.lft.to/lastmile_qr_scan"}, "lon": -76.94888333333333, "type": "electric_scooter", "fusion_lat": 0.0, "lat": 38.89536983333333, "name": "843ac119d4852302dae9f4c48d5e7f70", "fusion_lon": 0.0, "bike_id": "843ac119d4852302dae9f4c48d5e7f70", "is_disabled": 0, "is_reserved": 0}, {"rental_uris": {"ios": "https://dc.lft.to/lastmile_qr_scan", "android": "https://dc.lft.to/lastmile_qr_scan"}, "lon": -77.027889, "type": "electric_scooter", "fusion_lat": 0.0, "lat": 38.9172505, "name": "964d114f987bd0794745f144d69692ca", "fusion_lon": 0.0, "bike_id": "964d114f987bd0794745f144d69692ca", "is_disabled": 0, "is_reserved": 0}, {"rental_uris": {"ios": "https://dc.lft.to/lastmile_qr_scan", "android": "https://dc.lft.to/lastmile_qr_scan"}, "lon": -77.00481833333333, "type": "electric_scooter", "fusion_lat": 0.0, "lat": 38.944049166666666, "name": "7e5a40c45d1ce091a974a58a47a8530c", "fusion_lon": 0.0, "bike_id": "7e5a40c45d1ce091a974a58a47a8530c", "is_disabled": 0, "is_reserved": 0}, {"rental_uris": {"ios": "https://dc.lft.to/lastmile_qr_scan", "android": "https://dc.lft.to/lastmile_qr_scan"}, "lon": -77.0380835, "type": "electric_scooter", "fusion_lat": 0.0, "lat": 38.933981, "name": "104f733020d7473426a4403b6666044f", "fusion_lon": 0.0, "bike_id": "104f733020d7473426a4403b6666044f", "is_disabled": 0, "is_reserved": 0}, {"rental_uris": {"ios": "https://dc.lft.to/lastmile_qr_scan", "android": "https://dc.lft.to/lastmile_qr_scan"}, "lon": -77.06042633333334, "type": "electric_scooter", "fusion_lat": 0.0, "lat": 38.93911083333333, "name": "2777a9ef7b933ded9d840d5b5d0abb18", "fusion_lon": 0.0, "bike_id": "2777a9ef7b933ded9d840d5b5d0abb18", "is_disabled": 0, "is_reserved": 0}, {"rental_uris": {"ios": "https://dc.lft.to/lastmile_qr_scan", "android": "https://dc.lft.to/lastmile_qr_scan"}, "lon": -77.05862683333334, "type": "electric_scooter", "fusion_lat": 0.0, "lat": 38.93607683333333, "name": "c642f6a90d3a4b3c4530077ad7515af7", "fusion_lon": 0.0, "bike_id": "c642f6a90d3a4b3c4530077ad7515af7", "is_disabled": 0, "is_reserved": 0}, {"rental_uris": {"ios": "https://dc.lft.to/lastmile_qr_scan", "android": "https://dc.lft.to/lastmile_qr_scan"}, "lon": -77.03583783333333, "type": "electric_scooter", "fusion_lat": 0.0, "lat": 38.93239583333333, "name": "bb5cc507e7121bddf0daf9b101105b6d", "fusion_lon": 0.0, "bike_id": "bb5cc507e7121bddf0daf9b101105b6d", "is_disabled": 0, "is_reserved": 0}, {"rental_uris": {"ios": "https://dc.lft.to/lastmile_qr_scan", "android": "https://dc.lft.to/lastmile_qr_scan"}, "lon": -77.06333566666666, "type": "electric_bike", "fusion_lat": 0.0, "lat": 38.92109383333333, "name": "37772d851939437d9ede9f7d45f9587e", "fusion_lon": 0.0, "bike_id": "37772d851939437d9ede9f7d45f9587e", "is_disabled": 0, "is_reserved": 0}, {"rental_uris": {"ios": "https://dc.lft.to/lastmile_qr_scan", "android": "https://dc.lft.to/lastmile_qr_scan"}, "lon": -76.94629466666666, "type": "electric_scooter", "fusion_lat": 0.0, "lat": 38.898488, "name": "409c5960d89f15ae43c6851d032fde8a", "fusion_lon": 0.0, "bike_id": "409c5960d89f15ae43c6851d032fde8a", "is_disabled": 0, "is_reserved": 0}, {"rental_uris": {"ios": "https://dc.lft.to/lastmile_qr_scan", "android": "https://dc.lft.to/lastmile_qr_scan"}, "lon": -77.0321855, "type": "electric_scooter", "fusion_lat": 0.0, "lat": 38.91690933333334, "name": "fe2f6825803b4a53915586d10b6e7dbb", "fusion_lon": 0.0, "bike_id": "fe2f6825803b4a53915586d10b6e7dbb", "is_disabled": 0, "is_reserved": 0},