{"data": {"bikes": [{"type": "electric_scooter", "rental_uris": {"ios": "https://dc.lft.to/lastmile_qr_scan", "android": "https://dc.lft.to/lastmile_qr_scan"}, "lon": -76.94652116666667, "fusion_lon": 0.0, "is_disabled": 0, "lat": 38.898268, "bike_id": "5a6c5061adf4a240a248ec8ef551f9f3", "name": "5a6c5061adf4a240a248ec8ef551f9f3", "is_reserved": 0, "fusion_lat": 0.0}, {"type": "electric_scooter", "rental_uris": {"ios": "https://dc.lft.to/lastmile_qr_scan", "android": "https://dc.lft.to/lastmile_qr_scan"}, "lon": -77.03177783333334, "fusion_lon": 0.0, "is_disabled": 0, "lat": 38.918602, "bike_id": "7ea2eb5782fb705527c3c92daf57d9c3", "name": "7ea2eb5782fb705527c3c92daf57d9c3", "is_reserved": 0, "fusion_lat": 0.0}, {"type": "electric_scooter", "rental_uris": {"ios": "https://dc.lft.to/lastmile_qr_scan", "android": "https://dc.lft.to/lastmile_qr_scan"}, "lon": -77.02613, "fusion_lon": 0.0, "is_disabled": 0, "lat": 38.90171316666667, "bike_id": "6e38519bfaad476ba825e40f8d649ff5", "name": "6e38519bfaad476ba825e40f8d649ff5", "is_reserved": 0, "fusion_lat": 0.0}, {"type": "electric_scooter", "rental_uris": {"ios": "https://dc.lft.to/lastmile_qr_scan", "android": "https://dc.lft.to/lastmile_qr_scan"}, "lon": -77.01536216666666, "fusion_lon": 0.0, "is_disabled": 0, "lat": 38.8874105, "bike_id": "3691abf35636d4f09cafc4a5a636bf82", "name": "3691abf35636d4f09cafc4a5a636bf82", "is_reserved": 0, "fusion_lat": 0.0}, {"type": "electric_scooter", "rental_uris": {"ios": "https://dc.lft.to/lastmile_qr_scan", "android": "https://dc.lft.to/lastmile_qr_scan"}, "lon": -77.036376, "fusion_lon": 0.0, "is_disabled": 0, "lat": 38.91766883333333, "bike_id": "8e870b3def97ef1913a2ad12b5b23cb2", "name": "8e870b3def97ef1913a2ad12b5b23cb2", "is_reserved": 0, "fusion_lat": 0.0}, {"type": "electric_scooter", "rental_uris": {"ios": "https://dc.lft.to/lastmile_qr_scan", "android": "https://dc.lft.to/lastmile_qr_scan"}, "lon": -77.0455735, "fusion_lon": 0.0, "is_disabled": 0, "lat": 38.9192905, "bike_id": "6f9165dba7736917485c2d0729302fd1", "name": "6f9165dba7736917485c2d0729302fd1", "is_reserved": 0, "fusion_lat": 0.0}, {"type": "electric_scooter", "rental_uris": {"ios": "https://dc.lft.to/lastmile_qr_scan", "android": "https://dc.lft.to/lastmile_qr_scan"}, "lon": -77.04397883333333, "fusion_lon": 0.0, "is_disabled": 0, "lat": 38.902767833333336, "bike_id": "7757bceb1f0b81f94f701aa69c585b05", "name": "7757bceb1f0b81f94f701aa69c585b05", "is_reserved": 0, "fusion_lat": 0.0}, {"type": "electric_scooter", "rental_uris": {"ios": "https://dc.lft.to/lastmile_qr_scan", "android": "https://dc.lft.to/lastmile_qr_scan"}, "lon": -76.98526616666666, "fusion_lon": 0.0, "is_disabled": 0, "lat": 38.86686666666667, "bike_id": "559c76ef7bd8e44848b0f88d597e5342", "name": "559c76ef7bd8e44848b0f88d597e5342", "is_reserved": 0, "fusion_lat": 0.0}, {"type": "electric_scooter", "rental_uris": {"ios": "https://dc.lft.to/lastmile_qr_scan", "android": "https://dc.lft.to/lastmile_qr_scan"}, "lon": -77.03531766666667, "fusion_lon": 0.0, "is_disabled": 0, "lat": 38.92539433333334, "bike_id": "d30ce2c51edb68354e4b904fb9948c51", "name": "d30ce2c51edb68354e4b904fb9948c51", "is_reserved": 0, "fusion_lat": 0.0}, {"type": "electric_scooter", "rental_uris": {"ios": "https://dc.lft.to/lastmile_qr_scan", "android": "https://dc.lft.to/lastmile_qr_scan"}, "lon": -77.0220645, "fusion_lon": 0.0, "is_disabled": 0, "lat": 38.915472666666666, "bike_id": "8cc32a88d283f3e3e592c796dec057f6", "name": "8cc32a88d283f3e3e592c796dec057f6", "is_reserved": 0, "fusion_lat": 0.0}, {"type": "electric_bike", "rental_uris": {"ios": "https://dc.lft.to/lastmile_qr_scan", "android": "https://dc.lft.to/lastmile_qr_scan"}, "lon": -77.12529383333333, "fusion_lon": 0.0, "is_disabled": 0, "lat": 39.056379, "bike_id": "f1824e21cba251e580bdf657774d8d3a", "name": "f1824e21cba251e580bdf657774d8d3a", "is_reserved": 0, "fusion_lat": 0.0}, {"type": "electric_scooter", "rental_uris": {"ios": "https://dc.lft.to/lastmile_qr_scan", "android": "https://dc.lft.to/lastmile_qr_scan"}, "lon": -77.03791833333334, "fusion_lon": 0.0, "is_disabled": 0, "lat": 38.911178166666666, "bike_id": "8927dc03d341d4bfb699508644efa786", "name": "8927dc03d341d4bfb699508644efa786", "is_reserved": 0, "fusion_lat": 0.0}, {"type": "electric_scooter", "rental_uris": {"ios": "https://dc.lft.to/lastmile_qr_scan", "android": "https://dc.lft.to/lastmile_qr_scan"}, "lon": -77.02225733333333, "fusion_lon": 0.0, "is_disabled": 0, "lat": 38.89226416666666, "bike_id": "04b368c36d518ee95da20feb5a0f619e", "name": "04b368c36d518ee95da20feb5a0f619e", "is_reserved": 0, "fusion_lat": 0.0}, {"type": "electric_scooter", "rental_uris": {"ios": "https://dc.lft.to/lastmile_qr_scan", "android": "https://dc.lft.to/lastmile_qr_scan"}, "lon": -76.9839415, "fusion_lon": 0.0, "is_disabled": 0, "lat": 38.88087983333333, "bike_id": "f19e4ca334ccfe973f4e383e2844a7c6", "name": "f19e4ca334ccfe973f4e383e2844a7c6", "is_reserved": 0, "fusion_lat": 0.0}, {"type": "electric_scooter", "rental_uris": {"ios": "https://dc.lft.to/lastmile_qr_scan", "android": "https://dc.lft.to/lastmile_qr_scan"}, "lon": -77.01177716666666, "fusion_lon": 0.0, "is_disabled": 0, "lat": 38.915672, "bike_id": "aa5717521e800b535ad7be2c143e3897", "name": "aa5717521e800b535ad7be2c143e3897", "is_reserved": 0, "fusion_lat": 0.0}, {"type": "electric_scooter", "rental_uris": {"ios": "https://dc.lft.to/lastmile_qr_scan", "android": "https://dc.lft.to/lastmile_qr_scan"}, "lon": -77.02194983333334, "fusion_lon": 0.0, "is_disabled": 0, "lat": 38.93297183333333, "bike_id": "f6172ea7a4660750671f5d0da1c4b0ef", "name": "f6172ea7a4660750671f5d0da1c4b0ef", "is_reserved": 0, "fusion_lat": 0.0}, {"type": "electric_scooter", "rental_uris": {"ios": "https://dc.lft.to/lastmile_qr_scan", "android": "https://dc.lft.to/lastmile_qr_scan"}, "lon": -77.03763483333333, "fusion_lon": 0.0, "is_disabled": 0, "lat": 38.916913666666666, "bike_id": "b6ef20d8dcc410f6cfa83af078448920", "name": "b6ef20d8dcc410f6cfa83af078448920", "is_reserved": 0, "fusion_lat": 0.0}, {"type": "electric_scooter", "rental_uris": {"ios": "https://dc.lft.to/lastmile_qr_scan", "android": "https://dc.lft.to/lastmile_qr_scan"}, "lon": -77.03763616666667, "fusion_lon": 0.0, "is_disabled": 0, "lat": 38.911214666666666, "bike_id": "d69cabc7b26bb40f052d65e4fc41d0f6", "name": "d69cabc7b26bb40f052d65e4fc41d0f6", "is_reserved": 0, "fusion_lat": 0.0}, {"type": "electric_scooter", "rental_uris": {"ios": "https://dc.lft.to/lastmile_qr_scan", "android": "https://dc.lft.to/lastmile_qr_scan"}, "lon": -77.01364083333333, "fusion_lon": 0.0, "is_disabled": 0, "lat": 38.892328, "bike_id": "35e8b9e4ed85cba60bfa220e841ea612", "name": "35e8b9e4ed85cba60bfa220e841ea612", "is_reserved": 0, "fusion_lat": 0.0}, {"type": "electric_scooter", "rental_uris": {"ios": "https://dc.lft.to/lastmile_qr_scan", "android": "https://dc.lft.to/lastmile_qr_scan"}, "lon": -77.022029, "fusion_lon": 0.0, "is_disabled": 0, "lat": 38.9148845, "bike_id": "28372155c0a92133982b8a70594b0b3d", "name": "28372155c0a92133982b8a70594b0b3d", "is_reserved": 0, "fusion_lat": 0.0}, {"type": "electric_scooter", "rental_uris": {"ios": "https://dc.lft.to/lastmile_qr_scan", "android": "https://dc.lft.to/lastmile_qr_scan"}, "lon": -77.01541233333333, "fusion_lon": 0.0, "is_disabled": 0, "lat": 38.891678, "bike_id": "1866c83f004f5024f2bc5657c45f6ba0", "name": "1866c83f004f5024f2bc5657c45f6ba0", "is_reserved": 0, "fusion_lat": 0.0}, {"type": "electric_scooter", "rental_uris": {"ios": "https://dc.lft.to/lastmile_qr_scan", "android": "https://dc.lft.to/lastmile_qr_scan"}, "lon": -76.98984483333334, "fusion_lon": 0.0, "is_disabled": 0, "lat": 38.86500266666667, "bike_id": "ff524d74fd32c766dc8a445b82579ba5", "name": "ff524d74fd32c766dc8a445b82579ba5", "is_reserved": 0, "fusion_lat": 0.0}, {"type": "electric_scooter", "rental_uris": {"ios": "https://dc.lft.to/lastmile_qr_scan", "android": "https://dc.lft.to/lastmile_qr_scan"}, "lon": -77.03696866666667, "fusion_lon": 0.0, "is_disabled": 0, "lat": 38.92835316666667, "bike_id": "96f0ca986ad7da0434fb54e576803384", "name": "96f0ca986ad7da0434fb54e576803384", "is_reserved": 0, "fusion_lat": 0.0}, {"type": "electric_scooter", "rental_uris": {"ios": "https://dc.lft.to/lastmile_qr_scan", "android": "https://dc.lft.to/lastmile_qr_scan"}, "lon": -77.05027733333333, "fusion_lon": 0.0, "is_disabled": 0, "lat": 38.923643166666665, "bike_id": "1b641eab278951cbf2b1c0162917e893", "name": "1b641eab278951cbf2b1c0162917e893", "is_reserved": 0, "fusion_lat": 0.0}, {"type": "electric_scooter", "rental_uris": {"ios": "https://dc.lft.to/lastmile_qr_scan", "android": "https://dc.lft.to/lastmile_qr_scan"}, "lon": -77.02537683333334, "fusion_lon": 0.0, "is_disabled": 0, "lat": 38.92373116666667, "bike_id": "776c9ad0f4e0c49fd3fef969487e3af3", "name": "776c9ad0f4e0c49fd3fef969487e3af3", "is_reserved": 0, "fusion_lat": 0.0}, {"type": "electric_scooter", "rental_uris": {"ios": "https://dc.lft.to/lastmile_qr_scan", "android": "https://dc.lft.to/lastmile_qr_scan"}, "lon": -77.0243215, "fusion_lon": 0.0, "is_disabled": 0, "lat": 38.95627566666667, "bike_id": "7d62383692834eb4be4c01156f50a7cf", "name": "7d62383692834eb4be4c01156f50a7cf", "is_reserved": 0, "fusion_lat": 0.0}, {"type": "electric_scooter", "rental_uris": {"ios": "https://dc.lft.to/lastmile_qr_scan", "android": "https://dc.lft.to/lastmile_qr_scan"}, "lon": -77.07303783333333, "fusion_lon": 0.0, "is_disabled": 0, "lat": 38.928849166666666, "bike_id": "ac5f69503067170938b6876c920dd7a0", "name": "ac5f69503067170938b6876c920dd7a0", "is_reserved": 0, "fusion_lat": 0.0}, {"type": "electric_scooter", "rental_uris": {"ios": "https://dc.lft.to/lastmile_qr_scan", "android": "https://dc.lft.to/lastmile_qr_scan"}, "lon": -77.0284175, "fusion_lon": 0.0, "is_disabled": 0, "lat": 38.91704816666667, "bike_id": "1dabd50ff562dcbaeddd99edfdb45d28", "name": "1dabd50ff562dcbaeddd99edfdb45d28", "is_reserved": 0, "fusion_lat": 0.0}, {"type": "electric_scooter", "rental_uris": {"ios": "https://dc.lft.to/lastmile_qr_scan", "android": "https://dc.lft.to/lastmile_qr_scan"}, "lon": -77.03751033333333, "fusion_lon": 0.0, "is_disabled": 0, "lat": 38.912566166666664, "bike_id": "53c9f11eb5eaff50ac9eeebc2701c0ec", "name": "53c9f11eb5eaff50ac9eeebc2701c0ec", "is_reserved": 0, "fusion_lat": 0.0}, {"type": "electric_scooter", "rental_uris": {"ios": "https://dc.lft.to/lastmile_qr_scan", "android": "https://dc.lft.to/lastmile_qr_scan"}, "lon": -77.02339066666667, "fusion_lon": 0.0, "is_disabled": 0, "lat": 38.91787033333333, "bike_id": "686cf6c8fa285c1722c47ed168b72d05", "name": "686cf6c8fa285c1722c47ed168b72d05", "is_reserved": 0, "fusion_lat": 0.0}, {"type": "electric_scooter", "rental_uris": {"ios": "https://dc.lft.to/lastmile_qr_scan", "android": "https://dc.lft.to/lastmile_qr_scan"}, "lon": -77.03184483333334, "fusion_lon": 0.0, "is_disabled": 0, "lat": 38.917451166666666, "bike_id": "ad7b9c269713e6060cadd701402ed175", "name": "ad7b9c269713e6060cadd701402ed175", "is_reserved": 0, "fusion_lat": 0.0}, {"type": "electric_scooter", "rental_uris": {"ios": "https://dc.lft.to/lastmile_qr_scan", "android": "https://dc.lft.to/lastmile_qr_scan"}, "lon": -76.9888535, "fusion_lon": 0.0, "is_disabled": 0, "lat": 38.866508, "bike_id": "5be37b3d3fb604c33b47f0383c86d2b7", "name": "5be37b3d3fb604c33b47f0383c86d2b7", "is_reserved": 0, "fusion_lat": 0.0}, {"type": "electric_scooter", "rental_uris": {"ios": "https://dc.lft.to/lastmile_qr_scan", "android": "https://dc.lft.to/lastmile_qr_scan"}, "lon": -77.04356966666667, "fusion_lon": 0.0, "is_disabled": 0, "lat": 38.91302866666667, "bike_id": "a4847ab0bb0788565fd436b8f9e05a1f", "name": "a4847ab0bb0788565fd436b8f9e05a1f", "is_reserved": 0, "fusion_lat": 0.0}, {"type": "electric_scooter", "rental_uris": {"ios": "https://dc.lft.to/lastmile_qr_scan", "android": "https://dc.lft.to/lastmile_qr_scan"}, "lon": -76.93354683333334, "fusion_lon": 0.0, "is_disabled": 0, "lat": 38.89895633333333, "bike_id": "006e1af42e583b931bc088261511c67d", "name": "006e1af42e583b931bc088261511c67d", "is_reserved": 0, "fusion_lat": 0.0}, {"type": "electric_scooter", "rental_uris": {"ios": "https://dc.lft.to/lastmile_qr_scan", "android": "https://dc.lft.to/lastmile_qr_scan"}, "lon": -77.0249565, "fusion_lon": 0.0, "is_disabled": 0, "lat": 38.918093, "bike_id": "e60b704be6ac1ed9ff561c1de292978b", "name": "e60b704be6ac1ed9ff561c1de292978b", "is_reserved": 0, "fusion_lat": 0.0}, {"type": "electric_scooter", "rental_uris": {"ios": "https://dc.lft.to/lastmile_qr_scan", "android": "https://dc.lft.to/lastmile_qr_scan"}, "lon": -77.03233833333333, "fusion_lon": 0.0, "is_disabled": 0, "lat": 38.92359016666666, "bike_id": "0c4486611d8f9f0a528525073d4bdd46", "name": "0c4486611d8f9f0a528525073d4bdd46", "is_reserved": 0, "fusion_lat": 0.0}, {"type": "electric_bike", "rental_uris": {"ios": "https://dc.lft.to/lastmile_qr_scan", "android": "https://dc.lft.to/lastmile_qr_scan"}, "lon": -76.96535483333334, "fusion_lon": 0.0, "is_disabled": 0, "lat": 38.87480683333333, "bike_id": "ce74cbdf689a5ba258f9d53fc8d07a78", "name": "ce74cbdf689a5ba258f9d53fc8d07a78", "is_reserved": 0, "fusion_lat": 0.0}, {"type": "electric_scooter", "rental_uris": {"ios": "https://dc.lft.to/lastmile_qr_scan", "android": "https://dc.lft.to/lastmile_qr_scan"}, "lon": -77.03286633333333, "fusion_lon": 0.0, "is_disabled": 0, "lat": 38.927467, "bike_id": "06179e5e76a151516a7964f0c46aee50", "name": "06179e5e76a151516a7964f0c46aee50", "is_reserved": 0, "fusion_lat": 0.0}, {"type": "electric_scooter", "rental_uris": {"ios": "https://dc.lft.to/lastmile_qr_scan", "android": "https://dc.lft.to/lastmile_qr_scan"}, "lon": -77.0503685, "fusion_lon": 0.0, "is_disabled": 0, "lat": 38.89277633333333, "bike_id": "f292f33f8efb39eae5ed138b3f0d67c7", "name": "f292f33f8efb39eae5ed138b3f0d67c7", "is_reserved": 0, "fusion_lat": 0.0}, {"type": "electric_scooter", "rental_uris": {"ios": "https://dc.lft.to/lastmile_qr_scan", "android": "https://dc.lft.to/lastmile_qr_scan"}, "lon": -77.02694133333334, "fusion_lon": 0.0, "is_disabled": 0, "lat": 38.906801333333334, "bike_id": "8f597892a98bcb4a23e5042b43da077d", "name": "8f597892a98bcb4a23e5042b43da077d", "is_reserved": 0, "fusion_lat": 0.0}, {"type": "electric_bike", "rental_uris": {"ios": "https://dc.lft.to/lastmile_qr_scan", "android": "https://dc.lft.to/lastmile_qr_scan"}, "lon": -77.03991383333333, "fusion_lon": 0.0, "is_disabled": 0, "lat": 38.93327433333333, "bike_id": "438eda835ab83023a1c595b3779c5d71", "name": "438eda835ab83023a1c595b3779c5d71", "is_reserved": 0, "fusion_lat": 0.0}, {"type": "electric_bike", "rental_uris": {"ios": "https://dc.lft.to/lastmile_qr_scan", "android": "https://dc.lft.to/lastmile_qr_scan"}, "lon": -77.17846033333333, "fusion_lon": 0.0, "is_disabled": 0, "lat": 39.08854083333333, "bike_id": "fb377d301a9d7852f82661fdea5dc8c8", "name": "fb377d301a9d7852f82661fdea5dc8c8", "is_reserved": 0, "fusion_lat": 0.0}, {"type": "electric_bike", "rental_uris": {"ios": "https://dc.lft.to/lastmile_qr_scan", "android": "https://dc.lft.to/lastmile_qr_scan"}, "lon": -77.01209166666666, "fusion_lon": 0.0, "is_disabled": 0, "lat": 38.8725455, "bike_id": "c443ab56052a6a7d23d8afb6939da641", "name": "c443ab56052a6a7d23d8afb6939da641", "is_reserved": 0, "fusion_lat": 0.0}, {"type": "electric_bike", "rental_uris": {"ios": "https://dc.lft.to/lastmile_qr_scan", "android": "https://dc.lft.to/lastmile_qr_scan"}, "lon": -77.222201, "fusion_lon": 0.0, "is_disabled": 0, "lat": 38.928529, "bike_id": "b347d7390f1d51f25704f8151eb76817", "name": "b347d7390f1d51f25704f8151eb76817", "is_reserved": 0, "fusion_lat": 0.0}, {"type": "electric_scooter", "rental_uris": {"ios": "https://dc.lft.to/lastmile_qr_scan", "android": "https://dc.lft.to/lastmile_qr_scan"}, "lon": -76.939897, "fusion_lon": 0.0, "is_disabled": 0, "lat": 38.899809833333336, "bike_id": "bdf3438dd3a7fb034460543f5abf3329", "name": "bdf3438dd3a7fb034460543f5abf3329", "is_reserved": 0, "fusion_lat": 0.0}, {"type": "electric_scooter", "rental_uris": {"ios": "https://dc.lft.to/lastmile_qr_scan", "android": "https://dc.lft.to/lastmile_qr_scan"}, "lon": -77.039727, "fusion_lon": 0.0, "is_disabled": 0, "lat": 38.89878433333333, "bike_id": "c3209e90a617ef393234652ebf033110", "name": "c3209e90a617ef393234652ebf033110", "is_reserved": 0, "fusion_lat": 0.0}, {"type": "electric_scooter", "rental_uris": {"ios": "https://dc.lft.to/lastmile_qr_scan", "android": "https://dc.lft.to/lastmile_qr_scan"}, "lon": -76.98616033333333, "fusion_lon": 0.0, "is_disabled": 0, "lat": 38.88002566666667, "bike_id": "4914836f53164fbabce0a6e7a6160505", "name": "4914836f53164fbabce0a6e7a6160505", "is_reserved": 0, "fusion_lat": 0.0}, {"type": "electric_scooter", "rental_uris": {"ios": "https://dc.lft.to/lastmile_qr_scan", "android": "https://dc.lft.to/lastmile_qr_scan"}, "lon": -77.04172066666666, "fusion_lon": 0.0, "is_disabled": 0, "lat": 38.91725516666666, "bike_id": "cb91392da281cb836e6a08f2d78e4afe", "name": "cb91392da281cb836e6a08f2d78e4afe", "is_reserved": 0, "fusion_lat": 0.0}, {"type": "electric_scooter", "rental_uris": {"ios": "https://dc.lft.to/lastmile_qr_scan", "android": "https://dc.lft.to/lastmile_qr_scan"}, "lon": -77.0135095, "fusion_lon": 0.0, "is_disabled": 0, "lat": 38.86421416666666, "bike_id": "a5b28261a508b64c385474a69b921aa7", "name": "a5b28261a508b64c385474a69b921aa7", "is_reserved": 0, "fusion_lat": 0.0}, {"type": "electric_scooter", "rental_uris": {"ios": "https://dc.lft.to/lastmile_qr_scan", "android": "https://dc.lft.to/lastmile_qr_scan"}, "lon": -77.00612383333333, "fusion_lon": 0.0, "is_disabled": 0, "lat": 38.87180683333333, "bike_id": "cf90eb2439243a4be0936b7fc9445711", "name": "cf90eb2439243a4be0936b7fc9445711", "is_reserved": 0, "fusion_lat": 0.0}, {"type": "electric_scooter", "rental_uris": {"ios": "https://dc.lft.to/lastmile_qr_scan", "android": "https://dc.lft.to/lastmile_qr_scan"}, "lon": -77.0416085, "fusion_lon": 0.0, "is_disabled": 0, "lat": 38.9160335, "bike_id": "a8837245f5ec3ce60f0c88d5a9cc85ef", "name": "a8837245f5ec3ce60f0c88d5a9cc85ef", "is_reserved": 0, "fusion_lat": 0.0}, {"type": "electric_scooter", "rental_uris": {"ios": "https://dc.lft.to/lastmile_qr_scan", "android": "https://dc.lft.to/lastmile_qr_scan"}, "lon": -77.03592066666667, "fusion_lon": 0.0, "is_disabled": 0, "lat": 38.937397833333335, "bike_id": "bebf982f4a04936aa0cd0970e90ffc98", "name": "bebf982f4a04936aa0cd0970e90ffc98", "is_reserved": 0, "fusion_lat": 0.0}, {"type": "electric_scooter", "rental_uris": {"ios": "https://dc.lft.to/lastmile_qr_scan", "android": "https://dc.lft.to/lastmile_qr_scan"}, "lon": -77.02185133333333, "fusion_lon": 0.0, "is_disabled": 0, "lat": 38.898837, "bike_id": "73b4e57d2f8919239757f2939b04115d", "name": "73b4e57d2f8919239757f2939b04115d", "is_reserved": 0, "fusion_lat": 0.0}, {"type": "electric_scooter", "rental_uris": {"ios": "https://dc.lft.to/lastmile_qr_scan", "android": "https://dc.lft.to/lastmile_qr_scan"}, "lon": -77.0215825, "fusion_lon": 0.0, "is_disabled": 0, "lat": 38.939717333333334, "bike_id": "4f3c45c56ac51a7d1c3a791ac5a45aac", "name": "4f3c45c56ac51a7d1c3a791ac5a45aac", "is_reserved": 0, "fusion_lat": 0.0}, {"type": "electric_scooter", "rental_uris": {"ios": "https://dc.lft.to/lastmile_qr_scan", "android": "https://dc.lft.to/lastmile_qr_scan"}, "lon": -77.02893033333334, "fusion_lon": 0.0, "is_disabled": 0, "lat": 38.90722066666667, "bike_id": "d2b5cf3a927fde1e65f95baffb6cb696", "name": "d2b5cf3a927fde1e65f95baffb6cb696", "is_reserved": 0, "fusion_lat": 0.0}, {"type": "electric_scooter", "rental_uris": {"ios": "https://dc.lft.to/lastmile_qr_scan", "android": "https://dc.lft.to/lastmile_qr_scan"}, "lon": -77.02102666666667, "fusion_lon": 0.0, "is_disabled": 0, "lat": 38.910807, "bike_id": "a4dfe48592294aa68758b32e87d81027", "name": "a4dfe48592294aa68758b32e87d81027", "is_reserved": 0, "fusion_lat": 0.0}, {"type": "electric_scooter", "rental_uris": {"ios": "https://dc.lft.to/lastmile_qr_scan", "android": "https://dc.lft.to/lastmile_qr_scan"}, "lon": -77.032182, "fusion_lon": 0.0, "is_disabled": 0, "lat": 38.89217166666667, "bike_id": "815fd39abf7d2ae38f8d5eace16753c8", "name": "815fd39abf7d2ae38f8d5eace16753c8", "is_reserved": 0, "fusion_lat": 0.0}, {"type": "electric_scooter", "rental_uris": {"ios": "https://dc.lft.to/lastmile_qr_scan", "android": "https://dc.lft.to/lastmile_qr_scan"}, "lon": -77.02853983333334, "fusion_lon": 0.0, "is_disabled": 0, "lat": 38.92572583333333, "bike_id": "acac50f115817fdc3031d237d5bbe0a1", "name": "acac50f115817fdc3031d237d5bbe0a1", "is_reserved": 0, "fusion_lat": 0.0}, {"type": "electric_scooter", "rental_uris": {"ios": "https://dc.lft.to/lastmile_qr_scan", "android": "https://dc.lft.to/lastmile_qr_scan"}, "lon": -77.003055, "fusion_lon": 0.0, "is_disabled": 0, "lat": 38.92478416666667, "bike_id": "55757981088c051248cedffb3d88dbf8", "name": "55757981088c051248cedffb3d88dbf8", "is_reserved": 0, "fusion_lat": 0.0}, {"type": "electric_scooter", "rental_uris": {"ios": "https://dc.lft.to/lastmile_qr_scan", "android": "https://dc.lft.to/lastmile_qr_scan"}, "lon": -76.95336816666666, "fusion_lon": 0.0, "is_disabled": 0, "lat": 38.89237416666667, "bike_id": "91c5b9154736f8e7591cc2cdd4b2481b", "name": "91c5b9154736f8e7591cc2cdd4b2481b", "is_reserved": 0, "fusion_lat": 0.0}, {"type": "electric_scooter", "rental_uris": {"ios": "https://dc.lft.to/lastmile_qr_scan", "android": "https://dc.lft.to/lastmile_qr_scan"}, "lon": -77.02291516666666, "fusion_lon": 0.0, "is_disabled": 0, "lat": 38.914409, "bike_id": "81e2c895b85281c2b62ec178d4fca888", "name": "81e2c895b85281c2b62ec178d4fca888", "is_reserved": 0, "fusion_lat": 0.0}, {"type": "electric_scooter", "rental_uris": {"ios": "https://dc.lft.to/lastmile_qr_scan", "android": "https://dc.lft.to/lastmile_qr_scan"}, "lon": -77.03660383333333, "fusion_lon": 0.0, "is_disabled": 0, "lat": 38.922505, "bike_id": "4df738037ef7dafe6b01b670f2fe8716", "name": "4df738037ef7dafe6b01b670f2fe8716", "is_reserved": 0, "fusion_lat": 0.0}, {"type": "electric_scooter", "rental_uris": {"ios": "https://dc.lft.to/lastmile_qr_scan", "android": "https://dc.lft.to/lastmile_qr_scan"}, "lon": -77.03897916666666, "fusion_lon": 0.0, "is_disabled": 0, "lat": 38.9065185, "bike_id": "cd023f3a9d8d9fbb2534d7dfcc6f1ddd", "name": "cd023f3a9d8d9fbb2534d7dfcc6f1ddd", "is_reserved": 0, "fusion_lat": 0.0}, {"type": "electric_scooter", "rental_uris": {"ios": "https://dc.lft.to/lastmile_qr_scan", "android": "https://dc.lft.to/lastmile_qr_scan"}, "lon": -77.045087, "fusion_lon": 0.0, "is_disabled": 0, "lat": 38.915889, "bike_id": "0ac77c8c54f0c7a2baa2ac889b37634f", "name": "0ac77c8c54f0c7a2baa2ac889b37634f", "is_reserved": 0, "fusion_lat": 0.0}, {"type": "electric_bike", "rental_uris": {"ios": "https://dc.lft.to/lastmile_qr_scan", "android": "https://dc.lft.to/lastmile_qr_scan"}, "lon": -77.02104116666666, "fusion_lon": 0.0, "is_disabled": 0, "lat": 38.93718033333333, "bike_id": "312e570392180606e19d61643a2c9a11", "name": "312e570392180606e19d61643a2c9a11", "is_reserved": 0, "fusion_lat": 0.0}, {"type": "electric_scooter", "rental_uris": {"ios": "https://dc.lft.to/lastmile_qr_scan", "android": "https://dc.lft.to/lastmile_qr_scan"}, "lon": -77.04477733333333, "fusion_lon": 0.0, "is_disabled": 0, "lat": 38.91121316666667, "bike_id": "3079358ad25b75992b131852dc518fca", "name": "3079358ad25b75992b131852dc518fca", "is_reserved": 0, "fusion_lat": 0.0}, {"type": "electric_scooter", "rental_uris": {"ios": "https://dc.lft.to/lastmile_qr_scan", "android": "https://dc.lft.to/lastmile_qr_scan"}, "lon": -76.96520016666666, "fusion_lon": 0.0, "is_disabled": 0, "lat": 38.876307833333335, "bike_id": "e789d8c1328d041fb141372cab46c528", "name": "e789d8c1328d041fb141372cab46c528", "is_reserved": 0, "fusion_lat": 0.0}, {"type": "electric_bike", "rental_uris": {"ios": "https://dc.lft.to/lastmile_qr_scan", "android": "https://dc.lft.to/lastmile_qr_scan"}, "lon": -77.11799366666666, "fusion_lon": 0.0, "is_disabled": 0, "lat": 38.87377033333333, "bike_id": "961afccc55249b36bee50150232261ce", "name": "961afccc55249b36bee50150232261ce", "is_reserved": 0, "fusion_lat": 0.0}, {"type": "electric_scooter", "rental_uris": {"ios": "https://dc.lft.to/lastmile_qr_scan", "android": "https://dc.lft.to/lastmile_qr_scan"}, "lon": -76.937358, "fusion_lon": 0.0, "is_disabled": 0, "lat": 38.89016133333333, "bike_id": "2dd38e69d6a1a3fe91761ff425a97693", "name": "2dd38e69d6a1a3fe91761ff425a97693", "is_reserved": 0, "fusion_lat": 0.0}, {"type": "electric_scooter", "rental_uris": {"ios": "https://dc.lft.to/lastmile_qr_scan", "android": "https://dc.lft.to/lastmile_qr_scan"}, "lon": -77.029746, "fusion_lon": 0.0, "is_disabled": 0, "lat": 38.907112, "bike_id": "23f6fb94898e3d7c9dcee805942eaeed", "name": "23f6fb94898e3d7c9dcee805942eaeed", "is_reserved": 0, "fusion_lat": 0.0}, {"type": "electric_scooter", "rental_uris": {"ios": "https://dc.lft.to/lastmile_qr_scan", "android": "https://dc.lft.to/lastmile_qr_scan"}, "lon": -76.96527833333333, "fusion_lon": 0.0, "is_disabled": 0, "lat": 38.87629483333333, "bike_id": "6eb2dbd3ed27167302c85ec084e32992", "name": "6eb2dbd3ed27167302c85ec084e32992", "is_reserved": 0, "fusion_lat": 0.0}, {"type": "electric_scooter", "rental_uris": {"ios": "https://dc.lft.to/lastmile_qr_scan", "android": "https://dc.lft.to/lastmile_qr_scan"}, "lon": -77.032073, "fusion_lon": 0.0, "is_disabled": 0, "lat": 38.91623716666667, "bike_id": "67cd11cfb2cb12ff1dc93a994f173704", "name": "67cd11cfb2cb12ff1dc93a994f173704", "is_reserved": 0, "fusion_lat": 0.0}, {"type": "electric_bike", "rental_uris": {"ios": "https://dc.lft.to/lastmile_qr_scan", "android": "https://dc.lft.to/lastmile_qr_scan"}, "lon": -77.02620283333333, "fusion_lon": 0.0, "is_disabled": 0, "lat": 38.96931433333334, "bike_id": "186d2a170ea3afaf17fd73ff8017dc69", "name": "186d2a170ea3afaf17fd73ff8017dc69", "is_reserved": 0, "fusion_lat": 0.0}, {"type": "electric_scooter", "rental_uris": {"ios": "https://dc.lft.to/lastmile_qr_scan", "android": "https://dc.lft.to/lastmile_qr_scan"}, "lon": -77.04659983333333, "fusion_lon": 0.0, "is_disabled": 0, "lat": 38.90559116666667, "bike_id": "dd2101213602234ecafc9e2f24876afb", "name": "dd2101213602234ecafc9e2f24876afb", "is_reserved": 0, "fusion_lat": 0.0}, {"type": "electric_scooter", "rental_uris": {"ios": "https://dc.lft.to/lastmile_qr_scan", "android": "https://dc.lft.to/lastmile_qr_scan"}, "lon": -77.007118, "fusion_lon": 0.0, "is_disabled": 0, "lat": 38.905831666666664, "bike_id": "728cde52fe373eb419df1c4867af8598", "name": "728cde52fe373eb419df1c4867af8598", "is_reserved": 0, "fusion_lat": 0.0}, {"type": "electric_scooter", "rental_uris": {"ios": "https://dc.lft.to/lastmile_qr_scan", "android": "https://dc.lft.to/lastmile_qr_scan"}, "lon": -77.0425775, "fusion_lon": 0.0, "is_disabled": 0, "lat": 38.922016666666664, "bike_id": "837e8416296a0ee58a1dbe03b4e33dca", "name": "837e8416296a0ee58a1dbe03b4e33dca", "is_reserved": 0, "fusion_lat": 0.0}, {"type": "electric_scooter", "rental_uris": {"ios": "https://dc.lft.to/lastmile_qr_scan", "android": "https://dc.lft.to/lastmile_qr_scan"}, "lon": -77.03842316666666, "fusion_lon": 0.0, "is_disabled": 0, "lat": 38.91759166666667, "bike_id": "13e3284330816636c3498e67b647cad0", "name": "13e3284330816636c3498e67b647cad0", "is_reserved": 0, "fusion_lat": 0.0}, {"type": "electric_scooter", "rental_uris": {"ios": "https://dc.lft.to/lastmile_qr_scan", "android": "https://dc.lft.to/lastmile_qr_scan"}, "lon": -77.040282, "fusion_lon": 0.0, "is_disabled": 0, "lat": 38.91809166666667, "bike_id": "7ff547654dddc8d9f0961364784bdf4e", "name": "7ff547654dddc8d9f0961364784bdf4e", "is_reserved": 0, "fusion_lat": 0.0}, {"type": "electric_scooter", "rental_uris": {"ios": "https://dc.lft.to/lastmile_qr_scan", "android": "https://dc.lft.to/lastmile_qr_scan"}, "lon": -77.05518316666667, "fusion_lon": 0.0, "is_disabled": 0, "lat": 38.944168833333336, "bike_id": "ce8951b3b404d3f7ce9be8574378d516", "name": "ce8951b3b404d3f7ce9be8574378d516", "is_reserved": 0, "fusion_lat": 0.0}, {"type": "electric_scooter", "rental_uris": {"ios": "https://dc.lft.to/lastmile_qr_scan", "android": "https://dc.lft.to/lastmile_qr_scan"}, "lon": -77.0315045, "fusion_lon": 0.0, "is_disabled": 0, "lat": 38.91112833333333, "bike_id": "c1e1cb5abd2ea0f3aa10bc2f577b449e", "name": "c1e1cb5abd2ea0f3aa10bc2f577b449e", "is_reserved": 0, "fusion_lat": 0.0}, {"type": "electric_scooter", "rental_uris": {"ios": "https://dc.lft.to/lastmile_qr_scan", "android": "https://dc.lft.to/lastmile_qr_scan"}, "lon": -77.04482183333333, "fusion_lon": 0.0, "is_disabled": 0, "lat": 38.91108116666667, "bike_id": "2a94a9443f1dab9d034bc61c5c0312c5", "name": "2a94a9443f1dab9d034bc61c5c0312c5", "is_reserved": 0, "fusion_lat": 0.0}, {"type": "electric_scooter", "rental_uris": {"ios": "https://dc.lft.to/lastmile_qr_scan", "android": "https://dc.lft.to/lastmile_qr_scan"}, "lon": -77.0280315, "fusion_lon": 0.0, "is_disabled": 0, "lat": 38.892329, "bike_id": "16b07c91ddcc673a8c4d68b1219b49f3", "name": "16b07c91ddcc673a8c4d68b1219b49f3", "is_reserved": 0, "fusion_lat": 0.0}, {"type": "electric_scooter", "rental_uris": {"ios": "https://dc.lft.to/lastmile_qr_scan", "android": "https://dc.lft.to/lastmile_qr_scan"}, "lon": -77.04206983333333, "fusion_lon": 0.0, "is_disabled": 0, "lat": 38.911123, "bike_id": "b6331bd36a9ab38abcbc6a536adb5003", "name": "b6331bd36a9ab38abcbc6a536adb5003", "is_reserved": 0, "fusion_lat": 0.0}, {"type": "electric_scooter", "rental_uris": {"ios": "https://dc.lft.to/lastmile_qr_scan", "android": "https://dc.lft.to/lastmile_qr_scan"}, "lon": -77.03379233333334, "fusion_lon": 0.0, "is_disabled": 0, "lat": 38.909781833333334, "bike_id": "40af5794367c26c3b89fc454c21479ee", "name": "40af5794367c26c3b89fc454c21479ee", "is_reserved": 0, "fusion_lat": 0.0}, {"type": "electric_scooter", "rental_uris": {"ios": "https://dc.lft.to/lastmile_qr_scan", "android": "https://dc.lft.to/lastmile_qr_scan"}, "lon": -77.02009533333333, "fusion_lon": 0.0, "is_disabled": 0, "lat": 38.91571233333333, "bike_id": "fc73a4c9da42b4fa4bed82ee9eef3e14", "name": "fc73a4c9da42b4fa4bed82ee9eef3e14", "is_reserved": 0, "fusion_lat": 0.0}, {"type": "electric_scooter", "rental_uris": {"ios": "https://dc.lft.to/lastmile_qr_scan", "android": "https://dc.lft.to/lastmile_qr_scan"}, "lon": -76.94987033333334, "fusion_lon": 0.0, "is_disabled": 0, "lat": 38.894111, "bike_id": "d6a85b2e15247593b9fe6f18f5023da4", "name": "d6a85b2e15247593b9fe6f18f5023da4", "is_reserved": 0, "fusion_lat": 0.0}, {"type": "electric_scooter", "rental_uris": {"ios": "https://dc.lft.to/lastmile_qr_scan", "android": "https://dc.lft.to/lastmile_qr_scan"}, "lon": -77.02623283333334, "fusion_lon": 0.0, "is_disabled": 0, "lat": 38.89217216666667, "bike_id": "0e17a95ab14af5feef18a162e0afdbc8", "name": "0e17a95ab14af5feef18a162e0afdbc8", "is_reserved": 0, "fusion_lat": 0.0}, {"type": "electric_scooter", "rental_uris": {"ios": "https://dc.lft.to/lastmile_qr_scan", "android": "https://dc.lft.to/lastmile_qr_scan"}, "lon": -76.99948183333333, "fusion_lon": 0.0, "is_disabled": 0, "lat": 38.842962666666665, "bike_id": "f80917fbdaeec12049b2bffb48f89600", "name": "f80917fbdaeec12049b2bffb48f89600", "is_reserved": 0, "fusion_lat": 0.0}, {"type": "electric_scooter", "rental_uris": {"ios": "https://dc.lft.to/lastmile_qr_scan", "android": "https://dc.lft.to/lastmile_qr_scan"}, "lon": -77.02185216666666, "fusion_lon": 0.0, "is_disabled": 0, "lat": 38.90620916666666, "bike_id": "01b1d9aa967b026c73943120a9b5ad5a", "name": "01b1d9aa967b026c73943120a9b5ad5a", "is_reserved": 0, "fusion_lat": 0.0}, {"type": "electric_scooter", "rental_uris": {"ios": "https://dc.lft.to/lastmile_qr_scan", "android": "https://dc.lft.to/lastmile_qr_scan"}, "lon": -77.051319, "fusion_lon": 0.0, "is_disabled": 0, "lat": 38.92364883333333, "bike_id": "c228cb17eb889d103df3cb7f8842e7fc", "name": "c228cb17eb889d103df3cb7f8842e7fc", "is_reserved": 0, "fusion_lat": 0.0}, {"type": "electric_scooter", "rental_uris": {"ios": "https://dc.lft.to/lastmile_qr_scan", "android": "https://dc.lft.to/lastmile_qr_scan"}, "lon": -77.03638316666667, "fusion_lon": 0.0, "is_disabled": 0, "lat": 38.913157166666664, "bike_id": "47267c52e1441b25c011df058b69b588", "name": "47267c52e1441b25c011df058b69b588", "is_reserved": 0, "fusion_lat": 0.0}, {"type": "electric_bike", "rental_uris": {"ios": "https://dc.lft.to/lastmile_qr_scan", "android": "https://dc.lft.to/lastmile_qr_scan"}, "lon": -76.9160465, "fusion_lon": 0.0, "is_disabled": 0, "lat": 38.879728666666665, "bike_id": "f9a40ba9c7839c40357dfb5ad9551c3b", "name": "f9a40ba9c7839c40357dfb5ad9551c3b", "is_reserved": 0, "fusion_lat": 0.0}, {"type": "electric_scooter", "rental_uris": {"ios": "https://dc.lft.to/lastmile_qr_scan", "android": "https://dc.lft.to/lastmile_qr_scan"}, "lon": -77.023493, "fusion_lon": 0.0, "is_disabled": 0, "lat": 38.9178595, "bike_id": "a6c005486529d9aeb5d0026c0d42be5f", "name": "a6c005486529d9aeb5d0026c0d42be5f", "is_reserved": 0, "fusion_lat": 0.0}, {"type": "electric_scooter", "rental_uris": {"ios": "https://dc.lft.to/lastmile_qr_scan", "android": "https://dc.lft.to/lastmile_qr_scan"}, "lon": -77.04899233333333, "fusion_lon": 0.0, "is_disabled": 0, "lat": 38.89225666666667, "bike_id": "dace096f129b378e7355aa1dc6614ca6", "name": "dace096f129b378e7355aa1dc6614ca6", "is_reserved": 0, "fusion_lat": 0.0}, {"type": "electric_scooter", "rental_uris": {"ios": "https://dc.lft.to/lastmile_qr_scan", "android": "https://dc.lft.to/lastmile_qr_scan"}, "lon": -77.03665816666667, "fusion_lon": 0.0, "is_disabled": 0, "lat": 38.926037, "bike_id": "ee49b78eb0738fe020acabd419bea5f3", "name": "ee49b78eb0738fe020acabd419bea5f3", "is_reserved": 0, "fusion_lat": 0.0}, {"type": "electric_scooter", "rental_uris": {"ios": "https://dc.lft.to/lastmile_qr_scan", "android": "https://dc.lft.to/lastmile_qr_scan"}, "lon": -76.98012533333333, "fusion_lon": 0.0, "is_disabled": 0, "lat": 38.901141, "bike_id": "92844e56244cdeb407458a70516091b3", "name": "92844e56244cdeb407458a70516091b3", "is_reserved": 0, "fusion_lat": 0.0}, {"type": "electric_bike", "rental_uris": {"ios": "https://dc.lft.to/lastmile_qr_scan", "android": "https://dc.lft.to/lastmile_qr_scan"}, "lon": -77.0120555, "fusion_lon": 0.0, "is_disabled": 0, "lat": 38.871016166666664, "bike_id": "881ce7d61b4d1a8d47064aaff20f2a9a", "name": "881ce7d61b4d1a8d47064aaff20f2a9a", "is_reserved": 0, "fusion_lat": 0.0}, {"type": "electric_scooter", "rental_uris": {"ios": "https://dc.lft.to/lastmile_qr_scan", "android": "https://dc.lft.to/lastmile_qr_scan"}, "lon": -77.04011333333334, "fusion_lon": 0.0, "is_disabled": 0, "lat": 38.924342833333334, "bike_id": "ce7a653adc33366ad5964ec543829355", "name": "ce7a653adc33366ad5964ec543829355", "is_reserved": 0, "fusion_lat": 0.0}, {"type": "electric_scooter", "rental_uris": {"ios": "https://dc.lft.to/lastmile_qr_scan", "android": "https://dc.lft.to/lastmile_qr_scan"}, "lon": -77.055496, "fusion_lon": 0.0, "is_disabled": 0, "lat": 38.900004333333335, "bike_id": "9dfa707dc234fbc2da4cf3e6fad61868", "name": "9dfa707dc234fbc2da4cf3e6fad61868", "is_reserved": 0, "fusion_lat": 0.0}, {"type": "electric_scooter", "rental_uris": {"ios": "https://dc.lft.to/lastmile_qr_scan", "android": "https://dc.lft.to/lastmile_qr_scan"}, "lon": -77.02694833333334, "fusion_lon": 0.0, "is_disabled": 0, "lat": 38.92570883333333, "bike_id": "4b6d8ff065ee73f430bf9b61c3135fef", "name": "4b6d8ff065ee73f430bf9b61c3135fef", "is_reserved": 0, "fusion_lat": 0.0}, {"type": "electric_scooter", "rental_uris": {"ios": "https://dc.lft.to/lastmile_qr_scan", "android": "https://dc.lft.to/lastmile_qr_scan"}, "lon": -77.004619, "fusion_lon": 0.0, "is_disabled": 0, "lat": 38.876629, "bike_id": "465181593d46566d23b78b7bc9030b07", "name": "465181593d46566d23b78b7bc9030b07", "is_reserved": 0, "fusion_lat": 0.0}, {"type": "electric_scooter", "rental_uris": {"ios": "https://dc.lft.to/lastmile_qr_scan", "android": "https://dc.lft.to/lastmile_qr_scan"}, "lon": -77.03207716666667, "fusion_lon": 0.0, "is_disabled": 0, "lat": 38.91851283333333, "bike_id": "7d997921461b0c46bbd6fdb3a527b5a7", "name": "7d997921461b0c46bbd6fdb3a527b5a7", "is_reserved": 0, "fusion_lat": 0.0}, {"type": "electric_scooter", "rental_uris": {"ios": "https://dc.lft.to/lastmile_qr_scan", "android": "https://dc.lft.to/lastmile_qr_scan"}, "lon": -77.03172683333334, "fusion_lon": 0.0, "is_disabled": 0, "lat": 38.90983266666667, "bike_id": "e7af75d0afbc354e265865ca65f5c74c", "name": "e7af75d0afbc354e265865ca65f5c74c", "is_reserved": 0, "fusion_lat": 0.0}, {"type": "electric_bike", "rental_uris": {"ios": "https://dc.lft.to/lastmile_qr_scan", "android": "https://dc.lft.to/lastmile_qr_scan"}, "lon": -77.08117816666666, "fusion_lon": 0.0, "is_disabled": 0, "lat": 38.80681233333333, "bike_id": "e4cd723b487b04550d67e12ba3d84da5", "name": "e4cd723b487b04550d67e12ba3d84da5", "is_reserved": 0, "fusion_lat": 0.0}, {"type": "electric_scooter", "rental_uris": {"ios": "https://dc.lft.to/lastmile_qr_scan", "android": "https://dc.lft.to/lastmile_qr_scan"}, "lon": -77.07300266666667, "fusion_lon": 0.0, "is_disabled": 0, "lat": 38.921417, "bike_id": "1f680c33d27ab5e40a8729bef32e7de1", "name": "1f680c33d27ab5e40a8729bef32e7de1", "is_reserved": 0, "fusion_lat": 0.0}, {"type": "electric_scooter", "rental_uris": {"ios": "https://dc.lft.to/lastmile_qr_scan", "android": "https://dc.lft.to/lastmile_qr_scan"}, "lon": -76.97241516666666, "fusion_lon": 0.0, "is_disabled": 0, "lat": 38.854589, "bike_id": "971ea84346eea6f3133e5e8e7a34ccbc", "name": "971ea84346eea6f3133e5e8e7a34ccbc", "is_reserved": 0, "fusion_lat": 0.0}, {"type": "electric_scooter", "rental_uris": {"ios": "https://dc.lft.to/lastmile_qr_scan", "android": "https://dc.lft.to/lastmile_qr_scan"}, "lon": -77.0012375, "fusion_lon": 0.0, "is_disabled": 0, "lat": 38.87797316666666, "bike_id": "3d79a0427937d26880dd59004b0edd9d", "name": "3d79a0427937d26880dd59004b0edd9d", "is_reserved": 0, "fusion_lat": 0.0}, {"type": "electric_scooter", "rental_uris": {"ios": "https://dc.lft.to/lastmile_qr_scan", "android": "https://dc.lft.to/lastmile_qr_scan"}, "lon": -77.06321683333333, "fusion_lon": 0.0, "is_disabled": 0, "lat": 38.9027765, "bike_id": "b10f3aa266a8e48758a3815ab080613d", "name": "b10f3aa266a8e48758a3815ab080613d", "is_reserved": 0, "fusion_lat": 0.0}, {"type": "electric_scooter", "rental_uris": {"ios": "https://dc.lft.to/lastmile_qr_scan", "android": "https://dc.lft.to/lastmile_qr_scan"}, "lon": -77.0007115, "fusion_lon": 0.0, "is_disabled": 0, "lat": 38.905774666666666, "bike_id": "aa190ed6c212d5fdcc253f7bf776434e", "name": "aa190ed6c212d5fdcc253f7bf776434e", "is_reserved": 0, "fusion_lat": 0.0}, {"type": "electric_scooter", "rental_uris": {"ios": "https://dc.lft.to/lastmile_qr_scan", "android": "https://dc.lft.to/lastmile_qr_scan"}, "lon": -77.05019883333334, "fusion_lon": 0.0, "is_disabled": 0, "lat": 38.9032315, "bike_id": "77cc35693db4c5bf55f31f19da373822", "name": "77cc35693db4c5bf55f31f19da373822", "is_reserved": 0, "fusion_lat": 0.0}, {"type": "electric_scooter", "rental_uris": {"ios": "https://dc.lft.to/lastmile_qr_scan", "android": "https://dc.lft.to/lastmile_qr_scan"}, "lon": -77.01082683333334, "fusion_lon": 0.0, "is_disabled": 0, "lat": 38.91636483333333, "bike_id": "f59fe85e51f678656c683c16ae46e9f0", "name": "f59fe85e51f678656c683c16ae46e9f0", "is_reserved": 0, "fusion_lat": 0.0}, {"type": "electric_bike", "rental_uris": {"ios": "https://dc.lft.to/lastmile_qr_scan", "android": "https://dc.lft.to/lastmile_qr_scan"}, "lon": -77.03630366666667, "fusion_lon": 0.0, "is_disabled": 0, "lat": 38.9328885, "bike_id": "d941d1182e7342cb72d8b5d580ad2d69", "name": "d941d1182e7342cb72d8b5d580ad2d69", "is_reserved": 0, "fusion_lat": 0.0}, {"type": "electric_scooter", "rental_uris": {"ios": "https://dc.lft.to/lastmile_qr_scan", "android": "https://dc.lft.to/lastmile_qr_scan"}, "lon": -76.9733185, "fusion_lon": 0.0, "is_disabled": 0, "lat": 38.90411133333333, "bike_id": "d6922d478e9e500536d733c2ce05e6b6", "name": "d6922d478e9e500536d733c2ce05e6b6", "is_reserved": 0, "fusion_lat": 0.0}, {"type": "electric_scooter", "rental_uris": {"ios": "https://dc.lft.to/lastmile_qr_scan", "android": "https://dc.lft.to/lastmile_qr_scan"}, "lon": -77.03043216666667, "fusion_lon": 0.0, "is_disabled": 0, "lat": 38.884359, "bike_id": "24f978e9a48d33ece2e1b3e7c604a587", "name": "24f978e9a48d33ece2e1b3e7c604a587", "is_reserved": 0, "fusion_lat": 0.0}, {"type": "electric_bike", "rental_uris": {"ios": "https://dc.lft.to/lastmile_qr_scan", "android": "https://dc.lft.to/lastmile_qr_scan"}, "lon": -77.09484566666667, "fusion_lon": 0.0, "is_disabled": 0, "lat": 39.03052916666667, "bike_id": "853ef3b16b00fc1fedd8db7fa412e758", "name": "853ef3b16b00fc1fedd8db7fa412e758", "is_reserved": 0, "fusion_lat": 0.0}, {"type": "electric_scooter", "rental_uris": {"ios": "https://dc.lft.to/lastmile_qr_scan", "android": "https://dc.lft.to/lastmile_qr_scan"}, "lon": -77.0208515, "fusion_lon": 0.0, "is_disabled": 0, "lat": 38.875818, "bike_id": "2a24c0f502822e8f75b930474f0e0e43", "name": "2a24c0f502822e8f75b930474f0e0e43", "is_reserved": 0, "fusion_lat": 0.0}, {"type": "electric_scooter", "rental_uris": {"ios": "https://dc.lft.to/lastmile_qr_scan", "android": "https://dc.lft.to/lastmile_qr_scan"}, "lon": -77.03211366666666, "fusion_lon": 0.0, "is_disabled": 0, "lat": 38.91574116666666, "bike_id": "28fd6b7918683e4945577f82c79663b2", "name": "28fd6b7918683e4945577f82c79663b2", "is_reserved": 0, "fusion_lat": 0.0}, {"type": "electric_scooter", "rental_uris": {"ios": "https://dc.lft.to/lastmile_qr_scan", "android": "https://dc.lft.to/lastmile_qr_scan"}, "lon": -77.048879, "fusion_lon": 0.0, "is_disabled": 0, "lat": 38.9133935, "bike_id": "cb632091e87877338eaa9144b5b548a0", "name": "cb632091e87877338eaa9144b5b548a0", "is_reserved": 0, "fusion_lat": 0.0}, {"type": "electric_scooter", "rental_uris": {"ios": "https://dc.lft.to/lastmile_qr_scan", "android": "https://dc.lft.to/lastmile_qr_scan"}, "lon": -77.03835633333334, "fusion_lon": 0.0, "is_disabled": 0, "lat": 38.91109266666667, "bike_id": "82ce9a00a0a58b0df605cc189e41756f", "name": "82ce9a00a0a58b0df605cc189e41756f", "is_reserved": 0, "fusion_lat": 0.0}, {"type": "electric_scooter", "rental_uris": {"ios": "https://dc.lft.to/lastmile_qr_scan", "android": "https://dc.lft.to/lastmile_qr_scan"}, "lon": -77.02980783333334, "fusion_lon": 0.0, "is_disabled": 0, "lat": 38.916804666666664, "bike_id": "8a0c11f34f14c5b5716f8c31058c34fb", "name": "8a0c11f34f14c5b5716f8c31058c34fb", "is_reserved": 0, "fusion_lat": 0.0}, {"type": "electric_scooter", "rental_uris": {"ios": "https://dc.lft.to/lastmile_qr_scan", "android": "https://dc.lft.to/lastmile_qr_scan"}, "lon": -77.0476665, "fusion_lon": 0.0, "is_disabled": 0, "lat": 38.90227216666667, "bike_id": "d4f7eabb3052d1fc03e06dcb428ff962", "name": "d4f7eabb3052d1fc03e06dcb428ff962", "is_reserved": 0, "fusion_lat": 0.0}, {"type": "electric_scooter", "rental_uris": {"ios": "https://dc.lft.to/lastmile_qr_scan", "android": "https://dc.lft.to/lastmile_qr_scan"}, "lon": -77.04048116666667, "fusion_lon": 0.0, "is_disabled": 0, "lat": 38.9040335, "bike_id": "30a185dc590f57e3537c4347c4d352ef", "name": "30a185dc590f57e3537c4347c4d352ef", "is_reserved": 0, "fusion_lat": 0.0}, {"type": "electric_scooter", "rental_uris": {"ios": "https://dc.lft.to/lastmile_qr_scan", "android": "https://dc.lft.to/lastmile_qr_scan"}, "lon": -77.035056, "fusion_lon": 0.0, "is_disabled": 0, "lat": 38.921536333333336, "bike_id": "17689613c9ef64a939dd43a820a9bb85", "name": "17689613c9ef64a939dd43a820a9bb85", "is_reserved": 0, "fusion_lat": 0.0}, {"type": "electric_scooter", "rental_uris": {"ios": "https://dc.lft.to/lastmile_qr_scan", "android": "https://dc.lft.to/lastmile_qr_scan"}, "lon": -77.00251033333333, "fusion_lon": 0.0, "is_disabled": 0, "lat": 38.908592166666665, "bike_id": "30cb9260b3ec2a1d31029fa40a616dbf", "name": "30cb9260b3ec2a1d31029fa40a616dbf", "is_reserved": 0, "fusion_lat": 0.0}, {"type": "electric_scooter", "rental_uris": {"ios": "https://dc.lft.to/lastmile_qr_scan", "android": "https://dc.lft.to/lastmile_qr_scan"}, "lon": -77.01045283333333, "fusion_lon": 0.0, "is_disabled": 0, "lat": 38.86670216666667, "bike_id": "f45a841e7a1d7a7270110983e9c772b0", "name": "f45a841e7a1d7a7270110983e9c772b0", "is_reserved": 0, "fusion_lat": 0.0}, {"type": "electric_scooter", "rental_uris": {"ios": "https://dc.lft.to/lastmile_qr_scan", "android": "https://dc.lft.to/lastmile_qr_scan"}, "lon": -77.0402985, "fusion_lon": 0.0, "is_disabled": 0, "lat": 38.93069333333333, "bike_id": "3b6cd86ca16ed7d88d4600a714596147", "name": "3b6cd86ca16ed7d88d4600a714596147", "is_reserved": 0, "fusion_lat": 0.0}, {"type": "electric_scooter", "rental_uris": {"ios": "https://dc.lft.to/lastmile_qr_scan", "android": "https://dc.lft.to/lastmile_qr_scan"}, "lon": -77.02450133333333, "fusion_lon": 0.0, "is_disabled": 0, "lat": 38.91886566666667, "bike_id": "d01ee2f41aad1afb519460f91bc6ba35", "name": "d01ee2f41aad1afb519460f91bc6ba35", "is_reserved": 0, "fusion_lat": 0.0}, {"type": "electric_scooter", "rental_uris": {"ios": "https://dc.lft.to/lastmile_qr_scan", "android": "https://dc.lft.to/lastmile_qr_scan"}, "lon": -77.02978783333333, "fusion_lon": 0.0, "is_disabled": 0, "lat": 38.90505366666667, "bike_id": "efbf1d5639092addd01586131b103eee", "name": "efbf1d5639092addd01586131b103eee", "is_reserved": 0, "fusion_lat": 0.0}, {"type": "electric_scooter", "rental_uris": {"ios": "https://dc.lft.to/lastmile_qr_scan", "android": "https://dc.lft.to/lastmile_qr_scan"}, "lon": -77.02304016666666, "fusion_lon": 0.0, "is_disabled": 0, "lat": 38.916199166666665, "bike_id": "5554381149d449846c9e82d7de8c1974", "name": "5554381149d449846c9e82d7de8c1974", "is_reserved": 0, "fusion_lat": 0.0}, {"type": "electric_scooter", "rental_uris": {"ios": "https://dc.lft.to/lastmile_qr_scan", "android": "https://dc.lft.to/lastmile_qr_scan"}, "lon": -77.0197755, "fusion_lon": 0.0, "is_disabled": 0, "lat": 38.929269166666664, "bike_id": "9b1eeb483ee14a353b8e2d19512ca176", "name": "9b1eeb483ee14a353b8e2d19512ca176", "is_reserved": 0, "fusion_lat": 0.0}, {"type": "electric_scooter", "rental_uris": {"ios": "https://dc.lft.to/lastmile_qr_scan", "android": "https://dc.lft.to/lastmile_qr_scan"}, "lon": -76.9868935, "fusion_lon": 0.0, "is_disabled": 0, "lat": 38.86722283333334, "bike_id": "b544c66eea45ee8d84575a8eaeae2e34", "name": "b544c66eea45ee8d84575a8eaeae2e34", "is_reserved": 0, "fusion_lat": 0.0}, {"type": "electric_scooter", "rental_uris": {"ios": "https://dc.lft.to/lastmile_qr_scan", "android": "https://dc.lft.to/lastmile_qr_scan"}, "lon": -77.0337375, "fusion_lon": 0.0, "is_disabled": 0, "lat": 38.899107, "bike_id": "4b002378187266904bfd42ddb6bcb669", "name": "4b002378187266904bfd42ddb6bcb669", "is_reserved": 0, "fusion_lat": 0.0}, {"type": "electric_scooter", "rental_uris": {"ios": "https://dc.lft.to/lastmile_qr_scan", "android": "https://dc.lft.to/lastmile_qr_scan"}, "lon": -77.04659016666666, "fusion_lon": 0.0, "is_disabled": 0, "lat": 38.892443166666666, "bike_id": "ba96638dec925f7d3144e38d490cc887", "name": "ba96638dec925f7d3144e38d490cc887", "is_reserved": 0, "fusion_lat": 0.0}, {"type": "electric_scooter", "rental_uris": {"ios": "https://dc.lft.to/lastmile_qr_scan", "android": "https://dc.lft.to/lastmile_qr_scan"}, "lon": -77.02322866666667, "fusion_lon": 0.0, "is_disabled": 0, "lat": 38.916859333333335, "bike_id": "eb2b2b56599b1b0a37914c188853cf1f", "name": "eb2b2b56599b1b0a37914c188853cf1f", "is_reserved": 0, "fusion_lat": 0.0}, {"type": "electric_scooter", "rental_uris": {"ios": "https://dc.lft.to/lastmile_qr_scan", "android": "https://dc.lft.to/lastmile_qr_scan"}, "lon": -77.04518383333334, "fusion_lon": 0.0, "is_disabled": 0, "lat": 38.918284666666665, "bike_id": "d719380a0ee174464d99ba7be6036b03", "name": "d719380a0ee174464d99ba7be6036b03", "is_reserved": 0, "fusion_lat": 0.0}, {"type": "electric_scooter", "rental_uris": {"ios": "https://dc.lft.to/lastmile_qr_scan", "android": "https://dc.lft.to/lastmile_qr_scan"}, "lon": -77.04004283333333, "fusion_lon": 0.0, "is_disabled": 0, "lat": 38.92169233333333, "bike_id": "727c9d1663e30022a142a6626d221f3d", "name": "727c9d1663e30022a142a6626d221f3d", "is_reserved": 0, "fusion_lat": 0.0}, {"type": "electric_scooter", "rental_uris": {"ios": "https://dc.lft.to/lastmile_qr_scan", "android": "https://dc.lft.to/lastmile_qr_scan"}, "lon": -76.96869533333333, "fusion_lon": 0.0, "is_disabled": 0, "lat": 38.870975666666666, "bike_id": "218f8b921d3d9e7ba9b476a54585f2e8", "name": "218f8b921d3d9e7ba9b476a54585f2e8", "is_reserved": 0, "fusion_lat": 0.0}, {"type": "electric_scooter", "rental_uris": {"ios": "https://dc.lft.to/lastmile_qr_scan", "android": "https://dc.lft.to/lastmile_qr_scan"}, "lon": -76.99505316666666, "fusion_lon": 0.0, "is_disabled": 0, "lat": 38.8948725, "bike_id": "0b51a2b75fc262e148087451695a635b", "name": "0b51a2b75fc262e148087451695a635b", "is_reserved": 0, "fusion_lat": 0.0}, {"type": "electric_scooter", "rental_uris": {"ios": "https://dc.lft.to/lastmile_qr_scan", "android": "https://dc.lft.to/lastmile_qr_scan"}, "lon": -77.03363416666667, "fusion_lon": 0.0, "is_disabled": 0, "lat": 38.887595833333336, "bike_id": "07c66f1c2f69530f085d8dc6bea25f24", "name": "07c66f1c2f69530f085d8dc6bea25f24", "is_reserved": 0, "fusion_lat": 0.0}, {"type": "electric_scooter", "rental_uris": {"ios": "https://dc.lft.to/lastmile_qr_scan", "android": "https://dc.lft.to/lastmile_qr_scan"}, "lon": -77.0450345, "fusion_lon": 0.0, "is_disabled": 0, "lat": 38.8922155, "bike_id": "c30d0902d1dc2a3534875c23b863bdfa", "name": "c30d0902d1dc2a3534875c23b863bdfa", "is_reserved": 0, "fusion_lat": 0.0}, {"type": "electric_scooter", "rental_uris": {"ios": "https://dc.lft.to/lastmile_qr_scan", "android": "https://dc.lft.to/lastmile_qr_scan"}, "lon": -76.96608966666666, "fusion_lon": 0.0, "is_disabled": 0, "lat": 38.873886166666665, "bike_id": "f77a7ea3d7416fcd9b78226acb16063e", "name": "f77a7ea3d7416fcd9b78226acb16063e", "is_reserved": 0, "fusion_lat": 0.0}, {"type": "electric_scooter", "rental_uris": {"ios": "https://dc.lft.to/lastmile_qr_scan", "android": "https://dc.lft.to/lastmile_qr_scan"}, "lon": -77.038006, "fusion_lon": 0.0, "is_disabled": 0, "lat": 38.9262855, "bike_id": "b6030341867c4979230428be5832ea79", "name": "b6030341867c4979230428be5832ea79", "is_reserved": 0, "fusion_lat": 0.0}, {"type": "electric_scooter", "rental_uris": {"ios": "https://dc.lft.to/lastmile_qr_scan", "android": "https://dc.lft.to/lastmile_qr_scan"}, "lon": -77.02774766666667, "fusion_lon": 0.0, "is_disabled": 0, "lat": 38.8922255, "bike_id": "c6a02a1de279ed2248eae9df77560c64", "name": "c6a02a1de279ed2248eae9df77560c64", "is_reserved": 0, "fusion_lat": 0.0}, {"type": "electric_scooter", "rental_uris": {"ios": "https://dc.lft.to/lastmile_qr_scan", "android": "https://dc.lft.to/lastmile_qr_scan"}, "lon": -77.04375566666667, "fusion_lon": 0.0, "is_disabled": 0, "lat": 38.92115883333334, "bike_id": "e61dc2f34b75f4248d6f57f2f89eba7d", "name": "e61dc2f34b75f4248d6f57f2f89eba7d", "is_reserved": 0, "fusion_lat": 0.0}, {"type": "electric_scooter", "rental_uris": {"ios": "https://dc.lft.to/lastmile_qr_scan", "android": "https://dc.lft.to/lastmile_qr_scan"}, "lon": -77.03846516666667, "fusion_lon": 0.0, "is_disabled": 0, "lat": 38.9325495, "bike_id": "45ef9c78236523d91f52894a692a38de", "name": "45ef9c78236523d91f52894a692a38de", "is_reserved": 0, "fusion_lat": 0.0}, {"type": "electric_scooter", "rental_uris": {"ios": "https://dc.lft.to/lastmile_qr_scan", "android": "https://dc.lft.to/lastmile_qr_scan"}, "lon": -77.03185433333333, "fusion_lon": 0.0, "is_disabled": 0, "lat": 38.9079055, "bike_id": "747751945b7353b92e0ed4fe965040d3", "name": "747751945b7353b92e0ed4fe965040d3", "is_reserved": 0, "fusion_lat": 0.0}, {"type": "electric_bike", "rental_uris": {"ios": "https://dc.lft.to/lastmile_qr_scan", "android": "https://dc.lft.to/lastmile_qr_scan"}, "lon": -76.936508, "fusion_lon": 0.0, "is_disabled": 0, "lat": 38.871533, "bike_id": "c8afb540804ad8ec6ff263ce8f9114aa", "name": "c8afb540804ad8ec6ff263ce8f9114aa", "is_reserved": 0, "fusion_lat": 0.0}, {"type": "electric_scooter", "rental_uris": {"ios": "https://dc.lft.to/lastmile_qr_scan", "android": "https://dc.lft.to/lastmile_qr_scan"}, "lon": -77.02975716666667, "fusion_lon": 0.0, "is_disabled": 0, "lat": 38.91684016666667, "bike_id": "8a67473b3e6e24fce64e2a6763439d46", "name": "8a67473b3e6e24fce64e2a6763439d46", "is_reserved": 0, "fusion_lat": 0.0}, {"type": "electric_scooter", "rental_uris": {"ios": "https://dc.lft.to/lastmile_qr_scan", "android": "https://dc.lft.to/lastmile_qr_scan"}, "lon": -76.9742865, "fusion_lon": 0.0, "is_disabled": 0, "lat": 38.8643, "bike_id": "ca6e252291aeeb20411b5b02726d452a", "name": "ca6e252291aeeb20411b5b02726d452a", "is_reserved": 0, "fusion_lat": 0.0}, {"type": "electric_scooter", "rental_uris": {"ios": "https://dc.lft.to/lastmile_qr_scan", "android": "https://dc.lft.to/lastmile_qr_scan"}, "lon": -77.03418966666666, "fusion_lon": 0.0, "is_disabled": 0, "lat": 38.90424383333333, "bike_id": "6b86cf43ab438a527a03bd7e9aa5a5e1", "name": "6b86cf43ab438a527a03bd7e9aa5a5e1", "is_reserved": 0, "fusion_lat": 0.0}, {"type": "electric_scooter", "rental_uris": {"ios": "https://dc.lft.to/lastmile_qr_scan", "android": "https://dc.lft.to/lastmile_qr_scan"}, "lon": -77.02657683333334, "fusion_lon": 0.0, "is_disabled": 0, "lat": 38.89213916666667, "bike_id": "dda2dc4f29bbb84475548113e868a671", "name": "dda2dc4f29bbb84475548113e868a671", "is_reserved": 0, "fusion_lat": 0.0}, {"type": "electric_scooter", "rental_uris": {"ios": "https://dc.lft.to/lastmile_qr_scan", "android": "https://dc.lft.to/lastmile_qr_scan"}, "lon": -76.9262435, "fusion_lon": 0.0, "is_disabled": 0, "lat": 38.884608, "bike_id": "2ffddfa2d4ea3049fc225d0cbd994104", "name": "2ffddfa2d4ea3049fc225d0cbd994104", "is_reserved": 0, "fusion_lat": 0.0}, {"type": "electric_scooter", "rental_uris": {"ios": "https://dc.lft.to/lastmile_qr_scan", "android": "https://dc.lft.to/lastmile_qr_scan"}, "lon": -77.0209935, "fusion_lon": 0.0, "is_disabled": 0, "lat": 38.93116633333333, "bike_id": "b9d3d04c636a76b12809ea2225991440", "name": "b9d3d04c636a76b12809ea2225991440", "is_reserved": 0, "fusion_lat": 0.0}, {"type": "electric_scooter", "rental_uris": {"ios": "https://dc.lft.to/lastmile_qr_scan", "android": "https://dc.lft.to/lastmile_qr_scan"}, "lon": -77.03131266666666, "fusion_lon": 0.0, "is_disabled": 0, "lat": 38.89222516666667, "bike_id": "acfd32bc44a4d22b44f64ea07438f104", "name": "acfd32bc44a4d22b44f64ea07438f104", "is_reserved": 0, "fusion_lat": 0.0}, {"type": "electric_scooter", "rental_uris": {"ios": "https://dc.lft.to/lastmile_qr_scan", "android": "https://dc.lft.to/lastmile_qr_scan"}, "lon": -77.02763166666666, "fusion_lon": 0.0, "is_disabled": 0, "lat": 38.9072815, "bike_id": "2bb5de38124024b184d18a397227c27c", "name": "2bb5de38124024b184d18a397227c27c", "is_reserved": 0, "fusion_lat": 0.0}, {"type": "electric_scooter", "rental_uris": {"ios": "https://dc.lft.to/lastmile_qr_scan", "android": "https://dc.lft.to/lastmile_qr_scan"}, "lon": -77.0259185, "fusion_lon": 0.0, "is_disabled": 0, "lat": 38.90414116666667, "bike_id": "b66bbf94a0bc17b846e3d903a3b97cb8", "name": "b66bbf94a0bc17b846e3d903a3b97cb8", "is_reserved": 0, "fusion_lat": 0.0}, {"type": "electric_scooter", "rental_uris": {"ios": "https://dc.lft.to/lastmile_qr_scan", "android": "https://dc.lft.to/lastmile_qr_scan"}, "lon": -77.02762183333333, "fusion_lon": 0.0, "is_disabled": 0, "lat": 38.90730216666667, "bike_id": "929d0e5f863782b1621f5df6ca5ae372", "name": "929d0e5f863782b1621f5df6ca5ae372", "is_reserved": 0, "fusion_lat": 0.0}, {"type": "electric_bike", "rental_uris": {"ios": "https://dc.lft.to/lastmile_qr_scan", "android": "https://dc.lft.to/lastmile_qr_scan"}, "lon": -76.93545766666666, "fusion_lon": 0.0, "is_disabled": 0, "lat": 38.95185266666667, "bike_id": "00d1b5be0e6eea36c3ff3a6834be970d", "name": "00d1b5be0e6eea36c3ff3a6834be970d", "is_reserved": 0, "fusion_lat": 0.0}, {"type": "electric_scooter", "rental_uris": {"ios": "https://dc.lft.to/lastmile_qr_scan", "android": "https://dc.lft.to/lastmile_qr_scan"}, "lon": -77.08029983333333, "fusion_lon": 0.0, "is_disabled": 0, "lat": 38.909236166666666, "bike_id": "aa91ff5c32a62c1239224c0157ab9f04", "name": "aa91ff5c32a62c1239224c0157ab9f04", "is_reserved": 0, "fusion_lat": 0.0}, {"type": "electric_scooter", "rental_uris": {"ios": "https://dc.lft.to/lastmile_qr_scan", "android": "https://dc.lft.to/lastmile_qr_scan"}, "lon": -77.04532833333333, "fusion_lon": 0.0, "is_disabled": 0, "lat": 38.91825083333333, "bike_id": "70068a5233b0dd85484c26da42b4858c", "name": "70068a5233b0dd85484c26da42b4858c", "is_reserved": 0, "fusion_lat": 0.0}, {"type": "electric_scooter", "rental_uris": {"ios": "https://dc.lft.to/lastmile_qr_scan", "android": "https://dc.lft.to/lastmile_qr_scan"}, "lon": -77.0184935, "fusion_lon": 0.0, "is_disabled": 0, "lat": 38.94632433333334, "bike_id": "f2ca9407be0b4665263c4e6ed24269c8", "name": "f2ca9407be0b4665263c4e6ed24269c8", "is_reserved": 0, "fusion_lat": 0.0}, {"type": "electric_bike", "rental_uris": {"ios": "https://dc.lft.to/lastmile_qr_scan", "android": "https://dc.lft.to/lastmile_qr_scan"}, "lon": -77.1185295, "fusion_lon": 0.0, "is_disabled": 0, "lat": 38.877319, "bike_id": "5b34badb659c891110a5585c1eb902a8", "name": "5b34badb659c891110a5585c1eb902a8", "is_reserved": 0, "fusion_lat": 0.0}, {"type": "electric_scooter", "rental_uris": {"ios": "https://dc.lft.to/lastmile_qr_scan", "android": "https://dc.lft.to/lastmile_qr_scan"}, "lon": -77.04690483333333, "fusion_lon": 0.0, "is_disabled": 0, "lat": 38.89728483333333, "bike_id": "8b5def3d6e0ae288861fe8540e3de012", "name": "8b5def3d6e0ae288861fe8540e3de012", "is_reserved": 0, "fusion_lat": 0.0}, {"type": "electric_bike", "rental_uris": {"ios": "https://dc.lft.to/lastmile_qr_scan", "android": "https://dc.lft.to/lastmile_qr_scan"}, "lon": -77.1248675, "fusion_lon": 0.0, "is_disabled": 0, "lat": 38.853977666666665, "bike_id": "4d4c9329fb7a232d860abc77e098f430", "name": "4d4c9329fb7a232d860abc77e098f430", "is_reserved": 0, "fusion_lat": 0.0}, {"type": "electric_scooter", "rental_uris": {"ios": "https://dc.lft.to/lastmile_qr_scan", "android": "https://dc.lft.to/lastmile_qr_scan"}, "lon": -77.03204366666667, "fusion_lon": 0.0, "is_disabled": 0, "lat": 38.89629983333333, "bike_id": "5dd84cbf35785ba9a16fb2b9dedaf366", "name": "5dd84cbf35785ba9a16fb2b9dedaf366", "is_reserved": 0, "fusion_lat": 0.0}, {"type": "electric_bike", "rental_uris": {"ios": "https://dc.lft.to/lastmile_qr_scan", "android": "https://dc.lft.to/lastmile_qr_scan"}, "lon": -77.032094, "fusion_lon": 0.0, "is_disabled": 0, "lat": 38.9089525, "bike_id": "e59f824b0aad19978c11a31418133f3e", "name": "e59f824b0aad19978c11a31418133f3e", "is_reserved": 0, "fusion_lat": 0.0}, {"type": "electric_bike", "rental_uris": {"ios": "https://dc.lft.to/lastmile_qr_scan", "android": "https://dc.lft.to/lastmile_qr_scan"}, "lon": -76.9752965, "fusion_lon": 0.0, "is_disabled": 0, "lat": 38.84013933333333, "bike_id": "d149a7ed008ddc86507360f2480dfb5a", "name": "d149a7ed008ddc86507360f2480dfb5a", "is_reserved": 0, "fusion_lat": 0.0}, {"type": "electric_scooter", "rental_uris": {"ios": "https://dc.lft.to/lastmile_qr_scan", "android": "https://dc.lft.to/lastmile_qr_scan"}, "lon": -77.03029916666667, "fusion_lon": 0.0, "is_disabled": 0, "lat": 38.931172, "bike_id": "ca949721def553351431273c000aebaa", "name": "ca949721def553351431273c000aebaa", "is_reserved": 0, "fusion_lat": 0.0}, {"type": "electric_scooter", "rental_uris": {"ios": "https://dc.lft.to/lastmile_qr_scan", "android": "https://dc.lft.to/lastmile_qr_scan"}, "lon": -76.995178, "fusion_lon": 0.0, "is_disabled": 0, "lat": 38.8837415, "bike_id": "d60db8dfe9870670c93780a28e73f502", "name": "d60db8dfe9870670c93780a28e73f502", "is_reserved": 0, "fusion_lat": 0.0}, {"type": "electric_scooter", "rental_uris": {"ios": "https://dc.lft.to/lastmile_qr_scan", "android": "https://dc.lft.to/lastmile_qr_scan"}, "lon": -76.98184016666667, "fusion_lon": 0.0, "is_disabled": 0, "lat": 38.895832666666664, "bike_id": "0443f152c14030e08c1179d3aaaae4c8", "name": "0443f152c14030e08c1179d3aaaae4c8", "is_reserved": 0, "fusion_lat": 0.0}, {"type": "electric_scooter", "rental_uris": {"ios": "https://dc.lft.to/lastmile_qr_scan", "android": "https://dc.lft.to/lastmile_qr_scan"}, "lon": -77.041745, "fusion_lon": 0.0, "is_disabled": 0, "lat": 38.91979466666667, "bike_id": "72ecb5d67304c4d9687e06bba5edeb61", "name": "72ecb5d67304c4d9687e06bba5edeb61", "is_reserved": 0, "fusion_lat": 0.0}, {"type": "electric_scooter", "rental_uris": {"ios": "https://dc.lft.to/lastmile_qr_scan", "android": "https://dc.lft.to/lastmile_qr_scan"}, "lon": -77.02411083333334, "fusion_lon": 0.0, "is_disabled": 0, "lat": 38.91752566666667, "bike_id": "09e129d2db91822563fa4fd2bb653662", "name": "09e129d2db91822563fa4fd2bb653662", "is_reserved": 0, "fusion_lat": 0.0}, {"type": "electric_scooter", "rental_uris": {"ios": "https://dc.lft.to/lastmile_qr_scan", "android": "https://dc.lft.to/lastmile_qr_scan"}, "lon": -76.99961566666667, "fusion_lon": 0.0, "is_disabled": 0, "lat": 38.908642, "bike_id": "99341375fde7710bd952f1fbb10c35e8", "name": "99341375fde7710bd952f1fbb10c35e8", "is_reserved": 0, "fusion_lat": 0.0}, {"type": "electric_scooter", "rental_uris": {"ios": "https://dc.lft.to/lastmile_qr_scan", "android": "https://dc.lft.to/lastmile_qr_scan"}, "lon": -77.031959, "fusion_lon": 0.0, "is_disabled": 0, "lat": 38.91763533333334, "bike_id": "5dd1ef144bba348c905aaa3a31c2500b", "name": "5dd1ef144bba348c905aaa3a31c2500b", "is_reserved": 0, "fusion_lat": 0.0}, {"type": "electric_bike", "rental_uris": {"ios": "https://dc.lft.to/lastmile_qr_scan", "android": "https://dc.lft.to/lastmile_qr_scan"}, "lon": -76.96002, "fusion_lon": 0.0, "is_disabled": 0, "lat": 38.86983816666667, "bike_id": "71ce500f50adf9cbee35fece3a8c5015", "name": "71ce500f50adf9cbee35fece3a8c5015", "is_reserved": 0, "fusion_lat": 0.0}, {"type": "electric_scooter", "rental_uris": {"ios": "https://dc.lft.to/lastmile_qr_scan", "android": "https://dc.lft.to/lastmile_qr_scan"}, "lon": -76.99826466666667, "fusion_lon": 0.0, "is_disabled": 0, "lat": 38.90020783333333, "bike_id": "74a5094c719f500f50f43f63ada515d0", "name": "74a5094c719f500f50f43f63ada515d0", "is_reserved": 0, "fusion_lat": 0.0}, {"type": "electric_bike", "rental_uris": {"ios": "https://dc.lft.to/lastmile_qr_scan", "android": "https://dc.lft.to/lastmile_qr_scan"}, "lon": -77.041333, "fusion_lon": 0.0, "is_disabled": 0, "lat": 38.804999, "bike_id": "ae1a1385abf4ab3b6e31117e86f4e332", "name": "ae1a1385abf4ab3b6e31117e86f4e332", "is_reserved": 0, "fusion_lat": 0.0}, {"type": "electric_scooter", "rental_uris": {"ios": "https://dc.lft.to/lastmile_qr_scan", "android": "https://dc.lft.to/lastmile_qr_scan"}, "lon": -76.984996, "fusion_lon": 0.0, "is_disabled": 0, "lat": 38.894703666666665, "bike_id": "1ae3968ca11fac02078106ef59107eea", "name": "1ae3968ca11fac02078106ef59107eea", "is_reserved": 0, "fusion_lat": 0.0}, {"type": "electric_scooter", "rental_uris": {"ios": "https://dc.lft.to/lastmile_qr_scan", "android": "https://dc.lft.to/lastmile_qr_scan"}, "lon": -77.04335466666667, "fusion_lon": 0.0, "is_disabled": 0, "lat": 38.905268666666665, "bike_id": "84114deb818d013176b10042c5ef493a", "name": "84114deb818d013176b10042c5ef493a", "is_reserved": 0, "fusion_lat": 0.0}, {"type": "electric_scooter", "rental_uris": {"ios": "https://dc.lft.to/lastmile_qr_scan", "android": "https://dc.lft.to/lastmile_qr_scan"}, "lon": -77.04212083333333, "fusion_lon": 0.0, "is_disabled": 0, "lat": 38.911144166666666, "bike_id": "8da0af93bb99f0d8cf3fa95a9d72d2a2", "name": "8da0af93bb99f0d8cf3fa95a9d72d2a2", "is_reserved": 0, "fusion_lat": 0.0}, {"type": "electric_scooter", "rental_uris": {"ios": "https://dc.lft.to/lastmile_qr_scan", "android": "https://dc.lft.to/lastmile_qr_scan"}, "lon": -77.03213033333333, "fusion_lon": 0.0, "is_disabled": 0, "lat": 38.92065266666667, "bike_id": "8397182b88876ea67272af0c8fea7102", "name": "8397182b88876ea67272af0c8fea7102", "is_reserved": 0, "fusion_lat": 0.0}, {"type": "electric_scooter", "rental_uris": {"ios": "https://dc.lft.to/lastmile_qr_scan", "android": "https://dc.lft.to/lastmile_qr_scan"}, "lon": -77.02696516666667, "fusion_lon": 0.0, "is_disabled": 0, "lat": 38.90598816666667, "bike_id": "8436b0cabac31b7b5fcfefdbec4f52c2", "name": "8436b0cabac31b7b5fcfefdbec4f52c2", "is_reserved": 0, "fusion_lat": 0.0}, {"type": "electric_scooter", "rental_uris": {"ios": "https://dc.lft.to/lastmile_qr_scan", "android": "https://dc.lft.to/lastmile_qr_scan"}, "lon": -77.04838283333333, "fusion_lon": 0.0, "is_disabled": 0, "lat": 38.9118385, "bike_id": "e020e308f1bb60c813c039832232282e", "name": "e020e308f1bb60c813c039832232282e", "is_reserved": 0, "fusion_lat": 0.0}, {"type": "electric_scooter", "rental_uris": {"ios": "https://dc.lft.to/lastmile_qr_scan", "android": "https://dc.lft.to/lastmile_qr_scan"}, "lon": -77.0401495, "fusion_lon": 0.0, "is_disabled": 0, "lat": 38.924344, "bike_id": "0e7753f6dc6d8e49d5f2fe2410e31f88", "name": "0e7753f6dc6d8e49d5f2fe2410e31f88", "is_reserved": 0, "fusion_lat": 0.0}, {"type": "electric_scooter", "rental_uris": {"ios": "https://dc.lft.to/lastmile_qr_scan", "android": "https://dc.lft.to/lastmile_qr_scan"}, "lon": -77.04404233333334, "fusion_lon": 0.0, "is_disabled": 0, "lat": 38.91358066666667, "bike_id": "6fa53f0801b791437d94771a714e8bdb", "name": "6fa53f0801b791437d94771a714e8bdb", "is_reserved": 0, "fusion_lat": 0.0}, {"type": "electric_scooter", "rental_uris": {"ios": "https://dc.lft.to/lastmile_qr_scan", "android": "https://dc.lft.to/lastmile_qr_scan"}, "lon": -77.02592416666667, "fusion_lon": 0.0, "is_disabled": 0, "lat": 38.90611833333333, "bike_id": "53ad982d890b1037aeed6cd3aa04e5a3", "name": "53ad982d890b1037aeed6cd3aa04e5a3", "is_reserved": 0, "fusion_lat": 0.0}, {"type": "electric_scooter", "rental_uris": {"ios": "https://dc.lft.to/lastmile_qr_scan", "android": "https://dc.lft.to/lastmile_qr_scan"}, "lon": -77.0429435, "fusion_lon": 0.0, "is_disabled": 0, "lat": 38.922593166666665, "bike_id": "d1906cc9e9dfe60fe5a09b03b5d10032", "name": "d1906cc9e9dfe60fe5a09b03b5d10032", "is_reserved": 0, "fusion_lat": 0.0}, {"type": "electric_scooter", "rental_uris": {"ios": "https://dc.lft.to/lastmile_qr_scan", "android": "https://dc.lft.to/lastmile_qr_scan"}, "lon": -76.94879333333333, "fusion_lon": 0.0, "is_disabled": 0, "lat": 38.895027666666664, "bike_id": "9318700bc7c1a7986702ee6d578d5947", "name": "9318700bc7c1a7986702ee6d578d5947", "is_reserved": 0, "fusion_lat": 0.0}, {"type": "electric_scooter", "rental_uris": {"ios": "https://dc.lft.to/lastmile_qr_scan", "android": "https://dc.lft.to/lastmile_qr_scan"}, "lon": -77.04241466666667, "fusion_lon": 0.0, "is_disabled": 0, "lat": 38.922144333333335, "bike_id": "0841cf9ae93771c97e4b64bcdd774be8", "name": "0841cf9ae93771c97e4b64bcdd774be8", "is_reserved": 0, "fusion_lat": 0.0}, {"type": "electric_bike", "rental_uris": {"ios": "https://dc.lft.to/lastmile_qr_scan", "android": "https://dc.lft.to/lastmile_qr_scan"}, "lon": -77.00204333333333, "fusion_lon": 0.0, "is_disabled": 0, "lat": 38.819379166666664, "bike_id": "cc177d3659f7b6271af16a5a6c91f6d6", "name": "cc177d3659f7b6271af16a5a6c91f6d6", "is_reserved": 0, "fusion_lat": 0.0}, {"type": "electric_scooter", "rental_uris": {"ios": "https://dc.lft.to/lastmile_qr_scan", "android": "https://dc.lft.to/lastmile_qr_scan"}, "lon": -77.03210733333333, "fusion_lon": 0.0, "is_disabled": 0, "lat": 38.917184166666665, "bike_id": "a24c17998bbe4ea2438a9e7ed807eec6", "name": "a24c17998bbe4ea2438a9e7ed807eec6", "is_reserved": 0, "fusion_lat": 0.0}, {"type": "electric_scooter", "rental_uris": {"ios": "https://dc.lft.to/lastmile_qr_scan", "android": "https://dc.lft.to/lastmile_qr_scan"}, "lon": -77.01231266666667, "fusion_lon": 0.0, "is_disabled": 0, "lat": 38.90325166666667, "bike_id": "9b3366303d4441a779d77b5e052c67f0", "name": "9b3366303d4441a779d77b5e052c67f0", "is_reserved": 0, "fusion_lat": 0.0}, {"type": "electric_scooter", "rental_uris": {"ios": "https://dc.lft.to/lastmile_qr_scan", "android": "https://dc.lft.to/lastmile_qr_scan"}, "lon": -77.00458633333334, "fusion_lon": 0.0, "is_disabled": 0, "lat": 38.91175116666667, "bike_id": "cf8556651be59fdf53d93b233b1e7f03", "name": "cf8556651be59fdf53d93b233b1e7f03", "is_reserved": 0, "fusion_lat": 0.0}, {"type": "electric_scooter", "rental_uris": {"ios": "https://dc.lft.to/lastmile_qr_scan", "android": "https://dc.lft.to/lastmile_qr_scan"}, "lon": -77.06975733333333, "fusion_lon": 0.0, "is_disabled": 0, "lat": 38.95250033333333, "bike_id": "7d0a415c4741ac9a0cfd18493016e9ba", "name": "7d0a415c4741ac9a0cfd18493016e9ba", "is_reserved": 0, "fusion_lat": 0.0}, {"type": "electric_bike", "rental_uris": {"ios": "https://dc.lft.to/lastmile_qr_scan", "android": "https://dc.lft.to/lastmile_qr_scan"}, "lon": -77.11220383333334, "fusion_lon": 0.0, "is_disabled": 0, "lat": 38.82876566666667, "bike_id": "fa0c8290e6b6fc9e7cb540d6c9014e49", "name": "fa0c8290e6b6fc9e7cb540d6c9014e49", "is_reserved": 0, "fusion_lat": 0.0}, {"type": "electric_scooter", "rental_uris": {"ios": "https://dc.lft.to/lastmile_qr_scan", "android": "https://dc.lft.to/lastmile_qr_scan"}, "lon": -77.04434816666667, "fusion_lon": 0.0, "is_disabled": 0, "lat": 38.93019183333333, "bike_id": "b9c5bd1cf406702a1ea6a73e85975268", "name": "b9c5bd1cf406702a1ea6a73e85975268", "is_reserved": 0, "fusion_lat": 0.0}, {"type": "electric_scooter", "rental_uris": {"ios": "https://dc.lft.to/lastmile_qr_scan", "android": "https://dc.lft.to/lastmile_qr_scan"}, "lon": -77.03866483333333, "fusion_lon": 0.0, "is_disabled": 0, "lat": 38.9097135, "bike_id": "8bf27cbe59e1a933c3bffa31dae22f7b", "name": "8bf27cbe59e1a933c3bffa31dae22f7b", "is_reserved": 0, "fusion_lat": 0.0}, {"type": "electric_scooter", "rental_uris": {"ios": "https://dc.lft.to/lastmile_qr_scan", "android": "https://dc.lft.to/lastmile_qr_scan"}, "lon": -76.93991216666667, "fusion_lon": 0.0, "is_disabled": 0, "lat": 38.899817666666664, "bike_id": "7dc4126ae0ff28747ff93a805cf2ef3b", "name": "7dc4126ae0ff28747ff93a805cf2ef3b", "is_reserved": 0, "fusion_lat": 0.0}, {"type": "electric_scooter", "rental_uris": {"ios": "https://dc.lft.to/lastmile_qr_scan", "android": "https://dc.lft.to/lastmile_qr_scan"}, "lon": -77.0316715, "fusion_lon": 0.0, "is_disabled": 0, "lat": 38.89222683333333, "bike_id": "4e7e898387795554c741438c96455d4f", "name": "4e7e898387795554c741438c96455d4f", "is_reserved": 0, "fusion_lat": 0.0}, {"type": "electric_scooter", "rental_uris": {"ios": "https://dc.lft.to/lastmile_qr_scan", "android": "https://dc.lft.to/lastmile_qr_scan"}, "lon": -76.98987266666667, "fusion_lon": 0.0, "is_disabled": 0, "lat": 38.864987166666666, "bike_id": "5892789ef2bb0f7de702062867ee5f17", "name": "5892789ef2bb0f7de702062867ee5f17", "is_reserved": 0, "fusion_lat": 0.0}, {"type": "electric_scooter", "rental_uris": {"ios": "https://dc.lft.to/lastmile_qr_scan", "android": "https://dc.lft.to/lastmile_qr_scan"}, "lon": -77.03166883333333, "fusion_lon": 0.0, "is_disabled": 0, "lat": 38.892224, "bike_id": "c78efb902efb44cb675aced4c4e2aa9b", "name": "c78efb902efb44cb675aced4c4e2aa9b", "is_reserved": 0, "fusion_lat": 0.0}, {"type": "electric_scooter", "rental_uris": {"ios": "https://dc.lft.to/lastmile_qr_scan", "android": "https://dc.lft.to/lastmile_qr_scan"}, "lon": -77.00594633333333, "fusion_lon": 0.0, "is_disabled": 0, "lat": 38.905564166666665, "bike_id": "17a6ccf287d57857762ddb7d85dc0d72", "name": "17a6ccf287d57857762ddb7d85dc0d72", "is_reserved": 0, "fusion_lat": 0.0}, {"type": "electric_scooter", "rental_uris": {"ios": "https://dc.lft.to/lastmile_qr_scan", "android": "https://dc.lft.to/lastmile_qr_scan"}, "lon": -77.02982216666666, "fusion_lon": 0.0, "is_disabled": 0, "lat": 38.91696966666667, "bike_id": "ed2f33572f32668db425df443c04bb48", "name": "ed2f33572f32668db425df443c04bb48", "is_reserved": 0, "fusion_lat": 0.0}, {"type": "electric_scooter", "rental_uris": {"ios": "https://dc.lft.to/lastmile_qr_scan", "android": "https://dc.lft.to/lastmile_qr_scan"}, "lon": -77.07889133333333, "fusion_lon": 0.0, "is_disabled": 0, "lat": 38.9206715, "bike_id": "590e4076a7e39a868c1475d5af55b13f", "name": "590e4076a7e39a868c1475d5af55b13f", "is_reserved": 0, "fusion_lat": 0.0}, {"type": "electric_scooter", "rental_uris": {"ios": "https://dc.lft.to/lastmile_qr_scan", "android": "https://dc.lft.to/lastmile_qr_scan"}, "lon": -77.00601533333334, "fusion_lon": 0.0, "is_disabled": 0, "lat": 38.905722833333336, "bike_id": "0c8c5afcf7b46cd0ff4277b3fe7d5411", "name": "0c8c5afcf7b46cd0ff4277b3fe7d5411", "is_reserved": 0, "fusion_lat": 0.0}, {"type": "electric_scooter", "rental_uris": {"ios": "https://dc.lft.to/lastmile_qr_scan", "android": "https://dc.lft.to/lastmile_qr_scan"}, "lon": -77.0176825, "fusion_lon": 0.0, "is_disabled": 0, "lat": 38.90254066666667, "bike_id": "6d54b59c4d73e255b07772d5ac2b9110", "name": "6d54b59c4d73e255b07772d5ac2b9110", "is_reserved": 0, "fusion_lat": 0.0}, {"type": "electric_scooter", "rental_uris": {"ios": "https://dc.lft.to/lastmile_qr_scan", "android": "https://dc.lft.to/lastmile_qr_scan"}, "lon": -77.05857483333334, "fusion_lon": 0.0, "is_disabled": 0, "lat": 38.936072, "bike_id": "88423106fd44b2dca4d99f9ec0038a95", "name": "88423106fd44b2dca4d99f9ec0038a95", "is_reserved": 0, "fusion_lat": 0.0}, {"type": "electric_scooter", "rental_uris": {"ios": "https://dc.lft.to/lastmile_qr_scan", "android": "https://dc.lft.to/lastmile_qr_scan"}, "lon": -77.02174916666667, "fusion_lon": 0.0, "is_disabled": 0, "lat": 38.94286683333333, "bike_id": "9bc4dd29d36c0c10c1cf5f551dfaa92e", "name": "9bc4dd29d36c0c10c1cf5f551dfaa92e", "is_reserved": 0, "fusion_lat": 0.0}, {"type": "electric_scooter", "rental_uris": {"ios": "https://dc.lft.to/lastmile_qr_scan", "android": "https://dc.lft.to/lastmile_qr_scan"}, "lon": -76.96531283333333, "fusion_lon": 0.0, "is_disabled": 0, "lat": 38.876303, "bike_id": "78826c381ccb9e23d81773b79b7abc5f", "name": "78826c381ccb9e23d81773b79b7abc5f", "is_reserved": 0, "fusion_lat": 0.0}, {"type": "electric_scooter", "rental_uris": {"ios": "https://dc.lft.to/lastmile_qr_scan", "android": "https://dc.lft.to/lastmile_qr_scan"}, "lon": -76.97627216666666, "fusion_lon": 0.0, "is_disabled": 0, "lat": 38.898769, "bike_id": "5ee1797ae136327d4f91d290a2188d42", "name": "5ee1797ae136327d4f91d290a2188d42", "is_reserved": 0, "fusion_lat": 0.0}, {"type": "electric_scooter", "rental_uris": {"ios": "https://dc.lft.to/lastmile_qr_scan", "android": "https://dc.lft.to/lastmile_qr_scan"}, "lon": -76.94155883333333, "fusion_lon": 0.0, "is_disabled": 0, "lat": 38.883644333333336, "bike_id": "0fcf76170a15dc965ec4c4aa67165274", "name": "0fcf76170a15dc965ec4c4aa67165274", "is_reserved": 0, "fusion_lat": 0.0}, {"type": "electric_bike", "rental_uris": {"ios": "https://dc.lft.to/lastmile_qr_scan", "android": "https://dc.lft.to/lastmile_qr_scan"}, "lon": -76.92496433333334, "fusion_lon": 0.0, "is_disabled": 0, "lat": 38.95892166666667, "bike_id": "b603fbfcfa132e3ca3bd6824ead382ba", "name": "b603fbfcfa132e3ca3bd6824ead382ba", "is_reserved": 0, "fusion_lat": 0.0}, {"type": "electric_scooter", "rental_uris": {"ios": "https://dc.lft.to/lastmile_qr_scan", "android": "https://dc.lft.to/lastmile_qr_scan"}, "lon": -77.03957033333333, "fusion_lon": 0.0, "is_disabled": 0, "lat": 38.89896016666667, "bike_id": "6a0aa9dce006f135067fc93df5136efd", "name": "6a0aa9dce006f135067fc93df5136efd", "is_reserved": 0, "fusion_lat": 0.0}, {"type": "electric_scooter", "rental_uris": {"ios": "https://dc.lft.to/lastmile_qr_scan", "android": "https://dc.lft.to/lastmile_qr_scan"}, "lon": -77.02621766666667, "fusion_lon": 0.0, "is_disabled": 0, "lat": 38.9253735, "bike_id": "1cbf730138ed35d0514d86feb0b09950", "name": "1cbf730138ed35d0514d86feb0b09950", "is_reserved": 0, "fusion_lat": 0.0}, {"type": "electric_scooter", "rental_uris": {"ios": "https://dc.lft.to/lastmile_qr_scan", "android": "https://dc.lft.to/lastmile_qr_scan"}, "lon": -77.026934, "fusion_lon": 0.0, "is_disabled": 0, "lat": 38.91124816666667, "bike_id": "c2257bc826960e4735bf438d46e124cf", "name": "c2257bc826960e4735bf438d46e124cf", "is_reserved": 0, "fusion_lat": 0.0}, {"type": "electric_scooter", "rental_uris": {"ios": "https://dc.lft.to/lastmile_qr_scan", "android": "https://dc.lft.to/lastmile_qr_scan"}, "lon": -77.02157533333333, "fusion_lon": 0.0, "is_disabled": 0, "lat": 38.886472833333336, "bike_id": "29ac018697fe0fe3ea9e1566e5064eda", "name": "29ac018697fe0fe3ea9e1566e5064eda", "is_reserved": 0, "fusion_lat": 0.0}, {"type": "electric_bike", "rental_uris": {"ios": "https://dc.lft.to/lastmile_qr_scan", "android": "https://dc.lft.to/lastmile_qr_scan"}, "lon": -77.08844, "fusion_lon": 0.0, "is_disabled": 0, "lat": 38.966911833333334, "bike_id": "4ca073b126ce20b7a129ef2f0bfd681e", "name": "4ca073b126ce20b7a129ef2f0bfd681e", "is_reserved": 0, "fusion_lat": 0.0}, {"type": "electric_scooter", "rental_uris": {"ios": "https://dc.lft.to/lastmile_qr_scan", "android": "https://dc.lft.to/lastmile_qr_scan"}, "lon": -77.0377855, "fusion_lon": 0.0, "is_disabled": 0, "lat": 38.9302645, "bike_id": "611126ff789c9f716cc62b2876878906", "name": "611126ff789c9f716cc62b2876878906", "is_reserved": 0, "fusion_lat": 0.0}, {"type": "electric_bike", "rental_uris": {"ios": "https://dc.lft.to/lastmile_qr_scan", "android": "https://dc.lft.to/lastmile_qr_scan"}, "lon": -77.11606766666667, "fusion_lon": 0.0, "is_disabled": 0, "lat": 38.854893833333335, "bike_id": "2451b66b1cb7e282d8ca0e1f498de410", "name": "2451b66b1cb7e282d8ca0e1f498de410", "is_reserved": 0, "fusion_lat": 0.0}, {"type": "electric_bike", "rental_uris": {"ios": "https://dc.lft.to/lastmile_qr_scan", "android": "https://dc.lft.to/lastmile_qr_scan"}, "lon": -76.90084033333333, "fusion_lon": 0.0, "is_disabled": 0, "lat": 38.8875135, "bike_id": "76974901924cab5dfdba60e6de7d2be3", "name": "76974901924cab5dfdba60e6de7d2be3", "is_reserved": 0, "fusion_lat": 0.0}, {"type": "electric_scooter", "rental_uris": {"ios": "https://dc.lft.to/lastmile_qr_scan", "android": "https://dc.lft.to/lastmile_qr_scan"}, "lon": -77.015616, "fusion_lon": 0.0, "is_disabled": 0, "lat": 38.8799145, "bike_id": "31754c2ce4d1358dd8fa24e216d6f89f", "name": "31754c2ce4d1358dd8fa24e216d6f89f", "is_reserved": 0, "fusion_lat": 0.0}, {"type": "electric_scooter", "rental_uris": {"ios": "https://dc.lft.to/lastmile_qr_scan", "android": "https://dc.lft.to/lastmile_qr_scan"}, "lon": -77.02614533333333, "fusion_lon": 0.0, "is_disabled": 0, "lat": 38.9308055, "bike_id": "792309e24a8b56d5823b95c286d7da7d", "name": "792309e24a8b56d5823b95c286d7da7d", "is_reserved": 0, "fusion_lat": 0.0}, {"type": "electric_scooter", "rental_uris": {"ios": "https://dc.lft.to/lastmile_qr_scan", "android": "https://dc.lft.to/lastmile_qr_scan"}, "lon": -77.04165016666667, "fusion_lon": 0.0, "is_disabled": 0, "lat": 38.934196166666666, "bike_id": "b4c43d5b4e3244d93a680708d501882b", "name": "b4c43d5b4e3244d93a680708d501882b", "is_reserved": 0, "fusion_lat": 0.0}, {"type": "electric_bike", "rental_uris": {"ios": "https://dc.lft.to/lastmile_qr_scan", "android": "https://dc.lft.to/lastmile_qr_scan"}, "lon": -76.98813366666667, "fusion_lon": 0.0, "is_disabled": 0, "lat": 38.91138083333333, "bike_id": "61d347c3ca259f2f586bfe81d3708db3", "name": "61d347c3ca259f2f586bfe81d3708db3", "is_reserved": 0, "fusion_lat": 0.0}, {"type": "electric_scooter", "rental_uris": {"ios": "https://dc.lft.to/lastmile_qr_scan", "android": "https://dc.lft.to/lastmile_qr_scan"}, "lon": -77.03638966666666, "fusion_lon": 0.0, "is_disabled": 0, "lat": 38.916192833333334, "bike_id": "82cf7c672d724484d76d5e487d9ba9b5", "name": "82cf7c672d724484d76d5e487d9ba9b5", "is_reserved": 0, "fusion_lat": 0.0}, {"type": "electric_scooter", "rental_uris": {"ios": "https://dc.lft.to/lastmile_qr_scan", "android": "https://dc.lft.to/lastmile_qr_scan"}, "lon": -77.01223183333333, "fusion_lon": 0.0, "is_disabled": 0, "lat": 38.9150155, "bike_id": "05b1f90f26738364e37128ad026ee433", "name": "05b1f90f26738364e37128ad026ee433", "is_reserved": 0, "fusion_lat": 0.0}, {"type": "electric_scooter", "rental_uris": {"ios": "https://dc.lft.to/lastmile_qr_scan", "android": "https://dc.lft.to/lastmile_qr_scan"}, "lon": -76.97724116666667, "fusion_lon": 0.0, "is_disabled": 0, "lat": 38.87244583333333, "bike_id": "99031d5ea9abe1408114b5829caa1825", "name": "99031d5ea9abe1408114b5829caa1825", "is_reserved": 0, "fusion_lat": 0.0}, {"type": "electric_scooter", "rental_uris": {"ios": "https://dc.lft.to/lastmile_qr_scan", "android": "https://dc.lft.to/lastmile_qr_scan"}, "lon": -77.0272305, "fusion_lon": 0.0, "is_disabled": 0, "lat": 38.924825166666665, "bike_id": "8bf8de4530ba1944f429f5af902b0421", "name": "8bf8de4530ba1944f429f5af902b0421", "is_reserved": 0, "fusion_lat": 0.0}, {"type": "electric_scooter", "rental_uris": {"ios": "https://dc.lft.to/lastmile_qr_scan", "android": "https://dc.lft.to/lastmile_qr_scan"}, "lon": -77.03285366666667, "fusion_lon": 0.0, "is_disabled": 0, "lat": 38.92742766666667, "bike_id": "a1c299fde2f915f2730c7334e91516d0", "name": "a1c299fde2f915f2730c7334e91516d0", "is_reserved": 0, "fusion_lat": 0.0}, {"type": "electric_scooter", "rental_uris": {"ios": "https://dc.lft.to/lastmile_qr_scan", "android": "https://dc.lft.to/lastmile_qr_scan"}, "lon": -76.9977635, "fusion_lon": 0.0, "is_disabled": 0, "lat": 38.8443415, "bike_id": "c0b76b604c4806825190d0351558bb45", "name": "c0b76b604c4806825190d0351558bb45", "is_reserved": 0, "fusion_lat": 0.0}, {"type": "electric_scooter", "rental_uris": {"ios": "https://dc.lft.to/lastmile_qr_scan", "android": "https://dc.lft.to/lastmile_qr_scan"}, "lon": -77.03434316666667, "fusion_lon": 0.0, "is_disabled": 0, "lat": 38.907898, "bike_id": "024fefc56916f192f9d5998c528b832e", "name": "024fefc56916f192f9d5998c528b832e", "is_reserved": 0, "fusion_lat": 0.0}, {"type": "electric_scooter", "rental_uris": {"ios": "https://dc.lft.to/lastmile_qr_scan", "android": "https://dc.lft.to/lastmile_qr_scan"}, "lon": -77.04771333333333, "fusion_lon": 0.0, "is_disabled": 0, "lat": 38.90861066666667, "bike_id": "47c78ea3dfac7dff2cd703ee2b775818", "name": "47c78ea3dfac7dff2cd703ee2b775818", "is_reserved": 0, "fusion_lat": 0.0}, {"type": "electric_scooter", "rental_uris": {"ios": "https://dc.lft.to/lastmile_qr_scan", "android": "https://dc.lft.to/lastmile_qr_scan"}, "lon": -77.00961683333334, "fusion_lon": 0.0, "is_disabled": 0, "lat": 38.907918333333335, "bike_id": "759039f348f7997e85e728eb72eb8c95", "name": "759039f348f7997e85e728eb72eb8c95", "is_reserved": 0, "fusion_lat": 0.0}, {"type": "electric_scooter", "rental_uris": {"ios": "https://dc.lft.to/lastmile_qr_scan", "android": "https://dc.lft.to/lastmile_qr_scan"}, "lon": -76.99855983333333, "fusion_lon": 0.0, "is_disabled": 0, "lat": 38.88115533333333, "bike_id": "f08822bf333e43cab2c47f928495adb3", "name": "f08822bf333e43cab2c47f928495adb3", "is_reserved": 0, "fusion_lat": 0.0}, {"type": "electric_scooter", "rental_uris": {"ios": "https://dc.lft.to/lastmile_qr_scan", "android": "https://dc.lft.to/lastmile_qr_scan"}, "lon": -76.9686465, "fusion_lon": 0.0, "is_disabled": 0, "lat": 38.870852166666666, "bike_id": "49cc698d1a16a42963b8ba0856ac1f06", "name": "49cc698d1a16a42963b8ba0856ac1f06", "is_reserved": 0, "fusion_lat": 0.0}, {"type": "electric_bike", "rental_uris": {"ios": "https://dc.lft.to/lastmile_qr_scan", "android": "https://dc.lft.to/lastmile_qr_scan"}, "lon": -76.970943, "fusion_lon": 0.0, "is_disabled": 0, "lat": 38.8572145, "bike_id": "14bc27aeea040f4ccfe89c8aa01be929", "name": "14bc27aeea040f4ccfe89c8aa01be929", "is_reserved": 0, "fusion_lat": 0.0}, {"type": "electric_scooter", "rental_uris": {"ios": "https://dc.lft.to/lastmile_qr_scan", "android": "https://dc.lft.to/lastmile_qr_scan"}, "lon": -77.0476245, "fusion_lon": 0.0, "is_disabled": 0, "lat": 38.917615833333336, "bike_id": "26f90db9451aa885f13cfb8af2967858", "name": "26f90db9451aa885f13cfb8af2967858", "is_reserved": 0, "fusion_lat": 0.0}, {"type": "electric_scooter", "rental_uris": {"ios": "https://dc.lft.to/lastmile_qr_scan", "android": "https://dc.lft.to/lastmile_qr_scan"}, "lon": -76.93988266666666, "fusion_lon": 0.0, "is_disabled": 0, "lat": 38.89981366666667, "bike_id": "4daa5acbebcbabd022c2964f6e184c22", "name": "4daa5acbebcbabd022c2964f6e184c22", "is_reserved": 0, "fusion_lat": 0.0}, {"type": "electric_scooter", "rental_uris": {"ios": "https://dc.lft.to/lastmile_qr_scan", "android": "https://dc.lft.to/lastmile_qr_scan"}, "lon": -77.0337915, "fusion_lon": 0.0, "is_disabled": 0, "lat": 38.892297, "bike_id": "8e4f47b4b3baed9917a24abe8a715e5b", "name": "8e4f47b4b3baed9917a24abe8a715e5b", "is_reserved": 0, "fusion_lat": 0.0}, {"type": "electric_scooter", "rental_uris": {"ios": "https://dc.lft.to/lastmile_qr_scan", "android": "https://dc.lft.to/lastmile_qr_scan"}, "lon": -77.0300685, "fusion_lon": 0.0, "is_disabled": 0, "lat": 38.92246983333333, "bike_id": "0e1bccc0847e3e85ec329b837c29ee62", "name": "0e1bccc0847e3e85ec329b837c29ee62", "is_reserved": 0, "fusion_lat": 0.0}, {"type": "electric_scooter", "rental_uris": {"ios": "https://dc.lft.to/lastmile_qr_scan", "android": "https://dc.lft.to/lastmile_qr_scan"}, "lon": -77.01894833333333, "fusion_lon": 0.0, "is_disabled": 0, "lat": 38.923783666666665, "bike_id": "5b7f9c979dfd60d6e5c9abc5d2acad40", "name": "5b7f9c979dfd60d6e5c9abc5d2acad40", "is_reserved": 0, "fusion_lat": 0.0}, {"type": "electric_scooter", "rental_uris": {"ios": "https://dc.lft.to/lastmile_qr_scan", "android": "https://dc.lft.to/lastmile_qr_scan"}, "lon": -76.99781266666666, "fusion_lon": 0.0, "is_disabled": 0, "lat": 38.844306833333334, "bike_id": "9498ca1ccf28da77b174670346a6483d", "name": "9498ca1ccf28da77b174670346a6483d", "is_reserved": 0, "fusion_lat": 0.0}, {"type": "electric_scooter", "rental_uris": {"ios": "https://dc.lft.to/lastmile_qr_scan", "android": "https://dc.lft.to/lastmile_qr_scan"}, "lon": -76.94640366666667, "fusion_lon": 0.0, "is_disabled": 0, "lat": 38.8984605, "bike_id": "2b03851c3543671236cc2bdcbdfef4a7", "name": "2b03851c3543671236cc2bdcbdfef4a7", "is_reserved": 0, "fusion_lat": 0.0}, {"type": "electric_scooter", "rental_uris": {"ios": "https://dc.lft.to/lastmile_qr_scan", "android": "https://dc.lft.to/lastmile_qr_scan"}, "lon": -77.051214, "fusion_lon": 0.0, "is_disabled": 0, "lat": 38.902094166666664, "bike_id": "9e306ff9b01181f0a6fac2c60e23aa39", "name": "9e306ff9b01181f0a6fac2c60e23aa39", "is_reserved": 0, "fusion_lat": 0.0}, {"type": "electric_scooter", "rental_uris": {"ios": "https://dc.lft.to/lastmile_qr_scan", "android": "https://dc.lft.to/lastmile_qr_scan"}, "lon": -77.0242245, "fusion_lon": 0.0, "is_disabled": 0, "lat": 38.919246666666666, "bike_id": "1eb7cbb93d847f3e81c6513cc47f562e", "name": "1eb7cbb93d847f3e81c6513cc47f562e", "is_reserved": 0, "fusion_lat": 0.0}, {"type": "electric_scooter", "rental_uris": {"ios": "https://dc.lft.to/lastmile_qr_scan", "android": "https://dc.lft.to/lastmile_qr_scan"}, "lon": -76.95760816666666, "fusion_lon": 0.0, "is_disabled": 0, "lat": 38.88432566666667, "bike_id": "c704da5214ecd55ab1081a0c524d8909", "name": "c704da5214ecd55ab1081a0c524d8909", "is_reserved": 0, "fusion_lat": 0.0}, {"type": "electric_bike", "rental_uris": {"ios": "https://dc.lft.to/lastmile_qr_scan", "android": "https://dc.lft.to/lastmile_qr_scan"}, "lon": -76.9370595, "fusion_lon": 0.0, "is_disabled": 0, "lat": 38.871485166666666, "bike_id": "c2e572254b740b4c3e4812eb2841b7bd", "name": "c2e572254b740b4c3e4812eb2841b7bd", "is_reserved": 0, "fusion_lat": 0.0}, {"type": "electric_scooter", "rental_uris": {"ios": "https://dc.lft.to/lastmile_qr_scan", "android": "https://dc.lft.to/lastmile_qr_scan"}, "lon": -77.02323316666667, "fusion_lon": 0.0, "is_disabled": 0, "lat": 38.916649166666666, "bike_id": "ad602c43acfda343595c7fa67c87f0c3", "name": "ad602c43acfda343595c7fa67c87f0c3", "is_reserved": 0, "fusion_lat": 0.0}, {"type": "electric_scooter", "rental_uris": {"ios": "https://dc.lft.to/lastmile_qr_scan", "android": "https://dc.lft.to/lastmile_qr_scan"}, "lon": -77.02237433333333, "fusion_lon": 0.0, "is_disabled": 0, "lat": 38.9613835, "bike_id": "cb868370c6125193ea7edadd95184354", "name": "cb868370c6125193ea7edadd95184354", "is_reserved": 0, "fusion_lat": 0.0}, {"type": "electric_scooter", "rental_uris": {"ios": "https://dc.lft.to/lastmile_qr_scan", "android": "https://dc.lft.to/lastmile_qr_scan"}, "lon": -76.99780616666666, "fusion_lon": 0.0, "is_disabled": 0, "lat": 38.84430716666667, "bike_id": "b93a6227a830e5a7b69126b335dd48d7", "name": "b93a6227a830e5a7b69126b335dd48d7", "is_reserved": 0, "fusion_lat": 0.0}, {"type": "electric_scooter", "rental_uris": {"ios": "https://dc.lft.to/lastmile_qr_scan", "android": "https://dc.lft.to/lastmile_qr_scan"}, "lon": -76.99015416666667, "fusion_lon": 0.0, "is_disabled": 0, "lat": 38.833774, "bike_id": "0dd8393cb726cd91f08d7051333a8c8c", "name": "0dd8393cb726cd91f08d7051333a8c8c", "is_reserved": 0, "fusion_lat": 0.0}, {"type": "electric_scooter", "rental_uris": {"ios": "https://dc.lft.to/lastmile_qr_scan", "android": "https://dc.lft.to/lastmile_qr_scan"}, "lon": -77.0317965, "fusion_lon": 0.0, "is_disabled": 0, "lat": 38.914206, "bike_id": "0e769cebee02b97e08d9ff890c468a3c", "name": "0e769cebee02b97e08d9ff890c468a3c", "is_reserved": 0, "fusion_lat": 0.0}, {"type": "electric_bike", "rental_uris": {"ios": "https://dc.lft.to/lastmile_qr_scan", "android": "https://dc.lft.to/lastmile_qr_scan"}, "lon": -77.07134133333334, "fusion_lon": 0.0, "is_disabled": 0, "lat": 38.930010833333334, "bike_id": "31dd1d3e910d7e0ff9b4fe27cefbbbb5", "name": "31dd1d3e910d7e0ff9b4fe27cefbbbb5", "is_reserved": 0, "fusion_lat": 0.0}, {"type": "electric_scooter", "rental_uris": {"ios": "https://dc.lft.to/lastmile_qr_scan", "android": "https://dc.lft.to/lastmile_qr_scan"}, "lon": -76.99828716666667, "fusion_lon": 0.0, "is_disabled": 0, "lat": 38.900234, "bike_id": "7f13910b6f89dfee2899c6dd49860858", "name": "7f13910b6f89dfee2899c6dd49860858", "is_reserved": 0, "fusion_lat": 0.0}, {"type": "electric_scooter", "rental_uris": {"ios": "https://dc.lft.to/lastmile_qr_scan", "android": "https://dc.lft.to/lastmile_qr_scan"}, "lon": -76.99161583333333, "fusion_lon": 0.0, "is_disabled": 0, "lat": 38.859478333333335, "bike_id": "3bfe836fd5b00ea49788b2382ee678a1", "name": "3bfe836fd5b00ea49788b2382ee678a1", "is_reserved": 0, "fusion_lat": 0.0}, {"type": "electric_scooter", "rental_uris": {"ios": "https://dc.lft.to/lastmile_qr_scan", "android": "https://dc.lft.to/lastmile_qr_scan"}, "lon": -77.04723666666666, "fusion_lon": 0.0, "is_disabled": 0, "lat": 38.922288333333334, "bike_id": "546339363bf19218ec33e9a420dc2cb3", "name": "546339363bf19218ec33e9a420dc2cb3", "is_reserved": 0, "fusion_lat": 0.0}, {"type": "electric_scooter", "rental_uris": {"ios": "https://dc.lft.to/lastmile_qr_scan", "android": "https://dc.lft.to/lastmile_qr_scan"}, "lon": -77.0366345, "fusion_lon": 0.0, "is_disabled": 0, "lat": 38.91726233333333, "bike_id": "44751683148f6fbd93536f2cad7e2d7b", "name": "44751683148f6fbd93536f2cad7e2d7b", "is_reserved": 0, "fusion_lat": 0.0}, {"type": "electric_scooter", "rental_uris": {"ios": "https://dc.lft.to/lastmile_qr_scan", "android": "https://dc.lft.to/lastmile_qr_scan"}, "lon": -77.0016025, "fusion_lon": 0.0, "is_disabled": 0, "lat": 38.90141533333333, "bike_id": "cc50e0d086d5feadf3f2de4102a32a7c", "name": "cc50e0d086d5feadf3f2de4102a32a7c", "is_reserved": 0, "fusion_lat": 0.0}, {"type": "electric_scooter", "rental_uris": {"ios": "https://dc.lft.to/lastmile_qr_scan", "android": "https://dc.lft.to/lastmile_qr_scan"}, "lon": -77.04334733333333, "fusion_lon": 0.0, "is_disabled": 0, "lat": 38.892266166666666, "bike_id": "fc6b36c497fcc55a0e86acefbf0bacde", "name": "fc6b36c497fcc55a0e86acefbf0bacde", "is_reserved": 0, "fusion_lat": 0.0}, {"type": "electric_scooter", "rental_uris": {"ios": "https://dc.lft.to/lastmile_qr_scan", "android": "https://dc.lft.to/lastmile_qr_scan"}, "lon": -76.99878633333333, "fusion_lon": 0.0, "is_disabled": 0, "lat": 38.907562666666664, "bike_id": "74f2af96f03a9c9dd876fb47bf689460", "name": "74f2af96f03a9c9dd876fb47bf689460", "is_reserved": 0, "fusion_lat": 0.0}, {"type": "electric_bike", "rental_uris": {"ios": "https://dc.lft.to/lastmile_qr_scan", "android": "https://dc.lft.to/lastmile_qr_scan"}, "lon": -76.99781833333333, "fusion_lon": 0.0, "is_disabled": 0, "lat": 38.86211816666667, "bike_id": "9afad9631f4b0dd52b7170be2c658146", "name": "9afad9631f4b0dd52b7170be2c658146", "is_reserved": 0, "fusion_lat": 0.0}, {"type": "electric_scooter", "rental_uris": {"ios": "https://dc.lft.to/lastmile_qr_scan", "android": "https://dc.lft.to/lastmile_qr_scan"}, "lon": -77.02881666666667, "fusion_lon": 0.0, "is_disabled": 0, "lat": 38.9282035, "bike_id": "f30966ccca629214dc783efb00940cfb", "name": "f30966ccca629214dc783efb00940cfb", "is_reserved": 0, "fusion_lat": 0.0}, {"type": "electric_bike", "rental_uris": {"ios": "https://dc.lft.to/lastmile_qr_scan", "android": "https://dc.lft.to/lastmile_qr_scan"}, "lon": -77.00661016666666, "fusion_lon": 0.0, "is_disabled": 0, "lat": 38.90832666666667, "bike_id": "920bccf0bda6328c24b5e4b1f5d07ae1", "name": "920bccf0bda6328c24b5e4b1f5d07ae1", "is_reserved": 0, "fusion_lat": 0.0}, {"type": "electric_scooter", "rental_uris": {"ios": "https://dc.lft.to/lastmile_qr_scan", "android": "https://dc.lft.to/lastmile_qr_scan"}, "lon": -77.0009725, "fusion_lon": 0.0, "is_disabled": 0, "lat": 38.9073775, "bike_id": "54b2e28575982495ce8e0448d1192c47", "name": "54b2e28575982495ce8e0448d1192c47", "is_reserved": 0, "fusion_lat": 0.0}, {"type": "electric_scooter", "rental_uris": {"ios": "https://dc.lft.to/lastmile_qr_scan", "android": "https://dc.lft.to/lastmile_qr_scan"}, "lon": -77.03101933333333, "fusion_lon": 0.0, "is_disabled": 0, "lat": 38.92859266666667, "bike_id": "515813044d09606326f0b786e891fe6c", "name": "515813044d09606326f0b786e891fe6c", "is_reserved": 0, "fusion_lat": 0.0}, {"type": "electric_scooter", "rental_uris": {"ios": "https://dc.lft.to/lastmile_qr_scan", "android": "https://dc.lft.to/lastmile_qr_scan"}, "lon": -77.0271475, "fusion_lon": 0.0, "is_disabled": 0, "lat": 38.917069, "bike_id": "818b7d63340887e0fb117089548d65ce", "name": "818b7d63340887e0fb117089548d65ce", "is_reserved": 0, "fusion_lat": 0.0}, {"type": "electric_scooter", "rental_uris": {"ios": "https://dc.lft.to/lastmile_qr_scan", "android": "https://dc.lft.to/lastmile_qr_scan"}, "lon": -77.03545633333333, "fusion_lon": 0.0, "is_disabled": 0, "lat": 38.91886233333334, "bike_id": "e1051bdb9af9c944e196cd01ef8b918d", "name": "e1051bdb9af9c944e196cd01ef8b918d", "is_reserved": 0, "fusion_lat": 0.0}, {"type": "electric_scooter", "rental_uris": {"ios": "https://dc.lft.to/lastmile_qr_scan", "android": "https://dc.lft.to/lastmile_qr_scan"}, "lon": -77.04066016666667, "fusion_lon": 0.0, "is_disabled": 0, "lat": 38.91273566666667, "bike_id": "4f7f3d27b7f676d4db884cecd287cdba", "name": "4f7f3d27b7f676d4db884cecd287cdba", "is_reserved": 0, "fusion_lat": 0.0}, {"type": "electric_scooter", "rental_uris": {"ios": "https://dc.lft.to/lastmile_qr_scan", "android": "https://dc.lft.to/lastmile_qr_scan"}, "lon": -76.93175383333333, "fusion_lon": 0.0, "is_disabled": 0, "lat": 38.89884833333333, "bike_id": "ac321a65136179619ce576471046f9dc", "name": "ac321a65136179619ce576471046f9dc", "is_reserved": 0, "fusion_lat": 0.0}, {"type": "electric_scooter", "rental_uris": {"ios": "https://dc.lft.to/lastmile_qr_scan", "android": "https://dc.lft.to/lastmile_qr_scan"}, "lon": -77.02169266666667, "fusion_lon": 0.0, "is_disabled": 0, "lat": 38.897283333333334, "bike_id": "10a58dc592f231777177505a428e7415", "name": "10a58dc592f231777177505a428e7415", "is_reserved": 0, "fusion_lat": 0.0}, {"type": "electric_scooter", "rental_uris": {"ios": "https://dc.lft.to/lastmile_qr_scan", "android": "https://dc.lft.to/lastmile_qr_scan"}, "lon": -76.985449, "fusion_lon": 0.0, "is_disabled": 0, "lat": 38.866781333333336, "bike_id": "979c8f0d1cad30bcb337786bee636fee", "name": "979c8f0d1cad30bcb337786bee636fee", "is_reserved": 0, "fusion_lat": 0.0}, {"type": "electric_scooter", "rental_uris": {"ios": "https://dc.lft.to/lastmile_qr_scan", "android": "https://dc.lft.to/lastmile_qr_scan"}, "lon": -77.05007483333333, "fusion_lon": 0.0, "is_disabled": 0, "lat": 38.89227983333333, "bike_id": "365b8a39b0dd9ae9575660a41fecf845", "name": "365b8a39b0dd9ae9575660a41fecf845", "is_reserved": 0, "fusion_lat": 0.0}, {"type": "electric_scooter", "rental_uris": {"ios": "https://dc.lft.to/lastmile_qr_scan", "android": "https://dc.lft.to/lastmile_qr_scan"}, "lon": -77.0376495, "fusion_lon": 0.0, "is_disabled": 0, "lat": 38.9296755, "bike_id": "67fe21a8e74be2e0fd7b13b96922ecbd", "name": "67fe21a8e74be2e0fd7b13b96922ecbd", "is_reserved": 0, "fusion_lat": 0.0}, {"type": "electric_bike", "rental_uris": {"ios": "https://dc.lft.to/lastmile_qr_scan", "android": "https://dc.lft.to/lastmile_qr_scan"}, "lon": -77.02628366666667, "fusion_lon": 0.0, "is_disabled": 0, "lat": 38.962181, "bike_id": "bffb646efc11964f9fbcc401075908ad", "name": "bffb646efc11964f9fbcc401075908ad", "is_reserved": 0, "fusion_lat": 0.0}, {"type": "electric_scooter", "rental_uris": {"ios": "https://dc.lft.to/lastmile_qr_scan", "android": "https://dc.lft.to/lastmile_qr_scan"}, "lon": -77.02968566666667, "fusion_lon": 0.0, "is_disabled": 0, "lat": 38.907875, "bike_id": "c3e17341c5613503ec9f34ad5c5f8e51", "name": "c3e17341c5613503ec9f34ad5c5f8e51", "is_reserved": 0, "fusion_lat": 0.0}, {"type": "electric_bike", "rental_uris": {"ios": "https://dc.lft.to/lastmile_qr_scan", "android": "https://dc.lft.to/lastmile_qr_scan"}, "lon": -77.36095933333333, "fusion_lon": 0.0, "is_disabled": 0, "lat": 38.9394945, "bike_id": "7a250cc56cdb178ccf27f15aa0d28abb", "name": "7a250cc56cdb178ccf27f15aa0d28abb", "is_reserved": 0, "fusion_lat": 0.0}, {"type": "electric_bike", "rental_uris": {"ios": "https://dc.lft.to/lastmile_qr_scan", "android": "https://dc.lft.to/lastmile_qr_scan"}, "lon": -77.073898, "fusion_lon": 0.0, "is_disabled": 0, "lat": 38.961836, "bike_id": "cf7ab6ff748a64aa0ee728e117b15ced", "name": "cf7ab6ff748a64aa0ee728e117b15ced", "is_reserved": 0, "fusion_lat": 0.0}, {"type": "electric_bike", "rental_uris": {"ios": "https://dc.lft.to/lastmile_qr_scan", "android": "https://dc.lft.to/lastmile_qr_scan"}, "lon": -76.88369733333333, "fusion_lon": 0.0, "is_disabled": 0, "lat": 38.99814083333333, "bike_id": "3cba607f2a840965f231d71dddbcd159", "name": "3cba607f2a840965f231d71dddbcd159", "is_reserved": 0, "fusion_lat": 0.0}, {"type": "electric_scooter", "rental_uris": {"ios": "https://dc.lft.to/lastmile_qr_scan", "android": "https://dc.lft.to/lastmile_qr_scan"}, "lon": -77.04913633333334, "fusion_lon": 0.0, "is_disabled": 0, "lat": 38.90092116666667, "bike_id": "8f0c963a79ecb80bf29ee5de779718d3", "name": "8f0c963a79ecb80bf29ee5de779718d3", "is_reserved": 0, "fusion_lat": 0.0}, {"type": "electric_scooter", "rental_uris": {"ios": "https://dc.lft.to/lastmile_qr_scan", "android": "https://dc.lft.to/lastmile_qr_scan"}, "lon": -77.02191883333333, "fusion_lon": 0.0, "is_disabled": 0, "lat": 38.90981566666667, "bike_id": "61c372718007e376a4b208fa2e06dae7", "name": "61c372718007e376a4b208fa2e06dae7", "is_reserved": 0, "fusion_lat": 0.0}, {"type": "electric_bike", "rental_uris": {"ios": "https://dc.lft.to/lastmile_qr_scan", "android": "https://dc.lft.to/lastmile_qr_scan"}, "lon": -76.94583716666666, "fusion_lon": 0.0, "is_disabled": 0, "lat": 38.953349, "bike_id": "749ffe9d4dc95e48bfd80b866b8519cf", "name": "749ffe9d4dc95e48bfd80b866b8519cf", "is_reserved": 0, "fusion_lat": 0.0}, {"type": "electric_scooter", "rental_uris": {"ios": "https://dc.lft.to/lastmile_qr_scan", "android": "https://dc.lft.to/lastmile_qr_scan"}, "lon": -77.04649766666667, "fusion_lon": 0.0, "is_disabled": 0, "lat": 38.89222916666667, "bike_id": "87a4db4cfa92db7362a209282583c30a", "name": "87a4db4cfa92db7362a209282583c30a", "is_reserved": 0, "fusion_lat": 0.0},