{"data": {"bikes": [{"is_reserved": 0, "type": "electric_scooter", "bike_id": "24b9a3a7b727ab02ecb1e0b4496ca1ce", "lat": 38.9078155, "lon": -77.07704183333334, "rental_uris": {"android": "https://dc.lft.to/lastmile_qr_scan", "ios": "https://dc.lft.to/lastmile_qr_scan"}, "is_disabled": 0, "fusion_lat": 0.0, "name": "24b9a3a7b727ab02ecb1e0b4496ca1ce", "fusion_lon": 0.0}, {"is_reserved": 0, "type": "electric_scooter", "bike_id": "5e48f8a7eef598268038473e67aaaffd", "lat": 38.931836833333335, "lon": -77.03846283333333, "rental_uris": {"android": "https://dc.lft.to/lastmile_qr_scan", "ios": "https://dc.lft.to/lastmile_qr_scan"}, "is_disabled": 0, "fusion_lat": 0.0, "name": "5e48f8a7eef598268038473e67aaaffd", "fusion_lon": 0.0}, {"is_reserved": 0, "type": "electric_scooter", "bike_id": "e09d339b3bec56b5b7217bb526cd05ee", "lat": 38.9171175, "lon": -77.037622, "rental_uris": {"android": "https://dc.lft.to/lastmile_qr_scan", "ios": "https://dc.lft.to/lastmile_qr_scan"}, "is_disabled": 0, "fusion_lat": 0.0, "name": "e09d339b3bec56b5b7217bb526cd05ee", "fusion_lon": 0.0}, {"is_reserved": 0, "type": "electric_scooter", "bike_id": "5b86ee6cb36c150d1d7506458f8a0753", "lat": 38.88722716666667, "lon": -77.01983083333333, "rental_uris": {"android": "https://dc.lft.to/lastmile_qr_scan", "ios": "https://dc.lft.to/lastmile_qr_scan"}, "is_disabled": 0, "fusion_lat": 0.0, "name": "5b86ee6cb36c150d1d7506458f8a0753", "fusion_lon": 0.0}, {"is_reserved": 0, "type": "electric_scooter", "bike_id": "38fd5de2a60e18a892025745f360d558", "lat": 38.892707, "lon": -76.92993416666667, "rental_uris": {"android": "https://dc.lft.to/lastmile_qr_scan", "ios": "https://dc.lft.to/lastmile_qr_scan"}, "is_disabled": 0, "fusion_lat": 0.0, "name": "38fd5de2a60e18a892025745f360d558", "fusion_lon": 0.0}, {"is_reserved": 0, "type": "electric_scooter", "bike_id": "edce7b7fe43fb1cc0c8c035d572603ce", "lat": 38.8991, "lon": -77.018896, "rental_uris": {"android": "https://dc.lft.to/lastmile_qr_scan", "ios": "https://dc.lft.to/lastmile_qr_scan"}, "is_disabled": 0, "fusion_lat": 0.0, "name": "edce7b7fe43fb1cc0c8c035d572603ce", "fusion_lon": 0.0}, {"is_reserved": 0, "type": "electric_scooter", "bike_id": "865d30668492c5dd856f705a6155c7bc", "lat": 38.9204565, "lon": -77.041991, "rental_uris": {"android": "https://dc.lft.to/lastmile_qr_scan", "ios": "https://dc.lft.to/lastmile_qr_scan"}, "is_disabled": 0, "fusion_lat": 0.0, "name": "865d30668492c5dd856f705a6155c7bc", "fusion_lon": 0.0}, {"is_reserved": 0, "type": "electric_scooter", "bike_id": "650ba484ccc4471b8366dd623b55078a", "lat": 38.92444666666667, "lon": -77.03347216666667, "rental_uris": {"android": "https://dc.lft.to/lastmile_qr_scan", "ios": "https://dc.lft.to/lastmile_qr_scan"}, "is_disabled": 0, "fusion_lat": 0.0, "name": "650ba484ccc4471b8366dd623b55078a", "fusion_lon": 0.0}, {"is_reserved": 0, "type": "electric_scooter", "bike_id": "b725632cad90d0bee382d535e427a5c7", "lat": 38.901297666666665, "lon": -77.02995916666667, "rental_uris": {"android": "https://dc.lft.to/lastmile_qr_scan", "ios": "https://dc.lft.to/lastmile_qr_scan"}, "is_disabled": 0, "fusion_lat": 0.0, "name": "b725632cad90d0bee382d535e427a5c7", "fusion_lon": 0.0}, {"is_reserved": 0, "type": "electric_scooter", "bike_id": "48dfc6cf2b7f5f27fc696fa33193da87", "lat": 38.883908, "lon": -76.93046666666666, "rental_uris": {"android": "https://dc.lft.to/lastmile_qr_scan", "ios": "https://dc.lft.to/lastmile_qr_scan"}, "is_disabled": 0, "fusion_lat": 0.0, "name": "48dfc6cf2b7f5f27fc696fa33193da87", "fusion_lon": 0.0}, {"is_reserved": 0, "type": "electric_scooter", "bike_id": "89de8a002657609df1fb15b922585a66", "lat": 38.89644883333333, "lon": -76.99030366666666, "rental_uris": {"android": "https://dc.lft.to/lastmile_qr_scan", "ios": "https://dc.lft.to/lastmile_qr_scan"}, "is_disabled": 0, "fusion_lat": 0.0, "name": "89de8a002657609df1fb15b922585a66", "fusion_lon": 0.0}, {"is_reserved": 0, "type": "electric_scooter", "bike_id": "665a6c000cdef3d1d137948b2fb20c43", "lat": 38.896174, "lon": -76.97679566666666, "rental_uris": {"android": "https://dc.lft.to/lastmile_qr_scan", "ios": "https://dc.lft.to/lastmile_qr_scan"}, "is_disabled": 0, "fusion_lat": 0.0, "name": "665a6c000cdef3d1d137948b2fb20c43", "fusion_lon": 0.0}, {"is_reserved": 0, "type": "electric_scooter", "bike_id": "b4b4bbbb711e903604e5cb4fce9312f9", "lat": 38.89757516666667, "lon": -77.0303645, "rental_uris": {"android": "https://dc.lft.to/lastmile_qr_scan", "ios": "https://dc.lft.to/lastmile_qr_scan"}, "is_disabled": 0, "fusion_lat": 0.0, "name": "b4b4bbbb711e903604e5cb4fce9312f9", "fusion_lon": 0.0}, {"is_reserved": 0, "type": "electric_scooter", "bike_id": "44a45b92ace3201fd9f907d3bb90f8a8", "lat": 38.92745466666667, "lon": -77.06958533333334, "rental_uris": {"android": "https://dc.lft.to/lastmile_qr_scan", "ios": "https://dc.lft.to/lastmile_qr_scan"}, "is_disabled": 0, "fusion_lat": 0.0, "name": "44a45b92ace3201fd9f907d3bb90f8a8", "fusion_lon": 0.0}, {"is_reserved": 0, "type": "electric_scooter", "bike_id": "eaebe472c7e2cf6e228fd2b23533140e", "lat": 38.9248835, "lon": -77.02814933333333, "rental_uris": {"android": "https://dc.lft.to/lastmile_qr_scan", "ios": "https://dc.lft.to/lastmile_qr_scan"}, "is_disabled": 0, "fusion_lat": 0.0, "name": "eaebe472c7e2cf6e228fd2b23533140e", "fusion_lon": 0.0}, {"is_reserved": 0, "type": "electric_bike", "bike_id": "7ad56d590216ca459b3bf74dd265a9af", "lat": 39.094458333333336, "lon": -77.13466716666667, "rental_uris": {"android": "https://dc.lft.to/lastmile_qr_scan", "ios": "https://dc.lft.to/lastmile_qr_scan"}, "is_disabled": 0, "fusion_lat": 0.0, "name": "7ad56d590216ca459b3bf74dd265a9af", "fusion_lon": 0.0}, {"is_reserved": 0, "type": "electric_scooter", "bike_id": "7daf0c8457a94e78ee9fe009cc8c3cea", "lat": 38.895323, "lon": -77.0335255, "rental_uris": {"android": "https://dc.lft.to/lastmile_qr_scan", "ios": "https://dc.lft.to/lastmile_qr_scan"}, "is_disabled": 0, "fusion_lat": 0.0, "name": "7daf0c8457a94e78ee9fe009cc8c3cea", "fusion_lon": 0.0}, {"is_reserved": 0, "type": "electric_scooter", "bike_id": "2e2d6fddcac7ce12479b7bbb37fa9b65", "lat": 38.93638083333333, "lon": -77.060123, "rental_uris": {"android": "https://dc.lft.to/lastmile_qr_scan", "ios": "https://dc.lft.to/lastmile_qr_scan"}, "is_disabled": 0, "fusion_lat": 0.0, "name": "2e2d6fddcac7ce12479b7bbb37fa9b65", "fusion_lon": 0.0}, {"is_reserved": 0, "type": "electric_scooter", "bike_id": "d3a8c9facd1ce384fdf9bca2f3d64c41", "lat": 38.9298575, "lon": -77.05502816666667, "rental_uris": {"android": "https://dc.lft.to/lastmile_qr_scan", "ios": "https://dc.lft.to/lastmile_qr_scan"}, "is_disabled": 0, "fusion_lat": 0.0, "name": "d3a8c9facd1ce384fdf9bca2f3d64c41", "fusion_lon": 0.0}, {"is_reserved": 0, "type": "electric_scooter", "bike_id": "b6b066e1d426da9ff9ef3745491ea09a", "lat": 38.897077333333336, "lon": -76.99115866666666, "rental_uris": {"android": "https://dc.lft.to/lastmile_qr_scan", "ios": "https://dc.lft.to/lastmile_qr_scan"}, "is_disabled": 0, "fusion_lat": 0.0, "name": "b6b066e1d426da9ff9ef3745491ea09a", "fusion_lon": 0.0}, {"is_reserved": 0, "type": "electric_scooter", "bike_id": "b763728d2f2ec88817f0c4159bba74a8", "lat": 38.9192765, "lon": -77.01976566666667, "rental_uris": {"android": "https://dc.lft.to/lastmile_qr_scan", "ios": "https://dc.lft.to/lastmile_qr_scan"}, "is_disabled": 0, "fusion_lat": 0.0, "name": "b763728d2f2ec88817f0c4159bba74a8", "fusion_lon": 0.0}, {"is_reserved": 0, "type": "electric_scooter", "bike_id": "bccb0caeb2e01830f2c6f24edcc8ea45", "lat": 38.905632, "lon": -77.0281775, "rental_uris": {"android": "https://dc.lft.to/lastmile_qr_scan", "ios": "https://dc.lft.to/lastmile_qr_scan"}, "is_disabled": 0, "fusion_lat": 0.0, "name": "bccb0caeb2e01830f2c6f24edcc8ea45", "fusion_lon": 0.0}, {"is_reserved": 0, "type": "electric_scooter", "bike_id": "a7c8d2e63b1f97ce37eed5074b01825f", "lat": 38.972994, "lon": -77.03628, "rental_uris": {"android": "https://dc.lft.to/lastmile_qr_scan", "ios": "https://dc.lft.to/lastmile_qr_scan"}, "is_disabled": 0, "fusion_lat": 0.0, "name": "a7c8d2e63b1f97ce37eed5074b01825f", "fusion_lon": 0.0}, {"is_reserved": 0, "type": "electric_scooter", "bike_id": "cfbf6172b66c324299ef7f305f84ee63", "lat": 38.923710666666665, "lon": -77.08054383333334, "rental_uris": {"android": "https://dc.lft.to/lastmile_qr_scan", "ios": "https://dc.lft.to/lastmile_qr_scan"}, "is_disabled": 0, "fusion_lat": 0.0, "name": "cfbf6172b66c324299ef7f305f84ee63", "fusion_lon": 0.0}, {"is_reserved": 0, "type": "electric_scooter", "bike_id": "b4cbc8612214e0fe51152f4b99e95ee9", "lat": 38.8645045, "lon": -76.99112766666667, "rental_uris": {"android": "https://dc.lft.to/lastmile_qr_scan", "ios": "https://dc.lft.to/lastmile_qr_scan"}, "is_disabled": 0, "fusion_lat": 0.0, "name": "b4cbc8612214e0fe51152f4b99e95ee9", "fusion_lon": 0.0}, {"is_reserved": 0, "type": "electric_scooter", "bike_id": "50d3ca90101ecd6acfbb2ea6ea071390", "lat": 38.93535333333333, "lon": -77.02349916666667, "rental_uris": {"android": "https://dc.lft.to/lastmile_qr_scan", "ios": "https://dc.lft.to/lastmile_qr_scan"}, "is_disabled": 0, "fusion_lat": 0.0, "name": "50d3ca90101ecd6acfbb2ea6ea071390", "fusion_lon": 0.0}, {"is_reserved": 0, "type": "electric_scooter", "bike_id": "e852082c622444aca56395db78db37c9", "lat": 38.930226, "lon": -77.03785516666667, "rental_uris": {"android": "https://dc.lft.to/lastmile_qr_scan", "ios": "https://dc.lft.to/lastmile_qr_scan"}, "is_disabled": 0, "fusion_lat": 0.0, "name": "e852082c622444aca56395db78db37c9", "fusion_lon": 0.0}, {"is_reserved": 0, "type": "electric_scooter", "bike_id": "e29401dc4ad9e150347e0990461f7f5c", "lat": 38.9279565, "lon": -77.03605666666667, "rental_uris": {"android": "https://dc.lft.to/lastmile_qr_scan", "ios": "https://dc.lft.to/lastmile_qr_scan"}, "is_disabled": 0, "fusion_lat": 0.0, "name": "e29401dc4ad9e150347e0990461f7f5c", "fusion_lon": 0.0}, {"is_reserved": 0, "type": "electric_scooter", "bike_id": "8558f2c31f926d2d7176eaa439f8caa2", "lat": 38.9052635, "lon": -77.061499, "rental_uris": {"android": "https://dc.lft.to/lastmile_qr_scan", "ios": "https://dc.lft.to/lastmile_qr_scan"}, "is_disabled": 0, "fusion_lat": 0.0, "name": "8558f2c31f926d2d7176eaa439f8caa2", "fusion_lon": 0.0}, {"is_reserved": 0, "type": "electric_scooter", "bike_id": "f9edb23b4327cc5b4162b56cc0aacd2b", "lat": 38.8986605, "lon": -76.94638716666667, "rental_uris": {"android": "https://dc.lft.to/lastmile_qr_scan", "ios": "https://dc.lft.to/lastmile_qr_scan"}, "is_disabled": 0, "fusion_lat": 0.0, "name": "f9edb23b4327cc5b4162b56cc0aacd2b", "fusion_lon": 0.0}, {"is_reserved": 0, "type": "electric_bike", "bike_id": "df7957233eb5f306729776f02734d01c", "lat": 38.96133733333333, "lon": -77.02983716666667, "rental_uris": {"android": "https://dc.lft.to/lastmile_qr_scan", "ios": "https://dc.lft.to/lastmile_qr_scan"}, "is_disabled": 0, "fusion_lat": 0.0, "name": "df7957233eb5f306729776f02734d01c", "fusion_lon": 0.0}, {"is_reserved": 0, "type": "electric_scooter", "bike_id": "861d397eb2475f8cfab74a6e4ee41d0e", "lat": 38.98989733333333, "lon": -77.0336335, "rental_uris": {"android": "https://dc.lft.to/lastmile_qr_scan", "ios": "https://dc.lft.to/lastmile_qr_scan"}, "is_disabled": 0, "fusion_lat": 0.0, "name": "861d397eb2475f8cfab74a6e4ee41d0e", "fusion_lon": 0.0}, {"is_reserved": 0, "type": "electric_scooter", "bike_id": "d7c43e7ab953a760bcb2903a6bf40447", "lat": 38.90726733333333, "lon": -77.007023, "rental_uris": {"android": "https://dc.lft.to/lastmile_qr_scan", "ios": "https://dc.lft.to/lastmile_qr_scan"}, "is_disabled": 0, "fusion_lat": 0.0, "name": "d7c43e7ab953a760bcb2903a6bf40447", "fusion_lon": 0.0}, {"is_reserved": 0, "type": "electric_bike", "bike_id": "7487ac5a0b6a0bc98a54290e01213cb7", "lat": 38.946677333333334, "lon": -77.00777016666666, "rental_uris": {"android": "https://dc.lft.to/lastmile_qr_scan", "ios": "https://dc.lft.to/lastmile_qr_scan"}, "is_disabled": 0, "fusion_lat": 0.0, "name": "7487ac5a0b6a0bc98a54290e01213cb7", "fusion_lon": 0.0}, {"is_reserved": 0, "type": "electric_scooter", "bike_id": "3163d9ec294444d22ea899513260bb58", "lat": 38.925568166666665, "lon": -77.0531725, "rental_uris": {"android": "https://dc.lft.to/lastmile_qr_scan", "ios": "https://dc.lft.to/lastmile_qr_scan"}, "is_disabled": 0, "fusion_lat": 0.0, "name": "3163d9ec294444d22ea899513260bb58", "fusion_lon": 0.0}, {"is_reserved": 0, "type": "electric_scooter", "bike_id": "0cb1b9090aa1729f6b04f199263a695f", "lat": 38.887395166666664, "lon": -77.01353283333333, "rental_uris": {"android": "https://dc.lft.to/lastmile_qr_scan", "ios": "https://dc.lft.to/lastmile_qr_scan"}, "is_disabled": 0, "fusion_lat": 0.0, "name": "0cb1b9090aa1729f6b04f199263a695f", "fusion_lon": 0.0}, {"is_reserved": 0, "type": "electric_scooter", "bike_id": "e365de02684c959274b18628a35ca85e", "lat": 38.89883233333333, "lon": -76.988356, "rental_uris": {"android": "https://dc.lft.to/lastmile_qr_scan", "ios": "https://dc.lft.to/lastmile_qr_scan"}, "is_disabled": 0, "fusion_lat": 0.0, "name": "e365de02684c959274b18628a35ca85e", "fusion_lon": 0.0}, {"is_reserved": 0, "type": "electric_scooter", "bike_id": "1ee39086f809f4e76fbb4cce83540b66", "lat": 38.913775, "lon": -77.046075, "rental_uris": {"android": "https://dc.lft.to/lastmile_qr_scan", "ios": "https://dc.lft.to/lastmile_qr_scan"}, "is_disabled": 0, "fusion_lat": 0.0, "name": "1ee39086f809f4e76fbb4cce83540b66", "fusion_lon": 0.0}, {"is_reserved": 0, "type": "electric_scooter", "bike_id": "0d0c426480eeaaaebcd3cec1eac8062a", "lat": 38.9228135, "lon": -77.04288483333333, "rental_uris": {"android": "https://dc.lft.to/lastmile_qr_scan", "ios": "https://dc.lft.to/lastmile_qr_scan"}, "is_disabled": 0, "fusion_lat": 0.0, "name": "0d0c426480eeaaaebcd3cec1eac8062a", "fusion_lon": 0.0}, {"is_reserved": 0, "type": "electric_scooter", "bike_id": "025203e7afba395c283cbdd56478e687", "lat": 38.89067983333333, "lon": -76.93823833333333, "rental_uris": {"android": "https://dc.lft.to/lastmile_qr_scan", "ios": "https://dc.lft.to/lastmile_qr_scan"}, "is_disabled": 0, "fusion_lat": 0.0, "name": "025203e7afba395c283cbdd56478e687", "fusion_lon": 0.0}, {"is_reserved": 0, "type": "electric_scooter", "bike_id": "a3f9f87f0914096e56e07cc35638c99c", "lat": 38.93261483333333, "lon": -77.0326805, "rental_uris": {"android": "https://dc.lft.to/lastmile_qr_scan", "ios": "https://dc.lft.to/lastmile_qr_scan"}, "is_disabled": 0, "fusion_lat": 0.0, "name": "a3f9f87f0914096e56e07cc35638c99c", "fusion_lon": 0.0}, {"is_reserved": 0, "type": "electric_scooter", "bike_id": "adacaec479862d9520c8a877de3fa42a", "lat": 38.90476183333333, "lon": -77.00714866666667, "rental_uris": {"android": "https://dc.lft.to/lastmile_qr_scan", "ios": "https://dc.lft.to/lastmile_qr_scan"}, "is_disabled": 0, "fusion_lat": 0.0, "name": "adacaec479862d9520c8a877de3fa42a", "fusion_lon": 0.0}, {"is_reserved": 0, "type": "electric_scooter", "bike_id": "bf42e017865cdebd1d38850029c14a4c", "lat": 38.89362033333333, "lon": -76.9868225, "rental_uris": {"android": "https://dc.lft.to/lastmile_qr_scan", "ios": "https://dc.lft.to/lastmile_qr_scan"}, "is_disabled": 0, "fusion_lat": 0.0, "name": "bf42e017865cdebd1d38850029c14a4c", "fusion_lon": 0.0}, {"is_reserved": 0, "type": "electric_scooter", "bike_id": "5bef3555b6edc9be5e70244a2fc28ac9", "lat": 38.93495166666666, "lon": -77.0445885, "rental_uris": {"android": "https://dc.lft.to/lastmile_qr_scan", "ios": "https://dc.lft.to/lastmile_qr_scan"}, "is_disabled": 0, "fusion_lat": 0.0, "name": "5bef3555b6edc9be5e70244a2fc28ac9", "fusion_lon": 0.0}, {"is_reserved": 0, "type": "electric_scooter", "bike_id": "cf10d3b1d7083749a15ba13f8cdd4dc3", "lat": 38.926338666666666, "lon": -77.03778233333334, "rental_uris": {"android": "https://dc.lft.to/lastmile_qr_scan", "ios": "https://dc.lft.to/lastmile_qr_scan"}, "is_disabled": 0, "fusion_lat": 0.0, "name": "cf10d3b1d7083749a15ba13f8cdd4dc3", "fusion_lon": 0.0}, {"is_reserved": 0, "type": "electric_scooter", "bike_id": "eec68b803426c6b1b2181701ee216b5f", "lat": 38.927927333333336, "lon": -77.03716933333334, "rental_uris": {"android": "https://dc.lft.to/lastmile_qr_scan", "ios": "https://dc.lft.to/lastmile_qr_scan"}, "is_disabled": 0, "fusion_lat": 0.0, "name": "eec68b803426c6b1b2181701ee216b5f", "fusion_lon": 0.0}, {"is_reserved": 0, "type": "electric_scooter", "bike_id": "9748e08981f76d11c4939470f7aaed08", "lat": 38.913995666666665, "lon": -77.033193, "rental_uris": {"android": "https://dc.lft.to/lastmile_qr_scan", "ios": "https://dc.lft.to/lastmile_qr_scan"}, "is_disabled": 0, "fusion_lat": 0.0, "name": "9748e08981f76d11c4939470f7aaed08", "fusion_lon": 0.0}, {"is_reserved": 0, "type": "electric_bike", "bike_id": "850baf1b34ab614209a6368bdccaec16", "lat": 38.803866666666664, "lon": -76.988139, "rental_uris": {"android": "https://dc.lft.to/lastmile_qr_scan", "ios": "https://dc.lft.to/lastmile_qr_scan"}, "is_disabled": 0, "fusion_lat": 0.0, "name": "850baf1b34ab614209a6368bdccaec16", "fusion_lon": 0.0}, {"is_reserved": 0, "type": "electric_scooter", "bike_id": "6ec2b5b5814cc84a266f832b08eefb08", "lat": 38.8829705, "lon": -76.92929366666667, "rental_uris": {"android": "https://dc.lft.to/lastmile_qr_scan", "ios": "https://dc.lft.to/lastmile_qr_scan"}, "is_disabled": 0, "fusion_lat": 0.0, "name": "6ec2b5b5814cc84a266f832b08eefb08", "fusion_lon": 0.0}, {"is_reserved": 0, "type": "electric_scooter", "bike_id": "ffb4e0d87b09e5919e5b337dd54a09b6", "lat": 38.88368466666667, "lon": -76.9414275, "rental_uris": {"android": "https://dc.lft.to/lastmile_qr_scan", "ios": "https://dc.lft.to/lastmile_qr_scan"}, "is_disabled": 0, "fusion_lat": 0.0, "name": "ffb4e0d87b09e5919e5b337dd54a09b6", "fusion_lon": 0.0}, {"is_reserved": 0, "type": "electric_scooter", "bike_id": "caef8685b419be58951cbdd031433243", "lat": 38.93529433333333, "lon": -77.0235915, "rental_uris": {"android": "https://dc.lft.to/lastmile_qr_scan", "ios": "https://dc.lft.to/lastmile_qr_scan"}, "is_disabled": 0, "fusion_lat": 0.0, "name": "caef8685b419be58951cbdd031433243", "fusion_lon": 0.0}, {"is_reserved": 0, "type": "electric_scooter", "bike_id": "48b41f1f0e9358628bd1417fd0af2481", "lat": 38.9026715, "lon": -77.054027, "rental_uris": {"android": "https://dc.lft.to/lastmile_qr_scan", "ios": "https://dc.lft.to/lastmile_qr_scan"}, "is_disabled": 0, "fusion_lat": 0.0, "name": "48b41f1f0e9358628bd1417fd0af2481", "fusion_lon": 0.0}, {"is_reserved": 0, "type": "electric_scooter", "bike_id": "aca618b203d5e599c683ea99b3c6d125", "lat": 38.93504516666667, "lon": -77.0241455, "rental_uris": {"android": "https://dc.lft.to/lastmile_qr_scan", "ios": "https://dc.lft.to/lastmile_qr_scan"}, "is_disabled": 0, "fusion_lat": 0.0, "name": "aca618b203d5e599c683ea99b3c6d125", "fusion_lon": 0.0}, {"is_reserved": 0, "type": "electric_scooter", "bike_id": "9c25d394f7d84add7b5b753d491ba7f2", "lat": 38.914666, "lon": -76.981173, "rental_uris": {"android": "https://dc.lft.to/lastmile_qr_scan", "ios": "https://dc.lft.to/lastmile_qr_scan"}, "is_disabled": 0, "fusion_lat": 0.0, "name": "9c25d394f7d84add7b5b753d491ba7f2", "fusion_lon": 0.0}, {"is_reserved": 0, "type": "electric_scooter", "bike_id": "cea6ec43ad50bcee3408ab1444f78963", "lat": 38.86722416666667, "lon": -76.97912966666667, "rental_uris": {"android": "https://dc.lft.to/lastmile_qr_scan", "ios": "https://dc.lft.to/lastmile_qr_scan"}, "is_disabled": 0, "fusion_lat": 0.0, "name": "cea6ec43ad50bcee3408ab1444f78963", "fusion_lon": 0.0}, {"is_reserved": 0, "type": "electric_scooter", "bike_id": "62b56e9720e975461ae5caa025890dc7", "lat": 38.907777833333334, "lon": -77.0355985, "rental_uris": {"android": "https://dc.lft.to/lastmile_qr_scan", "ios": "https://dc.lft.to/lastmile_qr_scan"}, "is_disabled": 0, "fusion_lat": 0.0, "name": "62b56e9720e975461ae5caa025890dc7", "fusion_lon": 0.0}, {"is_reserved": 0, "type": "electric_scooter", "bike_id": "d6f3cbc7ae22892ef897775b1466cf90", "lat": 38.90598983333334, "lon": -76.95063683333333, "rental_uris": {"android": "https://dc.lft.to/lastmile_qr_scan", "ios": "https://dc.lft.to/lastmile_qr_scan"}, "is_disabled": 0, "fusion_lat": 0.0, "name": "d6f3cbc7ae22892ef897775b1466cf90", "fusion_lon": 0.0}, {"is_reserved": 0, "type": "electric_scooter", "bike_id": "501bb4ac9ce58d747d2b1ddc0891efbd", "lat": 38.90538933333333, "lon": -77.06151883333334, "rental_uris": {"android": "https://dc.lft.to/lastmile_qr_scan", "ios": "https://dc.lft.to/lastmile_qr_scan"}, "is_disabled": 0, "fusion_lat": 0.0, "name": "501bb4ac9ce58d747d2b1ddc0891efbd", "fusion_lon": 0.0}, {"is_reserved": 0, "type": "electric_bike", "bike_id": "7150368b54eb6e8db4794ae66a2c260d", "lat": 38.9787215, "lon": -77.025814, "rental_uris": {"android": "https://dc.lft.to/lastmile_qr_scan", "ios": "https://dc.lft.to/lastmile_qr_scan"}, "is_disabled": 0, "fusion_lat": 0.0, "name": "7150368b54eb6e8db4794ae66a2c260d", "fusion_lon": 0.0}, {"is_reserved": 0, "type": "electric_scooter", "bike_id": "ec800c7f8830dd668fb90e6b2ac462d5", "lat": 38.940814333333336, "lon": -77.0550235, "rental_uris": {"android": "https://dc.lft.to/lastmile_qr_scan", "ios": "https://dc.lft.to/lastmile_qr_scan"}, "is_disabled": 0, "fusion_lat": 0.0, "name": "ec800c7f8830dd668fb90e6b2ac462d5", "fusion_lon": 0.0}, {"is_reserved": 0, "type": "electric_scooter", "bike_id": "2346acfeed2cf007fc3489205029747c", "lat": 38.92065483333333, "lon": -77.0243795, "rental_uris": {"android": "https://dc.lft.to/lastmile_qr_scan", "ios": "https://dc.lft.to/lastmile_qr_scan"}, "is_disabled": 0, "fusion_lat": 0.0, "name": "2346acfeed2cf007fc3489205029747c", "fusion_lon": 0.0}, {"is_reserved": 0, "type": "electric_scooter", "bike_id": "9b109c882cecbe0d196a04722b3020dc", "lat": 38.88384, "lon": -76.93042466666667, "rental_uris": {"android": "https://dc.lft.to/lastmile_qr_scan", "ios": "https://dc.lft.to/lastmile_qr_scan"}, "is_disabled": 0, "fusion_lat": 0.0, "name": "9b109c882cecbe0d196a04722b3020dc", "fusion_lon": 0.0}, {"is_reserved": 0, "type": "electric_scooter", "bike_id": "a677309c137e2ef58087f1c83a1fcd0c", "lat": 38.89225416666667, "lon": -77.01607933333334, "rental_uris": {"android": "https://dc.lft.to/lastmile_qr_scan", "ios": "https://dc.lft.to/lastmile_qr_scan"}, "is_disabled": 0, "fusion_lat": 0.0, "name": "a677309c137e2ef58087f1c83a1fcd0c", "fusion_lon": 0.0}, {"is_reserved": 0, "type": "electric_scooter", "bike_id": "bb6e2e8cdf09782930a6d0a4fd8fc435", "lat": 38.9321105, "lon": -77.03892616666667, "rental_uris": {"android": "https://dc.lft.to/lastmile_qr_scan", "ios": "https://dc.lft.to/lastmile_qr_scan"}, "is_disabled": 0, "fusion_lat": 0.0, "name": "bb6e2e8cdf09782930a6d0a4fd8fc435", "fusion_lon": 0.0}, {"is_reserved": 0, "type": "electric_scooter", "bike_id": "408b9ce104d5f203d1effe5dedf35201", "lat": 38.920828, "lon": -77.0253065, "rental_uris": {"android": "https://dc.lft.to/lastmile_qr_scan", "ios": "https://dc.lft.to/lastmile_qr_scan"}, "is_disabled": 0, "fusion_lat": 0.0, "name": "408b9ce104d5f203d1effe5dedf35201", "fusion_lon": 0.0}, {"is_reserved": 0, "type": "electric_scooter", "bike_id": "4c635e016be3433da440991a6b40607e", "lat": 38.9015615, "lon": -77.041699, "rental_uris": {"android": "https://dc.lft.to/lastmile_qr_scan", "ios": "https://dc.lft.to/lastmile_qr_scan"}, "is_disabled": 0, "fusion_lat": 0.0, "name": "4c635e016be3433da440991a6b40607e", "fusion_lon": 0.0}, {"is_reserved": 0, "type": "electric_bike", "bike_id": "20eb00ee005d41440c8c3ce2041294be", "lat": 38.894561, "lon": -77.1912945, "rental_uris": {"android": "https://dc.lft.to/lastmile_qr_scan", "ios": "https://dc.lft.to/lastmile_qr_scan"}, "is_disabled": 0, "fusion_lat": 0.0, "name": "20eb00ee005d41440c8c3ce2041294be", "fusion_lon": 0.0}, {"is_reserved": 0, "type": "electric_scooter", "bike_id": "a4d88ea2cdb992366ef841a678fddf47", "lat": 38.930794666666664, "lon": -77.037471, "rental_uris": {"android": "https://dc.lft.to/lastmile_qr_scan", "ios": "https://dc.lft.to/lastmile_qr_scan"}, "is_disabled": 0, "fusion_lat": 0.0, "name": "a4d88ea2cdb992366ef841a678fddf47", "fusion_lon": 0.0}, {"is_reserved": 0, "type": "electric_scooter", "bike_id": "eb969af3c1e4e8dd518ee5877de53550", "lat": 38.899133, "lon": -77.02706116666667, "rental_uris": {"android": "https://dc.lft.to/lastmile_qr_scan", "ios": "https://dc.lft.to/lastmile_qr_scan"}, "is_disabled": 0, "fusion_lat": 0.0, "name": "eb969af3c1e4e8dd518ee5877de53550", "fusion_lon": 0.0}, {"is_reserved": 0, "type": "electric_scooter", "bike_id": "ed4be7630e9778172ca8b97b6846490d", "lat": 38.911826166666664, "lon": -77.04507566666666, "rental_uris": {"android": "https://dc.lft.to/lastmile_qr_scan", "ios": "https://dc.lft.to/lastmile_qr_scan"}, "is_disabled": 0, "fusion_lat": 0.0, "name": "ed4be7630e9778172ca8b97b6846490d", "fusion_lon": 0.0}, {"is_reserved": 0, "type": "electric_scooter", "bike_id": "eb29fb3f10c4b58d5656b86d04ad1ff8", "lat": 38.9182045, "lon": -77.0400645, "rental_uris": {"android": "https://dc.lft.to/lastmile_qr_scan", "ios": "https://dc.lft.to/lastmile_qr_scan"}, "is_disabled": 0, "fusion_lat": 0.0, "name": "eb29fb3f10c4b58d5656b86d04ad1ff8", "fusion_lon": 0.0}, {"is_reserved": 0, "type": "electric_scooter", "bike_id": "6324cc6e6972aa2abde87bf29bf73a8d", "lat": 38.88784533333333, "lon": -76.97716383333334, "rental_uris": {"android": "https://dc.lft.to/lastmile_qr_scan", "ios": "https://dc.lft.to/lastmile_qr_scan"}, "is_disabled": 0, "fusion_lat": 0.0, "name": "6324cc6e6972aa2abde87bf29bf73a8d", "fusion_lon": 0.0}, {"is_reserved": 0, "type": "electric_scooter", "bike_id": "03dd4ee4eddad41d4c990481473b1da9", "lat": 38.928552833333335, "lon": -77.0373735, "rental_uris": {"android": "https://dc.lft.to/lastmile_qr_scan", "ios": "https://dc.lft.to/lastmile_qr_scan"}, "is_disabled": 0, "fusion_lat": 0.0, "name": "03dd4ee4eddad41d4c990481473b1da9", "fusion_lon": 0.0}, {"is_reserved": 0, "type": "electric_scooter", "bike_id": "2808bb70d44e6be5fbfc8ba1726164db", "lat": 38.8729505, "lon": -77.01563433333334, "rental_uris": {"android": "https://dc.lft.to/lastmile_qr_scan", "ios": "https://dc.lft.to/lastmile_qr_scan"}, "is_disabled": 0, "fusion_lat": 0.0, "name": "2808bb70d44e6be5fbfc8ba1726164db", "fusion_lon": 0.0}, {"is_reserved": 0, "type": "electric_scooter", "bike_id": "6e191cbc0f56ba9433ebc895aaa4aa0e", "lat": 38.887189166666666, "lon": -76.9960825, "rental_uris": {"android": "https://dc.lft.to/lastmile_qr_scan", "ios": "https://dc.lft.to/lastmile_qr_scan"}, "is_disabled": 0, "fusion_lat": 0.0, "name": "6e191cbc0f56ba9433ebc895aaa4aa0e", "fusion_lon": 0.0}, {"is_reserved": 0, "type": "electric_scooter", "bike_id": "6ae10e8ed6afbe3842384e96ceba6872", "lat": 38.924688333333336, "lon": -77.03963016666667, "rental_uris": {"android": "https://dc.lft.to/lastmile_qr_scan", "ios": "https://dc.lft.to/lastmile_qr_scan"}, "is_disabled": 0, "fusion_lat": 0.0, "name": "6ae10e8ed6afbe3842384e96ceba6872", "fusion_lon": 0.0}, {"is_reserved": 0, "type": "electric_scooter", "bike_id": "4a745e1b5995a98639d30dbf33fc9db0", "lat": 38.904784666666664, "lon": -77.0323005, "rental_uris": {"android": "https://dc.lft.to/lastmile_qr_scan", "ios": "https://dc.lft.to/lastmile_qr_scan"}, "is_disabled": 0, "fusion_lat": 0.0, "name": "4a745e1b5995a98639d30dbf33fc9db0", "fusion_lon": 0.0}, {"is_reserved": 0, "type": "electric_bike", "bike_id": "93cc3600e5e60065f54e380aa1f88fa2", "lat": 38.832983, "lon": -77.08411583333333, "rental_uris": {"android": "https://dc.lft.to/lastmile_qr_scan", "ios": "https://dc.lft.to/lastmile_qr_scan"}, "is_disabled": 0, "fusion_lat": 0.0, "name": "93cc3600e5e60065f54e380aa1f88fa2", "fusion_lon": 0.0}, {"is_reserved": 0, "type": "electric_scooter", "bike_id": "20dd6d745552ef366fd2c9c5a158ee4f", "lat": 38.8974975, "lon": -77.00769183333334, "rental_uris": {"android": "https://dc.lft.to/lastmile_qr_scan", "ios": "https://dc.lft.to/lastmile_qr_scan"}, "is_disabled": 0, "fusion_lat": 0.0, "name": "20dd6d745552ef366fd2c9c5a158ee4f", "fusion_lon": 0.0}, {"is_reserved": 0, "type": "electric_scooter", "bike_id": "5d7e25f57ba16450c787b5e806233323", "lat": 38.9198455, "lon": -77.02509633333334, "rental_uris": {"android": "https://dc.lft.to/lastmile_qr_scan", "ios": "https://dc.lft.to/lastmile_qr_scan"}, "is_disabled": 0, "fusion_lat": 0.0, "name": "5d7e25f57ba16450c787b5e806233323", "fusion_lon": 0.0}, {"is_reserved": 0, "type": "electric_scooter", "bike_id": "e9445b4287e99db4b59e3e03fb8dbf66", "lat": 38.86618266666667, "lon": -76.982067, "rental_uris": {"android": "https://dc.lft.to/lastmile_qr_scan", "ios": "https://dc.lft.to/lastmile_qr_scan"}, "is_disabled": 0, "fusion_lat": 0.0, "name": "e9445b4287e99db4b59e3e03fb8dbf66", "fusion_lon": 0.0}, {"is_reserved": 0, "type": "electric_scooter", "bike_id": "4c7164de69c4c67a873bc55d443d5d09", "lat": 38.92831983333333, "lon": -77.006072, "rental_uris": {"android": "https://dc.lft.to/lastmile_qr_scan", "ios": "https://dc.lft.to/lastmile_qr_scan"}, "is_disabled": 0, "fusion_lat": 0.0, "name": "4c7164de69c4c67a873bc55d443d5d09", "fusion_lon": 0.0}, {"is_reserved": 0, "type": "electric_scooter", "bike_id": "303d510806123da3bdaf1860dd421383", "lat": 38.926034, "lon": -77.02158033333333, "rental_uris": {"android": "https://dc.lft.to/lastmile_qr_scan", "ios": "https://dc.lft.to/lastmile_qr_scan"}, "is_disabled": 0, "fusion_lat": 0.0, "name": "303d510806123da3bdaf1860dd421383", "fusion_lon": 0.0}, {"is_reserved": 0, "type": "electric_scooter", "bike_id": "fa42e36ea9589bbab4c342c32b40c246", "lat": 38.93525733333333, "lon": -77.0193785, "rental_uris": {"android": "https://dc.lft.to/lastmile_qr_scan", "ios": "https://dc.lft.to/lastmile_qr_scan"}, "is_disabled": 0, "fusion_lat": 0.0, "name": "fa42e36ea9589bbab4c342c32b40c246", "fusion_lon": 0.0}, {"is_reserved": 0, "type": "electric_scooter", "bike_id": "c0da81f756c3ba944b16b9838f5938ff", "lat": 38.90131083333333, "lon": -77.02779883333334, "rental_uris": {"android": "https://dc.lft.to/lastmile_qr_scan", "ios": "https://dc.lft.to/lastmile_qr_scan"}, "is_disabled": 0, "fusion_lat": 0.0, "name": "c0da81f756c3ba944b16b9838f5938ff", "fusion_lon": 0.0}, {"is_reserved": 0, "type": "electric_scooter", "bike_id": "a75bf133db576facd73ebe057961d28f", "lat": 38.886066, "lon": -76.98813966666667, "rental_uris": {"android": "https://dc.lft.to/lastmile_qr_scan", "ios": "https://dc.lft.to/lastmile_qr_scan"}, "is_disabled": 0, "fusion_lat": 0.0, "name": "a75bf133db576facd73ebe057961d28f", "fusion_lon": 0.0}, {"is_reserved": 0, "type": "electric_scooter", "bike_id": "dd477413e12b79beffc6c29cbc99984a", "lat": 38.92705316666667, "lon": -77.032649, "rental_uris": {"android": "https://dc.lft.to/lastmile_qr_scan", "ios": "https://dc.lft.to/lastmile_qr_scan"}, "is_disabled": 0, "fusion_lat": 0.0, "name": "dd477413e12b79beffc6c29cbc99984a", "fusion_lon": 0.0}, {"is_reserved": 0, "type": "electric_scooter", "bike_id": "f85a7b3a5c32dc6f7c938326a2b1c1f1", "lat": 38.93116916666666, "lon": -77.021007, "rental_uris": {"android": "https://dc.lft.to/lastmile_qr_scan", "ios": "https://dc.lft.to/lastmile_qr_scan"}, "is_disabled": 0, "fusion_lat": 0.0, "name": "f85a7b3a5c32dc6f7c938326a2b1c1f1", "fusion_lon": 0.0}, {"is_reserved": 0, "type": "electric_scooter", "bike_id": "e18fcfba3fb987020a605689b6f6b808", "lat": 38.884410833333334, "lon": -76.95770133333333, "rental_uris": {"android": "https://dc.lft.to/lastmile_qr_scan", "ios": "https://dc.lft.to/lastmile_qr_scan"}, "is_disabled": 0, "fusion_lat": 0.0, "name": "e18fcfba3fb987020a605689b6f6b808", "fusion_lon": 0.0}, {"is_reserved": 0, "type": "electric_scooter", "bike_id": "a7d07c0e72ff64aca2edf21faca9b9d1", "lat": 38.91566483333333, "lon": -77.03094333333334, "rental_uris": {"android": "https://dc.lft.to/lastmile_qr_scan", "ios": "https://dc.lft.to/lastmile_qr_scan"}, "is_disabled": 0, "fusion_lat": 0.0, "name": "a7d07c0e72ff64aca2edf21faca9b9d1", "fusion_lon": 0.0}, {"is_reserved": 0, "type": "electric_bike", "bike_id": "c2e5d862cc6f8369c949c8f192ce19a3", "lat": 38.959531, "lon": -77.01982616666666, "rental_uris": {"android": "https://dc.lft.to/lastmile_qr_scan", "ios": "https://dc.lft.to/lastmile_qr_scan"}, "is_disabled": 0, "fusion_lat": 0.0, "name": "c2e5d862cc6f8369c949c8f192ce19a3", "fusion_lon": 0.0}, {"is_reserved": 0, "type": "electric_scooter", "bike_id": "5058f76a46bd215c59fe222fcb9cbd84", "lat": 38.90877916666667, "lon": -77.04450416666667, "rental_uris": {"android": "https://dc.lft.to/lastmile_qr_scan", "ios": "https://dc.lft.to/lastmile_qr_scan"}, "is_disabled": 0, "fusion_lat": 0.0, "name": "5058f76a46bd215c59fe222fcb9cbd84", "fusion_lon": 0.0}, {"is_reserved": 0, "type": "electric_scooter", "bike_id": "f2d42e2bf55e39d350145524bae7a7d4", "lat": 38.9346215, "lon": -77.022499, "rental_uris": {"android": "https://dc.lft.to/lastmile_qr_scan", "ios": "https://dc.lft.to/lastmile_qr_scan"}, "is_disabled": 0, "fusion_lat": 0.0, "name": "f2d42e2bf55e39d350145524bae7a7d4", "fusion_lon": 0.0}, {"is_reserved": 0, "type": "electric_scooter", "bike_id": "e38e78e5c1911f657958feb92b0f001e", "lat": 38.864314, "lon": -76.9986085, "rental_uris": {"android": "https://dc.lft.to/lastmile_qr_scan", "ios": "https://dc.lft.to/lastmile_qr_scan"}, "is_disabled": 0, "fusion_lat": 0.0, "name": "e38e78e5c1911f657958feb92b0f001e", "fusion_lon": 0.0}, {"is_reserved": 0, "type": "electric_scooter", "bike_id": "07a3833e4f0cab31117efa45f35c818c", "lat": 38.928504333333336, "lon": -77.0326665, "rental_uris": {"android": "https://dc.lft.to/lastmile_qr_scan", "ios": "https://dc.lft.to/lastmile_qr_scan"}, "is_disabled": 0, "fusion_lat": 0.0, "name": "07a3833e4f0cab31117efa45f35c818c", "fusion_lon": 0.0}, {"is_reserved": 0, "type": "electric_scooter", "bike_id": "2adb103155b3adb07f712dd2a9fe932b", "lat": 38.9035255, "lon": -77.0111395, "rental_uris": {"android": "https://dc.lft.to/lastmile_qr_scan", "ios": "https://dc.lft.to/lastmile_qr_scan"}, "is_disabled": 0, "fusion_lat": 0.0, "name": "2adb103155b3adb07f712dd2a9fe932b", "fusion_lon": 0.0}, {"is_reserved": 0, "type": "electric_bike", "bike_id": "97927ceac50bec7eccb9318a6add91a0", "lat": 38.88659083333334, "lon": -77.1623335, "rental_uris": {"android": "https://dc.lft.to/lastmile_qr_scan", "ios": "https://dc.lft.to/lastmile_qr_scan"}, "is_disabled": 0, "fusion_lat": 0.0, "name": "97927ceac50bec7eccb9318a6add91a0", "fusion_lon": 0.0}, {"is_reserved": 0, "type": "electric_scooter", "bike_id": "e391c949a6b5a9a460fd19c221482701", "lat": 38.9376025, "lon": -77.0315805, "rental_uris": {"android": "https://dc.lft.to/lastmile_qr_scan", "ios": "https://dc.lft.to/lastmile_qr_scan"}, "is_disabled": 0, "fusion_lat": 0.0, "name": "e391c949a6b5a9a460fd19c221482701", "fusion_lon": 0.0}, {"is_reserved": 0, "type": "electric_scooter", "bike_id": "4028751a24d456c80abd216d25c6125d", "lat": 38.909844666666665, "lon": -77.03332183333333, "rental_uris": {"android": "https://dc.lft.to/lastmile_qr_scan", "ios": "https://dc.lft.to/lastmile_qr_scan"}, "is_disabled": 0, "fusion_lat": 0.0, "name": "4028751a24d456c80abd216d25c6125d", "fusion_lon": 0.0}, {"is_reserved": 0, "type": "electric_scooter", "bike_id": "67b4cf22a0c8c07db66a1e05ad3d5386", "lat": 38.900681666666664, "lon": -76.98655966666666, "rental_uris": {"android": "https://dc.lft.to/lastmile_qr_scan", "ios": "https://dc.lft.to/lastmile_qr_scan"}, "is_disabled": 0, "fusion_lat": 0.0, "name": "67b4cf22a0c8c07db66a1e05ad3d5386", "fusion_lon": 0.0}, {"is_reserved": 0, "type": "electric_scooter", "bike_id": "b630cce63a409b3ae88f09d513f068ac", "lat": 38.940300666666666, "lon": -77.026421, "rental_uris": {"android": "https://dc.lft.to/lastmile_qr_scan", "ios": "https://dc.lft.to/lastmile_qr_scan"}, "is_disabled": 0, "fusion_lat": 0.0, "name": "b630cce63a409b3ae88f09d513f068ac", "fusion_lon": 0.0}, {"is_reserved": 0, "type": "electric_scooter", "bike_id": "9b0c5a9ed4cb29350112ae9ac262eaf1", "lat": 38.9316975, "lon": -77.023525, "rental_uris": {"android": "https://dc.lft.to/lastmile_qr_scan", "ios": "https://dc.lft.to/lastmile_qr_scan"}, "is_disabled": 0, "fusion_lat": 0.0, "name": "9b0c5a9ed4cb29350112ae9ac262eaf1", "fusion_lon": 0.0}, {"is_reserved": 0, "type": "electric_scooter", "bike_id": "f700faaf1e42014dc629f615e1f8dc76", "lat": 38.89367516666667, "lon": -77.02256333333334, "rental_uris": {"android": "https://dc.lft.to/lastmile_qr_scan", "ios": "https://dc.lft.to/lastmile_qr_scan"}, "is_disabled": 0, "fusion_lat": 0.0, "name": "f700faaf1e42014dc629f615e1f8dc76", "fusion_lon": 0.0}, {"is_reserved": 0, "type": "electric_scooter", "bike_id": "f5191b365192fbf1293823ac1a21eeda", "lat": 38.90844516666667, "lon": -76.9344965, "rental_uris": {"android": "https://dc.lft.to/lastmile_qr_scan", "ios": "https://dc.lft.to/lastmile_qr_scan"}, "is_disabled": 0, "fusion_lat": 0.0, "name": "f5191b365192fbf1293823ac1a21eeda", "fusion_lon": 0.0}, {"is_reserved": 0, "type": "electric_scooter", "bike_id": "c83343084f96dcfab4df5df3a569b83e", "lat": 38.943110833333336, "lon": -77.0617115, "rental_uris": {"android": "https://dc.lft.to/lastmile_qr_scan", "ios": "https://dc.lft.to/lastmile_qr_scan"}, "is_disabled": 0, "fusion_lat": 0.0, "name": "c83343084f96dcfab4df5df3a569b83e", "fusion_lon": 0.0}, {"is_reserved": 0, "type": "electric_scooter", "bike_id": "9edf9b978260d6b640c74968e1a90ea7", "lat": 38.932838833333335, "lon": -77.03938783333334, "rental_uris": {"android": "https://dc.lft.to/lastmile_qr_scan", "ios": "https://dc.lft.to/lastmile_qr_scan"}, "is_disabled": 0, "fusion_lat": 0.0, "name": "9edf9b978260d6b640c74968e1a90ea7", "fusion_lon": 0.0}, {"is_reserved": 0, "type": "electric_scooter", "bike_id": "146f3814d33fecd909c9a2166d3a8020", "lat": 38.9388045, "lon": -77.03286816666666, "rental_uris": {"android": "https://dc.lft.to/lastmile_qr_scan", "ios": "https://dc.lft.to/lastmile_qr_scan"}, "is_disabled": 0, "fusion_lat": 0.0, "name": "146f3814d33fecd909c9a2166d3a8020", "fusion_lon": 0.0}, {"is_reserved": 0, "type": "electric_scooter", "bike_id": "8dde69e2ed45968de704e046230be47a", "lat": 38.9161735, "lon": -77.0315505, "rental_uris": {"android": "https://dc.lft.to/lastmile_qr_scan", "ios": "https://dc.lft.to/lastmile_qr_scan"}, "is_disabled": 0, "fusion_lat": 0.0, "name": "8dde69e2ed45968de704e046230be47a", "fusion_lon": 0.0}, {"is_reserved": 0, "type": "electric_scooter", "bike_id": "861c8d9d9431cd275cde7766a025854d", "lat": 38.91842883333333, "lon": -77.038992, "rental_uris": {"android": "https://dc.lft.to/lastmile_qr_scan", "ios": "https://dc.lft.to/lastmile_qr_scan"}, "is_disabled": 0, "fusion_lat": 0.0, "name": "861c8d9d9431cd275cde7766a025854d", "fusion_lon": 0.0}, {"is_reserved": 0, "type": "electric_scooter", "bike_id": "94be6c2071d66b4f9dd76c00fbdbe46b", "lat": 38.93116716666667, "lon": -77.023206, "rental_uris": {"android": "https://dc.lft.to/lastmile_qr_scan", "ios": "https://dc.lft.to/lastmile_qr_scan"}, "is_disabled": 0, "fusion_lat": 0.0, "name": "94be6c2071d66b4f9dd76c00fbdbe46b", "fusion_lon": 0.0}, {"is_reserved": 0, "type": "electric_scooter", "bike_id": "e1bb2aceb7a01636c4e7a2dc008638d8", "lat": 38.903652666666666, "lon": -77.03534083333334, "rental_uris": {"android": "https://dc.lft.to/lastmile_qr_scan", "ios": "https://dc.lft.to/lastmile_qr_scan"}, "is_disabled": 0, "fusion_lat": 0.0, "name": "e1bb2aceb7a01636c4e7a2dc008638d8", "fusion_lon": 0.0}, {"is_reserved": 0, "type": "electric_scooter", "bike_id": "cc14366a905b3da8a59281cc6ef1dcd9", "lat": 38.91768, "lon": -77.04174116666667, "rental_uris": {"android": "https://dc.lft.to/lastmile_qr_scan", "ios": "https://dc.lft.to/lastmile_qr_scan"}, "is_disabled": 0, "fusion_lat": 0.0, "name": "cc14366a905b3da8a59281cc6ef1dcd9", "fusion_lon": 0.0}, {"is_reserved": 0, "type": "electric_scooter", "bike_id": "ee94b1853cc9c897ebd9ace5abc87d18", "lat": 38.87497066666667, "lon": -77.00229533333334, "rental_uris": {"android": "https://dc.lft.to/lastmile_qr_scan", "ios": "https://dc.lft.to/lastmile_qr_scan"}, "is_disabled": 0, "fusion_lat": 0.0, "name": "ee94b1853cc9c897ebd9ace5abc87d18", "fusion_lon": 0.0}, {"is_reserved": 0, "type": "electric_scooter", "bike_id": "e0c32839e50a5f9dcdd3d7265e17631f", "lat": 38.934165666666665, "lon": -77.04548333333334, "rental_uris": {"android": "https://dc.lft.to/lastmile_qr_scan", "ios": "https://dc.lft.to/lastmile_qr_scan"}, "is_disabled": 0, "fusion_lat": 0.0, "name": "e0c32839e50a5f9dcdd3d7265e17631f", "fusion_lon": 0.0}, {"is_reserved": 0, "type": "electric_scooter", "bike_id": "e89889daab9c273bbe5bf3ff4906216f", "lat": 38.945155666666665, "lon": -77.03361016666666, "rental_uris": {"android": "https://dc.lft.to/lastmile_qr_scan", "ios": "https://dc.lft.to/lastmile_qr_scan"}, "is_disabled": 0, "fusion_lat": 0.0, "name": "e89889daab9c273bbe5bf3ff4906216f", "fusion_lon": 0.0}, {"is_reserved": 0, "type": "electric_scooter", "bike_id": "70f513f61e5e13c539d8713dfa933d4c", "lat": 38.902273666666666, "lon": -77.03214683333333, "rental_uris": {"android": "https://dc.lft.to/lastmile_qr_scan", "ios": "https://dc.lft.to/lastmile_qr_scan"}, "is_disabled": 0, "fusion_lat": 0.0, "name": "70f513f61e5e13c539d8713dfa933d4c", "fusion_lon": 0.0}, {"is_reserved": 0, "type": "electric_bike", "bike_id": "026a6c6d0799ef291fa0b5b52a13fa24", "lat": 38.862841333333336, "lon": -76.98010083333334, "rental_uris": {"android": "https://dc.lft.to/lastmile_qr_scan", "ios": "https://dc.lft.to/lastmile_qr_scan"}, "is_disabled": 0, "fusion_lat": 0.0, "name": "026a6c6d0799ef291fa0b5b52a13fa24", "fusion_lon": 0.0}, {"is_reserved": 0, "type": "electric_scooter", "bike_id": "960727bf419cfca9ece0c27bfbbc6d87", "lat": 38.901504333333335, "lon": -77.0417195, "rental_uris": {"android": "https://dc.lft.to/lastmile_qr_scan", "ios": "https://dc.lft.to/lastmile_qr_scan"}, "is_disabled": 0, "fusion_lat": 0.0, "name": "960727bf419cfca9ece0c27bfbbc6d87", "fusion_lon": 0.0}, {"is_reserved": 0, "type": "electric_scooter", "bike_id": "0fc6ceaf9e70e49cf90a3627514e30f1", "lat": 38.925039166666664, "lon": -77.0214425, "rental_uris": {"android": "https://dc.lft.to/lastmile_qr_scan", "ios": "https://dc.lft.to/lastmile_qr_scan"}, "is_disabled": 0, "fusion_lat": 0.0, "name": "0fc6ceaf9e70e49cf90a3627514e30f1", "fusion_lon": 0.0}, {"is_reserved": 0, "type": "electric_scooter", "bike_id": "94083e8c44cb28417475396d749f2028", "lat": 38.8850905, "lon": -77.02101183333333, "rental_uris": {"android": "https://dc.lft.to/lastmile_qr_scan", "ios": "https://dc.lft.to/lastmile_qr_scan"}, "is_disabled": 0, "fusion_lat": 0.0, "name": "94083e8c44cb28417475396d749f2028", "fusion_lon": 0.0}, {"is_reserved": 0, "type": "electric_scooter", "bike_id": "872247593d1c7ec0144d0137eb77bc5f", "lat": 38.887373833333335, "lon": -77.01354183333333, "rental_uris": {"android": "https://dc.lft.to/lastmile_qr_scan", "ios": "https://dc.lft.to/lastmile_qr_scan"}, "is_disabled": 0, "fusion_lat": 0.0, "name": "872247593d1c7ec0144d0137eb77bc5f", "fusion_lon": 0.0}, {"is_reserved": 0, "type": "electric_scooter", "bike_id": "9e93a69fa080610a39b5f86ca9f695cd", "lat": 38.91712866666667, "lon": -77.04154733333333, "rental_uris": {"android": "https://dc.lft.to/lastmile_qr_scan", "ios": "https://dc.lft.to/lastmile_qr_scan"}, "is_disabled": 0, "fusion_lat": 0.0, "name": "9e93a69fa080610a39b5f86ca9f695cd", "fusion_lon": 0.0}, {"is_reserved": 0, "type": "electric_scooter", "bike_id": "00850e31574e2af41755718b35dfb6c7", "lat": 38.88635583333333, "lon": -77.01286333333333, "rental_uris": {"android": "https://dc.lft.to/lastmile_qr_scan", "ios": "https://dc.lft.to/lastmile_qr_scan"}, "is_disabled": 0, "fusion_lat": 0.0, "name": "00850e31574e2af41755718b35dfb6c7", "fusion_lon": 0.0}, {"is_reserved": 0, "type": "electric_scooter", "bike_id": "ba916c574aa132afcfa3e848072c83c2", "lat": 38.90561316666667, "lon": -77.017656, "rental_uris": {"android": "https://dc.lft.to/lastmile_qr_scan", "ios": "https://dc.lft.to/lastmile_qr_scan"}, "is_disabled": 0, "fusion_lat": 0.0, "name": "ba916c574aa132afcfa3e848072c83c2", "fusion_lon": 0.0}, {"is_reserved": 0, "type": "electric_scooter", "bike_id": "45fd4d6158c7fa24ff2d2cd508d905c0", "lat": 38.90118066666667, "lon": -77.0337955, "rental_uris": {"android": "https://dc.lft.to/lastmile_qr_scan", "ios": "https://dc.lft.to/lastmile_qr_scan"}, "is_disabled": 0, "fusion_lat": 0.0, "name": "45fd4d6158c7fa24ff2d2cd508d905c0", "fusion_lon": 0.0}, {"is_reserved": 0, "type": "electric_scooter", "bike_id": "f9b2ec4cacdcae123f7b16e47d04b44e", "lat": 38.957317333333336, "lon": -77.03630583333333, "rental_uris": {"android": "https://dc.lft.to/lastmile_qr_scan", "ios": "https://dc.lft.to/lastmile_qr_scan"}, "is_disabled": 0, "fusion_lat": 0.0, "name": "f9b2ec4cacdcae123f7b16e47d04b44e", "fusion_lon": 0.0}, {"is_reserved": 0, "type": "electric_scooter", "bike_id": "f20a74cda7bcccf8d4beebede162eecd", "lat": 38.92428116666667, "lon": -76.99675616666667, "rental_uris": {"android": "https://dc.lft.to/lastmile_qr_scan", "ios": "https://dc.lft.to/lastmile_qr_scan"}, "is_disabled": 0, "fusion_lat": 0.0, "name": "f20a74cda7bcccf8d4beebede162eecd", "fusion_lon": 0.0}, {"is_reserved": 0, "type": "electric_bike", "bike_id": "114d0ec52ee76808f20fcf756d1587b0", "lat": 38.849418666666665, "lon": -77.11754683333334, "rental_uris": {"android": "https://dc.lft.to/lastmile_qr_scan", "ios": "https://dc.lft.to/lastmile_qr_scan"}, "is_disabled": 0, "fusion_lat": 0.0, "name": "114d0ec52ee76808f20fcf756d1587b0", "fusion_lon": 0.0}, {"is_reserved": 0, "type": "electric_scooter", "bike_id": "88e3b9af6f0b27199f6e5ca967ab2588", "lat": 38.895670833333334, "lon": -76.98215216666667, "rental_uris": {"android": "https://dc.lft.to/lastmile_qr_scan", "ios": "https://dc.lft.to/lastmile_qr_scan"}, "is_disabled": 0, "fusion_lat": 0.0, "name": "88e3b9af6f0b27199f6e5ca967ab2588", "fusion_lon": 0.0}, {"is_reserved": 0, "type": "electric_scooter", "bike_id": "b771fb52471b02a02e6274c2dc0ca13e", "lat": 38.920553, "lon": -77.01770666666667, "rental_uris": {"android": "https://dc.lft.to/lastmile_qr_scan", "ios": "https://dc.lft.to/lastmile_qr_scan"}, "is_disabled": 0, "fusion_lat": 0.0, "name": "b771fb52471b02a02e6274c2dc0ca13e", "fusion_lon": 0.0}, {"is_reserved": 0, "type": "electric_scooter", "bike_id": "610439ad5dab359ac27f8c68e650798f", "lat": 38.90557183333333, "lon": -77.04161733333333, "rental_uris": {"android": "https://dc.lft.to/lastmile_qr_scan", "ios": "https://dc.lft.to/lastmile_qr_scan"}, "is_disabled": 0, "fusion_lat": 0.0, "name": "610439ad5dab359ac27f8c68e650798f", "fusion_lon": 0.0}, {"is_reserved": 0, "type": "electric_scooter", "bike_id": "7c913e75de6209b18a5e3cae8f70c5d6", "lat": 38.922454333333334, "lon": -77.03898016666666, "rental_uris": {"android": "https://dc.lft.to/lastmile_qr_scan", "ios": "https://dc.lft.to/lastmile_qr_scan"}, "is_disabled": 0, "fusion_lat": 0.0, "name": "7c913e75de6209b18a5e3cae8f70c5d6", "fusion_lon": 0.0}, {"is_reserved": 0, "type": "electric_scooter", "bike_id": "194f77f0662cb9a2c0df22c14260fe27", "lat": 38.90972516666667, "lon": -77.0480615, "rental_uris": {"android": "https://dc.lft.to/lastmile_qr_scan", "ios": "https://dc.lft.to/lastmile_qr_scan"}, "is_disabled": 0, "fusion_lat": 0.0, "name": "194f77f0662cb9a2c0df22c14260fe27", "fusion_lon": 0.0}, {"is_reserved": 0, "type": "electric_scooter", "bike_id": "525ab6f6a759b17d053b1ba5070d52c7", "lat": 38.913515833333335, "lon": -77.03215116666667, "rental_uris": {"android": "https://dc.lft.to/lastmile_qr_scan", "ios": "https://dc.lft.to/lastmile_qr_scan"}, "is_disabled": 0, "fusion_lat": 0.0, "name": "525ab6f6a759b17d053b1ba5070d52c7", "fusion_lon": 0.0}, {"is_reserved": 0, "type": "electric_scooter", "bike_id": "81e6107bf577bc1b65bb09792a4ab944", "lat": 38.90851266666667, "lon": -76.99801216666667, "rental_uris": {"android": "https://dc.lft.to/lastmile_qr_scan", "ios": "https://dc.lft.to/lastmile_qr_scan"}, "is_disabled": 0, "fusion_lat": 0.0, "name": "81e6107bf577bc1b65bb09792a4ab944", "fusion_lon": 0.0}, {"is_reserved": 0, "type": "electric_scooter", "bike_id": "80e90c6d2e9fd23380e253758215caea", "lat": 38.91546, "lon": -77.02090016666666, "rental_uris": {"android": "https://dc.lft.to/lastmile_qr_scan", "ios": "https://dc.lft.to/lastmile_qr_scan"}, "is_disabled": 0, "fusion_lat": 0.0, "name": "80e90c6d2e9fd23380e253758215caea", "fusion_lon": 0.0}, {"is_reserved": 0, "type": "electric_scooter", "bike_id": "b9c4c8f3d5341f31f18d8e96756a1757", "lat": 38.90529216666667, "lon": -77.056734, "rental_uris": {"android": "https://dc.lft.to/lastmile_qr_scan", "ios": "https://dc.lft.to/lastmile_qr_scan"}, "is_disabled": 0, "fusion_lat": 0.0, "name": "b9c4c8f3d5341f31f18d8e96756a1757", "fusion_lon": 0.0}, {"is_reserved": 0, "type": "electric_scooter", "bike_id": "ff7c54e51b38cfbec9fc746ec01ec981", "lat": 38.916973166666665, "lon": -77.041065, "rental_uris": {"android": "https://dc.lft.to/lastmile_qr_scan", "ios": "https://dc.lft.to/lastmile_qr_scan"}, "is_disabled": 0, "fusion_lat": 0.0, "name": "ff7c54e51b38cfbec9fc746ec01ec981", "fusion_lon": 0.0}, {"is_reserved": 0, "type": "electric_scooter", "bike_id": "97a4f4602147c24cbfebb79830af76fc", "lat": 38.91560333333334, "lon": -77.02555633333333, "rental_uris": {"android": "https://dc.lft.to/lastmile_qr_scan", "ios": "https://dc.lft.to/lastmile_qr_scan"}, "is_disabled": 0, "fusion_lat": 0.0, "name": "97a4f4602147c24cbfebb79830af76fc", "fusion_lon": 0.0}, {"is_reserved": 0, "type": "electric_scooter", "bike_id": "e4b7ea3b9fe798e6668ca1552b787acc", "lat": 38.91424966666666, "lon": -77.03194866666666, "rental_uris": {"android": "https://dc.lft.to/lastmile_qr_scan", "ios": "https://dc.lft.to/lastmile_qr_scan"}, "is_disabled": 0, "fusion_lat": 0.0, "name": "e4b7ea3b9fe798e6668ca1552b787acc", "fusion_lon": 0.0}, {"is_reserved": 0, "type": "electric_scooter", "bike_id": "1c58041fbadab252a4f91dceefd9d0aa", "lat": 38.9055925, "lon": -77.00592116666667, "rental_uris": {"android": "https://dc.lft.to/lastmile_qr_scan", "ios": "https://dc.lft.to/lastmile_qr_scan"}, "is_disabled": 0, "fusion_lat": 0.0, "name": "1c58041fbadab252a4f91dceefd9d0aa", "fusion_lon": 0.0}, {"is_reserved": 0, "type": "electric_scooter", "bike_id": "f2da2a607746e5c28d6deb0e54ba91db", "lat": 38.869673, "lon": -77.01118583333333, "rental_uris": {"android": "https://dc.lft.to/lastmile_qr_scan", "ios": "https://dc.lft.to/lastmile_qr_scan"}, "is_disabled": 0, "fusion_lat": 0.0, "name": "f2da2a607746e5c28d6deb0e54ba91db", "fusion_lon": 0.0}, {"is_reserved": 0, "type": "electric_scooter", "bike_id": "e2a80566876101126054d3fbcf9d3db5", "lat": 38.91916883333333, "lon": -77.03112366666667, "rental_uris": {"android": "https://dc.lft.to/lastmile_qr_scan", "ios": "https://dc.lft.to/lastmile_qr_scan"}, "is_disabled": 0, "fusion_lat": 0.0, "name": "e2a80566876101126054d3fbcf9d3db5", "fusion_lon": 0.0}, {"is_reserved": 0, "type": "electric_bike", "bike_id": "2f70162e887eab23cb238e099babc8d4", "lat": 38.85787666666667, "lon": -76.98761716666667, "rental_uris": {"android": "https://dc.lft.to/lastmile_qr_scan", "ios": "https://dc.lft.to/lastmile_qr_scan"}, "is_disabled": 0, "fusion_lat": 0.0, "name": "2f70162e887eab23cb238e099babc8d4", "fusion_lon": 0.0}, {"is_reserved": 0, "type": "electric_scooter", "bike_id": "3a5959461be98939c18ecddd682a0f57", "lat": 38.919647166666664, "lon": -77.01437133333333, "rental_uris": {"android": "https://dc.lft.to/lastmile_qr_scan", "ios": "https://dc.lft.to/lastmile_qr_scan"}, "is_disabled": 0, "fusion_lat": 0.0, "name": "3a5959461be98939c18ecddd682a0f57", "fusion_lon": 0.0}, {"is_reserved": 0, "type": "electric_scooter", "bike_id": "3f0755e5767867ff9fcc018cdedf2c13", "lat": 38.917498333333334, "lon": -77.041596, "rental_uris": {"android": "https://dc.lft.to/lastmile_qr_scan", "ios": "https://dc.lft.to/lastmile_qr_scan"}, "is_disabled": 0, "fusion_lat": 0.0, "name": "3f0755e5767867ff9fcc018cdedf2c13", "fusion_lon": 0.0}, {"is_reserved": 0, "type": "electric_scooter", "bike_id": "b4f38209e1e603a7dd072a64a3ac7b2f", "lat": 38.900055, "lon": -77.018889, "rental_uris": {"android": "https://dc.lft.to/lastmile_qr_scan", "ios": "https://dc.lft.to/lastmile_qr_scan"}, "is_disabled": 0, "fusion_lat": 0.0, "name": "b4f38209e1e603a7dd072a64a3ac7b2f", "fusion_lon": 0.0}, {"is_reserved": 0, "type": "electric_scooter", "bike_id": "78462eff16ba59c8726f7e0c87eaf8ef", "lat": 38.91027866666667, "lon": -77.00757566666667, "rental_uris": {"android": "https://dc.lft.to/lastmile_qr_scan", "ios": "https://dc.lft.to/lastmile_qr_scan"}, "is_disabled": 0, "fusion_lat": 0.0, "name": "78462eff16ba59c8726f7e0c87eaf8ef", "fusion_lon": 0.0}, {"is_reserved": 0, "type": "electric_bike", "bike_id": "74c353c515331f724f3c762311c8a5b6", "lat": 38.8067175, "lon": -77.08759316666666, "rental_uris": {"android": "https://dc.lft.to/lastmile_qr_scan", "ios": "https://dc.lft.to/lastmile_qr_scan"}, "is_disabled": 0, "fusion_lat": 0.0, "name": "74c353c515331f724f3c762311c8a5b6", "fusion_lon": 0.0}, {"is_reserved": 0, "type": "electric_scooter", "bike_id": "2413ec077380a3c098269bcbc6eb069b", "lat": 38.89862016666667, "lon": -76.97762716666666, "rental_uris": {"android": "https://dc.lft.to/lastmile_qr_scan", "ios": "https://dc.lft.to/lastmile_qr_scan"}, "is_disabled": 0, "fusion_lat": 0.0, "name": "2413ec077380a3c098269bcbc6eb069b", "fusion_lon": 0.0}, {"is_reserved": 0, "type": "electric_bike", "bike_id": "88ed32b067fd58384e19e61d3a1fb1e5", "lat": 38.94315116666667, "lon": -76.99017366666666, "rental_uris": {"android": "https://dc.lft.to/lastmile_qr_scan", "ios": "https://dc.lft.to/lastmile_qr_scan"}, "is_disabled": 0, "fusion_lat": 0.0, "name": "88ed32b067fd58384e19e61d3a1fb1e5", "fusion_lon": 0.0}, {"is_reserved": 0, "type": "electric_scooter", "bike_id": "5771002293b48f616230d15fc4416380", "lat": 38.95531033333334, "lon": -77.02051916666667, "rental_uris": {"android": "https://dc.lft.to/lastmile_qr_scan", "ios": "https://dc.lft.to/lastmile_qr_scan"}, "is_disabled": 0, "fusion_lat": 0.0, "name": "5771002293b48f616230d15fc4416380", "fusion_lon": 0.0}, {"is_reserved": 0, "type": "electric_scooter", "bike_id": "d8b017233df32a93c2b9ec9cdf6ecd80", "lat": 38.885062833333336, "lon": -77.01750833333334, "rental_uris": {"android": "https://dc.lft.to/lastmile_qr_scan", "ios": "https://dc.lft.to/lastmile_qr_scan"}, "is_disabled": 0, "fusion_lat": 0.0, "name": "d8b017233df32a93c2b9ec9cdf6ecd80", "fusion_lon": 0.0}, {"is_reserved": 0, "type": "electric_scooter", "bike_id": "4e63cb12a9aad241771c27175fdddf42", "lat": 38.905827333333335, "lon": -77.03651266666667, "rental_uris": {"android": "https://dc.lft.to/lastmile_qr_scan", "ios": "https://dc.lft.to/lastmile_qr_scan"}, "is_disabled": 0, "fusion_lat": 0.0, "name": "4e63cb12a9aad241771c27175fdddf42", "fusion_lon": 0.0}, {"is_reserved": 0, "type": "electric_bike", "bike_id": "1712b1f80e71717f02aee25fe0ef455d", "lat": 38.87208233333333, "lon": -77.1174155, "rental_uris": {"android": "https://dc.lft.to/lastmile_qr_scan", "ios": "https://dc.lft.to/lastmile_qr_scan"}, "is_disabled": 0, "fusion_lat": 0.0, "name": "1712b1f80e71717f02aee25fe0ef455d", "fusion_lon": 0.0}, {"is_reserved": 0, "type": "electric_scooter", "bike_id": "48b2d11c5c685e2fb1488c393e5d0ac7", "lat": 38.905070333333335, "lon": -77.00741416666666, "rental_uris": {"android": "https://dc.lft.to/lastmile_qr_scan", "ios": "https://dc.lft.to/lastmile_qr_scan"}, "is_disabled": 0, "fusion_lat": 0.0, "name": "48b2d11c5c685e2fb1488c393e5d0ac7", "fusion_lon": 0.0}, {"is_reserved": 0, "type": "electric_scooter", "bike_id": "786c0febcdd65a988cef0e35881629c1", "lat": 38.9141245, "lon": -77.0314075, "rental_uris": {"android": "https://dc.lft.to/lastmile_qr_scan", "ios": "https://dc.lft.to/lastmile_qr_scan"}, "is_disabled": 0, "fusion_lat": 0.0, "name": "786c0febcdd65a988cef0e35881629c1", "fusion_lon": 0.0}, {"is_reserved": 0, "type": "electric_bike", "bike_id": "da6dad0ce8e4089b6784b8abbc023c3f", "lat": 38.856019833333335, "lon": -76.9745695, "rental_uris": {"android": "https://dc.lft.to/lastmile_qr_scan", "ios": "https://dc.lft.to/lastmile_qr_scan"}, "is_disabled": 0, "fusion_lat": 0.0, "name": "da6dad0ce8e4089b6784b8abbc023c3f", "fusion_lon": 0.0}, {"is_reserved": 0, "type": "electric_scooter", "bike_id": "82fbeb39337eaa07fa564511356faad4", "lat": 38.901560833333335, "lon": -77.059214, "rental_uris": {"android": "https://dc.lft.to/lastmile_qr_scan", "ios": "https://dc.lft.to/lastmile_qr_scan"}, "is_disabled": 0, "fusion_lat": 0.0, "name": "82fbeb39337eaa07fa564511356faad4", "fusion_lon": 0.0}, {"is_reserved": 0, "type": "electric_scooter", "bike_id": "a2d06a7a089e25af24239577dc385520", "lat": 38.931960333333336, "lon": -77.0777955, "rental_uris": {"android": "https://dc.lft.to/lastmile_qr_scan", "ios": "https://dc.lft.to/lastmile_qr_scan"}, "is_disabled": 0, "fusion_lat": 0.0, "name": "a2d06a7a089e25af24239577dc385520", "fusion_lon": 0.0}, {"is_reserved": 0, "type": "electric_scooter", "bike_id": "0a7233aecd424c981103a93ed5778185", "lat": 38.916289666666664, "lon": -77.00649566666667, "rental_uris": {"android": "https://dc.lft.to/lastmile_qr_scan", "ios": "https://dc.lft.to/lastmile_qr_scan"}, "is_disabled": 0, "fusion_lat": 0.0, "name": "0a7233aecd424c981103a93ed5778185", "fusion_lon": 0.0}, {"is_reserved": 0, "type": "electric_scooter", "bike_id": "cc42c12dcf42ebffe35a833be1538e61", "lat": 38.92413916666667, "lon": -77.040298, "rental_uris": {"android": "https://dc.lft.to/lastmile_qr_scan", "ios": "https://dc.lft.to/lastmile_qr_scan"}, "is_disabled": 0, "fusion_lat": 0.0, "name": "cc42c12dcf42ebffe35a833be1538e61", "fusion_lon": 0.0}, {"is_reserved": 0, "type": "electric_scooter", "bike_id": "7d2030c0a510ae6362346e356fa770f0", "lat": 38.91700783333334, "lon": -77.03771916666666, "rental_uris": {"android": "https://dc.lft.to/lastmile_qr_scan", "ios": "https://dc.lft.to/lastmile_qr_scan"}, "is_disabled": 0, "fusion_lat": 0.0, "name": "7d2030c0a510ae6362346e356fa770f0", "fusion_lon": 0.0}, {"is_reserved": 0, "type": "electric_scooter", "bike_id": "130933d52fab2dfd627d28f68935f26d", "lat": 38.91289916666667, "lon": -77.02301433333334, "rental_uris": {"android": "https://dc.lft.to/lastmile_qr_scan", "ios": "https://dc.lft.to/lastmile_qr_scan"}, "is_disabled": 0, "fusion_lat": 0.0, "name": "130933d52fab2dfd627d28f68935f26d", "fusion_lon": 0.0}, {"is_reserved": 0, "type": "electric_scooter", "bike_id": "4cf79c557bd3225e9f7ed749652d41e4", "lat": 38.905489, "lon": -77.05921166666667, "rental_uris": {"android": "https://dc.lft.to/lastmile_qr_scan", "ios": "https://dc.lft.to/lastmile_qr_scan"}, "is_disabled": 0, "fusion_lat": 0.0, "name": "4cf79c557bd3225e9f7ed749652d41e4", "fusion_lon": 0.0}, {"is_reserved": 0, "type": "electric_scooter", "bike_id": "c89d0fa73d2915f55787a515d005a3c3", "lat": 38.905413833333334, "lon": -77.0581585, "rental_uris": {"android": "https://dc.lft.to/lastmile_qr_scan", "ios": "https://dc.lft.to/lastmile_qr_scan"}, "is_disabled": 0, "fusion_lat": 0.0, "name": "c89d0fa73d2915f55787a515d005a3c3", "fusion_lon": 0.0}, {"is_reserved": 0, "type": "electric_scooter", "bike_id": "2148b128b15e3216df53ebccb4bcdaa7", "lat": 38.8963445, "lon": -76.92797266666666, "rental_uris": {"android": "https://dc.lft.to/lastmile_qr_scan", "ios": "https://dc.lft.to/lastmile_qr_scan"}, "is_disabled": 0, "fusion_lat": 0.0, "name": "2148b128b15e3216df53ebccb4bcdaa7", "fusion_lon": 0.0}, {"is_reserved": 0, "type": "electric_bike", "bike_id": "feb80f70f5a304799f79da4721eab220", "lat": 38.87340583333334, "lon": -77.01855816666666, "rental_uris": {"android": "https://dc.lft.to/lastmile_qr_scan", "ios": "https://dc.lft.to/lastmile_qr_scan"}, "is_disabled": 0, "fusion_lat": 0.0, "name": "feb80f70f5a304799f79da4721eab220", "fusion_lon": 0.0}, {"is_reserved": 0, "type": "electric_bike", "bike_id": "51e53289716075faf9aa42fbff8acdec", "lat": 38.94264183333333, "lon": -76.99068483333333, "rental_uris": {"android": "https://dc.lft.to/lastmile_qr_scan", "ios": "https://dc.lft.to/lastmile_qr_scan"}, "is_disabled": 0, "fusion_lat": 0.0, "name": "51e53289716075faf9aa42fbff8acdec", "fusion_lon": 0.0}, {"is_reserved": 0, "type": "electric_scooter", "bike_id": "d1d14107f76b299765b942b7dcaa791b", "lat": 38.907668666666666, "lon": -77.031961, "rental_uris": {"android": "https://dc.lft.to/lastmile_qr_scan", "ios": "https://dc.lft.to/lastmile_qr_scan"}, "is_disabled": 0, "fusion_lat": 0.0, "name": "d1d14107f76b299765b942b7dcaa791b", "fusion_lon": 0.0}, {"is_reserved": 0, "type": "electric_scooter", "bike_id": "6dc876aa561913037e4e80815ad0763c", "lat": 38.901991333333335, "lon": -77.02184583333333, "rental_uris": {"android": "https://dc.lft.to/lastmile_qr_scan", "ios": "https://dc.lft.to/lastmile_qr_scan"}, "is_disabled": 0, "fusion_lat": 0.0, "name": "6dc876aa561913037e4e80815ad0763c", "fusion_lon": 0.0}, {"is_reserved": 0, "type": "electric_scooter", "bike_id": "fae41434c11ec8525f41abd97f5eda2e", "lat": 38.896009, "lon": -77.029957, "rental_uris": {"android": "https://dc.lft.to/lastmile_qr_scan", "ios": "https://dc.lft.to/lastmile_qr_scan"}, "is_disabled": 0, "fusion_lat": 0.0, "name": "fae41434c11ec8525f41abd97f5eda2e", "fusion_lon": 0.0}, {"is_reserved": 0, "type": "electric_scooter", "bike_id": "0a91dfeb7725eb370027fec99fff9b9c", "lat": 38.95912083333333, "lon": -77.00021166666667, "rental_uris": {"android": "https://dc.lft.to/lastmile_qr_scan", "ios": "https://dc.lft.to/lastmile_qr_scan"}, "is_disabled": 0, "fusion_lat": 0.0, "name": "0a91dfeb7725eb370027fec99fff9b9c", "fusion_lon": 0.0}, {"is_reserved": 0, "type": "electric_scooter", "bike_id": "438ebb88f301ebb6327ce2a1ebebe808", "lat": 38.94593783333333, "lon": -77.020291, "rental_uris": {"android": "https://dc.lft.to/lastmile_qr_scan", "ios": "https://dc.lft.to/lastmile_qr_scan"}, "is_disabled": 0, "fusion_lat": 0.0, "name": "438ebb88f301ebb6327ce2a1ebebe808", "fusion_lon": 0.0}, {"is_reserved": 0, "type": "electric_scooter", "bike_id": "95d825685f0fdaf37bdff1f11b0a2751", "lat": 38.92681316666667, "lon": -77.03201733333333, "rental_uris": {"android": "https://dc.lft.to/lastmile_qr_scan", "ios": "https://dc.lft.to/lastmile_qr_scan"}, "is_disabled": 0, "fusion_lat": 0.0, "name": "95d825685f0fdaf37bdff1f11b0a2751", "fusion_lon": 0.0}, {"is_reserved": 0, "type": "electric_scooter", "bike_id": "b274bae1b142989b057d271ee3b0c5c2", "lat": 38.872944, "lon": -77.010777, "rental_uris": {"android": "https://dc.lft.to/lastmile_qr_scan", "ios": "https://dc.lft.to/lastmile_qr_scan"}, "is_disabled": 0, "fusion_lat": 0.0, "name": "b274bae1b142989b057d271ee3b0c5c2", "fusion_lon": 0.0}, {"is_reserved": 0, "type": "electric_scooter", "bike_id": "ef23503f2018a9a627105a10161d9587", "lat": 38.893161166666665, "lon": -77.012242, "rental_uris": {"android": "https://dc.lft.to/lastmile_qr_scan", "ios": "https://dc.lft.to/lastmile_qr_scan"}, "is_disabled": 0, "fusion_lat": 0.0, "name": "ef23503f2018a9a627105a10161d9587", "fusion_lon": 0.0}, {"is_reserved": 0, "type": "electric_scooter", "bike_id": "b0d759f3c1c94ecc0ad5e4abefebf040", "lat": 38.89344333333333, "lon": -77.04875783333334, "rental_uris": {"android": "https://dc.lft.to/lastmile_qr_scan", "ios": "https://dc.lft.to/lastmile_qr_scan"}, "is_disabled": 0, "fusion_lat": 0.0, "name": "b0d759f3c1c94ecc0ad5e4abefebf040", "fusion_lon": 0.0}, {"is_reserved": 0, "type": "electric_scooter", "bike_id": "5082cb7852ff19773c317805e05a3bae", "lat": 38.896458333333335, "lon": -77.00925183333334, "rental_uris": {"android": "https://dc.lft.to/lastmile_qr_scan", "ios": "https://dc.lft.to/lastmile_qr_scan"}, "is_disabled": 0, "fusion_lat": 0.0, "name": "5082cb7852ff19773c317805e05a3bae", "fusion_lon": 0.0}, {"is_reserved": 0, "type": "electric_scooter", "bike_id": "d511b7174f2cd48a9523e95f74e13294", "lat": 38.90746, "lon": -77.01540366666667, "rental_uris": {"android": "https://dc.lft.to/lastmile_qr_scan", "ios": "https://dc.lft.to/lastmile_qr_scan"}, "is_disabled": 0, "fusion_lat": 0.0, "name": "d511b7174f2cd48a9523e95f74e13294", "fusion_lon": 0.0}, {"is_reserved": 0, "type": "electric_scooter", "bike_id": "638e073efdb4d2fa46a744aff6f9e737", "lat": 38.89778883333334, "lon": -77.02715733333334, "rental_uris": {"android": "https://dc.lft.to/lastmile_qr_scan", "ios": "https://dc.lft.to/lastmile_qr_scan"}, "is_disabled": 0, "fusion_lat": 0.0, "name": "638e073efdb4d2fa46a744aff6f9e737", "fusion_lon": 0.0}, {"is_reserved": 0, "type": "electric_scooter", "bike_id": "1196ad797f5ca0145cf0b5d69be145b0", "lat": 38.920477, "lon": -77.02576316666666, "rental_uris": {"android": "https://dc.lft.to/lastmile_qr_scan", "ios": "https://dc.lft.to/lastmile_qr_scan"}, "is_disabled": 0, "fusion_lat": 0.0, "name": "1196ad797f5ca0145cf0b5d69be145b0", "fusion_lon": 0.0}, {"is_reserved": 0, "type": "electric_scooter", "bike_id": "06021790adcc4f0e9c1693cde3943497", "lat": 38.95088533333333, "lon": -77.02532466666666, "rental_uris": {"android": "https://dc.lft.to/lastmile_qr_scan", "ios": "https://dc.lft.to/lastmile_qr_scan"}, "is_disabled": 0, "fusion_lat": 0.0, "name": "06021790adcc4f0e9c1693cde3943497", "fusion_lon": 0.0}, {"is_reserved": 0, "type": "electric_scooter", "bike_id": "b99a69138f88f6756464e03469285dad", "lat": 38.915693833333336, "lon": -77.02970216666667, "rental_uris": {"android": "https://dc.lft.to/lastmile_qr_scan", "ios": "https://dc.lft.to/lastmile_qr_scan"}, "is_disabled": 0, "fusion_lat": 0.0, "name": "b99a69138f88f6756464e03469285dad", "fusion_lon": 0.0}, {"is_reserved": 0, "type": "electric_scooter", "bike_id": "78dadca770c0f65f19e039255a403465", "lat": 38.885107166666664, "lon": -77.01118316666667, "rental_uris": {"android": "https://dc.lft.to/lastmile_qr_scan", "ios": "https://dc.lft.to/lastmile_qr_scan"}, "is_disabled": 0, "fusion_lat": 0.0, "name": "78dadca770c0f65f19e039255a403465", "fusion_lon": 0.0}, {"is_reserved": 0, "type": "electric_scooter", "bike_id": "132d3857c658c938c9cc80be9b03950c", "lat": 38.9298475, "lon": -77.034711, "rental_uris": {"android": "https://dc.lft.to/lastmile_qr_scan", "ios": "https://dc.lft.to/lastmile_qr_scan"}, "is_disabled": 0, "fusion_lat": 0.0, "name": "132d3857c658c938c9cc80be9b03950c", "fusion_lon": 0.0}, {"is_reserved": 0, "type": "electric_scooter", "bike_id": "50abdffc0f9f2091a6d6b67d36d10d17", "lat": 38.91184033333333, "lon": -77.0218725, "rental_uris": {"android": "https://dc.lft.to/lastmile_qr_scan", "ios": "https://dc.lft.to/lastmile_qr_scan"}, "is_disabled": 0, "fusion_lat": 0.0, "name": "50abdffc0f9f2091a6d6b67d36d10d17", "fusion_lon": 0.0}, {"is_reserved": 0, "type": "electric_scooter", "bike_id": "105fda79fd84c943b41868acd1508e50", "lat": 38.9255205, "lon": -76.98147516666667, "rental_uris": {"android": "https://dc.lft.to/lastmile_qr_scan", "ios": "https://dc.lft.to/lastmile_qr_scan"}, "is_disabled": 0, "fusion_lat": 0.0, "name": "105fda79fd84c943b41868acd1508e50", "fusion_lon": 0.0}, {"is_reserved": 0, "type": "electric_scooter", "bike_id": "837cd9d374e1fb665427a7e036d8159a", "lat": 38.911582333333335, "lon": -77.02092083333334, "rental_uris": {"android": "https://dc.lft.to/lastmile_qr_scan", "ios": "https://dc.lft.to/lastmile_qr_scan"}, "is_disabled": 0, "fusion_lat": 0.0, "name": "837cd9d374e1fb665427a7e036d8159a", "fusion_lon": 0.0}, {"is_reserved": 0, "type": "electric_scooter", "bike_id": "14249429e532d241f53fec4e5c78bb4c", "lat": 38.91698566666667, "lon": -77.0529995, "rental_uris": {"android": "https://dc.lft.to/lastmile_qr_scan", "ios": "https://dc.lft.to/lastmile_qr_scan"}, "is_disabled": 0, "fusion_lat": 0.0, "name": "14249429e532d241f53fec4e5c78bb4c", "fusion_lon": 0.0}, {"is_reserved": 0, "type": "electric_scooter", "bike_id": "bfebf3c689e4db0665a6421edce8f7d2", "lat": 38.87291116666667, "lon": -77.009847, "rental_uris": {"android": "https://dc.lft.to/lastmile_qr_scan", "ios": "https://dc.lft.to/lastmile_qr_scan"}, "is_disabled": 0, "fusion_lat": 0.0, "name": "bfebf3c689e4db0665a6421edce8f7d2", "fusion_lon": 0.0}, {"is_reserved": 0, "type": "electric_scooter", "bike_id": "7addd11aaaa9d9bd55b41ada07bc3c17", "lat": 38.930878666666665, "lon": -77.03092233333334, "rental_uris": {"android": "https://dc.lft.to/lastmile_qr_scan", "ios": "https://dc.lft.to/lastmile_qr_scan"}, "is_disabled": 0, "fusion_lat": 0.0, "name": "7addd11aaaa9d9bd55b41ada07bc3c17", "fusion_lon": 0.0}, {"is_reserved": 0, "type": "electric_scooter", "bike_id": "cdc3401d6c01070eea03ef75aef04330", "lat": 38.93373316666667, "lon": -77.02031883333333, "rental_uris": {"android": "https://dc.lft.to/lastmile_qr_scan", "ios": "https://dc.lft.to/lastmile_qr_scan"}, "is_disabled": 0, "fusion_lat": 0.0, "name": "cdc3401d6c01070eea03ef75aef04330", "fusion_lon": 0.0}, {"is_reserved": 0, "type": "electric_scooter", "bike_id": "419c09cecb448d1d134d74b4c1e348af", "lat": 38.91222116666667, "lon": -77.01122366666667, "rental_uris": {"android": "https://dc.lft.to/lastmile_qr_scan", "ios": "https://dc.lft.to/lastmile_qr_scan"}, "is_disabled": 0, "fusion_lat": 0.0, "name": "419c09cecb448d1d134d74b4c1e348af", "fusion_lon": 0.0}, {"is_reserved": 0, "type": "electric_scooter", "bike_id": "df7425262f27b0140dc64d97a4f244b8", "lat": 38.9432475, "lon": -77.07576433333334, "rental_uris": {"android": "https://dc.lft.to/lastmile_qr_scan", "ios": "https://dc.lft.to/lastmile_qr_scan"}, "is_disabled": 0, "fusion_lat": 0.0, "name": "df7425262f27b0140dc64d97a4f244b8", "fusion_lon": 0.0}, {"is_reserved": 0, "type": "electric_scooter", "bike_id": "aed199a8d07d46c37f129fc0a5180c61", "lat": 38.894761833333334, "lon": -77.05008033333333, "rental_uris": {"android": "https://dc.lft.to/lastmile_qr_scan", "ios": "https://dc.lft.to/lastmile_qr_scan"}, "is_disabled": 0, "fusion_lat": 0.0, "name": "aed199a8d07d46c37f129fc0a5180c61", "fusion_lon": 0.0}, {"is_reserved": 0, "type": "electric_scooter", "bike_id": "da7a0a96831c0d479cd91adda5dacb9c", "lat": 38.9050105, "lon": -77.028175, "rental_uris": {"android": "https://dc.lft.to/lastmile_qr_scan", "ios": "https://dc.lft.to/lastmile_qr_scan"}, "is_disabled": 0, "fusion_lat": 0.0, "name": "da7a0a96831c0d479cd91adda5dacb9c", "fusion_lon": 0.0}, {"is_reserved": 0, "type": "electric_scooter", "bike_id": "d4e9080cbe2b8f9a4619418a4646248d", "lat": 38.91474566666667, "lon": -76.98437033333333, "rental_uris": {"android": "https://dc.lft.to/lastmile_qr_scan", "ios": "https://dc.lft.to/lastmile_qr_scan"}, "is_disabled": 0, "fusion_lat": 0.0, "name": "d4e9080cbe2b8f9a4619418a4646248d", "fusion_lon": 0.0}, {"is_reserved": 0, "type": "electric_scooter", "bike_id": "560d634175908580846b13b6887c764a", "lat": 38.9154905, "lon": -77.04454133333333, "rental_uris": {"android": "https://dc.lft.to/lastmile_qr_scan", "ios": "https://dc.lft.to/lastmile_qr_scan"}, "is_disabled": 0, "fusion_lat": 0.0, "name": "560d634175908580846b13b6887c764a", "fusion_lon": 0.0}, {"is_reserved": 0, "type": "electric_scooter", "bike_id": "30d47a7c2bc0f49e0e0939ff50785502", "lat": 38.915548333333334, "lon": -77.0330775, "rental_uris": {"android": "https://dc.lft.to/lastmile_qr_scan", "ios": "https://dc.lft.to/lastmile_qr_scan"}, "is_disabled": 0, "fusion_lat": 0.0, "name": "30d47a7c2bc0f49e0e0939ff50785502", "fusion_lon": 0.0}, {"is_reserved": 0, "type": "electric_scooter", "bike_id": "291fc7c014ad314b2f951919d1e24505", "lat": 38.93753783333333, "lon": -77.02833566666666, "rental_uris": {"android": "https://dc.lft.to/lastmile_qr_scan", "ios": "https://dc.lft.to/lastmile_qr_scan"}, "is_disabled": 0, "fusion_lat": 0.0, "name": "291fc7c014ad314b2f951919d1e24505", "fusion_lon": 0.0}, {"is_reserved": 0, "type": "electric_scooter", "bike_id": "00f59c6a7baf8cc4eb911ce1ff495853", "lat": 38.877449666666664, "lon": -77.01884816666667, "rental_uris": {"android": "https://dc.lft.to/lastmile_qr_scan", "ios": "https://dc.lft.to/lastmile_qr_scan"}, "is_disabled": 0, "fusion_lat": 0.0, "name": "00f59c6a7baf8cc4eb911ce1ff495853", "fusion_lon": 0.0}, {"is_reserved": 0, "type": "electric_scooter", "bike_id": "dd028870c90fb4ac6339123288c8f215", "lat": 38.905686833333334, "lon": -77.0078755, "rental_uris": {"android": "https://dc.lft.to/lastmile_qr_scan", "ios": "https://dc.lft.to/lastmile_qr_scan"}, "is_disabled": 0, "fusion_lat": 0.0, "name": "dd028870c90fb4ac6339123288c8f215", "fusion_lon": 0.0}, {"is_reserved": 0, "type": "electric_scooter", "bike_id": "fbb809529380762550c038e7cb0f7428", "lat": 38.88974966666667, "lon": -76.99939916666666, "rental_uris": {"android": "https://dc.lft.to/lastmile_qr_scan", "ios": "https://dc.lft.to/lastmile_qr_scan"}, "is_disabled": 0, "fusion_lat": 0.0, "name": "fbb809529380762550c038e7cb0f7428", "fusion_lon": 0.0}, {"is_reserved": 0, "type": "electric_scooter", "bike_id": "f5ad2e116bb242d7083628067d49526a", "lat": 38.903663333333334, "lon": -76.9849235, "rental_uris": {"android": "https://dc.lft.to/lastmile_qr_scan", "ios": "https://dc.lft.to/lastmile_qr_scan"}, "is_disabled": 0, "fusion_lat": 0.0, "name": "f5ad2e116bb242d7083628067d49526a", "fusion_lon": 0.0}, {"is_reserved": 0, "type": "electric_scooter", "bike_id": "d77caba2b8bc14407165c4279e7db0e0", "lat": 38.905479666666665, "lon": -77.00731433333333, "rental_uris": {"android": "https://dc.lft.to/lastmile_qr_scan", "ios": "https://dc.lft.to/lastmile_qr_scan"}, "is_disabled": 0, "fusion_lat": 0.0, "name": "d77caba2b8bc14407165c4279e7db0e0", "fusion_lon": 0.0}, {"is_reserved": 0, "type": "electric_scooter", "bike_id": "a062b124c5c96f63e717616c1a2128dd", "lat": 38.895064166666664, "lon": -77.02138566666666, "rental_uris": {"android": "https://dc.lft.to/lastmile_qr_scan", "ios": "https://dc.lft.to/lastmile_qr_scan"}, "is_disabled": 0, "fusion_lat": 0.0, "name": "a062b124c5c96f63e717616c1a2128dd", "fusion_lon": 0.0}, {"is_reserved": 0, "type": "electric_scooter", "bike_id": "4e4153f8fb143ed50fb0063616e7ce4a", "lat": 38.8962195, "lon": -77.02272583333334, "rental_uris": {"android": "https://dc.lft.to/lastmile_qr_scan", "ios": "https://dc.lft.to/lastmile_qr_scan"}, "is_disabled": 0, "fusion_lat": 0.0, "name": "4e4153f8fb143ed50fb0063616e7ce4a", "fusion_lon": 0.0}, {"is_reserved": 0, "type": "electric_scooter", "bike_id": "b3acd0c5c23e055da9dba94b6150a2f8", "lat": 38.90912866666667, "lon": -77.00287833333333, "rental_uris": {"android": "https://dc.lft.to/lastmile_qr_scan", "ios": "https://dc.lft.to/lastmile_qr_scan"}, "is_disabled": 0, "fusion_lat": 0.0, "name": "b3acd0c5c23e055da9dba94b6150a2f8", "fusion_lon": 0.0}, {"is_reserved": 0, "type": "electric_scooter", "bike_id": "d68dcb597925adcd2f862c2fe68427ba", "lat": 38.92335833333333, "lon": -77.04382583333333, "rental_uris": {"android": "https://dc.lft.to/lastmile_qr_scan", "ios": "https://dc.lft.to/lastmile_qr_scan"}, "is_disabled": 0, "fusion_lat": 0.0, "name": "d68dcb597925adcd2f862c2fe68427ba", "fusion_lon": 0.0}, {"is_reserved": 0, "type": "electric_scooter", "bike_id": "e46d8affc4d343c74b04914e54a69ca3", "lat": 38.9123545, "lon": -77.0268405, "rental_uris": {"android": "https://dc.lft.to/lastmile_qr_scan", "ios": "https://dc.lft.to/lastmile_qr_scan"}, "is_disabled": 0, "fusion_lat": 0.0, "name": "e46d8affc4d343c74b04914e54a69ca3", "fusion_lon": 0.0}, {"is_reserved": 0, "type": "electric_scooter", "bike_id": "b4da62e25f64682bbb0badd2bd459066", "lat": 38.89595716666667, "lon": -76.92985733333333, "rental_uris": {"android": "https://dc.lft.to/lastmile_qr_scan", "ios": "https://dc.lft.to/lastmile_qr_scan"}, "is_disabled": 0, "fusion_lat": 0.0, "name": "b4da62e25f64682bbb0badd2bd459066", "fusion_lon": 0.0}, {"is_reserved": 0, "type": "electric_bike", "bike_id": "48dcd7671f880f8cf14f245331cbd90a", "lat": 38.94909533333333, "lon": -77.02414533333334, "rental_uris": {"android": "https://dc.lft.to/lastmile_qr_scan", "ios": "https://dc.lft.to/lastmile_qr_scan"}, "is_disabled": 0, "fusion_lat": 0.0, "name": "48dcd7671f880f8cf14f245331cbd90a", "fusion_lon": 0.0}, {"is_reserved": 0, "type": "electric_scooter", "bike_id": "9da6a9e3792c46d313f7bc834059d76e", "lat": 38.89852416666667, "lon": -77.02219033333333, "rental_uris": {"android": "https://dc.lft.to/lastmile_qr_scan", "ios": "https://dc.lft.to/lastmile_qr_scan"}, "is_disabled": 0, "fusion_lat": 0.0, "name": "9da6a9e3792c46d313f7bc834059d76e", "fusion_lon": 0.0}, {"is_reserved": 0, "type": "electric_scooter", "bike_id": "313efafb0b184b8af732fedf65ae5723", "lat": 38.888652, "lon": -77.04006733333334, "rental_uris": {"android": "https://dc.lft.to/lastmile_qr_scan", "ios": "https://dc.lft.to/lastmile_qr_scan"}, "is_disabled": 0, "fusion_lat": 0.0, "name": "313efafb0b184b8af732fedf65ae5723", "fusion_lon": 0.0}, {"is_reserved": 0, "type": "electric_scooter", "bike_id": "09df5425a8d3570e7ac0511419079c5d", "lat": 38.9072855, "lon": -77.01681333333333, "rental_uris": {"android": "https://dc.lft.to/lastmile_qr_scan", "ios": "https://dc.lft.to/lastmile_qr_scan"}, "is_disabled": 0, "fusion_lat": 0.0, "name": "09df5425a8d3570e7ac0511419079c5d", "fusion_lon": 0.0}, {"is_reserved": 0, "type": "electric_scooter", "bike_id": "8760aa987587734931c0e1f925edc981", "lat": 38.92775966666667, "lon": -77.0277985, "rental_uris": {"android": "https://dc.lft.to/lastmile_qr_scan", "ios": "https://dc.lft.to/lastmile_qr_scan"}, "is_disabled": 0, "fusion_lat": 0.0, "name": "8760aa987587734931c0e1f925edc981", "fusion_lon": 0.0}, {"is_reserved": 0, "type": "electric_scooter", "bike_id": "83a16d3bee7cc4afa3237c4de3dd28f7", "lat": 38.9067615, "lon": -77.00918216666666, "rental_uris": {"android": "https://dc.lft.to/lastmile_qr_scan", "ios": "https://dc.lft.to/lastmile_qr_scan"}, "is_disabled": 0, "fusion_lat": 0.0, "name": "83a16d3bee7cc4afa3237c4de3dd28f7", "fusion_lon": 0.0}, {"is_reserved": 0, "type": "electric_scooter", "bike_id": "9eda181cdb4c3581c3798b2fee088baa", "lat": 38.9174615, "lon": -77.028135, "rental_uris": {"android": "https://dc.lft.to/lastmile_qr_scan", "ios": "https://dc.lft.to/lastmile_qr_scan"}, "is_disabled": 0, "fusion_lat": 0.0, "name": "9eda181cdb4c3581c3798b2fee088baa", "fusion_lon": 0.0}, {"is_reserved": 0, "type": "electric_scooter", "bike_id": "430a2c45d9e4f66d201aec0c61ecf3b6", "lat": 38.92843083333333, "lon": -77.05510333333334, "rental_uris": {"android": "https://dc.lft.to/lastmile_qr_scan", "ios": "https://dc.lft.to/lastmile_qr_scan"}, "is_disabled": 0, "fusion_lat": 0.0, "name": "430a2c45d9e4f66d201aec0c61ecf3b6", "fusion_lon": 0.0}, {"is_reserved": 0, "type": "electric_scooter", "bike_id": "a3941fb5eac9e711d5b5c43c3fcd7c45", "lat": 38.92247883333334, "lon": -77.04251816666667, "rental_uris": {"android": "https://dc.lft.to/lastmile_qr_scan", "ios": "https://dc.lft.to/lastmile_qr_scan"}, "is_disabled": 0, "fusion_lat": 0.0, "name": "a3941fb5eac9e711d5b5c43c3fcd7c45", "fusion_lon": 0.0}, {"is_reserved": 0, "type": "electric_scooter", "bike_id": "97e7ae9b63f9228fcd8d666670f82cce", "lat": 38.94078483333333, "lon": -77.05497, "rental_uris": {"android": "https://dc.lft.to/lastmile_qr_scan", "ios": "https://dc.lft.to/lastmile_qr_scan"}, "is_disabled": 0, "fusion_lat": 0.0, "name": "97e7ae9b63f9228fcd8d666670f82cce", "fusion_lon": 0.0}, {"is_reserved": 0, "type": "electric_scooter", "bike_id": "4fb80b0cdf428f324a7e8301008f47df", "lat": 38.923839, "lon": -77.0269125, "rental_uris": {"android": "https://dc.lft.to/lastmile_qr_scan", "ios": "https://dc.lft.to/lastmile_qr_scan"}, "is_disabled": 0, "fusion_lat": 0.0, "name": "4fb80b0cdf428f324a7e8301008f47df", "fusion_lon": 0.0}, {"is_reserved": 0, "type": "electric_scooter", "bike_id": "ff7aa86ded7be5d6205e4b8448eed551", "lat": 38.90181533333333, "lon": -77.04883133333334, "rental_uris": {"android": "https://dc.lft.to/lastmile_qr_scan", "ios": "https://dc.lft.to/lastmile_qr_scan"}, "is_disabled": 0, "fusion_lat": 0.0, "name": "ff7aa86ded7be5d6205e4b8448eed551", "fusion_lon": 0.0}, {"is_reserved": 0, "type": "electric_scooter", "bike_id": "e8a8deee55ff4fabf2267f41cd3809da", "lat": 38.915844166666666, "lon": -77.01753333333333, "rental_uris": {"android": "https://dc.lft.to/lastmile_qr_scan", "ios": "https://dc.lft.to/lastmile_qr_scan"}, "is_disabled": 0, "fusion_lat": 0.0, "name": "e8a8deee55ff4fabf2267f41cd3809da", "fusion_lon": 0.0}, {"is_reserved": 0, "type": "electric_scooter", "bike_id": "d5190d4f2d9d6b0bb81c12df49783adb", "lat": 38.9221245, "lon": -77.04242583333334, "rental_uris": {"android": "https://dc.lft.to/lastmile_qr_scan", "ios": "https://dc.lft.to/lastmile_qr_scan"}, "is_disabled": 0, "fusion_lat": 0.0, "name": "d5190d4f2d9d6b0bb81c12df49783adb", "fusion_lon": 0.0}, {"is_reserved": 0, "type": "electric_scooter", "bike_id": "7576aa0158e530397059f4728561aba8", "lat": 38.885282333333336, "lon": -76.99627383333333, "rental_uris": {"android": "https://dc.lft.to/lastmile_qr_scan", "ios": "https://dc.lft.to/lastmile_qr_scan"}, "is_disabled": 0, "fusion_lat": 0.0, "name": "7576aa0158e530397059f4728561aba8", "fusion_lon": 0.0}, {"is_reserved": 0, "type": "electric_scooter", "bike_id": "fb9d071b68f558f62fdd8693f2fa666e", "lat": 38.898748, "lon": -76.93185833333334, "rental_uris": {"android": "https://dc.lft.to/lastmile_qr_scan", "ios": "https://dc.lft.to/lastmile_qr_scan"}, "is_disabled": 0, "fusion_lat": 0.0, "name": "fb9d071b68f558f62fdd8693f2fa666e", "fusion_lon": 0.0}, {"is_reserved": 0, "type": "electric_scooter", "bike_id": "ea2f410ba39c8e8e88812419bff53889", "lat": 38.919261166666665, "lon": -77.04477983333334, "rental_uris": {"android": "https://dc.lft.to/lastmile_qr_scan", "ios": "https://dc.lft.to/lastmile_qr_scan"}, "is_disabled": 0, "fusion_lat": 0.0, "name": "ea2f410ba39c8e8e88812419bff53889", "fusion_lon": 0.0}, {"is_reserved": 0, "type": "electric_scooter", "bike_id": "1385fa0fa5f69088b1fc74da5b202430", "lat": 38.9286335, "lon": -77.0138405, "rental_uris": {"android": "https://dc.lft.to/lastmile_qr_scan", "ios": "https://dc.lft.to/lastmile_qr_scan"}, "is_disabled": 0, "fusion_lat": 0.0, "name": "1385fa0fa5f69088b1fc74da5b202430", "fusion_lon": 0.0}, {"is_reserved": 0, "type": "electric_scooter", "bike_id": "9a8b84a4a7ac4386353da987f67ea55c", "lat": 38.90684666666667, "lon": -77.06254216666666, "rental_uris": {"android": "https://dc.lft.to/lastmile_qr_scan", "ios": "https://dc.lft.to/lastmile_qr_scan"}, "is_disabled": 0, "fusion_lat": 0.0, "name": "9a8b84a4a7ac4386353da987f67ea55c", "fusion_lon": 0.0}, {"is_reserved": 0, "type": "electric_bike", "bike_id": "2857fdd4df20f556a03ff7ff083d5477", "lat": 38.90943266666667, "lon": -77.04388216666666, "rental_uris": {"android": "https://dc.lft.to/lastmile_qr_scan", "ios": "https://dc.lft.to/lastmile_qr_scan"}, "is_disabled": 0, "fusion_lat": 0.0, "name": "2857fdd4df20f556a03ff7ff083d5477", "fusion_lon": 0.0}, {"is_reserved": 0, "type": "electric_bike", "bike_id": "4905a16a2cc5ab71f420bf58408c1833", "lat": 38.862646, "lon": -76.9835145, "rental_uris": {"android": "https://dc.lft.to/lastmile_qr_scan", "ios": "https://dc.lft.to/lastmile_qr_scan"}, "is_disabled": 0, "fusion_lat": 0.0, "name": "4905a16a2cc5ab71f420bf58408c1833", "fusion_lon": 0.0}, {"is_reserved": 0, "type": "electric_scooter", "bike_id": "48c0047eca9a2a2856630ed46aec81f5", "lat": 38.92777183333333, "lon": -77.05407266666667, "rental_uris": {"android": "https://dc.lft.to/lastmile_qr_scan", "ios": "https://dc.lft.to/lastmile_qr_scan"}, "is_disabled": 0, "fusion_lat": 0.0, "name": "48c0047eca9a2a2856630ed46aec81f5", "fusion_lon": 0.0}, {"is_reserved": 0, "type": "electric_scooter", "bike_id": "9379c03dd7d3dbf4ef23c7f6f47130da", "lat": 38.918689, "lon": -77.03576183333334, "rental_uris": {"android": "https://dc.lft.to/lastmile_qr_scan", "ios": "https://dc.lft.to/lastmile_qr_scan"}, "is_disabled": 0, "fusion_lat": 0.0, "name": "9379c03dd7d3dbf4ef23c7f6f47130da", "fusion_lon": 0.0}, {"is_reserved": 0, "type": "electric_scooter", "bike_id": "fddc86429cf2b0d186e4c36e302da01e", "lat": 38.918214166666665, "lon": -77.03166616666667, "rental_uris": {"android": "https://dc.lft.to/lastmile_qr_scan", "ios": "https://dc.lft.to/lastmile_qr_scan"}, "is_disabled": 0, "fusion_lat": 0.0, "name": "fddc86429cf2b0d186e4c36e302da01e", "fusion_lon": 0.0}, {"is_reserved": 0, "type": "electric_scooter", "bike_id": "70fc154dfb341ea53905ba8eb4c83f82", "lat": 38.90975, "lon": -77.00773166666667, "rental_uris": {"android": "https://dc.lft.to/lastmile_qr_scan", "ios": "https://dc.lft.to/lastmile_qr_scan"}, "is_disabled": 0, "fusion_lat": 0.0, "name": "70fc154dfb341ea53905ba8eb4c83f82", "fusion_lon": 0.0}, {"is_reserved": 0, "type": "electric_scooter", "bike_id": "1db81e826b15734cf8420670a1d20e88", "lat": 38.887269333333336, "lon": -76.9837825, "rental_uris": {"android": "https://dc.lft.to/lastmile_qr_scan", "ios": "https://dc.lft.to/lastmile_qr_scan"}, "is_disabled": 0, "fusion_lat": 0.0, "name": "1db81e826b15734cf8420670a1d20e88", "fusion_lon": 0.0}, {"is_reserved": 0, "type": "electric_scooter", "bike_id": "823d50dd140738cc4e792934dc94bfdd", "lat": 38.9025315, "lon": -77.017604, "rental_uris": {"android": "https://dc.lft.to/lastmile_qr_scan", "ios": "https://dc.lft.to/lastmile_qr_scan"}, "is_disabled": 0, "fusion_lat": 0.0, "name": "823d50dd140738cc4e792934dc94bfdd", "fusion_lon": 0.0}, {"is_reserved": 0, "type": "electric_scooter", "bike_id": "5d78c914f21b0bb80816e68cd92d98cf", "lat": 38.90795766666667, "lon": -77.04784316666667, "rental_uris": {"android": "https://dc.lft.to/lastmile_qr_scan", "ios": "https://dc.lft.to/lastmile_qr_scan"}, "is_disabled": 0, "fusion_lat": 0.0, "name": "5d78c914f21b0bb80816e68cd92d98cf", "fusion_lon": 0.0}, {"is_reserved": 0, "type": "electric_scooter", "bike_id": "0c98bf5fc3c2a62aff9dac9061ae443c", "lat": 38.90567733333334, "lon": -77.06274216666667, "rental_uris": {"android": "https://dc.lft.to/lastmile_qr_scan", "ios": "https://dc.lft.to/lastmile_qr_scan"}, "is_disabled": 0, "fusion_lat": 0.0, "name": "0c98bf5fc3c2a62aff9dac9061ae443c", "fusion_lon": 0.0}, {"is_reserved": 0, "type": "electric_scooter", "bike_id": "17a3b4b5ac29d5e32c00f7bbaec00268", "lat": 38.9106295, "lon": -77.02193483333333, "rental_uris": {"android": "https://dc.lft.to/lastmile_qr_scan", "ios": "https://dc.lft.to/lastmile_qr_scan"}, "is_disabled": 0, "fusion_lat": 0.0, "name": "17a3b4b5ac29d5e32c00f7bbaec00268", "fusion_lon": 0.0}, {"is_reserved": 0, "type": "electric_scooter", "bike_id": "edd3ba5a47219da9e74a2088031e2ce1", "lat": 38.90711016666667, "lon": -77.00005616666667, "rental_uris": {"android": "https://dc.lft.to/lastmile_qr_scan", "ios": "https://dc.lft.to/lastmile_qr_scan"}, "is_disabled": 0, "fusion_lat": 0.0, "name": "edd3ba5a47219da9e74a2088031e2ce1", "fusion_lon": 0.0}, {"is_reserved": 0, "type": "electric_scooter", "bike_id": "8e730a9e20e567ee0d9c8c22cc19fea6", "lat": 38.92081433333333, "lon": -77.02533183333334, "rental_uris": {"android": "https://dc.lft.to/lastmile_qr_scan", "ios": "https://dc.lft.to/lastmile_qr_scan"}, "is_disabled": 0, "fusion_lat": 0.0, "name": "8e730a9e20e567ee0d9c8c22cc19fea6", "fusion_lon": 0.0}, {"is_reserved": 0, "type": "electric_scooter", "bike_id": "ae90efc3dde94f1ed9c7107569ba981b", "lat": 38.931895833333336, "lon": -77.04140666666666, "rental_uris": {"android": "https://dc.lft.to/lastmile_qr_scan", "ios": "https://dc.lft.to/lastmile_qr_scan"}, "is_disabled": 0, "fusion_lat": 0.0, "name": "ae90efc3dde94f1ed9c7107569ba981b", "fusion_lon": 0.0}, {"is_reserved": 0, "type": "electric_scooter", "bike_id": "b788d1936b1e20b4a442f658932fc849", "lat": 38.93026616666667, "lon": -77.0555885, "rental_uris": {"android": "https://dc.lft.to/lastmile_qr_scan", "ios": "https://dc.lft.to/lastmile_qr_scan"}, "is_disabled": 0, "fusion_lat": 0.0, "name": "b788d1936b1e20b4a442f658932fc849", "fusion_lon": 0.0}, {"is_reserved": 0, "type": "electric_scooter", "bike_id": "da850a04df57fbc7a7e51c0f435d0bb7", "lat": 38.915632, "lon": -77.02281066666667, "rental_uris": {"android": "https://dc.lft.to/lastmile_qr_scan", "ios": "https://dc.lft.to/lastmile_qr_scan"}, "is_disabled": 0, "fusion_lat": 0.0, "name": "da850a04df57fbc7a7e51c0f435d0bb7", "fusion_lon": 0.0}, {"is_reserved": 0, "type": "electric_scooter", "bike_id": "28724cd3a0d04863a6639380c026cddf", "lat": 38.902526333333334, "lon": -77.01910033333333, "rental_uris": {"android": "https://dc.lft.to/lastmile_qr_scan", "ios": "https://dc.lft.to/lastmile_qr_scan"}, "is_disabled": 0, "fusion_lat": 0.0, "name": "28724cd3a0d04863a6639380c026cddf", "fusion_lon": 0.0}, {"is_reserved": 0, "type": "electric_scooter", "bike_id": "97f971d6cf59348698e261e715f17591", "lat": 38.93044116666667, "lon": -77.05543116666666, "rental_uris": {"android": "https://dc.lft.to/lastmile_qr_scan", "ios": "https://dc.lft.to/lastmile_qr_scan"}, "is_disabled": 0, "fusion_lat": 0.0, "name": "97f971d6cf59348698e261e715f17591", "fusion_lon": 0.0}, {"is_reserved": 0, "type": "electric_scooter", "bike_id": "cc877fd69914bd38c69bf7b1d57d719f", "lat": 38.95246216666666, "lon": -77.00916266666667, "rental_uris": {"android": "https://dc.lft.to/lastmile_qr_scan", "ios": "https://dc.lft.to/lastmile_qr_scan"}, "is_disabled": 0, "fusion_lat": 0.0, "name": "cc877fd69914bd38c69bf7b1d57d719f", "fusion_lon": 0.0}, {"is_reserved": 0, "type": "electric_scooter", "bike_id": "d57918143e6435c063d1f8d4e46ce4eb", "lat": 38.9210655, "lon": -77.047069, "rental_uris": {"android": "https://dc.lft.to/lastmile_qr_scan", "ios": "https://dc.lft.to/lastmile_qr_scan"}, "is_disabled": 0, "fusion_lat": 0.0, "name": "d57918143e6435c063d1f8d4e46ce4eb", "fusion_lon": 0.0}, {"is_reserved": 0, "type": "electric_scooter", "bike_id": "4c1b8442c143fa184db4f19e9dd2e7f6", "lat": 38.917826166666664, "lon": -77.02301533333333, "rental_uris": {"android": "https://dc.lft.to/lastmile_qr_scan", "ios": "https://dc.lft.to/lastmile_qr_scan"}, "is_disabled": 0, "fusion_lat": 0.0, "name": "4c1b8442c143fa184db4f19e9dd2e7f6", "fusion_lon": 0.0}, {"is_reserved": 0, "type": "electric_scooter", "bike_id": "ad00e2e96ba48d485212bf6c29fa2015", "lat": 38.94327766666667, "lon": -77.01254616666667, "rental_uris": {"android": "https://dc.lft.to/lastmile_qr_scan", "ios": "https://dc.lft.to/lastmile_qr_scan"}, "is_disabled": 0, "fusion_lat": 0.0, "name": "ad00e2e96ba48d485212bf6c29fa2015", "fusion_lon": 0.0}, {"is_reserved": 0, "type": "electric_scooter", "bike_id": "949e314d8745576d4a4121e5584e9be7", "lat": 38.92404233333333, "lon": -77.04262283333334, "rental_uris": {"android": "https://dc.lft.to/lastmile_qr_scan", "ios": "https://dc.lft.to/lastmile_qr_scan"}, "is_disabled": 0, "fusion_lat": 0.0, "name": "949e314d8745576d4a4121e5584e9be7", "fusion_lon": 0.0}, {"is_reserved": 0, "type": "electric_scooter", "bike_id": "bb551cb40869e411b907bc4deb6d22e5", "lat": 38.909009, "lon": -76.99617816666667, "rental_uris": {"android": "https://dc.lft.to/lastmile_qr_scan", "ios": "https://dc.lft.to/lastmile_qr_scan"}, "is_disabled": 0, "fusion_lat": 0.0, "name": "bb551cb40869e411b907bc4deb6d22e5", "fusion_lon": 0.0}, {"is_reserved": 0, "type": "electric_scooter", "bike_id": "a2fd2595b83d307a548c747472966c03", "lat": 38.8861375, "lon": -77.0199095, "rental_uris": {"android": "https://dc.lft.to/lastmile_qr_scan", "ios": "https://dc.lft.to/lastmile_qr_scan"}, "is_disabled": 0, "fusion_lat": 0.0, "name": "a2fd2595b83d307a548c747472966c03", "fusion_lon": 0.0}, {"is_reserved": 0, "type": "electric_scooter", "bike_id": "d9bce9bd06bc21795c1a26b6c24d76d0", "lat": 38.975187, "lon": -77.01742116666667, "rental_uris": {"android": "https://dc.lft.to/lastmile_qr_scan", "ios": "https://dc.lft.to/lastmile_qr_scan"}, "is_disabled": 0, "fusion_lat": 0.0, "name": "d9bce9bd06bc21795c1a26b6c24d76d0", "fusion_lon": 0.0}, {"is_reserved": 0, "type": "electric_scooter", "bike_id": "52216e0a4c6800e451fa7beda05ac836", "lat": 38.926342, "lon": -77.0425385, "rental_uris": {"android": "https://dc.lft.to/lastmile_qr_scan", "ios": "https://dc.lft.to/lastmile_qr_scan"}, "is_disabled": 0, "fusion_lat": 0.0, "name": "52216e0a4c6800e451fa7beda05ac836", "fusion_lon": 0.0}, {"is_reserved": 0, "type": "electric_bike", "bike_id": "36abe6274e555c3bf33a47e4f77ba964", "lat": 39.0003125, "lon": -77.047434, "rental_uris": {"android": "https://dc.lft.to/lastmile_qr_scan", "ios": "https://dc.lft.to/lastmile_qr_scan"}, "is_disabled": 0, "fusion_lat": 0.0, "name": "36abe6274e555c3bf33a47e4f77ba964", "fusion_lon": 0.0}, {"is_reserved": 0, "type": "electric_scooter", "bike_id": "1a8d6c7ad2bf5fe3ee50ae25e5a3473b", "lat": 38.89683983333333, "lon": -77.03220966666666, "rental_uris": {"android": "https://dc.lft.to/lastmile_qr_scan", "ios": "https://dc.lft.to/lastmile_qr_scan"}, "is_disabled": 0, "fusion_lat": 0.0, "name": "1a8d6c7ad2bf5fe3ee50ae25e5a3473b", "fusion_lon": 0.0}, {"is_reserved": 0, "type": "electric_scooter", "bike_id": "d45b97c162e1015e61623367185b9709", "lat": 38.89940983333334, "lon": -76.977052, "rental_uris": {"android": "https://dc.lft.to/lastmile_qr_scan", "ios": "https://dc.lft.to/lastmile_qr_scan"}, "is_disabled": 0, "fusion_lat": 0.0, "name": "d45b97c162e1015e61623367185b9709", "fusion_lon": 0.0}, {"is_reserved": 0, "type": "electric_scooter", "bike_id": "f6f45fadefc1f8b8daa065ca85c20a2a", "lat": 38.89714983333333, "lon": -77.03289083333334, "rental_uris": {"android": "https://dc.lft.to/lastmile_qr_scan", "ios": "https://dc.lft.to/lastmile_qr_scan"}, "is_disabled": 0, "fusion_lat": 0.0, "name": "f6f45fadefc1f8b8daa065ca85c20a2a", "fusion_lon": 0.0}, {"is_reserved": 0, "type": "electric_scooter", "bike_id": "0a27aa09115b15917aec5cf9533c4590", "lat": 38.91102883333333, "lon": -77.0386245, "rental_uris": {"android": "https://dc.lft.to/lastmile_qr_scan", "ios": "https://dc.lft.to/lastmile_qr_scan"}, "is_disabled": 0, "fusion_lat": 0.0, "name": "0a27aa09115b15917aec5cf9533c4590", "fusion_lon": 0.0}, {"is_reserved": 0, "type": "electric_scooter", "bike_id": "1c6c21652d95c43ce934acf62bae87dd", "lat": 38.863771166666666, "lon": -76.99062266666667, "rental_uris": {"android": "https://dc.lft.to/lastmile_qr_scan", "ios": "https://dc.lft.to/lastmile_qr_scan"}, "is_disabled": 0, "fusion_lat": 0.0, "name": "1c6c21652d95c43ce934acf62bae87dd", "fusion_lon": 0.0}, {"is_reserved": 0, "type": "electric_scooter", "bike_id": "9068a4853d03e807d70195377e6c8565", "lat": 38.924095666666666, "lon": -77.02979016666667, "rental_uris": {"android": "https://dc.lft.to/lastmile_qr_scan", "ios": "https://dc.lft.to/lastmile_qr_scan"}, "is_disabled": 0, "fusion_lat": 0.0, "name": "9068a4853d03e807d70195377e6c8565", "fusion_lon": 0.0}, {"is_reserved": 0, "type": "electric_scooter", "bike_id": "23f790476297f075383ef295ff2d3d12", "lat": 38.923365, "lon": -77.04192516666667, "rental_uris": {"android": "https://dc.lft.to/lastmile_qr_scan", "ios": "https://dc.lft.to/lastmile_qr_scan"}, "is_disabled": 0, "fusion_lat": 0.0, "name": "23f790476297f075383ef295ff2d3d12", "fusion_lon": 0.0}, {"is_reserved": 0, "type": "electric_scooter", "bike_id": "6d3fb5c5bbfdf6d35ce7dd2e588129a9", "lat": 38.94077816666667, "lon": -77.05499516666667, "rental_uris": {"android": "https://dc.lft.to/lastmile_qr_scan", "ios": "https://dc.lft.to/lastmile_qr_scan"}, "is_disabled": 0, "fusion_lat": 0.0, "name": "6d3fb5c5bbfdf6d35ce7dd2e588129a9", "fusion_lon": 0.0}, {"is_reserved": 0, "type": "electric_scooter", "bike_id": "4112973717e8d48768b6c41c5b2f2657", "lat": 38.953809666666665, "lon": -77.0018575, "rental_uris": {"android": "https://dc.lft.to/lastmile_qr_scan", "ios": "https://dc.lft.to/lastmile_qr_scan"}, "is_disabled": 0, "fusion_lat": 0.0, "name": "4112973717e8d48768b6c41c5b2f2657", "fusion_lon": 0.0}, {"is_reserved": 0, "type": "electric_scooter", "bike_id": "53899df7a6a599c09d6ba57cf22498b8", "lat": 38.92450766666666, "lon": -77.051921, "rental_uris": {"android": "https://dc.lft.to/lastmile_qr_scan", "ios": "https://dc.lft.to/lastmile_qr_scan"}, "is_disabled": 0, "fusion_lat": 0.0, "name": "53899df7a6a599c09d6ba57cf22498b8", "fusion_lon": 0.0}, {"is_reserved": 0, "type": "electric_bike", "bike_id": "7bbcf27aea71c1c3dec4608936fee6cd", "lat": 38.867558333333335, "lon": -76.94532516666666, "rental_uris": {"android": "https://dc.lft.to/lastmile_qr_scan", "ios": "https://dc.lft.to/lastmile_qr_scan"}, "is_disabled": 0, "fusion_lat": 0.0, "name": "7bbcf27aea71c1c3dec4608936fee6cd", "fusion_lon": 0.0}, {"is_reserved": 0, "type": "electric_scooter", "bike_id": "6303fd4726a585dab9165387a89813d7", "lat": 38.90548483333333, "lon": -77.02704833333334, "rental_uris": {"android": "https://dc.lft.to/lastmile_qr_scan", "ios": "https://dc.lft.to/lastmile_qr_scan"}, "is_disabled": 0, "fusion_lat": 0.0, "name": "6303fd4726a585dab9165387a89813d7", "fusion_lon": 0.0}, {"is_reserved": 0, "type": "electric_scooter", "bike_id": "338a20e4227f983efc1905f93a0f8679", "lat": 38.91919466666667, "lon": -77.04475716666667, "rental_uris": {"android": "https://dc.lft.to/lastmile_qr_scan", "ios": "https://dc.lft.to/lastmile_qr_scan"}, "is_disabled": 0, "fusion_lat": 0.0, "name": "338a20e4227f983efc1905f93a0f8679", "fusion_lon": 0.0}, {"is_reserved": 0, "type": "electric_scooter", "bike_id": "4ee2abe655016060a2a51fc6b2cbf244", "lat": 38.905260166666665, "lon": -77.06102866666667, "rental_uris": {"android": "https://dc.lft.to/lastmile_qr_scan", "ios": "https://dc.lft.to/lastmile_qr_scan"}, "is_disabled": 0, "fusion_lat": 0.0, "name": "4ee2abe655016060a2a51fc6b2cbf244", "fusion_lon": 0.0}, {"is_reserved": 0, "type": "electric_scooter", "bike_id": "4d933a2b41f586c4c03a47b5f1468e28", "lat": 38.911131833333336, "lon": -77.03265333333333, "rental_uris": {"android": "https://dc.lft.to/lastmile_qr_scan", "ios": "https://dc.lft.to/lastmile_qr_scan"}, "is_disabled": 0, "fusion_lat": 0.0, "name": "4d933a2b41f586c4c03a47b5f1468e28", "fusion_lon": 0.0}, {"is_reserved": 0, "type": "electric_scooter", "bike_id": "e2d8230df9025eef4c56ac1830fafdf6", "lat": 38.908812, "lon": -77.02955533333333, "rental_uris": {"android": "https://dc.lft.to/lastmile_qr_scan", "ios": "https://dc.lft.to/lastmile_qr_scan"}, "is_disabled": 0, "fusion_lat": 0.0, "name": "e2d8230df9025eef4c56ac1830fafdf6", "fusion_lon": 0.0}, {"is_reserved": 0, "type": "electric_scooter", "bike_id": "798b1aad5d516fcec8ff91760832fea3", "lat": 38.920257666666664, "lon": -76.9854385, "rental_uris": {"android": "https://dc.lft.to/lastmile_qr_scan", "ios": "https://dc.lft.to/lastmile_qr_scan"}, "is_disabled": 0, "fusion_lat": 0.0, "name": "798b1aad5d516fcec8ff91760832fea3", "fusion_lon": 0.0}, {"is_reserved": 0, "type": "electric_scooter", "bike_id": "2063cdf691d8076290b16f6dd75dcbc6", "lat": 38.8877285, "lon": -76.93261366666667, "rental_uris": {"android": "https://dc.lft.to/lastmile_qr_scan", "ios": "https://dc.lft.to/lastmile_qr_scan"}, "is_disabled": 0, "fusion_lat": 0.0, "name": "2063cdf691d8076290b16f6dd75dcbc6", "fusion_lon": 0.0}, {"is_reserved": 0, "type": "electric_scooter", "bike_id": "b4af657f85e6645cc7b8834558cdf7ee", "lat": 38.935282666666666, "lon": -77.0237075, "rental_uris": {"android": "https://dc.lft.to/lastmile_qr_scan", "ios": "https://dc.lft.to/lastmile_qr_scan"}, "is_disabled": 0, "fusion_lat": 0.0, "name": "b4af657f85e6645cc7b8834558cdf7ee", "fusion_lon": 0.0}, {"is_reserved": 0, "type": "electric_scooter", "bike_id": "7b160402bc02bbee49ba0e33462e40ab", "lat": 38.907274, "lon": -76.93450566666667, "rental_uris": {"android": "https://dc.lft.to/lastmile_qr_scan", "ios": "https://dc.lft.to/lastmile_qr_scan"}, "is_disabled": 0, "fusion_lat": 0.0, "name": "7b160402bc02bbee49ba0e33462e40ab", "fusion_lon": 0.0}, {"is_reserved": 0, "type": "electric_scooter", "bike_id": "82e25daddfb243ad91c58114cc1d94be", "lat": 38.935265666666666, "lon": -77.01941016666666, "rental_uris": {"android": "https://dc.lft.to/lastmile_qr_scan", "ios": "https://dc.lft.to/lastmile_qr_scan"}, "is_disabled": 0, "fusion_lat": 0.0, "name": "82e25daddfb243ad91c58114cc1d94be", "fusion_lon": 0.0}, {"is_reserved": 0, "type": "electric_scooter", "bike_id": "71e705f00041b4cdbb614db9ac901d12", "lat": 38.92474466666667, "lon": -77.03940683333333, "rental_uris": {"android": "https://dc.lft.to/lastmile_qr_scan", "ios": "https://dc.lft.to/lastmile_qr_scan"}, "is_disabled": 0, "fusion_lat": 0.0, "name": "71e705f00041b4cdbb614db9ac901d12", "fusion_lon": 0.0}, {"is_reserved": 0, "type": "electric_scooter", "bike_id": "02ecadb3e1ae72f031eb5d047d3f726c", "lat": 38.9267965, "lon": -77.03198516666667, "rental_uris": {"android": "https://dc.lft.to/lastmile_qr_scan", "ios": "https://dc.lft.to/lastmile_qr_scan"}, "is_disabled": 0, "fusion_lat": 0.0, "name": "02ecadb3e1ae72f031eb5d047d3f726c", "fusion_lon": 0.0},