{"data": {"bikes": [{"bike_id": "a87b079b72a8df2d90c3558277eed0a0", "is_reserved": 0, "name": "a87b079b72a8df2d90c3558277eed0a0", "lat": 38.8955665, "fusion_lat": 0.0, "lon": -76.94871316666666, "is_disabled": 0, "fusion_lon": 0.0, "rental_uris": {"android": "https://dc.lft.to/lastmile_qr_scan", "ios": "https://dc.lft.to/lastmile_qr_scan"}, "type": "electric_scooter"}, {"bike_id": "77f0082df3993051ed9ae40e97f575b3", "is_reserved": 0, "name": "77f0082df3993051ed9ae40e97f575b3", "lat": 38.897529666666664, "fusion_lat": 0.0, "lon": -77.02990566666666, "is_disabled": 0, "fusion_lon": 0.0, "rental_uris": {"android": "https://dc.lft.to/lastmile_qr_scan", "ios": "https://dc.lft.to/lastmile_qr_scan"}, "type": "electric_scooter"}, {"bike_id": "63416ae1d0732f36fd98d2371242353d", "is_reserved": 0, "name": "63416ae1d0732f36fd98d2371242353d", "lat": 38.917598166666664, "fusion_lat": 0.0, "lon": -77.06950083333334, "is_disabled": 0, "fusion_lon": 0.0, "rental_uris": {"android": "https://dc.lft.to/lastmile_qr_scan", "ios": "https://dc.lft.to/lastmile_qr_scan"}, "type": "electric_scooter"}, {"bike_id": "30415ecf705a22d547911a5b1ba7c234", "is_reserved": 0, "name": "30415ecf705a22d547911a5b1ba7c234", "lat": 38.91549666666667, "fusion_lat": 0.0, "lon": -77.03851733333333, "is_disabled": 0, "fusion_lon": 0.0, "rental_uris": {"android": "https://dc.lft.to/lastmile_qr_scan", "ios": "https://dc.lft.to/lastmile_qr_scan"}, "type": "electric_scooter"}, {"bike_id": "6f17ae6a12bb6bc829795d451a1da942", "is_reserved": 0, "name": "6f17ae6a12bb6bc829795d451a1da942", "lat": 38.932483833333336, "fusion_lat": 0.0, "lon": -76.99529833333334, "is_disabled": 0, "fusion_lon": 0.0, "rental_uris": {"android": "https://dc.lft.to/lastmile_qr_scan", "ios": "https://dc.lft.to/lastmile_qr_scan"}, "type": "electric_scooter"}, {"bike_id": "bac40caaae128694b0bc3c016a2b9534", "is_reserved": 0, "name": "bac40caaae128694b0bc3c016a2b9534", "lat": 38.92650866666666, "fusion_lat": 0.0, "lon": -77.041409, "is_disabled": 0, "fusion_lon": 0.0, "rental_uris": {"android": "https://dc.lft.to/lastmile_qr_scan", "ios": "https://dc.lft.to/lastmile_qr_scan"}, "type": "electric_scooter"}, {"bike_id": "57d8fac15c8c40500e9077b6d9610b97", "is_reserved": 0, "name": "57d8fac15c8c40500e9077b6d9610b97", "lat": 38.91825083333333, "fusion_lat": 0.0, "lon": -77.0317375, "is_disabled": 0, "fusion_lon": 0.0, "rental_uris": {"android": "https://dc.lft.to/lastmile_qr_scan", "ios": "https://dc.lft.to/lastmile_qr_scan"}, "type": "electric_scooter"}, {"bike_id": "20801c1484fc5075fbfe5df206b39161", "is_reserved": 0, "name": "20801c1484fc5075fbfe5df206b39161", "lat": 38.87372466666667, "fusion_lat": 0.0, "lon": -77.00062633333333, "is_disabled": 0, "fusion_lon": 0.0, "rental_uris": {"android": "https://dc.lft.to/lastmile_qr_scan", "ios": "https://dc.lft.to/lastmile_qr_scan"}, "type": "electric_scooter"}, {"bike_id": "c425e39aaf949570bb404376b8e91b08", "is_reserved": 0, "name": "c425e39aaf949570bb404376b8e91b08", "lat": 38.92300566666667, "fusion_lat": 0.0, "lon": -77.035322, "is_disabled": 0, "fusion_lon": 0.0, "rental_uris": {"android": "https://dc.lft.to/lastmile_qr_scan", "ios": "https://dc.lft.to/lastmile_qr_scan"}, "type": "electric_scooter"}, {"bike_id": "28c0cd977fb49eb3607ba43085021c55", "is_reserved": 0, "name": "28c0cd977fb49eb3607ba43085021c55", "lat": 38.9311625, "fusion_lat": 0.0, "lon": -77.02098366666667, "is_disabled": 0, "fusion_lon": 0.0, "rental_uris": {"android": "https://dc.lft.to/lastmile_qr_scan", "ios": "https://dc.lft.to/lastmile_qr_scan"}, "type": "electric_scooter"}, {"bike_id": "1bb56310c90d75ac8277767952e7c108", "is_reserved": 0, "name": "1bb56310c90d75ac8277767952e7c108", "lat": 38.87437966666667, "fusion_lat": 0.0, "lon": -77.00051833333333, "is_disabled": 0, "fusion_lon": 0.0, "rental_uris": {"android": "https://dc.lft.to/lastmile_qr_scan", "ios": "https://dc.lft.to/lastmile_qr_scan"}, "type": "electric_scooter"}, {"bike_id": "67460aaf5489b4a1f2eb4f7565cd2eed", "is_reserved": 0, "name": "67460aaf5489b4a1f2eb4f7565cd2eed", "lat": 38.91018666666667, "fusion_lat": 0.0, "lon": -77.04250016666667, "is_disabled": 0, "fusion_lon": 0.0, "rental_uris": {"android": "https://dc.lft.to/lastmile_qr_scan", "ios": "https://dc.lft.to/lastmile_qr_scan"}, "type": "electric_scooter"}, {"bike_id": "f58bad9eef69127a07c2a00d3ff77976", "is_reserved": 0, "name": "f58bad9eef69127a07c2a00d3ff77976", "lat": 38.91022266666667, "fusion_lat": 0.0, "lon": -76.99726366666667, "is_disabled": 0, "fusion_lon": 0.0, "rental_uris": {"android": "https://dc.lft.to/lastmile_qr_scan", "ios": "https://dc.lft.to/lastmile_qr_scan"}, "type": "electric_scooter"}, {"bike_id": "4b97271455cade2438d169321a37601b", "is_reserved": 0, "name": "4b97271455cade2438d169321a37601b", "lat": 38.9013225, "fusion_lat": 0.0, "lon": -77.04013466666666, "is_disabled": 0, "fusion_lon": 0.0, "rental_uris": {"android": "https://dc.lft.to/lastmile_qr_scan", "ios": "https://dc.lft.to/lastmile_qr_scan"}, "type": "electric_scooter"}, {"bike_id": "9e14c303a1f6acb284e0964070db2c55", "is_reserved": 0, "name": "9e14c303a1f6acb284e0964070db2c55", "lat": 38.894736, "fusion_lat": 0.0, "lon": -77.01766116666667, "is_disabled": 0, "fusion_lon": 0.0, "rental_uris": {"android": "https://dc.lft.to/lastmile_qr_scan", "ios": "https://dc.lft.to/lastmile_qr_scan"}, "type": "electric_scooter"}, {"bike_id": "a4c69bdbb70ddbe4b78ba73fd12573e3", "is_reserved": 0, "name": "a4c69bdbb70ddbe4b78ba73fd12573e3", "lat": 38.89477, "fusion_lat": 0.0, "lon": -77.00308433333333, "is_disabled": 0, "fusion_lon": 0.0, "rental_uris": {"android": "https://dc.lft.to/lastmile_qr_scan", "ios": "https://dc.lft.to/lastmile_qr_scan"}, "type": "electric_scooter"}, {"bike_id": "db03552d183f59b6a343b1b45f2d4f6f", "is_reserved": 0, "name": "db03552d183f59b6a343b1b45f2d4f6f", "lat": 38.907777833333334, "fusion_lat": 0.0, "lon": -76.99381233333334, "is_disabled": 0, "fusion_lon": 0.0, "rental_uris": {"android": "https://dc.lft.to/lastmile_qr_scan", "ios": "https://dc.lft.to/lastmile_qr_scan"}, "type": "electric_scooter"}, {"bike_id": "4499146f497ce6e7e75a69bbc0011e60", "is_reserved": 0, "name": "4499146f497ce6e7e75a69bbc0011e60", "lat": 38.904955666666666, "fusion_lat": 0.0, "lon": -77.04651433333333, "is_disabled": 0, "fusion_lon": 0.0, "rental_uris": {"android": "https://dc.lft.to/lastmile_qr_scan", "ios": "https://dc.lft.to/lastmile_qr_scan"}, "type": "electric_scooter"}, {"bike_id": "8b3f9235c6b7447c01a3fd702e76c4b2", "is_reserved": 0, "name": "8b3f9235c6b7447c01a3fd702e76c4b2", "lat": 38.930753333333335, "fusion_lat": 0.0, "lon": -77.02158833333333, "is_disabled": 0, "fusion_lon": 0.0, "rental_uris": {"android": "https://dc.lft.to/lastmile_qr_scan", "ios": "https://dc.lft.to/lastmile_qr_scan"}, "type": "electric_scooter"}, {"bike_id": "a6b01da06d3a56369f517723c4179c92", "is_reserved": 0, "name": "a6b01da06d3a56369f517723c4179c92", "lat": 38.88722416666667, "fusion_lat": 0.0, "lon": -77.02579933333334, "is_disabled": 0, "fusion_lon": 0.0, "rental_uris": {"android": "https://dc.lft.to/lastmile_qr_scan", "ios": "https://dc.lft.to/lastmile_qr_scan"}, "type": "electric_scooter"}, {"bike_id": "4501ea06013645e03e711bdba76fc79c", "is_reserved": 0, "name": "4501ea06013645e03e711bdba76fc79c", "lat": 38.8921925, "fusion_lat": 0.0, "lon": -77.04639833333333, "is_disabled": 0, "fusion_lon": 0.0, "rental_uris": {"android": "https://dc.lft.to/lastmile_qr_scan", "ios": "https://dc.lft.to/lastmile_qr_scan"}, "type": "electric_scooter"}, {"bike_id": "1ad456854940fc52447c4880d2ad9f36", "is_reserved": 0, "name": "1ad456854940fc52447c4880d2ad9f36", "lat": 38.850858333333335, "fusion_lat": 0.0, "lon": -76.9567675, "is_disabled": 0, "fusion_lon": 0.0, "rental_uris": {"android": "https://dc.lft.to/lastmile_qr_scan", "ios": "https://dc.lft.to/lastmile_qr_scan"}, "type": "electric_bike"}, {"bike_id": "7cf834765219c4a39ef440e2c1bbeb4b", "is_reserved": 0, "name": "7cf834765219c4a39ef440e2c1bbeb4b", "lat": 38.91640566666667, "fusion_lat": 0.0, "lon": -77.03164316666667, "is_disabled": 0, "fusion_lon": 0.0, "rental_uris": {"android": "https://dc.lft.to/lastmile_qr_scan", "ios": "https://dc.lft.to/lastmile_qr_scan"}, "type": "electric_scooter"}, {"bike_id": "9f28e826799fb6eb39f9fd635ea8c9ae", "is_reserved": 0, "name": "9f28e826799fb6eb39f9fd635ea8c9ae", "lat": 38.926194833333334, "fusion_lat": 0.0, "lon": -77.041946, "is_disabled": 0, "fusion_lon": 0.0, "rental_uris": {"android": "https://dc.lft.to/lastmile_qr_scan", "ios": "https://dc.lft.to/lastmile_qr_scan"}, "type": "electric_scooter"}, {"bike_id": "7c004eb5230662db8f024c8b91b02470", "is_reserved": 0, "name": "7c004eb5230662db8f024c8b91b02470", "lat": 38.93109116666667, "fusion_lat": 0.0, "lon": -77.03018383333334, "is_disabled": 0, "fusion_lon": 0.0, "rental_uris": {"android": "https://dc.lft.to/lastmile_qr_scan", "ios": "https://dc.lft.to/lastmile_qr_scan"}, "type": "electric_scooter"}, {"bike_id": "9fa1d61deacd87724abe1b8f8fe6f786", "is_reserved": 0, "name": "9fa1d61deacd87724abe1b8f8fe6f786", "lat": 38.86210483333333, "fusion_lat": 0.0, "lon": -76.99447283333333, "is_disabled": 0, "fusion_lon": 0.0, "rental_uris": {"android": "https://dc.lft.to/lastmile_qr_scan", "ios": "https://dc.lft.to/lastmile_qr_scan"}, "type": "electric_scooter"}, {"bike_id": "736ad4b0fe781ffb559908d5652131d9", "is_reserved": 0, "name": "736ad4b0fe781ffb559908d5652131d9", "lat": 38.921507166666665, "fusion_lat": 0.0, "lon": -77.03865416666666, "is_disabled": 0, "fusion_lon": 0.0, "rental_uris": {"android": "https://dc.lft.to/lastmile_qr_scan", "ios": "https://dc.lft.to/lastmile_qr_scan"}, "type": "electric_scooter"}, {"bike_id": "552dc9f921dac135d4de8b2ee952dbb6", "is_reserved": 0, "name": "552dc9f921dac135d4de8b2ee952dbb6", "lat": 38.89820316666667, "fusion_lat": 0.0, "lon": -76.99797933333333, "is_disabled": 0, "fusion_lon": 0.0, "rental_uris": {"android": "https://dc.lft.to/lastmile_qr_scan", "ios": "https://dc.lft.to/lastmile_qr_scan"}, "type": "electric_bike"}, {"bike_id": "119ba774644cc95345dfb4146f460c4e", "is_reserved": 0, "name": "119ba774644cc95345dfb4146f460c4e", "lat": 38.878189166666665, "fusion_lat": 0.0, "lon": -77.00131733333333, "is_disabled": 0, "fusion_lon": 0.0, "rental_uris": {"android": "https://dc.lft.to/lastmile_qr_scan", "ios": "https://dc.lft.to/lastmile_qr_scan"}, "type": "electric_scooter"}, {"bike_id": "953eac1f884b2dfd9132da9c48b24490", "is_reserved": 0, "name": "953eac1f884b2dfd9132da9c48b24490", "lat": 38.87389733333333, "fusion_lat": 0.0, "lon": -77.0016715, "is_disabled": 0, "fusion_lon": 0.0, "rental_uris": {"android": "https://dc.lft.to/lastmile_qr_scan", "ios": "https://dc.lft.to/lastmile_qr_scan"}, "type": "electric_scooter"}, {"bike_id": "84585d009f2c85036462ad35a5bd9f19", "is_reserved": 0, "name": "84585d009f2c85036462ad35a5bd9f19", "lat": 38.91487583333333, "fusion_lat": 0.0, "lon": -77.03759533333333, "is_disabled": 0, "fusion_lon": 0.0, "rental_uris": {"android": "https://dc.lft.to/lastmile_qr_scan", "ios": "https://dc.lft.to/lastmile_qr_scan"}, "type": "electric_scooter"}, {"bike_id": "5645fb6fcbad5d2b8ee097c915b849ab", "is_reserved": 0, "name": "5645fb6fcbad5d2b8ee097c915b849ab", "lat": 38.91170966666667, "fusion_lat": 0.0, "lon": -77.0385225, "is_disabled": 0, "fusion_lon": 0.0, "rental_uris": {"android": "https://dc.lft.to/lastmile_qr_scan", "ios": "https://dc.lft.to/lastmile_qr_scan"}, "type": "electric_scooter"}, {"bike_id": "67b070b8506b29fedfd089669091fd25", "is_reserved": 0, "name": "67b070b8506b29fedfd089669091fd25", "lat": 38.895444166666664, "fusion_lat": 0.0, "lon": -76.983378, "is_disabled": 0, "fusion_lon": 0.0, "rental_uris": {"android": "https://dc.lft.to/lastmile_qr_scan", "ios": "https://dc.lft.to/lastmile_qr_scan"}, "type": "electric_scooter"}, {"bike_id": "767466eb9f72a1cee2dae8b55da75b72", "is_reserved": 0, "name": "767466eb9f72a1cee2dae8b55da75b72", "lat": 38.91469333333333, "fusion_lat": 0.0, "lon": -77.04559583333334, "is_disabled": 0, "fusion_lon": 0.0, "rental_uris": {"android": "https://dc.lft.to/lastmile_qr_scan", "ios": "https://dc.lft.to/lastmile_qr_scan"}, "type": "electric_scooter"}, {"bike_id": "c7a5e10f30623ae5dcd66d44f3950640", "is_reserved": 0, "name": "c7a5e10f30623ae5dcd66d44f3950640", "lat": 38.89278983333333, "fusion_lat": 0.0, "lon": -77.0465835, "is_disabled": 0, "fusion_lon": 0.0, "rental_uris": {"android": "https://dc.lft.to/lastmile_qr_scan", "ios": "https://dc.lft.to/lastmile_qr_scan"}, "type": "electric_scooter"}, {"bike_id": "2b176c88294767bca86966749a50efba", "is_reserved": 0, "name": "2b176c88294767bca86966749a50efba", "lat": 38.987874, "fusion_lat": 0.0, "lon": -77.141004, "is_disabled": 0, "fusion_lon": 0.0, "rental_uris": {"android": "https://dc.lft.to/lastmile_qr_scan", "ios": "https://dc.lft.to/lastmile_qr_scan"}, "type": "electric_bike"}, {"bike_id": "07e3536b6d17661c1c6833bb70557be6", "is_reserved": 0, "name": "07e3536b6d17661c1c6833bb70557be6", "lat": 38.87375183333333, "fusion_lat": 0.0, "lon": -77.001212, "is_disabled": 0, "fusion_lon": 0.0, "rental_uris": {"android": "https://dc.lft.to/lastmile_qr_scan", "ios": "https://dc.lft.to/lastmile_qr_scan"}, "type": "electric_scooter"}, {"bike_id": "3b61012cba43302f98c8d213233285f1", "is_reserved": 0, "name": "3b61012cba43302f98c8d213233285f1", "lat": 38.898909333333336, "fusion_lat": 0.0, "lon": -77.02167233333333, "is_disabled": 0, "fusion_lon": 0.0, "rental_uris": {"android": "https://dc.lft.to/lastmile_qr_scan", "ios": "https://dc.lft.to/lastmile_qr_scan"}, "type": "electric_bike"}, {"bike_id": "d567ad200dda4701c15261683edcb6bc", "is_reserved": 0, "name": "d567ad200dda4701c15261683edcb6bc", "lat": 38.904652166666665, "fusion_lat": 0.0, "lon": -77.066031, "is_disabled": 0, "fusion_lon": 0.0, "rental_uris": {"android": "https://dc.lft.to/lastmile_qr_scan", "ios": "https://dc.lft.to/lastmile_qr_scan"}, "type": "electric_scooter"}, {"bike_id": "eda8c457e49c90a08cac715eda8b1ba2", "is_reserved": 0, "name": "eda8c457e49c90a08cac715eda8b1ba2", "lat": 38.915927333333336, "fusion_lat": 0.0, "lon": -77.022958, "is_disabled": 0, "fusion_lon": 0.0, "rental_uris": {"android": "https://dc.lft.to/lastmile_qr_scan", "ios": "https://dc.lft.to/lastmile_qr_scan"}, "type": "electric_scooter"}, {"bike_id": "37d90f314e67ed13b4e3ad963b86906a", "is_reserved": 0, "name": "37d90f314e67ed13b4e3ad963b86906a", "lat": 38.887465166666665, "fusion_lat": 0.0, "lon": -77.02776666666666, "is_disabled": 0, "fusion_lon": 0.0, "rental_uris": {"android": "https://dc.lft.to/lastmile_qr_scan", "ios": "https://dc.lft.to/lastmile_qr_scan"}, "type": "electric_scooter"}, {"bike_id": "e4c8a5bcf450e39ea90c8f2f77132a9c", "is_reserved": 0, "name": "e4c8a5bcf450e39ea90c8f2f77132a9c", "lat": 38.94274, "fusion_lat": 0.0, "lon": -77.0325635, "is_disabled": 0, "fusion_lon": 0.0, "rental_uris": {"android": "https://dc.lft.to/lastmile_qr_scan", "ios": "https://dc.lft.to/lastmile_qr_scan"}, "type": "electric_scooter"}, {"bike_id": "637fda4babf06728b25776d443d74c29", "is_reserved": 0, "name": "637fda4babf06728b25776d443d74c29", "lat": 38.908113166666666, "fusion_lat": 0.0, "lon": -77.0433025, "is_disabled": 0, "fusion_lon": 0.0, "rental_uris": {"android": "https://dc.lft.to/lastmile_qr_scan", "ios": "https://dc.lft.to/lastmile_qr_scan"}, "type": "electric_scooter"}, {"bike_id": "b55b178ef818494dacdfbefbb855f44d", "is_reserved": 0, "name": "b55b178ef818494dacdfbefbb855f44d", "lat": 38.892225833333335, "fusion_lat": 0.0, "lon": -77.04326333333333, "is_disabled": 0, "fusion_lon": 0.0, "rental_uris": {"android": "https://dc.lft.to/lastmile_qr_scan", "ios": "https://dc.lft.to/lastmile_qr_scan"}, "type": "electric_scooter"}, {"bike_id": "d240f0269c4d908688b25d61568fe1e5", "is_reserved": 0, "name": "d240f0269c4d908688b25d61568fe1e5", "lat": 38.890096166666666, "fusion_lat": 0.0, "lon": -76.9369695, "is_disabled": 0, "fusion_lon": 0.0, "rental_uris": {"android": "https://dc.lft.to/lastmile_qr_scan", "ios": "https://dc.lft.to/lastmile_qr_scan"}, "type": "electric_scooter"}, {"bike_id": "205aef6c4db0aeb867bbdd12080b73b1", "is_reserved": 0, "name": "205aef6c4db0aeb867bbdd12080b73b1", "lat": 38.9140695, "fusion_lat": 0.0, "lon": -77.029837, "is_disabled": 0, "fusion_lon": 0.0, "rental_uris": {"android": "https://dc.lft.to/lastmile_qr_scan", "ios": "https://dc.lft.to/lastmile_qr_scan"}, "type": "electric_scooter"}, {"bike_id": "f70c19edf737b0bfe02a0f2d2584ca94", "is_reserved": 0, "name": "f70c19edf737b0bfe02a0f2d2584ca94", "lat": 38.90130333333333, "fusion_lat": 0.0, "lon": -77.04618433333333, "is_disabled": 0, "fusion_lon": 0.0, "rental_uris": {"android": "https://dc.lft.to/lastmile_qr_scan", "ios": "https://dc.lft.to/lastmile_qr_scan"}, "type": "electric_scooter"}, {"bike_id": "783116467c6886ec5095bc5feaf6b6f1", "is_reserved": 0, "name": "783116467c6886ec5095bc5feaf6b6f1", "lat": 38.813275833333336, "fusion_lat": 0.0, "lon": -77.05080416666667, "is_disabled": 0, "fusion_lon": 0.0, "rental_uris": {"android": "https://dc.lft.to/lastmile_qr_scan", "ios": "https://dc.lft.to/lastmile_qr_scan"}, "type": "electric_bike"}, {"bike_id": "8db3f81019760027ccf9ca3e8c2175b2", "is_reserved": 0, "name": "8db3f81019760027ccf9ca3e8c2175b2", "lat": 38.8899715, "fusion_lat": 0.0, "lon": -76.9543325, "is_disabled": 0, "fusion_lon": 0.0, "rental_uris": {"android": "https://dc.lft.to/lastmile_qr_scan", "ios": "https://dc.lft.to/lastmile_qr_scan"}, "type": "electric_scooter"}, {"bike_id": "c4b610fe245e8a695831acdbf7684f78", "is_reserved": 0, "name": "c4b610fe245e8a695831acdbf7684f78", "lat": 38.898656, "fusion_lat": 0.0, "lon": -77.027892, "is_disabled": 0, "fusion_lon": 0.0, "rental_uris": {"android": "https://dc.lft.to/lastmile_qr_scan", "ios": "https://dc.lft.to/lastmile_qr_scan"}, "type": "electric_scooter"}, {"bike_id": "67ad3c081a9e00df3cd0f684b3f44794", "is_reserved": 0, "name": "67ad3c081a9e00df3cd0f684b3f44794", "lat": 38.887448166666665, "fusion_lat": 0.0, "lon": -77.0177605, "is_disabled": 0, "fusion_lon": 0.0, "rental_uris": {"android": "https://dc.lft.to/lastmile_qr_scan", "ios": "https://dc.lft.to/lastmile_qr_scan"}, "type": "electric_scooter"}, {"bike_id": "6660a9ea94be11eedfeaa503f3e0785d", "is_reserved": 0, "name": "6660a9ea94be11eedfeaa503f3e0785d", "lat": 38.83515466666667, "fusion_lat": 0.0, "lon": -76.98672483333333, "is_disabled": 0, "fusion_lon": 0.0, "rental_uris": {"android": "https://dc.lft.to/lastmile_qr_scan", "ios": "https://dc.lft.to/lastmile_qr_scan"}, "type": "electric_bike"}, {"bike_id": "3e7954e82ecf1aa9e7edb89ed01b6cb2", "is_reserved": 0, "name": "3e7954e82ecf1aa9e7edb89ed01b6cb2", "lat": 38.90304283333333, "fusion_lat": 0.0, "lon": -77.02457566666666, "is_disabled": 0, "fusion_lon": 0.0, "rental_uris": {"android": "https://dc.lft.to/lastmile_qr_scan", "ios": "https://dc.lft.to/lastmile_qr_scan"}, "type": "electric_scooter"}, {"bike_id": "cb72f4a786797bcdb283638dfc233713", "is_reserved": 0, "name": "cb72f4a786797bcdb283638dfc233713", "lat": 38.86393316666667, "fusion_lat": 0.0, "lon": -77.20105583333333, "is_disabled": 0, "fusion_lon": 0.0, "rental_uris": {"android": "https://dc.lft.to/lastmile_qr_scan", "ios": "https://dc.lft.to/lastmile_qr_scan"}, "type": "electric_bike"}, {"bike_id": "6e0682e52c4239be028df1f343845552", "is_reserved": 0, "name": "6e0682e52c4239be028df1f343845552", "lat": 38.911043166666666, "fusion_lat": 0.0, "lon": -77.00671183333333, "is_disabled": 0, "fusion_lon": 0.0, "rental_uris": {"android": "https://dc.lft.to/lastmile_qr_scan", "ios": "https://dc.lft.to/lastmile_qr_scan"}, "type": "electric_scooter"}, {"bike_id": "540cc2b798478f6f694b834dc71b94bb", "is_reserved": 0, "name": "540cc2b798478f6f694b834dc71b94bb", "lat": 38.90563, "fusion_lat": 0.0, "lon": -77.0242125, "is_disabled": 0, "fusion_lon": 0.0, "rental_uris": {"android": "https://dc.lft.to/lastmile_qr_scan", "ios": "https://dc.lft.to/lastmile_qr_scan"}, "type": "electric_scooter"}, {"bike_id": "894592a4101d7bebbf88208948b52d85", "is_reserved": 0, "name": "894592a4101d7bebbf88208948b52d85", "lat": 38.9027785, "fusion_lat": 0.0, "lon": -77.02755983333333, "is_disabled": 0, "fusion_lon": 0.0, "rental_uris": {"android": "https://dc.lft.to/lastmile_qr_scan", "ios": "https://dc.lft.to/lastmile_qr_scan"}, "type": "electric_scooter"}, {"bike_id": "02ccc02a6f6e300da941c6908a488549", "is_reserved": 0, "name": "02ccc02a6f6e300da941c6908a488549", "lat": 38.909768166666666, "fusion_lat": 0.0, "lon": -77.05189933333334, "is_disabled": 0, "fusion_lon": 0.0, "rental_uris": {"android": "https://dc.lft.to/lastmile_qr_scan", "ios": "https://dc.lft.to/lastmile_qr_scan"}, "type": "electric_scooter"}, {"bike_id": "9831a9c40437b3043c1e9fe9414750aa", "is_reserved": 0, "name": "9831a9c40437b3043c1e9fe9414750aa", "lat": 38.924775833333335, "fusion_lat": 0.0, "lon": -77.037623, "is_disabled": 0, "fusion_lon": 0.0, "rental_uris": {"android": "https://dc.lft.to/lastmile_qr_scan", "ios": "https://dc.lft.to/lastmile_qr_scan"}, "type": "electric_scooter"}, {"bike_id": "94937737622a2092f40daf7c5563b1a3", "is_reserved": 0, "name": "94937737622a2092f40daf7c5563b1a3", "lat": 38.89838966666667, "fusion_lat": 0.0, "lon": -77.01358416666666, "is_disabled": 0, "fusion_lon": 0.0, "rental_uris": {"android": "https://dc.lft.to/lastmile_qr_scan", "ios": "https://dc.lft.to/lastmile_qr_scan"}, "type": "electric_bike"}, {"bike_id": "6f29c655598043b5dc9d7d987bdb75b0", "is_reserved": 0, "name": "6f29c655598043b5dc9d7d987bdb75b0", "lat": 38.9241765, "fusion_lat": 0.0, "lon": -76.997311, "is_disabled": 0, "fusion_lon": 0.0, "rental_uris": {"android": "https://dc.lft.to/lastmile_qr_scan", "ios": "https://dc.lft.to/lastmile_qr_scan"}, "type": "electric_scooter"}, {"bike_id": "d1eb086cfa099cebe2797eda10eb3f5f", "is_reserved": 0, "name": "d1eb086cfa099cebe2797eda10eb3f5f", "lat": 38.903490833333336, "fusion_lat": 0.0, "lon": -77.05291683333333, "is_disabled": 0, "fusion_lon": 0.0, "rental_uris": {"android": "https://dc.lft.to/lastmile_qr_scan", "ios": "https://dc.lft.to/lastmile_qr_scan"}, "type": "electric_scooter"}, {"bike_id": "fbc0e092cd0476a4620ca292c46e3c02", "is_reserved": 0, "name": "fbc0e092cd0476a4620ca292c46e3c02", "lat": 38.88748983333333, "fusion_lat": 0.0, "lon": -77.02128416666666, "is_disabled": 0, "fusion_lon": 0.0, "rental_uris": {"android": "https://dc.lft.to/lastmile_qr_scan", "ios": "https://dc.lft.to/lastmile_qr_scan"}, "type": "electric_scooter"}, {"bike_id": "41c2f31b47c6b6b98b88ae1fc56b0c73", "is_reserved": 0, "name": "41c2f31b47c6b6b98b88ae1fc56b0c73", "lat": 38.902456666666666, "fusion_lat": 0.0, "lon": -77.02606983333334, "is_disabled": 0, "fusion_lon": 0.0, "rental_uris": {"android": "https://dc.lft.to/lastmile_qr_scan", "ios": "https://dc.lft.to/lastmile_qr_scan"}, "type": "electric_scooter"}, {"bike_id": "f30b68c702db5423782b680536c3e186", "is_reserved": 0, "name": "f30b68c702db5423782b680536c3e186", "lat": 38.965929, "fusion_lat": 0.0, "lon": -77.01593166666666, "is_disabled": 0, "fusion_lon": 0.0, "rental_uris": {"android": "https://dc.lft.to/lastmile_qr_scan", "ios": "https://dc.lft.to/lastmile_qr_scan"}, "type": "electric_scooter"}, {"bike_id": "51e48a9e2587d5e32d6eeb3b4c858ede", "is_reserved": 0, "name": "51e48a9e2587d5e32d6eeb3b4c858ede", "lat": 38.887698, "fusion_lat": 0.0, "lon": -77.02370683333334, "is_disabled": 0, "fusion_lon": 0.0, "rental_uris": {"android": "https://dc.lft.to/lastmile_qr_scan", "ios": "https://dc.lft.to/lastmile_qr_scan"}, "type": "electric_scooter"}, {"bike_id": "9fa857dcd2629caab4a57d548dd2f9ac", "is_reserved": 0, "name": "9fa857dcd2629caab4a57d548dd2f9ac", "lat": 38.871808333333334, "fusion_lat": 0.0, "lon": -77.00609333333334, "is_disabled": 0, "fusion_lon": 0.0, "rental_uris": {"android": "https://dc.lft.to/lastmile_qr_scan", "ios": "https://dc.lft.to/lastmile_qr_scan"}, "type": "electric_scooter"}, {"bike_id": "808f24bd8ec23d282310ffa4a21cdbdf", "is_reserved": 0, "name": "808f24bd8ec23d282310ffa4a21cdbdf", "lat": 38.90460933333333, "fusion_lat": 0.0, "lon": -77.06290483333333, "is_disabled": 0, "fusion_lon": 0.0, "rental_uris": {"android": "https://dc.lft.to/lastmile_qr_scan", "ios": "https://dc.lft.to/lastmile_qr_scan"}, "type": "electric_scooter"}, {"bike_id": "b3e134a3937637465561f7c0fe2c7545", "is_reserved": 0, "name": "b3e134a3937637465561f7c0fe2c7545", "lat": 38.88731, "fusion_lat": 0.0, "lon": -77.01762883333333, "is_disabled": 0, "fusion_lon": 0.0, "rental_uris": {"android": "https://dc.lft.to/lastmile_qr_scan", "ios": "https://dc.lft.to/lastmile_qr_scan"}, "type": "electric_scooter"}, {"bike_id": "a2d43708ab0e8843f6155a7c390bc29c", "is_reserved": 0, "name": "a2d43708ab0e8843f6155a7c390bc29c", "lat": 38.89222866666667, "fusion_lat": 0.0, "lon": -77.02626783333334, "is_disabled": 0, "fusion_lon": 0.0, "rental_uris": {"android": "https://dc.lft.to/lastmile_qr_scan", "ios": "https://dc.lft.to/lastmile_qr_scan"}, "type": "electric_scooter"}, {"bike_id": "c90436a1f47a54ba9b9290c35b94131e", "is_reserved": 0, "name": "c90436a1f47a54ba9b9290c35b94131e", "lat": 38.90393683333333, "fusion_lat": 0.0, "lon": -77.0682095, "is_disabled": 0, "fusion_lon": 0.0, "rental_uris": {"android": "https://dc.lft.to/lastmile_qr_scan", "ios": "https://dc.lft.to/lastmile_qr_scan"}, "type": "electric_scooter"}, {"bike_id": "9a7a3858108978236ad4f66ecd95e25a", "is_reserved": 0, "name": "9a7a3858108978236ad4f66ecd95e25a", "lat": 38.90775933333333, "fusion_lat": 0.0, "lon": -77.0716365, "is_disabled": 0, "fusion_lon": 0.0, "rental_uris": {"android": "https://dc.lft.to/lastmile_qr_scan", "ios": "https://dc.lft.to/lastmile_qr_scan"}, "type": "electric_scooter"}, {"bike_id": "e0f977fdbe456735a4e15a071bae4c04", "is_reserved": 0, "name": "e0f977fdbe456735a4e15a071bae4c04", "lat": 38.90457266666667, "fusion_lat": 0.0, "lon": -77.001649, "is_disabled": 0, "fusion_lon": 0.0, "rental_uris": {"android": "https://dc.lft.to/lastmile_qr_scan", "ios": "https://dc.lft.to/lastmile_qr_scan"}, "type": "electric_scooter"}, {"bike_id": "58aa444bd688c031b4b0157791a3985c", "is_reserved": 0, "name": "58aa444bd688c031b4b0157791a3985c", "lat": 38.9225275, "fusion_lat": 0.0, "lon": -77.03519266666666, "is_disabled": 0, "fusion_lon": 0.0, "rental_uris": {"android": "https://dc.lft.to/lastmile_qr_scan", "ios": "https://dc.lft.to/lastmile_qr_scan"}, "type": "electric_scooter"}, {"bike_id": "04618916efb529f2c806e7c7ec7a6d6d", "is_reserved": 0, "name": "04618916efb529f2c806e7c7ec7a6d6d", "lat": 38.885369833333336, "fusion_lat": 0.0, "lon": -77.00062983333333, "is_disabled": 0, "fusion_lon": 0.0, "rental_uris": {"android": "https://dc.lft.to/lastmile_qr_scan", "ios": "https://dc.lft.to/lastmile_qr_scan"}, "type": "electric_scooter"}, {"bike_id": "bcccec47b52891ee7f3b6fc98a51c8e3", "is_reserved": 0, "name": "bcccec47b52891ee7f3b6fc98a51c8e3", "lat": 38.906050666666665, "fusion_lat": 0.0, "lon": -77.0568755, "is_disabled": 0, "fusion_lon": 0.0, "rental_uris": {"android": "https://dc.lft.to/lastmile_qr_scan", "ios": "https://dc.lft.to/lastmile_qr_scan"}, "type": "electric_scooter"}, {"bike_id": "666ea9d2d93144946eed65d4c966b9af", "is_reserved": 0, "name": "666ea9d2d93144946eed65d4c966b9af", "lat": 38.9171085, "fusion_lat": 0.0, "lon": -77.02344833333333, "is_disabled": 0, "fusion_lon": 0.0, "rental_uris": {"android": "https://dc.lft.to/lastmile_qr_scan", "ios": "https://dc.lft.to/lastmile_qr_scan"}, "type": "electric_scooter"}, {"bike_id": "22afdd4ed7b75d35283b85cbf05ca2a2", "is_reserved": 0, "name": "22afdd4ed7b75d35283b85cbf05ca2a2", "lat": 38.885389, "fusion_lat": 0.0, "lon": -77.00062116666666, "is_disabled": 0, "fusion_lon": 0.0, "rental_uris": {"android": "https://dc.lft.to/lastmile_qr_scan", "ios": "https://dc.lft.to/lastmile_qr_scan"}, "type": "electric_scooter"}, {"bike_id": "e2be4a8e63caf545bb709470f5c4d0a8", "is_reserved": 0, "name": "e2be4a8e63caf545bb709470f5c4d0a8", "lat": 38.922589, "fusion_lat": 0.0, "lon": -77.02108866666667, "is_disabled": 0, "fusion_lon": 0.0, "rental_uris": {"android": "https://dc.lft.to/lastmile_qr_scan", "ios": "https://dc.lft.to/lastmile_qr_scan"}, "type": "electric_scooter"}, {"bike_id": "db070e33d84e40e79e33d8d05db9bf40", "is_reserved": 0, "name": "db070e33d84e40e79e33d8d05db9bf40", "lat": 39.0031085, "fusion_lat": 0.0, "lon": -76.90323616666667, "is_disabled": 0, "fusion_lon": 0.0, "rental_uris": {"android": "https://dc.lft.to/lastmile_qr_scan", "ios": "https://dc.lft.to/lastmile_qr_scan"}, "type": "electric_bike"}, {"bike_id": "17db65555e01ebe5b43287f9a3acda98", "is_reserved": 0, "name": "17db65555e01ebe5b43287f9a3acda98", "lat": 38.9170855, "fusion_lat": 0.0, "lon": -77.02424183333333, "is_disabled": 0, "fusion_lon": 0.0, "rental_uris": {"android": "https://dc.lft.to/lastmile_qr_scan", "ios": "https://dc.lft.to/lastmile_qr_scan"}, "type": "electric_scooter"}, {"bike_id": "929787ed97bec8acdde6ec975ef01413", "is_reserved": 0, "name": "929787ed97bec8acdde6ec975ef01413", "lat": 38.8820395, "fusion_lat": 0.0, "lon": -77.003614, "is_disabled": 0, "fusion_lon": 0.0, "rental_uris": {"android": "https://dc.lft.to/lastmile_qr_scan", "ios": "https://dc.lft.to/lastmile_qr_scan"}, "type": "electric_scooter"}, {"bike_id": "3a5c0e5fa026241f6861312ce222442e", "is_reserved": 0, "name": "3a5c0e5fa026241f6861312ce222442e", "lat": 38.9308695, "fusion_lat": 0.0, "lon": -77.0342315, "is_disabled": 0, "fusion_lon": 0.0, "rental_uris": {"android": "https://dc.lft.to/lastmile_qr_scan", "ios": "https://dc.lft.to/lastmile_qr_scan"}, "type": "electric_scooter"}, {"bike_id": "327ab21fc9ac80befc9dfa0b87d57cbd", "is_reserved": 0, "name": "327ab21fc9ac80befc9dfa0b87d57cbd", "lat": 38.8876665, "fusion_lat": 0.0, "lon": -77.03496733333333, "is_disabled": 0, "fusion_lon": 0.0, "rental_uris": {"android": "https://dc.lft.to/lastmile_qr_scan", "ios": "https://dc.lft.to/lastmile_qr_scan"}, "type": "electric_bike"}, {"bike_id": "5ab051c6546e8d30c04bf5b1d584e926", "is_reserved": 0, "name": "5ab051c6546e8d30c04bf5b1d584e926", "lat": 38.92315216666667, "fusion_lat": 0.0, "lon": -77.04042516666667, "is_disabled": 0, "fusion_lon": 0.0, "rental_uris": {"android": "https://dc.lft.to/lastmile_qr_scan", "ios": "https://dc.lft.to/lastmile_qr_scan"}, "type": "electric_scooter"}, {"bike_id": "6700730049b7d2dbe78f6a42c5a95b3f", "is_reserved": 0, "name": "6700730049b7d2dbe78f6a42c5a95b3f", "lat": 38.9327755, "fusion_lat": 0.0, "lon": -77.02868, "is_disabled": 0, "fusion_lon": 0.0, "rental_uris": {"android": "https://dc.lft.to/lastmile_qr_scan", "ios": "https://dc.lft.to/lastmile_qr_scan"}, "type": "electric_scooter"}, {"bike_id": "3588385562f1d7c70982dc625e9457a7", "is_reserved": 0, "name": "3588385562f1d7c70982dc625e9457a7", "lat": 38.892190166666666, "fusion_lat": 0.0, "lon": -77.04504183333333, "is_disabled": 0, "fusion_lon": 0.0, "rental_uris": {"android": "https://dc.lft.to/lastmile_qr_scan", "ios": "https://dc.lft.to/lastmile_qr_scan"}, "type": "electric_scooter"}, {"bike_id": "56979321c8a7849d5db0e0a77d8391df", "is_reserved": 0, "name": "56979321c8a7849d5db0e0a77d8391df", "lat": 38.9008625, "fusion_lat": 0.0, "lon": -77.04922633333334, "is_disabled": 0, "fusion_lon": 0.0, "rental_uris": {"android": "https://dc.lft.to/lastmile_qr_scan", "ios": "https://dc.lft.to/lastmile_qr_scan"}, "type": "electric_scooter"}, {"bike_id": "1b640566ab729c3a44cee64fb620a0a7", "is_reserved": 0, "name": "1b640566ab729c3a44cee64fb620a0a7", "lat": 38.92037033333333, "fusion_lat": 0.0, "lon": -77.02587233333334, "is_disabled": 0, "fusion_lon": 0.0, "rental_uris": {"android": "https://dc.lft.to/lastmile_qr_scan", "ios": "https://dc.lft.to/lastmile_qr_scan"}, "type": "electric_scooter"}, {"bike_id": "2ce07ae5940646269ca6af86abb1fc6a", "is_reserved": 0, "name": "2ce07ae5940646269ca6af86abb1fc6a", "lat": 38.90194433333333, "fusion_lat": 0.0, "lon": -77.0237555, "is_disabled": 0, "fusion_lon": 0.0, "rental_uris": {"android": "https://dc.lft.to/lastmile_qr_scan", "ios": "https://dc.lft.to/lastmile_qr_scan"}, "type": "electric_scooter"}, {"bike_id": "17e9ef8ac63b1c77b8ee6b4576c0c6ce", "is_reserved": 0, "name": "17e9ef8ac63b1c77b8ee6b4576c0c6ce", "lat": 38.9169805, "fusion_lat": 0.0, "lon": -77.04597083333333, "is_disabled": 0, "fusion_lon": 0.0, "rental_uris": {"android": "https://dc.lft.to/lastmile_qr_scan", "ios": "https://dc.lft.to/lastmile_qr_scan"}, "type": "electric_scooter"}, {"bike_id": "c09455c20ac5c53ffde9283b337e21e5", "is_reserved": 0, "name": "c09455c20ac5c53ffde9283b337e21e5", "lat": 38.900877, "fusion_lat": 0.0, "lon": -77.049172, "is_disabled": 0, "fusion_lon": 0.0, "rental_uris": {"android": "https://dc.lft.to/lastmile_qr_scan", "ios": "https://dc.lft.to/lastmile_qr_scan"}, "type": "electric_scooter"}, {"bike_id": "9186840d67e6614ad618bfa7f9c38f8f", "is_reserved": 0, "name": "9186840d67e6614ad618bfa7f9c38f8f", "lat": 38.91966216666667, "fusion_lat": 0.0, "lon": -77.012072, "is_disabled": 0, "fusion_lon": 0.0, "rental_uris": {"android": "https://dc.lft.to/lastmile_qr_scan", "ios": "https://dc.lft.to/lastmile_qr_scan"}, "type": "electric_scooter"}, {"bike_id": "32dddfa7519181b80969f96eeec4c6f5", "is_reserved": 0, "name": "32dddfa7519181b80969f96eeec4c6f5", "lat": 38.904752333333334, "fusion_lat": 0.0, "lon": -77.00207483333334, "is_disabled": 0, "fusion_lon": 0.0, "rental_uris": {"android": "https://dc.lft.to/lastmile_qr_scan", "ios": "https://dc.lft.to/lastmile_qr_scan"}, "type": "electric_bike"}, {"bike_id": "272e1c663e93b4f76d8220b2c152d975", "is_reserved": 0, "name": "272e1c663e93b4f76d8220b2c152d975", "lat": 38.918447666666665, "fusion_lat": 0.0, "lon": -77.0483315, "is_disabled": 0, "fusion_lon": 0.0, "rental_uris": {"android": "https://dc.lft.to/lastmile_qr_scan", "ios": "https://dc.lft.to/lastmile_qr_scan"}, "type": "electric_scooter"}, {"bike_id": "b9fb4711936c709e6e17c07d44aede5d", "is_reserved": 0, "name": "b9fb4711936c709e6e17c07d44aede5d", "lat": 38.87656116666667, "fusion_lat": 0.0, "lon": -77.00563583333333, "is_disabled": 0, "fusion_lon": 0.0, "rental_uris": {"android": "https://dc.lft.to/lastmile_qr_scan", "ios": "https://dc.lft.to/lastmile_qr_scan"}, "type": "electric_scooter"}, {"bike_id": "7f7ef75bfe7ab0ee66e31626c10532b3", "is_reserved": 0, "name": "7f7ef75bfe7ab0ee66e31626c10532b3", "lat": 38.897176333333334, "fusion_lat": 0.0, "lon": -77.00796333333334, "is_disabled": 0, "fusion_lon": 0.0, "rental_uris": {"android": "https://dc.lft.to/lastmile_qr_scan", "ios": "https://dc.lft.to/lastmile_qr_scan"}, "type": "electric_scooter"}, {"bike_id": "72b38526234e783e9618c6d3dac670b9", "is_reserved": 0, "name": "72b38526234e783e9618c6d3dac670b9", "lat": 38.90557616666667, "fusion_lat": 0.0, "lon": -77.02420466666666, "is_disabled": 0, "fusion_lon": 0.0, "rental_uris": {"android": "https://dc.lft.to/lastmile_qr_scan", "ios": "https://dc.lft.to/lastmile_qr_scan"}, "type": "electric_scooter"}, {"bike_id": "2875e847e83e6bac029bc56573058c3b", "is_reserved": 0, "name": "2875e847e83e6bac029bc56573058c3b", "lat": 38.92308583333333, "fusion_lat": 0.0, "lon": -77.036576, "is_disabled": 0, "fusion_lon": 0.0, "rental_uris": {"android": "https://dc.lft.to/lastmile_qr_scan", "ios": "https://dc.lft.to/lastmile_qr_scan"}, "type": "electric_scooter"}, {"bike_id": "a15cde2191c8f572b5a43095cbaaf516", "is_reserved": 0, "name": "a15cde2191c8f572b5a43095cbaaf516", "lat": 38.905281, "fusion_lat": 0.0, "lon": -77.056388, "is_disabled": 0, "fusion_lon": 0.0, "rental_uris": {"android": "https://dc.lft.to/lastmile_qr_scan", "ios": "https://dc.lft.to/lastmile_qr_scan"}, "type": "electric_scooter"}, {"bike_id": "b4567002dcf122291457c00fea84667f", "is_reserved": 0, "name": "b4567002dcf122291457c00fea84667f", "lat": 38.918155, "fusion_lat": 0.0, "lon": -77.02679833333333, "is_disabled": 0, "fusion_lon": 0.0, "rental_uris": {"android": "https://dc.lft.to/lastmile_qr_scan", "ios": "https://dc.lft.to/lastmile_qr_scan"}, "type": "electric_scooter"}, {"bike_id": "c3c6cd154e1dc9f19d8782524b9cad16", "is_reserved": 0, "name": "c3c6cd154e1dc9f19d8782524b9cad16", "lat": 38.916939166666666, "fusion_lat": 0.0, "lon": -77.0376625, "is_disabled": 0, "fusion_lon": 0.0, "rental_uris": {"android": "https://dc.lft.to/lastmile_qr_scan", "ios": "https://dc.lft.to/lastmile_qr_scan"}, "type": "electric_scooter"}, {"bike_id": "18060601e688a740a6fa56e50a950149", "is_reserved": 0, "name": "18060601e688a740a6fa56e50a950149", "lat": 38.905793833333334, "fusion_lat": 0.0, "lon": -77.0445325, "is_disabled": 0, "fusion_lon": 0.0, "rental_uris": {"android": "https://dc.lft.to/lastmile_qr_scan", "ios": "https://dc.lft.to/lastmile_qr_scan"}, "type": "electric_scooter"}, {"bike_id": "dffdd3bcde32d3f5b246403597033eb1", "is_reserved": 0, "name": "dffdd3bcde32d3f5b246403597033eb1", "lat": 38.92380133333333, "fusion_lat": 0.0, "lon": -77.04303, "is_disabled": 0, "fusion_lon": 0.0, "rental_uris": {"android": "https://dc.lft.to/lastmile_qr_scan", "ios": "https://dc.lft.to/lastmile_qr_scan"}, "type": "electric_scooter"}, {"bike_id": "880a817a9709b5fe0f4d1ccd670cdf44", "is_reserved": 0, "name": "880a817a9709b5fe0f4d1ccd670cdf44", "lat": 38.87636283333333, "fusion_lat": 0.0, "lon": -77.001175, "is_disabled": 0, "fusion_lon": 0.0, "rental_uris": {"android": "https://dc.lft.to/lastmile_qr_scan", "ios": "https://dc.lft.to/lastmile_qr_scan"}, "type": "electric_scooter"}, {"bike_id": "19df8bdd64fe338586ef797ee7fbb1e0", "is_reserved": 0, "name": "19df8bdd64fe338586ef797ee7fbb1e0", "lat": 38.92073383333334, "fusion_lat": 0.0, "lon": -77.02415616666667, "is_disabled": 0, "fusion_lon": 0.0, "rental_uris": {"android": "https://dc.lft.to/lastmile_qr_scan", "ios": "https://dc.lft.to/lastmile_qr_scan"}, "type": "electric_scooter"}, {"bike_id": "a68d64569110b6d58703415e3a11852f", "is_reserved": 0, "name": "a68d64569110b6d58703415e3a11852f", "lat": 38.915775, "fusion_lat": 0.0, "lon": -77.01233933333333, "is_disabled": 0, "fusion_lon": 0.0, "rental_uris": {"android": "https://dc.lft.to/lastmile_qr_scan", "ios": "https://dc.lft.to/lastmile_qr_scan"}, "type": "electric_scooter"}, {"bike_id": "a43b5ddbf093766f96c8a665b8846111", "is_reserved": 0, "name": "a43b5ddbf093766f96c8a665b8846111", "lat": 38.887423166666665, "fusion_lat": 0.0, "lon": -77.0212795, "is_disabled": 0, "fusion_lon": 0.0, "rental_uris": {"android": "https://dc.lft.to/lastmile_qr_scan", "ios": "https://dc.lft.to/lastmile_qr_scan"}, "type": "electric_scooter"}, {"bike_id": "734ce263ba2ff3d15f3549c5bd21563d", "is_reserved": 0, "name": "734ce263ba2ff3d15f3549c5bd21563d", "lat": 38.93891416666666, "fusion_lat": 0.0, "lon": -77.02472466666667, "is_disabled": 0, "fusion_lon": 0.0, "rental_uris": {"android": "https://dc.lft.to/lastmile_qr_scan", "ios": "https://dc.lft.to/lastmile_qr_scan"}, "type": "electric_scooter"}, {"bike_id": "615118c0f199fc09c22b1f7ce0698ac1", "is_reserved": 0, "name": "615118c0f199fc09c22b1f7ce0698ac1", "lat": 38.900503666666665, "fusion_lat": 0.0, "lon": -77.00212566666667, "is_disabled": 0, "fusion_lon": 0.0, "rental_uris": {"android": "https://dc.lft.to/lastmile_qr_scan", "ios": "https://dc.lft.to/lastmile_qr_scan"}, "type": "electric_scooter"}, {"bike_id": "d49435c12f7adcb6b6eaf6e60047b474", "is_reserved": 0, "name": "d49435c12f7adcb6b6eaf6e60047b474", "lat": 38.912570833333334, "fusion_lat": 0.0, "lon": -77.04441683333333, "is_disabled": 0, "fusion_lon": 0.0, "rental_uris": {"android": "https://dc.lft.to/lastmile_qr_scan", "ios": "https://dc.lft.to/lastmile_qr_scan"}, "type": "electric_scooter"}, {"bike_id": "3b80e116ac19af644a5aa512131e187f", "is_reserved": 0, "name": "3b80e116ac19af644a5aa512131e187f", "lat": 38.9027105, "fusion_lat": 0.0, "lon": -76.9289995, "is_disabled": 0, "fusion_lon": 0.0, "rental_uris": {"android": "https://dc.lft.to/lastmile_qr_scan", "ios": "https://dc.lft.to/lastmile_qr_scan"}, "type": "electric_scooter"}, {"bike_id": "c170eb50f56908bb376a5ef3b612a210", "is_reserved": 0, "name": "c170eb50f56908bb376a5ef3b612a210", "lat": 38.90965033333333, "fusion_lat": 0.0, "lon": -77.04648166666666, "is_disabled": 0, "fusion_lon": 0.0, "rental_uris": {"android": "https://dc.lft.to/lastmile_qr_scan", "ios": "https://dc.lft.to/lastmile_qr_scan"}, "type": "electric_scooter"}, {"bike_id": "246cdcbd3e617d6b7bcb0fa1487aea2f", "is_reserved": 0, "name": "246cdcbd3e617d6b7bcb0fa1487aea2f", "lat": 38.910357833333336, "fusion_lat": 0.0, "lon": -77.03411866666667, "is_disabled": 0, "fusion_lon": 0.0, "rental_uris": {"android": "https://dc.lft.to/lastmile_qr_scan", "ios": "https://dc.lft.to/lastmile_qr_scan"}, "type": "electric_scooter"}, {"bike_id": "a6904c8a56db51fa7e21315afbe2052d", "is_reserved": 0, "name": "a6904c8a56db51fa7e21315afbe2052d", "lat": 38.90025116666666, "fusion_lat": 0.0, "lon": -77.048833, "is_disabled": 0, "fusion_lon": 0.0, "rental_uris": {"android": "https://dc.lft.to/lastmile_qr_scan", "ios": "https://dc.lft.to/lastmile_qr_scan"}, "type": "electric_scooter"}, {"bike_id": "313f2f6f84339a4868d9a70009ffd250", "is_reserved": 0, "name": "313f2f6f84339a4868d9a70009ffd250", "lat": 38.907379666666664, "fusion_lat": 0.0, "lon": -77.02945016666666, "is_disabled": 0, "fusion_lon": 0.0, "rental_uris": {"android": "https://dc.lft.to/lastmile_qr_scan", "ios": "https://dc.lft.to/lastmile_qr_scan"}, "type": "electric_scooter"}, {"bike_id": "4043b1e30b160c2586ac97db0b7af922", "is_reserved": 0, "name": "4043b1e30b160c2586ac97db0b7af922", "lat": 38.92385766666666, "fusion_lat": 0.0, "lon": -77.02158333333334, "is_disabled": 0, "fusion_lon": 0.0, "rental_uris": {"android": "https://dc.lft.to/lastmile_qr_scan", "ios": "https://dc.lft.to/lastmile_qr_scan"}, "type": "electric_scooter"}, {"bike_id": "1947f130b2f1794d0563c9c76df1649c", "is_reserved": 0, "name": "1947f130b2f1794d0563c9c76df1649c", "lat": 38.930532666666664, "fusion_lat": 0.0, "lon": -77.018598, "is_disabled": 0, "fusion_lon": 0.0, "rental_uris": {"android": "https://dc.lft.to/lastmile_qr_scan", "ios": "https://dc.lft.to/lastmile_qr_scan"}, "type": "electric_scooter"}, {"bike_id": "d05aaa634cf4d6d64ef77c014ad47abe", "is_reserved": 0, "name": "d05aaa634cf4d6d64ef77c014ad47abe", "lat": 38.898411, "fusion_lat": 0.0, "lon": -77.028009, "is_disabled": 0, "fusion_lon": 0.0, "rental_uris": {"android": "https://dc.lft.to/lastmile_qr_scan", "ios": "https://dc.lft.to/lastmile_qr_scan"}, "type": "electric_scooter"}, {"bike_id": "b649efc4426f7dbb0c1cb70876c42409", "is_reserved": 0, "name": "b649efc4426f7dbb0c1cb70876c42409", "lat": 38.9171375, "fusion_lat": 0.0, "lon": -76.97649366666667, "is_disabled": 0, "fusion_lon": 0.0, "rental_uris": {"android": "https://dc.lft.to/lastmile_qr_scan", "ios": "https://dc.lft.to/lastmile_qr_scan"}, "type": "electric_scooter"}, {"bike_id": "ae47128eca92b43c70d2aa05596da141", "is_reserved": 0, "name": "ae47128eca92b43c70d2aa05596da141", "lat": 38.9283525, "fusion_lat": 0.0, "lon": -76.99585533333334, "is_disabled": 0, "fusion_lon": 0.0, "rental_uris": {"android": "https://dc.lft.to/lastmile_qr_scan", "ios": "https://dc.lft.to/lastmile_qr_scan"}, "type": "electric_scooter"}, {"bike_id": "aba6f82597ae8b96f8cacbbb77ca3ebf", "is_reserved": 0, "name": "aba6f82597ae8b96f8cacbbb77ca3ebf", "lat": 38.9038455, "fusion_lat": 0.0, "lon": -77.0087525, "is_disabled": 0, "fusion_lon": 0.0, "rental_uris": {"android": "https://dc.lft.to/lastmile_qr_scan", "ios": "https://dc.lft.to/lastmile_qr_scan"}, "type": "electric_scooter"}, {"bike_id": "ca04ece3a96972e5e103895a37ac0cb7", "is_reserved": 0, "name": "ca04ece3a96972e5e103895a37ac0cb7", "lat": 38.90386433333333, "fusion_lat": 0.0, "lon": -77.06009816666666, "is_disabled": 0, "fusion_lon": 0.0, "rental_uris": {"android": "https://dc.lft.to/lastmile_qr_scan", "ios": "https://dc.lft.to/lastmile_qr_scan"}, "type": "electric_scooter"}, {"bike_id": "b73a0ba1f9b12c91d1232bacc6c6460f", "is_reserved": 0, "name": "b73a0ba1f9b12c91d1232bacc6c6460f", "lat": 38.915611166666665, "fusion_lat": 0.0, "lon": -77.02173733333333, "is_disabled": 0, "fusion_lon": 0.0, "rental_uris": {"android": "https://dc.lft.to/lastmile_qr_scan", "ios": "https://dc.lft.to/lastmile_qr_scan"}, "type": "electric_scooter"}, {"bike_id": "bb7d813b54edb5defb06d6d91402b0aa", "is_reserved": 0, "name": "bb7d813b54edb5defb06d6d91402b0aa", "lat": 38.9329445, "fusion_lat": 0.0, "lon": -77.02852883333334, "is_disabled": 0, "fusion_lon": 0.0, "rental_uris": {"android": "https://dc.lft.to/lastmile_qr_scan", "ios": "https://dc.lft.to/lastmile_qr_scan"}, "type": "electric_scooter"}, {"bike_id": "c2ecee8a0bb30424f364c01cff355270", "is_reserved": 0, "name": "c2ecee8a0bb30424f364c01cff355270", "lat": 38.917062666666666, "fusion_lat": 0.0, "lon": -77.03037516666667, "is_disabled": 0, "fusion_lon": 0.0, "rental_uris": {"android": "https://dc.lft.to/lastmile_qr_scan", "ios": "https://dc.lft.to/lastmile_qr_scan"}, "type": "electric_scooter"}, {"bike_id": "802b5c402a1cc4e5e2c49be006662a01", "is_reserved": 0, "name": "802b5c402a1cc4e5e2c49be006662a01", "lat": 38.917042, "fusion_lat": 0.0, "lon": -77.031225, "is_disabled": 0, "fusion_lon": 0.0, "rental_uris": {"android": "https://dc.lft.to/lastmile_qr_scan", "ios": "https://dc.lft.to/lastmile_qr_scan"}, "type": "electric_scooter"}, {"bike_id": "774c8d216ee913b466b3fcc318547c3f", "is_reserved": 0, "name": "774c8d216ee913b466b3fcc318547c3f", "lat": 38.89581033333333, "fusion_lat": 0.0, "lon": -76.9832565, "is_disabled": 0, "fusion_lon": 0.0, "rental_uris": {"android": "https://dc.lft.to/lastmile_qr_scan", "ios": "https://dc.lft.to/lastmile_qr_scan"}, "type": "electric_scooter"}, {"bike_id": "d268d68e7a92e3cfdf1b78314923ac06", "is_reserved": 0, "name": "d268d68e7a92e3cfdf1b78314923ac06", "lat": 38.896382833333334, "fusion_lat": 0.0, "lon": -77.02358616666666, "is_disabled": 0, "fusion_lon": 0.0, "rental_uris": {"android": "https://dc.lft.to/lastmile_qr_scan", "ios": "https://dc.lft.to/lastmile_qr_scan"}, "type": "electric_scooter"}, {"bike_id": "a53341274ca77a88800e5664acc0800a", "is_reserved": 0, "name": "a53341274ca77a88800e5664acc0800a", "lat": 38.9005065, "fusion_lat": 0.0, "lon": -77.000635, "is_disabled": 0, "fusion_lon": 0.0, "rental_uris": {"android": "https://dc.lft.to/lastmile_qr_scan", "ios": "https://dc.lft.to/lastmile_qr_scan"}, "type": "electric_scooter"}, {"bike_id": "6eca7af0b99bd5b0d4c88ec0558d52df", "is_reserved": 0, "name": "6eca7af0b99bd5b0d4c88ec0558d52df", "lat": 38.868303, "fusion_lat": 0.0, "lon": -77.01146816666666, "is_disabled": 0, "fusion_lon": 0.0, "rental_uris": {"android": "https://dc.lft.to/lastmile_qr_scan", "ios": "https://dc.lft.to/lastmile_qr_scan"}, "type": "electric_scooter"}, {"bike_id": "ca055c77bd2ca0ab092fc4e0a393a2cf", "is_reserved": 0, "name": "ca055c77bd2ca0ab092fc4e0a393a2cf", "lat": 38.902099, "fusion_lat": 0.0, "lon": -77.02371433333333, "is_disabled": 0, "fusion_lon": 0.0, "rental_uris": {"android": "https://dc.lft.to/lastmile_qr_scan", "ios": "https://dc.lft.to/lastmile_qr_scan"}, "type": "electric_scooter"}, {"bike_id": "172b8eff6a868a8a7929803fb97c6c17", "is_reserved": 0, "name": "172b8eff6a868a8a7929803fb97c6c17", "lat": 38.900179666666666, "fusion_lat": 0.0, "lon": -77.035086, "is_disabled": 0, "fusion_lon": 0.0, "rental_uris": {"android": "https://dc.lft.to/lastmile_qr_scan", "ios": "https://dc.lft.to/lastmile_qr_scan"}, "type": "electric_scooter"}, {"bike_id": "adb3b1f9299141e109818d2a3c74fe48", "is_reserved": 0, "name": "adb3b1f9299141e109818d2a3c74fe48", "lat": 38.91116266666667, "fusion_lat": 0.0, "lon": -77.03829483333334, "is_disabled": 0, "fusion_lon": 0.0, "rental_uris": {"android": "https://dc.lft.to/lastmile_qr_scan", "ios": "https://dc.lft.to/lastmile_qr_scan"}, "type": "electric_scooter"}, {"bike_id": "c15afef75f4532c83b45bc304e8dac5c", "is_reserved": 0, "name": "c15afef75f4532c83b45bc304e8dac5c", "lat": 38.91748033333333, "fusion_lat": 0.0, "lon": -77.02489266666667, "is_disabled": 0, "fusion_lon": 0.0, "rental_uris": {"android": "https://dc.lft.to/lastmile_qr_scan", "ios": "https://dc.lft.to/lastmile_qr_scan"}, "type": "electric_scooter"}, {"bike_id": "599d3b4ca174828dc41bb2e5a145bdfc", "is_reserved": 0, "name": "599d3b4ca174828dc41bb2e5a145bdfc", "lat": 38.90024366666667, "fusion_lat": 0.0, "lon": -77.03514116666666, "is_disabled": 0, "fusion_lon": 0.0, "rental_uris": {"android": "https://dc.lft.to/lastmile_qr_scan", "ios": "https://dc.lft.to/lastmile_qr_scan"}, "type": "electric_scooter"}, {"bike_id": "bc9388e38758a0eae2c2a281542fbfbd", "is_reserved": 0, "name": "bc9388e38758a0eae2c2a281542fbfbd", "lat": 38.925505, "fusion_lat": 0.0, "lon": -77.03486416666667, "is_disabled": 0, "fusion_lon": 0.0, "rental_uris": {"android": "https://dc.lft.to/lastmile_qr_scan", "ios": "https://dc.lft.to/lastmile_qr_scan"}, "type": "electric_scooter"}, {"bike_id": "b282030498f5efd479fe0948f2a41ec5", "is_reserved": 0, "name": "b282030498f5efd479fe0948f2a41ec5", "lat": 38.879376666666666, "fusion_lat": 0.0, "lon": -77.0063275, "is_disabled": 0, "fusion_lon": 0.0, "rental_uris": {"android": "https://dc.lft.to/lastmile_qr_scan", "ios": "https://dc.lft.to/lastmile_qr_scan"}, "type": "electric_scooter"}, {"bike_id": "aad4a8c6b8c98a779409c0e35ccf842c", "is_reserved": 0, "name": "aad4a8c6b8c98a779409c0e35ccf842c", "lat": 38.92319466666667, "fusion_lat": 0.0, "lon": -77.02900416666667, "is_disabled": 0, "fusion_lon": 0.0, "rental_uris": {"android": "https://dc.lft.to/lastmile_qr_scan", "ios": "https://dc.lft.to/lastmile_qr_scan"}, "type": "electric_scooter"}, {"bike_id": "0abb1b98c2e31bb538baacd0499ce8fd", "is_reserved": 0, "name": "0abb1b98c2e31bb538baacd0499ce8fd", "lat": 38.905347166666665, "fusion_lat": 0.0, "lon": -77.05637833333333, "is_disabled": 0, "fusion_lon": 0.0, "rental_uris": {"android": "https://dc.lft.to/lastmile_qr_scan", "ios": "https://dc.lft.to/lastmile_qr_scan"}, "type": "electric_scooter"}, {"bike_id": "b500ea2b6d8abe80f5028d6e53f0cf71", "is_reserved": 0, "name": "b500ea2b6d8abe80f5028d6e53f0cf71", "lat": 38.92981783333333, "fusion_lat": 0.0, "lon": -77.036568, "is_disabled": 0, "fusion_lon": 0.0, "rental_uris": {"android": "https://dc.lft.to/lastmile_qr_scan", "ios": "https://dc.lft.to/lastmile_qr_scan"}, "type": "electric_scooter"}, {"bike_id": "9267fa7b8df582b934f037ee5ae142df", "is_reserved": 0, "name": "9267fa7b8df582b934f037ee5ae142df", "lat": 38.919286, "fusion_lat": 0.0, "lon": -77.03132733333334, "is_disabled": 0, "fusion_lon": 0.0, "rental_uris": {"android": "https://dc.lft.to/lastmile_qr_scan", "ios": "https://dc.lft.to/lastmile_qr_scan"}, "type": "electric_scooter"}, {"bike_id": "3c2fa7f4a2dbdd690131add32c42fc7d", "is_reserved": 0, "name": "3c2fa7f4a2dbdd690131add32c42fc7d", "lat": 38.8773955, "fusion_lat": 0.0, "lon": -76.97029533333334, "is_disabled": 0, "fusion_lon": 0.0, "rental_uris": {"android": "https://dc.lft.to/lastmile_qr_scan", "ios": "https://dc.lft.to/lastmile_qr_scan"}, "type": "electric_scooter"}, {"bike_id": "0c0647f46c2bf2cc98a92a4467dfb03a", "is_reserved": 0, "name": "0c0647f46c2bf2cc98a92a4467dfb03a", "lat": 38.92694016666667, "fusion_lat": 0.0, "lon": -76.997587, "is_disabled": 0, "fusion_lon": 0.0, "rental_uris": {"android": "https://dc.lft.to/lastmile_qr_scan", "ios": "https://dc.lft.to/lastmile_qr_scan"}, "type": "electric_scooter"}, {"bike_id": "44ad0f6e18329ce9f9560cb5149651c2", "is_reserved": 0, "name": "44ad0f6e18329ce9f9560cb5149651c2", "lat": 38.926103833333336, "fusion_lat": 0.0, "lon": -77.06413216666667, "is_disabled": 0, "fusion_lon": 0.0, "rental_uris": {"android": "https://dc.lft.to/lastmile_qr_scan", "ios": "https://dc.lft.to/lastmile_qr_scan"}, "type": "electric_bike"}, {"bike_id": "bfada87d264876a0772923d2e6fd2da0", "is_reserved": 0, "name": "bfada87d264876a0772923d2e6fd2da0", "lat": 38.89231233333334, "fusion_lat": 0.0, "lon": -77.048713, "is_disabled": 0, "fusion_lon": 0.0, "rental_uris": {"android": "https://dc.lft.to/lastmile_qr_scan", "ios": "https://dc.lft.to/lastmile_qr_scan"}, "type": "electric_scooter"}, {"bike_id": "74c01f18db1391fd609b287be599231e", "is_reserved": 0, "name": "74c01f18db1391fd609b287be599231e", "lat": 38.90371183333333, "fusion_lat": 0.0, "lon": -77.03646583333334, "is_disabled": 0, "fusion_lon": 0.0, "rental_uris": {"android": "https://dc.lft.to/lastmile_qr_scan", "ios": "https://dc.lft.to/lastmile_qr_scan"}, "type": "electric_scooter"}, {"bike_id": "d6669207c174b1f34df14961600e7e99", "is_reserved": 0, "name": "d6669207c174b1f34df14961600e7e99", "lat": 38.916547666666666, "fusion_lat": 0.0, "lon": -77.02274616666666, "is_disabled": 0, "fusion_lon": 0.0, "rental_uris": {"android": "https://dc.lft.to/lastmile_qr_scan", "ios": "https://dc.lft.to/lastmile_qr_scan"}, "type": "electric_scooter"}, {"bike_id": "6c2b635bd6973c909b4b9be04409e2a2", "is_reserved": 0, "name": "6c2b635bd6973c909b4b9be04409e2a2", "lat": 38.914048333333334, "fusion_lat": 0.0, "lon": -77.022075, "is_disabled": 0, "fusion_lon": 0.0, "rental_uris": {"android": "https://dc.lft.to/lastmile_qr_scan", "ios": "https://dc.lft.to/lastmile_qr_scan"}, "type": "electric_scooter"}, {"bike_id": "7e8e0111c73f80026c523c4bae326d6a", "is_reserved": 0, "name": "7e8e0111c73f80026c523c4bae326d6a", "lat": 38.992149833333336, "fusion_lat": 0.0, "lon": -76.944283, "is_disabled": 0, "fusion_lon": 0.0, "rental_uris": {"android": "https://dc.lft.to/lastmile_qr_scan", "ios": "https://dc.lft.to/lastmile_qr_scan"}, "type": "electric_bike"}, {"bike_id": "b49dbdfd7154769cc4b59e633618c98b", "is_reserved": 0, "name": "b49dbdfd7154769cc4b59e633618c98b", "lat": 38.91193883333333, "fusion_lat": 0.0, "lon": -77.0321575, "is_disabled": 0, "fusion_lon": 0.0, "rental_uris": {"android": "https://dc.lft.to/lastmile_qr_scan", "ios": "https://dc.lft.to/lastmile_qr_scan"}, "type": "electric_scooter"}, {"bike_id": "cd66aac178637631a76769a70f3a43b8", "is_reserved": 0, "name": "cd66aac178637631a76769a70f3a43b8", "lat": 38.919914166666665, "fusion_lat": 0.0, "lon": -77.03278166666666, "is_disabled": 0, "fusion_lon": 0.0, "rental_uris": {"android": "https://dc.lft.to/lastmile_qr_scan", "ios": "https://dc.lft.to/lastmile_qr_scan"}, "type": "electric_scooter"}, {"bike_id": "ce875a74387f49c93c9292440a0195a5", "is_reserved": 0, "name": "ce875a74387f49c93c9292440a0195a5", "lat": 38.90576883333333, "fusion_lat": 0.0, "lon": -77.04608433333334, "is_disabled": 0, "fusion_lon": 0.0, "rental_uris": {"android": "https://dc.lft.to/lastmile_qr_scan", "ios": "https://dc.lft.to/lastmile_qr_scan"}, "type": "electric_scooter"}, {"bike_id": "e8ef3bff732d0325d230bbe98bb58208", "is_reserved": 0, "name": "e8ef3bff732d0325d230bbe98bb58208", "lat": 38.9077395, "fusion_lat": 0.0, "lon": -77.03205133333333, "is_disabled": 0, "fusion_lon": 0.0, "rental_uris": {"android": "https://dc.lft.to/lastmile_qr_scan", "ios": "https://dc.lft.to/lastmile_qr_scan"}, "type": "electric_scooter"}, {"bike_id": "cdda31301a7b49213624e5b4f5a758f8", "is_reserved": 0, "name": "cdda31301a7b49213624e5b4f5a758f8", "lat": 38.915475, "fusion_lat": 0.0, "lon": -77.03849633333333, "is_disabled": 0, "fusion_lon": 0.0, "rental_uris": {"android": "https://dc.lft.to/lastmile_qr_scan", "ios": "https://dc.lft.to/lastmile_qr_scan"}, "type": "electric_scooter"}, {"bike_id": "072552fb5956d065b9da599b082aa8e5", "is_reserved": 0, "name": "072552fb5956d065b9da599b082aa8e5", "lat": 38.998582, "fusion_lat": 0.0, "lon": -77.02662816666667, "is_disabled": 0, "fusion_lon": 0.0, "rental_uris": {"android": "https://dc.lft.to/lastmile_qr_scan", "ios": "https://dc.lft.to/lastmile_qr_scan"}, "type": "electric_bike"}, {"bike_id": "db37357b0d3624ff5361a641d538cdec", "is_reserved": 0, "name": "db37357b0d3624ff5361a641d538cdec", "lat": 38.961261666666665, "fusion_lat": 0.0, "lon": -77.032765, "is_disabled": 0, "fusion_lon": 0.0, "rental_uris": {"android": "https://dc.lft.to/lastmile_qr_scan", "ios": "https://dc.lft.to/lastmile_qr_scan"}, "type": "electric_bike"}, {"bike_id": "9aa562e2e705d0914b5ec18b6e38d138", "is_reserved": 0, "name": "9aa562e2e705d0914b5ec18b6e38d138", "lat": 38.88541716666667, "fusion_lat": 0.0, "lon": -76.97888266666666, "is_disabled": 0, "fusion_lon": 0.0, "rental_uris": {"android": "https://dc.lft.to/lastmile_qr_scan", "ios": "https://dc.lft.to/lastmile_qr_scan"}, "type": "electric_scooter"}, {"bike_id": "362283425afaa1e134c5cae17cdfac64", "is_reserved": 0, "name": "362283425afaa1e134c5cae17cdfac64", "lat": 38.887448666666664, "fusion_lat": 0.0, "lon": -77.01784316666667, "is_disabled": 0, "fusion_lon": 0.0, "rental_uris": {"android": "https://dc.lft.to/lastmile_qr_scan", "ios": "https://dc.lft.to/lastmile_qr_scan"}, "type": "electric_scooter"}, {"bike_id": "301a63bad4f63d7fe3d0885d36684188", "is_reserved": 0, "name": "301a63bad4f63d7fe3d0885d36684188", "lat": 38.9097, "fusion_lat": 0.0, "lon": -77.02684133333334, "is_disabled": 0, "fusion_lon": 0.0, "rental_uris": {"android": "https://dc.lft.to/lastmile_qr_scan", "ios": "https://dc.lft.to/lastmile_qr_scan"}, "type": "electric_scooter"}, {"bike_id": "c32ddc86297324db55a28b5b1712d324", "is_reserved": 0, "name": "c32ddc86297324db55a28b5b1712d324", "lat": 38.9444185, "fusion_lat": 0.0, "lon": -77.0291465, "is_disabled": 0, "fusion_lon": 0.0, "rental_uris": {"android": "https://dc.lft.to/lastmile_qr_scan", "ios": "https://dc.lft.to/lastmile_qr_scan"}, "type": "electric_scooter"}, {"bike_id": "ef4fe2d604a66a5f7e884e8b63bf5511", "is_reserved": 0, "name": "ef4fe2d604a66a5f7e884e8b63bf5511", "lat": 38.887383666666665, "fusion_lat": 0.0, "lon": -77.00323016666667, "is_disabled": 0, "fusion_lon": 0.0, "rental_uris": {"android": "https://dc.lft.to/lastmile_qr_scan", "ios": "https://dc.lft.to/lastmile_qr_scan"}, "type": "electric_scooter"}, {"bike_id": "2fd3998ca7ace74cee3263f32bd6558c", "is_reserved": 0, "name": "2fd3998ca7ace74cee3263f32bd6558c", "lat": 38.86041983333333, "fusion_lat": 0.0, "lon": -77.0034345, "is_disabled": 0, "fusion_lon": 0.0, "rental_uris": {"android": "https://dc.lft.to/lastmile_qr_scan", "ios": "https://dc.lft.to/lastmile_qr_scan"}, "type": "electric_scooter"}, {"bike_id": "a495f5fdbd575b01946a5fc38a632e6b", "is_reserved": 0, "name": "a495f5fdbd575b01946a5fc38a632e6b", "lat": 38.902745, "fusion_lat": 0.0, "lon": -77.00604066666666, "is_disabled": 0, "fusion_lon": 0.0, "rental_uris": {"android": "https://dc.lft.to/lastmile_qr_scan", "ios": "https://dc.lft.to/lastmile_qr_scan"}, "type": "electric_scooter"}, {"bike_id": "f9e975aed7a592ddae9466cf0c66ef04", "is_reserved": 0, "name": "f9e975aed7a592ddae9466cf0c66ef04", "lat": 38.91562316666667, "fusion_lat": 0.0, "lon": -77.010494, "is_disabled": 0, "fusion_lon": 0.0, "rental_uris": {"android": "https://dc.lft.to/lastmile_qr_scan", "ios": "https://dc.lft.to/lastmile_qr_scan"}, "type": "electric_scooter"}, {"bike_id": "36d6daf7a1bde8239caafd92d7d82a14", "is_reserved": 0, "name": "36d6daf7a1bde8239caafd92d7d82a14", "lat": 38.922677166666666, "fusion_lat": 0.0, "lon": -77.02954466666667, "is_disabled": 0, "fusion_lon": 0.0, "rental_uris": {"android": "https://dc.lft.to/lastmile_qr_scan", "ios": "https://dc.lft.to/lastmile_qr_scan"}, "type": "electric_scooter"}, {"bike_id": "1d5041b9d3d8fea959a4a83d2392febf", "is_reserved": 0, "name": "1d5041b9d3d8fea959a4a83d2392febf", "lat": 38.90011616666666, "fusion_lat": 0.0, "lon": -77.01198783333334, "is_disabled": 0, "fusion_lon": 0.0, "rental_uris": {"android": "https://dc.lft.to/lastmile_qr_scan", "ios": "https://dc.lft.to/lastmile_qr_scan"}, "type": "electric_scooter"}, {"bike_id": "219c116e509b6096948f1a9cc17bcead", "is_reserved": 0, "name": "219c116e509b6096948f1a9cc17bcead", "lat": 38.91818333333333, "fusion_lat": 0.0, "lon": -77.04003466666667, "is_disabled": 0, "fusion_lon": 0.0, "rental_uris": {"android": "https://dc.lft.to/lastmile_qr_scan", "ios": "https://dc.lft.to/lastmile_qr_scan"}, "type": "electric_scooter"}, {"bike_id": "e9fa3633a531e172e9e20c7f2090ce2d", "is_reserved": 0, "name": "e9fa3633a531e172e9e20c7f2090ce2d", "lat": 38.89212283333333, "fusion_lat": 0.0, "lon": -76.995722, "is_disabled": 0, "fusion_lon": 0.0, "rental_uris": {"android": "https://dc.lft.to/lastmile_qr_scan", "ios": "https://dc.lft.to/lastmile_qr_scan"}, "type": "electric_scooter"}, {"bike_id": "509f5b8cb54f2521c0b6a0895cc2f46a", "is_reserved": 0, "name": "509f5b8cb54f2521c0b6a0895cc2f46a", "lat": 38.93778866666667, "fusion_lat": 0.0, "lon": -77.03261283333333, "is_disabled": 0, "fusion_lon": 0.0, "rental_uris": {"android": "https://dc.lft.to/lastmile_qr_scan", "ios": "https://dc.lft.to/lastmile_qr_scan"}, "type": "electric_scooter"}, {"bike_id": "2079d180772a84ff92bbae77f85aecef", "is_reserved": 0, "name": "2079d180772a84ff92bbae77f85aecef", "lat": 38.912639166666665, "fusion_lat": 0.0, "lon": -77.028229, "is_disabled": 0, "fusion_lon": 0.0, "rental_uris": {"android": "https://dc.lft.to/lastmile_qr_scan", "ios": "https://dc.lft.to/lastmile_qr_scan"}, "type": "electric_scooter"}, {"bike_id": "30b137b179edee4eaefcb77a146afe6c", "is_reserved": 0, "name": "30b137b179edee4eaefcb77a146afe6c", "lat": 38.9119155, "fusion_lat": 0.0, "lon": -77.03754133333334, "is_disabled": 0, "fusion_lon": 0.0, "rental_uris": {"android": "https://dc.lft.to/lastmile_qr_scan", "ios": "https://dc.lft.to/lastmile_qr_scan"}, "type": "electric_scooter"}, {"bike_id": "44ad235f3ca8d333817594d280c82ed8", "is_reserved": 0, "name": "44ad235f3ca8d333817594d280c82ed8", "lat": 38.896343, "fusion_lat": 0.0, "lon": -77.0236055, "is_disabled": 0, "fusion_lon": 0.0, "rental_uris": {"android": "https://dc.lft.to/lastmile_qr_scan", "ios": "https://dc.lft.to/lastmile_qr_scan"}, "type": "electric_scooter"}, {"bike_id": "d99c465dfc4d641c90a78b0620e56078", "is_reserved": 0, "name": "d99c465dfc4d641c90a78b0620e56078", "lat": 38.95605033333333, "fusion_lat": 0.0, "lon": -77.03353833333334, "is_disabled": 0, "fusion_lon": 0.0, "rental_uris": {"android": "https://dc.lft.to/lastmile_qr_scan", "ios": "https://dc.lft.to/lastmile_qr_scan"}, "type": "electric_scooter"}, {"bike_id": "31426c6b87699cb04a7b031e266756d3", "is_reserved": 0, "name": "31426c6b87699cb04a7b031e266756d3", "lat": 38.902809833333336, "fusion_lat": 0.0, "lon": -77.03338366666667, "is_disabled": 0, "fusion_lon": 0.0, "rental_uris": {"android": "https://dc.lft.to/lastmile_qr_scan", "ios": "https://dc.lft.to/lastmile_qr_scan"}, "type": "electric_scooter"}, {"bike_id": "31013d04ae56c2ce9062e497617c2bb1", "is_reserved": 0, "name": "31013d04ae56c2ce9062e497617c2bb1", "lat": 38.90402366666667, "fusion_lat": 0.0, "lon": -77.001925, "is_disabled": 0, "fusion_lon": 0.0, "rental_uris": {"android": "https://dc.lft.to/lastmile_qr_scan", "ios": "https://dc.lft.to/lastmile_qr_scan"}, "type": "electric_scooter"}, {"bike_id": "167ea8ad01ff4416ea8b9b9e654731f8", "is_reserved": 0, "name": "167ea8ad01ff4416ea8b9b9e654731f8", "lat": 38.917945833333334, "fusion_lat": 0.0, "lon": -77.04169683333333, "is_disabled": 0, "fusion_lon": 0.0, "rental_uris": {"android": "https://dc.lft.to/lastmile_qr_scan", "ios": "https://dc.lft.to/lastmile_qr_scan"}, "type": "electric_scooter"}, {"bike_id": "3540bfb2c94c25b56720606dc849d846", "is_reserved": 0, "name": "3540bfb2c94c25b56720606dc849d846", "lat": 38.890052833333336, "fusion_lat": 0.0, "lon": -76.93741016666667, "is_disabled": 0, "fusion_lon": 0.0, "rental_uris": {"android": "https://dc.lft.to/lastmile_qr_scan", "ios": "https://dc.lft.to/lastmile_qr_scan"}, "type": "electric_scooter"}, {"bike_id": "6f788938493490cb627954d1555f1cce", "is_reserved": 0, "name": "6f788938493490cb627954d1555f1cce", "lat": 38.902019833333334, "fusion_lat": 0.0, "lon": -77.02371283333333, "is_disabled": 0, "fusion_lon": 0.0, "rental_uris": {"android": "https://dc.lft.to/lastmile_qr_scan", "ios": "https://dc.lft.to/lastmile_qr_scan"}, "type": "electric_scooter"}, {"bike_id": "a24adaf79927d8d51fe9c916205364df", "is_reserved": 0, "name": "a24adaf79927d8d51fe9c916205364df", "lat": 38.8813405, "fusion_lat": 0.0, "lon": -76.99618766666667, "is_disabled": 0, "fusion_lon": 0.0, "rental_uris": {"android": "https://dc.lft.to/lastmile_qr_scan", "ios": "https://dc.lft.to/lastmile_qr_scan"}, "type": "electric_scooter"}, {"bike_id": "1dab1048cca1f48d852b71541d76eb9c", "is_reserved": 0, "name": "1dab1048cca1f48d852b71541d76eb9c", "lat": 38.905112333333335, "fusion_lat": 0.0, "lon": -77.06543966666666, "is_disabled": 0, "fusion_lon": 0.0, "rental_uris": {"android": "https://dc.lft.to/lastmile_qr_scan", "ios": "https://dc.lft.to/lastmile_qr_scan"}, "type": "electric_scooter"}, {"bike_id": "68c5e42d4853c4623bf08ab14a05d1ed", "is_reserved": 0, "name": "68c5e42d4853c4623bf08ab14a05d1ed", "lat": 38.9377335, "fusion_lat": 0.0, "lon": -77.01913033333334, "is_disabled": 0, "fusion_lon": 0.0, "rental_uris": {"android": "https://dc.lft.to/lastmile_qr_scan", "ios": "https://dc.lft.to/lastmile_qr_scan"}, "type": "electric_bike"}, {"bike_id": "238efd4a0f27e4a06a637af1fc048afb", "is_reserved": 0, "name": "238efd4a0f27e4a06a637af1fc048afb", "lat": 38.920009666666665, "fusion_lat": 0.0, "lon": -77.04760616666667, "is_disabled": 0, "fusion_lon": 0.0, "rental_uris": {"android": "https://dc.lft.to/lastmile_qr_scan", "ios": "https://dc.lft.to/lastmile_qr_scan"}, "type": "electric_scooter"}, {"bike_id": "8f2d59347181773b343d38c10632f561", "is_reserved": 0, "name": "8f2d59347181773b343d38c10632f561", "lat": 38.923046166666666, "fusion_lat": 0.0, "lon": -77.029594, "is_disabled": 0, "fusion_lon": 0.0, "rental_uris": {"android": "https://dc.lft.to/lastmile_qr_scan", "ios": "https://dc.lft.to/lastmile_qr_scan"}, "type": "electric_scooter"}, {"bike_id": "bec0356cc02114d6e0166c6a7582cd16", "is_reserved": 0, "name": "bec0356cc02114d6e0166c6a7582cd16", "lat": 38.907732833333334, "fusion_lat": 0.0, "lon": -76.9971295, "is_disabled": 0, "fusion_lon": 0.0, "rental_uris": {"android": "https://dc.lft.to/lastmile_qr_scan", "ios": "https://dc.lft.to/lastmile_qr_scan"}, "type": "electric_scooter"}, {"bike_id": "77c59e0d0233b05278a2a5c1e2999b56", "is_reserved": 0, "name": "77c59e0d0233b05278a2a5c1e2999b56", "lat": 38.91411466666667, "fusion_lat": 0.0, "lon": -77.03164783333334, "is_disabled": 0, "fusion_lon": 0.0, "rental_uris": {"android": "https://dc.lft.to/lastmile_qr_scan", "ios": "https://dc.lft.to/lastmile_qr_scan"}, "type": "electric_scooter"}, {"bike_id": "def52afed0a64f22b752fdf2ec439c4f", "is_reserved": 0, "name": "def52afed0a64f22b752fdf2ec439c4f", "lat": 38.94111066666667, "fusion_lat": 0.0, "lon": -77.000508, "is_disabled": 0, "fusion_lon": 0.0, "rental_uris": {"android": "https://dc.lft.to/lastmile_qr_scan", "ios": "https://dc.lft.to/lastmile_qr_scan"}, "type": "electric_scooter"}, {"bike_id": "f7b53295c38960a91d8636525487604f", "is_reserved": 0, "name": "f7b53295c38960a91d8636525487604f", "lat": 38.9008235, "fusion_lat": 0.0, "lon": -77.0476525, "is_disabled": 0, "fusion_lon": 0.0, "rental_uris": {"android": "https://dc.lft.to/lastmile_qr_scan", "ios": "https://dc.lft.to/lastmile_qr_scan"}, "type": "electric_scooter"}, {"bike_id": "7d806a401691a41226c6a266238a07b4", "is_reserved": 0, "name": "7d806a401691a41226c6a266238a07b4", "lat": 38.9225715, "fusion_lat": 0.0, "lon": -77.042858, "is_disabled": 0, "fusion_lon": 0.0, "rental_uris": {"android": "https://dc.lft.to/lastmile_qr_scan", "ios": "https://dc.lft.to/lastmile_qr_scan"}, "type": "electric_scooter"}, {"bike_id": "b0720a6629fb6fbe97ba7aea237495f2", "is_reserved": 0, "name": "b0720a6629fb6fbe97ba7aea237495f2", "lat": 38.86253966666666, "fusion_lat": 0.0, "lon": -76.99491, "is_disabled": 0, "fusion_lon": 0.0, "rental_uris": {"android": "https://dc.lft.to/lastmile_qr_scan", "ios": "https://dc.lft.to/lastmile_qr_scan"}, "type": "electric_scooter"}, {"bike_id": "7be69b3d86d9746ee6031e69e35cef2f", "is_reserved": 0, "name": "7be69b3d86d9746ee6031e69e35cef2f", "lat": 38.944961166666666, "fusion_lat": 0.0, "lon": -77.0068015, "is_disabled": 0, "fusion_lon": 0.0, "rental_uris": {"android": "https://dc.lft.to/lastmile_qr_scan", "ios": "https://dc.lft.to/lastmile_qr_scan"}, "type": "electric_bike"}, {"bike_id": "4e610d2e8237b79fd592c34bc2f46b70", "is_reserved": 0, "name": "4e610d2e8237b79fd592c34bc2f46b70", "lat": 38.937572, "fusion_lat": 0.0, "lon": -76.958233, "is_disabled": 0, "fusion_lon": 0.0, "rental_uris": {"android": "https://dc.lft.to/lastmile_qr_scan", "ios": "https://dc.lft.to/lastmile_qr_scan"}, "type": "electric_bike"}, {"bike_id": "45789a5fb91c9e8a84f86c8967d5404e", "is_reserved": 0, "name": "45789a5fb91c9e8a84f86c8967d5404e", "lat": 38.93224816666667, "fusion_lat": 0.0, "lon": -76.99491966666666, "is_disabled": 0, "fusion_lon": 0.0, "rental_uris": {"android": "https://dc.lft.to/lastmile_qr_scan", "ios": "https://dc.lft.to/lastmile_qr_scan"}, "type": "electric_scooter"}, {"bike_id": "9214d953d4904cf87bfbbb8c33da1bd8", "is_reserved": 0, "name": "9214d953d4904cf87bfbbb8c33da1bd8", "lat": 38.90577416666667, "fusion_lat": 0.0, "lon": -77.00541833333334, "is_disabled": 0, "fusion_lon": 0.0, "rental_uris": {"android": "https://dc.lft.to/lastmile_qr_scan", "ios": "https://dc.lft.to/lastmile_qr_scan"}, "type": "electric_scooter"}, {"bike_id": "2dec5f472a5f34d1998efe1e81f89d36", "is_reserved": 0, "name": "2dec5f472a5f34d1998efe1e81f89d36", "lat": 38.93446516666667, "fusion_lat": 0.0, "lon": -77.05769283333333, "is_disabled": 0, "fusion_lon": 0.0, "rental_uris": {"android": "https://dc.lft.to/lastmile_qr_scan", "ios": "https://dc.lft.to/lastmile_qr_scan"}, "type": "electric_scooter"}, {"bike_id": "93c0f34bdfda5a4b4624bc5876f701be", "is_reserved": 0, "name": "93c0f34bdfda5a4b4624bc5876f701be", "lat": 38.924525833333334, "fusion_lat": 0.0, "lon": -76.97103816666667, "is_disabled": 0, "fusion_lon": 0.0, "rental_uris": {"android": "https://dc.lft.to/lastmile_qr_scan", "ios": "https://dc.lft.to/lastmile_qr_scan"}, "type": "electric_scooter"}, {"bike_id": "624988d45dbdfdd08bcef7857925f367", "is_reserved": 0, "name": "624988d45dbdfdd08bcef7857925f367", "lat": 38.9026785, "fusion_lat": 0.0, "lon": -77.03476083333334, "is_disabled": 0, "fusion_lon": 0.0, "rental_uris": {"android": "https://dc.lft.to/lastmile_qr_scan", "ios": "https://dc.lft.to/lastmile_qr_scan"}, "type": "electric_scooter"}, {"bike_id": "15e6020702076d896ed994c77b0d49b5", "is_reserved": 0, "name": "15e6020702076d896ed994c77b0d49b5", "lat": 38.91114783333333, "fusion_lat": 0.0, "lon": -77.03287, "is_disabled": 0, "fusion_lon": 0.0, "rental_uris": {"android": "https://dc.lft.to/lastmile_qr_scan", "ios": "https://dc.lft.to/lastmile_qr_scan"}, "type": "electric_scooter"}, {"bike_id": "4d3b17868967ee3fb1a593c9102194f8", "is_reserved": 0, "name": "4d3b17868967ee3fb1a593c9102194f8", "lat": 38.90866166666667, "fusion_lat": 0.0, "lon": -77.04526616666666, "is_disabled": 0, "fusion_lon": 0.0, "rental_uris": {"android": "https://dc.lft.to/lastmile_qr_scan", "ios": "https://dc.lft.to/lastmile_qr_scan"}, "type": "electric_scooter"}, {"bike_id": "dafc37778b9ed91a237b15648e4c92a3", "is_reserved": 0, "name": "dafc37778b9ed91a237b15648e4c92a3", "lat": 38.921645833333336, "fusion_lat": 0.0, "lon": -77.043535, "is_disabled": 0, "fusion_lon": 0.0, "rental_uris": {"android": "https://dc.lft.to/lastmile_qr_scan", "ios": "https://dc.lft.to/lastmile_qr_scan"}, "type": "electric_scooter"}, {"bike_id": "3ac4481c3b2f4c4435ae6bcb11d6d257", "is_reserved": 0, "name": "3ac4481c3b2f4c4435ae6bcb11d6d257", "lat": 38.902271, "fusion_lat": 0.0, "lon": -77.02180933333334, "is_disabled": 0, "fusion_lon": 0.0, "rental_uris": {"android": "https://dc.lft.to/lastmile_qr_scan", "ios": "https://dc.lft.to/lastmile_qr_scan"}, "type": "electric_scooter"}, {"bike_id": "ca01e4b37b32ed22d7fe5e988d9a799b", "is_reserved": 0, "name": "ca01e4b37b32ed22d7fe5e988d9a799b", "lat": 38.898347666666666, "fusion_lat": 0.0, "lon": -76.94633016666667, "is_disabled": 0, "fusion_lon": 0.0, "rental_uris": {"android": "https://dc.lft.to/lastmile_qr_scan", "ios": "https://dc.lft.to/lastmile_qr_scan"}, "type": "electric_scooter"}, {"bike_id": "3c1ff12e10fd5a3944e7beb367bb4255", "is_reserved": 0, "name": "3c1ff12e10fd5a3944e7beb367bb4255", "lat": 38.8988885, "fusion_lat": 0.0, "lon": -76.931752, "is_disabled": 0, "fusion_lon": 0.0, "rental_uris": {"android": "https://dc.lft.to/lastmile_qr_scan", "ios": "https://dc.lft.to/lastmile_qr_scan"}, "type": "electric_scooter"}, {"bike_id": "43201e958c26712d1a36ce76ed130e7c", "is_reserved": 0, "name": "43201e958c26712d1a36ce76ed130e7c", "lat": 38.912109666666666, "fusion_lat": 0.0, "lon": -77.0320425, "is_disabled": 0, "fusion_lon": 0.0, "rental_uris": {"android": "https://dc.lft.to/lastmile_qr_scan", "ios": "https://dc.lft.to/lastmile_qr_scan"}, "type": "electric_scooter"}, {"bike_id": "b239d25d0aadadedaede8bd726a01ccc", "is_reserved": 0, "name": "b239d25d0aadadedaede8bd726a01ccc", "lat": 38.899254, "fusion_lat": 0.0, "lon": -76.98527266666666, "is_disabled": 0, "fusion_lon": 0.0, "rental_uris": {"android": "https://dc.lft.to/lastmile_qr_scan", "ios": "https://dc.lft.to/lastmile_qr_scan"}, "type": "electric_scooter"}, {"bike_id": "2d50a36ad6d58b2e60feed367a255d58", "is_reserved": 0, "name": "2d50a36ad6d58b2e60feed367a255d58", "lat": 38.917681, "fusion_lat": 0.0, "lon": -77.04043066666667, "is_disabled": 0, "fusion_lon": 0.0, "rental_uris": {"android": "https://dc.lft.to/lastmile_qr_scan", "ios": "https://dc.lft.to/lastmile_qr_scan"}, "type": "electric_scooter"}, {"bike_id": "0b1b2abb38af0e95167c329fb8e01ea7", "is_reserved": 0, "name": "0b1b2abb38af0e95167c329fb8e01ea7", "lat": 38.9186435, "fusion_lat": 0.0, "lon": -77.03652816666667, "is_disabled": 0, "fusion_lon": 0.0, "rental_uris": {"android": "https://dc.lft.to/lastmile_qr_scan", "ios": "https://dc.lft.to/lastmile_qr_scan"}, "type": "electric_scooter"}, {"bike_id": "6568984cf496f800439b4be1b5163d64", "is_reserved": 0, "name": "6568984cf496f800439b4be1b5163d64", "lat": 38.905531333333336, "fusion_lat": 0.0, "lon": -77.02201433333333, "is_disabled": 0, "fusion_lon": 0.0, "rental_uris": {"android": "https://dc.lft.to/lastmile_qr_scan", "ios": "https://dc.lft.to/lastmile_qr_scan"}, "type": "electric_scooter"}, {"bike_id": "c2fdbd28cf9a6a84e457ccfdb7ba4e7b", "is_reserved": 0, "name": "c2fdbd28cf9a6a84e457ccfdb7ba4e7b", "lat": 38.964499833333335, "fusion_lat": 0.0, "lon": -77.0223605, "is_disabled": 0, "fusion_lon": 0.0, "rental_uris": {"android": "https://dc.lft.to/lastmile_qr_scan", "ios": "https://dc.lft.to/lastmile_qr_scan"}, "type": "electric_bike"}, {"bike_id": "e598559908fa0a9b3c2eabeaaa345e3d", "is_reserved": 0, "name": "e598559908fa0a9b3c2eabeaaa345e3d", "lat": 38.898923, "fusion_lat": 0.0, "lon": -77.03963183333333, "is_disabled": 0, "fusion_lon": 0.0, "rental_uris": {"android": "https://dc.lft.to/lastmile_qr_scan", "ios": "https://dc.lft.to/lastmile_qr_scan"}, "type": "electric_scooter"}, {"bike_id": "b57ccd1bf12f60975181f96a9834d72d", "is_reserved": 0, "name": "b57ccd1bf12f60975181f96a9834d72d", "lat": 38.89916766666666, "fusion_lat": 0.0, "lon": -77.00359416666667, "is_disabled": 0, "fusion_lon": 0.0, "rental_uris": {"android": "https://dc.lft.to/lastmile_qr_scan", "ios": "https://dc.lft.to/lastmile_qr_scan"}, "type": "electric_scooter"}, {"bike_id": "0874f76e45e46adc0d79641d96a92cc9", "is_reserved": 0, "name": "0874f76e45e46adc0d79641d96a92cc9", "lat": 38.923283, "fusion_lat": 0.0, "lon": -77.046165, "is_disabled": 0, "fusion_lon": 0.0, "rental_uris": {"android": "https://dc.lft.to/lastmile_qr_scan", "ios": "https://dc.lft.to/lastmile_qr_scan"}, "type": "electric_scooter"}, {"bike_id": "119575071fbd9ea635354e9b4944dc30", "is_reserved": 0, "name": "119575071fbd9ea635354e9b4944dc30", "lat": 38.92417866666667, "fusion_lat": 0.0, "lon": -77.06521766666667, "is_disabled": 0, "fusion_lon": 0.0, "rental_uris": {"android": "https://dc.lft.to/lastmile_qr_scan", "ios": "https://dc.lft.to/lastmile_qr_scan"}, "type": "electric_scooter"}, {"bike_id": "5b224196d9b1fab0d219a07bc9ba715e", "is_reserved": 0, "name": "5b224196d9b1fab0d219a07bc9ba715e", "lat": 38.914122666666664, "fusion_lat": 0.0, "lon": -77.018727, "is_disabled": 0, "fusion_lon": 0.0, "rental_uris": {"android": "https://dc.lft.to/lastmile_qr_scan", "ios": "https://dc.lft.to/lastmile_qr_scan"}, "type": "electric_scooter"}, {"bike_id": "3512f229ae56f8628fa3c37f5866e33f", "is_reserved": 0, "name": "3512f229ae56f8628fa3c37f5866e33f", "lat": 38.90296083333333, "fusion_lat": 0.0, "lon": -77.04887516666666, "is_disabled": 0, "fusion_lon": 0.0, "rental_uris": {"android": "https://dc.lft.to/lastmile_qr_scan", "ios": "https://dc.lft.to/lastmile_qr_scan"}, "type": "electric_scooter"}, {"bike_id": "699ce3a4d60523dd6eb80d6ae91b55a5", "is_reserved": 0, "name": "699ce3a4d60523dd6eb80d6ae91b55a5", "lat": 38.86371316666666, "fusion_lat": 0.0, "lon": -77.0136495, "is_disabled": 0, "fusion_lon": 0.0, "rental_uris": {"android": "https://dc.lft.to/lastmile_qr_scan", "ios": "https://dc.lft.to/lastmile_qr_scan"}, "type": "electric_scooter"}, {"bike_id": "1d64d1c8d739af9e2263590aa9d471eb", "is_reserved": 0, "name": "1d64d1c8d739af9e2263590aa9d471eb", "lat": 38.90021816666667, "fusion_lat": 0.0, "lon": -76.99867466666667, "is_disabled": 0, "fusion_lon": 0.0, "rental_uris": {"android": "https://dc.lft.to/lastmile_qr_scan", "ios": "https://dc.lft.to/lastmile_qr_scan"}, "type": "electric_scooter"}, {"bike_id": "2f8f7ba9d35bfbe204843488c9480c6c", "is_reserved": 0, "name": "2f8f7ba9d35bfbe204843488c9480c6c", "lat": 38.873731, "fusion_lat": 0.0, "lon": -77.00127816666667, "is_disabled": 0, "fusion_lon": 0.0, "rental_uris": {"android": "https://dc.lft.to/lastmile_qr_scan", "ios": "https://dc.lft.to/lastmile_qr_scan"}, "type": "electric_scooter"}, {"bike_id": "def36da48a146ee79640519aca3a76ab", "is_reserved": 0, "name": "def36da48a146ee79640519aca3a76ab", "lat": 38.892865, "fusion_lat": 0.0, "lon": -76.92999033333334, "is_disabled": 0, "fusion_lon": 0.0, "rental_uris": {"android": "https://dc.lft.to/lastmile_qr_scan", "ios": "https://dc.lft.to/lastmile_qr_scan"}, "type": "electric_scooter"}, {"bike_id": "419ade6f174b87c1e03f07e2339a7b44", "is_reserved": 0, "name": "419ade6f174b87c1e03f07e2339a7b44", "lat": 38.900403, "fusion_lat": 0.0, "lon": -76.99150083333333, "is_disabled": 0, "fusion_lon": 0.0, "rental_uris": {"android": "https://dc.lft.to/lastmile_qr_scan", "ios": "https://dc.lft.to/lastmile_qr_scan"}, "type": "electric_scooter"}, {"bike_id": "cb9dfb1a59f1ebba2035bede82c1a1aa", "is_reserved": 0, "name": "cb9dfb1a59f1ebba2035bede82c1a1aa", "lat": 38.87937433333333, "fusion_lat": 0.0, "lon": -77.00823233333334, "is_disabled": 0, "fusion_lon": 0.0, "rental_uris": {"android": "https://dc.lft.to/lastmile_qr_scan", "ios": "https://dc.lft.to/lastmile_qr_scan"}, "type": "electric_scooter"}, {"bike_id": "1650be3c050fe901dc2476117556953c", "is_reserved": 0, "name": "1650be3c050fe901dc2476117556953c", "lat": 38.92667566666667, "fusion_lat": 0.0, "lon": -77.01473583333333, "is_disabled": 0, "fusion_lon": 0.0, "rental_uris": {"android": "https://dc.lft.to/lastmile_qr_scan", "ios": "https://dc.lft.to/lastmile_qr_scan"}, "type": "electric_scooter"}, {"bike_id": "33a1b1fbe32139612eb2c77eeb682fc5", "is_reserved": 0, "name": "33a1b1fbe32139612eb2c77eeb682fc5", "lat": 38.8126525, "fusion_lat": 0.0, "lon": -77.1176795, "is_disabled": 0, "fusion_lon": 0.0, "rental_uris": {"android": "https://dc.lft.to/lastmile_qr_scan", "ios": "https://dc.lft.to/lastmile_qr_scan"}, "type": "electric_bike"}, {"bike_id": "c7cdd71d385507947ac7fe37ca8dca0f", "is_reserved": 0, "name": "c7cdd71d385507947ac7fe37ca8dca0f", "lat": 38.8076085, "fusion_lat": 0.0, "lon": -77.09468016666666, "is_disabled": 0, "fusion_lon": 0.0, "rental_uris": {"android": "https://dc.lft.to/lastmile_qr_scan", "ios": "https://dc.lft.to/lastmile_qr_scan"}, "type": "electric_bike"}, {"bike_id": "2656c431889f6a0116c23a7bd60c87bc", "is_reserved": 0, "name": "2656c431889f6a0116c23a7bd60c87bc", "lat": 38.907431, "fusion_lat": 0.0, "lon": -76.93548716666666, "is_disabled": 0, "fusion_lon": 0.0, "rental_uris": {"android": "https://dc.lft.to/lastmile_qr_scan", "ios": "https://dc.lft.to/lastmile_qr_scan"}, "type": "electric_scooter"}, {"bike_id": "35fc8bac4bd30c17927df9f23d571068", "is_reserved": 0, "name": "35fc8bac4bd30c17927df9f23d571068", "lat": 38.862209666666665, "fusion_lat": 0.0, "lon": -76.99486316666666, "is_disabled": 0, "fusion_lon": 0.0, "rental_uris": {"android": "https://dc.lft.to/lastmile_qr_scan", "ios": "https://dc.lft.to/lastmile_qr_scan"}, "type": "electric_bike"}, {"bike_id": "4920a7c97518b2c44dbd3ce816760b6f", "is_reserved": 0, "name": "4920a7c97518b2c44dbd3ce816760b6f", "lat": 38.90528, "fusion_lat": 0.0, "lon": -77.05233083333333, "is_disabled": 0, "fusion_lon": 0.0, "rental_uris": {"android": "https://dc.lft.to/lastmile_qr_scan", "ios": "https://dc.lft.to/lastmile_qr_scan"}, "type": "electric_scooter"}, {"bike_id": "9c43dfb2edb5ba4b58bd8f9cfedd0999", "is_reserved": 0, "name": "9c43dfb2edb5ba4b58bd8f9cfedd0999", "lat": 38.89223366666667, "fusion_lat": 0.0, "lon": -77.03338216666667, "is_disabled": 0, "fusion_lon": 0.0, "rental_uris": {"android": "https://dc.lft.to/lastmile_qr_scan", "ios": "https://dc.lft.to/lastmile_qr_scan"}, "type": "electric_scooter"}, {"bike_id": "d478db4cf06984f5e6e716b295ffbaf6", "is_reserved": 0, "name": "d478db4cf06984f5e6e716b295ffbaf6", "lat": 38.922346166666664, "fusion_lat": 0.0, "lon": -77.042467, "is_disabled": 0, "fusion_lon": 0.0, "rental_uris": {"android": "https://dc.lft.to/lastmile_qr_scan", "ios": "https://dc.lft.to/lastmile_qr_scan"}, "type": "electric_scooter"}, {"bike_id": "b82f66f6ed316c5e147e41d3e9229ad5", "is_reserved": 0, "name": "b82f66f6ed316c5e147e41d3e9229ad5", "lat": 38.921290166666665, "fusion_lat": 0.0, "lon": -77.04209783333333, "is_disabled": 0, "fusion_lon": 0.0, "rental_uris": {"android": "https://dc.lft.to/lastmile_qr_scan", "ios": "https://dc.lft.to/lastmile_qr_scan"}, "type": "electric_scooter"}, {"bike_id": "d773e5f8537d5858dfe8782555f345c7", "is_reserved": 0, "name": "d773e5f8537d5858dfe8782555f345c7", "lat": 38.90890866666667, "fusion_lat": 0.0, "lon": -77.043964, "is_disabled": 0, "fusion_lon": 0.0, "rental_uris": {"android": "https://dc.lft.to/lastmile_qr_scan", "ios": "https://dc.lft.to/lastmile_qr_scan"}, "type": "electric_scooter"}, {"bike_id": "ade07b027f3f96cb5d4b2ee02bb31a70", "is_reserved": 0, "name": "ade07b027f3f96cb5d4b2ee02bb31a70", "lat": 38.902151833333335, "fusion_lat": 0.0, "lon": -76.986116, "is_disabled": 0, "fusion_lon": 0.0, "rental_uris": {"android": "https://dc.lft.to/lastmile_qr_scan", "ios": "https://dc.lft.to/lastmile_qr_scan"}, "type": "electric_scooter"}, {"bike_id": "6a00989cce4df8f4791dca836fb5035c", "is_reserved": 0, "name": "6a00989cce4df8f4791dca836fb5035c", "lat": 38.88731833333333, "fusion_lat": 0.0, "lon": -77.02381333333334, "is_disabled": 0, "fusion_lon": 0.0, "rental_uris": {"android": "https://dc.lft.to/lastmile_qr_scan", "ios": "https://dc.lft.to/lastmile_qr_scan"}, "type": "electric_scooter"}, {"bike_id": "70ec0ad68b767b15116e6167830add0c", "is_reserved": 0, "name": "70ec0ad68b767b15116e6167830add0c", "lat": 38.8952155, "fusion_lat": 0.0, "lon": -76.99151766666667, "is_disabled": 0, "fusion_lon": 0.0, "rental_uris": {"android": "https://dc.lft.to/lastmile_qr_scan", "ios": "https://dc.lft.to/lastmile_qr_scan"}, "type": "electric_scooter"}, {"bike_id": "9b1bfd4dc7898d0fe1356b0a9fdcde82", "is_reserved": 0, "name": "9b1bfd4dc7898d0fe1356b0a9fdcde82", "lat": 38.95733366666666, "fusion_lat": 0.0, "lon": -77.024033, "is_disabled": 0, "fusion_lon": 0.0, "rental_uris": {"android": "https://dc.lft.to/lastmile_qr_scan", "ios": "https://dc.lft.to/lastmile_qr_scan"}, "type": "electric_scooter"}, {"bike_id": "4ac86be5cfae4a46a4e7a48601a4aee3", "is_reserved": 0, "name": "4ac86be5cfae4a46a4e7a48601a4aee3", "lat": 38.90571416666667, "fusion_lat": 0.0, "lon": -77.006156, "is_disabled": 0, "fusion_lon": 0.0, "rental_uris": {"android": "https://dc.lft.to/lastmile_qr_scan", "ios": "https://dc.lft.to/lastmile_qr_scan"}, "type": "electric_scooter"}, {"bike_id": "5dc190f55ca72957ab53e0af94e15b0a", "is_reserved": 0, "name": "5dc190f55ca72957ab53e0af94e15b0a", "lat": 38.91839216666666, "fusion_lat": 0.0, "lon": -76.965417, "is_disabled": 0, "fusion_lon": 0.0, "rental_uris": {"android": "https://dc.lft.to/lastmile_qr_scan", "ios": "https://dc.lft.to/lastmile_qr_scan"}, "type": "electric_scooter"}, {"bike_id": "85f4cb96334d02846c9d8fa331e982c3", "is_reserved": 0, "name": "85f4cb96334d02846c9d8fa331e982c3", "lat": 38.874025333333336, "fusion_lat": 0.0, "lon": -77.002063, "is_disabled": 0, "fusion_lon": 0.0, "rental_uris": {"android": "https://dc.lft.to/lastmile_qr_scan", "ios": "https://dc.lft.to/lastmile_qr_scan"}, "type": "electric_scooter"}, {"bike_id": "e1aa873e4d155041510c1c72fd17a852", "is_reserved": 0, "name": "e1aa873e4d155041510c1c72fd17a852", "lat": 38.92858483333333, "fusion_lat": 0.0, "lon": -77.03528133333333, "is_disabled": 0, "fusion_lon": 0.0, "rental_uris": {"android": "https://dc.lft.to/lastmile_qr_scan", "ios": "https://dc.lft.to/lastmile_qr_scan"}, "type": "electric_scooter"}, {"bike_id": "b067acafc508ba84d637b07c29f137e3", "is_reserved": 0, "name": "b067acafc508ba84d637b07c29f137e3", "lat": 38.91790233333333, "fusion_lat": 0.0, "lon": -77.04168883333334, "is_disabled": 0, "fusion_lon": 0.0, "rental_uris": {"android": "https://dc.lft.to/lastmile_qr_scan", "ios": "https://dc.lft.to/lastmile_qr_scan"}, "type": "electric_scooter"}, {"bike_id": "021f6628fc8217ee6e55ff1f709e4888", "is_reserved": 0, "name": "021f6628fc8217ee6e55ff1f709e4888", "lat": 38.9192645, "fusion_lat": 0.0, "lon": -77.04172983333333, "is_disabled": 0, "fusion_lon": 0.0, "rental_uris": {"android": "https://dc.lft.to/lastmile_qr_scan", "ios": "https://dc.lft.to/lastmile_qr_scan"}, "type": "electric_scooter"}, {"bike_id": "9015936dd78a681cfaf463a56844f615", "is_reserved": 0, "name": "9015936dd78a681cfaf463a56844f615", "lat": 38.9237145, "fusion_lat": 0.0, "lon": -77.02815733333334, "is_disabled": 0, "fusion_lon": 0.0, "rental_uris": {"android": "https://dc.lft.to/lastmile_qr_scan", "ios": "https://dc.lft.to/lastmile_qr_scan"}, "type": "electric_scooter"}, {"bike_id": "6ad5c76e47cdf7fb7dca7328301149de", "is_reserved": 0, "name": "6ad5c76e47cdf7fb7dca7328301149de", "lat": 38.903934166666666, "fusion_lat": 0.0, "lon": -77.03315716666667, "is_disabled": 0, "fusion_lon": 0.0, "rental_uris": {"android": "https://dc.lft.to/lastmile_qr_scan", "ios": "https://dc.lft.to/lastmile_qr_scan"}, "type": "electric_scooter"}, {"bike_id": "56e95bfb6c594758e8bf6f3962a1f571", "is_reserved": 0, "name": "56e95bfb6c594758e8bf6f3962a1f571", "lat": 38.874405, "fusion_lat": 0.0, "lon": -77.0092685, "is_disabled": 0, "fusion_lon": 0.0, "rental_uris": {"android": "https://dc.lft.to/lastmile_qr_scan", "ios": "https://dc.lft.to/lastmile_qr_scan"}, "type": "electric_scooter"}, {"bike_id": "ecdaba88b1593b5f49dba0f16dec3f27", "is_reserved": 0, "name": "ecdaba88b1593b5f49dba0f16dec3f27", "lat": 38.897224, "fusion_lat": 0.0, "lon": -77.018732, "is_disabled": 0, "fusion_lon": 0.0, "rental_uris": {"android": "https://dc.lft.to/lastmile_qr_scan", "ios": "https://dc.lft.to/lastmile_qr_scan"}, "type": "electric_scooter"}, {"bike_id": "b82b30450933c5235355d3ba6c0a2326", "is_reserved": 0, "name": "b82b30450933c5235355d3ba6c0a2326", "lat": 38.89233883333333, "fusion_lat": 0.0, "lon": -77.04873533333334, "is_disabled": 0, "fusion_lon": 0.0, "rental_uris": {"android": "https://dc.lft.to/lastmile_qr_scan", "ios": "https://dc.lft.to/lastmile_qr_scan"}, "type": "electric_scooter"}, {"bike_id": "f8f4668a0f78dbe799eb94a09d848497", "is_reserved": 0, "name": "f8f4668a0f78dbe799eb94a09d848497", "lat": 38.90382916666667, "fusion_lat": 0.0, "lon": -76.97612883333333, "is_disabled": 0, "fusion_lon": 0.0, "rental_uris": {"android": "https://dc.lft.to/lastmile_qr_scan", "ios": "https://dc.lft.to/lastmile_qr_scan"}, "type": "electric_scooter"}, {"bike_id": "b83dc73cbda5a8a8ba91d7efda025c7a", "is_reserved": 0, "name": "b83dc73cbda5a8a8ba91d7efda025c7a", "lat": 38.90520033333333, "fusion_lat": 0.0, "lon": -77.043488, "is_disabled": 0, "fusion_lon": 0.0, "rental_uris": {"android": "https://dc.lft.to/lastmile_qr_scan", "ios": "https://dc.lft.to/lastmile_qr_scan"}, "type": "electric_scooter"}, {"bike_id": "09102fc2c6a9565c09ba93d2dcf0a9b9", "is_reserved": 0, "name": "09102fc2c6a9565c09ba93d2dcf0a9b9", "lat": 38.904462333333335, "fusion_lat": 0.0, "lon": -77.05324866666666, "is_disabled": 0, "fusion_lon": 0.0, "rental_uris": {"android": "https://dc.lft.to/lastmile_qr_scan", "ios": "https://dc.lft.to/lastmile_qr_scan"}, "type": "electric_scooter"}, {"bike_id": "6d0e5d86a9ea3f9d486581111d6915f5", "is_reserved": 0, "name": "6d0e5d86a9ea3f9d486581111d6915f5", "lat": 38.90499533333333, "fusion_lat": 0.0, "lon": -77.04896033333333, "is_disabled": 0, "fusion_lon": 0.0, "rental_uris": {"android": "https://dc.lft.to/lastmile_qr_scan", "ios": "https://dc.lft.to/lastmile_qr_scan"}, "type": "electric_bike"}, {"bike_id": "eafa3a7ecde7c9417701a0e3e63d48ef", "is_reserved": 0, "name": "eafa3a7ecde7c9417701a0e3e63d48ef", "lat": 38.91034533333333, "fusion_lat": 0.0, "lon": -77.04263366666666, "is_disabled": 0, "fusion_lon": 0.0, "rental_uris": {"android": "https://dc.lft.to/lastmile_qr_scan", "ios": "https://dc.lft.to/lastmile_qr_scan"}, "type": "electric_scooter"}, {"bike_id": "a636d72199b2979b152f6cbd8c01f249", "is_reserved": 0, "name": "a636d72199b2979b152f6cbd8c01f249", "lat": 38.905780666666665, "fusion_lat": 0.0, "lon": -77.05703466666667, "is_disabled": 0, "fusion_lon": 0.0, "rental_uris": {"android": "https://dc.lft.to/lastmile_qr_scan", "ios": "https://dc.lft.to/lastmile_qr_scan"}, "type": "electric_scooter"}, {"bike_id": "4328652f8e915df7d995ec37e2d3587a", "is_reserved": 0, "name": "4328652f8e915df7d995ec37e2d3587a", "lat": 38.900274, "fusion_lat": 0.0, "lon": -76.9986295, "is_disabled": 0, "fusion_lon": 0.0, "rental_uris": {"android": "https://dc.lft.to/lastmile_qr_scan", "ios": "https://dc.lft.to/lastmile_qr_scan"}, "type": "electric_scooter"}, {"bike_id": "f50ed15f0fc114abe3db38e1be76f4c4", "is_reserved": 0, "name": "f50ed15f0fc114abe3db38e1be76f4c4", "lat": 38.88190733333333, "fusion_lat": 0.0, "lon": -77.00349483333333, "is_disabled": 0, "fusion_lon": 0.0, "rental_uris": {"android": "https://dc.lft.to/lastmile_qr_scan", "ios": "https://dc.lft.to/lastmile_qr_scan"}, "type": "electric_scooter"}, {"bike_id": "3a0c3ccbc9b8fa054727ce12e2570e41", "is_reserved": 0, "name": "3a0c3ccbc9b8fa054727ce12e2570e41", "lat": 38.917945833333334, "fusion_lat": 0.0, "lon": -77.02706, "is_disabled": 0, "fusion_lon": 0.0, "rental_uris": {"android": "https://dc.lft.to/lastmile_qr_scan", "ios": "https://dc.lft.to/lastmile_qr_scan"}, "type": "electric_scooter"}, {"bike_id": "1004b724a378be27e7d60c2400cd1c18", "is_reserved": 0, "name": "1004b724a378be27e7d60c2400cd1c18", "lat": 38.929803, "fusion_lat": 0.0, "lon": -77.02594483333333, "is_disabled": 0, "fusion_lon": 0.0, "rental_uris": {"android": "https://dc.lft.to/lastmile_qr_scan", "ios": "https://dc.lft.to/lastmile_qr_scan"}, "type": "electric_bike"}, {"bike_id": "16f068600168d785733a2274a6c41f9b", "is_reserved": 0, "name": "16f068600168d785733a2274a6c41f9b", "lat": 38.92138166666667, "fusion_lat": 0.0, "lon": -77.00939533333333, "is_disabled": 0, "fusion_lon": 0.0, "rental_uris": {"android": "https://dc.lft.to/lastmile_qr_scan", "ios": "https://dc.lft.to/lastmile_qr_scan"}, "type": "electric_scooter"}, {"bike_id": "a04b0edb4c3ad63ca7f972588990e441", "is_reserved": 0, "name": "a04b0edb4c3ad63ca7f972588990e441", "lat": 38.93025516666667, "fusion_lat": 0.0, "lon": -77.037874, "is_disabled": 0, "fusion_lon": 0.0, "rental_uris": {"android": "https://dc.lft.to/lastmile_qr_scan", "ios": "https://dc.lft.to/lastmile_qr_scan"}, "type": "electric_scooter"}, {"bike_id": "511de5fb1ae58f9f6bc508f2d61d7a87", "is_reserved": 0, "name": "511de5fb1ae58f9f6bc508f2d61d7a87", "lat": 38.91677683333333, "fusion_lat": 0.0, "lon": -77.0019545, "is_disabled": 0, "fusion_lon": 0.0, "rental_uris": {"android": "https://dc.lft.to/lastmile_qr_scan", "ios": "https://dc.lft.to/lastmile_qr_scan"}, "type": "electric_scooter"}, {"bike_id": "cfc4009835e9a53f059e0fe5f087c304", "is_reserved": 0, "name": "cfc4009835e9a53f059e0fe5f087c304", "lat": 38.916937833333336, "fusion_lat": 0.0, "lon": -77.02642366666667, "is_disabled": 0, "fusion_lon": 0.0, "rental_uris": {"android": "https://dc.lft.to/lastmile_qr_scan", "ios": "https://dc.lft.to/lastmile_qr_scan"}, "type": "electric_scooter"}, {"bike_id": "a589d40245266f20d14711d9453a7e4b", "is_reserved": 0, "name": "a589d40245266f20d14711d9453a7e4b", "lat": 38.876582166666665, "fusion_lat": 0.0, "lon": -77.00079816666667, "is_disabled": 0, "fusion_lon": 0.0, "rental_uris": {"android": "https://dc.lft.to/lastmile_qr_scan", "ios": "https://dc.lft.to/lastmile_qr_scan"}, "type": "electric_scooter"}, {"bike_id": "a0165ea0575c2f81998b56eacf531bfe", "is_reserved": 0, "name": "a0165ea0575c2f81998b56eacf531bfe", "lat": 38.9147865, "fusion_lat": 0.0, "lon": -77.04609483333333, "is_disabled": 0, "fusion_lon": 0.0, "rental_uris": {"android": "https://dc.lft.to/lastmile_qr_scan", "ios": "https://dc.lft.to/lastmile_qr_scan"}, "type": "electric_scooter"}, {"bike_id": "da891b3cb0a0ad3b5e8ea07559628f31", "is_reserved": 0, "name": "da891b3cb0a0ad3b5e8ea07559628f31", "lat": 38.874913166666666, "fusion_lat": 0.0, "lon": -77.0027935, "is_disabled": 0, "fusion_lon": 0.0, "rental_uris": {"android": "https://dc.lft.to/lastmile_qr_scan", "ios": "https://dc.lft.to/lastmile_qr_scan"}, "type": "electric_scooter"}, {"bike_id": "04ed122d4dfb709fa252bb51fec99203", "is_reserved": 0, "name": "04ed122d4dfb709fa252bb51fec99203", "lat": 38.928469166666666, "fusion_lat": 0.0, "lon": -77.01402466666667, "is_disabled": 0, "fusion_lon": 0.0, "rental_uris": {"android": "https://dc.lft.to/lastmile_qr_scan", "ios": "https://dc.lft.to/lastmile_qr_scan"}, "type": "electric_scooter"}, {"bike_id": "e6b8a784d7dd1042696bdfcaef7b37f3", "is_reserved": 0, "name": "e6b8a784d7dd1042696bdfcaef7b37f3", "lat": 38.92675833333333, "fusion_lat": 0.0, "lon": -77.03142616666666, "is_disabled": 0, "fusion_lon": 0.0, "rental_uris": {"android": "https://dc.lft.to/lastmile_qr_scan", "ios": "https://dc.lft.to/lastmile_qr_scan"}, "type": "electric_scooter"}, {"bike_id": "70b1a98718247e1a384136616f79de77", "is_reserved": 0, "name": "70b1a98718247e1a384136616f79de77", "lat": 38.91800766666667, "fusion_lat": 0.0, "lon": -77.03185916666666, "is_disabled": 0, "fusion_lon": 0.0, "rental_uris": {"android": "https://dc.lft.to/lastmile_qr_scan", "ios": "https://dc.lft.to/lastmile_qr_scan"}, "type": "electric_scooter"}, {"bike_id": "9d51f3ece5f31c622c93b8985cf997a9", "is_reserved": 0, "name": "9d51f3ece5f31c622c93b8985cf997a9", "lat": 38.95412916666667, "fusion_lat": 0.0, "lon": -77.0279425, "is_disabled": 0, "fusion_lon": 0.0, "rental_uris": {"android": "https://dc.lft.to/lastmile_qr_scan", "ios": "https://dc.lft.to/lastmile_qr_scan"}, "type": "electric_scooter"}, {"bike_id": "becf2e2cbf7dd3e08037e81b4795e1eb", "is_reserved": 0, "name": "becf2e2cbf7dd3e08037e81b4795e1eb", "lat": 38.860238333333335, "fusion_lat": 0.0, "lon": -77.12806, "is_disabled": 0, "fusion_lon": 0.0, "rental_uris": {"android": "https://dc.lft.to/lastmile_qr_scan", "ios": "https://dc.lft.to/lastmile_qr_scan"}, "type": "electric_bike"}, {"bike_id": "c5e84343f06df7d0e34906403ceaa776", "is_reserved": 0, "name": "c5e84343f06df7d0e34906403ceaa776", "lat": 38.924646, "fusion_lat": 0.0, "lon": -77.05234216666666, "is_disabled": 0, "fusion_lon": 0.0, "rental_uris": {"android": "https://dc.lft.to/lastmile_qr_scan", "ios": "https://dc.lft.to/lastmile_qr_scan"}, "type": "electric_scooter"}, {"bike_id": "1a5452dc75eb9023b28970c9e8181058", "is_reserved": 0, "name": "1a5452dc75eb9023b28970c9e8181058", "lat": 38.9172855, "fusion_lat": 0.0, "lon": -77.01917683333333, "is_disabled": 0, "fusion_lon": 0.0, "rental_uris": {"android": "https://dc.lft.to/lastmile_qr_scan", "ios": "https://dc.lft.to/lastmile_qr_scan"}, "type": "electric_scooter"}, {"bike_id": "0e5ff2fed93800952adfedce08aa4b37", "is_reserved": 0, "name": "0e5ff2fed93800952adfedce08aa4b37", "lat": 38.91686283333333, "fusion_lat": 0.0, "lon": -77.02953933333333, "is_disabled": 0, "fusion_lon": 0.0, "rental_uris": {"android": "https://dc.lft.to/lastmile_qr_scan", "ios": "https://dc.lft.to/lastmile_qr_scan"}, "type": "electric_scooter"}, {"bike_id": "e66d535beddf6296d6ae575e0bbae869", "is_reserved": 0, "name": "e66d535beddf6296d6ae575e0bbae869", "lat": 38.86664833333333, "fusion_lat": 0.0, "lon": -76.98903283333334, "is_disabled": 0, "fusion_lon": 0.0, "rental_uris": {"android": "https://dc.lft.to/lastmile_qr_scan", "ios": "https://dc.lft.to/lastmile_qr_scan"}, "type": "electric_scooter"}, {"bike_id": "454b748ec213b9241a101b6803646cbf", "is_reserved": 0, "name": "454b748ec213b9241a101b6803646cbf", "lat": 38.88737116666667, "fusion_lat": 0.0, "lon": -77.03182566666666, "is_disabled": 0, "fusion_lon": 0.0, "rental_uris": {"android": "https://dc.lft.to/lastmile_qr_scan", "ios": "https://dc.lft.to/lastmile_qr_scan"}, "type": "electric_scooter"}, {"bike_id": "fc42e41119c5b5f53dd633afd6bedf06", "is_reserved": 0, "name": "fc42e41119c5b5f53dd633afd6bedf06", "lat": 38.90948983333333, "fusion_lat": 0.0, "lon": -77.02713416666667, "is_disabled": 0, "fusion_lon": 0.0, "rental_uris": {"android": "https://dc.lft.to/lastmile_qr_scan", "ios": "https://dc.lft.to/lastmile_qr_scan"}, "type": "electric_scooter"}, {"bike_id": "2303c1aa8ddff3e55563bb08de411756", "is_reserved": 0, "name": "2303c1aa8ddff3e55563bb08de411756", "lat": 38.9134965, "fusion_lat": 0.0, "lon": -77.01740416666667, "is_disabled": 0, "fusion_lon": 0.0, "rental_uris": {"android": "https://dc.lft.to/lastmile_qr_scan", "ios": "https://dc.lft.to/lastmile_qr_scan"}, "type": "electric_scooter"}, {"bike_id": "b2dae2d1d9b0c13fb1a8e841058a2ff8", "is_reserved": 0, "name": "b2dae2d1d9b0c13fb1a8e841058a2ff8", "lat": 38.92155366666667, "fusion_lat": 0.0, "lon": -76.99347383333334, "is_disabled": 0, "fusion_lon": 0.0, "rental_uris": {"android": "https://dc.lft.to/lastmile_qr_scan", "ios": "https://dc.lft.to/lastmile_qr_scan"}, "type": "electric_scooter"}, {"bike_id": "a64c97e3988ef71ce980384039fe6da5", "is_reserved": 0, "name": "a64c97e3988ef71ce980384039fe6da5", "lat": 38.906811, "fusion_lat": 0.0, "lon": -77.026961, "is_disabled": 0, "fusion_lon": 0.0, "rental_uris": {"android": "https://dc.lft.to/lastmile_qr_scan", "ios": "https://dc.lft.to/lastmile_qr_scan"}, "type": "electric_scooter"}, {"bike_id": "1eed615895b78adb40708290f5a72b2e", "is_reserved": 0, "name": "1eed615895b78adb40708290f5a72b2e", "lat": 38.8875435, "fusion_lat": 0.0, "lon": -76.99603583333334, "is_disabled": 0, "fusion_lon": 0.0, "rental_uris": {"android": "https://dc.lft.to/lastmile_qr_scan", "ios": "https://dc.lft.to/lastmile_qr_scan"}, "type": "electric_scooter"}, {"bike_id": "066c662ace43e878bc90e5cf36d228c2", "is_reserved": 0, "name": "066c662ace43e878bc90e5cf36d228c2", "lat": 38.92368666666667, "fusion_lat": 0.0, "lon": -77.04085316666666, "is_disabled": 0, "fusion_lon": 0.0, "rental_uris": {"android": "https://dc.lft.to/lastmile_qr_scan", "ios": "https://dc.lft.to/lastmile_qr_scan"}, "type": "electric_scooter"}, {"bike_id": "b5eab0a35e6ea32e1fcfbbba89b06d8c", "is_reserved": 0, "name": "b5eab0a35e6ea32e1fcfbbba89b06d8c", "lat": 38.901736, "fusion_lat": 0.0, "lon": -76.9926125, "is_disabled": 0, "fusion_lon": 0.0, "rental_uris": {"android": "https://dc.lft.to/lastmile_qr_scan", "ios": "https://dc.lft.to/lastmile_qr_scan"}, "type": "electric_scooter"}, {"bike_id": "836d30b6f1f417f07075871c91fc03c0", "is_reserved": 0, "name": "836d30b6f1f417f07075871c91fc03c0", "lat": 38.896977, "fusion_lat": 0.0, "lon": -76.963041, "is_disabled": 0, "fusion_lon": 0.0, "rental_uris": {"android": "https://dc.lft.to/lastmile_qr_scan", "ios": "https://dc.lft.to/lastmile_qr_scan"}, "type": "electric_bike"}, {"bike_id": "91d6e5ddf706ed32770c70a362e55eb0", "is_reserved": 0, "name": "91d6e5ddf706ed32770c70a362e55eb0", "lat": 38.8475555, "fusion_lat": 0.0, "lon": -76.9950025, "is_disabled": 0, "fusion_lon": 0.0, "rental_uris": {"android": "https://dc.lft.to/lastmile_qr_scan", "ios": "https://dc.lft.to/lastmile_qr_scan"}, "type": "electric_scooter"},