{"data": {"bikes": [{"fusion_lat": 0.0, "name": "a28eff23f7807279406bda8a860674b6", "is_disabled": 0, "rental_uris": {"android": "https://dc.lft.to/lastmile_qr_scan", "ios": "https://dc.lft.to/lastmile_qr_scan"}, "fusion_lon": 0.0, "lat": 38.9795395, "bike_id": "a28eff23f7807279406bda8a860674b6", "type": "electric_scooter", "is_reserved": 0, "lon": -77.026125}, {"fusion_lat": 0.0, "name": "4df2fdb2541999e5774d68285786e6b5", "is_disabled": 0, "rental_uris": {"android": "https://dc.lft.to/lastmile_qr_scan", "ios": "https://dc.lft.to/lastmile_qr_scan"}, "fusion_lon": 0.0, "lat": 38.93180433333333, "bike_id": "4df2fdb2541999e5774d68285786e6b5", "type": "electric_scooter", "is_reserved": 0, "lon": -77.03840733333334}, {"fusion_lat": 0.0, "name": "183965970307d374637910b7f88170b6", "is_disabled": 0, "rental_uris": {"android": "https://dc.lft.to/lastmile_qr_scan", "ios": "https://dc.lft.to/lastmile_qr_scan"}, "fusion_lon": 0.0, "lat": 38.90299916666667, "bike_id": "183965970307d374637910b7f88170b6", "type": "electric_scooter", "is_reserved": 0, "lon": -76.97648883333333}, {"fusion_lat": 0.0, "name": "540c8321a53c76e4c7c8c6af731445b3", "is_disabled": 0, "rental_uris": {"android": "https://dc.lft.to/lastmile_qr_scan", "ios": "https://dc.lft.to/lastmile_qr_scan"}, "fusion_lon": 0.0, "lat": 38.943784, "bike_id": "540c8321a53c76e4c7c8c6af731445b3", "type": "electric_scooter", "is_reserved": 0, "lon": -77.02605516666667}, {"fusion_lat": 0.0, "name": "f67dc814132aa9eb4ad99da228e36d04", "is_disabled": 0, "rental_uris": {"android": "https://dc.lft.to/lastmile_qr_scan", "ios": "https://dc.lft.to/lastmile_qr_scan"}, "fusion_lon": 0.0, "lat": 38.926725833333336, "bike_id": "f67dc814132aa9eb4ad99da228e36d04", "type": "electric_scooter", "is_reserved": 0, "lon": -77.03227916666667}, {"fusion_lat": 0.0, "name": "9c78be3ccf3eed1ef705587e5c0e3dfd", "is_disabled": 0, "rental_uris": {"android": "https://dc.lft.to/lastmile_qr_scan", "ios": "https://dc.lft.to/lastmile_qr_scan"}, "fusion_lon": 0.0, "lat": 38.88661366666667, "bike_id": "9c78be3ccf3eed1ef705587e5c0e3dfd", "type": "electric_scooter", "is_reserved": 0, "lon": -77.028198}, {"fusion_lat": 0.0, "name": "e500dea112312a73a297639353c77b80", "is_disabled": 0, "rental_uris": {"android": "https://dc.lft.to/lastmile_qr_scan", "ios": "https://dc.lft.to/lastmile_qr_scan"}, "fusion_lon": 0.0, "lat": 38.931980333333335, "bike_id": "e500dea112312a73a297639353c77b80", "type": "electric_scooter", "is_reserved": 0, "lon": -77.03749633333334}, {"fusion_lat": 0.0, "name": "e33bfe66f15d7a4b28f5d23b09fdad69", "is_disabled": 0, "rental_uris": {"android": "https://dc.lft.to/lastmile_qr_scan", "ios": "https://dc.lft.to/lastmile_qr_scan"}, "fusion_lon": 0.0, "lat": 38.994401833333335, "bike_id": "e33bfe66f15d7a4b28f5d23b09fdad69", "type": "electric_bike", "is_reserved": 0, "lon": -76.99588}, {"fusion_lat": 0.0, "name": "e0bbcddeedf54d7e9e82012939e90778", "is_disabled": 0, "rental_uris": {"android": "https://dc.lft.to/lastmile_qr_scan", "ios": "https://dc.lft.to/lastmile_qr_scan"}, "fusion_lon": 0.0, "lat": 38.921028166666666, "bike_id": "e0bbcddeedf54d7e9e82012939e90778", "type": "electric_scooter", "is_reserved": 0, "lon": -77.04694816666667}, {"fusion_lat": 0.0, "name": "1640fb26f7468f6db874b07ff9493e11", "is_disabled": 0, "rental_uris": {"android": "https://dc.lft.to/lastmile_qr_scan", "ios": "https://dc.lft.to/lastmile_qr_scan"}, "fusion_lon": 0.0, "lat": 38.916877, "bike_id": "1640fb26f7468f6db874b07ff9493e11", "type": "electric_scooter", "is_reserved": 0, "lon": -77.03770983333334}, {"fusion_lat": 0.0, "name": "b01be2bad59a42631867b4289802b43c", "is_disabled": 0, "rental_uris": {"android": "https://dc.lft.to/lastmile_qr_scan", "ios": "https://dc.lft.to/lastmile_qr_scan"}, "fusion_lon": 0.0, "lat": 38.9405785, "bike_id": "b01be2bad59a42631867b4289802b43c", "type": "electric_bike", "is_reserved": 0, "lon": -76.90423783333334}, {"fusion_lat": 0.0, "name": "eec7b3d6c47a57347dc0cb3741373c8a", "is_disabled": 0, "rental_uris": {"android": "https://dc.lft.to/lastmile_qr_scan", "ios": "https://dc.lft.to/lastmile_qr_scan"}, "fusion_lon": 0.0, "lat": 38.90162616666667, "bike_id": "eec7b3d6c47a57347dc0cb3741373c8a", "type": "electric_scooter", "is_reserved": 0, "lon": -76.9807455}, {"fusion_lat": 0.0, "name": "63b77d4e0a8aad499dba08d028fac464", "is_disabled": 0, "rental_uris": {"android": "https://dc.lft.to/lastmile_qr_scan", "ios": "https://dc.lft.to/lastmile_qr_scan"}, "fusion_lon": 0.0, "lat": 38.865103500000004, "bike_id": "63b77d4e0a8aad499dba08d028fac464", "type": "electric_bike", "is_reserved": 0, "lon": -76.97329633333334}, {"fusion_lat": 0.0, "name": "4b38d2f042c45d1384ead17f4022fa77", "is_disabled": 0, "rental_uris": {"android": "https://dc.lft.to/lastmile_qr_scan", "ios": "https://dc.lft.to/lastmile_qr_scan"}, "fusion_lon": 0.0, "lat": 38.92654133333333, "bike_id": "4b38d2f042c45d1384ead17f4022fa77", "type": "electric_scooter", "is_reserved": 0, "lon": -77.0371295}, {"fusion_lat": 0.0, "name": "89bdeb051ee78ae4963063265be1bebc", "is_disabled": 0, "rental_uris": {"android": "https://dc.lft.to/lastmile_qr_scan", "ios": "https://dc.lft.to/lastmile_qr_scan"}, "fusion_lon": 0.0, "lat": 38.876885, "bike_id": "89bdeb051ee78ae4963063265be1bebc", "type": "electric_scooter", "is_reserved": 0, "lon": -77.00742716666667}, {"fusion_lat": 0.0, "name": "5273637b4fb7642272d6087a135b3970", "is_disabled": 0, "rental_uris": {"android": "https://dc.lft.to/lastmile_qr_scan", "ios": "https://dc.lft.to/lastmile_qr_scan"}, "fusion_lon": 0.0, "lat": 38.90358716666667, "bike_id": "5273637b4fb7642272d6087a135b3970", "type": "electric_scooter", "is_reserved": 0, "lon": -77.06270216666667}, {"fusion_lat": 0.0, "name": "7ed90b6ffc3e024e40a4bf644eff6171", "is_disabled": 0, "rental_uris": {"android": "https://dc.lft.to/lastmile_qr_scan", "ios": "https://dc.lft.to/lastmile_qr_scan"}, "fusion_lon": 0.0, "lat": 38.9388055, "bike_id": "7ed90b6ffc3e024e40a4bf644eff6171", "type": "electric_scooter", "is_reserved": 0, "lon": -77.0246305}, {"fusion_lat": 0.0, "name": "a680e31b72de6e4a7c0f98765ebd50d0", "is_disabled": 0, "rental_uris": {"android": "https://dc.lft.to/lastmile_qr_scan", "ios": "https://dc.lft.to/lastmile_qr_scan"}, "fusion_lon": 0.0, "lat": 38.91562966666667, "bike_id": "a680e31b72de6e4a7c0f98765ebd50d0", "type": "electric_scooter", "is_reserved": 0, "lon": -77.03168666666667}, {"fusion_lat": 0.0, "name": "5e3052f7b65fc44d38f61576bccf59e6", "is_disabled": 0, "rental_uris": {"android": "https://dc.lft.to/lastmile_qr_scan", "ios": "https://dc.lft.to/lastmile_qr_scan"}, "fusion_lon": 0.0, "lat": 38.893410333333335, "bike_id": "5e3052f7b65fc44d38f61576bccf59e6", "type": "electric_scooter", "is_reserved": 0, "lon": -76.99378666666667}, {"fusion_lat": 0.0, "name": "5c1ca9bef2a6af44f0fa41f54b2548f6", "is_disabled": 0, "rental_uris": {"android": "https://dc.lft.to/lastmile_qr_scan", "ios": "https://dc.lft.to/lastmile_qr_scan"}, "fusion_lon": 0.0, "lat": 38.967485833333335, "bike_id": "5c1ca9bef2a6af44f0fa41f54b2548f6", "type": "electric_bike", "is_reserved": 0, "lon": -77.0335605}, {"fusion_lat": 0.0, "name": "42b3543346dfb7a531951b207d7093c9", "is_disabled": 0, "rental_uris": {"android": "https://dc.lft.to/lastmile_qr_scan", "ios": "https://dc.lft.to/lastmile_qr_scan"}, "fusion_lon": 0.0, "lat": 38.84909183333333, "bike_id": "42b3543346dfb7a531951b207d7093c9", "type": "electric_bike", "is_reserved": 0, "lon": -77.09977033333334}, {"fusion_lat": 0.0, "name": "3add179a4c07b11895a42c8d9c9fd585", "is_disabled": 0, "rental_uris": {"android": "https://dc.lft.to/lastmile_qr_scan", "ios": "https://dc.lft.to/lastmile_qr_scan"}, "fusion_lon": 0.0, "lat": 38.91493766666667, "bike_id": "3add179a4c07b11895a42c8d9c9fd585", "type": "electric_scooter", "is_reserved": 0, "lon": -77.03258816666667}, {"fusion_lat": 0.0, "name": "caa682aa0e35b9690e7d1503231fbb1d", "is_disabled": 0, "rental_uris": {"android": "https://dc.lft.to/lastmile_qr_scan", "ios": "https://dc.lft.to/lastmile_qr_scan"}, "fusion_lon": 0.0, "lat": 38.89737616666667, "bike_id": "caa682aa0e35b9690e7d1503231fbb1d", "type": "electric_scooter", "is_reserved": 0, "lon": -77.02717133333333}, {"fusion_lat": 0.0, "name": "66ba25ca970e351788131668fe575e4a", "is_disabled": 0, "rental_uris": {"android": "https://dc.lft.to/lastmile_qr_scan", "ios": "https://dc.lft.to/lastmile_qr_scan"}, "fusion_lon": 0.0, "lat": 38.902006166666666, "bike_id": "66ba25ca970e351788131668fe575e4a", "type": "electric_scooter", "is_reserved": 0, "lon": -77.04384283333333}, {"fusion_lat": 0.0, "name": "467e6bf1cc960777b58007f263989822", "is_disabled": 0, "rental_uris": {"android": "https://dc.lft.to/lastmile_qr_scan", "ios": "https://dc.lft.to/lastmile_qr_scan"}, "fusion_lon": 0.0, "lat": 38.932307, "bike_id": "467e6bf1cc960777b58007f263989822", "type": "electric_scooter", "is_reserved": 0, "lon": -77.02830033333333}, {"fusion_lat": 0.0, "name": "476dd451880306f061af1608d3442388", "is_disabled": 0, "rental_uris": {"android": "https://dc.lft.to/lastmile_qr_scan", "ios": "https://dc.lft.to/lastmile_qr_scan"}, "fusion_lon": 0.0, "lat": 38.845036, "bike_id": "476dd451880306f061af1608d3442388", "type": "electric_bike", "is_reserved": 0, "lon": -76.99350616666666}, {"fusion_lat": 0.0, "name": "3dec71c66538efb74b07fc33b8296d35", "is_disabled": 0, "rental_uris": {"android": "https://dc.lft.to/lastmile_qr_scan", "ios": "https://dc.lft.to/lastmile_qr_scan"}, "fusion_lon": 0.0, "lat": 38.94204033333333, "bike_id": "3dec71c66538efb74b07fc33b8296d35", "type": "electric_scooter", "is_reserved": 0, "lon": -77.02593366666666}, {"fusion_lat": 0.0, "name": "765beae8af4da64b4bb34fac8933d43e", "is_disabled": 0, "rental_uris": {"android": "https://dc.lft.to/lastmile_qr_scan", "ios": "https://dc.lft.to/lastmile_qr_scan"}, "fusion_lon": 0.0, "lat": 38.9563435, "bike_id": "765beae8af4da64b4bb34fac8933d43e", "type": "electric_scooter", "is_reserved": 0, "lon": -77.033038}, {"fusion_lat": 0.0, "name": "d2da1e8c9dfb5aa01b62fe5750e90b71", "is_disabled": 0, "rental_uris": {"android": "https://dc.lft.to/lastmile_qr_scan", "ios": "https://dc.lft.to/lastmile_qr_scan"}, "fusion_lon": 0.0, "lat": 38.89219966666667, "bike_id": "d2da1e8c9dfb5aa01b62fe5750e90b71", "type": "electric_scooter", "is_reserved": 0, "lon": -77.0450675}, {"fusion_lat": 0.0, "name": "f30585f893f39c33b21dd617abbb7841", "is_disabled": 0, "rental_uris": {"android": "https://dc.lft.to/lastmile_qr_scan", "ios": "https://dc.lft.to/lastmile_qr_scan"}, "fusion_lon": 0.0, "lat": 38.863296166666665, "bike_id": "f30585f893f39c33b21dd617abbb7841", "type": "electric_bike", "is_reserved": 0, "lon": -76.98721866666666}, {"fusion_lat": 0.0, "name": "020beafa5dae4e388367bb2928eb2a77", "is_disabled": 0, "rental_uris": {"android": "https://dc.lft.to/lastmile_qr_scan", "ios": "https://dc.lft.to/lastmile_qr_scan"}, "fusion_lon": 0.0, "lat": 38.91271866666666, "bike_id": "020beafa5dae4e388367bb2928eb2a77", "type": "electric_scooter", "is_reserved": 0, "lon": -77.0225925}, {"fusion_lat": 0.0, "name": "e5b286e228af14c24758cc81acc1d16c", "is_disabled": 0, "rental_uris": {"android": "https://dc.lft.to/lastmile_qr_scan", "ios": "https://dc.lft.to/lastmile_qr_scan"}, "fusion_lon": 0.0, "lat": 38.8922005, "bike_id": "e5b286e228af14c24758cc81acc1d16c", "type": "electric_scooter", "is_reserved": 0, "lon": -77.0236595}, {"fusion_lat": 0.0, "name": "151d5c5e9835a0743b478d10ac875a9d", "is_disabled": 0, "rental_uris": {"android": "https://dc.lft.to/lastmile_qr_scan", "ios": "https://dc.lft.to/lastmile_qr_scan"}, "fusion_lon": 0.0, "lat": 38.88448416666667, "bike_id": "151d5c5e9835a0743b478d10ac875a9d", "type": "electric_scooter", "is_reserved": 0, "lon": -76.99392566666667}, {"fusion_lat": 0.0, "name": "b4aa1862f204c0990e09223e18b87930", "is_disabled": 0, "rental_uris": {"android": "https://dc.lft.to/lastmile_qr_scan", "ios": "https://dc.lft.to/lastmile_qr_scan"}, "fusion_lon": 0.0, "lat": 38.8754415, "bike_id": "b4aa1862f204c0990e09223e18b87930", "type": "electric_bike", "is_reserved": 0, "lon": -77.0007055}, {"fusion_lat": 0.0, "name": "5759e8647d6a3dfbf9d2fc445466e1a3", "is_disabled": 0, "rental_uris": {"android": "https://dc.lft.to/lastmile_qr_scan", "ios": "https://dc.lft.to/lastmile_qr_scan"}, "fusion_lon": 0.0, "lat": 38.911109333333336, "bike_id": "5759e8647d6a3dfbf9d2fc445466e1a3", "type": "electric_scooter", "is_reserved": 0, "lon": -77.02077616666666}, {"fusion_lat": 0.0, "name": "15c364df38b1279b8ce77054db1308dd", "is_disabled": 0, "rental_uris": {"android": "https://dc.lft.to/lastmile_qr_scan", "ios": "https://dc.lft.to/lastmile_qr_scan"}, "fusion_lon": 0.0, "lat": 38.937371, "bike_id": "15c364df38b1279b8ce77054db1308dd", "type": "electric_scooter", "is_reserved": 0, "lon": -77.035875}, {"fusion_lat": 0.0, "name": "c7b5f2b3f0240605f479a191d8434e8e", "is_disabled": 0, "rental_uris": {"android": "https://dc.lft.to/lastmile_qr_scan", "ios": "https://dc.lft.to/lastmile_qr_scan"}, "fusion_lon": 0.0, "lat": 38.9086235, "bike_id": "c7b5f2b3f0240605f479a191d8434e8e", "type": "electric_scooter", "is_reserved": 0, "lon": -77.04733233333333}, {"fusion_lat": 0.0, "name": "5a2f940b475801a3c76895425708bda2", "is_disabled": 0, "rental_uris": {"android": "https://dc.lft.to/lastmile_qr_scan", "ios": "https://dc.lft.to/lastmile_qr_scan"}, "fusion_lon": 0.0, "lat": 38.907059, "bike_id": "5a2f940b475801a3c76895425708bda2", "type": "electric_scooter", "is_reserved": 0, "lon": -77.0505245}, {"fusion_lat": 0.0, "name": "9b834190d5564985f40d9066163526dc", "is_disabled": 0, "rental_uris": {"android": "https://dc.lft.to/lastmile_qr_scan", "ios": "https://dc.lft.to/lastmile_qr_scan"}, "fusion_lon": 0.0, "lat": 38.806638166666666, "bike_id": "9b834190d5564985f40d9066163526dc", "type": "electric_bike", "is_reserved": 0, "lon": -77.06915666666667}, {"fusion_lat": 0.0, "name": "d1f9c910c9054d2099062acd14de0c1d", "is_disabled": 0, "rental_uris": {"android": "https://dc.lft.to/lastmile_qr_scan", "ios": "https://dc.lft.to/lastmile_qr_scan"}, "fusion_lon": 0.0, "lat": 38.89605733333333, "bike_id": "d1f9c910c9054d2099062acd14de0c1d", "type": "electric_scooter", "is_reserved": 0, "lon": -77.00928333333333}, {"fusion_lat": 0.0, "name": "a0d381a4abc21ed8ecb33cde35e5b294", "is_disabled": 0, "rental_uris": {"android": "https://dc.lft.to/lastmile_qr_scan", "ios": "https://dc.lft.to/lastmile_qr_scan"}, "fusion_lon": 0.0, "lat": 38.897310833333336, "bike_id": "a0d381a4abc21ed8ecb33cde35e5b294", "type": "electric_scooter", "is_reserved": 0, "lon": -77.01954066666667}, {"fusion_lat": 0.0, "name": "04216e38f5d8f0e6fe015a0d6589bbd0", "is_disabled": 0, "rental_uris": {"android": "https://dc.lft.to/lastmile_qr_scan", "ios": "https://dc.lft.to/lastmile_qr_scan"}, "fusion_lon": 0.0, "lat": 38.87045833333333, "bike_id": "04216e38f5d8f0e6fe015a0d6589bbd0", "type": "electric_scooter", "is_reserved": 0, "lon": -77.00978183333334}, {"fusion_lat": 0.0, "name": "dd8e04e37fac9b38e14a2d58f45b7ccb", "is_disabled": 0, "rental_uris": {"android": "https://dc.lft.to/lastmile_qr_scan", "ios": "https://dc.lft.to/lastmile_qr_scan"}, "fusion_lon": 0.0, "lat": 38.92887066666667, "bike_id": "dd8e04e37fac9b38e14a2d58f45b7ccb", "type": "electric_scooter", "is_reserved": 0, "lon": -77.03255366666667}, {"fusion_lat": 0.0, "name": "693712f154089b0b9ca7c8d5517ad9a8", "is_disabled": 0, "rental_uris": {"android": "https://dc.lft.to/lastmile_qr_scan", "ios": "https://dc.lft.to/lastmile_qr_scan"}, "fusion_lon": 0.0, "lat": 38.8766185, "bike_id": "693712f154089b0b9ca7c8d5517ad9a8", "type": "electric_bike", "is_reserved": 0, "lon": -77.02084883333333}, {"fusion_lat": 0.0, "name": "405433346efbcee50fc5e639817be320", "is_disabled": 0, "rental_uris": {"android": "https://dc.lft.to/lastmile_qr_scan", "ios": "https://dc.lft.to/lastmile_qr_scan"}, "fusion_lon": 0.0, "lat": 38.90166983333334, "bike_id": "405433346efbcee50fc5e639817be320", "type": "electric_scooter", "is_reserved": 0, "lon": -77.025013}, {"fusion_lat": 0.0, "name": "c97d4e3156c838564e4d725cda369991", "is_disabled": 0, "rental_uris": {"android": "https://dc.lft.to/lastmile_qr_scan", "ios": "https://dc.lft.to/lastmile_qr_scan"}, "fusion_lon": 0.0, "lat": 38.9097395, "bike_id": "c97d4e3156c838564e4d725cda369991", "type": "electric_scooter", "is_reserved": 0, "lon": -77.03442083333333}, {"fusion_lat": 0.0, "name": "5c796aba68b5b308707f5cb395ebef1f", "is_disabled": 0, "rental_uris": {"android": "https://dc.lft.to/lastmile_qr_scan", "ios": "https://dc.lft.to/lastmile_qr_scan"}, "fusion_lon": 0.0, "lat": 38.8921785, "bike_id": "5c796aba68b5b308707f5cb395ebef1f", "type": "electric_scooter", "is_reserved": 0, "lon": -77.02777816666666}, {"fusion_lat": 0.0, "name": "c36c700f0dc65e8aa2d9b34198cb5a42", "is_disabled": 0, "rental_uris": {"android": "https://dc.lft.to/lastmile_qr_scan", "ios": "https://dc.lft.to/lastmile_qr_scan"}, "fusion_lon": 0.0, "lat": 38.905475, "bike_id": "c36c700f0dc65e8aa2d9b34198cb5a42", "type": "electric_scooter", "is_reserved": 0, "lon": -77.0628675}, {"fusion_lat": 0.0, "name": "69ee83ea5d2be68691cd4c47d893fc8b", "is_disabled": 0, "rental_uris": {"android": "https://dc.lft.to/lastmile_qr_scan", "ios": "https://dc.lft.to/lastmile_qr_scan"}, "fusion_lon": 0.0, "lat": 38.911923, "bike_id": "69ee83ea5d2be68691cd4c47d893fc8b", "type": "electric_scooter", "is_reserved": 0, "lon": -77.03848366666666}, {"fusion_lat": 0.0, "name": "61c29c800b8178870cf586a0ed3540f6", "is_disabled": 0, "rental_uris": {"android": "https://dc.lft.to/lastmile_qr_scan", "ios": "https://dc.lft.to/lastmile_qr_scan"}, "fusion_lon": 0.0, "lat": 38.9153425, "bike_id": "61c29c800b8178870cf586a0ed3540f6", "type": "electric_scooter", "is_reserved": 0, "lon": -77.032031}, {"fusion_lat": 0.0, "name": "31ac5e8ab579dd83ba0824c4aaced50c", "is_disabled": 0, "rental_uris": {"android": "https://dc.lft.to/lastmile_qr_scan", "ios": "https://dc.lft.to/lastmile_qr_scan"}, "fusion_lon": 0.0, "lat": 38.918761333333336, "bike_id": "31ac5e8ab579dd83ba0824c4aaced50c", "type": "electric_scooter", "is_reserved": 0, "lon": -77.0349175}, {"fusion_lat": 0.0, "name": "4b7cd889dd70b53fb381c253a82436b1", "is_disabled": 0, "rental_uris": {"android": "https://dc.lft.to/lastmile_qr_scan", "ios": "https://dc.lft.to/lastmile_qr_scan"}, "fusion_lon": 0.0, "lat": 38.91800333333333, "bike_id": "4b7cd889dd70b53fb381c253a82436b1", "type": "electric_scooter", "is_reserved": 0, "lon": -77.02713}, {"fusion_lat": 0.0, "name": "093b2dcf843b3811cd1f1b85887faf1a", "is_disabled": 0, "rental_uris": {"android": "https://dc.lft.to/lastmile_qr_scan", "ios": "https://dc.lft.to/lastmile_qr_scan"}, "fusion_lon": 0.0, "lat": 38.88036066666667, "bike_id": "093b2dcf843b3811cd1f1b85887faf1a", "type": "electric_scooter", "is_reserved": 0, "lon": -77.01319483333333}, {"fusion_lat": 0.0, "name": "bed537b9eaa914fe630c98a1c8e71d11", "is_disabled": 0, "rental_uris": {"android": "https://dc.lft.to/lastmile_qr_scan", "ios": "https://dc.lft.to/lastmile_qr_scan"}, "fusion_lon": 0.0, "lat": 38.90133316666667, "bike_id": "bed537b9eaa914fe630c98a1c8e71d11", "type": "electric_scooter", "is_reserved": 0, "lon": -77.021836}, {"fusion_lat": 0.0, "name": "7301688078a82beb03e5267a291543c1", "is_disabled": 0, "rental_uris": {"android": "https://dc.lft.to/lastmile_qr_scan", "ios": "https://dc.lft.to/lastmile_qr_scan"}, "fusion_lon": 0.0, "lat": 38.885782166666665, "bike_id": "7301688078a82beb03e5267a291543c1", "type": "electric_scooter", "is_reserved": 0, "lon": -77.01213333333334}, {"fusion_lat": 0.0, "name": "fa00f6d9ed073f695ab77e83dd3701a2", "is_disabled": 0, "rental_uris": {"android": "https://dc.lft.to/lastmile_qr_scan", "ios": "https://dc.lft.to/lastmile_qr_scan"}, "fusion_lon": 0.0, "lat": 38.921142333333336, "bike_id": "fa00f6d9ed073f695ab77e83dd3701a2", "type": "electric_scooter", "is_reserved": 0, "lon": -77.046906}, {"fusion_lat": 0.0, "name": "d6274e62e13ba2f0838a4c4905d3219e", "is_disabled": 0, "rental_uris": {"android": "https://dc.lft.to/lastmile_qr_scan", "ios": "https://dc.lft.to/lastmile_qr_scan"}, "fusion_lon": 0.0, "lat": 38.90772116666667, "bike_id": "d6274e62e13ba2f0838a4c4905d3219e", "type": "electric_scooter", "is_reserved": 0, "lon": -77.03188783333333}, {"fusion_lat": 0.0, "name": "8101a265e59bd14f74aafbfadd84f422", "is_disabled": 0, "rental_uris": {"android": "https://dc.lft.to/lastmile_qr_scan", "ios": "https://dc.lft.to/lastmile_qr_scan"}, "fusion_lon": 0.0, "lat": 38.944312, "bike_id": "8101a265e59bd14f74aafbfadd84f422", "type": "electric_bike", "is_reserved": 0, "lon": -77.026026}, {"fusion_lat": 0.0, "name": "29705bb1dfca5a6dfbf00ca35775925c", "is_disabled": 0, "rental_uris": {"android": "https://dc.lft.to/lastmile_qr_scan", "ios": "https://dc.lft.to/lastmile_qr_scan"}, "fusion_lon": 0.0, "lat": 38.9060355, "bike_id": "29705bb1dfca5a6dfbf00ca35775925c", "type": "electric_scooter", "is_reserved": 0, "lon": -77.06477316666667}, {"fusion_lat": 0.0, "name": "9c553fb9039e2fbc9541e413fb0da968", "is_disabled": 0, "rental_uris": {"android": "https://dc.lft.to/lastmile_qr_scan", "ios": "https://dc.lft.to/lastmile_qr_scan"}, "fusion_lon": 0.0, "lat": 38.926783666666665, "bike_id": "9c553fb9039e2fbc9541e413fb0da968", "type": "electric_scooter", "is_reserved": 0, "lon": -77.03053116666666}, {"fusion_lat": 0.0, "name": "e9976ca4181c40dccd082b3a5ec9b0aa", "is_disabled": 0, "rental_uris": {"android": "https://dc.lft.to/lastmile_qr_scan", "ios": "https://dc.lft.to/lastmile_qr_scan"}, "fusion_lon": 0.0, "lat": 38.8908645, "bike_id": "e9976ca4181c40dccd082b3a5ec9b0aa", "type": "electric_scooter", "is_reserved": 0, "lon": -76.91930833333333}, {"fusion_lat": 0.0, "name": "77ab788a776bcf0707fbc71696243501", "is_disabled": 0, "rental_uris": {"android": "https://dc.lft.to/lastmile_qr_scan", "ios": "https://dc.lft.to/lastmile_qr_scan"}, "fusion_lon": 0.0, "lat": 38.916858, "bike_id": "77ab788a776bcf0707fbc71696243501", "type": "electric_scooter", "is_reserved": 0, "lon": -77.03765816666667}, {"fusion_lat": 0.0, "name": "7c36336492aa52a7cbb0432d0a30d4d2", "is_disabled": 0, "rental_uris": {"android": "https://dc.lft.to/lastmile_qr_scan", "ios": "https://dc.lft.to/lastmile_qr_scan"}, "fusion_lon": 0.0, "lat": 38.88744716666667, "bike_id": "7c36336492aa52a7cbb0432d0a30d4d2", "type": "electric_scooter", "is_reserved": 0, "lon": -77.03155033333333}, {"fusion_lat": 0.0, "name": "2c346d67f3f425fe6c2189d978be6917", "is_disabled": 0, "rental_uris": {"android": "https://dc.lft.to/lastmile_qr_scan", "ios": "https://dc.lft.to/lastmile_qr_scan"}, "fusion_lon": 0.0, "lat": 38.935943, "bike_id": "2c346d67f3f425fe6c2189d978be6917", "type": "electric_scooter", "is_reserved": 0, "lon": -77.02298966666666}, {"fusion_lat": 0.0, "name": "77af337991cf6b0b0965ed41c0ed72e2", "is_disabled": 0, "rental_uris": {"android": "https://dc.lft.to/lastmile_qr_scan", "ios": "https://dc.lft.to/lastmile_qr_scan"}, "fusion_lon": 0.0, "lat": 38.894891666666666, "bike_id": "77af337991cf6b0b0965ed41c0ed72e2", "type": "electric_scooter", "is_reserved": 0, "lon": -77.02161416666667}, {"fusion_lat": 0.0, "name": "df611a048dca6847e635e04a1251d3ed", "is_disabled": 0, "rental_uris": {"android": "https://dc.lft.to/lastmile_qr_scan", "ios": "https://dc.lft.to/lastmile_qr_scan"}, "fusion_lon": 0.0, "lat": 38.918004, "bike_id": "df611a048dca6847e635e04a1251d3ed", "type": "electric_scooter", "is_reserved": 0, "lon": -77.03300566666667}, {"fusion_lat": 0.0, "name": "b4016b0fac9fc9e032d4d7cc61f60299", "is_disabled": 0, "rental_uris": {"android": "https://dc.lft.to/lastmile_qr_scan", "ios": "https://dc.lft.to/lastmile_qr_scan"}, "fusion_lon": 0.0, "lat": 38.790218333333335, "bike_id": "b4016b0fac9fc9e032d4d7cc61f60299", "type": "electric_bike", "is_reserved": 0, "lon": -77.0154565}, {"fusion_lat": 0.0, "name": "b84a0256b9e422892b3ef77f7400de31", "is_disabled": 0, "rental_uris": {"android": "https://dc.lft.to/lastmile_qr_scan", "ios": "https://dc.lft.to/lastmile_qr_scan"}, "fusion_lon": 0.0, "lat": 38.919366333333336, "bike_id": "b84a0256b9e422892b3ef77f7400de31", "type": "electric_scooter", "is_reserved": 0, "lon": -77.07064}, {"fusion_lat": 0.0, "name": "7457ec2974b825a6a18734097bc615dd", "is_disabled": 0, "rental_uris": {"android": "https://dc.lft.to/lastmile_qr_scan", "ios": "https://dc.lft.to/lastmile_qr_scan"}, "fusion_lon": 0.0, "lat": 38.91476266666667, "bike_id": "7457ec2974b825a6a18734097bc615dd", "type": "electric_scooter", "is_reserved": 0, "lon": -77.04640066666667}, {"fusion_lat": 0.0, "name": "66b8e5058c2f8595c5b7a0a418d8d872", "is_disabled": 0, "rental_uris": {"android": "https://dc.lft.to/lastmile_qr_scan", "ios": "https://dc.lft.to/lastmile_qr_scan"}, "fusion_lon": 0.0, "lat": 38.904712, "bike_id": "66b8e5058c2f8595c5b7a0a418d8d872", "type": "electric_scooter", "is_reserved": 0, "lon": -77.05686066666667}, {"fusion_lat": 0.0, "name": "3340e909cace6cb2ec10cc55bccf75f8", "is_disabled": 0, "rental_uris": {"android": "https://dc.lft.to/lastmile_qr_scan", "ios": "https://dc.lft.to/lastmile_qr_scan"}, "fusion_lon": 0.0, "lat": 38.903621666666666, "bike_id": "3340e909cace6cb2ec10cc55bccf75f8", "type": "electric_scooter", "is_reserved": 0, "lon": -77.044965}, {"fusion_lat": 0.0, "name": "87a10e7823013d015f6446dc6d5e2d2a", "is_disabled": 0, "rental_uris": {"android": "https://dc.lft.to/lastmile_qr_scan", "ios": "https://dc.lft.to/lastmile_qr_scan"}, "fusion_lon": 0.0, "lat": 38.895240666666666, "bike_id": "87a10e7823013d015f6446dc6d5e2d2a", "type": "electric_scooter", "is_reserved": 0, "lon": -76.93411016666667}, {"fusion_lat": 0.0, "name": "4d933bca5b5e07c6075242284572fe85", "is_disabled": 0, "rental_uris": {"android": "https://dc.lft.to/lastmile_qr_scan", "ios": "https://dc.lft.to/lastmile_qr_scan"}, "fusion_lon": 0.0, "lat": 38.909763833333336, "bike_id": "4d933bca5b5e07c6075242284572fe85", "type": "electric_scooter", "is_reserved": 0, "lon": -77.0343765}, {"fusion_lat": 0.0, "name": "4b248b2a9a0c4130d465649e4e93094a", "is_disabled": 0, "rental_uris": {"android": "https://dc.lft.to/lastmile_qr_scan", "ios": "https://dc.lft.to/lastmile_qr_scan"}, "fusion_lon": 0.0, "lat": 38.907181, "bike_id": "4b248b2a9a0c4130d465649e4e93094a", "type": "electric_scooter", "is_reserved": 0, "lon": -77.047325}, {"fusion_lat": 0.0, "name": "97b300a92a4cc1e2d7e96958dd1447fa", "is_disabled": 0, "rental_uris": {"android": "https://dc.lft.to/lastmile_qr_scan", "ios": "https://dc.lft.to/lastmile_qr_scan"}, "fusion_lon": 0.0, "lat": 38.9228675, "bike_id": "97b300a92a4cc1e2d7e96958dd1447fa", "type": "electric_scooter", "is_reserved": 0, "lon": -77.02527416666666}, {"fusion_lat": 0.0, "name": "1b1b6b63dade6a1b7d6c62442f68b522", "is_disabled": 0, "rental_uris": {"android": "https://dc.lft.to/lastmile_qr_scan", "ios": "https://dc.lft.to/lastmile_qr_scan"}, "fusion_lon": 0.0, "lat": 38.90146383333333, "bike_id": "1b1b6b63dade6a1b7d6c62442f68b522", "type": "electric_scooter", "is_reserved": 0, "lon": -77.025421}, {"fusion_lat": 0.0, "name": "ac87852b9868856d6d3312942c5e360b", "is_disabled": 0, "rental_uris": {"android": "https://dc.lft.to/lastmile_qr_scan", "ios": "https://dc.lft.to/lastmile_qr_scan"}, "fusion_lon": 0.0, "lat": 38.878930833333335, "bike_id": "ac87852b9868856d6d3312942c5e360b", "type": "electric_scooter", "is_reserved": 0, "lon": -77.0136275}, {"fusion_lat": 0.0, "name": "b3f0047c70e5801db8572970e2bfc72d", "is_disabled": 0, "rental_uris": {"android": "https://dc.lft.to/lastmile_qr_scan", "ios": "https://dc.lft.to/lastmile_qr_scan"}, "fusion_lon": 0.0, "lat": 38.924726666666665, "bike_id": "b3f0047c70e5801db8572970e2bfc72d", "type": "electric_scooter", "is_reserved": 0, "lon": -77.0207335}, {"fusion_lat": 0.0, "name": "76cb48498ba5b30a8f707342f05cb7e6", "is_disabled": 0, "rental_uris": {"android": "https://dc.lft.to/lastmile_qr_scan", "ios": "https://dc.lft.to/lastmile_qr_scan"}, "fusion_lon": 0.0, "lat": 38.89214966666667, "bike_id": "76cb48498ba5b30a8f707342f05cb7e6", "type": "electric_scooter", "is_reserved": 0, "lon": -77.032182}, {"fusion_lat": 0.0, "name": "83115d98e001f2fc85007ea59deb153b", "is_disabled": 0, "rental_uris": {"android": "https://dc.lft.to/lastmile_qr_scan", "ios": "https://dc.lft.to/lastmile_qr_scan"}, "fusion_lon": 0.0, "lat": 38.900826333333335, "bike_id": "83115d98e001f2fc85007ea59deb153b", "type": "electric_scooter", "is_reserved": 0, "lon": -77.04963233333334}, {"fusion_lat": 0.0, "name": "7156b100bf0379e9b4d23f0f568c0fe5", "is_disabled": 0, "rental_uris": {"android": "https://dc.lft.to/lastmile_qr_scan", "ios": "https://dc.lft.to/lastmile_qr_scan"}, "fusion_lon": 0.0, "lat": 38.90681333333333, "bike_id": "7156b100bf0379e9b4d23f0f568c0fe5", "type": "electric_scooter", "is_reserved": 0, "lon": -77.02185083333333}, {"fusion_lat": 0.0, "name": "d2fedd577ed354ec4d87cd798b97ea6f", "is_disabled": 0, "rental_uris": {"android": "https://dc.lft.to/lastmile_qr_scan", "ios": "https://dc.lft.to/lastmile_qr_scan"}, "fusion_lon": 0.0, "lat": 38.93523866666666, "bike_id": "d2fedd577ed354ec4d87cd798b97ea6f", "type": "electric_scooter", "is_reserved": 0, "lon": -77.02845766666667}, {"fusion_lat": 0.0, "name": "7be4646a2aa296afcce016c6fdb04a18", "is_disabled": 0, "rental_uris": {"android": "https://dc.lft.to/lastmile_qr_scan", "ios": "https://dc.lft.to/lastmile_qr_scan"}, "fusion_lon": 0.0, "lat": 38.90721116666667, "bike_id": "7be4646a2aa296afcce016c6fdb04a18", "type": "electric_scooter", "is_reserved": 0, "lon": -77.047628}, {"fusion_lat": 0.0, "name": "63bbcfb287cf6635c947988c5b48102b", "is_disabled": 0, "rental_uris": {"android": "https://dc.lft.to/lastmile_qr_scan", "ios": "https://dc.lft.to/lastmile_qr_scan"}, "fusion_lon": 0.0, "lat": 38.891928166666666, "bike_id": "63bbcfb287cf6635c947988c5b48102b", "type": "electric_scooter", "is_reserved": 0, "lon": -77.02228083333334}, {"fusion_lat": 0.0, "name": "8b0899718980346cfe36a2d2896fa988", "is_disabled": 0, "rental_uris": {"android": "https://dc.lft.to/lastmile_qr_scan", "ios": "https://dc.lft.to/lastmile_qr_scan"}, "fusion_lon": 0.0, "lat": 38.938969666666665, "bike_id": "8b0899718980346cfe36a2d2896fa988", "type": "electric_scooter", "is_reserved": 0, "lon": -77.03265016666667}, {"fusion_lat": 0.0, "name": "86f0e2bec12536f3234a56620d655ff5", "is_disabled": 0, "rental_uris": {"android": "https://dc.lft.to/lastmile_qr_scan", "ios": "https://dc.lft.to/lastmile_qr_scan"}, "fusion_lon": 0.0, "lat": 38.9259785, "bike_id": "86f0e2bec12536f3234a56620d655ff5", "type": "electric_scooter", "is_reserved": 0, "lon": -77.021551}, {"fusion_lat": 0.0, "name": "83345dda6ce05f05b7196d94eb7a9752", "is_disabled": 0, "rental_uris": {"android": "https://dc.lft.to/lastmile_qr_scan", "ios": "https://dc.lft.to/lastmile_qr_scan"}, "fusion_lon": 0.0, "lat": 38.92869783333333, "bike_id": "83345dda6ce05f05b7196d94eb7a9752", "type": "electric_scooter", "is_reserved": 0, "lon": -77.03502716666667}, {"fusion_lat": 0.0, "name": "a229e52bf4963889d2c0200682963571", "is_disabled": 0, "rental_uris": {"android": "https://dc.lft.to/lastmile_qr_scan", "ios": "https://dc.lft.to/lastmile_qr_scan"}, "fusion_lon": 0.0, "lat": 38.9056075, "bike_id": "a229e52bf4963889d2c0200682963571", "type": "electric_scooter", "is_reserved": 0, "lon": -77.004844}, {"fusion_lat": 0.0, "name": "502530d3032133599fba7b4a6ef2a7c1", "is_disabled": 0, "rental_uris": {"android": "https://dc.lft.to/lastmile_qr_scan", "ios": "https://dc.lft.to/lastmile_qr_scan"}, "fusion_lon": 0.0, "lat": 38.892201166666666, "bike_id": "502530d3032133599fba7b4a6ef2a7c1", "type": "electric_scooter", "is_reserved": 0, "lon": -77.04199016666666}, {"fusion_lat": 0.0, "name": "b4f0fb7c17c94478837431508e209d7d", "is_disabled": 0, "rental_uris": {"android": "https://dc.lft.to/lastmile_qr_scan", "ios": "https://dc.lft.to/lastmile_qr_scan"}, "fusion_lon": 0.0, "lat": 38.94461483333333, "bike_id": "b4f0fb7c17c94478837431508e209d7d", "type": "electric_scooter", "is_reserved": 0, "lon": -77.00659183333333}, {"fusion_lat": 0.0, "name": "1713cd02247d6b4db63de333be3365d8", "is_disabled": 0, "rental_uris": {"android": "https://dc.lft.to/lastmile_qr_scan", "ios": "https://dc.lft.to/lastmile_qr_scan"}, "fusion_lon": 0.0, "lat": 38.923527166666666, "bike_id": "1713cd02247d6b4db63de333be3365d8", "type": "electric_scooter", "is_reserved": 0, "lon": -77.04383916666667}, {"fusion_lat": 0.0, "name": "fc2bafaa28d18d5dd05355564f19caf1", "is_disabled": 0, "rental_uris": {"android": "https://dc.lft.to/lastmile_qr_scan", "ios": "https://dc.lft.to/lastmile_qr_scan"}, "fusion_lon": 0.0, "lat": 38.8922305, "bike_id": "fc2bafaa28d18d5dd05355564f19caf1", "type": "electric_scooter", "is_reserved": 0, "lon": -77.04507733333334}, {"fusion_lat": 0.0, "name": "ebece033d573a5edb0d9dd099fbf1798", "is_disabled": 0, "rental_uris": {"android": "https://dc.lft.to/lastmile_qr_scan", "ios": "https://dc.lft.to/lastmile_qr_scan"}, "fusion_lon": 0.0, "lat": 38.8746725, "bike_id": "ebece033d573a5edb0d9dd099fbf1798", "type": "electric_scooter", "is_reserved": 0, "lon": -77.0189515}, {"fusion_lat": 0.0, "name": "03313dba62743ba32e6faedb0797fb40", "is_disabled": 0, "rental_uris": {"android": "https://dc.lft.to/lastmile_qr_scan", "ios": "https://dc.lft.to/lastmile_qr_scan"}, "fusion_lon": 0.0, "lat": 38.8991325, "bike_id": "03313dba62743ba32e6faedb0797fb40", "type": "electric_scooter", "is_reserved": 0, "lon": -76.94547283333333}, {"fusion_lat": 0.0, "name": "a83c9d510448eb423340aab8c6e80518", "is_disabled": 0, "rental_uris": {"android": "https://dc.lft.to/lastmile_qr_scan", "ios": "https://dc.lft.to/lastmile_qr_scan"}, "fusion_lon": 0.0, "lat": 38.824552833333335, "bike_id": "a83c9d510448eb423340aab8c6e80518", "type": "electric_bike", "is_reserved": 0, "lon": -77.00793283333333}, {"fusion_lat": 0.0, "name": "87470fb081ec9f3c8ee64b6e257f66c7", "is_disabled": 0, "rental_uris": {"android": "https://dc.lft.to/lastmile_qr_scan", "ios": "https://dc.lft.to/lastmile_qr_scan"}, "fusion_lon": 0.0, "lat": 38.88765, "bike_id": "87470fb081ec9f3c8ee64b6e257f66c7", "type": "electric_scooter", "is_reserved": 0, "lon": -76.977507}, {"fusion_lat": 0.0, "name": "9e9d5d5042ff2a651576bd25a7a2b896", "is_disabled": 0, "rental_uris": {"android": "https://dc.lft.to/lastmile_qr_scan", "ios": "https://dc.lft.to/lastmile_qr_scan"}, "fusion_lon": 0.0, "lat": 38.9161855, "bike_id": "9e9d5d5042ff2a651576bd25a7a2b896", "type": "electric_scooter", "is_reserved": 0, "lon": -77.03853466666666}, {"fusion_lat": 0.0, "name": "803caaf16580e8f1d82eae3e33dc3251", "is_disabled": 0, "rental_uris": {"android": "https://dc.lft.to/lastmile_qr_scan", "ios": "https://dc.lft.to/lastmile_qr_scan"}, "fusion_lon": 0.0, "lat": 38.9056805, "bike_id": "803caaf16580e8f1d82eae3e33dc3251", "type": "electric_scooter", "is_reserved": 0, "lon": -77.00494566666667}, {"fusion_lat": 0.0, "name": "4b2e204a08b370df5764595caa94e1f6", "is_disabled": 0, "rental_uris": {"android": "https://dc.lft.to/lastmile_qr_scan", "ios": "https://dc.lft.to/lastmile_qr_scan"}, "fusion_lon": 0.0, "lat": 38.892133666666666, "bike_id": "4b2e204a08b370df5764595caa94e1f6", "type": "electric_scooter", "is_reserved": 0, "lon": -77.02411583333334}, {"fusion_lat": 0.0, "name": "2d3f650b054206b93ec58e9135690062", "is_disabled": 0, "rental_uris": {"android": "https://dc.lft.to/lastmile_qr_scan", "ios": "https://dc.lft.to/lastmile_qr_scan"}, "fusion_lon": 0.0, "lat": 38.90391966666667, "bike_id": "2d3f650b054206b93ec58e9135690062", "type": "electric_scooter", "is_reserved": 0, "lon": -77.01836433333334}, {"fusion_lat": 0.0, "name": "af2a3cc4764c8761b62d088ec010ada9", "is_disabled": 0, "rental_uris": {"android": "https://dc.lft.to/lastmile_qr_scan", "ios": "https://dc.lft.to/lastmile_qr_scan"}, "fusion_lon": 0.0, "lat": 38.86620683333334, "bike_id": "af2a3cc4764c8761b62d088ec010ada9", "type": "electric_bike", "is_reserved": 0, "lon": -76.94573233333334}, {"fusion_lat": 0.0, "name": "66180a3080fe667903cfae03903ba7e5", "is_disabled": 0, "rental_uris": {"android": "https://dc.lft.to/lastmile_qr_scan", "ios": "https://dc.lft.to/lastmile_qr_scan"}, "fusion_lon": 0.0, "lat": 38.96123583333333, "bike_id": "66180a3080fe667903cfae03903ba7e5", "type": "electric_bike", "is_reserved": 0, "lon": -77.084974}, {"fusion_lat": 0.0, "name": "e5ff6d695c68e0dcfa827d56948159ad", "is_disabled": 0, "rental_uris": {"android": "https://dc.lft.to/lastmile_qr_scan", "ios": "https://dc.lft.to/lastmile_qr_scan"}, "fusion_lon": 0.0, "lat": 38.90368766666667, "bike_id": "e5ff6d695c68e0dcfa827d56948159ad", "type": "electric_scooter", "is_reserved": 0, "lon": -77.04478133333333}, {"fusion_lat": 0.0, "name": "85b95cc4a0edf9b3b344114570373507", "is_disabled": 0, "rental_uris": {"android": "https://dc.lft.to/lastmile_qr_scan", "ios": "https://dc.lft.to/lastmile_qr_scan"}, "fusion_lon": 0.0, "lat": 38.929640666666664, "bike_id": "85b95cc4a0edf9b3b344114570373507", "type": "electric_scooter", "is_reserved": 0, "lon": -77.031824}, {"fusion_lat": 0.0, "name": "787d8b0bb45c7cc7827eca43e168310d", "is_disabled": 0, "rental_uris": {"android": "https://dc.lft.to/lastmile_qr_scan", "ios": "https://dc.lft.to/lastmile_qr_scan"}, "fusion_lon": 0.0, "lat": 38.9324755, "bike_id": "787d8b0bb45c7cc7827eca43e168310d", "type": "electric_scooter", "is_reserved": 0, "lon": -77.040002}, {"fusion_lat": 0.0, "name": "4eb9759d11774d61be3c7645eed9114c", "is_disabled": 0, "rental_uris": {"android": "https://dc.lft.to/lastmile_qr_scan", "ios": "https://dc.lft.to/lastmile_qr_scan"}, "fusion_lon": 0.0, "lat": 38.87942916666667, "bike_id": "4eb9759d11774d61be3c7645eed9114c", "type": "electric_bike", "is_reserved": 0, "lon": -77.01010366666667}, {"fusion_lat": 0.0, "name": "a27a6a598455ab13f3731f1419201474", "is_disabled": 0, "rental_uris": {"android": "https://dc.lft.to/lastmile_qr_scan", "ios": "https://dc.lft.to/lastmile_qr_scan"}, "fusion_lon": 0.0, "lat": 38.90348616666667, "bike_id": "a27a6a598455ab13f3731f1419201474", "type": "electric_scooter", "is_reserved": 0, "lon": -77.03516783333333}, {"fusion_lat": 0.0, "name": "7452937e03054194e919084de72ff3e7", "is_disabled": 0, "rental_uris": {"android": "https://dc.lft.to/lastmile_qr_scan", "ios": "https://dc.lft.to/lastmile_qr_scan"}, "fusion_lon": 0.0, "lat": 38.92257766666667, "bike_id": "7452937e03054194e919084de72ff3e7", "type": "electric_scooter", "is_reserved": 0, "lon": -77.07485733333333}, {"fusion_lat": 0.0, "name": "d6fe9d223cdf05be808040b54ffc5fbc", "is_disabled": 0, "rental_uris": {"android": "https://dc.lft.to/lastmile_qr_scan", "ios": "https://dc.lft.to/lastmile_qr_scan"}, "fusion_lon": 0.0, "lat": 38.901804166666665, "bike_id": "d6fe9d223cdf05be808040b54ffc5fbc", "type": "electric_scooter", "is_reserved": 0, "lon": -77.04640116666667}, {"fusion_lat": 0.0, "name": "e9b5f772f58111cd007a1837272ab2f0", "is_disabled": 0, "rental_uris": {"android": "https://dc.lft.to/lastmile_qr_scan", "ios": "https://dc.lft.to/lastmile_qr_scan"}, "fusion_lon": 0.0, "lat": 38.9118215, "bike_id": "e9b5f772f58111cd007a1837272ab2f0", "type": "electric_scooter", "is_reserved": 0, "lon": -77.045406}, {"fusion_lat": 0.0, "name": "f1fc08281e9d4d59e280e8f6fb5b53d8", "is_disabled": 0, "rental_uris": {"android": "https://dc.lft.to/lastmile_qr_scan", "ios": "https://dc.lft.to/lastmile_qr_scan"}, "fusion_lon": 0.0, "lat": 38.89892866666667, "bike_id": "f1fc08281e9d4d59e280e8f6fb5b53d8", "type": "electric_scooter", "is_reserved": 0, "lon": -77.01522766666666}, {"fusion_lat": 0.0, "name": "df3017649e060ade1441ba9baee291e7", "is_disabled": 0, "rental_uris": {"android": "https://dc.lft.to/lastmile_qr_scan", "ios": "https://dc.lft.to/lastmile_qr_scan"}, "fusion_lon": 0.0, "lat": 38.94269033333333, "bike_id": "df3017649e060ade1441ba9baee291e7", "type": "electric_bike", "is_reserved": 0, "lon": -76.9945825}, {"fusion_lat": 0.0, "name": "5bd491293b108505d9e85195b4494745", "is_disabled": 0, "rental_uris": {"android": "https://dc.lft.to/lastmile_qr_scan", "ios": "https://dc.lft.to/lastmile_qr_scan"}, "fusion_lon": 0.0, "lat": 38.9049825, "bike_id": "5bd491293b108505d9e85195b4494745", "type": "electric_scooter", "is_reserved": 0, "lon": -77.02590883333333}, {"fusion_lat": 0.0, "name": "b3e6f5b1f61f504abbfa968c94d786f5", "is_disabled": 0, "rental_uris": {"android": "https://dc.lft.to/lastmile_qr_scan", "ios": "https://dc.lft.to/lastmile_qr_scan"}, "fusion_lon": 0.0, "lat": 38.938692, "bike_id": "b3e6f5b1f61f504abbfa968c94d786f5", "type": "electric_scooter", "is_reserved": 0, "lon": -77.032238}, {"fusion_lat": 0.0, "name": "f46941681c80fe80b6f0adebf56afb17", "is_disabled": 0, "rental_uris": {"android": "https://dc.lft.to/lastmile_qr_scan", "ios": "https://dc.lft.to/lastmile_qr_scan"}, "fusion_lon": 0.0, "lat": 38.845027, "bike_id": "f46941681c80fe80b6f0adebf56afb17", "type": "electric_bike", "is_reserved": 0, "lon": -76.99354666666666}, {"fusion_lat": 0.0, "name": "b85aea0b6a9ab52d74d6d5cfba8c3389", "is_disabled": 0, "rental_uris": {"android": "https://dc.lft.to/lastmile_qr_scan", "ios": "https://dc.lft.to/lastmile_qr_scan"}, "fusion_lon": 0.0, "lat": 38.932156, "bike_id": "b85aea0b6a9ab52d74d6d5cfba8c3389", "type": "electric_scooter", "is_reserved": 0, "lon": -77.04408316666667}, {"fusion_lat": 0.0, "name": "8b3690fe459b4b60efe5407666d450bf", "is_disabled": 0, "rental_uris": {"android": "https://dc.lft.to/lastmile_qr_scan", "ios": "https://dc.lft.to/lastmile_qr_scan"}, "fusion_lon": 0.0, "lat": 38.916784, "bike_id": "8b3690fe459b4b60efe5407666d450bf", "type": "electric_scooter", "is_reserved": 0, "lon": -77.02942966666667}, {"fusion_lat": 0.0, "name": "291615d024e7a70be842429e969d807e", "is_disabled": 0, "rental_uris": {"android": "https://dc.lft.to/lastmile_qr_scan", "ios": "https://dc.lft.to/lastmile_qr_scan"}, "fusion_lon": 0.0, "lat": 38.899680000000004, "bike_id": "291615d024e7a70be842429e969d807e", "type": "electric_scooter", "is_reserved": 0, "lon": -77.04042916666667}, {"fusion_lat": 0.0, "name": "99a37b11e42d52bde18f63ecbb98d164", "is_disabled": 0, "rental_uris": {"android": "https://dc.lft.to/lastmile_qr_scan", "ios": "https://dc.lft.to/lastmile_qr_scan"}, "fusion_lon": 0.0, "lat": 38.908136, "bike_id": "99a37b11e42d52bde18f63ecbb98d164", "type": "electric_scooter", "is_reserved": 0, "lon": -77.0433235}, {"fusion_lat": 0.0, "name": "cf9b2574bd0d024cf0e4d057b9c5652c", "is_disabled": 0, "rental_uris": {"android": "https://dc.lft.to/lastmile_qr_scan", "ios": "https://dc.lft.to/lastmile_qr_scan"}, "fusion_lon": 0.0, "lat": 38.92315, "bike_id": "cf9b2574bd0d024cf0e4d057b9c5652c", "type": "electric_scooter", "is_reserved": 0, "lon": -77.04366883333333}, {"fusion_lat": 0.0, "name": "359290903c003a9003c1c315d3f1203b", "is_disabled": 0, "rental_uris": {"android": "https://dc.lft.to/lastmile_qr_scan", "ios": "https://dc.lft.to/lastmile_qr_scan"}, "fusion_lon": 0.0, "lat": 38.91118183333333, "bike_id": "359290903c003a9003c1c315d3f1203b", "type": "electric_scooter", "is_reserved": 0, "lon": -77.032535}, {"fusion_lat": 0.0, "name": "76cb5e7e6d44b8ddc0ebdfbc5f13b9b7", "is_disabled": 0, "rental_uris": {"android": "https://dc.lft.to/lastmile_qr_scan", "ios": "https://dc.lft.to/lastmile_qr_scan"}, "fusion_lon": 0.0, "lat": 38.89554316666667, "bike_id": "76cb5e7e6d44b8ddc0ebdfbc5f13b9b7", "type": "electric_scooter", "is_reserved": 0, "lon": -76.9984035}, {"fusion_lat": 0.0, "name": "66f8bbd6d4dc55d26390837d36a6f435", "is_disabled": 0, "rental_uris": {"android": "https://dc.lft.to/lastmile_qr_scan", "ios": "https://dc.lft.to/lastmile_qr_scan"}, "fusion_lon": 0.0, "lat": 38.919013666666665, "bike_id": "66f8bbd6d4dc55d26390837d36a6f435", "type": "electric_scooter", "is_reserved": 0, "lon": -77.0144765}, {"fusion_lat": 0.0, "name": "a43afac8fa9b3cf371720b9789670148", "is_disabled": 0, "rental_uris": {"android": "https://dc.lft.to/lastmile_qr_scan", "ios": "https://dc.lft.to/lastmile_qr_scan"}, "fusion_lon": 0.0, "lat": 38.93581916666667, "bike_id": "a43afac8fa9b3cf371720b9789670148", "type": "electric_scooter", "is_reserved": 0, "lon": -77.02847}, {"fusion_lat": 0.0, "name": "8f83255f13ce10d7fa6051ec391da364", "is_disabled": 0, "rental_uris": {"android": "https://dc.lft.to/lastmile_qr_scan", "ios": "https://dc.lft.to/lastmile_qr_scan"}, "fusion_lon": 0.0, "lat": 38.9170345, "bike_id": "8f83255f13ce10d7fa6051ec391da364", "type": "electric_scooter", "is_reserved": 0, "lon": -77.03107516666667}, {"fusion_lat": 0.0, "name": "8732787f822cd6d7b1633d399c69deb5", "is_disabled": 0, "rental_uris": {"android": "https://dc.lft.to/lastmile_qr_scan", "ios": "https://dc.lft.to/lastmile_qr_scan"}, "fusion_lon": 0.0, "lat": 38.92125083333333, "bike_id": "8732787f822cd6d7b1633d399c69deb5", "type": "electric_scooter", "is_reserved": 0, "lon": -77.01795216666666}, {"fusion_lat": 0.0, "name": "eceec1fd32c351657e4398d47095ec7a", "is_disabled": 0, "rental_uris": {"android": "https://dc.lft.to/lastmile_qr_scan", "ios": "https://dc.lft.to/lastmile_qr_scan"}, "fusion_lon": 0.0, "lat": 38.908690166666666, "bike_id": "eceec1fd32c351657e4398d47095ec7a", "type": "electric_scooter", "is_reserved": 0, "lon": -77.0091925}, {"fusion_lat": 0.0, "name": "e3b3151c9d1def0bacf3ee247af56ab0", "is_disabled": 0, "rental_uris": {"android": "https://dc.lft.to/lastmile_qr_scan", "ios": "https://dc.lft.to/lastmile_qr_scan"}, "fusion_lon": 0.0, "lat": 38.9087895, "bike_id": "e3b3151c9d1def0bacf3ee247af56ab0", "type": "electric_scooter", "is_reserved": 0, "lon": -77.02123833333333}, {"fusion_lat": 0.0, "name": "75713e1f36080bdbc9bfb5b8d1a2018e", "is_disabled": 0, "rental_uris": {"android": "https://dc.lft.to/lastmile_qr_scan", "ios": "https://dc.lft.to/lastmile_qr_scan"}, "fusion_lon": 0.0, "lat": 38.90949883333333, "bike_id": "75713e1f36080bdbc9bfb5b8d1a2018e", "type": "electric_scooter", "is_reserved": 0, "lon": -77.0271685}, {"fusion_lat": 0.0, "name": "48d2251f9f84af9adad18e58736637f5", "is_disabled": 0, "rental_uris": {"android": "https://dc.lft.to/lastmile_qr_scan", "ios": "https://dc.lft.to/lastmile_qr_scan"}, "fusion_lon": 0.0, "lat": 38.876627666666664, "bike_id": "48d2251f9f84af9adad18e58736637f5", "type": "electric_scooter", "is_reserved": 0, "lon": -77.00120433333333}, {"fusion_lat": 0.0, "name": "ed2165ddaa79897758e9c26f281bbc37", "is_disabled": 0, "rental_uris": {"android": "https://dc.lft.to/lastmile_qr_scan", "ios": "https://dc.lft.to/lastmile_qr_scan"}, "fusion_lon": 0.0, "lat": 38.8951965, "bike_id": "ed2165ddaa79897758e9c26f281bbc37", "type": "electric_scooter", "is_reserved": 0, "lon": -77.0273545}, {"fusion_lat": 0.0, "name": "8ad22090f5815e288a7771a9873de0ee", "is_disabled": 0, "rental_uris": {"android": "https://dc.lft.to/lastmile_qr_scan", "ios": "https://dc.lft.to/lastmile_qr_scan"}, "fusion_lon": 0.0, "lat": 38.88739666666667, "bike_id": "8ad22090f5815e288a7771a9873de0ee", "type": "electric_scooter", "is_reserved": 0, "lon": -77.02571516666667}, {"fusion_lat": 0.0, "name": "b2d07dfa6ddc408375dbde01f58e28f4", "is_disabled": 0, "rental_uris": {"android": "https://dc.lft.to/lastmile_qr_scan", "ios": "https://dc.lft.to/lastmile_qr_scan"}, "fusion_lon": 0.0, "lat": 38.907981666666664, "bike_id": "b2d07dfa6ddc408375dbde01f58e28f4", "type": "electric_scooter", "is_reserved": 0, "lon": -77.04352016666667}, {"fusion_lat": 0.0, "name": "3fc974aeab7e5256e4b67a7ef1233b7a", "is_disabled": 0, "rental_uris": {"android": "https://dc.lft.to/lastmile_qr_scan", "ios": "https://dc.lft.to/lastmile_qr_scan"}, "fusion_lon": 0.0, "lat": 38.91955733333333, "bike_id": "3fc974aeab7e5256e4b67a7ef1233b7a", "type": "electric_bike", "is_reserved": 0, "lon": -77.10108083333333}, {"fusion_lat": 0.0, "name": "df9b11cbe9c4dee81be2a1ebfeeba922", "is_disabled": 0, "rental_uris": {"android": "https://dc.lft.to/lastmile_qr_scan", "ios": "https://dc.lft.to/lastmile_qr_scan"}, "fusion_lon": 0.0, "lat": 38.917070833333334, "bike_id": "df9b11cbe9c4dee81be2a1ebfeeba922", "type": "electric_scooter", "is_reserved": 0, "lon": -77.00868633333333}, {"fusion_lat": 0.0, "name": "650d4e2a900b718856f4bce86bfdb779", "is_disabled": 0, "rental_uris": {"android": "https://dc.lft.to/lastmile_qr_scan", "ios": "https://dc.lft.to/lastmile_qr_scan"}, "fusion_lon": 0.0, "lat": 38.941654, "bike_id": "650d4e2a900b718856f4bce86bfdb779", "type": "electric_bike", "is_reserved": 0, "lon": -76.96648516666667}, {"fusion_lat": 0.0, "name": "c7d5d7a930433db4b486f5a5dff7b4e7", "is_disabled": 0, "rental_uris": {"android": "https://dc.lft.to/lastmile_qr_scan", "ios": "https://dc.lft.to/lastmile_qr_scan"}, "fusion_lon": 0.0, "lat": 38.88505633333333, "bike_id": "c7d5d7a930433db4b486f5a5dff7b4e7", "type": "electric_scooter", "is_reserved": 0, "lon": -76.9976295}, {"fusion_lat": 0.0, "name": "2f32c767ef1149f35d5c789262b0d291", "is_disabled": 0, "rental_uris": {"android": "https://dc.lft.to/lastmile_qr_scan", "ios": "https://dc.lft.to/lastmile_qr_scan"}, "fusion_lon": 0.0, "lat": 38.90715983333333, "bike_id": "2f32c767ef1149f35d5c789262b0d291", "type": "electric_scooter", "is_reserved": 0, "lon": -77.02503466666667}, {"fusion_lat": 0.0, "name": "773189369a822e264de665d94b4faad5", "is_disabled": 0, "rental_uris": {"android": "https://dc.lft.to/lastmile_qr_scan", "ios": "https://dc.lft.to/lastmile_qr_scan"}, "fusion_lon": 0.0, "lat": 38.9415295, "bike_id": "773189369a822e264de665d94b4faad5", "type": "electric_bike", "is_reserved": 0, "lon": -77.00192866666667}, {"fusion_lat": 0.0, "name": "2087a3aafdbbe71e38a51ce005ca5510", "is_disabled": 0, "rental_uris": {"android": "https://dc.lft.to/lastmile_qr_scan", "ios": "https://dc.lft.to/lastmile_qr_scan"}, "fusion_lon": 0.0, "lat": 38.9296755, "bike_id": "2087a3aafdbbe71e38a51ce005ca5510", "type": "electric_scooter", "is_reserved": 0, "lon": -77.031444}, {"fusion_lat": 0.0, "name": "8e221b6f43e2f30d5c90e215cf80b1b8", "is_disabled": 0, "rental_uris": {"android": "https://dc.lft.to/lastmile_qr_scan", "ios": "https://dc.lft.to/lastmile_qr_scan"}, "fusion_lon": 0.0, "lat": 38.987819333333334, "bike_id": "8e221b6f43e2f30d5c90e215cf80b1b8", "type": "electric_bike", "is_reserved": 0, "lon": -77.140924}, {"fusion_lat": 0.0, "name": "5d39ced0755ef4b8cdd8c075d49be0c3", "is_disabled": 0, "rental_uris": {"android": "https://dc.lft.to/lastmile_qr_scan", "ios": "https://dc.lft.to/lastmile_qr_scan"}, "fusion_lon": 0.0, "lat": 38.902226666666664, "bike_id": "5d39ced0755ef4b8cdd8c075d49be0c3", "type": "electric_scooter", "is_reserved": 0, "lon": -77.059915}, {"fusion_lat": 0.0, "name": "2c06833b040249e8724664262606b0cf", "is_disabled": 0, "rental_uris": {"android": "https://dc.lft.to/lastmile_qr_scan", "ios": "https://dc.lft.to/lastmile_qr_scan"}, "fusion_lon": 0.0, "lat": 38.89217333333333, "bike_id": "2c06833b040249e8724664262606b0cf", "type": "electric_scooter", "is_reserved": 0, "lon": -77.02414766666666}, {"fusion_lat": 0.0, "name": "cd0440286a679b50605367a8136fd995", "is_disabled": 0, "rental_uris": {"android": "https://dc.lft.to/lastmile_qr_scan", "ios": "https://dc.lft.to/lastmile_qr_scan"}, "fusion_lon": 0.0, "lat": 38.89106233333333, "bike_id": "cd0440286a679b50605367a8136fd995", "type": "electric_scooter", "is_reserved": 0, "lon": -76.94382183333333}, {"fusion_lat": 0.0, "name": "7dff2280ef6c369308c49a520d84a726", "is_disabled": 0, "rental_uris": {"android": "https://dc.lft.to/lastmile_qr_scan", "ios": "https://dc.lft.to/lastmile_qr_scan"}, "fusion_lon": 0.0, "lat": 38.911060666666664, "bike_id": "7dff2280ef6c369308c49a520d84a726", "type": "electric_scooter", "is_reserved": 0, "lon": -77.03617816666667}, {"fusion_lat": 0.0, "name": "3c34cf1f7b909f63a0008d1b427be2c8", "is_disabled": 0, "rental_uris": {"android": "https://dc.lft.to/lastmile_qr_scan", "ios": "https://dc.lft.to/lastmile_qr_scan"}, "fusion_lon": 0.0, "lat": 38.9111035, "bike_id": "3c34cf1f7b909f63a0008d1b427be2c8", "type": "electric_scooter", "is_reserved": 0, "lon": -77.02922983333333}, {"fusion_lat": 0.0, "name": "f4c149565fbb324e1d4ebfeaa50ef82e", "is_disabled": 0, "rental_uris": {"android": "https://dc.lft.to/lastmile_qr_scan", "ios": "https://dc.lft.to/lastmile_qr_scan"}, "fusion_lon": 0.0, "lat": 38.904266, "bike_id": "f4c149565fbb324e1d4ebfeaa50ef82e", "type": "electric_scooter", "is_reserved": 0, "lon": -77.01881366666667}, {"fusion_lat": 0.0, "name": "d3c8318138654b053ac219cd46d23525", "is_disabled": 0, "rental_uris": {"android": "https://dc.lft.to/lastmile_qr_scan", "ios": "https://dc.lft.to/lastmile_qr_scan"}, "fusion_lon": 0.0, "lat": 38.897514666666666, "bike_id": "d3c8318138654b053ac219cd46d23525", "type": "electric_scooter", "is_reserved": 0, "lon": -77.02498066666666}, {"fusion_lat": 0.0, "name": "0f1239a6d72cb93c5f81e20a2378e5a8", "is_disabled": 0, "rental_uris": {"android": "https://dc.lft.to/lastmile_qr_scan", "ios": "https://dc.lft.to/lastmile_qr_scan"}, "fusion_lon": 0.0, "lat": 38.961811, "bike_id": "0f1239a6d72cb93c5f81e20a2378e5a8", "type": "electric_bike", "is_reserved": 0, "lon": -77.052679}, {"fusion_lat": 0.0, "name": "525232e806163c076db08ca7aed4cd87", "is_disabled": 0, "rental_uris": {"android": "https://dc.lft.to/lastmile_qr_scan", "ios": "https://dc.lft.to/lastmile_qr_scan"}, "fusion_lon": 0.0, "lat": 38.924326, "bike_id": "525232e806163c076db08ca7aed4cd87", "type": "electric_scooter", "is_reserved": 0, "lon": -77.04463683333333}, {"fusion_lat": 0.0, "name": "c97e69710821ec70c06811bf3ec9e484", "is_disabled": 0, "rental_uris": {"android": "https://dc.lft.to/lastmile_qr_scan", "ios": "https://dc.lft.to/lastmile_qr_scan"}, "fusion_lon": 0.0, "lat": 38.973756333333334, "bike_id": "c97e69710821ec70c06811bf3ec9e484", "type": "electric_scooter", "is_reserved": 0, "lon": -77.0128395}, {"fusion_lat": 0.0, "name": "333aed952bbee9770ec7ed728c5f63dc", "is_disabled": 0, "rental_uris": {"android": "https://dc.lft.to/lastmile_qr_scan", "ios": "https://dc.lft.to/lastmile_qr_scan"}, "fusion_lon": 0.0, "lat": 38.91192183333333, "bike_id": "333aed952bbee9770ec7ed728c5f63dc", "type": "electric_scooter", "is_reserved": 0, "lon": -77.01197883333333}, {"fusion_lat": 0.0, "name": "666c3fa8824c715ecd02cbf690ae310d", "is_disabled": 0, "rental_uris": {"android": "https://dc.lft.to/lastmile_qr_scan", "ios": "https://dc.lft.to/lastmile_qr_scan"}, "fusion_lon": 0.0, "lat": 38.89609766666667, "bike_id": "666c3fa8824c715ecd02cbf690ae310d", "type": "electric_bike", "is_reserved": 0, "lon": -77.02206616666666}, {"fusion_lat": 0.0, "name": "d751da3578d7612838e08c28bd2e6bd4", "is_disabled": 0, "rental_uris": {"android": "https://dc.lft.to/lastmile_qr_scan", "ios": "https://dc.lft.to/lastmile_qr_scan"}, "fusion_lon": 0.0, "lat": 38.995194833333336, "bike_id": "d751da3578d7612838e08c28bd2e6bd4", "type": "electric_bike", "is_reserved": 0, "lon": -77.02915916666667}, {"fusion_lat": 0.0, "name": "be6a943db0507e96a2b1ef698256c881", "is_disabled": 0, "rental_uris": {"android": "https://dc.lft.to/lastmile_qr_scan", "ios": "https://dc.lft.to/lastmile_qr_scan"}, "fusion_lon": 0.0, "lat": 38.90740783333333, "bike_id": "be6a943db0507e96a2b1ef698256c881", "type": "electric_scooter", "is_reserved": 0, "lon": -76.99821483333334}, {"fusion_lat": 0.0, "name": "a1bdec64f0c838b44ae8b9c0ee2197b5", "is_disabled": 0, "rental_uris": {"android": "https://dc.lft.to/lastmile_qr_scan", "ios": "https://dc.lft.to/lastmile_qr_scan"}, "fusion_lon": 0.0, "lat": 38.91799483333333, "bike_id": "a1bdec64f0c838b44ae8b9c0ee2197b5", "type": "electric_scooter", "is_reserved": 0, "lon": -77.034432}, {"fusion_lat": 0.0, "name": "1aefbb9d387f7e791304ea8cf2d4b07d", "is_disabled": 0, "rental_uris": {"android": "https://dc.lft.to/lastmile_qr_scan", "ios": "https://dc.lft.to/lastmile_qr_scan"}, "fusion_lon": 0.0, "lat": 38.90287816666667, "bike_id": "1aefbb9d387f7e791304ea8cf2d4b07d", "type": "electric_scooter", "is_reserved": 0, "lon": -76.99036366666667}, {"fusion_lat": 0.0, "name": "e67c2c6a46aeb8cab6b89dacd0eca410", "is_disabled": 0, "rental_uris": {"android": "https://dc.lft.to/lastmile_qr_scan", "ios": "https://dc.lft.to/lastmile_qr_scan"}, "fusion_lon": 0.0, "lat": 38.922879, "bike_id": "e67c2c6a46aeb8cab6b89dacd0eca410", "type": "electric_scooter", "is_reserved": 0, "lon": -77.07298}, {"fusion_lat": 0.0, "name": "0801a4d83f3c143433509e7418f5f0fc", "is_disabled": 0, "rental_uris": {"android": "https://dc.lft.to/lastmile_qr_scan", "ios": "https://dc.lft.to/lastmile_qr_scan"}, "fusion_lon": 0.0, "lat": 38.900134333333334, "bike_id": "0801a4d83f3c143433509e7418f5f0fc", "type": "electric_scooter", "is_reserved": 0, "lon": -76.986938}, {"fusion_lat": 0.0, "name": "a301fa7b4392bb3749b7cebd33ca6d48", "is_disabled": 0, "rental_uris": {"android": "https://dc.lft.to/lastmile_qr_scan", "ios": "https://dc.lft.to/lastmile_qr_scan"}, "fusion_lon": 0.0, "lat": 38.9257085, "bike_id": "a301fa7b4392bb3749b7cebd33ca6d48", "type": "electric_scooter", "is_reserved": 0, "lon": -77.0227185}, {"fusion_lat": 0.0, "name": "570529d2c8329fb4e85c0636a73383d1", "is_disabled": 0, "rental_uris": {"android": "https://dc.lft.to/lastmile_qr_scan", "ios": "https://dc.lft.to/lastmile_qr_scan"}, "fusion_lon": 0.0, "lat": 38.935560333333335, "bike_id": "570529d2c8329fb4e85c0636a73383d1", "type": "electric_scooter", "is_reserved": 0, "lon": -77.03463483333333}, {"fusion_lat": 0.0, "name": "3b946a6d88cd2bc18323bc8d9ec50510", "is_disabled": 0, "rental_uris": {"android": "https://dc.lft.to/lastmile_qr_scan", "ios": "https://dc.lft.to/lastmile_qr_scan"}, "fusion_lon": 0.0, "lat": 38.90551, "bike_id": "3b946a6d88cd2bc18323bc8d9ec50510", "type": "electric_scooter", "is_reserved": 0, "lon": -77.03612466666667}, {"fusion_lat": 0.0, "name": "9324cdc489016729727d615ed34a1800", "is_disabled": 0, "rental_uris": {"android": "https://dc.lft.to/lastmile_qr_scan", "ios": "https://dc.lft.to/lastmile_qr_scan"}, "fusion_lon": 0.0, "lat": 39.070519, "bike_id": "9324cdc489016729727d615ed34a1800", "type": "electric_bike", "is_reserved": 0, "lon": -77.11482433333333}, {"fusion_lat": 0.0, "name": "33081a379e4fb918f253d8e445ccfa1f", "is_disabled": 0, "rental_uris": {"android": "https://dc.lft.to/lastmile_qr_scan", "ios": "https://dc.lft.to/lastmile_qr_scan"}, "fusion_lon": 0.0, "lat": 38.887389666666664, "bike_id": "33081a379e4fb918f253d8e445ccfa1f", "type": "electric_scooter", "is_reserved": 0, "lon": -77.02176616666667}, {"fusion_lat": 0.0, "name": "15ab69ae4b06d779fd90ba6e35d1ee78", "is_disabled": 0, "rental_uris": {"android": "https://dc.lft.to/lastmile_qr_scan", "ios": "https://dc.lft.to/lastmile_qr_scan"}, "fusion_lon": 0.0, "lat": 38.935857, "bike_id": "15ab69ae4b06d779fd90ba6e35d1ee78", "type": "electric_scooter", "is_reserved": 0, "lon": -77.023608}, {"fusion_lat": 0.0, "name": "cb48d3e0f920f0cf8cf9d6c5ac519f35", "is_disabled": 0, "rental_uris": {"android": "https://dc.lft.to/lastmile_qr_scan", "ios": "https://dc.lft.to/lastmile_qr_scan"}, "fusion_lon": 0.0, "lat": 38.91107016666667, "bike_id": "cb48d3e0f920f0cf8cf9d6c5ac519f35", "type": "electric_scooter", "is_reserved": 0, "lon": -77.0115265}, {"fusion_lat": 0.0, "name": "4dbf99ddf4f5df460790474a06ff9409", "is_disabled": 0, "rental_uris": {"android": "https://dc.lft.to/lastmile_qr_scan", "ios": "https://dc.lft.to/lastmile_qr_scan"}, "fusion_lon": 0.0, "lat": 38.957057166666665, "bike_id": "4dbf99ddf4f5df460790474a06ff9409", "type": "electric_scooter", "is_reserved": 0, "lon": -77.02400833333333}, {"fusion_lat": 0.0, "name": "42e630f449dc8ef682085807129bb5ee", "is_disabled": 0, "rental_uris": {"android": "https://dc.lft.to/lastmile_qr_scan", "ios": "https://dc.lft.to/lastmile_qr_scan"}, "fusion_lon": 0.0, "lat": 38.929921666666665, "bike_id": "42e630f449dc8ef682085807129bb5ee", "type": "electric_scooter", "is_reserved": 0, "lon": -77.0323225}, {"fusion_lat": 0.0, "name": "7109b2368446efba520591e45960eddb", "is_disabled": 0, "rental_uris": {"android": "https://dc.lft.to/lastmile_qr_scan", "ios": "https://dc.lft.to/lastmile_qr_scan"}, "fusion_lon": 0.0, "lat": 38.94702, "bike_id": "7109b2368446efba520591e45960eddb", "type": "electric_scooter", "is_reserved": 0, "lon": -77.01936966666666}, {"fusion_lat": 0.0, "name": "a3e9d5cce17564466ff54c587aed8006", "is_disabled": 0, "rental_uris": {"android": "https://dc.lft.to/lastmile_qr_scan", "ios": "https://dc.lft.to/lastmile_qr_scan"}, "fusion_lon": 0.0, "lat": 38.90028816666667, "bike_id": "a3e9d5cce17564466ff54c587aed8006", "type": "electric_scooter", "is_reserved": 0, "lon": -76.99137333333333}, {"fusion_lat": 0.0, "name": "7c891bc69242ca9a904799fa00cbf16d", "is_disabled": 0, "rental_uris": {"android": "https://dc.lft.to/lastmile_qr_scan", "ios": "https://dc.lft.to/lastmile_qr_scan"}, "fusion_lon": 0.0, "lat": 38.892179166666665, "bike_id": "7c891bc69242ca9a904799fa00cbf16d", "type": "electric_scooter", "is_reserved": 0, "lon": -77.04509866666666}, {"fusion_lat": 0.0, "name": "1c339a1e7fce5ddf98a83b9e95d50dbd", "is_disabled": 0, "rental_uris": {"android": "https://dc.lft.to/lastmile_qr_scan", "ios": "https://dc.lft.to/lastmile_qr_scan"}, "fusion_lon": 0.0, "lat": 38.9319205, "bike_id": "1c339a1e7fce5ddf98a83b9e95d50dbd", "type": "electric_scooter", "is_reserved": 0, "lon": -77.04299316666666}, {"fusion_lat": 0.0, "name": "1199a17ad3e7f14b5989f2330af85b56", "is_disabled": 0, "rental_uris": {"android": "https://dc.lft.to/lastmile_qr_scan", "ios": "https://dc.lft.to/lastmile_qr_scan"}, "fusion_lon": 0.0, "lat": 38.88453333333333, "bike_id": "1199a17ad3e7f14b5989f2330af85b56", "type": "electric_scooter", "is_reserved": 0, "lon": -76.99820916666667}, {"fusion_lat": 0.0, "name": "10648c0b55f8652ff2422d04c25bd767", "is_disabled": 0, "rental_uris": {"android": "https://dc.lft.to/lastmile_qr_scan", "ios": "https://dc.lft.to/lastmile_qr_scan"}, "fusion_lon": 0.0, "lat": 38.92436133333333, "bike_id": "10648c0b55f8652ff2422d04c25bd767", "type": "electric_scooter", "is_reserved": 0, "lon": -77.03353083333333}, {"fusion_lat": 0.0, "name": "b1c3258c4aae16cf31e9ccad3e39c244", "is_disabled": 0, "rental_uris": {"android": "https://dc.lft.to/lastmile_qr_scan", "ios": "https://dc.lft.to/lastmile_qr_scan"}, "fusion_lon": 0.0, "lat": 38.890361, "bike_id": "b1c3258c4aae16cf31e9ccad3e39c244", "type": "electric_scooter", "is_reserved": 0, "lon": -76.937463}, {"fusion_lat": 0.0, "name": "6a2b94ab05a0c231ca9657813df33226", "is_disabled": 0, "rental_uris": {"android": "https://dc.lft.to/lastmile_qr_scan", "ios": "https://dc.lft.to/lastmile_qr_scan"}, "fusion_lon": 0.0, "lat": 38.94676333333334, "bike_id": "6a2b94ab05a0c231ca9657813df33226", "type": "electric_scooter", "is_reserved": 0, "lon": -77.03096366666666}, {"fusion_lat": 0.0, "name": "3db0bc60b421a2acb9075edf48b02ca1", "is_disabled": 0, "rental_uris": {"android": "https://dc.lft.to/lastmile_qr_scan", "ios": "https://dc.lft.to/lastmile_qr_scan"}, "fusion_lon": 0.0, "lat": 38.93098033333333, "bike_id": "3db0bc60b421a2acb9075edf48b02ca1", "type": "electric_scooter", "is_reserved": 0, "lon": -77.02652183333333}, {"fusion_lat": 0.0, "name": "9e70e01ddc07cdb36f80c972b269f7d8", "is_disabled": 0, "rental_uris": {"android": "https://dc.lft.to/lastmile_qr_scan", "ios": "https://dc.lft.to/lastmile_qr_scan"}, "fusion_lon": 0.0, "lat": 38.9042355, "bike_id": "9e70e01ddc07cdb36f80c972b269f7d8", "type": "electric_scooter", "is_reserved": 0, "lon": -77.03179933333334}, {"fusion_lat": 0.0, "name": "16e5767896e1c822200a86d5738e17fc", "is_disabled": 0, "rental_uris": {"android": "https://dc.lft.to/lastmile_qr_scan", "ios": "https://dc.lft.to/lastmile_qr_scan"}, "fusion_lon": 0.0, "lat": 38.907959, "bike_id": "16e5767896e1c822200a86d5738e17fc", "type": "electric_scooter", "is_reserved": 0, "lon": -77.0434215}, {"fusion_lat": 0.0, "name": "e30e12698b6c2dab7860c79808fa4660", "is_disabled": 0, "rental_uris": {"android": "https://dc.lft.to/lastmile_qr_scan", "ios": "https://dc.lft.to/lastmile_qr_scan"}, "fusion_lon": 0.0, "lat": 38.904096833333334, "bike_id": "e30e12698b6c2dab7860c79808fa4660", "type": "electric_scooter", "is_reserved": 0, "lon": -76.97331633333333}, {"fusion_lat": 0.0, "name": "d49c751969b26eacef4605aa7049d384", "is_disabled": 0, "rental_uris": {"android": "https://dc.lft.to/lastmile_qr_scan", "ios": "https://dc.lft.to/lastmile_qr_scan"}, "fusion_lon": 0.0, "lat": 38.9015395, "bike_id": "d49c751969b26eacef4605aa7049d384", "type": "electric_scooter", "is_reserved": 0, "lon": -77.023097}, {"fusion_lat": 0.0, "name": "8ef8bbbcc605f6411fc2321951a376ef", "is_disabled": 0, "rental_uris": {"android": "https://dc.lft.to/lastmile_qr_scan", "ios": "https://dc.lft.to/lastmile_qr_scan"}, "fusion_lon": 0.0, "lat": 38.90255033333333, "bike_id": "8ef8bbbcc605f6411fc2321951a376ef", "type": "electric_scooter", "is_reserved": 0, "lon": -76.97453616666667}, {"fusion_lat": 0.0, "name": "e5b1622e18ff7958a015283c29ca1204", "is_disabled": 0, "rental_uris": {"android": "https://dc.lft.to/lastmile_qr_scan", "ios": "https://dc.lft.to/lastmile_qr_scan"}, "fusion_lon": 0.0, "lat": 38.90711833333334, "bike_id": "e5b1622e18ff7958a015283c29ca1204", "type": "electric_scooter", "is_reserved": 0, "lon": -77.02887316666667}, {"fusion_lat": 0.0, "name": "f21241fdbe36a227f60e0c3b8099a7c5", "is_disabled": 0, "rental_uris": {"android": "https://dc.lft.to/lastmile_qr_scan", "ios": "https://dc.lft.to/lastmile_qr_scan"}, "fusion_lon": 0.0, "lat": 38.92314, "bike_id": "f21241fdbe36a227f60e0c3b8099a7c5", "type": "electric_scooter", "is_reserved": 0, "lon": -77.02036633333333}, {"fusion_lat": 0.0, "name": "29b86f3cf57bfbfbbd032ed0c0dedcf4", "is_disabled": 0, "rental_uris": {"android": "https://dc.lft.to/lastmile_qr_scan", "ios": "https://dc.lft.to/lastmile_qr_scan"}, "fusion_lon": 0.0, "lat": 38.918140666666666, "bike_id": "29b86f3cf57bfbfbbd032ed0c0dedcf4", "type": "electric_scooter", "is_reserved": 0, "lon": -77.02489266666667}, {"fusion_lat": 0.0, "name": "044b998dc72bcd36899acb6c4d10b384", "is_disabled": 0, "rental_uris": {"android": "https://dc.lft.to/lastmile_qr_scan", "ios": "https://dc.lft.to/lastmile_qr_scan"}, "fusion_lon": 0.0, "lat": 38.9292845, "bike_id": "044b998dc72bcd36899acb6c4d10b384", "type": "electric_scooter", "is_reserved": 0, "lon": -77.02339766666667}, {"fusion_lat": 0.0, "name": "638f8e54a066e9e4459ad1074a3a2501", "is_disabled": 0, "rental_uris": {"android": "https://dc.lft.to/lastmile_qr_scan", "ios": "https://dc.lft.to/lastmile_qr_scan"}, "fusion_lon": 0.0, "lat": 38.860127166666665, "bike_id": "638f8e54a066e9e4459ad1074a3a2501", "type": "electric_bike", "is_reserved": 0, "lon": -77.128083}, {"fusion_lat": 0.0, "name": "4fb18cb3de837c6359310f98f470d2b7", "is_disabled": 0, "rental_uris": {"android": "https://dc.lft.to/lastmile_qr_scan", "ios": "https://dc.lft.to/lastmile_qr_scan"}, "fusion_lon": 0.0, "lat": 38.93073416666667, "bike_id": "4fb18cb3de837c6359310f98f470d2b7", "type": "electric_scooter", "is_reserved": 0, "lon": -77.077665}, {"fusion_lat": 0.0, "name": "d5a458b238c7ef3a30d0f920859a77de", "is_disabled": 0, "rental_uris": {"android": "https://dc.lft.to/lastmile_qr_scan", "ios": "https://dc.lft.to/lastmile_qr_scan"}, "fusion_lon": 0.0, "lat": 38.90394416666667, "bike_id": "d5a458b238c7ef3a30d0f920859a77de", "type": "electric_scooter", "is_reserved": 0, "lon": -76.9900905}, {"fusion_lat": 0.0, "name": "b1fbef60c7c72c7295f857a6cf586eab", "is_disabled": 0, "rental_uris": {"android": "https://dc.lft.to/lastmile_qr_scan", "ios": "https://dc.lft.to/lastmile_qr_scan"}, "fusion_lon": 0.0, "lat": 38.9523245, "bike_id": "b1fbef60c7c72c7295f857a6cf586eab", "type": "electric_scooter", "is_reserved": 0, "lon": -76.99007016666667}, {"fusion_lat": 0.0, "name": "a9c5e755723ac557a0c1b9ae06fb151e", "is_disabled": 0, "rental_uris": {"android": "https://dc.lft.to/lastmile_qr_scan", "ios": "https://dc.lft.to/lastmile_qr_scan"}, "fusion_lon": 0.0, "lat": 38.9259975, "bike_id": "a9c5e755723ac557a0c1b9ae06fb151e", "type": "electric_scooter", "is_reserved": 0, "lon": -77.0215665}, {"fusion_lat": 0.0, "name": "7f5f6ce0b0c19f42d6924901d0b47e45", "is_disabled": 0, "rental_uris": {"android": "https://dc.lft.to/lastmile_qr_scan", "ios": "https://dc.lft.to/lastmile_qr_scan"}, "fusion_lon": 0.0, "lat": 38.921572166666664, "bike_id": "7f5f6ce0b0c19f42d6924901d0b47e45", "type": "electric_scooter", "is_reserved": 0, "lon": -77.0336055}, {"fusion_lat": 0.0, "name": "41d45e2754d9891e5617df6603b2ae4a", "is_disabled": 0, "rental_uris": {"android": "https://dc.lft.to/lastmile_qr_scan", "ios": "https://dc.lft.to/lastmile_qr_scan"}, "fusion_lon": 0.0, "lat": 38.866241, "bike_id": "41d45e2754d9891e5617df6603b2ae4a", "type": "electric_scooter", "is_reserved": 0, "lon": -76.98716166666667}, {"fusion_lat": 0.0, "name": "a2b52dce4e6a63b900882b9b4d33748e", "is_disabled": 0, "rental_uris": {"android": "https://dc.lft.to/lastmile_qr_scan", "ios": "https://dc.lft.to/lastmile_qr_scan"}, "fusion_lon": 0.0, "lat": 38.91052616666666, "bike_id": "a2b52dce4e6a63b900882b9b4d33748e", "type": "electric_scooter", "is_reserved": 0, "lon": -77.02179666666666}, {"fusion_lat": 0.0, "name": "d9460a187da019a02f409f874cdfc188", "is_disabled": 0, "rental_uris": {"android": "https://dc.lft.to/lastmile_qr_scan", "ios": "https://dc.lft.to/lastmile_qr_scan"}, "fusion_lon": 0.0, "lat": 38.911714333333336, "bike_id": "d9460a187da019a02f409f874cdfc188", "type": "electric_scooter", "is_reserved": 0, "lon": -77.03660583333334}, {"fusion_lat": 0.0, "name": "26b34f6c885ffbd66f98512e6f4e5145", "is_disabled": 0, "rental_uris": {"android": "https://dc.lft.to/lastmile_qr_scan", "ios": "https://dc.lft.to/lastmile_qr_scan"}, "fusion_lon": 0.0, "lat": 38.892153, "bike_id": "26b34f6c885ffbd66f98512e6f4e5145", "type": "electric_scooter", "is_reserved": 0, "lon": -77.02777266666666}, {"fusion_lat": 0.0, "name": "b123a8c01fad66f977b453c1e3e6e5c3", "is_disabled": 0, "rental_uris": {"android": "https://dc.lft.to/lastmile_qr_scan", "ios": "https://dc.lft.to/lastmile_qr_scan"}, "fusion_lon": 0.0, "lat": 38.92133166666667, "bike_id": "b123a8c01fad66f977b453c1e3e6e5c3", "type": "electric_bike", "is_reserved": 0, "lon": -77.043645}, {"fusion_lat": 0.0, "name": "b391a7b80cf2af429e4c96e360b570e1", "is_disabled": 0, "rental_uris": {"android": "https://dc.lft.to/lastmile_qr_scan", "ios": "https://dc.lft.to/lastmile_qr_scan"}, "fusion_lon": 0.0, "lat": 38.9323505, "bike_id": "b391a7b80cf2af429e4c96e360b570e1", "type": "electric_bike", "is_reserved": 0, "lon": -76.97421083333333}, {"fusion_lat": 0.0, "name": "430fa801b7f616d65581179411effb4b", "is_disabled": 0, "rental_uris": {"android": "https://dc.lft.to/lastmile_qr_scan", "ios": "https://dc.lft.to/lastmile_qr_scan"}, "fusion_lon": 0.0, "lat": 38.9510995, "bike_id": "430fa801b7f616d65581179411effb4b", "type": "electric_scooter", "is_reserved": 0, "lon": -77.0585705}, {"fusion_lat": 0.0, "name": "189f92f629da12111122f2022f829085", "is_disabled": 0, "rental_uris": {"android": "https://dc.lft.to/lastmile_qr_scan", "ios": "https://dc.lft.to/lastmile_qr_scan"}, "fusion_lon": 0.0, "lat": 38.917016333333336, "bike_id": "189f92f629da12111122f2022f829085", "type": "electric_scooter", "is_reserved": 0, "lon": -77.03720983333334}, {"fusion_lat": 0.0, "name": "b1419dcc99b55d8b8a0d55793f4a21e7", "is_disabled": 0, "rental_uris": {"android": "https://dc.lft.to/lastmile_qr_scan", "ios": "https://dc.lft.to/lastmile_qr_scan"}, "fusion_lon": 0.0, "lat": 38.954745333333335, "bike_id": "b1419dcc99b55d8b8a0d55793f4a21e7", "type": "electric_scooter", "is_reserved": 0, "lon": -77.07780083333333}, {"fusion_lat": 0.0, "name": "03f2ed35816eb535c54e0ed49b10fd74", "is_disabled": 0, "rental_uris": {"android": "https://dc.lft.to/lastmile_qr_scan", "ios": "https://dc.lft.to/lastmile_qr_scan"}, "fusion_lon": 0.0, "lat": 38.9151365, "bike_id": "03f2ed35816eb535c54e0ed49b10fd74", "type": "electric_scooter", "is_reserved": 0, "lon": -77.0326345}, {"fusion_lat": 0.0, "name": "24e374f8e3d34e7ba74e73deadf7a611", "is_disabled": 0, "rental_uris": {"android": "https://dc.lft.to/lastmile_qr_scan", "ios": "https://dc.lft.to/lastmile_qr_scan"}, "fusion_lon": 0.0, "lat": 38.874499666666665, "bike_id": "24e374f8e3d34e7ba74e73deadf7a611", "type": "electric_bike", "is_reserved": 0, "lon": -76.99948533333334}, {"fusion_lat": 0.0, "name": "1409029b0b96f273e67c4d25bb9f1aba", "is_disabled": 0, "rental_uris": {"android": "https://dc.lft.to/lastmile_qr_scan", "ios": "https://dc.lft.to/lastmile_qr_scan"}, "fusion_lon": 0.0, "lat": 38.9170385, "bike_id": "1409029b0b96f273e67c4d25bb9f1aba", "type": "electric_scooter", "is_reserved": 0, "lon": -77.02894616666667}, {"fusion_lat": 0.0, "name": "2c01697f278c237c002484109677d89b", "is_disabled": 0, "rental_uris": {"android": "https://dc.lft.to/lastmile_qr_scan", "ios": "https://dc.lft.to/lastmile_qr_scan"}, "fusion_lon": 0.0, "lat": 38.87628316666667, "bike_id": "2c01697f278c237c002484109677d89b", "type": "electric_scooter", "is_reserved": 0, "lon": -77.01641066666667}, {"fusion_lat": 0.0, "name": "bf514a78e8ee730b7a3e6618eaf75946", "is_disabled": 0, "rental_uris": {"android": "https://dc.lft.to/lastmile_qr_scan", "ios": "https://dc.lft.to/lastmile_qr_scan"}, "fusion_lon": 0.0, "lat": 38.887548, "bike_id": "bf514a78e8ee730b7a3e6618eaf75946", "type": "electric_scooter", "is_reserved": 0, "lon": -77.0025865}, {"fusion_lat": 0.0, "name": "d9c04e17aa9f4bfb81f4339a64f383b4", "is_disabled": 0, "rental_uris": {"android": "https://dc.lft.to/lastmile_qr_scan", "ios": "https://dc.lft.to/lastmile_qr_scan"}, "fusion_lon": 0.0, "lat": 38.931949833333334, "bike_id": "d9c04e17aa9f4bfb81f4339a64f383b4", "type": "electric_scooter", "is_reserved": 0, "lon": -77.04295483333334}, {"fusion_lat": 0.0, "name": "de0f935b2f37af53c4d53551cd0fef1e", "is_disabled": 0, "rental_uris": {"android": "https://dc.lft.to/lastmile_qr_scan", "ios": "https://dc.lft.to/lastmile_qr_scan"}, "fusion_lon": 0.0, "lat": 38.90563816666667, "bike_id": "de0f935b2f37af53c4d53551cd0fef1e", "type": "electric_scooter", "is_reserved": 0, "lon": -77.04681333333333}, {"fusion_lat": 0.0, "name": "b56713bd012ed36e228dbbf72d905f49", "is_disabled": 0, "rental_uris": {"android": "https://dc.lft.to/lastmile_qr_scan", "ios": "https://dc.lft.to/lastmile_qr_scan"}, "fusion_lon": 0.0, "lat": 38.887253, "bike_id": "b56713bd012ed36e228dbbf72d905f49", "type": "electric_scooter", "is_reserved": 0, "lon": -76.98358683333333}, {"fusion_lat": 0.0, "name": "5b2f3ec572df499a9513d906ca297833", "is_disabled": 0, "rental_uris": {"android": "https://dc.lft.to/lastmile_qr_scan", "ios": "https://dc.lft.to/lastmile_qr_scan"}, "fusion_lon": 0.0, "lat": 38.88434633333333, "bike_id": "5b2f3ec572df499a9513d906ca297833", "type": "electric_scooter", "is_reserved": 0, "lon": -77.02520466666667}, {"fusion_lat": 0.0, "name": "e068bd628842694555581f99ae9d6c11", "is_disabled": 0, "rental_uris": {"android": "https://dc.lft.to/lastmile_qr_scan", "ios": "https://dc.lft.to/lastmile_qr_scan"}, "fusion_lon": 0.0, "lat": 38.841343333333334, "bike_id": "e068bd628842694555581f99ae9d6c11", "type": "electric_bike", "is_reserved": 0, "lon": -76.9476105}, {"fusion_lat": 0.0, "name": "764b0c3d132d69b8a1104f4b484b20a7", "is_disabled": 0, "rental_uris": {"android": "https://dc.lft.to/lastmile_qr_scan", "ios": "https://dc.lft.to/lastmile_qr_scan"}, "fusion_lon": 0.0, "lat": 38.9056415, "bike_id": "764b0c3d132d69b8a1104f4b484b20a7", "type": "electric_scooter", "is_reserved": 0, "lon": -77.06262683333334}, {"fusion_lat": 0.0, "name": "72536f2ac87dd386fc0e88cbae036773", "is_disabled": 0, "rental_uris": {"android": "https://dc.lft.to/lastmile_qr_scan", "ios": "https://dc.lft.to/lastmile_qr_scan"}, "fusion_lon": 0.0, "lat": 38.9253995, "bike_id": "72536f2ac87dd386fc0e88cbae036773", "type": "electric_scooter", "is_reserved": 0, "lon": -77.05117266666667}, {"fusion_lat": 0.0, "name": "a680d5ffa369020af03264c693002667", "is_disabled": 0, "rental_uris": {"android": "https://dc.lft.to/lastmile_qr_scan", "ios": "https://dc.lft.to/lastmile_qr_scan"}, "fusion_lon": 0.0, "lat": 38.92253516666667, "bike_id": "a680d5ffa369020af03264c693002667", "type": "electric_scooter", "is_reserved": 0, "lon": -77.05082016666667}, {"fusion_lat": 0.0, "name": "f33a09ae0d5e4bf57175fa533fe7b556", "is_disabled": 0, "rental_uris": {"android": "https://dc.lft.to/lastmile_qr_scan", "ios": "https://dc.lft.to/lastmile_qr_scan"}, "fusion_lon": 0.0, "lat": 38.92900733333333, "bike_id": "f33a09ae0d5e4bf57175fa533fe7b556", "type": "electric_scooter", "is_reserved": 0, "lon": -77.05464083333334}, {"fusion_lat": 0.0, "name": "ba583d1ccf929f91817eefbe4bb2be54", "is_disabled": 0, "rental_uris": {"android": "https://dc.lft.to/lastmile_qr_scan", "ios": "https://dc.lft.to/lastmile_qr_scan"}, "fusion_lon": 0.0, "lat": 38.88764883333333, "bike_id": "ba583d1ccf929f91817eefbe4bb2be54", "type": "electric_scooter", "is_reserved": 0, "lon": -76.9775245}, {"fusion_lat": 0.0, "name": "5921634f19bd3e3a9b19412f25098066", "is_disabled": 0, "rental_uris": {"android": "https://dc.lft.to/lastmile_qr_scan", "ios": "https://dc.lft.to/lastmile_qr_scan"}, "fusion_lon": 0.0, "lat": 38.90056933333334, "bike_id": "5921634f19bd3e3a9b19412f25098066", "type": "electric_scooter", "is_reserved": 0, "lon": -77.02625283333333}, {"fusion_lat": 0.0, "name": "5073e23c1c10fe3a43ec677f935cddf7", "is_disabled": 0, "rental_uris": {"android": "https://dc.lft.to/lastmile_qr_scan", "ios": "https://dc.lft.to/lastmile_qr_scan"}, "fusion_lon": 0.0, "lat": 38.936330833333336, "bike_id": "5073e23c1c10fe3a43ec677f935cddf7", "type": "electric_scooter", "is_reserved": 0, "lon": -77.03662283333334}, {"fusion_lat": 0.0, "name": "a54d450a767ae827082054b686c0912c", "is_disabled": 0, "rental_uris": {"android": "https://dc.lft.to/lastmile_qr_scan", "ios": "https://dc.lft.to/lastmile_qr_scan"}, "fusion_lon": 0.0, "lat": 38.8922065, "bike_id": "a54d450a767ae827082054b686c0912c", "type": "electric_scooter", "is_reserved": 0, "lon": -77.031406}, {"fusion_lat": 0.0, "name": "2d110236cedc6ce286ed3fd6c5c3eb9b", "is_disabled": 0, "rental_uris": {"android": "https://dc.lft.to/lastmile_qr_scan", "ios": "https://dc.lft.to/lastmile_qr_scan"}, "fusion_lon": 0.0, "lat": 38.87907933333334, "bike_id": "2d110236cedc6ce286ed3fd6c5c3eb9b", "type": "electric_scooter", "is_reserved": 0, "lon": -77.0081455}, {"fusion_lat": 0.0, "name": "cafcfacffbd8cc9dce780607eda27ff5", "is_disabled": 0, "rental_uris": {"android": "https://dc.lft.to/lastmile_qr_scan", "ios": "https://dc.lft.to/lastmile_qr_scan"}, "fusion_lon": 0.0, "lat": 38.854510833333336, "bike_id": "cafcfacffbd8cc9dce780607eda27ff5", "type": "electric_scooter", "is_reserved": 0, "lon": -76.9722745}, {"fusion_lat": 0.0, "name": "2630516420abd3c71ba288892db1f4b3", "is_disabled": 0, "rental_uris": {"android": "https://dc.lft.to/lastmile_qr_scan", "ios": "https://dc.lft.to/lastmile_qr_scan"}, "fusion_lon": 0.0, "lat": 38.92721, "bike_id": "2630516420abd3c71ba288892db1f4b3", "type": "electric_scooter", "is_reserved": 0, "lon": -77.02301783333333}, {"fusion_lat": 0.0, "name": "adac4c878f22b0345053959d692d74df", "is_disabled": 0, "rental_uris": {"android": "https://dc.lft.to/lastmile_qr_scan", "ios": "https://dc.lft.to/lastmile_qr_scan"}, "fusion_lon": 0.0, "lat": 38.9097145, "bike_id": "adac4c878f22b0345053959d692d74df", "type": "electric_scooter", "is_reserved": 0, "lon": -77.03441716666667}, {"fusion_lat": 0.0, "name": "b05d847d8c6fb983991b3ad5126db608", "is_disabled": 0, "rental_uris": {"android": "https://dc.lft.to/lastmile_qr_scan", "ios": "https://dc.lft.to/lastmile_qr_scan"}, "fusion_lon": 0.0, "lat": 38.8923085, "bike_id": "b05d847d8c6fb983991b3ad5126db608", "type": "electric_scooter", "is_reserved": 0, "lon": -77.01715416666667}, {"fusion_lat": 0.0, "name": "a41005aadbe9ef45ed247e598491a884", "is_disabled": 0, "rental_uris": {"android": "https://dc.lft.to/lastmile_qr_scan", "ios": "https://dc.lft.to/lastmile_qr_scan"}, "fusion_lon": 0.0, "lat": 38.90542283333333, "bike_id": "a41005aadbe9ef45ed247e598491a884", "type": "electric_scooter", "is_reserved": 0, "lon": -77.03423483333333}, {"fusion_lat": 0.0, "name": "541a8a4baac9dc5ee4aaa64bf2478e79", "is_disabled": 0, "rental_uris": {"android": "https://dc.lft.to/lastmile_qr_scan", "ios": "https://dc.lft.to/lastmile_qr_scan"}, "fusion_lon": 0.0, "lat": 38.92850166666667, "bike_id": "541a8a4baac9dc5ee4aaa64bf2478e79", "type": "electric_scooter", "is_reserved": 0, "lon": -77.024404}, {"fusion_lat": 0.0, "name": "f9abf5bf2fddbcb80b8f58e523a92307", "is_disabled": 0, "rental_uris": {"android": "https://dc.lft.to/lastmile_qr_scan", "ios": "https://dc.lft.to/lastmile_qr_scan"}, "fusion_lon": 0.0, "lat": 38.926515333333334, "bike_id": "f9abf5bf2fddbcb80b8f58e523a92307", "type": "electric_scooter", "is_reserved": 0, "lon": -77.02419183333333}, {"fusion_lat": 0.0, "name": "2ec05bdc69b1bfcb3806969bc5727e16", "is_disabled": 0, "rental_uris": {"android": "https://dc.lft.to/lastmile_qr_scan", "ios": "https://dc.lft.to/lastmile_qr_scan"}, "fusion_lon": 0.0, "lat": 38.892518333333335, "bike_id": "2ec05bdc69b1bfcb3806969bc5727e16", "type": "electric_scooter", "is_reserved": 0, "lon": -77.033481}, {"fusion_lat": 0.0, "name": "c9723d06b37984ec72f7174fe09a69d3", "is_disabled": 0, "rental_uris": {"android": "https://dc.lft.to/lastmile_qr_scan", "ios": "https://dc.lft.to/lastmile_qr_scan"}, "fusion_lon": 0.0, "lat": 38.927453166666666, "bike_id": "c9723d06b37984ec72f7174fe09a69d3", "type": "electric_scooter", "is_reserved": 0, "lon": -77.02535483333334}, {"fusion_lat": 0.0, "name": "1b20152afb9ecabd9e5c25b5184c4095", "is_disabled": 0, "rental_uris": {"android": "https://dc.lft.to/lastmile_qr_scan", "ios": "https://dc.lft.to/lastmile_qr_scan"}, "fusion_lon": 0.0, "lat": 38.91705133333333, "bike_id": "1b20152afb9ecabd9e5c25b5184c4095", "type": "electric_scooter", "is_reserved": 0, "lon": -77.03473233333334}, {"fusion_lat": 0.0, "name": "eecce5eef38f2fd02c4cfd486b908185", "is_disabled": 0, "rental_uris": {"android": "https://dc.lft.to/lastmile_qr_scan", "ios": "https://dc.lft.to/lastmile_qr_scan"}, "fusion_lon": 0.0, "lat": 38.90972583333333, "bike_id": "eecce5eef38f2fd02c4cfd486b908185", "type": "electric_scooter", "is_reserved": 0, "lon": -77.00892466666667}, {"fusion_lat": 0.0, "name": "4101071eff5da0e9c6091322afea0ee6", "is_disabled": 0, "rental_uris": {"android": "https://dc.lft.to/lastmile_qr_scan", "ios": "https://dc.lft.to/lastmile_qr_scan"}, "fusion_lon": 0.0, "lat": 38.88499766666666, "bike_id": "4101071eff5da0e9c6091322afea0ee6", "type": "electric_scooter", "is_reserved": 0, "lon": -76.99766033333333}, {"fusion_lat": 0.0, "name": "14fc706655aece30e562d91f309d3e80", "is_disabled": 0, "rental_uris": {"android": "https://dc.lft.to/lastmile_qr_scan", "ios": "https://dc.lft.to/lastmile_qr_scan"}, "fusion_lon": 0.0, "lat": 38.92676566666667, "bike_id": "14fc706655aece30e562d91f309d3e80", "type": "electric_scooter", "is_reserved": 0, "lon": -77.0309815}, {"fusion_lat": 0.0, "name": "57ae35a24b9c50951e1e6ed2aefdf71e", "is_disabled": 0, "rental_uris": {"android": "https://dc.lft.to/lastmile_qr_scan", "ios": "https://dc.lft.to/lastmile_qr_scan"}, "fusion_lon": 0.0, "lat": 38.891809, "bike_id": "57ae35a24b9c50951e1e6ed2aefdf71e", "type": "electric_scooter", "is_reserved": 0, "lon": -77.021754}, {"fusion_lat": 0.0, "name": "a0ed68eff27932078a4affa6e3f23a2b", "is_disabled": 0, "rental_uris": {"android": "https://dc.lft.to/lastmile_qr_scan", "ios": "https://dc.lft.to/lastmile_qr_scan"}, "fusion_lon": 0.0, "lat": 38.892166833333334, "bike_id": "a0ed68eff27932078a4affa6e3f23a2b", "type": "electric_scooter", "is_reserved": 0, "lon": -77.04504716666666}, {"fusion_lat": 0.0, "name": "c9b29cc7cd88f9619268d34c5658772a", "is_disabled": 0, "rental_uris": {"android": "https://dc.lft.to/lastmile_qr_scan", "ios": "https://dc.lft.to/lastmile_qr_scan"}, "fusion_lon": 0.0, "lat": 38.93181966666667, "bike_id": "c9b29cc7cd88f9619268d34c5658772a", "type": "electric_scooter", "is_reserved": 0, "lon": -77.01961566666667}, {"fusion_lat": 0.0, "name": "2622e401219e820e4336882ab0535db2", "is_disabled": 0, "rental_uris": {"android": "https://dc.lft.to/lastmile_qr_scan", "ios": "https://dc.lft.to/lastmile_qr_scan"}, "fusion_lon": 0.0, "lat": 38.919159666666665, "bike_id": "2622e401219e820e4336882ab0535db2", "type": "electric_scooter", "is_reserved": 0, "lon": -77.02602166666667}, {"fusion_lat": 0.0, "name": "cced947925160d61f8d2872c9d25b420", "is_disabled": 0, "rental_uris": {"android": "https://dc.lft.to/lastmile_qr_scan", "ios": "https://dc.lft.to/lastmile_qr_scan"}, "fusion_lon": 0.0, "lat": 38.913801166666666, "bike_id": "cced947925160d61f8d2872c9d25b420", "type": "electric_scooter", "is_reserved": 0, "lon": -77.01801883333333}, {"fusion_lat": 0.0, "name": "7b88a43932b7077715056b97da2826cf", "is_disabled": 0, "rental_uris": {"android": "https://dc.lft.to/lastmile_qr_scan", "ios": "https://dc.lft.to/lastmile_qr_scan"}, "fusion_lon": 0.0, "lat": 38.924621, "bike_id": "7b88a43932b7077715056b97da2826cf", "type": "electric_scooter", "is_reserved": 0, "lon": -77.080329}, {"fusion_lat": 0.0, "name": "b501cf2c069ab129022f75918228202e", "is_disabled": 0, "rental_uris": {"android": "https://dc.lft.to/lastmile_qr_scan", "ios": "https://dc.lft.to/lastmile_qr_scan"}, "fusion_lon": 0.0, "lat": 38.929719666666664, "bike_id": "b501cf2c069ab129022f75918228202e", "type": "electric_scooter", "is_reserved": 0, "lon": -77.04185233333334}, {"fusion_lat": 0.0, "name": "918c2661c61f07fd5c47faed57d00226", "is_disabled": 0, "rental_uris": {"android": "https://dc.lft.to/lastmile_qr_scan", "ios": "https://dc.lft.to/lastmile_qr_scan"}, "fusion_lon": 0.0, "lat": 38.90625433333334, "bike_id": "918c2661c61f07fd5c47faed57d00226", "type": "electric_scooter", "is_reserved": 0, "lon": -77.01888833333334}, {"fusion_lat": 0.0, "name": "b5c4cd38696d0035bbd7b49a62052786", "is_disabled": 0, "rental_uris": {"android": "https://dc.lft.to/lastmile_qr_scan", "ios": "https://dc.lft.to/lastmile_qr_scan"}, "fusion_lon": 0.0, "lat": 38.87937, "bike_id": "b5c4cd38696d0035bbd7b49a62052786", "type": "electric_scooter", "is_reserved": 0, "lon": -77.004163}, {"fusion_lat": 0.0, "name": "e37ccf4ff3af6d2d23beca853feca3a3", "is_disabled": 0, "rental_uris": {"android": "https://dc.lft.to/lastmile_qr_scan", "ios": "https://dc.lft.to/lastmile_qr_scan"}, "fusion_lon": 0.0, "lat": 38.90527266666667, "bike_id": "e37ccf4ff3af6d2d23beca853feca3a3", "type": "electric_scooter", "is_reserved": 0, "lon": -77.0610205}, {"fusion_lat": 0.0, "name": "8e9b5a5c804961c4be17d31f23d4a382", "is_disabled": 0, "rental_uris": {"android": "https://dc.lft.to/lastmile_qr_scan", "ios": "https://dc.lft.to/lastmile_qr_scan"}, "fusion_lon": 0.0, "lat": 38.8925305, "bike_id": "8e9b5a5c804961c4be17d31f23d4a382", "type": "electric_bike", "is_reserved": 0, "lon": -76.95114483333333}, {"fusion_lat": 0.0, "name": "a34aeb61c4f9fcabb291292bf7b4683a", "is_disabled": 0, "rental_uris": {"android": "https://dc.lft.to/lastmile_qr_scan", "ios": "https://dc.lft.to/lastmile_qr_scan"}, "fusion_lon": 0.0, "lat": 38.95244116666667, "bike_id": "a34aeb61c4f9fcabb291292bf7b4683a", "type": "electric_scooter", "is_reserved": 0, "lon": -77.02382766666666}, {"fusion_lat": 0.0, "name": "3c6b8336a7e129398367b9a7e6431dc5", "is_disabled": 0, "rental_uris": {"android": "https://dc.lft.to/lastmile_qr_scan", "ios": "https://dc.lft.to/lastmile_qr_scan"}, "fusion_lon": 0.0, "lat": 38.89902283333333, "bike_id": "3c6b8336a7e129398367b9a7e6431dc5", "type": "electric_scooter", "is_reserved": 0, "lon": -76.93358133333334}, {"fusion_lat": 0.0, "name": "4f8bba75bc220a6cd4d2b2a918e94dc2", "is_disabled": 0, "rental_uris": {"android": "https://dc.lft.to/lastmile_qr_scan", "ios": "https://dc.lft.to/lastmile_qr_scan"}, "fusion_lon": 0.0, "lat": 38.893229166666664, "bike_id": "4f8bba75bc220a6cd4d2b2a918e94dc2", "type": "electric_scooter", "is_reserved": 0, "lon": -77.039607}, {"fusion_lat": 0.0, "name": "a990c969ed703958477a56f35db86033", "is_disabled": 0, "rental_uris": {"android": "https://dc.lft.to/lastmile_qr_scan", "ios": "https://dc.lft.to/lastmile_qr_scan"}, "fusion_lon": 0.0, "lat": 38.875737, "bike_id": "a990c969ed703958477a56f35db86033", "type": "electric_bike", "is_reserved": 0, "lon": -77.23407616666667}, {"fusion_lat": 0.0, "name": "3b7c12b3c90326cbd6f3c24d2ffd8e93", "is_disabled": 0, "rental_uris": {"android": "https://dc.lft.to/lastmile_qr_scan", "ios": "https://dc.lft.to/lastmile_qr_scan"}, "fusion_lon": 0.0, "lat": 38.930967833333334, "bike_id": "3b7c12b3c90326cbd6f3c24d2ffd8e93", "type": "electric_scooter", "is_reserved": 0, "lon": -77.0255435}, {"fusion_lat": 0.0, "name": "1a3737ce4cfc0800e79e0169844a928c", "is_disabled": 0, "rental_uris": {"android": "https://dc.lft.to/lastmile_qr_scan", "ios": "https://dc.lft.to/lastmile_qr_scan"}, "fusion_lon": 0.0, "lat": 38.916186333333336, "bike_id": "1a3737ce4cfc0800e79e0169844a928c", "type": "electric_scooter", "is_reserved": 0, "lon": -77.00332016666667}, {"fusion_lat": 0.0, "name": "c34677f7af856fd9525393ba2c892b89", "is_disabled": 0, "rental_uris": {"android": "https://dc.lft.to/lastmile_qr_scan", "ios": "https://dc.lft.to/lastmile_qr_scan"}, "fusion_lon": 0.0, "lat": 38.92840066666667, "bike_id": "c34677f7af856fd9525393ba2c892b89", "type": "electric_scooter", "is_reserved": 0, "lon": -77.015858}, {"fusion_lat": 0.0, "name": "7845b4627287a3ac8d3d38fb93ab5ed9", "is_disabled": 0, "rental_uris": {"android": "https://dc.lft.to/lastmile_qr_scan", "ios": "https://dc.lft.to/lastmile_qr_scan"}, "fusion_lon": 0.0, "lat": 38.935354833333335, "bike_id": "7845b4627287a3ac8d3d38fb93ab5ed9", "type": "electric_scooter", "is_reserved": 0, "lon": -77.0235055}, {"fusion_lat": 0.0, "name": "78e843bbc5e54699d5220a29c72e502b", "is_disabled": 0, "rental_uris": {"android": "https://dc.lft.to/lastmile_qr_scan", "ios": "https://dc.lft.to/lastmile_qr_scan"}, "fusion_lon": 0.0, "lat": 38.9631835, "bike_id": "78e843bbc5e54699d5220a29c72e502b", "type": "electric_scooter", "is_reserved": 0, "lon": -77.07495066666667}, {"fusion_lat": 0.0, "name": "77fb82a49fcc6b4b2409e15aa18b5170", "is_disabled": 0, "rental_uris": {"android": "https://dc.lft.to/lastmile_qr_scan", "ios": "https://dc.lft.to/lastmile_qr_scan"}, "fusion_lon": 0.0, "lat": 38.9125475, "bike_id": "77fb82a49fcc6b4b2409e15aa18b5170", "type": "electric_scooter", "is_reserved": 0, "lon": -77.00326583333333}, {"fusion_lat": 0.0, "name": "3f6d8bc02cd7a4da293dc4dc36b94c98", "is_disabled": 0, "rental_uris": {"android": "https://dc.lft.to/lastmile_qr_scan", "ios": "https://dc.lft.to/lastmile_qr_scan"}, "fusion_lon": 0.0, "lat": 38.89914233333333, "bike_id": "3f6d8bc02cd7a4da293dc4dc36b94c98", "type": "electric_scooter", "is_reserved": 0, "lon": -76.94585133333334}, {"fusion_lat": 0.0, "name": "0b17452cc5d55fbdb545e858d811935b", "is_disabled": 0, "rental_uris": {"android": "https://dc.lft.to/lastmile_qr_scan", "ios": "https://dc.lft.to/lastmile_qr_scan"}, "fusion_lon": 0.0, "lat": 38.9106675, "bike_id": "0b17452cc5d55fbdb545e858d811935b", "type": "electric_scooter", "is_reserved": 0, "lon": -77.02715866666666}, {"fusion_lat": 0.0, "name": "edc420dea6feffdda0834c7d3384686a", "is_disabled": 0, "rental_uris": {"android": "https://dc.lft.to/lastmile_qr_scan", "ios": "https://dc.lft.to/lastmile_qr_scan"}, "fusion_lon": 0.0, "lat": 38.88529466666667, "bike_id": "edc420dea6feffdda0834c7d3384686a", "type": "electric_scooter", "is_reserved": 0, "lon": -76.9290775}, {"fusion_lat": 0.0, "name": "b7203c12c7549d0d2e687bbd2b6264cd", "is_disabled": 0, "rental_uris": {"android": "https://dc.lft.to/lastmile_qr_scan", "ios": "https://dc.lft.to/lastmile_qr_scan"}, "fusion_lon": 0.0, "lat": 38.910242833333335, "bike_id": "b7203c12c7549d0d2e687bbd2b6264cd", "type": "electric_scooter", "is_reserved": 0, "lon": -77.00751266666667}, {"fusion_lat": 0.0, "name": "a562be7b3ba9cb66f44ec9f8a3a7b800", "is_disabled": 0, "rental_uris": {"android": "https://dc.lft.to/lastmile_qr_scan", "ios": "https://dc.lft.to/lastmile_qr_scan"}, "fusion_lon": 0.0, "lat": 38.894763, "bike_id": "a562be7b3ba9cb66f44ec9f8a3a7b800", "type": "electric_scooter", "is_reserved": 0, "lon": -77.02180766666666}, {"fusion_lat": 0.0, "name": "7d918916caa812dbca11efa3ee2aaac6", "is_disabled": 0, "rental_uris": {"android": "https://dc.lft.to/lastmile_qr_scan", "ios": "https://dc.lft.to/lastmile_qr_scan"}, "fusion_lon": 0.0, "lat": 38.927820833333335, "bike_id": "7d918916caa812dbca11efa3ee2aaac6", "type": "electric_scooter", "is_reserved": 0, "lon": -76.97968266666666}, {"fusion_lat": 0.0, "name": "3f03a005de4330bc1bee5a743dec419c", "is_disabled": 0, "rental_uris": {"android": "https://dc.lft.to/lastmile_qr_scan", "ios": "https://dc.lft.to/lastmile_qr_scan"}, "fusion_lon": 0.0, "lat": 38.89740183333333, "bike_id": "3f03a005de4330bc1bee5a743dec419c", "type": "electric_bike", "is_reserved": 0, "lon": -77.0074885}, {"fusion_lat": 0.0, "name": "3ea9a6bcaa68c243cd367550383c996a", "is_disabled": 0, "rental_uris": {"android": "https://dc.lft.to/lastmile_qr_scan", "ios": "https://dc.lft.to/lastmile_qr_scan"}, "fusion_lon": 0.0, "lat": 38.92063233333333, "bike_id": "3ea9a6bcaa68c243cd367550383c996a", "type": "electric_scooter", "is_reserved": 0, "lon": -76.99861816666666}, {"fusion_lat": 0.0, "name": "095a61ebc43b14e2dc15694ed7d4d6c6", "is_disabled": 0, "rental_uris": {"android": "https://dc.lft.to/lastmile_qr_scan", "ios": "https://dc.lft.to/lastmile_qr_scan"}, "fusion_lon": 0.0, "lat": 38.92368733333333, "bike_id": "095a61ebc43b14e2dc15694ed7d4d6c6", "type": "electric_scooter", "is_reserved": 0, "lon": -77.04253966666667}, {"fusion_lat": 0.0, "name": "29fbde17d2390744033b59f8bf69af71", "is_disabled": 0, "rental_uris": {"android": "https://dc.lft.to/lastmile_qr_scan", "ios": "https://dc.lft.to/lastmile_qr_scan"}, "fusion_lon": 0.0, "lat": 38.920575166666666, "bike_id": "29fbde17d2390744033b59f8bf69af71", "type": "electric_scooter", "is_reserved": 0, "lon": -77.041954}, {"fusion_lat": 0.0, "name": "a80cb3b9b82500e1fa47f5e6fd6241bb", "is_disabled": 0, "rental_uris": {"android": "https://dc.lft.to/lastmile_qr_scan", "ios": "https://dc.lft.to/lastmile_qr_scan"}, "fusion_lon": 0.0, "lat": 38.9095265, "bike_id": "a80cb3b9b82500e1fa47f5e6fd6241bb", "type": "electric_scooter", "is_reserved": 0, "lon": -77.04864116666667}, {"fusion_lat": 0.0, "name": "cf940b559d2868cdfa05fc7ba60be234", "is_disabled": 0, "rental_uris": {"android": "https://dc.lft.to/lastmile_qr_scan", "ios": "https://dc.lft.to/lastmile_qr_scan"}, "fusion_lon": 0.0, "lat": 38.86258183333333, "bike_id": "cf940b559d2868cdfa05fc7ba60be234", "type": "electric_bike", "is_reserved": 0, "lon": -76.98344466666667}, {"fusion_lat": 0.0, "name": "8a3e4e86523689d426433007b80c6d34", "is_disabled": 0, "rental_uris": {"android": "https://dc.lft.to/lastmile_qr_scan", "ios": "https://dc.lft.to/lastmile_qr_scan"}, "fusion_lon": 0.0, "lat": 38.887389666666664, "bike_id": "8a3e4e86523689d426433007b80c6d34", "type": "electric_scooter", "is_reserved": 0, "lon": -77.0217495}, {"fusion_lat": 0.0, "name": "d85a1ec6ab91d5e27851a1332a72c77d", "is_disabled": 0, "rental_uris": {"android": "https://dc.lft.to/lastmile_qr_scan", "ios": "https://dc.lft.to/lastmile_qr_scan"}, "fusion_lon": 0.0, "lat": 38.91719333333333, "bike_id": "d85a1ec6ab91d5e27851a1332a72c77d", "type": "electric_scooter", "is_reserved": 0, "lon": -77.00811883333333}, {"fusion_lat": 0.0, "name": "731c0d147268d5631dff43fb5803a27b", "is_disabled": 0, "rental_uris": {"android": "https://dc.lft.to/lastmile_qr_scan", "ios": "https://dc.lft.to/lastmile_qr_scan"}, "fusion_lon": 0.0, "lat": 38.924576333333334, "bike_id": "731c0d147268d5631dff43fb5803a27b", "type": "electric_scooter", "is_reserved": 0, "lon": -76.99334183333333}, {"fusion_lat": 0.0, "name": "b17bbd727585d00a03210de6baef5c1b", "is_disabled": 0, "rental_uris": {"android": "https://dc.lft.to/lastmile_qr_scan", "ios": "https://dc.lft.to/lastmile_qr_scan"}, "fusion_lon": 0.0, "lat": 38.903459, "bike_id": "b17bbd727585d00a03210de6baef5c1b", "type": "electric_scooter", "is_reserved": 0, "lon": -77.04667383333333}, {"fusion_lat": 0.0, "name": "e65b696fbf62ced462a6a9d1aa8a49d2", "is_disabled": 0, "rental_uris": {"android": "https://dc.lft.to/lastmile_qr_scan", "ios": "https://dc.lft.to/lastmile_qr_scan"}, "fusion_lon": 0.0, "lat": 38.85793483333333, "bike_id": "e65b696fbf62ced462a6a9d1aa8a49d2", "type": "electric_bike", "is_reserved": 0, "lon": -76.98723216666667}, {"fusion_lat": 0.0, "name": "3116d3d091e3b97065540b3bd0c47ad9", "is_disabled": 0, "rental_uris": {"android": "https://dc.lft.to/lastmile_qr_scan", "ios": "https://dc.lft.to/lastmile_qr_scan"}, "fusion_lon": 0.0, "lat": 38.9009255, "bike_id": "3116d3d091e3b97065540b3bd0c47ad9", "type": "electric_scooter", "is_reserved": 0, "lon": -77.01942266666667}, {"fusion_lat": 0.0, "name": "91afa37ca904c1c2fa58ec934a61b1a7", "is_disabled": 0, "rental_uris": {"android": "https://dc.lft.to/lastmile_qr_scan", "ios": "https://dc.lft.to/lastmile_qr_scan"}, "fusion_lon": 0.0, "lat": 38.94132916666667, "bike_id": "91afa37ca904c1c2fa58ec934a61b1a7", "type": "electric_scooter", "is_reserved": 0, "lon": -77.00609716666666}, {"fusion_lat": 0.0, "name": "426a2a0bb727b3ca909b0a380d25d1e4", "is_disabled": 0, "rental_uris": {"android": "https://dc.lft.to/lastmile_qr_scan", "ios": "https://dc.lft.to/lastmile_qr_scan"}, "fusion_lon": 0.0, "lat": 38.9267895, "bike_id": "426a2a0bb727b3ca909b0a380d25d1e4", "type": "electric_scooter", "is_reserved": 0, "lon": -77.02789083333333}, {"fusion_lat": 0.0, "name": "a123c15ea6f45d74620d4b39e6d00738", "is_disabled": 0, "rental_uris": {"android": "https://dc.lft.to/lastmile_qr_scan", "ios": "https://dc.lft.to/lastmile_qr_scan"}, "fusion_lon": 0.0, "lat": 38.909676, "bike_id": "a123c15ea6f45d74620d4b39e6d00738", "type": "electric_scooter", "is_reserved": 0, "lon": -77.00899533333333}, {"fusion_lat": 0.0, "name": "9fb924cdd68fd7bdfd97f78146d15731", "is_disabled": 0, "rental_uris": {"android": "https://dc.lft.to/lastmile_qr_scan", "ios": "https://dc.lft.to/lastmile_qr_scan"}, "fusion_lon": 0.0, "lat": 38.90106333333333, "bike_id": "9fb924cdd68fd7bdfd97f78146d15731", "type": "electric_scooter", "is_reserved": 0, "lon": -77.05160016666666}, {"fusion_lat": 0.0, "name": "eb11950814f2c3483c17a64a35231885", "is_disabled": 0, "rental_uris": {"android": "https://dc.lft.to/lastmile_qr_scan", "ios": "https://dc.lft.to/lastmile_qr_scan"}, "fusion_lon": 0.0, "lat": 38.903535, "bike_id": "eb11950814f2c3483c17a64a35231885", "type": "electric_scooter", "is_reserved": 0, "lon": -76.9723735}, {"fusion_lat": 0.0, "name": "de4960d4d6dc676983d9651a3a2d479d", "is_disabled": 0, "rental_uris": {"android": "https://dc.lft.to/lastmile_qr_scan", "ios": "https://dc.lft.to/lastmile_qr_scan"}, "fusion_lon": 0.0, "lat": 38.9057465, "bike_id": "de4960d4d6dc676983d9651a3a2d479d", "type": "electric_scooter", "is_reserved": 0, "lon": -77.02201466666666}, {"fusion_lat": 0.0, "name": "e8fcd2522326a8ad6c10a426c73e65c0", "is_disabled": 0, "rental_uris": {"android": "https://dc.lft.to/lastmile_qr_scan", "ios": "https://dc.lft.to/lastmile_qr_scan"}, "fusion_lon": 0.0, "lat": 38.8393365, "bike_id": "e8fcd2522326a8ad6c10a426c73e65c0", "type": "electric_bike", "is_reserved": 0, "lon": -77.07896533333333}, {"fusion_lat": 0.0, "name": "7a2b2c385e8f9c20644cd9c5aeb911ff", "is_disabled": 0, "rental_uris": {"android": "https://dc.lft.to/lastmile_qr_scan", "ios": "https://dc.lft.to/lastmile_qr_scan"}, "fusion_lon": 0.0, "lat": 38.933620166666664, "bike_id": "7a2b2c385e8f9c20644cd9c5aeb911ff", "type": "electric_scooter", "is_reserved": 0, "lon": -77.03888983333333}, {"fusion_lat": 0.0, "name": "176d9399fb4e34b17f9dda8767c1bd59", "is_disabled": 0, "rental_uris": {"android": "https://dc.lft.to/lastmile_qr_scan", "ios": "https://dc.lft.to/lastmile_qr_scan"}, "fusion_lon": 0.0, "lat": 38.8974, "bike_id": "176d9399fb4e34b17f9dda8767c1bd59", "type": "electric_scooter", "is_reserved": 0, "lon": -77.0322495}, {"fusion_lat": 0.0, "name": "10de356ad0f57d9f306149ebf27445ce", "is_disabled": 0, "rental_uris": {"android": "https://dc.lft.to/lastmile_qr_scan", "ios": "https://dc.lft.to/lastmile_qr_scan"}, "fusion_lon": 0.0, "lat": 38.90650616666667, "bike_id": "10de356ad0f57d9f306149ebf27445ce", "type": "electric_scooter", "is_reserved": 0, "lon": -77.04277833333333}, {"fusion_lat": 0.0, "name": "5633d4bb8abfd41c9cd4f9d7f814db58", "is_disabled": 0, "rental_uris": {"android": "https://dc.lft.to/lastmile_qr_scan", "ios": "https://dc.lft.to/lastmile_qr_scan"},