{"data": {"bikes": [{"bike_id": "030a983244c6d1792b6fc0213e4c7834", "type": "electric_scooter", "is_disabled": 0, "lat": 38.91238216666667, "rental_uris": {"ios": "https://dc.lft.to/lastmile_qr_scan", "android": "https://dc.lft.to/lastmile_qr_scan"}, "is_reserved": 0, "fusion_lon": 0.0, "fusion_lat": 0.0, "lon": -77.00918083333333, "name": "030a983244c6d1792b6fc0213e4c7834"}, {"bike_id": "052d8fcc331dbfb6c94e63ce7d017e77", "type": "electric_scooter", "is_disabled": 0, "lat": 38.949053166666666, "rental_uris": {"ios": "https://dc.lft.to/lastmile_qr_scan", "android": "https://dc.lft.to/lastmile_qr_scan"}, "is_reserved": 0, "fusion_lon": 0.0, "fusion_lat": 0.0, "lon": -77.00644416666667, "name": "052d8fcc331dbfb6c94e63ce7d017e77"}, {"bike_id": "037a7debcfa08c410229649329d8304b", "type": "electric_scooter", "is_disabled": 0, "lat": 38.906428166666664, "rental_uris": {"ios": "https://dc.lft.to/lastmile_qr_scan", "android": "https://dc.lft.to/lastmile_qr_scan"}, "is_reserved": 0, "fusion_lon": 0.0, "fusion_lat": 0.0, "lon": -77.05331183333334, "name": "037a7debcfa08c410229649329d8304b"}, {"bike_id": "af6c6d2bc9d9244181a66b5493eb5295", "type": "electric_scooter", "is_disabled": 0, "lat": 38.9240245, "rental_uris": {"ios": "https://dc.lft.to/lastmile_qr_scan", "android": "https://dc.lft.to/lastmile_qr_scan"}, "is_reserved": 0, "fusion_lon": 0.0, "fusion_lat": 0.0, "lon": -77.0297675, "name": "af6c6d2bc9d9244181a66b5493eb5295"}, {"bike_id": "5ea22d502e0288a9b32082b3743f30f1", "type": "electric_scooter", "is_disabled": 0, "lat": 38.9327975, "rental_uris": {"ios": "https://dc.lft.to/lastmile_qr_scan", "android": "https://dc.lft.to/lastmile_qr_scan"}, "is_reserved": 0, "fusion_lon": 0.0, "fusion_lat": 0.0, "lon": -77.03626866666667, "name": "5ea22d502e0288a9b32082b3743f30f1"}, {"bike_id": "712c543e1f5fcc52454dddaffea4ebc8", "type": "electric_scooter", "is_disabled": 0, "lat": 38.91595483333333, "rental_uris": {"ios": "https://dc.lft.to/lastmile_qr_scan", "android": "https://dc.lft.to/lastmile_qr_scan"}, "is_reserved": 0, "fusion_lon": 0.0, "fusion_lat": 0.0, "lon": -77.01218166666666, "name": "712c543e1f5fcc52454dddaffea4ebc8"}, {"bike_id": "c078c16e40de49e971cbad84648db99a", "type": "electric_scooter", "is_disabled": 0, "lat": 38.932467, "rental_uris": {"ios": "https://dc.lft.to/lastmile_qr_scan", "android": "https://dc.lft.to/lastmile_qr_scan"}, "is_reserved": 0, "fusion_lon": 0.0, "fusion_lat": 0.0, "lon": -77.0295375, "name": "c078c16e40de49e971cbad84648db99a"}, {"bike_id": "dd8bf68a327fa13855bb0df89af52fd8", "type": "electric_scooter", "is_disabled": 0, "lat": 38.908622333333334, "rental_uris": {"ios": "https://dc.lft.to/lastmile_qr_scan", "android": "https://dc.lft.to/lastmile_qr_scan"}, "is_reserved": 0, "fusion_lon": 0.0, "fusion_lat": 0.0, "lon": -77.0282475, "name": "dd8bf68a327fa13855bb0df89af52fd8"}, {"bike_id": "408cd0001016ae77b17d861d662ffc65", "type": "electric_scooter", "is_disabled": 0, "lat": 38.92153733333333, "rental_uris": {"ios": "https://dc.lft.to/lastmile_qr_scan", "android": "https://dc.lft.to/lastmile_qr_scan"}, "is_reserved": 0, "fusion_lon": 0.0, "fusion_lat": 0.0, "lon": -77.03370916666667, "name": "408cd0001016ae77b17d861d662ffc65"}, {"bike_id": "d5b60fea3f2d44c96d87d7d4968f4500", "type": "electric_scooter", "is_disabled": 0, "lat": 38.91041516666667, "rental_uris": {"ios": "https://dc.lft.to/lastmile_qr_scan", "android": "https://dc.lft.to/lastmile_qr_scan"}, "is_reserved": 0, "fusion_lon": 0.0, "fusion_lat": 0.0, "lon": -77.0102595, "name": "d5b60fea3f2d44c96d87d7d4968f4500"}, {"bike_id": "874f7f970871b8c60635e871252cf199", "type": "electric_scooter", "is_disabled": 0, "lat": 38.9246275, "rental_uris": {"ios": "https://dc.lft.to/lastmile_qr_scan", "android": "https://dc.lft.to/lastmile_qr_scan"}, "is_reserved": 0, "fusion_lon": 0.0, "fusion_lat": 0.0, "lon": -77.05230483333334, "name": "874f7f970871b8c60635e871252cf199"}, {"bike_id": "9af62a2c6b4ead2fa75fe3dfc55db9f7", "type": "electric_scooter", "is_disabled": 0, "lat": 38.91654966666667, "rental_uris": {"ios": "https://dc.lft.to/lastmile_qr_scan", "android": "https://dc.lft.to/lastmile_qr_scan"}, "is_reserved": 0, "fusion_lon": 0.0, "fusion_lat": 0.0, "lon": -77.0288955, "name": "9af62a2c6b4ead2fa75fe3dfc55db9f7"}, {"bike_id": "0d0d1c74647793345f7829a715278f52", "type": "electric_scooter", "is_disabled": 0, "lat": 38.91568483333333, "rental_uris": {"ios": "https://dc.lft.to/lastmile_qr_scan", "android": "https://dc.lft.to/lastmile_qr_scan"}, "is_reserved": 0, "fusion_lon": 0.0, "fusion_lat": 0.0, "lon": -77.04282683333334, "name": "0d0d1c74647793345f7829a715278f52"}, {"bike_id": "9c400789c3164153d0a800e285f4a6a0", "type": "electric_scooter", "is_disabled": 0, "lat": 38.89215166666666, "rental_uris": {"ios": "https://dc.lft.to/lastmile_qr_scan", "android": "https://dc.lft.to/lastmile_qr_scan"}, "is_reserved": 0, "fusion_lon": 0.0, "fusion_lat": 0.0, "lon": -77.02586633333334, "name": "9c400789c3164153d0a800e285f4a6a0"}, {"bike_id": "ed2620d6372c7e7ae7344eb15f530b94", "type": "electric_scooter", "is_disabled": 0, "lat": 38.893701, "rental_uris": {"ios": "https://dc.lft.to/lastmile_qr_scan", "android": "https://dc.lft.to/lastmile_qr_scan"}, "is_reserved": 0, "fusion_lon": 0.0, "fusion_lat": 0.0, "lon": -76.985527, "name": "ed2620d6372c7e7ae7344eb15f530b94"}, {"bike_id": "6533b592cc7e16ca6f971910940b165e", "type": "electric_scooter", "is_disabled": 0, "lat": 38.902692, "rental_uris": {"ios": "https://dc.lft.to/lastmile_qr_scan", "android": "https://dc.lft.to/lastmile_qr_scan"}, "is_reserved": 0, "fusion_lon": 0.0, "fusion_lat": 0.0, "lon": -77.03389233333333, "name": "6533b592cc7e16ca6f971910940b165e"}, {"bike_id": "6902998d03687b2e5f7a5d53a572ba05", "type": "electric_scooter", "is_disabled": 0, "lat": 38.870692, "rental_uris": {"ios": "https://dc.lft.to/lastmile_qr_scan", "android": "https://dc.lft.to/lastmile_qr_scan"}, "is_reserved": 0, "fusion_lon": 0.0, "fusion_lat": 0.0, "lon": -76.9813095, "name": "6902998d03687b2e5f7a5d53a572ba05"}, {"bike_id": "bd13a978dca9c71fa348171a7e60f44a", "type": "electric_scooter", "is_disabled": 0, "lat": 38.90276183333334, "rental_uris": {"ios": "https://dc.lft.to/lastmile_qr_scan", "android": "https://dc.lft.to/lastmile_qr_scan"}, "is_reserved": 0, "fusion_lon": 0.0, "fusion_lat": 0.0, "lon": -77.0579495, "name": "bd13a978dca9c71fa348171a7e60f44a"}, {"bike_id": "dfb2d73dab655c7ba1d7686c0bfc9042", "type": "electric_scooter", "is_disabled": 0, "lat": 38.912128333333335, "rental_uris": {"ios": "https://dc.lft.to/lastmile_qr_scan", "android": "https://dc.lft.to/lastmile_qr_scan"}, "is_reserved": 0, "fusion_lon": 0.0, "fusion_lat": 0.0, "lon": -77.03839716666667, "name": "dfb2d73dab655c7ba1d7686c0bfc9042"}, {"bike_id": "ae894881837c233069086a364a12ea44", "type": "electric_scooter", "is_disabled": 0, "lat": 38.92146566666667, "rental_uris": {"ios": "https://dc.lft.to/lastmile_qr_scan", "android": "https://dc.lft.to/lastmile_qr_scan"}, "is_reserved": 0, "fusion_lon": 0.0, "fusion_lat": 0.0, "lon": -77.038569, "name": "ae894881837c233069086a364a12ea44"}, {"bike_id": "a0d1568474d38eca051b63c15869115c", "type": "electric_bike", "is_disabled": 0, "lat": 38.9020895, "rental_uris": {"ios": "https://dc.lft.to/lastmile_qr_scan", "android": "https://dc.lft.to/lastmile_qr_scan"}, "is_reserved": 0, "fusion_lon": 0.0, "fusion_lat": 0.0, "lon": -76.97410983333333, "name": "a0d1568474d38eca051b63c15869115c"}, {"bike_id": "cb8c1f93812f0d7f79ab4fa1c84211ce", "type": "electric_bike", "is_disabled": 0, "lat": 38.9496045, "rental_uris": {"ios": "https://dc.lft.to/lastmile_qr_scan", "android": "https://dc.lft.to/lastmile_qr_scan"}, "is_reserved": 0, "fusion_lon": 0.0, "fusion_lat": 0.0, "lon": -77.066455, "name": "cb8c1f93812f0d7f79ab4fa1c84211ce"}, {"bike_id": "8196e9287d358e04ab5cd71c36ea8945", "type": "electric_bike", "is_disabled": 0, "lat": 39.055004333333336, "rental_uris": {"ios": "https://dc.lft.to/lastmile_qr_scan", "android": "https://dc.lft.to/lastmile_qr_scan"}, "is_reserved": 0, "fusion_lon": 0.0, "fusion_lat": 0.0, "lon": -77.04646816666667, "name": "8196e9287d358e04ab5cd71c36ea8945"}, {"bike_id": "15022b317daf9d64555d5f96b107b44b", "type": "electric_scooter", "is_disabled": 0, "lat": 38.93314133333333, "rental_uris": {"ios": "https://dc.lft.to/lastmile_qr_scan", "android": "https://dc.lft.to/lastmile_qr_scan"}, "is_reserved": 0, "fusion_lon": 0.0, "fusion_lat": 0.0, "lon": -77.07237016666667, "name": "15022b317daf9d64555d5f96b107b44b"}, {"bike_id": "a0b9629c585b8f30f358e826d2f25f9f", "type": "electric_scooter", "is_disabled": 0, "lat": 38.927201833333335, "rental_uris": {"ios": "https://dc.lft.to/lastmile_qr_scan", "android": "https://dc.lft.to/lastmile_qr_scan"}, "is_reserved": 0, "fusion_lon": 0.0, "fusion_lat": 0.0, "lon": -77.02720266666667, "name": "a0b9629c585b8f30f358e826d2f25f9f"}, {"bike_id": "5f7455561e27983a6ebd068181b3c711", "type": "electric_scooter", "is_disabled": 0, "lat": 38.9340135, "rental_uris": {"ios": "https://dc.lft.to/lastmile_qr_scan", "android": "https://dc.lft.to/lastmile_qr_scan"}, "is_reserved": 0, "fusion_lon": 0.0, "fusion_lat": 0.0, "lon": -77.03984233333334, "name": "5f7455561e27983a6ebd068181b3c711"}, {"bike_id": "e780785a280e6a439bafe953c917aea0", "type": "electric_scooter", "is_disabled": 0, "lat": 38.939501166666666, "rental_uris": {"ios": "https://dc.lft.to/lastmile_qr_scan", "android": "https://dc.lft.to/lastmile_qr_scan"}, "is_reserved": 0, "fusion_lon": 0.0, "fusion_lat": 0.0, "lon": -77.036598, "name": "e780785a280e6a439bafe953c917aea0"}, {"bike_id": "8ca48c71a9b9461948b06390c39cb16e", "type": "electric_bike", "is_disabled": 0, "lat": 38.92968833333333, "rental_uris": {"ios": "https://dc.lft.to/lastmile_qr_scan", "android": "https://dc.lft.to/lastmile_qr_scan"}, "is_reserved": 0, "fusion_lon": 0.0, "fusion_lat": 0.0, "lon": -77.1856425, "name": "8ca48c71a9b9461948b06390c39cb16e"}, {"bike_id": "43523f7f33ab7cd05b7f45d751c00553", "type": "electric_scooter", "is_disabled": 0, "lat": 38.926118333333335, "rental_uris": {"ios": "https://dc.lft.to/lastmile_qr_scan", "android": "https://dc.lft.to/lastmile_qr_scan"}, "is_reserved": 0, "fusion_lon": 0.0, "fusion_lat": 0.0, "lon": -77.0215625, "name": "43523f7f33ab7cd05b7f45d751c00553"}, {"bike_id": "5a9a2d20a88e891b1cfafadff56d8a94", "type": "electric_scooter", "is_disabled": 0, "lat": 38.920081333333336, "rental_uris": {"ios": "https://dc.lft.to/lastmile_qr_scan", "android": "https://dc.lft.to/lastmile_qr_scan"}, "is_reserved": 0, "fusion_lon": 0.0, "fusion_lat": 0.0, "lon": -77.02389816666667, "name": "5a9a2d20a88e891b1cfafadff56d8a94"}, {"bike_id": "f2c302eabe21edc160acbe23dfe64bcf", "type": "electric_scooter", "is_disabled": 0, "lat": 38.899671833333336, "rental_uris": {"ios": "https://dc.lft.to/lastmile_qr_scan", "android": "https://dc.lft.to/lastmile_qr_scan"}, "is_reserved": 0, "fusion_lon": 0.0, "fusion_lat": 0.0, "lon": -76.98302216666667, "name": "f2c302eabe21edc160acbe23dfe64bcf"}, {"bike_id": "31e91e3de31571cfe295a5fc980f0b2f", "type": "electric_scooter", "is_disabled": 0, "lat": 38.9252365, "rental_uris": {"ios": "https://dc.lft.to/lastmile_qr_scan", "android": "https://dc.lft.to/lastmile_qr_scan"}, "is_reserved": 0, "fusion_lon": 0.0, "fusion_lat": 0.0, "lon": -77.07719233333333, "name": "31e91e3de31571cfe295a5fc980f0b2f"}, {"bike_id": "5e8f93a8fbd3c79a67301e3a65e52ed5", "type": "electric_scooter", "is_disabled": 0, "lat": 38.917251666666665, "rental_uris": {"ios": "https://dc.lft.to/lastmile_qr_scan", "android": "https://dc.lft.to/lastmile_qr_scan"}, "is_reserved": 0, "fusion_lon": 0.0, "fusion_lat": 0.0, "lon": -77.0312375, "name": "5e8f93a8fbd3c79a67301e3a65e52ed5"}, {"bike_id": "a34274c450fd623fd3b1ad5d3a07e41d", "type": "electric_scooter", "is_disabled": 0, "lat": 38.909628166666664, "rental_uris": {"ios": "https://dc.lft.to/lastmile_qr_scan", "android": "https://dc.lft.to/lastmile_qr_scan"}, "is_reserved": 0, "fusion_lon": 0.0, "fusion_lat": 0.0, "lon": -77.02306883333334, "name": "a34274c450fd623fd3b1ad5d3a07e41d"}, {"bike_id": "a513620fd3d83578ab89433330fd18e7", "type": "electric_scooter", "is_disabled": 0, "lat": 38.92072833333334, "rental_uris": {"ios": "https://dc.lft.to/lastmile_qr_scan", "android": "https://dc.lft.to/lastmile_qr_scan"}, "is_reserved": 0, "fusion_lon": 0.0, "fusion_lat": 0.0, "lon": -77.02508, "name": "a513620fd3d83578ab89433330fd18e7"}, {"bike_id": "f3cdcdcf83b9ee848198498de3a7dc07", "type": "electric_scooter", "is_disabled": 0, "lat": 38.927576333333334, "rental_uris": {"ios": "https://dc.lft.to/lastmile_qr_scan", "android": "https://dc.lft.to/lastmile_qr_scan"}, "is_reserved": 0, "fusion_lon": 0.0, "fusion_lat": 0.0, "lon": -77.03268616666666, "name": "f3cdcdcf83b9ee848198498de3a7dc07"}, {"bike_id": "1c75099cb5decdce9c817e386e35abdb", "type": "electric_bike", "is_disabled": 0, "lat": 38.99090966666667, "rental_uris": {"ios": "https://dc.lft.to/lastmile_qr_scan", "android": "https://dc.lft.to/lastmile_qr_scan"}, "is_reserved": 0, "fusion_lon": 0.0, "fusion_lat": 0.0, "lon": -76.87494366666667, "name": "1c75099cb5decdce9c817e386e35abdb"}, {"bike_id": "d4b099fd357f4a394546c6f19c93b675", "type": "electric_bike", "is_disabled": 0, "lat": 38.865108666666664, "rental_uris": {"ios": "https://dc.lft.to/lastmile_qr_scan", "android": "https://dc.lft.to/lastmile_qr_scan"}, "is_reserved": 0, "fusion_lon": 0.0, "fusion_lat": 0.0, "lon": -76.9733505, "name": "d4b099fd357f4a394546c6f19c93b675"}, {"bike_id": "64d7fe3a2f46274e248eb855ffb36338", "type": "electric_scooter", "is_disabled": 0, "lat": 38.900415833333334, "rental_uris": {"ios": "https://dc.lft.to/lastmile_qr_scan", "android": "https://dc.lft.to/lastmile_qr_scan"}, "is_reserved": 0, "fusion_lon": 0.0, "fusion_lat": 0.0, "lon": -76.91924016666667, "name": "64d7fe3a2f46274e248eb855ffb36338"}, {"bike_id": "02a16b145f1f063e328fc41baedf19fc", "type": "electric_scooter", "is_disabled": 0, "lat": 38.905050333333335, "rental_uris": {"ios": "https://dc.lft.to/lastmile_qr_scan", "android": "https://dc.lft.to/lastmile_qr_scan"}, "is_reserved": 0, "fusion_lon": 0.0, "fusion_lat": 0.0, "lon": -77.06003366666667, "name": "02a16b145f1f063e328fc41baedf19fc"}, {"bike_id": "ca454819554294cf8935a8c7977a7bf2", "type": "electric_scooter", "is_disabled": 0, "lat": 38.8888725, "rental_uris": {"ios": "https://dc.lft.to/lastmile_qr_scan", "android": "https://dc.lft.to/lastmile_qr_scan"}, "is_reserved": 0, "fusion_lon": 0.0, "fusion_lat": 0.0, "lon": -76.99035333333333, "name": "ca454819554294cf8935a8c7977a7bf2"}, {"bike_id": "b33be54be594511276696912dcdfc412", "type": "electric_scooter", "is_disabled": 0, "lat": 38.8431465, "rental_uris": {"ios": "https://dc.lft.to/lastmile_qr_scan", "android": "https://dc.lft.to/lastmile_qr_scan"}, "is_reserved": 0, "fusion_lon": 0.0, "fusion_lat": 0.0, "lon": -76.99927833333334, "name": "b33be54be594511276696912dcdfc412"}, {"bike_id": "74b895c241f0f8ebabf28f0f9fd9e25a", "type": "electric_scooter", "is_disabled": 0, "lat": 38.89496916666667, "rental_uris": {"ios": "https://dc.lft.to/lastmile_qr_scan", "android": "https://dc.lft.to/lastmile_qr_scan"}, "is_reserved": 0, "fusion_lon": 0.0, "fusion_lat": 0.0, "lon": -76.98832183333333, "name": "74b895c241f0f8ebabf28f0f9fd9e25a"}, {"bike_id": "a7dcbfea4fadbeed659221af80cdf13b", "type": "electric_scooter", "is_disabled": 0, "lat": 38.896116666666664, "rental_uris": {"ios": "https://dc.lft.to/lastmile_qr_scan", "android": "https://dc.lft.to/lastmile_qr_scan"}, "is_reserved": 0, "fusion_lon": 0.0, "fusion_lat": 0.0, "lon": -77.0268455, "name": "a7dcbfea4fadbeed659221af80cdf13b"}, {"bike_id": "b0ddd12ded62e7c8be7f835763731b76", "type": "electric_scooter", "is_disabled": 0, "lat": 38.89230633333333, "rental_uris": {"ios": "https://dc.lft.to/lastmile_qr_scan", "android": "https://dc.lft.to/lastmile_qr_scan"}, "is_reserved": 0, "fusion_lon": 0.0, "fusion_lat": 0.0, "lon": -77.04999316666667, "name": "b0ddd12ded62e7c8be7f835763731b76"}, {"bike_id": "54328876529f670bd69a23261305cccd", "type": "electric_scooter", "is_disabled": 0, "lat": 38.90644133333333, "rental_uris": {"ios": "https://dc.lft.to/lastmile_qr_scan", "android": "https://dc.lft.to/lastmile_qr_scan"}, "is_reserved": 0, "fusion_lon": 0.0, "fusion_lat": 0.0, "lon": -77.014114, "name": "54328876529f670bd69a23261305cccd"}, {"bike_id": "2297d6c157a76d3b9f047be0123a15b4", "type": "electric_scooter", "is_disabled": 0, "lat": 38.926187166666665, "rental_uris": {"ios": "https://dc.lft.to/lastmile_qr_scan", "android": "https://dc.lft.to/lastmile_qr_scan"}, "is_reserved": 0, "fusion_lon": 0.0, "fusion_lat": 0.0, "lon": -77.0432435, "name": "2297d6c157a76d3b9f047be0123a15b4"}, {"bike_id": "2e57537f9d042950ca8428a9f61c97d2", "type": "electric_scooter", "is_disabled": 0, "lat": 38.935341666666666, "rental_uris": {"ios": "https://dc.lft.to/lastmile_qr_scan", "android": "https://dc.lft.to/lastmile_qr_scan"}, "is_reserved": 0, "fusion_lon": 0.0, "fusion_lat": 0.0, "lon": -77.0388395, "name": "2e57537f9d042950ca8428a9f61c97d2"}, {"bike_id": "60ed14f0632d2b9746c2356eee5dc3d5", "type": "electric_scooter", "is_disabled": 0, "lat": 38.900069, "rental_uris": {"ios": "https://dc.lft.to/lastmile_qr_scan", "android": "https://dc.lft.to/lastmile_qr_scan"}, "is_reserved": 0, "fusion_lon": 0.0, "fusion_lat": 0.0, "lon": -77.001798, "name": "60ed14f0632d2b9746c2356eee5dc3d5"}, {"bike_id": "ca05a59ba3d8273287ad32fe953791e7", "type": "electric_scooter", "is_disabled": 0, "lat": 38.907985, "rental_uris": {"ios": "https://dc.lft.to/lastmile_qr_scan", "android": "https://dc.lft.to/lastmile_qr_scan"}, "is_reserved": 0, "fusion_lon": 0.0, "fusion_lat": 0.0, "lon": -77.03125083333333, "name": "ca05a59ba3d8273287ad32fe953791e7"}, {"bike_id": "e314b0d0acc8175b240f37224a588054", "type": "electric_scooter", "is_disabled": 0, "lat": 38.910167666666666, "rental_uris": {"ios": "https://dc.lft.to/lastmile_qr_scan", "android": "https://dc.lft.to/lastmile_qr_scan"}, "is_reserved": 0, "fusion_lon": 0.0, "fusion_lat": 0.0, "lon": -77.0162655, "name": "e314b0d0acc8175b240f37224a588054"}, {"bike_id": "eed4af6ca15a36f0311739bd302f26b6", "type": "electric_scooter", "is_disabled": 0, "lat": 38.914229166666665, "rental_uris": {"ios": "https://dc.lft.to/lastmile_qr_scan", "android": "https://dc.lft.to/lastmile_qr_scan"}, "is_reserved": 0, "fusion_lon": 0.0, "fusion_lat": 0.0, "lon": -77.02287583333333, "name": "eed4af6ca15a36f0311739bd302f26b6"}, {"bike_id": "f5de55ffee78a7a6a40b7c6dbb188559", "type": "electric_scooter", "is_disabled": 0, "lat": 38.905156833333336, "rental_uris": {"ios": "https://dc.lft.to/lastmile_qr_scan", "android": "https://dc.lft.to/lastmile_qr_scan"}, "is_reserved": 0, "fusion_lon": 0.0, "fusion_lat": 0.0, "lon": -77.0296965, "name": "f5de55ffee78a7a6a40b7c6dbb188559"}, {"bike_id": "80c894236fbc3b5a269d34028fe365a1", "type": "electric_scooter", "is_disabled": 0, "lat": 38.918005666666666, "rental_uris": {"ios": "https://dc.lft.to/lastmile_qr_scan", "android": "https://dc.lft.to/lastmile_qr_scan"}, "is_reserved": 0, "fusion_lon": 0.0, "fusion_lat": 0.0, "lon": -77.03252333333333, "name": "80c894236fbc3b5a269d34028fe365a1"}, {"bike_id": "1582efa0feb845d81f5b63d1bf7de57c", "type": "electric_scooter", "is_disabled": 0, "lat": 38.911433333333335, "rental_uris": {"ios": "https://dc.lft.to/lastmile_qr_scan", "android": "https://dc.lft.to/lastmile_qr_scan"}, "is_reserved": 0, "fusion_lon": 0.0, "fusion_lat": 0.0, "lon": -77.028033, "name": "1582efa0feb845d81f5b63d1bf7de57c"}, {"bike_id": "94271e1ca8cf01dab60504973a124e38", "type": "electric_bike", "is_disabled": 0, "lat": 38.956239833333335, "rental_uris": {"ios": "https://dc.lft.to/lastmile_qr_scan", "android": "https://dc.lft.to/lastmile_qr_scan"}, "is_reserved": 0, "fusion_lon": 0.0, "fusion_lat": 0.0, "lon": -77.02589116666667, "name": "94271e1ca8cf01dab60504973a124e38"}, {"bike_id": "3fee04da97417ea899979b4a50da4be7", "type": "electric_scooter", "is_disabled": 0, "lat": 38.870975333333334, "rental_uris": {"ios": "https://dc.lft.to/lastmile_qr_scan", "android": "https://dc.lft.to/lastmile_qr_scan"}, "is_reserved": 0, "fusion_lon": 0.0, "fusion_lat": 0.0, "lon": -77.0080245, "name": "3fee04da97417ea899979b4a50da4be7"}, {"bike_id": "1072c7e6dadd6e7d81bd0f39cf991f82", "type": "electric_scooter", "is_disabled": 0, "lat": 38.921206833333336, "rental_uris": {"ios": "https://dc.lft.to/lastmile_qr_scan", "android": "https://dc.lft.to/lastmile_qr_scan"}, "is_reserved": 0, "fusion_lon": 0.0, "fusion_lat": 0.0, "lon": -77.04430016666667, "name": "1072c7e6dadd6e7d81bd0f39cf991f82"}, {"bike_id": "edf9932c2a387d79d6d3648ba4ac078b", "type": "electric_scooter", "is_disabled": 0, "lat": 38.9137165, "rental_uris": {"ios": "https://dc.lft.to/lastmile_qr_scan", "android": "https://dc.lft.to/lastmile_qr_scan"}, "is_reserved": 0, "fusion_lon": 0.0, "fusion_lat": 0.0, "lon": -77.03016383333333, "name": "edf9932c2a387d79d6d3648ba4ac078b"}, {"bike_id": "f30238ae052fe60dd7a842ec0cd8e833", "type": "electric_scooter", "is_disabled": 0, "lat": 38.8851475, "rental_uris": {"ios": "https://dc.lft.to/lastmile_qr_scan", "android": "https://dc.lft.to/lastmile_qr_scan"}, "is_reserved": 0, "fusion_lon": 0.0, "fusion_lat": 0.0, "lon": -77.02821366666667, "name": "f30238ae052fe60dd7a842ec0cd8e833"}, {"bike_id": "d17631511043c0feb52671b6e7ad14c1", "type": "electric_scooter", "is_disabled": 0, "lat": 38.914452, "rental_uris": {"ios": "https://dc.lft.to/lastmile_qr_scan", "android": "https://dc.lft.to/lastmile_qr_scan"}, "is_reserved": 0, "fusion_lon": 0.0, "fusion_lat": 0.0, "lon": -77.0726715, "name": "d17631511043c0feb52671b6e7ad14c1"}, {"bike_id": "86a2e221dafffade26c8d6d63bdd1030", "type": "electric_scooter", "is_disabled": 0, "lat": 38.923426166666665, "rental_uris": {"ios": "https://dc.lft.to/lastmile_qr_scan", "android": "https://dc.lft.to/lastmile_qr_scan"}, "is_reserved": 0, "fusion_lon": 0.0, "fusion_lat": 0.0, "lon": -77.05050733333333, "name": "86a2e221dafffade26c8d6d63bdd1030"}, {"bike_id": "2a880b64b1eaf961ff7627e86bae0ed1", "type": "electric_scooter", "is_disabled": 0, "lat": 38.86490416666667, "rental_uris": {"ios": "https://dc.lft.to/lastmile_qr_scan", "android": "https://dc.lft.to/lastmile_qr_scan"}, "is_reserved": 0, "fusion_lon": 0.0, "fusion_lat": 0.0, "lon": -76.97443166666666, "name": "2a880b64b1eaf961ff7627e86bae0ed1"}, {"bike_id": "5b74d199107445a63e071b33e4021ee1", "type": "electric_scooter", "is_disabled": 0, "lat": 38.89999383333333, "rental_uris": {"ios": "https://dc.lft.to/lastmile_qr_scan", "android": "https://dc.lft.to/lastmile_qr_scan"}, "is_reserved": 0, "fusion_lon": 0.0, "fusion_lat": 0.0, "lon": -77.00673116666667, "name": "5b74d199107445a63e071b33e4021ee1"}, {"bike_id": "68762da2392080f37474bd727f40a890", "type": "electric_bike", "is_disabled": 0, "lat": 38.89735866666667, "rental_uris": {"ios": "https://dc.lft.to/lastmile_qr_scan", "android": "https://dc.lft.to/lastmile_qr_scan"}, "is_reserved": 0, "fusion_lon": 0.0, "fusion_lat": 0.0, "lon": -76.9920835, "name": "68762da2392080f37474bd727f40a890"}, {"bike_id": "a3e31c1f924ae8346b337ee441123be6", "type": "electric_scooter", "is_disabled": 0, "lat": 38.936992333333336, "rental_uris": {"ios": "https://dc.lft.to/lastmile_qr_scan", "android": "https://dc.lft.to/lastmile_qr_scan"}, "is_reserved": 0, "fusion_lon": 0.0, "fusion_lat": 0.0, "lon": -77.0328145, "name": "a3e31c1f924ae8346b337ee441123be6"}, {"bike_id": "d3f739cd6d603bbf3657bb75d397999a", "type": "electric_scooter", "is_disabled": 0, "lat": 38.917694833333336, "rental_uris": {"ios": "https://dc.lft.to/lastmile_qr_scan", "android": "https://dc.lft.to/lastmile_qr_scan"}, "is_reserved": 0, "fusion_lon": 0.0, "fusion_lat": 0.0, "lon": -77.014985, "name": "d3f739cd6d603bbf3657bb75d397999a"}, {"bike_id": "34e4d25431e2941c74455218203ed4a0", "type": "electric_scooter", "is_disabled": 0, "lat": 38.90607683333333, "rental_uris": {"ios": "https://dc.lft.to/lastmile_qr_scan", "android": "https://dc.lft.to/lastmile_qr_scan"}, "is_reserved": 0, "fusion_lon": 0.0, "fusion_lat": 0.0, "lon": -77.01203633333333, "name": "34e4d25431e2941c74455218203ed4a0"}, {"bike_id": "f0d5e0ce29ff84a420ee9c6d3746e508", "type": "electric_scooter", "is_disabled": 0, "lat": 38.895281833333335, "rental_uris": {"ios": "https://dc.lft.to/lastmile_qr_scan", "android": "https://dc.lft.to/lastmile_qr_scan"}, "is_reserved": 0, "fusion_lon": 0.0, "fusion_lat": 0.0, "lon": -77.010781, "name": "f0d5e0ce29ff84a420ee9c6d3746e508"}, {"bike_id": "99561e36ded78ac6df4ac1ec95bafb6f", "type": "electric_scooter", "is_disabled": 0, "lat": 38.941009, "rental_uris": {"ios": "https://dc.lft.to/lastmile_qr_scan", "android": "https://dc.lft.to/lastmile_qr_scan"}, "is_reserved": 0, "fusion_lon": 0.0, "fusion_lat": 0.0, "lon": -77.07737133333333, "name": "99561e36ded78ac6df4ac1ec95bafb6f"}, {"bike_id": "f6135eb8abf29a1298b3416d64d4f5c6", "type": "electric_scooter", "is_disabled": 0, "lat": 38.863764, "rental_uris": {"ios": "https://dc.lft.to/lastmile_qr_scan", "android": "https://dc.lft.to/lastmile_qr_scan"}, "is_reserved": 0, "fusion_lon": 0.0, "fusion_lat": 0.0, "lon": -76.99056933333334, "name": "f6135eb8abf29a1298b3416d64d4f5c6"}, {"bike_id": "2ff174617bc292ae13b6e0e8def888e2", "type": "electric_scooter", "is_disabled": 0, "lat": 38.94271033333333, "rental_uris": {"ios": "https://dc.lft.to/lastmile_qr_scan", "android": "https://dc.lft.to/lastmile_qr_scan"}, "is_reserved": 0, "fusion_lon": 0.0, "fusion_lat": 0.0, "lon": -77.03257216666667, "name": "2ff174617bc292ae13b6e0e8def888e2"}, {"bike_id": "62d6dfb5fc61ad9c50cad2e7c9b1076f", "type": "electric_scooter", "is_disabled": 0, "lat": 38.86435766666666, "rental_uris": {"ios": "https://dc.lft.to/lastmile_qr_scan", "android": "https://dc.lft.to/lastmile_qr_scan"}, "is_reserved": 0, "fusion_lon": 0.0, "fusion_lat": 0.0, "lon": -76.9898955, "name": "62d6dfb5fc61ad9c50cad2e7c9b1076f"}, {"bike_id": "54a368c498c2f6b78010a85cd329c5ae", "type": "electric_scooter", "is_disabled": 0, "lat": 38.92859116666666, "rental_uris": {"ios": "https://dc.lft.to/lastmile_qr_scan", "android": "https://dc.lft.to/lastmile_qr_scan"}, "is_reserved": 0, "fusion_lon": 0.0, "fusion_lat": 0.0, "lon": -77.0194105, "name": "54a368c498c2f6b78010a85cd329c5ae"}, {"bike_id": "e3778c3c5bf19f1afa1dae2894c97a72", "type": "electric_scooter", "is_disabled": 0, "lat": 38.900971166666665, "rental_uris": {"ios": "https://dc.lft.to/lastmile_qr_scan", "android": "https://dc.lft.to/lastmile_qr_scan"}, "is_reserved": 0, "fusion_lon": 0.0, "fusion_lat": 0.0, "lon": -77.0577765, "name": "e3778c3c5bf19f1afa1dae2894c97a72"}, {"bike_id": "b0f597bb3fa1e640078704f7c832f238", "type": "electric_scooter", "is_disabled": 0, "lat": 38.921502333333336, "rental_uris": {"ios": "https://dc.lft.to/lastmile_qr_scan", "android": "https://dc.lft.to/lastmile_qr_scan"}, "is_reserved": 0, "fusion_lon": 0.0, "fusion_lat": 0.0, "lon": -77.03529, "name": "b0f597bb3fa1e640078704f7c832f238"}, {"bike_id": "9e0340028b254071a9174cb42ade9e8e", "type": "electric_scooter", "is_disabled": 0, "lat": 38.91003716666667, "rental_uris": {"ios": "https://dc.lft.to/lastmile_qr_scan", "android": "https://dc.lft.to/lastmile_qr_scan"}, "is_reserved": 0, "fusion_lon": 0.0, "fusion_lat": 0.0, "lon": -76.98635966666667, "name": "9e0340028b254071a9174cb42ade9e8e"}, {"bike_id": "5435a45b23ad0129ffa6af86dae125bd", "type": "electric_scooter", "is_disabled": 0, "lat": 38.936785666666665, "rental_uris": {"ios": "https://dc.lft.to/lastmile_qr_scan", "android": "https://dc.lft.to/lastmile_qr_scan"}, "is_reserved": 0, "fusion_lon": 0.0, "fusion_lat": 0.0, "lon": -77.03628933333333, "name": "5435a45b23ad0129ffa6af86dae125bd"}, {"bike_id": "a39bc364e24b036bced281d1e29f52ad", "type": "electric_scooter", "is_disabled": 0, "lat": 38.94793416666667, "rental_uris": {"ios": "https://dc.lft.to/lastmile_qr_scan", "android": "https://dc.lft.to/lastmile_qr_scan"}, "is_reserved": 0, "fusion_lon": 0.0, "fusion_lat": 0.0, "lon": -77.02133916666666, "name": "a39bc364e24b036bced281d1e29f52ad"}, {"bike_id": "84c63a270320d416b1f76b3e82af5b42", "type": "electric_scooter", "is_disabled": 0, "lat": 38.919334166666665, "rental_uris": {"ios": "https://dc.lft.to/lastmile_qr_scan", "android": "https://dc.lft.to/lastmile_qr_scan"}, "is_reserved": 0, "fusion_lon": 0.0, "fusion_lat": 0.0, "lon": -77.04488766666667, "name": "84c63a270320d416b1f76b3e82af5b42"}, {"bike_id": "1e7000c0554e79a23bea436e83c12a77", "type": "electric_scooter", "is_disabled": 0, "lat": 38.906915833333336, "rental_uris": {"ios": "https://dc.lft.to/lastmile_qr_scan", "android": "https://dc.lft.to/lastmile_qr_scan"}, "is_reserved": 0, "fusion_lon": 0.0, "fusion_lat": 0.0, "lon": -77.03581833333334, "name": "1e7000c0554e79a23bea436e83c12a77"}, {"bike_id": "8455ca32e9f8b919c41301ee3fc0e818", "type": "electric_bike", "is_disabled": 0, "lat": 38.880594, "rental_uris": {"ios": "https://dc.lft.to/lastmile_qr_scan", "android": "https://dc.lft.to/lastmile_qr_scan"}, "is_reserved": 0, "fusion_lon": 0.0, "fusion_lat": 0.0, "lon": -76.96238066666666, "name": "8455ca32e9f8b919c41301ee3fc0e818"}, {"bike_id": "762a4238347ebeed1d23753623259856", "type": "electric_scooter", "is_disabled": 0, "lat": 38.91610716666667, "rental_uris": {"ios": "https://dc.lft.to/lastmile_qr_scan", "android": "https://dc.lft.to/lastmile_qr_scan"}, "is_reserved": 0, "fusion_lon": 0.0, "fusion_lat": 0.0, "lon": -77.04857683333333, "name": "762a4238347ebeed1d23753623259856"}, {"bike_id": "af145bf797a80aad0f15474dd13b825a", "type": "electric_scooter", "is_disabled": 0, "lat": 38.91368033333333, "rental_uris": {"ios": "https://dc.lft.to/lastmile_qr_scan", "android": "https://dc.lft.to/lastmile_qr_scan"}, "is_reserved": 0, "fusion_lon": 0.0, "fusion_lat": 0.0, "lon": -77.0726415, "name": "af145bf797a80aad0f15474dd13b825a"}, {"bike_id": "e1c560f3f2960eaaacc4de52d33f5a99", "type": "electric_scooter", "is_disabled": 0, "lat": 38.9213175, "rental_uris": {"ios": "https://dc.lft.to/lastmile_qr_scan", "android": "https://dc.lft.to/lastmile_qr_scan"}, "is_reserved": 0, "fusion_lon": 0.0, "fusion_lat": 0.0, "lon": -77.0457205, "name": "e1c560f3f2960eaaacc4de52d33f5a99"}, {"bike_id": "23ad857422d76f626e26e278603ccd9b", "type": "electric_scooter", "is_disabled": 0, "lat": 38.94704866666667, "rental_uris": {"ios": "https://dc.lft.to/lastmile_qr_scan", "android": "https://dc.lft.to/lastmile_qr_scan"}, "is_reserved": 0, "fusion_lon": 0.0, "fusion_lat": 0.0, "lon": -77.01937066666666, "name": "23ad857422d76f626e26e278603ccd9b"}, {"bike_id": "4c8303c974bdca9c78dffe4e004916d3", "type": "electric_bike", "is_disabled": 0, "lat": 38.91015266666667, "rental_uris": {"ios": "https://dc.lft.to/lastmile_qr_scan", "android": "https://dc.lft.to/lastmile_qr_scan"}, "is_reserved": 0, "fusion_lon": 0.0, "fusion_lat": 0.0, "lon": -77.227976, "name": "4c8303c974bdca9c78dffe4e004916d3"}, {"bike_id": "6f8888fb93dc4ad4d41a1b0f4cd879d7", "type": "electric_bike", "is_disabled": 0, "lat": 38.87279516666667, "rental_uris": {"ios": "https://dc.lft.to/lastmile_qr_scan", "android": "https://dc.lft.to/lastmile_qr_scan"}, "is_reserved": 0, "fusion_lon": 0.0, "fusion_lat": 0.0, "lon": -77.23314766666667, "name": "6f8888fb93dc4ad4d41a1b0f4cd879d7"}, {"bike_id": "689f064735c01a3ac5a7cf57d2fa3f7d", "type": "electric_scooter", "is_disabled": 0, "lat": 38.91915733333333, "rental_uris": {"ios": "https://dc.lft.to/lastmile_qr_scan", "android": "https://dc.lft.to/lastmile_qr_scan"}, "is_reserved": 0, "fusion_lon": 0.0, "fusion_lat": 0.0, "lon": -77.01417266666667, "name": "689f064735c01a3ac5a7cf57d2fa3f7d"}, {"bike_id": "1494a3d5b1aebaa0e21aac714d85ebe4", "type": "electric_scooter", "is_disabled": 0, "lat": 38.926079666666666, "rental_uris": {"ios": "https://dc.lft.to/lastmile_qr_scan", "android": "https://dc.lft.to/lastmile_qr_scan"}, "is_reserved": 0, "fusion_lon": 0.0, "fusion_lat": 0.0, "lon": -77.0250395, "name": "1494a3d5b1aebaa0e21aac714d85ebe4"}, {"bike_id": "44de563c8c696a907f40452c427eef44", "type": "electric_scooter", "is_disabled": 0, "lat": 38.924446, "rental_uris": {"ios": "https://dc.lft.to/lastmile_qr_scan", "android": "https://dc.lft.to/lastmile_qr_scan"}, "is_reserved": 0, "fusion_lon": 0.0, "fusion_lat": 0.0, "lon": -77.03352783333334, "name": "44de563c8c696a907f40452c427eef44"}, {"bike_id": "7845e02e781c0e5b21bde75c70d199ec", "type": "electric_scooter", "is_disabled": 0, "lat": 38.91406033333333, "rental_uris": {"ios": "https://dc.lft.to/lastmile_qr_scan", "android": "https://dc.lft.to/lastmile_qr_scan"}, "is_reserved": 0, "fusion_lon": 0.0, "fusion_lat": 0.0, "lon": -77.01558283333334, "name": "7845e02e781c0e5b21bde75c70d199ec"}, {"bike_id": "e58a5c5403403f7df26a2d135e4e2aa2", "type": "electric_scooter", "is_disabled": 0, "lat": 38.869756833333334, "rental_uris": {"ios": "https://dc.lft.to/lastmile_qr_scan", "android": "https://dc.lft.to/lastmile_qr_scan"}, "is_reserved": 0, "fusion_lon": 0.0, "fusion_lat": 0.0, "lon": -76.9817405, "name": "e58a5c5403403f7df26a2d135e4e2aa2"}, {"bike_id": "463d0dfed2dc555f2032229d118049fd", "type": "electric_scooter", "is_disabled": 0, "lat": 38.90249283333333, "rental_uris": {"ios": "https://dc.lft.to/lastmile_qr_scan", "android": "https://dc.lft.to/lastmile_qr_scan"}, "is_reserved": 0, "fusion_lon": 0.0, "fusion_lat": 0.0, "lon": -77.0395465, "name": "463d0dfed2dc555f2032229d118049fd"}, {"bike_id": "7fd8321310c1ec1d2b915407a36cf2c1", "type": "electric_scooter", "is_disabled": 0, "lat": 38.9058205, "rental_uris": {"ios": "https://dc.lft.to/lastmile_qr_scan", "android": "https://dc.lft.to/lastmile_qr_scan"}, "is_reserved": 0, "fusion_lon": 0.0, "fusion_lat": 0.0, "lon": -77.01998733333333, "name": "7fd8321310c1ec1d2b915407a36cf2c1"}, {"bike_id": "16a9efc291b3a3cfff0ce2ff28a2ce18", "type": "electric_scooter", "is_disabled": 0, "lat": 38.86409316666666, "rental_uris": {"ios": "https://dc.lft.to/lastmile_qr_scan", "android": "https://dc.lft.to/lastmile_qr_scan"}, "is_reserved": 0, "fusion_lon": 0.0, "fusion_lat": 0.0, "lon": -76.98044466666667, "name": "16a9efc291b3a3cfff0ce2ff28a2ce18"}, {"bike_id": "bc4de786401de98aa428737b1cda02db", "type": "electric_scooter", "is_disabled": 0, "lat": 38.863742333333334, "rental_uris": {"ios": "https://dc.lft.to/lastmile_qr_scan", "android": "https://dc.lft.to/lastmile_qr_scan"}, "is_reserved": 0, "fusion_lon": 0.0, "fusion_lat": 0.0, "lon": -76.990605, "name": "bc4de786401de98aa428737b1cda02db"}, {"bike_id": "c80085db814bcac6706f1949f99a5d6f", "type": "electric_scooter", "is_disabled": 0, "lat": 38.908489333333335, "rental_uris": {"ios": "https://dc.lft.to/lastmile_qr_scan", "android": "https://dc.lft.to/lastmile_qr_scan"}, "is_reserved": 0, "fusion_lon": 0.0, "fusion_lat": 0.0, "lon": -76.9979585, "name": "c80085db814bcac6706f1949f99a5d6f"}, {"bike_id": "0099642608e56063a40b30e10f72b1c9", "type": "electric_scooter", "is_disabled": 0, "lat": 38.88356366666667, "rental_uris": {"ios": "https://dc.lft.to/lastmile_qr_scan", "android": "https://dc.lft.to/lastmile_qr_scan"}, "is_reserved": 0, "fusion_lon": 0.0, "fusion_lat": 0.0, "lon": -77.02609566666666, "name": "0099642608e56063a40b30e10f72b1c9"}, {"bike_id": "64ae497f08ae698638a3e4a8e82e3074", "type": "electric_scooter", "is_disabled": 0, "lat": 38.91919266666667, "rental_uris": {"ios": "https://dc.lft.to/lastmile_qr_scan", "android": "https://dc.lft.to/lastmile_qr_scan"}, "is_reserved": 0, "fusion_lon": 0.0, "fusion_lat": 0.0, "lon": -77.04244533333333, "name": "64ae497f08ae698638a3e4a8e82e3074"}, {"bike_id": "5becf4d543e5410491171b7ba9e8be72", "type": "electric_scooter", "is_disabled": 0, "lat": 38.86677366666667, "rental_uris": {"ios": "https://dc.lft.to/lastmile_qr_scan", "android": "https://dc.lft.to/lastmile_qr_scan"}, "is_reserved": 0, "fusion_lon": 0.0, "fusion_lat": 0.0, "lon": -76.98560433333333, "name": "5becf4d543e5410491171b7ba9e8be72"}, {"bike_id": "06dc3b5e799d08d44dc38944126e1528", "type": "electric_scooter", "is_disabled": 0, "lat": 38.9050845, "rental_uris": {"ios": "https://dc.lft.to/lastmile_qr_scan", "android": "https://dc.lft.to/lastmile_qr_scan"}, "is_reserved": 0, "fusion_lon": 0.0, "fusion_lat": 0.0, "lon": -77.05123616666667, "name": "06dc3b5e799d08d44dc38944126e1528"}, {"bike_id": "949edaa9d5d3440dd1bd51b289a18f36", "type": "electric_scooter", "is_disabled": 0, "lat": 38.9203295, "rental_uris": {"ios": "https://dc.lft.to/lastmile_qr_scan", "android": "https://dc.lft.to/lastmile_qr_scan"}, "is_reserved": 0, "fusion_lon": 0.0, "fusion_lat": 0.0, "lon": -77.03127716666667, "name": "949edaa9d5d3440dd1bd51b289a18f36"}, {"bike_id": "7bdf9e12851c671793d1c3664c4b2af5", "type": "electric_scooter", "is_disabled": 0, "lat": 38.900230666666666, "rental_uris": {"ios": "https://dc.lft.to/lastmile_qr_scan", "android": "https://dc.lft.to/lastmile_qr_scan"}, "is_reserved": 0, "fusion_lon": 0.0, "fusion_lat": 0.0, "lon": -77.04684833333333, "name": "7bdf9e12851c671793d1c3664c4b2af5"}, {"bike_id": "fc23b97e49fe31e10548b44c14a5a6c1", "type": "electric_scooter", "is_disabled": 0, "lat": 38.8981145, "rental_uris": {"ios": "https://dc.lft.to/lastmile_qr_scan", "android": "https://dc.lft.to/lastmile_qr_scan"}, "is_reserved": 0, "fusion_lon": 0.0, "fusion_lat": 0.0, "lon": -77.011761, "name": "fc23b97e49fe31e10548b44c14a5a6c1"}, {"bike_id": "b4daa307205e0748a2da3946dfca4c4e", "type": "electric_scooter", "is_disabled": 0, "lat": 38.926601, "rental_uris": {"ios": "https://dc.lft.to/lastmile_qr_scan", "android": "https://dc.lft.to/lastmile_qr_scan"}, "is_reserved": 0, "fusion_lon": 0.0, "fusion_lat": 0.0, "lon": -77.0373085, "name": "b4daa307205e0748a2da3946dfca4c4e"}, {"bike_id": "14b069cce1a3d305e6ab8b3581f5482a", "type": "electric_scooter", "is_disabled": 0, "lat": 38.91051366666667, "rental_uris": {"ios": "https://dc.lft.to/lastmile_qr_scan", "android": "https://dc.lft.to/lastmile_qr_scan"}, "is_reserved": 0, "fusion_lon": 0.0, "fusion_lat": 0.0, "lon": -77.05878183333333, "name": "14b069cce1a3d305e6ab8b3581f5482a"}, {"bike_id": "e35cda9830011f69711456c1d0258e66", "type": "electric_scooter", "is_disabled": 0, "lat": 38.91118433333333, "rental_uris": {"ios": "https://dc.lft.to/lastmile_qr_scan", "android": "https://dc.lft.to/lastmile_qr_scan"}, "is_reserved": 0, "fusion_lon": 0.0, "fusion_lat": 0.0, "lon": -77.0423165, "name": "e35cda9830011f69711456c1d0258e66"}, {"bike_id": "e55b56bb9c75c876f8299e53a2e7a210", "type": "electric_scooter", "is_disabled": 0, "lat": 38.92118583333333, "rental_uris": {"ios": "https://dc.lft.to/lastmile_qr_scan", "android": "https://dc.lft.to/lastmile_qr_scan"}, "is_reserved": 0, "fusion_lon": 0.0, "fusion_lat": 0.0, "lon": -77.036551, "name": "e55b56bb9c75c876f8299e53a2e7a210"}, {"bike_id": "d51c697b4e0c1660ebb49292d0863e68", "type": "electric_scooter", "is_disabled": 0, "lat": 38.906721, "rental_uris": {"ios": "https://dc.lft.to/lastmile_qr_scan", "android": "https://dc.lft.to/lastmile_qr_scan"}, "is_reserved": 0, "fusion_lon": 0.0, "fusion_lat": 0.0, "lon": -77.02709366666667, "name": "d51c697b4e0c1660ebb49292d0863e68"}, {"bike_id": "a01bf07e480c6749fd9b65499a93320b", "type": "electric_scooter", "is_disabled": 0, "lat": 38.92365566666667, "rental_uris": {"ios": "https://dc.lft.to/lastmile_qr_scan", "android": "https://dc.lft.to/lastmile_qr_scan"}, "is_reserved": 0, "fusion_lon": 0.0, "fusion_lat": 0.0, "lon": -77.0512605, "name": "a01bf07e480c6749fd9b65499a93320b"}, {"bike_id": "2b63b650a11d27208ff1b31c6efae511", "type": "electric_scooter", "is_disabled": 0, "lat": 38.91414833333333, "rental_uris": {"ios": "https://dc.lft.to/lastmile_qr_scan", "android": "https://dc.lft.to/lastmile_qr_scan"}, "is_reserved": 0, "fusion_lon": 0.0, "fusion_lat": 0.0, "lon": -77.02984833333333, "name": "2b63b650a11d27208ff1b31c6efae511"}, {"bike_id": "74a00993bb5d143c202aae71d119ec25", "type": "electric_bike", "is_disabled": 0, "lat": 39.0505185, "rental_uris": {"ios": "https://dc.lft.to/lastmile_qr_scan", "android": "https://dc.lft.to/lastmile_qr_scan"}, "is_reserved": 0, "fusion_lon": 0.0, "fusion_lat": 0.0, "lon": -77.05144216666666, "name": "74a00993bb5d143c202aae71d119ec25"}, {"bike_id": "f041b934f58ed8c0eda16ed5adc0dbdf", "type": "electric_bike", "is_disabled": 0, "lat": 38.83240816666667, "rental_uris": {"ios": "https://dc.lft.to/lastmile_qr_scan", "android": "https://dc.lft.to/lastmile_qr_scan"}, "is_reserved": 0, "fusion_lon": 0.0, "fusion_lat": 0.0, "lon": -76.94627233333334, "name": "f041b934f58ed8c0eda16ed5adc0dbdf"}, {"bike_id": "2bcc6575b9f6a65c22aeefad89f8b9f2", "type": "electric_scooter", "is_disabled": 0, "lat": 38.90009516666667, "rental_uris": {"ios": "https://dc.lft.to/lastmile_qr_scan", "android": "https://dc.lft.to/lastmile_qr_scan"}, "is_reserved": 0, "fusion_lon": 0.0, "fusion_lat": 0.0, "lon": -77.0446865, "name": "2bcc6575b9f6a65c22aeefad89f8b9f2"}, {"bike_id": "e059a2beb2ac3494318ffdaa861dc06c", "type": "electric_scooter", "is_disabled": 0, "lat": 38.93259533333333, "rental_uris": {"ios": "https://dc.lft.to/lastmile_qr_scan", "android": "https://dc.lft.to/lastmile_qr_scan"}, "is_reserved": 0, "fusion_lon": 0.0, "fusion_lat": 0.0, "lon": -77.03852316666666, "name": "e059a2beb2ac3494318ffdaa861dc06c"}, {"bike_id": "3a805134403f8f03080468afd6b393d2", "type": "electric_scooter", "is_disabled": 0, "lat": 38.89385583333333, "rental_uris": {"ios": "https://dc.lft.to/lastmile_qr_scan", "android": "https://dc.lft.to/lastmile_qr_scan"}, "is_reserved": 0, "fusion_lon": 0.0, "fusion_lat": 0.0, "lon": -77.02867866666666, "name": "3a805134403f8f03080468afd6b393d2"}, {"bike_id": "6771abfff6fb31f7ed61fe4b346d78f8", "type": "electric_scooter", "is_disabled": 0, "lat": 38.904287, "rental_uris": {"ios": "https://dc.lft.to/lastmile_qr_scan", "android": "https://dc.lft.to/lastmile_qr_scan"}, "is_reserved": 0, "fusion_lon": 0.0, "fusion_lat": 0.0, "lon": -77.0276835, "name": "6771abfff6fb31f7ed61fe4b346d78f8"}, {"bike_id": "c18e20477f8725075954420d67912934", "type": "electric_scooter", "is_disabled": 0, "lat": 38.923806666666664, "rental_uris": {"ios": "https://dc.lft.to/lastmile_qr_scan", "android": "https://dc.lft.to/lastmile_qr_scan"}, "is_reserved": 0, "fusion_lon": 0.0, "fusion_lat": 0.0, "lon": -77.03074, "name": "c18e20477f8725075954420d67912934"}, {"bike_id": "4b71e0a5da40ab69543a723878001075", "type": "electric_scooter", "is_disabled": 0, "lat": 38.8801295, "rental_uris": {"ios": "https://dc.lft.to/lastmile_qr_scan", "android": "https://dc.lft.to/lastmile_qr_scan"}, "is_reserved": 0, "fusion_lon": 0.0, "fusion_lat": 0.0, "lon": -77.024665, "name": "4b71e0a5da40ab69543a723878001075"}, {"bike_id": "1ad75c988b3267daaa0bde4fadf7bfd9", "type": "electric_scooter", "is_disabled": 0, "lat": 38.8843395, "rental_uris": {"ios": "https://dc.lft.to/lastmile_qr_scan", "android": "https://dc.lft.to/lastmile_qr_scan"}, "is_reserved": 0, "fusion_lon": 0.0, "fusion_lat": 0.0, "lon": -76.957483, "name": "1ad75c988b3267daaa0bde4fadf7bfd9"}, {"bike_id": "19edc8d690c25ed639ac99f8c0f986df", "type": "electric_scooter", "is_disabled": 0, "lat": 38.91976966666667, "rental_uris": {"ios": "https://dc.lft.to/lastmile_qr_scan", "android": "https://dc.lft.to/lastmile_qr_scan"}, "is_reserved": 0, "fusion_lon": 0.0, "fusion_lat": 0.0, "lon": -77.01914966666666, "name": "19edc8d690c25ed639ac99f8c0f986df"}, {"bike_id": "5044f677bfe94d3ff23d7152e87152ba", "type": "electric_scooter", "is_disabled": 0, "lat": 38.91402516666667, "rental_uris": {"ios": "https://dc.lft.to/lastmile_qr_scan", "android": "https://dc.lft.to/lastmile_qr_scan"}, "is_reserved": 0, "fusion_lon": 0.0, "fusion_lat": 0.0, "lon": -77.0447795, "name": "5044f677bfe94d3ff23d7152e87152ba"}, {"bike_id": "cd6dfbfea83b40d3a7d8f2bee071b041", "type": "electric_scooter", "is_disabled": 0, "lat": 38.957331, "rental_uris": {"ios": "https://dc.lft.to/lastmile_qr_scan", "android": "https://dc.lft.to/lastmile_qr_scan"}, "is_reserved": 0, "fusion_lon": 0.0, "fusion_lat": 0.0, "lon": -77.024196, "name": "cd6dfbfea83b40d3a7d8f2bee071b041"}, {"bike_id": "f266d3b1662d6ff118b4ccad3df982d5", "type": "electric_scooter", "is_disabled": 0, "lat": 38.931133833333334, "rental_uris": {"ios": "https://dc.lft.to/lastmile_qr_scan", "android": "https://dc.lft.to/lastmile_qr_scan"}, "is_reserved": 0, "fusion_lon": 0.0, "fusion_lat": 0.0, "lon": -77.03805416666667, "name": "f266d3b1662d6ff118b4ccad3df982d5"}, {"bike_id": "da11faa277c2b58b6d729fd2b74b4cd7", "type": "electric_scooter", "is_disabled": 0, "lat": 38.93651783333333, "rental_uris": {"ios": "https://dc.lft.to/lastmile_qr_scan", "android": "https://dc.lft.to/lastmile_qr_scan"}, "is_reserved": 0, "fusion_lon": 0.0, "fusion_lat": 0.0, "lon": -77.02634733333333, "name": "da11faa277c2b58b6d729fd2b74b4cd7"}, {"bike_id": "6ed4f47e4d0ac767d1353e25acbc8260", "type": "electric_scooter", "is_disabled": 0, "lat": 38.9169825, "rental_uris": {"ios": "https://dc.lft.to/lastmile_qr_scan", "android": "https://dc.lft.to/lastmile_qr_scan"}, "is_reserved": 0, "fusion_lon": 0.0, "fusion_lat": 0.0, "lon": -77.03219316666667, "name": "6ed4f47e4d0ac767d1353e25acbc8260"}, {"bike_id": "a1d540825748bf71f87554336128f05b", "type": "electric_scooter", "is_disabled": 0, "lat": 38.8920165, "rental_uris": {"ios": "https://dc.lft.to/lastmile_qr_scan", "android": "https://dc.lft.to/lastmile_qr_scan"}, "is_reserved": 0, "fusion_lon": 0.0, "fusion_lat": 0.0, "lon": -76.9993395, "name": "a1d540825748bf71f87554336128f05b"}, {"bike_id": "afb13c0b3b8c59cfea8927c4e1db9b62", "type": "electric_scooter", "is_disabled": 0, "lat": 38.888469666666666, "rental_uris": {"ios": "https://dc.lft.to/lastmile_qr_scan", "android": "https://dc.lft.to/lastmile_qr_scan"}, "is_reserved": 0, "fusion_lon": 0.0, "fusion_lat": 0.0, "lon": -76.92676783333333, "name": "afb13c0b3b8c59cfea8927c4e1db9b62"}, {"bike_id": "7654895c89c166d50d899d4343f66fdf", "type": "electric_scooter", "is_disabled": 0, "lat": 38.930663833333334, "rental_uris": {"ios": "https://dc.lft.to/lastmile_qr_scan", "android": "https://dc.lft.to/lastmile_qr_scan"}, "is_reserved": 0, "fusion_lon": 0.0, "fusion_lat": 0.0, "lon": -77.0297815, "name": "7654895c89c166d50d899d4343f66fdf"}, {"bike_id": "cd969d44c9c4d21a2cb24e62f9b33113", "type": "electric_scooter", "is_disabled": 0, "lat": 38.9155865, "rental_uris": {"ios": "https://dc.lft.to/lastmile_qr_scan", "android": "https://dc.lft.to/lastmile_qr_scan"}, "is_reserved": 0, "fusion_lon": 0.0, "fusion_lat": 0.0, "lon": -77.023347, "name": "cd969d44c9c4d21a2cb24e62f9b33113"}, {"bike_id": "493c34f21df2a50f704b1d2beed43ffb", "type": "electric_scooter", "is_disabled": 0, "lat": 38.933299, "rental_uris": {"ios": "https://dc.lft.to/lastmile_qr_scan", "android": "https://dc.lft.to/lastmile_qr_scan"}, "is_reserved": 0, "fusion_lon": 0.0, "fusion_lat": 0.0, "lon": -77.03440133333334, "name": "493c34f21df2a50f704b1d2beed43ffb"}, {"bike_id": "dff6661bdb0140fa0ae5a07db6032b90", "type": "electric_scooter", "is_disabled": 0, "lat": 38.923832833333336, "rental_uris": {"ios": "https://dc.lft.to/lastmile_qr_scan", "android": "https://dc.lft.to/lastmile_qr_scan"}, "is_reserved": 0, "fusion_lon": 0.0, "fusion_lat": 0.0, "lon": -77.031263, "name": "dff6661bdb0140fa0ae5a07db6032b90"}, {"bike_id": "88e60acefb3a8240dab3f3a448c83b9e", "type": "electric_scooter", "is_disabled": 0, "lat": 38.914426166666665, "rental_uris": {"ios": "https://dc.lft.to/lastmile_qr_scan", "android": "https://dc.lft.to/lastmile_qr_scan"}, "is_reserved": 0, "fusion_lon": 0.0, "fusion_lat": 0.0, "lon": -77.022846, "name": "88e60acefb3a8240dab3f3a448c83b9e"}, {"bike_id": "5212cfe2d96d572681f09115b6c75586", "type": "electric_bike", "is_disabled": 0, "lat": 38.86938283333333, "rental_uris": {"ios": "https://dc.lft.to/lastmile_qr_scan", "android": "https://dc.lft.to/lastmile_qr_scan"}, "is_reserved": 0, "fusion_lon": 0.0, "fusion_lat": 0.0, "lon": -77.09463216666667, "name": "5212cfe2d96d572681f09115b6c75586"}, {"bike_id": "37980272de2262b696aa34f45fa03170", "type": "electric_scooter", "is_disabled": 0, "lat": 38.919256, "rental_uris": {"ios": "https://dc.lft.to/lastmile_qr_scan", "android": "https://dc.lft.to/lastmile_qr_scan"}, "is_reserved": 0, "fusion_lon": 0.0, "fusion_lat": 0.0, "lon": -77.07378183333333, "name": "37980272de2262b696aa34f45fa03170"}, {"bike_id": "e10c8943a17c75b09fd628f1c9ec5874", "type": "electric_scooter", "is_disabled": 0, "lat": 38.926843, "rental_uris": {"ios": "https://dc.lft.to/lastmile_qr_scan", "android": "https://dc.lft.to/lastmile_qr_scan"}, "is_reserved": 0, "fusion_lon": 0.0, "fusion_lat": 0.0, "lon": -77.02782916666666, "name": "e10c8943a17c75b09fd628f1c9ec5874"}, {"bike_id": "b9941b7377ad23aad7278d7909454a16", "type": "electric_scooter", "is_disabled": 0, "lat": 38.89310583333334, "rental_uris": {"ios": "https://dc.lft.to/lastmile_qr_scan", "android": "https://dc.lft.to/lastmile_qr_scan"}, "is_reserved": 0, "fusion_lon": 0.0, "fusion_lat": 0.0, "lon": -76.93974933333334, "name": "b9941b7377ad23aad7278d7909454a16"}, {"bike_id": "33d30776802fbacc520d55e8bb1cb732", "type": "electric_scooter", "is_disabled": 0, "lat": 38.8796655, "rental_uris": {"ios": "https://dc.lft.to/lastmile_qr_scan", "android": "https://dc.lft.to/lastmile_qr_scan"}, "is_reserved": 0, "fusion_lon": 0.0, "fusion_lat": 0.0, "lon": -76.9853185, "name": "33d30776802fbacc520d55e8bb1cb732"}, {"bike_id": "641b89d38c68d3fcad030c5a6f17e721", "type": "electric_scooter", "is_disabled": 0, "lat": 38.91579516666667, "rental_uris": {"ios": "https://dc.lft.to/lastmile_qr_scan", "android": "https://dc.lft.to/lastmile_qr_scan"}, "is_reserved": 0, "fusion_lon": 0.0, "fusion_lat": 0.0, "lon": -77.0453325, "name": "641b89d38c68d3fcad030c5a6f17e721"}, {"bike_id": "3fb4b1e526b2d45fc48ebfbaa597b116", "type": "electric_scooter", "is_disabled": 0, "lat": 38.920469833333335, "rental_uris": {"ios": "https://dc.lft.to/lastmile_qr_scan", "android": "https://dc.lft.to/lastmile_qr_scan"}, "is_reserved": 0, "fusion_lon": 0.0, "fusion_lat": 0.0, "lon": -77.0173535, "name": "3fb4b1e526b2d45fc48ebfbaa597b116"}, {"bike_id": "9437d283a039559db4031d6dfc8dab11", "type": "electric_scooter", "is_disabled": 0, "lat": 38.87723, "rental_uris": {"ios": "https://dc.lft.to/lastmile_qr_scan", "android": "https://dc.lft.to/lastmile_qr_scan"}, "is_reserved": 0, "fusion_lon": 0.0, "fusion_lat": 0.0, "lon": -77.01742616666667, "name": "9437d283a039559db4031d6dfc8dab11"}, {"bike_id": "ff48ea95476b31417a0836e939b61858", "type": "electric_scooter", "is_disabled": 0, "lat": 38.909542333333334, "rental_uris": {"ios": "https://dc.lft.to/lastmile_qr_scan", "android": "https://dc.lft.to/lastmile_qr_scan"}, "is_reserved": 0, "fusion_lon": 0.0, "fusion_lat": 0.0, "lon": -77.0231065, "name": "ff48ea95476b31417a0836e939b61858"}, {"bike_id": "ac31faf4eea4381a86a993c892f78c13", "type": "electric_scooter", "is_disabled": 0, "lat": 38.9248675, "rental_uris": {"ios": "https://dc.lft.to/lastmile_qr_scan", "android": "https://dc.lft.to/lastmile_qr_scan"}, "is_reserved": 0, "fusion_lon": 0.0, "fusion_lat": 0.0, "lon": -77.057484, "name": "ac31faf4eea4381a86a993c892f78c13"}, {"bike_id": "77e6f1ec6b187ee20c5bf55a1c890575", "type": "electric_scooter", "is_disabled": 0, "lat": 38.909090666666664, "rental_uris": {"ios": "https://dc.lft.to/lastmile_qr_scan", "android": "https://dc.lft.to/lastmile_qr_scan"}, "is_reserved": 0, "fusion_lon": 0.0, "fusion_lat": 0.0, "lon": -76.98421366666666, "name": "77e6f1ec6b187ee20c5bf55a1c890575"}, {"bike_id": "4a6107028c739085c21f0c915a764d53", "type": "electric_scooter", "is_disabled": 0, "lat": 38.933161166666665, "rental_uris": {"ios": "https://dc.lft.to/lastmile_qr_scan", "android": "https://dc.lft.to/lastmile_qr_scan"}, "is_reserved": 0, "fusion_lon": 0.0, "fusion_lat": 0.0, "lon": -77.03259133333333, "name": "4a6107028c739085c21f0c915a764d53"}, {"bike_id": "6dd49e4dc31e7e7ae497155fc924f984", "type": "electric_scooter", "is_disabled": 0, "lat": 38.9163565, "rental_uris": {"ios": "https://dc.lft.to/lastmile_qr_scan", "android": "https://dc.lft.to/lastmile_qr_scan"}, "is_reserved": 0, "fusion_lon": 0.0, "fusion_lat": 0.0, "lon": -77.048032, "name": "6dd49e4dc31e7e7ae497155fc924f984"}, {"bike_id": "72c797b4492b4d8ab704d9c36a045807", "type": "electric_scooter", "is_disabled": 0, "lat": 38.91367666666667, "rental_uris": {"ios": "https://dc.lft.to/lastmile_qr_scan", "android": "https://dc.lft.to/lastmile_qr_scan"}, "is_reserved": 0, "fusion_lon": 0.0, "fusion_lat": 0.0, "lon": -77.0449595, "name": "72c797b4492b4d8ab704d9c36a045807"}, {"bike_id": "fb510c5a850903b04ebdb29e68f9a26c", "type": "electric_scooter", "is_disabled": 0, "lat": 38.90332633333333, "rental_uris": {"ios": "https://dc.lft.to/lastmile_qr_scan", "android": "https://dc.lft.to/lastmile_qr_scan"}, "is_reserved": 0, "fusion_lon": 0.0, "fusion_lat": 0.0, "lon": -76.975867, "name": "fb510c5a850903b04ebdb29e68f9a26c"}, {"bike_id": "6efb9d565b8c457d85ff9c15d2a1f680", "type": "electric_scooter", "is_disabled": 0, "lat": 38.897393, "rental_uris": {"ios": "https://dc.lft.to/lastmile_qr_scan", "android": "https://dc.lft.to/lastmile_qr_scan"}, "is_reserved": 0, "fusion_lon": 0.0, "fusion_lat": 0.0, "lon": -77.0332915, "name": "6efb9d565b8c457d85ff9c15d2a1f680"}, {"bike_id": "4e12b00c471a175fd312af743ab2660c", "type": "electric_scooter", "is_disabled": 0, "lat": 38.870649, "rental_uris": {"ios": "https://dc.lft.to/lastmile_qr_scan", "android": "https://dc.lft.to/lastmile_qr_scan"}, "is_reserved": 0, "fusion_lon": 0.0, "fusion_lat": 0.0, "lon": -76.9891315, "name": "4e12b00c471a175fd312af743ab2660c"}, {"bike_id": "146d3d43cdc624b039e27b19ac98a598", "type": "electric_scooter", "is_disabled": 0, "lat": 38.916396666666664, "rental_uris": {"ios": "https://dc.lft.to/lastmile_qr_scan", "android": "https://dc.lft.to/lastmile_qr_scan"}, "is_reserved": 0, "fusion_lon": 0.0, "fusion_lat": 0.0, "lon": -77.04665533333333, "name": "146d3d43cdc624b039e27b19ac98a598"}, {"bike_id": "8af091b78f15e3aea162159c7b865b2f", "type": "electric_scooter", "is_disabled": 0, "lat": 38.925299, "rental_uris": {"ios": "https://dc.lft.to/lastmile_qr_scan", "android": "https://dc.lft.to/lastmile_qr_scan"}, "is_reserved": 0, "fusion_lon": 0.0, "fusion_lat": 0.0, "lon": -77.0409475, "name": "8af091b78f15e3aea162159c7b865b2f"}, {"bike_id": "fd4be9d6cd48bf211c610ea65793f065", "type": "electric_scooter", "is_disabled": 0, "lat": 38.920908833333336, "rental_uris": {"ios": "https://dc.lft.to/lastmile_qr_scan", "android": "https://dc.lft.to/lastmile_qr_scan"}, "is_reserved": 0, "fusion_lon": 0.0, "fusion_lat": 0.0, "lon": -77.025332, "name": "fd4be9d6cd48bf211c610ea65793f065"}, {"bike_id": "dd1364fbcacbf894b2a934dd9dd9cd2a", "type": "electric_scooter", "is_disabled": 0, "lat": 38.90663116666666, "rental_uris": {"ios": "https://dc.lft.to/lastmile_qr_scan", "android": "https://dc.lft.to/lastmile_qr_scan"}, "is_reserved": 0, "fusion_lon": 0.0, "fusion_lat": 0.0, "lon": -77.07190216666666, "name": "dd1364fbcacbf894b2a934dd9dd9cd2a"}, {"bike_id": "1c7eedf7b4430d6ed644d1850703e850", "type": "electric_scooter", "is_disabled": 0, "lat": 38.900309666666665, "rental_uris": {"ios": "https://dc.lft.to/lastmile_qr_scan", "android": "https://dc.lft.to/lastmile_qr_scan"}, "is_reserved": 0, "fusion_lon": 0.0, "fusion_lat": 0.0, "lon": -77.00098533333333, "name": "1c7eedf7b4430d6ed644d1850703e850"}, {"bike_id": "57f9b007c78ad730631d2e378d633a6b", "type": "electric_scooter", "is_disabled": 0, "lat": 38.9322245, "rental_uris": {"ios": "https://dc.lft.to/lastmile_qr_scan", "android": "https://dc.lft.to/lastmile_qr_scan"}, "is_reserved": 0, "fusion_lon": 0.0, "fusion_lat": 0.0, "lon": -77.03397516666666, "name": "57f9b007c78ad730631d2e378d633a6b"}, {"bike_id": "8dac9edbf9a3de15d032d72c34ed9143", "type": "electric_scooter", "is_disabled": 0, "lat": 38.90729016666667, "rental_uris": {"ios": "https://dc.lft.to/lastmile_qr_scan", "android": "https://dc.lft.to/lastmile_qr_scan"}, "is_reserved": 0, "fusion_lon": 0.0, "fusion_lat": 0.0, "lon": -77.04497433333333, "name": "8dac9edbf9a3de15d032d72c34ed9143"}, {"bike_id": "784a5637b44cde9bc33881fe9a92e347", "type": "electric_scooter", "is_disabled": 0, "lat": 38.903007333333335, "rental_uris": {"ios": "https://dc.lft.to/lastmile_qr_scan", "android": "https://dc.lft.to/lastmile_qr_scan"}, "is_reserved": 0, "fusion_lon": 0.0, "fusion_lat": 0.0, "lon": -76.983536, "name": "784a5637b44cde9bc33881fe9a92e347"}, {"bike_id": "f1b1185d8bfb0631bf725e160265d6af", "type": "electric_scooter", "is_disabled": 0, "lat": 38.91040133333333, "rental_uris": {"ios": "https://dc.lft.to/lastmile_qr_scan", "android": "https://dc.lft.to/lastmile_qr_scan"}, "is_reserved": 0, "fusion_lon": 0.0, "fusion_lat": 0.0, "lon": -77.03829816666666, "name": "f1b1185d8bfb0631bf725e160265d6af"}, {"bike_id": "6cbb0fd471c91ee030dd0db635914b08", "type": "electric_scooter", "is_disabled": 0, "lat": 38.935323, "rental_uris": {"ios": "https://dc.lft.to/lastmile_qr_scan", "android": "https://dc.lft.to/lastmile_qr_scan"}, "is_reserved": 0, "fusion_lon": 0.0, "fusion_lat": 0.0, "lon": -77.023445, "name": "6cbb0fd471c91ee030dd0db635914b08"}, {"bike_id": "84871c34820c9e0a0eee4543f2566e74", "type": "electric_scooter", "is_disabled": 0, "lat": 38.896714, "rental_uris": {"ios": "https://dc.lft.to/lastmile_qr_scan", "android": "https://dc.lft.to/lastmile_qr_scan"}, "is_reserved": 0, "fusion_lon": 0.0, "fusion_lat": 0.0, "lon": -76.98815283333333, "name": "84871c34820c9e0a0eee4543f2566e74"}, {"bike_id": "91efc164e8aef03ee4f6f95eb5831b18", "type": "electric_scooter", "is_disabled": 0, "lat": 38.920498, "rental_uris": {"ios": "https://dc.lft.to/lastmile_qr_scan", "android": "https://dc.lft.to/lastmile_qr_scan"}, "is_reserved": 0, "fusion_lon": 0.0, "fusion_lat": 0.0, "lon": -77.034785, "name": "91efc164e8aef03ee4f6f95eb5831b18"}, {"bike_id": "48a1c6f2409448266dd71a3551cc3f41", "type": "electric_scooter", "is_disabled": 0, "lat": 38.934530333333335, "rental_uris": {"ios": "https://dc.lft.to/lastmile_qr_scan", "android": "https://dc.lft.to/lastmile_qr_scan"}, "is_reserved": 0, "fusion_lon": 0.0, "fusion_lat": 0.0, "lon": -77.03048166666666, "name": "48a1c6f2409448266dd71a3551cc3f41"}, {"bike_id": "7bd1d910d964fbb06882f89e516de934", "type": "electric_scooter", "is_disabled": 0, "lat": 38.920568833333334, "rental_uris": {"ios": "https://dc.lft.to/lastmile_qr_scan", "android": "https://dc.lft.to/lastmile_qr_scan"}, "is_reserved": 0, "fusion_lon": 0.0, "fusion_lat": 0.0, "lon": -77.02351233333333, "name": "7bd1d910d964fbb06882f89e516de934"}, {"bike_id": "1238faccb1ab5f8d46a85e08df67f798", "type": "electric_scooter", "is_disabled": 0, "lat": 38.881145, "rental_uris": {"ios": "https://dc.lft.to/lastmile_qr_scan", "android": "https://dc.lft.to/lastmile_qr_scan"}, "is_reserved": 0, "fusion_lon": 0.0, "fusion_lat": 0.0, "lon": -77.01653316666666, "name": "1238faccb1ab5f8d46a85e08df67f798"}, {"bike_id": "bcc9eff3382a555890f869dcf776cbf7", "type": "electric_scooter", "is_disabled": 0, "lat": 38.912800833333336, "rental_uris": {"ios": "https://dc.lft.to/lastmile_qr_scan", "android": "https://dc.lft.to/lastmile_qr_scan"}, "is_reserved": 0, "fusion_lon": 0.0, "fusion_lat": 0.0, "lon": -77.02717316666667, "name": "bcc9eff3382a555890f869dcf776cbf7"}, {"bike_id": "d05752aa72a9905b4ac30b77a21a87b1", "type": "electric_bike", "is_disabled": 0, "lat": 38.9346035, "rental_uris": {"ios": "https://dc.lft.to/lastmile_qr_scan", "android": "https://dc.lft.to/lastmile_qr_scan"}, "is_reserved": 0, "fusion_lon": 0.0, "fusion_lat": 0.0, "lon": -77.02714583333334, "name": "d05752aa72a9905b4ac30b77a21a87b1"}, {"bike_id": "775eca0ce5e8269f8ad2a280cc9ddfc4", "type": "electric_scooter", "is_disabled": 0, "lat": 38.909527833333335, "rental_uris": {"ios": "https://dc.lft.to/lastmile_qr_scan", "android": "https://dc.lft.to/lastmile_qr_scan"}, "is_reserved": 0, "fusion_lon": 0.0, "fusion_lat": 0.0, "lon": -77.044787, "name": "775eca0ce5e8269f8ad2a280cc9ddfc4"}, {"bike_id": "38cf5701ec01553996709e8f955fd62b", "type": "electric_scooter", "is_disabled": 0, "lat": 38.9034045, "rental_uris": {"ios": "https://dc.lft.to/lastmile_qr_scan", "android": "https://dc.lft.to/lastmile_qr_scan"}, "is_reserved": 0, "fusion_lon": 0.0, "fusion_lat": 0.0, "lon": -77.052848, "name": "38cf5701ec01553996709e8f955fd62b"}, {"bike_id": "49a766b21c48a1b6876bccd66447b136", "type": "electric_scooter", "is_disabled": 0, "lat": 38.91715383333333, "rental_uris": {"ios": "https://dc.lft.to/lastmile_qr_scan", "android": "https://dc.lft.to/lastmile_qr_scan"}, "is_reserved": 0, "fusion_lon": 0.0, "fusion_lat": 0.0, "lon": -77.03462216666667, "name": "49a766b21c48a1b6876bccd66447b136"}, {"bike_id": "99afaa5948d8c30843c756b2ca6ccf67", "type": "electric_scooter", "is_disabled": 0, "lat": 38.90531216666667, "rental_uris": {"ios": "https://dc.lft.to/lastmile_qr_scan", "android": "https://dc.lft.to/lastmile_qr_scan"}, "is_reserved": 0, "fusion_lon": 0.0, "fusion_lat": 0.0, "lon": -77.05937533333334, "name": "99afaa5948d8c30843c756b2ca6ccf67"}, {"bike_id": "712f4674508125af9114e11a13ee9782", "type": "electric_scooter", "is_disabled": 0, "lat": 38.90809183333333, "rental_uris": {"ios": "https://dc.lft.to/lastmile_qr_scan", "android": "https://dc.lft.to/lastmile_qr_scan"}, "is_reserved": 0, "fusion_lon": 0.0, "fusion_lat": 0.0, "lon": -77.03459666666667, "name": "712f4674508125af9114e11a13ee9782"}, {"bike_id": "10baf21d951c3a7a3252604989f1b769", "type": "electric_scooter", "is_disabled": 0, "lat": 38.901533666666666, "rental_uris": {"ios": "https://dc.lft.to/lastmile_qr_scan", "android": "https://dc.lft.to/lastmile_qr_scan"}, "is_reserved": 0, "fusion_lon": 0.0, "fusion_lat": 0.0, "lon": -76.990228, "name": "10baf21d951c3a7a3252604989f1b769"}, {"bike_id": "14b5d14af8e082a70f8ffe53c4ad2e41", "type": "electric_scooter", "is_disabled": 0, "lat": 38.897095166666666, "rental_uris": {"ios": "https://dc.lft.to/lastmile_qr_scan", "android": "https://dc.lft.to/lastmile_qr_scan"}, "is_reserved": 0, "fusion_lon": 0.0, "fusion_lat": 0.0, "lon": -76.93000616666667, "name": "14b5d14af8e082a70f8ffe53c4ad2e41"}, {"bike_id": "28103ae3f94219276d1c3c68b8f1d809", "type": "electric_scooter", "is_disabled": 0, "lat": 38.907366833333334, "rental_uris": {"ios": "https://dc.lft.to/lastmile_qr_scan", "android": "https://dc.lft.to/lastmile_qr_scan"}, "is_reserved": 0, "fusion_lon": 0.0, "fusion_lat": 0.0, "lon": -77.01309516666667, "name": "28103ae3f94219276d1c3c68b8f1d809"}, {"bike_id": "d6fa7fa35e11c67884d485df51061f75", "type": "electric_scooter", "is_disabled": 0, "lat": 38.926775, "rental_uris": {"ios": "https://dc.lft.to/lastmile_qr_scan", "android": "https://dc.lft.to/lastmile_qr_scan"}, "is_reserved": 0, "fusion_lon": 0.0, "fusion_lat": 0.0, "lon": -77.01497166666667, "name": "d6fa7fa35e11c67884d485df51061f75"}, {"bike_id": "c8938f5114cbec1f66a70bcd58fcbed1", "type": "electric_scooter", "is_disabled": 0, "lat": 38.901075, "rental_uris": {"ios": "https://dc.lft.to/lastmile_qr_scan", "android": "https://dc.lft.to/lastmile_qr_scan"}, "is_reserved": 0, "fusion_lon": 0.0, "fusion_lat": 0.0, "lon": -77.02453616666666, "name": "c8938f5114cbec1f66a70bcd58fcbed1"}, {"bike_id": "652335ad52ed0ea562e4f536e83847b7", "type": "electric_scooter", "is_disabled": 0, "lat": 38.92482616666667, "rental_uris": {"ios": "https://dc.lft.to/lastmile_qr_scan", "android": "https://dc.lft.to/lastmile_qr_scan"}, "is_reserved": 0, "fusion_lon": 0.0, "fusion_lat": 0.0, "lon": -77.0283375, "name": "652335ad52ed0ea562e4f536e83847b7"}, {"bike_id": "80050c3002d6b149ee915ec5e4e45e4d", "type": "electric_scooter", "is_disabled": 0, "lat": 38.91816983333333, "rental_uris": {"ios": "https://dc.lft.to/lastmile_qr_scan", "android": "https://dc.lft.to/lastmile_qr_scan"}, "is_reserved": 0, "fusion_lon": 0.0, "fusion_lat": 0.0, "lon": -77.00765833333334, "name": "80050c3002d6b149ee915ec5e4e45e4d"}, {"bike_id": "ea72c6c42c845919c21251de0f909049", "type": "electric_scooter", "is_disabled": 0, "lat": 38.91070783333333, "rental_uris": {"ios": "https://dc.lft.to/lastmile_qr_scan", "android": "https://dc.lft.to/lastmile_qr_scan"}, "is_reserved": 0, "fusion_lon": 0.0, "fusion_lat": 0.0, "lon": -77.0371555, "name": "ea72c6c42c845919c21251de0f909049"}, {"bike_id": "f971c002e7ed94b0db390a8bcb6b08cc", "type": "electric_scooter", "is_disabled": 0, "lat": 38.907584666666665, "rental_uris": {"ios": "https://dc.lft.to/lastmile_qr_scan", "android": "https://dc.lft.to/lastmile_qr_scan"}, "is_reserved": 0, "fusion_lon": 0.0, "fusion_lat": 0.0, "lon": -77.03210416666667, "name": "f971c002e7ed94b0db390a8bcb6b08cc"}, {"bike_id": "60a29d2a96850be3b086f4c59ed3c827", "type": "electric_scooter", "is_disabled": 0, "lat": 38.90331316666666, "rental_uris": {"ios": "https://dc.lft.to/lastmile_qr_scan", "android": "https://dc.lft.to/lastmile_qr_scan"}, "is_reserved": 0, "fusion_lon": 0.0, "fusion_lat": 0.0, "lon": -77.03643816666667, "name": "60a29d2a96850be3b086f4c59ed3c827"}, {"bike_id": "95b366b2fe5306f6585c6e35733cf6d9", "type": "electric_scooter", "is_disabled": 0, "lat": 38.9024305, "rental_uris": {"ios": "https://dc.lft.to/lastmile_qr_scan", "android": "https://dc.lft.to/lastmile_qr_scan"}, "is_reserved": 0, "fusion_lon": 0.0, "fusion_lat": 0.0, "lon": -76.99624616666667, "name": "95b366b2fe5306f6585c6e35733cf6d9"}, {"bike_id": "d79bf7d83df70af2f33707ada69dbc61", "type": "electric_bike", "is_disabled": 0, "lat": 38.880028333333335, "rental_uris": {"ios": "https://dc.lft.to/lastmile_qr_scan", "android": "https://dc.lft.to/lastmile_qr_scan"}, "is_reserved": 0, "fusion_lon": 0.0, "fusion_lat": 0.0, "lon": -76.9851605, "name": "d79bf7d83df70af2f33707ada69dbc61"}, {"bike_id": "3f241476e1297f08ff3eec730e400d82", "type": "electric_scooter", "is_disabled": 0, "lat": 38.901048, "rental_uris": {"ios": "https://dc.lft.to/lastmile_qr_scan", "android": "https://dc.lft.to/lastmile_qr_scan"}, "is_reserved": 0, "fusion_lon": 0.0, "fusion_lat": 0.0, "lon": -77.018549, "name": "3f241476e1297f08ff3eec730e400d82"}, {"bike_id": "91f1fbc637041b338c19dcf6556d1a55", "type": "electric_scooter", "is_disabled": 0, "lat": 38.927362333333335, "rental_uris": {"ios": "https://dc.lft.to/lastmile_qr_scan", "android": "https://dc.lft.to/lastmile_qr_scan"}, "is_reserved": 0, "fusion_lon": 0.0, "fusion_lat": 0.0, "lon": -77.034989, "name": "91f1fbc637041b338c19dcf6556d1a55"}, {"bike_id": "2af8f80b23e8ecdb193e869189de619a", "type": "electric_scooter", "is_disabled": 0, "lat": 38.90440316666667, "rental_uris": {"ios": "https://dc.lft.to/lastmile_qr_scan", "android": "https://dc.lft.to/lastmile_qr_scan"}, "is_reserved": 0, "fusion_lon": 0.0, "fusion_lat": 0.0, "lon": -77.0346725, "name": "2af8f80b23e8ecdb193e869189de619a"}, {"bike_id": "73a4da7d5c8f812ccd544dde3eb190d5", "type": "electric_scooter", "is_disabled": 0, "lat": 38.896068666666665, "rental_uris": {"ios": "https://dc.lft.to/lastmile_qr_scan", "android": "https://dc.lft.to/lastmile_qr_scan"}, "is_reserved": 0, "fusion_lon": 0.0, "fusion_lat": 0.0, "lon": -77.0312595, "name": "73a4da7d5c8f812ccd544dde3eb190d5"}, {"bike_id": "88646ede00a3550ca2107c649ebc1d35", "type": "electric_scooter", "is_disabled": 0, "lat": 38.832049166666664, "rental_uris": {"ios": "https://dc.lft.to/lastmile_qr_scan", "android": "https://dc.lft.to/lastmile_qr_scan"}, "is_reserved": 0, "fusion_lon": 0.0, "fusion_lat": 0.0, "lon": -77.00792983333334, "name": "88646ede00a3550ca2107c649ebc1d35"}, {"bike_id": "c5c9eecfbbd25438b11d27ab31de74f9", "type": "electric_scooter", "is_disabled": 0, "lat": 38.902522166666664, "rental_uris": {"ios": "https://dc.lft.to/lastmile_qr_scan", "android": "https://dc.lft.to/lastmile_qr_scan"}, "is_reserved": 0, "fusion_lon": 0.0, "fusion_lat": 0.0, "lon": -77.01812466666667, "name": "c5c9eecfbbd25438b11d27ab31de74f9"}, {"bike_id": "81d264115986e432df4f36cef3553095", "type": "electric_scooter", "is_disabled": 0, "lat": 38.923122666666664, "rental_uris": {"ios": "https://dc.lft.to/lastmile_qr_scan", "android": "https://dc.lft.to/lastmile_qr_scan"}, "is_reserved": 0, "fusion_lon": 0.0, "fusion_lat": 0.0, "lon": -77.03912083333333, "name": "81d264115986e432df4f36cef3553095"}, {"bike_id": "79c7cd0af4c3dfa53fea506b708ba2ad", "type": "electric_scooter", "is_disabled": 0, "lat": 38.91105983333333, "rental_uris": {"ios": "https://dc.lft.to/lastmile_qr_scan", "android": "https://dc.lft.to/lastmile_qr_scan"}, "is_reserved": 0, "fusion_lon": 0.0, "fusion_lat": 0.0, "lon": -77.02137966666666, "name": "79c7cd0af4c3dfa53fea506b708ba2ad"}, {"bike_id": "75d42c3970474343e20e26ab87a751c8", "type": "electric_scooter", "is_disabled": 0, "lat": 38.886223666666666, "rental_uris": {"ios": "https://dc.lft.to/lastmile_qr_scan", "android": "https://dc.lft.to/lastmile_qr_scan"}, "is_reserved": 0, "fusion_lon": 0.0, "fusion_lat": 0.0, "lon": -76.9960955, "name": "75d42c3970474343e20e26ab87a751c8"}, {"bike_id": "82dbc56e09e99210c5b0c400ec5df958", "type": "electric_scooter", "is_disabled": 0, "lat": 38.87880333333333, "rental_uris": {"ios": "https://dc.lft.to/lastmile_qr_scan", "android": "https://dc.lft.to/lastmile_qr_scan"}, "is_reserved": 0, "fusion_lon": 0.0, "fusion_lat": 0.0, "lon": -77.02304566666666, "name": "82dbc56e09e99210c5b0c400ec5df958"}, {"bike_id": "580d860e5e300daae8164f4c3eab98aa", "type": "electric_scooter", "is_disabled": 0, "lat": 38.956612, "rental_uris": {"ios": "https://dc.lft.to/lastmile_qr_scan", "android": "https://dc.lft.to/lastmile_qr_scan"}, "is_reserved": 0, "fusion_lon": 0.0, "fusion_lat": 0.0, "lon": -77.02398933333333, "name": "580d860e5e300daae8164f4c3eab98aa"}, {"bike_id": "24485b524ec3ad9e8c2e2d727eef50fb", "type": "electric_scooter", "is_disabled": 0, "lat": 38.90539416666667, "rental_uris": {"ios": "https://dc.lft.to/lastmile_qr_scan", "android": "https://dc.lft.to/lastmile_qr_scan"}, "is_reserved": 0, "fusion_lon": 0.0, "fusion_lat": 0.0, "lon": -76.98105216666667, "name": "24485b524ec3ad9e8c2e2d727eef50fb"}, {"bike_id": "15338498ce46b35bfcb0a39c724fa45a", "type": "electric_scooter", "is_disabled": 0, "lat": 38.8976435, "rental_uris": {"ios": "https://dc.lft.to/lastmile_qr_scan", "android": "https://dc.lft.to/lastmile_qr_scan"}, "is_reserved": 0, "fusion_lon": 0.0, "fusion_lat": 0.0, "lon": -76.92578683333333, "name": "15338498ce46b35bfcb0a39c724fa45a"}, {"bike_id": "a413a97cf4e8f3ee9c07df8e2d0dfaa2", "type": "electric_scooter", "is_disabled": 0, "lat": 38.91407433333333, "rental_uris": {"ios": "https://dc.lft.to/lastmile_qr_scan", "android": "https://dc.lft.to/lastmile_qr_scan"}, "is_reserved": 0, "fusion_lon": 0.0, "fusion_lat": 0.0, "lon": -77.0242705, "name": "a413a97cf4e8f3ee9c07df8e2d0dfaa2"}, {"bike_id": "c14dca78498b26d83c7b9ce1f1aeea6f", "type": "electric_scooter", "is_disabled": 0, "lat": 38.8926105, "rental_uris": {"ios": "https://dc.lft.to/lastmile_qr_scan", "android": "https://dc.lft.to/lastmile_qr_scan"}, "is_reserved": 0, "fusion_lon": 0.0, "fusion_lat": 0.0, "lon": -77.00344316666667, "name": "c14dca78498b26d83c7b9ce1f1aeea6f"}, {"bike_id": "a5f1a6a944be0615aaaeafe086c9c048", "type": "electric_scooter", "is_disabled": 0, "lat": 38.90737766666667, "rental_uris": {"ios": "https://dc.lft.to/lastmile_qr_scan", "android": "https://dc.lft.to/lastmile_qr_scan"}, "is_reserved": 0, "fusion_lon": 0.0, "fusion_lat": 0.0, "lon": -77.04813883333334, "name": "a5f1a6a944be0615aaaeafe086c9c048"}, {"bike_id": "a95121934d2c4b3654cea284859ea2be", "type": "electric_scooter", "is_disabled": 0, "lat": 38.862404833333336, "rental_uris": {"ios": "https://dc.lft.to/lastmile_qr_scan", "android": "https://dc.lft.to/lastmile_qr_scan"}, "is_reserved": 0, "fusion_lon": 0.0, "fusion_lat": 0.0, "lon": -76.994948, "name": "a95121934d2c4b3654cea284859ea2be"}, {"bike_id": "9232843663d5c79ba0a3f1773156416b", "type": "electric_scooter", "is_disabled": 0, "lat": 38.934884, "rental_uris": {"ios": "https://dc.lft.to/lastmile_qr_scan", "android": "https://dc.lft.to/lastmile_qr_scan"}, "is_reserved": 0, "fusion_lon": 0.0, "fusion_lat": 0.0, "lon": -77.032849, "name": "9232843663d5c79ba0a3f1773156416b"}, {"bike_id": "73e462d9f78a9637835f799c8da7bd72", "type": "electric_scooter", "is_disabled": 0, "lat": 38.92326966666667, "rental_uris": {"ios": "https://dc.lft.to/lastmile_qr_scan", "android": "https://dc.lft.to/lastmile_qr_scan"}, "is_reserved": 0, "fusion_lon": 0.0, "fusion_lat": 0.0, "lon": -77.04614966666666, "name": "73e462d9f78a9637835f799c8da7bd72"}, {"bike_id": "04fdaeb9eb67206fa3ce490d5b64a339", "type": "electric_scooter", "is_disabled": 0, "lat": 38.920167666666664, "rental_uris": {"ios": "https://dc.lft.to/lastmile_qr_scan", "android": "https://dc.lft.to/lastmile_qr_scan"}, "is_reserved": 0, "fusion_lon": 0.0, "fusion_lat": 0.0, "lon": -77.01793833333333, "name": "04fdaeb9eb67206fa3ce490d5b64a339"}, {"bike_id": "ed46421ce9cf0d45db9ecc7dfbb2f7d5", "type": "electric_scooter", "is_disabled": 0, "lat": 38.90752883333333, "rental_uris": {"ios": "https://dc.lft.to/lastmile_qr_scan", "android": "https://dc.lft.to/lastmile_qr_scan"}, "is_reserved": 0, "fusion_lon": 0.0, "fusion_lat": 0.0, "lon": -77.03067483333334, "name": "ed46421ce9cf0d45db9ecc7dfbb2f7d5"}, {"bike_id": "17131c4de3919863e48f6409d5ab8187", "type": "electric_scooter", "is_disabled": 0, "lat": 38.92090116666667, "rental_uris": {"ios": "https://dc.lft.to/lastmile_qr_scan", "android": "https://dc.lft.to/lastmile_qr_scan"}, "is_reserved": 0, "fusion_lon": 0.0, "fusion_lat": 0.0, "lon": -77.0253385, "name": "17131c4de3919863e48f6409d5ab8187"}, {"bike_id": "89a3fd529451d84ac0cc2d15d5e73ef9", "type": "electric_scooter", "is_disabled": 0, "lat": 38.906765666666665, "rental_uris": {"ios": "https://dc.lft.to/lastmile_qr_scan", "android": "https://dc.lft.to/lastmile_qr_scan"}, "is_reserved": 0, "fusion_lon": 0.0, "fusion_lat": 0.0, "lon": -77.05330683333334, "name": "89a3fd529451d84ac0cc2d15d5e73ef9"}, {"bike_id": "57e2fa3b0dd79c64c09f896d83d88b15", "type": "electric_scooter", "is_disabled": 0, "lat": 38.95647116666667, "rental_uris": {"ios": "https://dc.lft.to/lastmile_qr_scan", "android": "https://dc.lft.to/lastmile_qr_scan"}, "is_reserved": 0, "fusion_lon": 0.0, "fusion_lat": 0.0, "lon": -77.01037833333334, "name": "57e2fa3b0dd79c64c09f896d83d88b15"}, {"bike_id": "8e448aaa317a34eafd4d275ef88f1fa5", "type": "electric_scooter", "is_disabled": 0, "lat": 38.911165833333335, "rental_uris": {"ios": "https://dc.lft.to/lastmile_qr_scan", "android": "https://dc.lft.to/lastmile_qr_scan"}, "is_reserved": 0, "fusion_lon": 0.0, "fusion_lat": 0.0, "lon": -77.02239333333333, "name": "8e448aaa317a34eafd4d275ef88f1fa5"}, {"bike_id": "d1372315edc629a347fee6728bb37ef6", "type": "electric_scooter", "is_disabled": 0, "lat": 38.90560333333333, "rental_uris": {"ios": "https://dc.lft.to/lastmile_qr_scan", "android": "https://dc.lft.to/lastmile_qr_scan"}, "is_reserved": 0, "fusion_lon": 0.0, "fusion_lat": 0.0, "lon": -76.98859933333334, "name": "d1372315edc629a347fee6728bb37ef6"}, {"bike_id": "56f05994a39c4b4d7fc8a9679a3f72c9", "type": "electric_scooter", "is_disabled": 0, "lat": 38.90311533333333, "rental_uris": {"ios": "https://dc.lft.to/lastmile_qr_scan", "android": "https://dc.lft.to/lastmile_qr_scan"}, "is_reserved": 0, "fusion_lon": 0.0, "fusion_lat": 0.0, "lon": -77.00293366666666, "name": "56f05994a39c4b4d7fc8a9679a3f72c9"}, {"bike_id": "c015f66d0154311a6c45c5046ca4368a", "type": "electric_scooter", "is_disabled": 0, "lat": 38.9013865, "rental_uris": {"ios": "https://dc.lft.to/lastmile_qr_scan", "android": "https://dc.lft.to/lastmile_qr_scan"}, "is_reserved": 0, "fusion_lon": 0.0, "fusion_lat": 0.0, "lon": -77.01503983333333, "name": "c015f66d0154311a6c45c5046ca4368a"}, {"bike_id": "d370f1a185cc1a6cdf7b9c28e27da7b0", "type": "electric_bike", "is_disabled": 0, "lat": 38.83428933333333, "rental_uris": {"ios": "https://dc.lft.to/lastmile_qr_scan", "android": "https://dc.lft.to/lastmile_qr_scan"}, "is_reserved": 0, "fusion_lon": 0.0, "fusion_lat": 0.0, "lon": -77.1035255, "name": "d370f1a185cc1a6cdf7b9c28e27da7b0"}, {"bike_id": "d39c6dd012181eccd82a02f8bb541ad6", "type": "electric_scooter", "is_disabled": 0, "lat": 38.92148783333333, "rental_uris": {"ios": "https://dc.lft.to/lastmile_qr_scan", "android": "https://dc.lft.to/lastmile_qr_scan"}, "is_reserved": 0, "fusion_lon": 0.0, "fusion_lat": 0.0, "lon": -77.03530016666667, "name": "d39c6dd012181eccd82a02f8bb541ad6"}, {"bike_id": "d40099aa0b6c06ba4022cacc4829b18d", "type": "electric_scooter", "is_disabled": 0, "lat": 38.92852166666667, "rental_uris": {"ios": "https://dc.lft.to/lastmile_qr_scan", "android": "https://dc.lft.to/lastmile_qr_scan"}, "is_reserved": 0, "fusion_lon": 0.0, "fusion_lat": 0.0, "lon": -77.019564, "name": "d40099aa0b6c06ba4022cacc4829b18d"}, {"bike_id": "5d13fce86e60252aab4b6824cdf4eab6", "type": "electric_scooter", "is_disabled": 0, "lat": 38.92305916666667, "rental_uris": {"ios": "https://dc.lft.to/lastmile_qr_scan", "android": "https://dc.lft.to/lastmile_qr_scan"}, "is_reserved": 0, "fusion_lon": 0.0, "fusion_lat": 0.0, "lon": -77.01974983333334, "name": "5d13fce86e60252aab4b6824cdf4eab6"}, {"bike_id": "1d359b43fb48d2ba21ddc90004c28874", "type": "electric_scooter", "is_disabled": 0, "lat": 38.930829333333335, "rental_uris": {"ios": "https://dc.lft.to/lastmile_qr_scan", "android": "https://dc.lft.to/lastmile_qr_scan"}, "is_reserved": 0, "fusion_lon": 0.0, "fusion_lat": 0.0, "lon": -77.02807066666666, "name": "1d359b43fb48d2ba21ddc90004c28874"}, {"bike_id": "c74f62a0b8b712d37f30460079a90210", "type": "electric_scooter", "is_disabled": 0, "lat": 38.90715933333333, "rental_uris": {"ios": "https://dc.lft.to/lastmile_qr_scan", "android": "https://dc.lft.to/lastmile_qr_scan"}, "is_reserved": 0, "fusion_lon": 0.0, "fusion_lat": 0.0, "lon": -77.02559983333333, "name": "c74f62a0b8b712d37f30460079a90210"}, {"bike_id": "cb5d58aad025e4ab60f5185b86f21f4d", "type": "electric_bike", "is_disabled": 0, "lat": 38.87881866666667, "rental_uris": {"ios": "https://dc.lft.to/lastmile_qr_scan", "android": "https://dc.lft.to/lastmile_qr_scan"}, "is_reserved": 0, "fusion_lon": 0.0, "fusion_lat": 0.0, "lon": -77.09611183333334, "name": "cb5d58aad025e4ab60f5185b86f21f4d"}, {"bike_id": "693a3bb1c3a451cdcd9afb5d7db93841", "type": "electric_scooter", "is_disabled": 0, "lat": 38.904949333333334, "rental_uris": {"ios": "https://dc.lft.to/lastmile_qr_scan", "android": "https://dc.lft.to/lastmile_qr_scan"}, "is_reserved": 0, "fusion_lon": 0.0, "fusion_lat": 0.0, "lon": -77.01983066666666, "name": "693a3bb1c3a451cdcd9afb5d7db93841"}, {"bike_id": "8e76f53249c5b3ef268415c783b13e1b", "type": "electric_scooter", "is_disabled": 0, "lat": 38.91977083333333, "rental_uris": {"ios": "https://dc.lft.to/lastmile_qr_scan", "android": "https://dc.lft.to/lastmile_qr_scan"}, "is_reserved": 0, "fusion_lon": 0.0, "fusion_lat": 0.0, "lon": -77.03264016666667, "name": "8e76f53249c5b3ef268415c783b13e1b"}, {"bike_id": "2433cff91515e6a5651a4bcd14beac57", "type": "electric_scooter", "is_disabled": 0, "lat": 38.932042, "rental_uris": {"ios": "https://dc.lft.to/lastmile_qr_scan", "android": "https://dc.lft.to/lastmile_qr_scan"}, "is_reserved": 0, "fusion_lon": 0.0, "fusion_lat": 0.0, "lon": -77.03664833333333, "name": "2433cff91515e6a5651a4bcd14beac57"}, {"bike_id": "00fed8da782f2e0b8b08d26c2eb7aa4e", "type": "electric_scooter", "is_disabled": 0, "lat": 38.920888166666664, "rental_uris": {"ios": "https://dc.lft.to/lastmile_qr_scan", "android": "https://dc.lft.to/lastmile_qr_scan"}, "is_reserved": 0, "fusion_lon": 0.0, "fusion_lat": 0.0, "lon": -77.025351, "name": "00fed8da782f2e0b8b08d26c2eb7aa4e"}, {"bike_id": "45a95936dab3856d4db7175e1bd69124", "type": "electric_scooter", "is_disabled": 0, "lat": 38.9013425, "rental_uris": {"ios": "https://dc.lft.to/lastmile_qr_scan", "android": "https://dc.lft.to/lastmile_qr_scan"}, "is_reserved": 0, "fusion_lon": 0.0, "fusion_lat": 0.0, "lon": -77.04511, "name": "45a95936dab3856d4db7175e1bd69124"}, {"bike_id": "653b63bc040b6cb5771d49f5190319c8", "type": "electric_scooter", "is_disabled": 0, "lat": 38.92784, "rental_uris": {"ios": "https://dc.lft.to/lastmile_qr_scan", "android": "https://dc.lft.to/lastmile_qr_scan"}, "is_reserved": 0, "fusion_lon": 0.0, "fusion_lat": 0.0, "lon": -77.023153, "name": "653b63bc040b6cb5771d49f5190319c8"}, {"bike_id": "06c6979fd1b4b35570bab5a7f11cab57", "type": "electric_scooter", "is_disabled": 0, "lat": 38.90273716666667, "rental_uris": {"ios": "https://dc.lft.to/lastmile_qr_scan", "android": "https://dc.lft.to/lastmile_qr_scan"}, "is_reserved": 0, "fusion_lon": 0.0, "fusion_lat": 0.0, "lon": -77.03855383333334, "name": "06c6979fd1b4b35570bab5a7f11cab57"}, {"bike_id": "e542f9e7d4eccc34facce273ec3abc1c", "type": "electric_scooter", "is_disabled": 0, "lat": 38.902678333333334, "rental_uris": {"ios": "https://dc.lft.to/lastmile_qr_scan", "android": "https://dc.lft.to/lastmile_qr_scan"}, "is_reserved": 0, "fusion_lon": 0.0, "fusion_lat": 0.0, "lon": -77.0032615, "name": "e542f9e7d4eccc34facce273ec3abc1c"}, {"bike_id": "42f62516f2021c6cc5c3e0ae032e2304", "type": "electric_scooter", "is_disabled": 0, "lat": 38.9111705, "rental_uris": {"ios": "https://dc.lft.to/lastmile_qr_scan", "android": "https://dc.lft.to/lastmile_qr_scan"}, "is_reserved": 0, "fusion_lon": 0.0, "fusion_lat": 0.0, "lon": -77.00535133333334, "name": "42f62516f2021c6cc5c3e0ae032e2304"}, {"bike_id": "537d8cdac53c122ff14db495ad5c3f59", "type": "electric_scooter", "is_disabled": 0, "lat": 38.917407, "rental_uris": {"ios": "https://dc.lft.to/lastmile_qr_scan", "android": "https://dc.lft.to/lastmile_qr_scan"}, "is_reserved": 0, "fusion_lon": 0.0, "fusion_lat": 0.0, "lon": -77.0282085, "name": "537d8cdac53c122ff14db495ad5c3f59"}, {"bike_id": "3b1590a06aabd3345687d6b21e33acdc", "type": "electric_scooter", "is_disabled": 0, "lat": 38.895343, "rental_uris": {"ios": "https://dc.lft.to/lastmile_qr_scan", "android": "https://dc.lft.to/lastmile_qr_scan"}, "is_reserved": 0, "fusion_lon": 0.0, "fusion_lat": 0.0, "lon": -76.99477083333333, "name": "3b1590a06aabd3345687d6b21e33acdc"}, {"bike_id": "f64e11bf4119c8a5e3442508e6771757", "type": "electric_scooter", "is_disabled": 0, "lat": 38.918694333333335, "rental_uris": {"ios": "https://dc.lft.to/lastmile_qr_scan", "android": "https://dc.lft.to/lastmile_qr_scan"}, "is_reserved": 0, "fusion_lon": 0.0, "fusion_lat": 0.0, "lon": -77.07014333333333, "name": "f64e11bf4119c8a5e3442508e6771757"}, {"bike_id": "e14144aa2acc2b6ae5e4c01e11725978", "type": "electric_scooter", "is_disabled": 0, "lat": 38.90032183333334, "rental_uris": {"ios": "https://dc.lft.to/lastmile_qr_scan", "android": "https://dc.lft.to/lastmile_qr_scan"}, "is_reserved": 0, "fusion_lon": 0.0, "fusion_lat": 0.0, "lon": -77.03421966666667, "name": "e14144aa2acc2b6ae5e4c01e11725978"}, {"bike_id": "239fc3cc9f2d49598ac13fe234934f0d", "type": "electric_bike", "is_disabled": 0, "lat": 38.85519433333333, "rental_uris": {"ios": "https://dc.lft.to/lastmile_qr_scan", "android": "https://dc.lft.to/lastmile_qr_scan"}, "is_reserved": 0, "fusion_lon": 0.0, "fusion_lat": 0.0, "lon": -77.12015066666666, "name": "239fc3cc9f2d49598ac13fe234934f0d"}, {"bike_id": "b496d87e3318393d2a9251455381d60d", "type": "electric_bike", "is_disabled": 0, "lat": 38.993271666666665, "rental_uris": {"ios": "https://dc.lft.to/lastmile_qr_scan", "android": "https://dc.lft.to/lastmile_qr_scan"}, "is_reserved": 0, "fusion_lon": 0.0, "fusion_lat": 0.0, "lon": -76.94613466666667, "name": "b496d87e3318393d2a9251455381d60d"}, {"bike_id": "404453ee52a753592a21bdb286705938", "type": "electric_scooter", "is_disabled": 0, "lat": 38.914010833333336, "rental_uris": {"ios": "https://dc.lft.to/lastmile_qr_scan", "android": "https://dc.lft.to/lastmile_qr_scan"}, "is_reserved": 0, "fusion_lon": 0.0, "fusion_lat": 0.0, "lon": -76.981944, "name": "404453ee52a753592a21bdb286705938"}, {"bike_id": "8012fffcc012c5bd4b786ed76c62deb4", "type": "electric_scooter", "is_disabled": 0, "lat": 38.90683416666667, "rental_uris": {"ios": "https://dc.lft.to/lastmile_qr_scan", "android": "https://dc.lft.to/lastmile_qr_scan"}, "is_reserved": 0, "fusion_lon": 0.0, "fusion_lat": 0.0, "lon": -77.02694383333333, "name": "8012fffcc012c5bd4b786ed76c62deb4"}, {"bike_id": "1c425925e8d63deccda6fb16b7971b45", "type": "electric_scooter", "is_disabled": 0, "lat": 38.9095165, "rental_uris": {"ios": "https://dc.lft.to/lastmile_qr_scan", "android": "https://dc.lft.to/lastmile_qr_scan"}, "is_reserved": 0, "fusion_lon": 0.0, "fusion_lat": 0.0, "lon": -77.03937033333334, "name": "1c425925e8d63deccda6fb16b7971b45"}, {"bike_id": "38fc292f7aef865d5467cb10baa15340", "type": "electric_bike", "is_disabled": 0, "lat": 38.85485233333333, "rental_uris": {"ios": "https://dc.lft.to/lastmile_qr_scan", "android": "https://dc.lft.to/lastmile_qr_scan"}, "is_reserved": 0, "fusion_lon": 0.0, "fusion_lat": 0.0, "lon": -77.11611516666666, "name": "38fc292f7aef865d5467cb10baa15340"}, {"bike_id": "17a1c90d3c4876c2a809bcfc3c2c2c3e", "type": "electric_scooter", "is_disabled": 0, "lat": 38.9253945, "rental_uris": {"ios": "https://dc.lft.to/lastmile_qr_scan", "android": "https://dc.lft.to/lastmile_qr_scan"}, "is_reserved": 0, "fusion_lon": 0.0, "fusion_lat": 0.0, "lon": -77.052805, "name": "17a1c90d3c4876c2a809bcfc3c2c2c3e"}, {"bike_id": "d0a8ef8c03e2b52d71647d9e0814fb95", "type": "electric_scooter", "is_disabled": 0, "lat": 38.90951316666667, "rental_uris": {"ios": "https://dc.lft.to/lastmile_qr_scan", "android": "https://dc.lft.to/lastmile_qr_scan"}, "is_reserved": 0, "fusion_lon": 0.0, "fusion_lat": 0.0, "lon": -77.04869866666667, "name": "d0a8ef8c03e2b52d71647d9e0814fb95"}, {"bike_id": "165614bee3a6aa545e51b0e159eea54f", "type": "electric_scooter", "is_disabled": 0, "lat": 38.9200515, "rental_uris": {"ios": "https://dc.lft.to/lastmile_qr_scan", "android": "https://dc.lft.to/lastmile_qr_scan"}, "is_reserved": 0, "fusion_lon": 0.0, "fusion_lat": 0.0, "lon": -77.02387516666667, "name": "165614bee3a6aa545e51b0e159eea54f"}, {"bike_id": "1315e9c8868c109642e1ee4272dfa174", "type": "electric_scooter", "is_disabled": 0, "lat": 38.905288166666665, "rental_uris": {"ios": "https://dc.lft.to/lastmile_qr_scan", "android": "https://dc.lft.to/lastmile_qr_scan"}, "is_reserved": 0, "fusion_lon": 0.0, "fusion_lat": 0.0, "lon": -77.06134966666667, "name": "1315e9c8868c109642e1ee4272dfa174"}, {"bike_id": "41a95d9c7a49000d1d0937905a93e497", "type": "electric_scooter", "is_disabled": 0, "lat": 38.901111666666665, "rental_uris": {"ios": "https://dc.lft.to/lastmile_qr_scan", "android": "https://dc.lft.to/lastmile_qr_scan"}, "is_reserved": 0, "fusion_lon": 0.0, "fusion_lat": 0.0, "lon": -77.0182165, "name": "41a95d9c7a49000d1d0937905a93e497"}, {"bike_id": "3f290615e81e2595f6160c9a53fa5d19", "type": "electric_bike", "is_disabled": 0, "lat": 38.963290666666666, "rental_uris": {"ios": "https://dc.lft.to/lastmile_qr_scan", "android": "https://dc.lft.to/lastmile_qr_scan"}, "is_reserved": 0, "fusion_lon": 0.0, "fusion_lat": 0.0, "lon": -76.97367933333334, "name": "3f290615e81e2595f6160c9a53fa5d19"}, {"bike_id": "d46a213c57d4be692d2daa17b31cabff", "type": "electric_scooter", "is_disabled": 0, "lat": 38.905081333333335, "rental_uris": {"ios": "https://dc.lft.to/lastmile_qr_scan", "android": "https://dc.lft.to/lastmile_qr_scan"}, "is_reserved": 0, "fusion_lon": 0.0, "fusion_lat": 0.0, "lon": -77.0601275, "name": "d46a213c57d4be692d2daa17b31cabff"}, {"bike_id": "523a979d34fe300fcb4036581c29a94b", "type": "electric_scooter", "is_disabled": 0, "lat": 38.866761333333336, "rental_uris": {"ios": "https://dc.lft.to/lastmile_qr_scan", "android": "https://dc.lft.to/lastmile_qr_scan"}, "is_reserved": 0, "fusion_lon": 0.0, "fusion_lat": 0.0, "lon": -76.98538933333333, "name": "523a979d34fe300fcb4036581c29a94b"}, {"bike_id": "a5156a8f025d493d0a9bafb61d7c608a", "type": "electric_scooter", "is_disabled": 0, "lat": 38.92082833333333, "rental_uris": {"ios": "https://dc.lft.to/lastmile_qr_scan", "android": "https://dc.lft.to/lastmile_qr_scan"}, "is_reserved": 0, "fusion_lon": 0.0, "fusion_lat": 0.0, "lon": -77.02507, "name": "a5156a8f025d493d0a9bafb61d7c608a"}, {"bike_id": "ff0d4e4d631e4b92066b2fd854cf500e", "type": "electric_scooter", "is_disabled": 0, "lat": 38.902240666666664, "rental_uris": {"ios": "https://dc.lft.to/lastmile_qr_scan", "android": "https://dc.lft.to/lastmile_qr_scan"}, "is_reserved": 0, "fusion_lon": 0.0, "fusion_lat": 0.0, "lon": -77.02385933333333, "name": "ff0d4e4d631e4b92066b2fd854cf500e"}, {"bike_id": "463319d6002ed7e6f77c902c986d72f6", "type": "electric_scooter", "is_disabled": 0, "lat": 38.89713583333333, "rental_uris": {"ios": "https://dc.lft.to/lastmile_qr_scan", "android": "https://dc.lft.to/lastmile_qr_scan"}, "is_reserved": 0, "fusion_lon": 0.0, "fusion_lat": 0.0, "lon": -77.00857116666667, "name": "463319d6002ed7e6f77c902c986d72f6"}, {"bike_id": "dbfcc6a883c62da5a68725fb8804202f", "type": "electric_scooter", "is_disabled": 0, "lat": 38.923385833333334, "rental_uris": {"ios": "https://dc.lft.to/lastmile_qr_scan", "android": "https://dc.lft.to/lastmile_qr_scan"}, "is_reserved": 0, "fusion_lon": 0.0, "fusion_lat": 0.0, "lon": -77.04163883333334, "name": "dbfcc6a883c62da5a68725fb8804202f"}, {"bike_id": "ff31c4f47f45b2e2cb9d646f6b745b1d", "type": "electric_scooter", "is_disabled": 0, "lat": 38.917768333333335, "rental_uris": {"ios": "https://dc.lft.to/lastmile_qr_scan", "android": "https://dc.lft.to/lastmile_qr_scan"}, "is_reserved": 0, "fusion_lon": 0.0, "fusion_lat": 0.0, "lon": -77.02309666666666, "name": "ff31c4f47f45b2e2cb9d646f6b745b1d"}, {"bike_id": "9b19b7c7b207e7910f628421c5286dbd", "type": "electric_bike", "is_disabled": 0, "lat": 38.9629635, "rental_uris": {"ios": "https://dc.lft.to/lastmile_qr_scan", "android": "https://dc.lft.to/lastmile_qr_scan"}, "is_reserved": 0, "fusion_lon": 0.0, "fusion_lat": 0.0, "lon": -77.01114233333334, "name": "9b19b7c7b207e7910f628421c5286dbd"}, {"bike_id": "50afda87dbe443841349f9b66243c6cb", "type": "electric_scooter", "is_disabled": 0, "lat": 38.89922283333333, "rental_uris": {"ios": "https://dc.lft.to/lastmile_qr_scan", "android": "https://dc.lft.to/lastmile_qr_scan"}, "is_reserved": 0, "fusion_lon": 0.0, "fusion_lat": 0.0, "lon": -77.05363933333334, "name": "50afda87dbe443841349f9b66243c6cb"}, {"bike_id": "16059c441e7e56c799c572e6d780105d", "type": "electric_scooter", "is_disabled": 0, "lat": 38.9010165, "rental_uris": {"ios": "https://dc.lft.to/lastmile_qr_scan", "android": "https://dc.lft.to/lastmile_qr_scan"}, "is_reserved": 0, "fusion_lon": 0.0, "fusion_lat": 0.0, "lon": -77.01907716666666, "name": "16059c441e7e56c799c572e6d780105d"}, {"bike_id": "6ad70be007a1d401c6f3d0de8b89b64a", "type": "electric_scooter", "is_disabled": 0, "lat": 38.95630716666667, "rental_uris": {"ios": "https://dc.lft.to/lastmile_qr_scan", "android": "https://dc.lft.to/lastmile_qr_scan"}, "is_reserved": 0, "fusion_lon": 0.0, "fusion_lat": 0.0, "lon": -77.01160066666667, "name": "6ad70be007a1d401c6f3d0de8b89b64a"}, {"bike_id": "5c2a9b9ff436c7e3bed8ad664e8c2c9f", "type": "electric_scooter", "is_disabled": 0, "lat": 38.887107, "rental_uris": {"ios": "https://dc.lft.to/lastmile_qr_scan", "android": "https://dc.lft.to/lastmile_qr_scan"}, "is_reserved": 0, "fusion_lon": 0.0, "fusion_lat": 0.0, "lon": -77.0220445, "name": "5c2a9b9ff436c7e3bed8ad664e8c2c9f"}, {"bike_id": "b09e6e714a83f1beecf72e0d20bab27c", "type": "electric_scooter", "is_disabled": 0, "lat": 38.92416583333333, "rental_uris": {"ios": "https://dc.lft.to/lastmile_qr_scan", "android": "https://dc.lft.to/lastmile_qr_scan"}, "is_reserved": 0, "fusion_lon": 0.0, "fusion_lat": 0.0, "lon": -77.05058666666666, "name": "b09e6e714a83f1beecf72e0d20bab27c"}, {"bike_id": "f65a9da1a6758be176a8c0168f642356", "type": "electric_scooter", "is_disabled": 0, "lat": 38.9073515, "rental_uris": {"ios": "https://dc.lft.to/lastmile_qr_scan", "android": "https://dc.lft.to/lastmile_qr_scan"}, "is_reserved": 0, "fusion_lon": 0.0, "fusion_lat": 0.0, "lon": -77.02802633333333, "name": "f65a9da1a6758be176a8c0168f642356"}, {"bike_id": "4cd5689416ea1f68a0f134c316662dd8", "type": "electric_scooter", "is_disabled": 0, "lat": 38.903903166666666, "rental_uris": {"ios": "https://dc.lft.to/lastmile_qr_scan", "android": "https://dc.lft.to/lastmile_qr_scan"}, "is_reserved": 0, "fusion_lon": 0.0, "fusion_lat": 0.0, "lon": -77.0055725, "name": "4cd5689416ea1f68a0f134c316662dd8"}, {"bike_id": "ee5de5adc5547eac8ea69071308d0750", "type": "electric_scooter", "is_disabled": 0, "lat": 38.897391166666665, "rental_uris": {"ios": "https://dc.lft.to/lastmile_qr_scan", "android": "https://dc.lft.to/lastmile_qr_scan"}, "is_reserved": 0, "fusion_lon": 0.0, "fusion_lat": 0.0, "lon": -77.048588, "name": "ee5de5adc5547eac8ea69071308d0750"}, {"bike_id": "785d8ba9424f11de8561eb19c4c11498", "type": "electric_scooter", "is_disabled": 0, "lat": 38.897302333333336, "rental_uris": {"ios": "https://dc.lft.to/lastmile_qr_scan", "android": "https://dc.lft.to/lastmile_qr_scan"}, "is_reserved": 0, "fusion_lon": 0.0, "fusion_lat": 0.0, "lon": -76.997499, "name": "785d8ba9424f11de8561eb19c4c11498"}, {"bike_id": "cb4364f91152a52f42c2c53c2a32088b", "type": "electric_scooter", "is_disabled": 0, "lat": 38.9001735, "rental_uris": {"ios": "https://dc.lft.to/lastmile_qr_scan", "android": "https://dc.lft.to/lastmile_qr_scan"}, "is_reserved": 0, "fusion_lon": 0.0, "fusion_lat": 0.0, "lon": -77.002183, "name": "cb4364f91152a52f42c2c53c2a32088b"}, {"bike_id": "09eb33bdd1fbc99e92e81421d2ca5e84", "type": "electric_bike", "is_disabled": 0, "lat": 38.87479066666667, "rental_uris": {"ios": "https://dc.lft.to/lastmile_qr_scan", "android": "https://dc.lft.to/lastmile_qr_scan"}, "is_reserved": 0, "fusion_lon": 0.0, "fusion_lat": 0.0, "lon": -76.96521866666667, "name": "09eb33bdd1fbc99e92e81421d2ca5e84"}, {"bike_id": "ead1a5a22fb75ee1d8fd67e956597282", "type": "electric_scooter", "is_disabled": 0, "lat": 38.9319115, "rental_uris": {"ios": "https://dc.lft.to/lastmile_qr_scan", "android": "https://dc.lft.to/lastmile_qr_scan"}, "is_reserved": 0, "fusion_lon": 0.0, "fusion_lat": 0.0, "lon": -77.04528216666667, "name": "ead1a5a22fb75ee1d8fd67e956597282"}, {"bike_id": "f2b31a77e5888b19c3304ba3417cb72a", "type": "electric_scooter", "is_disabled": 0, "lat": 38.90170416666667, "rental_uris": {"ios": "https://dc.lft.to/lastmile_qr_scan", "android": "https://dc.lft.to/lastmile_qr_scan"}, "is_reserved": 0, "fusion_lon": 0.0, "fusion_lat": 0.0, "lon": -76.9302705, "name": "f2b31a77e5888b19c3304ba3417cb72a"}, {"bike_id": "c3e16ffce24881d0d74ea4aadb0c4028", "type": "electric_scooter", "is_disabled": 0, "lat": 38.876340666666664, "rental_uris": {"ios": "https://dc.lft.to/lastmile_qr_scan", "android": "https://dc.lft.to/lastmile_qr_scan"}, "is_reserved": 0, "fusion_lon": 0.0, "fusion_lat": 0.0, "lon": -77.01695633333334, "name": "c3e16ffce24881d0d74ea4aadb0c4028"}, {"bike_id": "0280cb004b688ac054f70b042d0b4ef2", "type": "electric_scooter", "is_disabled": 0, "lat": 38.91284683333333, "rental_uris": {"ios": "https://dc.lft.to/lastmile_qr_scan", "android": "https://dc.lft.to/lastmile_qr_scan"}, "is_reserved": 0, "fusion_lon": 0.0, "fusion_lat": 0.0, "lon": -77.03661383333333, "name": "0280cb004b688ac054f70b042d0b4ef2"}, {"bike_id": "1f7a1036fa1e28a73e896b1014fea2b2", "type": "electric_scooter", "is_disabled": 0, "lat": 38.922815666666665, "rental_uris": {"ios": "https://dc.lft.to/lastmile_qr_scan", "android": "https://dc.lft.to/lastmile_qr_scan"}, "is_reserved": 0, "fusion_lon": 0.0, "fusion_lat": 0.0, "lon": -77.0367825, "name": "1f7a1036fa1e28a73e896b1014fea2b2"}, {"bike_id": "9e0a5b83efd5918d57f4993bf9c9bb89", "type": "electric_scooter", "is_disabled": 0, "lat": 38.88713516666667, "rental_uris": {"ios": "https://dc.lft.to/lastmile_qr_scan", "android": "https://dc.lft.to/lastmile_qr_scan"}, "is_reserved": 0, "fusion_lon": 0.0, "fusion_lat": 0.0, "lon": -77.02200783333333, "name": "9e0a5b83efd5918d57f4993bf9c9bb89"}, {"bike_id": "38b3038817b6bad3e131008d32a84eaa", "type": "electric_scooter", "is_disabled": 0, "lat": 38.917174, "rental_uris": {"ios": "https://dc.lft.to/lastmile_qr_scan", "android": "https://dc.lft.to/lastmile_qr_scan"}, "is_reserved": 0, "fusion_lon": 0.0, "fusion_lat": 0.0, "lon": -77.03659483333334, "name": "38b3038817b6bad3e131008d32a84eaa"}, {"bike_id": "19b9538fa225e3b23f790edb4a14997e", "type": "electric_scooter", "is_disabled": 0, "lat": 38.9024585, "rental_uris": {"ios": "https://dc.lft.to/lastmile_qr_scan", "android": "https://dc.lft.to/lastmile_qr_scan"}, "is_reserved": 0, "fusion_lon": 0.0, "fusion_lat": 0.0, "lon": -77.02127266666666, "name": "19b9538fa225e3b23f790edb4a14997e"}, {"bike_id": "18c8e92a12fd50aa0058aa51b03cd26c", "type": "electric_bike", "is_disabled": 0, "lat": 38.813085666666666, "rental_uris": {"ios": "https://dc.lft.to/lastmile_qr_scan", "android": "https://dc.lft.to/lastmile_qr_scan"}, "is_reserved": 0, "fusion_lon": 0.0, "fusion_lat": 0.0, "lon": -77.10961866666666, "name": "18c8e92a12fd50aa0058aa51b03cd26c"}, {"bike_id": "2f77997ee651ff40ac60f9cb81d60e0d", "type": "electric_scooter", "is_disabled": 0, "lat": 38.917030833333335, "rental_uris": {"ios": "https://dc.lft.to/lastmile_qr_scan", "android": "https://dc.lft.to/lastmile_qr_scan"}, "is_reserved": 0, "fusion_lon": 0.0, "fusion_lat": 0.0, "lon": -77.007975, "name": "2f77997ee651ff40ac60f9cb81d60e0d"}, {"bike_id": "372941a898975f68c4afcf750a80e72c", "type": "electric_scooter", "is_disabled": 0, "lat": 38.925758, "rental_uris": {"ios": "https://dc.lft.to/lastmile_qr_scan", "android": "https://dc.lft.to/lastmile_qr_scan"}, "is_reserved": 0, "fusion_lon": 0.0, "fusion_lat": 0.0, "lon": -77.0275935, "name": "372941a898975f68c4afcf750a80e72c"}, {"bike_id": "4d38648e490be9aadf0a625951f0a1ff", "type": "electric_scooter", "is_disabled": 0, "lat": 38.9225985, "rental_uris": {"ios": "https://dc.lft.to/lastmile_qr_scan", "android": "https://dc.lft.to/lastmile_qr_scan"}, "is_reserved": 0, "fusion_lon": 0.0, "fusion_lat": 0.0, "lon": -77.03257866666667, "name": "4d38648e490be9aadf0a625951f0a1ff"}, {"bike_id": "fc1ae4647bac86c947af4b1f877a6cc5", "type": "electric_scooter", "is_disabled": 0, "lat": 38.926564, "rental_uris": {"ios": "https://dc.lft.to/lastmile_qr_scan", "android": "https://dc.lft.to/lastmile_qr_scan"}, "is_reserved": 0, "fusion_lon": 0.0, "fusion_lat": 0.0, "lon": -77.0373035, "name": "fc1ae4647bac86c947af4b1f877a6cc5"}, {"bike_id": "8a2665a3456ad6888b6c56884b17a116", "type": "electric_scooter", "is_disabled": 0, "lat": 38.90373433333333, "rental_uris": {"ios": "https://dc.lft.to/lastmile_qr_scan", "android": "https://dc.lft.to/lastmile_qr_scan"}, "is_reserved": 0, "fusion_lon": 0.0, "fusion_lat": 0.0, "lon": -77.0164385, "name": "8a2665a3456ad6888b6c56884b17a116"}, {"bike_id": "364bf4a3f41804a4661f26cf82846631", "type": "electric_scooter", "is_disabled": 0, "lat": 38.914178166666666, "rental_uris": {"ios": "https://dc.lft.to/lastmile_qr_scan", "android": "https://dc.lft.to/lastmile_qr_scan"}, "is_reserved": 0, "fusion_lon": 0.0, "fusion_lat": 0.0, "lon": -77.02257266666666, "name": "364bf4a3f41804a4661f26cf82846631"}, {"bike_id": "33df442140b37a4f21dd534601db0653", "type": "electric_scooter", "is_disabled": 0, "lat": 38.9286765, "rental_uris": {"ios": "https://dc.lft.to/lastmile_qr_scan", "android": "https://dc.lft.to/lastmile_qr_scan"}, "is_reserved": 0, "fusion_lon": 0.0, "fusion_lat": 0.0, "lon": -77.03225383333333, "name": "33df442140b37a4f21dd534601db0653"}, {"bike_id": "cc42ca62f1427e36eaf3c248e46fb934", "type": "electric_scooter", "is_disabled": 0, "lat": 38.912949833333336, "rental_uris": {"ios": "https://dc.lft.to/lastmile_qr_scan", "android": "https://dc.lft.to/lastmile_qr_scan"}, "is_reserved": 0, "fusion_lon": 0.0, "fusion_lat": 0.0, "lon": -77.03871816666667, "name": "cc42ca62f1427e36eaf3c248e46fb934"}, {"bike_id": "daa9b2676d5ad7f27e94639f25fdd5fd", "type": "electric_scooter", "is_disabled": 0, "lat": 38.9196345, "rental_uris": {"ios": "https://dc.lft.to/lastmile_qr_scan", "android": "https://dc.lft.to/lastmile_qr_scan"}, "is_reserved": 0, "fusion_lon": 0.0, "fusion_lat": 0.0, "lon": -77.0424485, "name": "daa9b2676d5ad7f27e94639f25fdd5fd"},