{"data": {"bikes": [{"fusion_lat": 0.0, "name": "387da299604f7455b7c0b85af6f51b76", "is_disabled": 0, "rental_uris": {"android": "https://dc.lft.to/lastmile_qr_scan", "ios": "https://dc.lft.to/lastmile_qr_scan"}, "fusion_lon": 0.0, "lat": 38.879617333333336, "bike_id": "387da299604f7455b7c0b85af6f51b76", "type": "electric_scooter", "is_reserved": 0, "lon": -77.00600216666666}, {"fusion_lat": 0.0, "name": "3f13bd3b72bded4a37e74756ccca576c", "is_disabled": 0, "rental_uris": {"android": "https://dc.lft.to/lastmile_qr_scan", "ios": "https://dc.lft.to/lastmile_qr_scan"}, "fusion_lon": 0.0, "lat": 38.899795, "bike_id": "3f13bd3b72bded4a37e74756ccca576c", "type": "electric_scooter", "is_reserved": 0, "lon": -77.01191866666667}, {"fusion_lat": 0.0, "name": "e8277bf943d717878bca4a09b7877c91", "is_disabled": 0, "rental_uris": {"android": "https://dc.lft.to/lastmile_qr_scan", "ios": "https://dc.lft.to/lastmile_qr_scan"}, "fusion_lon": 0.0, "lat": 38.89241783333333, "bike_id": "e8277bf943d717878bca4a09b7877c91", "type": "electric_scooter", "is_reserved": 0, "lon": -77.04356083333333}, {"fusion_lat": 0.0, "name": "8fdf1f5c94d5e0ed0fa91b1e0d6c1f28", "is_disabled": 0, "rental_uris": {"android": "https://dc.lft.to/lastmile_qr_scan", "ios": "https://dc.lft.to/lastmile_qr_scan"}, "fusion_lon": 0.0, "lat": 38.921054, "bike_id": "8fdf1f5c94d5e0ed0fa91b1e0d6c1f28", "type": "electric_scooter", "is_reserved": 0, "lon": -77.03169116666666}, {"fusion_lat": 0.0, "name": "3eff65a9f32a1e112ec2736cad4e0a25", "is_disabled": 0, "rental_uris": {"android": "https://dc.lft.to/lastmile_qr_scan", "ios": "https://dc.lft.to/lastmile_qr_scan"}, "fusion_lon": 0.0, "lat": 38.92278616666667, "bike_id": "3eff65a9f32a1e112ec2736cad4e0a25", "type": "electric_scooter", "is_reserved": 0, "lon": -77.03657}, {"fusion_lat": 0.0, "name": "3a3795f6f74d7237302c948f91348f6f", "is_disabled": 0, "rental_uris": {"android": "https://dc.lft.to/lastmile_qr_scan", "ios": "https://dc.lft.to/lastmile_qr_scan"}, "fusion_lon": 0.0, "lat": 38.92737316666667, "bike_id": "3a3795f6f74d7237302c948f91348f6f", "type": "electric_scooter", "is_reserved": 0, "lon": -77.052532}, {"fusion_lat": 0.0, "name": "8c974162dbe003be1cb1b3761cf8a243", "is_disabled": 0, "rental_uris": {"android": "https://dc.lft.to/lastmile_qr_scan", "ios": "https://dc.lft.to/lastmile_qr_scan"}, "fusion_lon": 0.0, "lat": 38.904265, "bike_id": "8c974162dbe003be1cb1b3761cf8a243", "type": "electric_scooter", "is_reserved": 0, "lon": -77.05123133333333}, {"fusion_lat": 0.0, "name": "b019cd6e5bbceb9d2c9e332289b1fad1", "is_disabled": 0, "rental_uris": {"android": "https://dc.lft.to/lastmile_qr_scan", "ios": "https://dc.lft.to/lastmile_qr_scan"}, "fusion_lon": 0.0, "lat": 38.923733666666664, "bike_id": "b019cd6e5bbceb9d2c9e332289b1fad1", "type": "electric_scooter", "is_reserved": 0, "lon": -77.04468883333334}, {"fusion_lat": 0.0, "name": "4e1dae0ce15239f287de865a3ca4f40b", "is_disabled": 0, "rental_uris": {"android": "https://dc.lft.to/lastmile_qr_scan", "ios": "https://dc.lft.to/lastmile_qr_scan"}, "fusion_lon": 0.0, "lat": 38.920195, "bike_id": "4e1dae0ce15239f287de865a3ca4f40b", "type": "electric_scooter", "is_reserved": 0, "lon": -77.03883483333334}, {"fusion_lat": 0.0, "name": "1a302cd9236c016948e56f6d6f15c93e", "is_disabled": 0, "rental_uris": {"android": "https://dc.lft.to/lastmile_qr_scan", "ios": "https://dc.lft.to/lastmile_qr_scan"}, "fusion_lon": 0.0, "lat": 38.903801333333334, "bike_id": "1a302cd9236c016948e56f6d6f15c93e", "type": "electric_scooter", "is_reserved": 0, "lon": -76.97610166666666}, {"fusion_lat": 0.0, "name": "ba67f00756d3bf4b175ce45a8392b5d9", "is_disabled": 0, "rental_uris": {"android": "https://dc.lft.to/lastmile_qr_scan", "ios": "https://dc.lft.to/lastmile_qr_scan"}, "fusion_lon": 0.0, "lat": 38.80291583333333, "bike_id": "ba67f00756d3bf4b175ce45a8392b5d9", "type": "electric_bike", "is_reserved": 0, "lon": -77.05936333333334}, {"fusion_lat": 0.0, "name": "ee34a28e12223a94b0cc7063fc663c91", "is_disabled": 0, "rental_uris": {"android": "https://dc.lft.to/lastmile_qr_scan", "ios": "https://dc.lft.to/lastmile_qr_scan"}, "fusion_lon": 0.0, "lat": 38.9639695, "bike_id": "ee34a28e12223a94b0cc7063fc663c91", "type": "electric_scooter", "is_reserved": 0, "lon": -77.02593133333333}, {"fusion_lat": 0.0, "name": "8258cf2b7c851adc4d86a7893dbc466a", "is_disabled": 0, "rental_uris": {"android": "https://dc.lft.to/lastmile_qr_scan", "ios": "https://dc.lft.to/lastmile_qr_scan"}, "fusion_lon": 0.0, "lat": 38.88188366666667, "bike_id": "8258cf2b7c851adc4d86a7893dbc466a", "type": "electric_scooter", "is_reserved": 0, "lon": -77.00349366666667}, {"fusion_lat": 0.0, "name": "30b836070d5657a3c1c980b0ffc59aa7", "is_disabled": 0, "rental_uris": {"android": "https://dc.lft.to/lastmile_qr_scan", "ios": "https://dc.lft.to/lastmile_qr_scan"}, "fusion_lon": 0.0, "lat": 38.932536, "bike_id": "30b836070d5657a3c1c980b0ffc59aa7", "type": "electric_scooter", "is_reserved": 0, "lon": -77.03278866666666}, {"fusion_lat": 0.0, "name": "286c04ddefe786464a1d019657dbef42", "is_disabled": 0, "rental_uris": {"android": "https://dc.lft.to/lastmile_qr_scan", "ios": "https://dc.lft.to/lastmile_qr_scan"}, "fusion_lon": 0.0, "lat": 38.876727, "bike_id": "286c04ddefe786464a1d019657dbef42", "type": "electric_scooter", "is_reserved": 0, "lon": -77.01760983333334}, {"fusion_lat": 0.0, "name": "cd7b55f331ea72f9eed3df81b7841cad", "is_disabled": 0, "rental_uris": {"android": "https://dc.lft.to/lastmile_qr_scan", "ios": "https://dc.lft.to/lastmile_qr_scan"}, "fusion_lon": 0.0, "lat": 38.89875416666667, "bike_id": "cd7b55f331ea72f9eed3df81b7841cad", "type": "electric_bike", "is_reserved": 0, "lon": -77.11324933333333}, {"fusion_lat": 0.0, "name": "2d50933080b5d4eb5f4f59d0b7b504c3", "is_disabled": 0, "rental_uris": {"android": "https://dc.lft.to/lastmile_qr_scan", "ios": "https://dc.lft.to/lastmile_qr_scan"}, "fusion_lon": 0.0, "lat": 38.92380333333333, "bike_id": "2d50933080b5d4eb5f4f59d0b7b504c3", "type": "electric_scooter", "is_reserved": 0, "lon": -77.04111816666666}, {"fusion_lat": 0.0, "name": "06705a13018f34f0fce2d03791adb8ec", "is_disabled": 0, "rental_uris": {"android": "https://dc.lft.to/lastmile_qr_scan", "ios": "https://dc.lft.to/lastmile_qr_scan"}, "fusion_lon": 0.0, "lat": 38.87373216666667, "bike_id": "06705a13018f34f0fce2d03791adb8ec", "type": "electric_bike", "is_reserved": 0, "lon": -77.11798716666667}, {"fusion_lat": 0.0, "name": "9ff608fc02bc1e9ba04e32420ba5a522", "is_disabled": 0, "rental_uris": {"android": "https://dc.lft.to/lastmile_qr_scan", "ios": "https://dc.lft.to/lastmile_qr_scan"}, "fusion_lon": 0.0, "lat": 39.014148666666664, "bike_id": "9ff608fc02bc1e9ba04e32420ba5a522", "type": "electric_bike", "is_reserved": 0, "lon": -77.04497983333333}, {"fusion_lat": 0.0, "name": "5ee6f9d3d61dcc4f4dfca64ef421bbcd", "is_disabled": 0, "rental_uris": {"android": "https://dc.lft.to/lastmile_qr_scan", "ios": "https://dc.lft.to/lastmile_qr_scan"}, "fusion_lon": 0.0, "lat": 38.911085, "bike_id": "5ee6f9d3d61dcc4f4dfca64ef421bbcd", "type": "electric_scooter", "is_reserved": 0, "lon": -77.02092216666667}, {"fusion_lat": 0.0, "name": "4e92bf8cb1683390a7234c6580ef7171", "is_disabled": 0, "rental_uris": {"android": "https://dc.lft.to/lastmile_qr_scan", "ios": "https://dc.lft.to/lastmile_qr_scan"}, "fusion_lon": 0.0, "lat": 38.882051833333335, "bike_id": "4e92bf8cb1683390a7234c6580ef7171", "type": "electric_bike", "is_reserved": 0, "lon": -76.99270166666666}, {"fusion_lat": 0.0, "name": "c4b1952c761c4e74752abbf2f8328d9d", "is_disabled": 0, "rental_uris": {"android": "https://dc.lft.to/lastmile_qr_scan", "ios": "https://dc.lft.to/lastmile_qr_scan"}, "fusion_lon": 0.0, "lat": 38.89566083333333, "bike_id": "c4b1952c761c4e74752abbf2f8328d9d", "type": "electric_scooter", "is_reserved": 0, "lon": -76.99426983333333}, {"fusion_lat": 0.0, "name": "100ad70e529b1ef33de03f73a4822008", "is_disabled": 0, "rental_uris": {"android": "https://dc.lft.to/lastmile_qr_scan", "ios": "https://dc.lft.to/lastmile_qr_scan"}, "fusion_lon": 0.0, "lat": 38.9037485, "bike_id": "100ad70e529b1ef33de03f73a4822008", "type": "electric_scooter", "is_reserved": 0, "lon": -77.0481745}, {"fusion_lat": 0.0, "name": "f5a7159ea391101b110a19d6e59271ad", "is_disabled": 0, "rental_uris": {"android": "https://dc.lft.to/lastmile_qr_scan", "ios": "https://dc.lft.to/lastmile_qr_scan"}, "fusion_lon": 0.0, "lat": 38.997758, "bike_id": "f5a7159ea391101b110a19d6e59271ad", "type": "electric_bike", "is_reserved": 0, "lon": -77.04713216666667}, {"fusion_lat": 0.0, "name": "3fffad8dc4cbf5606f02c401e78d37e0", "is_disabled": 0, "rental_uris": {"android": "https://dc.lft.to/lastmile_qr_scan", "ios": "https://dc.lft.to/lastmile_qr_scan"}, "fusion_lon": 0.0, "lat": 38.89847316666667, "bike_id": "3fffad8dc4cbf5606f02c401e78d37e0", "type": "electric_scooter", "is_reserved": 0, "lon": -77.03916266666667}, {"fusion_lat": 0.0, "name": "72079134cd632116277400ad22769ab5", "is_disabled": 0, "rental_uris": {"android": "https://dc.lft.to/lastmile_qr_scan", "ios": "https://dc.lft.to/lastmile_qr_scan"}, "fusion_lon": 0.0, "lat": 38.9040875, "bike_id": "72079134cd632116277400ad22769ab5", "type": "electric_scooter", "is_reserved": 0, "lon": -76.97334066666667}, {"fusion_lat": 0.0, "name": "5ea626636b4cf6cd99db2ee2312a2c0b", "is_disabled": 0, "rental_uris": {"android": "https://dc.lft.to/lastmile_qr_scan", "ios": "https://dc.lft.to/lastmile_qr_scan"}, "fusion_lon": 0.0, "lat": 38.90567733333334, "bike_id": "5ea626636b4cf6cd99db2ee2312a2c0b", "type": "electric_scooter", "is_reserved": 0, "lon": -77.00640183333333}, {"fusion_lat": 0.0, "name": "f56f6d8a11e7aeb67118604ac009e8ed", "is_disabled": 0, "rental_uris": {"android": "https://dc.lft.to/lastmile_qr_scan", "ios": "https://dc.lft.to/lastmile_qr_scan"}, "fusion_lon": 0.0, "lat": 38.9002905, "bike_id": "f56f6d8a11e7aeb67118604ac009e8ed", "type": "electric_scooter", "is_reserved": 0, "lon": -76.9987065}, {"fusion_lat": 0.0, "name": "af4997b261f636477311a053a7275842", "is_disabled": 0, "rental_uris": {"android": "https://dc.lft.to/lastmile_qr_scan", "ios": "https://dc.lft.to/lastmile_qr_scan"}, "fusion_lon": 0.0, "lat": 38.91981166666667, "bike_id": "af4997b261f636477311a053a7275842", "type": "electric_scooter", "is_reserved": 0, "lon": -77.023854}, {"fusion_lat": 0.0, "name": "88cea60c1900ccc7a6bfebcfdff5c00b", "is_disabled": 0, "rental_uris": {"android": "https://dc.lft.to/lastmile_qr_scan", "ios": "https://dc.lft.to/lastmile_qr_scan"}, "fusion_lon": 0.0, "lat": 38.920672833333334, "bike_id": "88cea60c1900ccc7a6bfebcfdff5c00b", "type": "electric_scooter", "is_reserved": 0, "lon": -77.0409295}, {"fusion_lat": 0.0, "name": "ff4a01715e514c8eb42b40e82a13903d", "is_disabled": 0, "rental_uris": {"android": "https://dc.lft.to/lastmile_qr_scan", "ios": "https://dc.lft.to/lastmile_qr_scan"}, "fusion_lon": 0.0, "lat": 38.90559416666667, "bike_id": "ff4a01715e514c8eb42b40e82a13903d", "type": "electric_scooter", "is_reserved": 0, "lon": -77.04553916666667}, {"fusion_lat": 0.0, "name": "a6ad4422972df47574239501a44c5e11", "is_disabled": 0, "rental_uris": {"android": "https://dc.lft.to/lastmile_qr_scan", "ios": "https://dc.lft.to/lastmile_qr_scan"}, "fusion_lon": 0.0, "lat": 38.91475033333333, "bike_id": "a6ad4422972df47574239501a44c5e11", "type": "electric_scooter", "is_reserved": 0, "lon": -77.03585316666667}, {"fusion_lat": 0.0, "name": "2b8cd1b11cb3863bd83adeec855dcf73", "is_disabled": 0, "rental_uris": {"android": "https://dc.lft.to/lastmile_qr_scan", "ios": "https://dc.lft.to/lastmile_qr_scan"}, "fusion_lon": 0.0, "lat": 38.80762566666667, "bike_id": "2b8cd1b11cb3863bd83adeec855dcf73", "type": "electric_bike", "is_reserved": 0, "lon": -77.09468583333333}, {"fusion_lat": 0.0, "name": "ca6563c532f0e0b2f6a0516a64a7be5e", "is_disabled": 0, "rental_uris": {"android": "https://dc.lft.to/lastmile_qr_scan", "ios": "https://dc.lft.to/lastmile_qr_scan"}, "fusion_lon": 0.0, "lat": 38.915473166666665, "bike_id": "ca6563c532f0e0b2f6a0516a64a7be5e", "type": "electric_scooter", "is_reserved": 0, "lon": -77.03856633333334}, {"fusion_lat": 0.0, "name": "7630b4e54bc6f58137c1ddac8c6ca34a", "is_disabled": 0, "rental_uris": {"android": "https://dc.lft.to/lastmile_qr_scan", "ios": "https://dc.lft.to/lastmile_qr_scan"}, "fusion_lon": 0.0, "lat": 38.92250033333333, "bike_id": "7630b4e54bc6f58137c1ddac8c6ca34a", "type": "electric_scooter", "is_reserved": 0, "lon": -77.03089933333334}, {"fusion_lat": 0.0, "name": "c4c95c968139c03825666d503c30f4f9", "is_disabled": 0, "rental_uris": {"android": "https://dc.lft.to/lastmile_qr_scan", "ios": "https://dc.lft.to/lastmile_qr_scan"}, "fusion_lon": 0.0, "lat": 38.89565966666667, "bike_id": "c4c95c968139c03825666d503c30f4f9", "type": "electric_bike", "is_reserved": 0, "lon": -77.12736766666667}, {"fusion_lat": 0.0, "name": "8c2ff6da83ee77d3ad99fa8c90fc9013", "is_disabled": 0, "rental_uris": {"android": "https://dc.lft.to/lastmile_qr_scan", "ios": "https://dc.lft.to/lastmile_qr_scan"}, "fusion_lon": 0.0, "lat": 38.91498216666667, "bike_id": "8c2ff6da83ee77d3ad99fa8c90fc9013", "type": "electric_scooter", "is_reserved": 0, "lon": -77.032656}, {"fusion_lat": 0.0, "name": "b9011c9e2d3c0cff1f2c559f3df85382", "is_disabled": 0, "rental_uris": {"android": "https://dc.lft.to/lastmile_qr_scan", "ios": "https://dc.lft.to/lastmile_qr_scan"}, "fusion_lon": 0.0, "lat": 38.93009083333333, "bike_id": "b9011c9e2d3c0cff1f2c559f3df85382", "type": "electric_bike", "is_reserved": 0, "lon": -77.01620483333333}, {"fusion_lat": 0.0, "name": "fde410412c59abfa09c233d79094a4ef", "is_disabled": 0, "rental_uris": {"android": "https://dc.lft.to/lastmile_qr_scan", "ios": "https://dc.lft.to/lastmile_qr_scan"}, "fusion_lon": 0.0, "lat": 38.9053245, "bike_id": "fde410412c59abfa09c233d79094a4ef", "type": "electric_bike", "is_reserved": 0, "lon": -76.9980915}, {"fusion_lat": 0.0, "name": "c0a8027cb6a049575072fc71b463c59a", "is_disabled": 0, "rental_uris": {"android": "https://dc.lft.to/lastmile_qr_scan", "ios": "https://dc.lft.to/lastmile_qr_scan"}, "fusion_lon": 0.0, "lat": 38.895235, "bike_id": "c0a8027cb6a049575072fc71b463c59a", "type": "electric_scooter", "is_reserved": 0, "lon": -76.94890466666666}, {"fusion_lat": 0.0, "name": "0483939b2f8e33138598f4f5f10b317a", "is_disabled": 0, "rental_uris": {"android": "https://dc.lft.to/lastmile_qr_scan", "ios": "https://dc.lft.to/lastmile_qr_scan"}, "fusion_lon": 0.0, "lat": 38.908902, "bike_id": "0483939b2f8e33138598f4f5f10b317a", "type": "electric_scooter", "is_reserved": 0, "lon": -77.0430085}, {"fusion_lat": 0.0, "name": "6946a9c27e495e6246a472d54f1ec6d9", "is_disabled": 0, "rental_uris": {"android": "https://dc.lft.to/lastmile_qr_scan", "ios": "https://dc.lft.to/lastmile_qr_scan"}, "fusion_lon": 0.0, "lat": 38.92862366666667, "bike_id": "6946a9c27e495e6246a472d54f1ec6d9", "type": "electric_scooter", "is_reserved": 0, "lon": -77.03406733333334}, {"fusion_lat": 0.0, "name": "c1d35f470be2169700d0eea30b0b556f", "is_disabled": 0, "rental_uris": {"android": "https://dc.lft.to/lastmile_qr_scan", "ios": "https://dc.lft.to/lastmile_qr_scan"}, "fusion_lon": 0.0, "lat": 38.93480266666667, "bike_id": "c1d35f470be2169700d0eea30b0b556f", "type": "electric_scooter", "is_reserved": 0, "lon": -77.07342716666666}, {"fusion_lat": 0.0, "name": "b3a62973f59300f1629277e4eec45c5a", "is_disabled": 0, "rental_uris": {"android": "https://dc.lft.to/lastmile_qr_scan", "ios": "https://dc.lft.to/lastmile_qr_scan"}, "fusion_lon": 0.0, "lat": 38.89877033333333, "bike_id": "b3a62973f59300f1629277e4eec45c5a", "type": "electric_scooter", "is_reserved": 0, "lon": -76.931819}, {"fusion_lat": 0.0, "name": "f1dd0edcd4fd3805d77a9f75b232b9db", "is_disabled": 0, "rental_uris": {"android": "https://dc.lft.to/lastmile_qr_scan", "ios": "https://dc.lft.to/lastmile_qr_scan"}, "fusion_lon": 0.0, "lat": 38.90432966666667, "bike_id": "f1dd0edcd4fd3805d77a9f75b232b9db", "type": "electric_scooter", "is_reserved": 0, "lon": -77.02610233333333}, {"fusion_lat": 0.0, "name": "81e0afee0003b769b1aa1dd7bb171cdc", "is_disabled": 0, "rental_uris": {"android": "https://dc.lft.to/lastmile_qr_scan", "ios": "https://dc.lft.to/lastmile_qr_scan"}, "fusion_lon": 0.0, "lat": 38.9297225, "bike_id": "81e0afee0003b769b1aa1dd7bb171cdc", "type": "electric_scooter", "is_reserved": 0, "lon": -77.0279445}, {"fusion_lat": 0.0, "name": "f11ffd85fc3c67c0ce09b3dd09d230e7", "is_disabled": 0, "rental_uris": {"android": "https://dc.lft.to/lastmile_qr_scan", "ios": "https://dc.lft.to/lastmile_qr_scan"}, "fusion_lon": 0.0, "lat": 38.92026083333333, "bike_id": "f11ffd85fc3c67c0ce09b3dd09d230e7", "type": "electric_scooter", "is_reserved": 0, "lon": -77.01313816666666}, {"fusion_lat": 0.0, "name": "a5061417a5c0079070896c1567517c8f", "is_disabled": 0, "rental_uris": {"android": "https://dc.lft.to/lastmile_qr_scan", "ios": "https://dc.lft.to/lastmile_qr_scan"}, "fusion_lon": 0.0, "lat": 38.91119533333333, "bike_id": "a5061417a5c0079070896c1567517c8f", "type": "electric_scooter", "is_reserved": 0, "lon": -77.00771366666666}, {"fusion_lat": 0.0, "name": "bc86d63da75f64ecf60e319aa0c394d9", "is_disabled": 0, "rental_uris": {"android": "https://dc.lft.to/lastmile_qr_scan", "ios": "https://dc.lft.to/lastmile_qr_scan"}, "fusion_lon": 0.0, "lat": 38.893202333333335, "bike_id": "bc86d63da75f64ecf60e319aa0c394d9", "type": "electric_scooter", "is_reserved": 0, "lon": -77.032144}, {"fusion_lat": 0.0, "name": "85a61813aa1806329aea3f2f40afa625", "is_disabled": 0, "rental_uris": {"android": "https://dc.lft.to/lastmile_qr_scan", "ios": "https://dc.lft.to/lastmile_qr_scan"}, "fusion_lon": 0.0, "lat": 38.892188166666664, "bike_id": "85a61813aa1806329aea3f2f40afa625", "type": "electric_scooter", "is_reserved": 0, "lon": -77.04872583333334}, {"fusion_lat": 0.0, "name": "10b70d63e9fc02678ad90a3e1a4b42aa", "is_disabled": 0, "rental_uris": {"android": "https://dc.lft.to/lastmile_qr_scan", "ios": "https://dc.lft.to/lastmile_qr_scan"}, "fusion_lon": 0.0, "lat": 38.900188166666666, "bike_id": "10b70d63e9fc02678ad90a3e1a4b42aa", "type": "electric_scooter", "is_reserved": 0, "lon": -76.98806666666667}, {"fusion_lat": 0.0, "name": "280da90a5e701c5fb95e98f8ef2fe2ac", "is_disabled": 0, "rental_uris": {"android": "https://dc.lft.to/lastmile_qr_scan", "ios": "https://dc.lft.to/lastmile_qr_scan"}, "fusion_lon": 0.0, "lat": 38.8781965, "bike_id": "280da90a5e701c5fb95e98f8ef2fe2ac", "type": "electric_scooter", "is_reserved": 0, "lon": -76.99488766666667}, {"fusion_lat": 0.0, "name": "98bde47df46a41d3abb3f9dd18305cc6", "is_disabled": 0, "rental_uris": {"android": "https://dc.lft.to/lastmile_qr_scan", "ios": "https://dc.lft.to/lastmile_qr_scan"}, "fusion_lon": 0.0, "lat": 38.95082266666667, "bike_id": "98bde47df46a41d3abb3f9dd18305cc6", "type": "electric_bike", "is_reserved": 0, "lon": -77.01226416666667}, {"fusion_lat": 0.0, "name": "9a3eadeb0ef57b9462a08e404fde141d", "is_disabled": 0, "rental_uris": {"android": "https://dc.lft.to/lastmile_qr_scan", "ios": "https://dc.lft.to/lastmile_qr_scan"}, "fusion_lon": 0.0, "lat": 38.902311166666664, "bike_id": "9a3eadeb0ef57b9462a08e404fde141d", "type": "electric_scooter", "is_reserved": 0, "lon": -77.03470866666666}, {"fusion_lat": 0.0, "name": "217d1584f8e4551a7d4167d200467835", "is_disabled": 0, "rental_uris": {"android": "https://dc.lft.to/lastmile_qr_scan", "ios": "https://dc.lft.to/lastmile_qr_scan"}, "fusion_lon": 0.0, "lat": 38.91824966666667, "bike_id": "217d1584f8e4551a7d4167d200467835", "type": "electric_scooter", "is_reserved": 0, "lon": -77.04512066666666}, {"fusion_lat": 0.0, "name": "3f76460a76e5130f18c8710c89ffdab8", "is_disabled": 0, "rental_uris": {"android": "https://dc.lft.to/lastmile_qr_scan", "ios": "https://dc.lft.to/lastmile_qr_scan"}, "fusion_lon": 0.0, "lat": 38.878527, "bike_id": "3f76460a76e5130f18c8710c89ffdab8", "type": "electric_scooter", "is_reserved": 0, "lon": -77.017597}, {"fusion_lat": 0.0, "name": "d1cf1fd8520bb6377cb05cd112ba8ee8", "is_disabled": 0, "rental_uris": {"android": "https://dc.lft.to/lastmile_qr_scan", "ios": "https://dc.lft.to/lastmile_qr_scan"}, "fusion_lon": 0.0, "lat": 38.920660166666664, "bike_id": "d1cf1fd8520bb6377cb05cd112ba8ee8", "type": "electric_scooter", "is_reserved": 0, "lon": -77.023598}, {"fusion_lat": 0.0, "name": "4d866614e9e35f37d2d909e7fb73b8cd", "is_disabled": 0, "rental_uris": {"android": "https://dc.lft.to/lastmile_qr_scan", "ios": "https://dc.lft.to/lastmile_qr_scan"}, "fusion_lon": 0.0, "lat": 38.9003305, "bike_id": "4d866614e9e35f37d2d909e7fb73b8cd", "type": "electric_scooter", "is_reserved": 0, "lon": -76.998668}, {"fusion_lat": 0.0, "name": "afb9a775868b99d2ceb0f9d25e8adab4", "is_disabled": 0, "rental_uris": {"android": "https://dc.lft.to/lastmile_qr_scan", "ios": "https://dc.lft.to/lastmile_qr_scan"}, "fusion_lon": 0.0, "lat": 38.89544, "bike_id": "afb9a775868b99d2ceb0f9d25e8adab4", "type": "electric_scooter", "is_reserved": 0, "lon": -76.983405}, {"fusion_lat": 0.0, "name": "3f780001cb8b78945810a486d4efd2bc", "is_disabled": 0, "rental_uris": {"android": "https://dc.lft.to/lastmile_qr_scan", "ios": "https://dc.lft.to/lastmile_qr_scan"}, "fusion_lon": 0.0, "lat": 38.923738666666665, "bike_id": "3f780001cb8b78945810a486d4efd2bc", "type": "electric_scooter", "is_reserved": 0, "lon": -77.03126283333333}, {"fusion_lat": 0.0, "name": "7588e98c1615b0f58ed2475204c5b7c3", "is_disabled": 0, "rental_uris": {"android": "https://dc.lft.to/lastmile_qr_scan", "ios": "https://dc.lft.to/lastmile_qr_scan"}, "fusion_lon": 0.0, "lat": 38.921012, "bike_id": "7588e98c1615b0f58ed2475204c5b7c3", "type": "electric_scooter", "is_reserved": 0, "lon": -77.0250725}, {"fusion_lat": 0.0, "name": "7beaf5101ab4dadccfbdd0b1682e17ff", "is_disabled": 0, "rental_uris": {"android": "https://dc.lft.to/lastmile_qr_scan", "ios": "https://dc.lft.to/lastmile_qr_scan"}, "fusion_lon": 0.0, "lat": 38.906854833333334, "bike_id": "7beaf5101ab4dadccfbdd0b1682e17ff", "type": "electric_scooter", "is_reserved": 0, "lon": -77.010147}, {"fusion_lat": 0.0, "name": "4683ff1beae3ecef5f8e808171182dac", "is_disabled": 0, "rental_uris": {"android": "https://dc.lft.to/lastmile_qr_scan", "ios": "https://dc.lft.to/lastmile_qr_scan"}, "fusion_lon": 0.0, "lat": 38.8973105, "bike_id": "4683ff1beae3ecef5f8e808171182dac", "type": "electric_scooter", "is_reserved": 0, "lon": -76.99137116666667}, {"fusion_lat": 0.0, "name": "62d485e66639cdff58ab4f77602e88d3", "is_disabled": 0, "rental_uris": {"android": "https://dc.lft.to/lastmile_qr_scan", "ios": "https://dc.lft.to/lastmile_qr_scan"}, "fusion_lon": 0.0, "lat": 38.9233845, "bike_id": "62d485e66639cdff58ab4f77602e88d3", "type": "electric_scooter", "is_reserved": 0, "lon": -77.05301633333333}, {"fusion_lat": 0.0, "name": "1616301bcec8a94f1f30c46d3c5c6385", "is_disabled": 0, "rental_uris": {"android": "https://dc.lft.to/lastmile_qr_scan", "ios": "https://dc.lft.to/lastmile_qr_scan"}, "fusion_lon": 0.0, "lat": 38.88185166666667, "bike_id": "1616301bcec8a94f1f30c46d3c5c6385", "type": "electric_bike", "is_reserved": 0, "lon": -77.08628033333333}, {"fusion_lat": 0.0, "name": "00e77665f230f49ed5e772e5d44b2499", "is_disabled": 0, "rental_uris": {"android": "https://dc.lft.to/lastmile_qr_scan", "ios": "https://dc.lft.to/lastmile_qr_scan"}, "fusion_lon": 0.0, "lat": 38.908692333333335, "bike_id": "00e77665f230f49ed5e772e5d44b2499", "type": "electric_scooter", "is_reserved": 0, "lon": -77.02335183333334}, {"fusion_lat": 0.0, "name": "c53b9a9845c5cf44a117912da38dc4b4", "is_disabled": 0, "rental_uris": {"android": "https://dc.lft.to/lastmile_qr_scan", "ios": "https://dc.lft.to/lastmile_qr_scan"}, "fusion_lon": 0.0, "lat": 38.957549, "bike_id": "c53b9a9845c5cf44a117912da38dc4b4", "type": "electric_bike", "is_reserved": 0, "lon": -77.020558}, {"fusion_lat": 0.0, "name": "bd9d35276032570ec7e440fb9a3b1ebf", "is_disabled": 0, "rental_uris": {"android": "https://dc.lft.to/lastmile_qr_scan", "ios": "https://dc.lft.to/lastmile_qr_scan"}, "fusion_lon": 0.0, "lat": 38.930759333333334, "bike_id": "bd9d35276032570ec7e440fb9a3b1ebf", "type": "electric_scooter", "is_reserved": 0, "lon": -77.077603}, {"fusion_lat": 0.0, "name": "f2a0d10e51443ac3f026ccad8b601791", "is_disabled": 0, "rental_uris": {"android": "https://dc.lft.to/lastmile_qr_scan", "ios": "https://dc.lft.to/lastmile_qr_scan"}, "fusion_lon": 0.0, "lat": 38.9133395, "bike_id": "f2a0d10e51443ac3f026ccad8b601791", "type": "electric_scooter", "is_reserved": 0, "lon": -77.03166066666667}, {"fusion_lat": 0.0, "name": "9e9e270527779d9c0352a6b626a4523b", "is_disabled": 0, "rental_uris": {"android": "https://dc.lft.to/lastmile_qr_scan", "ios": "https://dc.lft.to/lastmile_qr_scan"}, "fusion_lon": 0.0, "lat": 38.935945333333336, "bike_id": "9e9e270527779d9c0352a6b626a4523b", "type": "electric_scooter", "is_reserved": 0, "lon": -77.03655833333333}, {"fusion_lat": 0.0, "name": "f0d556b16fbb0447898dacc5a588e292", "is_disabled": 0, "rental_uris": {"android": "https://dc.lft.to/lastmile_qr_scan", "ios": "https://dc.lft.to/lastmile_qr_scan"}, "fusion_lon": 0.0, "lat": 38.9237585, "bike_id": "f0d556b16fbb0447898dacc5a588e292", "type": "electric_scooter", "is_reserved": 0, "lon": -77.03195833333334}, {"fusion_lat": 0.0, "name": "d623eefe40fab5cac53e811b99e79433", "is_disabled": 0, "rental_uris": {"android": "https://dc.lft.to/lastmile_qr_scan", "ios": "https://dc.lft.to/lastmile_qr_scan"}, "fusion_lon": 0.0, "lat": 38.8601875, "bike_id": "d623eefe40fab5cac53e811b99e79433", "type": "electric_bike", "is_reserved": 0, "lon": -77.12809316666667}, {"fusion_lat": 0.0, "name": "1fd7d19feee3b218b505cad7c405a86d", "is_disabled": 0, "rental_uris": {"android": "https://dc.lft.to/lastmile_qr_scan", "ios": "https://dc.lft.to/lastmile_qr_scan"}, "fusion_lon": 0.0, "lat": 38.874540333333336, "bike_id": "1fd7d19feee3b218b505cad7c405a86d", "type": "electric_scooter", "is_reserved": 0, "lon": -77.00289283333333}, {"fusion_lat": 0.0, "name": "eee543d0e2dfb3879b51bb5a1154cae1", "is_disabled": 0, "rental_uris": {"android": "https://dc.lft.to/lastmile_qr_scan", "ios": "https://dc.lft.to/lastmile_qr_scan"}, "fusion_lon": 0.0, "lat": 38.932671166666665, "bike_id": "eee543d0e2dfb3879b51bb5a1154cae1", "type": "electric_scooter", "is_reserved": 0, "lon": -77.01914833333333}, {"fusion_lat": 0.0, "name": "3f18f1a57be9240749519c62e88ec2f1", "is_disabled": 0, "rental_uris": {"android": "https://dc.lft.to/lastmile_qr_scan", "ios": "https://dc.lft.to/lastmile_qr_scan"}, "fusion_lon": 0.0, "lat": 38.940983333333335, "bike_id": "3f18f1a57be9240749519c62e88ec2f1", "type": "electric_scooter", "is_reserved": 0, "lon": -77.03278283333333}, {"fusion_lat": 0.0, "name": "43f6d3df88c9ec82808f250012c9d279", "is_disabled": 0, "rental_uris": {"android": "https://dc.lft.to/lastmile_qr_scan", "ios": "https://dc.lft.to/lastmile_qr_scan"}, "fusion_lon": 0.0, "lat": 38.90600333333333, "bike_id": "43f6d3df88c9ec82808f250012c9d279", "type": "electric_scooter", "is_reserved": 0, "lon": -77.02603683333334}, {"fusion_lat": 0.0, "name": "9f28f0133ca5b003ad7a68cf52733b96", "is_disabled": 0, "rental_uris": {"android": "https://dc.lft.to/lastmile_qr_scan", "ios": "https://dc.lft.to/lastmile_qr_scan"}, "fusion_lon": 0.0, "lat": 38.92019283333333, "bike_id": "9f28f0133ca5b003ad7a68cf52733b96", "type": "electric_scooter", "is_reserved": 0, "lon": -77.02507033333333}, {"fusion_lat": 0.0, "name": "a6378abc56b8ac8e63ba077bb024f0ec", "is_disabled": 0, "rental_uris": {"android": "https://dc.lft.to/lastmile_qr_scan", "ios": "https://dc.lft.to/lastmile_qr_scan"}, "fusion_lon": 0.0, "lat": 38.91680383333333, "bike_id": "a6378abc56b8ac8e63ba077bb024f0ec", "type": "electric_scooter", "is_reserved": 0, "lon": -77.01582966666666}, {"fusion_lat": 0.0, "name": "b309c0633ab5180be934fb6b237ca424", "is_disabled": 0, "rental_uris": {"android": "https://dc.lft.to/lastmile_qr_scan", "ios": "https://dc.lft.to/lastmile_qr_scan"}, "fusion_lon": 0.0, "lat": 38.93084733333333, "bike_id": "b309c0633ab5180be934fb6b237ca424", "type": "electric_scooter", "is_reserved": 0, "lon": -77.02000233333334}, {"fusion_lat": 0.0, "name": "bb98fe9ade6fd8db8fd2384050b7724b", "is_disabled": 0, "rental_uris": {"android": "https://dc.lft.to/lastmile_qr_scan", "ios": "https://dc.lft.to/lastmile_qr_scan"}, "fusion_lon": 0.0, "lat": 38.895208833333335, "bike_id": "bb98fe9ade6fd8db8fd2384050b7724b", "type": "electric_scooter", "is_reserved": 0, "lon": -77.03054116666667}, {"fusion_lat": 0.0, "name": "937f669daaa584f42677711690a77fa8", "is_disabled": 0, "rental_uris": {"android": "https://dc.lft.to/lastmile_qr_scan", "ios": "https://dc.lft.to/lastmile_qr_scan"}, "fusion_lon": 0.0, "lat": 38.8771465, "bike_id": "937f669daaa584f42677711690a77fa8", "type": "electric_scooter", "is_reserved": 0, "lon": -77.01762583333333}, {"fusion_lat": 0.0, "name": "83834d6fec8cdecd775d55d00b115b10", "is_disabled": 0, "rental_uris": {"android": "https://dc.lft.to/lastmile_qr_scan", "ios": "https://dc.lft.to/lastmile_qr_scan"}, "fusion_lon": 0.0, "lat": 38.888924333333335, "bike_id": "83834d6fec8cdecd775d55d00b115b10", "type": "electric_bike", "is_reserved": 0, "lon": -77.11529333333333}, {"fusion_lat": 0.0, "name": "57703b326fa61ade90177cc3e7696a20", "is_disabled": 0, "rental_uris": {"android": "https://dc.lft.to/lastmile_qr_scan", "ios": "https://dc.lft.to/lastmile_qr_scan"}, "fusion_lon": 0.0, "lat": 38.9359675, "bike_id": "57703b326fa61ade90177cc3e7696a20", "type": "electric_bike", "is_reserved": 0, "lon": -77.02113033333333}, {"fusion_lat": 0.0, "name": "db4abc31aa2a94090f52b825e6561c03", "is_disabled": 0, "rental_uris": {"android": "https://dc.lft.to/lastmile_qr_scan", "ios": "https://dc.lft.to/lastmile_qr_scan"}, "fusion_lon": 0.0, "lat": 38.934135, "bike_id": "db4abc31aa2a94090f52b825e6561c03", "type": "electric_scooter", "is_reserved": 0, "lon": -76.97962533333333}, {"fusion_lat": 0.0, "name": "9ae0f4061a5a37d3fb2babaaf9b0f00a", "is_disabled": 0, "rental_uris": {"android": "https://dc.lft.to/lastmile_qr_scan", "ios": "https://dc.lft.to/lastmile_qr_scan"}, "fusion_lon": 0.0, "lat": 38.9276835, "bike_id": "9ae0f4061a5a37d3fb2babaaf9b0f00a", "type": "electric_scooter", "is_reserved": 0, "lon": -77.02291583333333}, {"fusion_lat": 0.0, "name": "2352ff30b1207fd956deb3db83b82e85", "is_disabled": 0, "rental_uris": {"android": "https://dc.lft.to/lastmile_qr_scan", "ios": "https://dc.lft.to/lastmile_qr_scan"}, "fusion_lon": 0.0, "lat": 38.9046895, "bike_id": "2352ff30b1207fd956deb3db83b82e85", "type": "electric_scooter", "is_reserved": 0, "lon": -77.05316966666666}, {"fusion_lat": 0.0, "name": "fa0191cece330dfbef428b6a43511f3c", "is_disabled": 0, "rental_uris": {"android": "https://dc.lft.to/lastmile_qr_scan", "ios": "https://dc.lft.to/lastmile_qr_scan"}, "fusion_lon": 0.0, "lat": 38.912608166666665, "bike_id": "fa0191cece330dfbef428b6a43511f3c", "type": "electric_scooter", "is_reserved": 0, "lon": -77.0066635}, {"fusion_lat": 0.0, "name": "deb44717e2b9f4420484b5163c05e84f", "is_disabled": 0, "rental_uris": {"android": "https://dc.lft.to/lastmile_qr_scan", "ios": "https://dc.lft.to/lastmile_qr_scan"}, "fusion_lon": 0.0, "lat": 38.92610033333333, "bike_id": "deb44717e2b9f4420484b5163c05e84f", "type": "electric_scooter", "is_reserved": 0, "lon": -77.03961216666667}, {"fusion_lat": 0.0, "name": "209c46f7877a42018a99553edc035aa6", "is_disabled": 0, "rental_uris": {"android": "https://dc.lft.to/lastmile_qr_scan", "ios": "https://dc.lft.to/lastmile_qr_scan"}, "fusion_lon": 0.0, "lat": 38.917729333333334, "bike_id": "209c46f7877a42018a99553edc035aa6", "type": "electric_scooter", "is_reserved": 0, "lon": -77.0385455}, {"fusion_lat": 0.0, "name": "0d836af5a771821df50ef9f83088438f", "is_disabled": 0, "rental_uris": {"android": "https://dc.lft.to/lastmile_qr_scan", "ios": "https://dc.lft.to/lastmile_qr_scan"}, "fusion_lon": 0.0, "lat": 38.920199833333335, "bike_id": "0d836af5a771821df50ef9f83088438f", "type": "electric_scooter", "is_reserved": 0, "lon": -77.031907}, {"fusion_lat": 0.0, "name": "b706b2a4f90a97d5e0333d12c69b1cec", "is_disabled": 0, "rental_uris": {"android": "https://dc.lft.to/lastmile_qr_scan", "ios": "https://dc.lft.to/lastmile_qr_scan"}, "fusion_lon": 0.0, "lat": 38.9097185, "bike_id": "b706b2a4f90a97d5e0333d12c69b1cec", "type": "electric_scooter", "is_reserved": 0, "lon": -77.0398575}, {"fusion_lat": 0.0, "name": "c21d9fb189a0af07006fdff5b07cddbb", "is_disabled": 0, "rental_uris": {"android": "https://dc.lft.to/lastmile_qr_scan", "ios": "https://dc.lft.to/lastmile_qr_scan"}, "fusion_lon": 0.0, "lat": 38.8442955, "bike_id": "c21d9fb189a0af07006fdff5b07cddbb", "type": "electric_scooter", "is_reserved": 0, "lon": -76.99776883333334}, {"fusion_lat": 0.0, "name": "ea9842d91421c0432a407274cb19b4d4", "is_disabled": 0, "rental_uris": {"android": "https://dc.lft.to/lastmile_qr_scan", "ios": "https://dc.lft.to/lastmile_qr_scan"}, "fusion_lon": 0.0, "lat": 38.920795, "bike_id": "ea9842d91421c0432a407274cb19b4d4", "type": "electric_scooter", "is_reserved": 0, "lon": -77.02515166666667}, {"fusion_lat": 0.0, "name": "8c043ea43aa5c88d286925b2f5c00380", "is_disabled": 0, "rental_uris": {"android": "https://dc.lft.to/lastmile_qr_scan", "ios": "https://dc.lft.to/lastmile_qr_scan"}, "fusion_lon": 0.0, "lat": 38.873854333333334, "bike_id": "8c043ea43aa5c88d286925b2f5c00380", "type": "electric_scooter", "is_reserved": 0, "lon": -77.00038016666667}, {"fusion_lat": 0.0, "name": "072d5b599021b9926830a1b9eff0439b", "is_disabled": 0, "rental_uris": {"android": "https://dc.lft.to/lastmile_qr_scan", "ios": "https://dc.lft.to/lastmile_qr_scan"}, "fusion_lon": 0.0, "lat": 38.87493633333333, "bike_id": "072d5b599021b9926830a1b9eff0439b", "type": "electric_scooter", "is_reserved": 0, "lon": -77.00118683333334}, {"fusion_lat": 0.0, "name": "97a7c886fe3bda18b287f32741daf4ec", "is_disabled": 0, "rental_uris": {"android": "https://dc.lft.to/lastmile_qr_scan", "ios": "https://dc.lft.to/lastmile_qr_scan"}, "fusion_lon": 0.0, "lat": 38.957302, "bike_id": "97a7c886fe3bda18b287f32741daf4ec", "type": "electric_scooter", "is_reserved": 0, "lon": -77.023997}, {"fusion_lat": 0.0, "name": "f02a56208639e34cdf03c9dafdc7792b", "is_disabled": 0, "rental_uris": {"android": "https://dc.lft.to/lastmile_qr_scan", "ios": "https://dc.lft.to/lastmile_qr_scan"}, "fusion_lon": 0.0, "lat": 38.915972333333336, "bike_id": "f02a56208639e34cdf03c9dafdc7792b", "type": "electric_scooter", "is_reserved": 0, "lon": -77.04552783333334}, {"fusion_lat": 0.0, "name": "fe8bebc33bd0ba5ad61723383d5d8fd8", "is_disabled": 0, "rental_uris": {"android": "https://dc.lft.to/lastmile_qr_scan", "ios": "https://dc.lft.to/lastmile_qr_scan"}, "fusion_lon": 0.0, "lat": 38.914887666666665, "bike_id": "fe8bebc33bd0ba5ad61723383d5d8fd8", "type": "electric_scooter", "is_reserved": 0, "lon": -77.04278366666666}, {"fusion_lat": 0.0, "name": "21d279e7474c0e0f4d4464c2745244af", "is_disabled": 0, "rental_uris": {"android": "https://dc.lft.to/lastmile_qr_scan", "ios": "https://dc.lft.to/lastmile_qr_scan"}, "fusion_lon": 0.0, "lat": 38.90610616666667, "bike_id": "21d279e7474c0e0f4d4464c2745244af", "type": "electric_scooter", "is_reserved": 0, "lon": -77.062945}, {"fusion_lat": 0.0, "name": "b2cf4978aecd99e1a7521871f8113c72", "is_disabled": 0, "rental_uris": {"android": "https://dc.lft.to/lastmile_qr_scan", "ios": "https://dc.lft.to/lastmile_qr_scan"}, "fusion_lon": 0.0, "lat": 38.927914, "bike_id": "b2cf4978aecd99e1a7521871f8113c72", "type": "electric_scooter", "is_reserved": 0, "lon": -77.022518}, {"fusion_lat": 0.0, "name": "2e05d2b1b553198ea8eed6cc376e10d5", "is_disabled": 0, "rental_uris": {"android": "https://dc.lft.to/lastmile_qr_scan", "ios": "https://dc.lft.to/lastmile_qr_scan"}, "fusion_lon": 0.0, "lat": 38.87715133333333, "bike_id": "2e05d2b1b553198ea8eed6cc376e10d5", "type": "electric_scooter", "is_reserved": 0, "lon": -77.01773116666666}, {"fusion_lat": 0.0, "name": "69a3f736ddaef796d2eb684b5b574341", "is_disabled": 0, "rental_uris": {"android": "https://dc.lft.to/lastmile_qr_scan", "ios": "https://dc.lft.to/lastmile_qr_scan"}, "fusion_lon": 0.0, "lat": 38.87535066666667, "bike_id": "69a3f736ddaef796d2eb684b5b574341", "type": "electric_scooter", "is_reserved": 0, "lon": -77.00508433333333}, {"fusion_lat": 0.0, "name": "af7c4cbeaeea9b748db3b65bc8a72fb7", "is_disabled": 0, "rental_uris": {"android": "https://dc.lft.to/lastmile_qr_scan", "ios": "https://dc.lft.to/lastmile_qr_scan"}, "fusion_lon": 0.0, "lat": 38.92317383333334, "bike_id": "af7c4cbeaeea9b748db3b65bc8a72fb7", "type": "electric_scooter", "is_reserved": 0, "lon": -77.04406933333334}, {"fusion_lat": 0.0, "name": "92757bc049faf2041753dca424682c3b", "is_disabled": 0, "rental_uris": {"android": "https://dc.lft.to/lastmile_qr_scan", "ios": "https://dc.lft.to/lastmile_qr_scan"}, "fusion_lon": 0.0, "lat": 38.92756216666667, "bike_id": "92757bc049faf2041753dca424682c3b", "type": "electric_scooter", "is_reserved": 0, "lon": -77.02425983333333}, {"fusion_lat": 0.0, "name": "64258f084dd0cba1742cfaa8da8bb550", "is_disabled": 0, "rental_uris": {"android": "https://dc.lft.to/lastmile_qr_scan", "ios": "https://dc.lft.to/lastmile_qr_scan"}, "fusion_lon": 0.0, "lat": 38.90067, "bike_id": "64258f084dd0cba1742cfaa8da8bb550", "type": "electric_scooter", "is_reserved": 0, "lon": -76.9274625}, {"fusion_lat": 0.0, "name": "21c95d88c800e15d987693a9f78ffe00", "is_disabled": 0, "rental_uris": {"android": "https://dc.lft.to/lastmile_qr_scan", "ios": "https://dc.lft.to/lastmile_qr_scan"}, "fusion_lon": 0.0, "lat": 38.896745833333334, "bike_id": "21c95d88c800e15d987693a9f78ffe00", "type": "electric_scooter", "is_reserved": 0, "lon": -77.05103983333333}, {"fusion_lat": 0.0, "name": "297461a60847e4412a9ba41e819de4a4", "is_disabled": 0, "rental_uris": {"android": "https://dc.lft.to/lastmile_qr_scan", "ios": "https://dc.lft.to/lastmile_qr_scan"}, "fusion_lon": 0.0, "lat": 38.8766305, "bike_id": "297461a60847e4412a9ba41e819de4a4", "type": "electric_scooter", "is_reserved": 0, "lon": -76.99623883333334}, {"fusion_lat": 0.0, "name": "03b7961d47d17d1466f7763735c5abfb", "is_disabled": 0, "rental_uris": {"android": "https://dc.lft.to/lastmile_qr_scan", "ios": "https://dc.lft.to/lastmile_qr_scan"}, "fusion_lon": 0.0, "lat": 38.895405, "bike_id": "03b7961d47d17d1466f7763735c5abfb", "type": "electric_scooter", "is_reserved": 0, "lon": -76.9495835}, {"fusion_lat": 0.0, "name": "ab6d813064736d8f959aecff5565e18c", "is_disabled": 0, "rental_uris": {"android": "https://dc.lft.to/lastmile_qr_scan", "ios": "https://dc.lft.to/lastmile_qr_scan"}, "fusion_lon": 0.0, "lat": 38.922518, "bike_id": "ab6d813064736d8f959aecff5565e18c", "type": "electric_scooter", "is_reserved": 0, "lon": -77.03382916666666}, {"fusion_lat": 0.0, "name": "570f372f96980dae29e58e28f0ac556a", "is_disabled": 0, "rental_uris": {"android": "https://dc.lft.to/lastmile_qr_scan", "ios": "https://dc.lft.to/lastmile_qr_scan"}, "fusion_lon": 0.0, "lat": 38.932621166666664, "bike_id": "570f372f96980dae29e58e28f0ac556a", "type": "electric_scooter", "is_reserved": 0, "lon": -77.03457683333333}, {"fusion_lat": 0.0, "name": "cbe54ec7da7cad3d4e85030536022f9b", "is_disabled": 0, "rental_uris": {"android": "https://dc.lft.to/lastmile_qr_scan", "ios": "https://dc.lft.to/lastmile_qr_scan"}, "fusion_lon": 0.0, "lat": 38.92252383333334, "bike_id": "cbe54ec7da7cad3d4e85030536022f9b", "type": "electric_scooter", "is_reserved": 0, "lon": -77.04264833333333}, {"fusion_lat": 0.0, "name": "09aa8fdaf9e8537d8564b8310d3a2f65", "is_disabled": 0, "rental_uris": {"android": "https://dc.lft.to/lastmile_qr_scan", "ios": "https://dc.lft.to/lastmile_qr_scan"}, "fusion_lon": 0.0, "lat": 38.912925666666666, "bike_id": "09aa8fdaf9e8537d8564b8310d3a2f65", "type": "electric_scooter", "is_reserved": 0, "lon": -77.0452215}, {"fusion_lat": 0.0, "name": "b8a3bc21e1113e5d8cdd9aaf507f3037", "is_disabled": 0, "rental_uris": {"android": "https://dc.lft.to/lastmile_qr_scan", "ios": "https://dc.lft.to/lastmile_qr_scan"}, "fusion_lon": 0.0, "lat": 38.8975415, "bike_id": "b8a3bc21e1113e5d8cdd9aaf507f3037", "type": "electric_scooter", "is_reserved": 0, "lon": -77.02677216666666}, {"fusion_lat": 0.0, "name": "1a5dbe2f1eb1bd35b74626cbe3db74c0", "is_disabled": 0, "rental_uris": {"android": "https://dc.lft.to/lastmile_qr_scan", "ios": "https://dc.lft.to/lastmile_qr_scan"}, "fusion_lon": 0.0, "lat": 38.89719683333333, "bike_id": "1a5dbe2f1eb1bd35b74626cbe3db74c0", "type": "electric_scooter", "is_reserved": 0, "lon": -77.04832633333334}, {"fusion_lat": 0.0, "name": "1c97cc8a68f28adc8254c18f10300518", "is_disabled": 0, "rental_uris": {"android": "https://dc.lft.to/lastmile_qr_scan", "ios": "https://dc.lft.to/lastmile_qr_scan"}, "fusion_lon": 0.0, "lat": 38.878119, "bike_id": "1c97cc8a68f28adc8254c18f10300518", "type": "electric_scooter", "is_reserved": 0, "lon": -77.0152735}, {"fusion_lat": 0.0, "name": "cbd7237c31c514ad3d828d86a39220a9", "is_disabled": 0, "rental_uris": {"android": "https://dc.lft.to/lastmile_qr_scan", "ios": "https://dc.lft.to/lastmile_qr_scan"}, "fusion_lon": 0.0, "lat": 38.935759833333336, "bike_id": "cbd7237c31c514ad3d828d86a39220a9", "type": "electric_scooter", "is_reserved": 0, "lon": -77.0192555}, {"fusion_lat": 0.0, "name": "f366c0d2f397130769e58e78fac82a26", "is_disabled": 0, "rental_uris": {"android": "https://dc.lft.to/lastmile_qr_scan", "ios": "https://dc.lft.to/lastmile_qr_scan"}, "fusion_lon": 0.0, "lat": 38.871368333333336, "bike_id": "f366c0d2f397130769e58e78fac82a26", "type": "electric_scooter", "is_reserved": 0, "lon": -77.012254}, {"fusion_lat": 0.0, "name": "86014d75d4c4a183d739ee6f15b166df", "is_disabled": 0, "rental_uris": {"android": "https://dc.lft.to/lastmile_qr_scan", "ios": "https://dc.lft.to/lastmile_qr_scan"}, "fusion_lon": 0.0, "lat": 38.9161565, "bike_id": "86014d75d4c4a183d739ee6f15b166df", "type": "electric_scooter", "is_reserved": 0, "lon": -77.04580816666666}, {"fusion_lat": 0.0, "name": "7e79e5ea28f27273dbed63e5e6aae73f", "is_disabled": 0, "rental_uris": {"android": "https://dc.lft.to/lastmile_qr_scan", "ios": "https://dc.lft.to/lastmile_qr_scan"}, "fusion_lon": 0.0, "lat": 38.89893583333333, "bike_id": "7e79e5ea28f27273dbed63e5e6aae73f", "type": "electric_scooter", "is_reserved": 0, "lon": -76.98065616666666}, {"fusion_lat": 0.0, "name": "d4dea44c3b26336d8add7e579ae7ab98", "is_disabled": 0, "rental_uris": {"android": "https://dc.lft.to/lastmile_qr_scan", "ios": "https://dc.lft.to/lastmile_qr_scan"}, "fusion_lon": 0.0, "lat": 38.89992483333333, "bike_id": "d4dea44c3b26336d8add7e579ae7ab98", "type": "electric_scooter", "is_reserved": 0, "lon": -77.02296833333334}, {"fusion_lat": 0.0, "name": "493bae164b27417231bb38d14d3b2180", "is_disabled": 0, "rental_uris": {"android": "https://dc.lft.to/lastmile_qr_scan", "ios": "https://dc.lft.to/lastmile_qr_scan"}, "fusion_lon": 0.0, "lat": 38.89835033333333, "bike_id": "493bae164b27417231bb38d14d3b2180", "type": "electric_scooter", "is_reserved": 0, "lon": -77.007358}, {"fusion_lat": 0.0, "name": "36a56721fc441b8b3a7eb0e050c0629d", "is_disabled": 0, "rental_uris": {"android": "https://dc.lft.to/lastmile_qr_scan", "ios": "https://dc.lft.to/lastmile_qr_scan"}, "fusion_lon": 0.0, "lat": 38.89854283333333, "bike_id": "36a56721fc441b8b3a7eb0e050c0629d", "type": "electric_scooter", "is_reserved": 0, "lon": -77.0391275}, {"fusion_lat": 0.0, "name": "1bea1431291a8689899957f2ffc882f2", "is_disabled": 0, "rental_uris": {"android": "https://dc.lft.to/lastmile_qr_scan", "ios": "https://dc.lft.to/lastmile_qr_scan"}, "fusion_lon": 0.0, "lat": 38.923552666666666, "bike_id": "1bea1431291a8689899957f2ffc882f2", "type": "electric_scooter", "is_reserved": 0, "lon": -77.03367133333333}, {"fusion_lat": 0.0, "name": "b06309aebd03d2b2eb7cc1c18d5cc3ac", "is_disabled": 0, "rental_uris": {"android": "https://dc.lft.to/lastmile_qr_scan", "ios": "https://dc.lft.to/lastmile_qr_scan"}, "fusion_lon": 0.0, "lat": 38.8764755, "bike_id": "b06309aebd03d2b2eb7cc1c18d5cc3ac", "type": "electric_scooter", "is_reserved": 0, "lon": -77.00064233333333}, {"fusion_lat": 0.0, "name": "ccffa9464a41a65070157d7b2e2afb38", "is_disabled": 0, "rental_uris": {"android": "https://dc.lft.to/lastmile_qr_scan", "ios": "https://dc.lft.to/lastmile_qr_scan"}, "fusion_lon": 0.0, "lat": 39.0705485, "bike_id": "ccffa9464a41a65070157d7b2e2afb38", "type": "electric_bike", "is_reserved": 0, "lon": -77.11478883333334}, {"fusion_lat": 0.0, "name": "d0e4722159d92abcb84c086da1f528ad", "is_disabled": 0, "rental_uris": {"android": "https://dc.lft.to/lastmile_qr_scan", "ios": "https://dc.lft.to/lastmile_qr_scan"}, "fusion_lon": 0.0, "lat": 38.923362166666664, "bike_id": "d0e4722159d92abcb84c086da1f528ad", "type": "electric_scooter", "is_reserved": 0, "lon": -77.03612133333333}, {"fusion_lat": 0.0, "name": "fd57759b4e10e30f7983c2b6a1b21a61", "is_disabled": 0, "rental_uris": {"android": "https://dc.lft.to/lastmile_qr_scan", "ios": "https://dc.lft.to/lastmile_qr_scan"}, "fusion_lon": 0.0, "lat": 38.80672283333333, "bike_id": "fd57759b4e10e30f7983c2b6a1b21a61", "type": "electric_bike", "is_reserved": 0, "lon": -77.069161}, {"fusion_lat": 0.0, "name": "4b1eafaf21044a3d5bccca58ace34d93", "is_disabled": 0, "rental_uris": {"android": "https://dc.lft.to/lastmile_qr_scan", "ios": "https://dc.lft.to/lastmile_qr_scan"}, "fusion_lon": 0.0, "lat": 38.90511716666666, "bike_id": "4b1eafaf21044a3d5bccca58ace34d93", "type": "electric_scooter", "is_reserved": 0, "lon": -77.00920633333334}, {"fusion_lat": 0.0, "name": "9713c15052abd0d75d8405045f43e666", "is_disabled": 0, "rental_uris": {"android": "https://dc.lft.to/lastmile_qr_scan", "ios": "https://dc.lft.to/lastmile_qr_scan"}, "fusion_lon": 0.0, "lat": 38.90709533333333, "bike_id": "9713c15052abd0d75d8405045f43e666", "type": "electric_scooter", "is_reserved": 0, "lon": -77.05067283333334}, {"fusion_lat": 0.0, "name": "cbf700f1fe3078d8ff89910c5f0885ed", "is_disabled": 0, "rental_uris": {"android": "https://dc.lft.to/lastmile_qr_scan", "ios": "https://dc.lft.to/lastmile_qr_scan"}, "fusion_lon": 0.0, "lat": 38.937553, "bike_id": "cbf700f1fe3078d8ff89910c5f0885ed", "type": "electric_scooter", "is_reserved": 0, "lon": -77.035783}, {"fusion_lat": 0.0, "name": "f8437e7c0c18fc441dc46ee7d70bbe9e", "is_disabled": 0, "rental_uris": {"android": "https://dc.lft.to/lastmile_qr_scan", "ios": "https://dc.lft.to/lastmile_qr_scan"}, "fusion_lon": 0.0, "lat": 38.932056, "bike_id": "f8437e7c0c18fc441dc46ee7d70bbe9e", "type": "electric_scooter", "is_reserved": 0, "lon": -77.03658766666666}, {"fusion_lat": 0.0, "name": "7f10431910e007f2927a46246b0e4f2e", "is_disabled": 0, "rental_uris": {"android": "https://dc.lft.to/lastmile_qr_scan", "ios": "https://dc.lft.to/lastmile_qr_scan"}, "fusion_lon": 0.0, "lat": 38.90162766666667, "bike_id": "7f10431910e007f2927a46246b0e4f2e", "type": "electric_scooter", "is_reserved": 0, "lon": -76.99270183333333}, {"fusion_lat": 0.0, "name": "c6928a12eff107022dc3e998a9480d54", "is_disabled": 0, "rental_uris": {"android": "https://dc.lft.to/lastmile_qr_scan", "ios": "https://dc.lft.to/lastmile_qr_scan"}, "fusion_lon": 0.0, "lat": 38.928400333333336, "bike_id": "c6928a12eff107022dc3e998a9480d54", "type": "electric_bike", "is_reserved": 0, "lon": -77.020497}, {"fusion_lat": 0.0, "name": "e3ae861d3df7ed25c79b88beb39ea481", "is_disabled": 0, "rental_uris": {"android": "https://dc.lft.to/lastmile_qr_scan", "ios": "https://dc.lft.to/lastmile_qr_scan"}, "fusion_lon": 0.0, "lat": 38.902369, "bike_id": "e3ae861d3df7ed25c79b88beb39ea481", "type": "electric_scooter", "is_reserved": 0, "lon": -77.0019205}, {"fusion_lat": 0.0, "name": "f3bd9e3bab3faaff6614f84436586017", "is_disabled": 0, "rental_uris": {"android": "https://dc.lft.to/lastmile_qr_scan", "ios": "https://dc.lft.to/lastmile_qr_scan"}, "fusion_lon": 0.0, "lat": 38.92238666666667, "bike_id": "f3bd9e3bab3faaff6614f84436586017", "type": "electric_scooter", "is_reserved": 0, "lon": -77.029095}, {"fusion_lat": 0.0, "name": "09e229dacfcec3969079ed85b7a9ed10", "is_disabled": 0, "rental_uris": {"android": "https://dc.lft.to/lastmile_qr_scan", "ios": "https://dc.lft.to/lastmile_qr_scan"}, "fusion_lon": 0.0, "lat": 38.89229483333333, "bike_id": "09e229dacfcec3969079ed85b7a9ed10", "type": "electric_scooter", "is_reserved": 0, "lon": -76.98814416666667}, {"fusion_lat": 0.0, "name": "fdf334888d516fcc618d09c0ce1b0520", "is_disabled": 0, "rental_uris": {"android": "https://dc.lft.to/lastmile_qr_scan", "ios": "https://dc.lft.to/lastmile_qr_scan"}, "fusion_lon": 0.0, "lat": 38.896183666666666, "bike_id": "fdf334888d516fcc618d09c0ce1b0520", "type": "electric_scooter", "is_reserved": 0, "lon": -77.04489566666666}, {"fusion_lat": 0.0, "name": "23dc2f257cc824470704032af537f267", "is_disabled": 0, "rental_uris": {"android": "https://dc.lft.to/lastmile_qr_scan", "ios": "https://dc.lft.to/lastmile_qr_scan"}, "fusion_lon": 0.0, "lat": 38.921751666666665, "bike_id": "23dc2f257cc824470704032af537f267", "type": "electric_scooter", "is_reserved": 0, "lon": -77.040168}, {"fusion_lat": 0.0, "name": "0d2fbaf8e5f15c115db38bf595df6cfe", "is_disabled": 0, "rental_uris": {"android": "https://dc.lft.to/lastmile_qr_scan", "ios": "https://dc.lft.to/lastmile_qr_scan"}, "fusion_lon": 0.0, "lat": 38.871066, "bike_id": "0d2fbaf8e5f15c115db38bf595df6cfe", "type": "electric_scooter", "is_reserved": 0, "lon": -77.00565616666667}, {"fusion_lat": 0.0, "name": "e255121e07925fafa3f0359f71d16f69", "is_disabled": 0, "rental_uris": {"android": "https://dc.lft.to/lastmile_qr_scan", "ios": "https://dc.lft.to/lastmile_qr_scan"}, "fusion_lon": 0.0, "lat": 38.90503866666667, "bike_id": "e255121e07925fafa3f0359f71d16f69", "type": "electric_scooter", "is_reserved": 0, "lon": -77.04760983333334}, {"fusion_lat": 0.0, "name": "282010cbcb2050210b28eadb913f5bc3", "is_disabled": 0, "rental_uris": {"android": "https://dc.lft.to/lastmile_qr_scan", "ios": "https://dc.lft.to/lastmile_qr_scan"}, "fusion_lon": 0.0, "lat": 38.900658666666665, "bike_id": "282010cbcb2050210b28eadb913f5bc3", "type": "electric_scooter", "is_reserved": 0, "lon": -76.93387866666667}, {"fusion_lat": 0.0, "name": "9528819d288e45cf551b0f52efb20a9d", "is_disabled": 0, "rental_uris": {"android": "https://dc.lft.to/lastmile_qr_scan", "ios": "https://dc.lft.to/lastmile_qr_scan"}, "fusion_lon": 0.0, "lat": 38.92373966666667, "bike_id": "9528819d288e45cf551b0f52efb20a9d", "type": "electric_scooter", "is_reserved": 0, "lon": -77.05256133333333}, {"fusion_lat": 0.0, "name": "ad034139bc8c9a65f446a87c3197dcc0", "is_disabled": 0, "rental_uris": {"android": "https://dc.lft.to/lastmile_qr_scan", "ios": "https://dc.lft.to/lastmile_qr_scan"}, "fusion_lon": 0.0, "lat": 38.8983375, "bike_id": "ad034139bc8c9a65f446a87c3197dcc0", "type": "electric_scooter", "is_reserved": 0, "lon": -76.94637716666666}, {"fusion_lat": 0.0, "name": "a529d7afc25e552faabd698e809e8db5", "is_disabled": 0, "rental_uris": {"android": "https://dc.lft.to/lastmile_qr_scan", "ios": "https://dc.lft.to/lastmile_qr_scan"}, "fusion_lon": 0.0, "lat": 38.905576333333336, "bike_id": "a529d7afc25e552faabd698e809e8db5", "type": "electric_scooter", "is_reserved": 0, "lon": -77.0057065}, {"fusion_lat": 0.0, "name": "0422d49f50768ae4dba4775d128f5648", "is_disabled": 0, "rental_uris": {"android": "https://dc.lft.to/lastmile_qr_scan", "ios": "https://dc.lft.to/lastmile_qr_scan"}, "fusion_lon": 0.0, "lat": 38.9038395, "bike_id": "0422d49f50768ae4dba4775d128f5648", "type": "electric_scooter", "is_reserved": 0, "lon": -77.0613325}, {"fusion_lat": 0.0, "name": "101775822b15a4d2aa00d07f24ce19c3", "is_disabled": 0, "rental_uris": {"android": "https://dc.lft.to/lastmile_qr_scan", "ios": "https://dc.lft.to/lastmile_qr_scan"}, "fusion_lon": 0.0, "lat": 38.924354, "bike_id": "101775822b15a4d2aa00d07f24ce19c3", "type": "electric_scooter", "is_reserved": 0, "lon": -77.03542366666667}, {"fusion_lat": 0.0, "name": "83753cc848928de6e6ae1a76bdc957b0", "is_disabled": 0, "rental_uris": {"android": "https://dc.lft.to/lastmile_qr_scan", "ios": "https://dc.lft.to/lastmile_qr_scan"}, "fusion_lon": 0.0, "lat": 38.92052783333333, "bike_id": "83753cc848928de6e6ae1a76bdc957b0", "type": "electric_scooter", "is_reserved": 0, "lon": -77.03464166666667}, {"fusion_lat": 0.0, "name": "e4236553378039350751adfa76c42b37", "is_disabled": 0, "rental_uris": {"android": "https://dc.lft.to/lastmile_qr_scan", "ios": "https://dc.lft.to/lastmile_qr_scan"}, "fusion_lon": 0.0, "lat": 38.97369416666667, "bike_id": "e4236553378039350751adfa76c42b37", "type": "electric_scooter", "is_reserved": 0, "lon": -77.02432033333334}, {"fusion_lat": 0.0, "name": "38f31ef1a2d8f64e8a608658dd8ae633", "is_disabled": 0, "rental_uris": {"android": "https://dc.lft.to/lastmile_qr_scan", "ios": "https://dc.lft.to/lastmile_qr_scan"}, "fusion_lon": 0.0, "lat": 38.906294333333335, "bike_id": "38f31ef1a2d8f64e8a608658dd8ae633", "type": "electric_scooter", "is_reserved": 0, "lon": -77.02600533333333}, {"fusion_lat": 0.0, "name": "6bd6ee59e9f261036f01cb6ca80a3260", "is_disabled": 0, "rental_uris": {"android": "https://dc.lft.to/lastmile_qr_scan", "ios": "https://dc.lft.to/lastmile_qr_scan"}, "fusion_lon": 0.0, "lat": 38.899301666666666, "bike_id": "6bd6ee59e9f261036f01cb6ca80a3260", "type": "electric_scooter", "is_reserved": 0, "lon": -77.04859166666667}, {"fusion_lat": 0.0, "name": "7af90f32a30af112d6f34f50def97d8f", "is_disabled": 0, "rental_uris": {"android": "https://dc.lft.to/lastmile_qr_scan", "ios": "https://dc.lft.to/lastmile_qr_scan"}, "fusion_lon": 0.0, "lat": 38.927681166666666, "bike_id": "7af90f32a30af112d6f34f50def97d8f", "type": "electric_scooter", "is_reserved": 0, "lon": -77.02287516666667}, {"fusion_lat": 0.0, "name": "fa92e34b30bc58ba207807992c276d98", "is_disabled": 0, "rental_uris": {"android": "https://dc.lft.to/lastmile_qr_scan", "ios": "https://dc.lft.to/lastmile_qr_scan"}, "fusion_lon": 0.0, "lat": 38.9111995, "bike_id": "fa92e34b30bc58ba207807992c276d98", "type": "electric_scooter", "is_reserved": 0, "lon": -77.011601}, {"fusion_lat": 0.0, "name": "47c7e205194047c13abbe6e2f5f8fa53", "is_disabled": 0, "rental_uris": {"android": "https://dc.lft.to/lastmile_qr_scan", "ios": "https://dc.lft.to/lastmile_qr_scan"}, "fusion_lon": 0.0, "lat": 38.9012245, "bike_id": "47c7e205194047c13abbe6e2f5f8fa53", "type": "electric_scooter", "is_reserved": 0, "lon": -77.04152816666667}, {"fusion_lat": 0.0, "name": "66150d2d78a1899d63b546b55d66ca42", "is_disabled": 0, "rental_uris": {"android": "https://dc.lft.to/lastmile_qr_scan", "ios": "https://dc.lft.to/lastmile_qr_scan"}, "fusion_lon": 0.0, "lat": 38.9043535, "bike_id": "66150d2d78a1899d63b546b55d66ca42", "type": "electric_scooter", "is_reserved": 0, "lon": -77.02600116666666}, {"fusion_lat": 0.0, "name": "79b6b2ab5c39a4bdd53f3f9c7135f255", "is_disabled": 0, "rental_uris": {"android": "https://dc.lft.to/lastmile_qr_scan", "ios": "https://dc.lft.to/lastmile_qr_scan"}, "fusion_lon": 0.0, "lat": 38.909074, "bike_id": "79b6b2ab5c39a4bdd53f3f9c7135f255", "type": "electric_scooter", "is_reserved": 0, "lon": -77.022925}, {"fusion_lat": 0.0, "name": "b7a3faa8cec77d51df84fc4ee63d6327", "is_disabled": 0, "rental_uris": {"android": "https://dc.lft.to/lastmile_qr_scan", "ios": "https://dc.lft.to/lastmile_qr_scan"}, "fusion_lon": 0.0, "lat": 38.923269, "bike_id": "b7a3faa8cec77d51df84fc4ee63d6327", "type": "electric_scooter", "is_reserved": 0, "lon": -77.04139566666667}, {"fusion_lat": 0.0, "name": "39f62d9a2dec5c00042b4fa0ecc521d4", "is_disabled": 0, "rental_uris": {"android": "https://dc.lft.to/lastmile_qr_scan", "ios": "https://dc.lft.to/lastmile_qr_scan"}, "fusion_lon": 0.0, "lat": 38.91914883333333, "bike_id": "39f62d9a2dec5c00042b4fa0ecc521d4", "type": "electric_scooter", "is_reserved": 0, "lon": -77.024066}, {"fusion_lat": 0.0, "name": "ea4e424f717ed60fc1d5ecbf411ea7c8", "is_disabled": 0, "rental_uris": {"android": "https://dc.lft.to/lastmile_qr_scan", "ios": "https://dc.lft.to/lastmile_qr_scan"}, "fusion_lon": 0.0, "lat": 38.91036583333333, "bike_id": "ea4e424f717ed60fc1d5ecbf411ea7c8", "type": "electric_scooter", "is_reserved": 0, "lon": -77.03426833333333}, {"fusion_lat": 0.0, "name": "53f429c6d0b6173fc50f925ddae23b37", "is_disabled": 0, "rental_uris": {"android": "https://dc.lft.to/lastmile_qr_scan", "ios": "https://dc.lft.to/lastmile_qr_scan"}, "fusion_lon": 0.0, "lat": 38.905030833333335, "bike_id": "53f429c6d0b6173fc50f925ddae23b37", "type": "electric_scooter", "is_reserved": 0, "lon": -77.02956133333333}, {"fusion_lat": 0.0, "name": "64bd9a09cf6a009c36f0d319a14da186", "is_disabled": 0, "rental_uris": {"android": "https://dc.lft.to/lastmile_qr_scan", "ios": "https://dc.lft.to/lastmile_qr_scan"}, "fusion_lon": 0.0, "lat": 38.918199, "bike_id": "64bd9a09cf6a009c36f0d319a14da186", "type": "electric_scooter", "is_reserved": 0, "lon": -77.02716533333333}, {"fusion_lat": 0.0, "name": "3ce0cd6de5b1254eb88d476832c38f82", "is_disabled": 0, "rental_uris": {"android": "https://dc.lft.to/lastmile_qr_scan", "ios": "https://dc.lft.to/lastmile_qr_scan"}, "fusion_lon": 0.0, "lat": 38.89516883333334, "bike_id": "3ce0cd6de5b1254eb88d476832c38f82", "type": "electric_scooter", "is_reserved": 0, "lon": -77.0092185}, {"fusion_lat": 0.0, "name": "f51c9a28f531c7789583a15735b149f9", "is_disabled": 0, "rental_uris": {"android": "https://dc.lft.to/lastmile_qr_scan", "ios": "https://dc.lft.to/lastmile_qr_scan"}, "fusion_lon": 0.0, "lat": 38.90166383333333, "bike_id": "f51c9a28f531c7789583a15735b149f9", "type": "electric_scooter", "is_reserved": 0, "lon": -77.03173866666667}, {"fusion_lat": 0.0, "name": "c70985f2d91fafabc1b07693b75ff58a", "is_disabled": 0, "rental_uris": {"android": "https://dc.lft.to/lastmile_qr_scan", "ios": "https://dc.lft.to/lastmile_qr_scan"}, "fusion_lon": 0.0, "lat": 38.92260233333333, "bike_id": "c70985f2d91fafabc1b07693b75ff58a", "type": "electric_scooter", "is_reserved": 0, "lon": -77.0366135}, {"fusion_lat": 0.0, "name": "24212447a95c86cca102aadd608c91f9", "is_disabled": 0, "rental_uris": {"android": "https://dc.lft.to/lastmile_qr_scan", "ios": "https://dc.lft.to/lastmile_qr_scan"}, "fusion_lon": 0.0, "lat": 38.92250216666667, "bike_id": "24212447a95c86cca102aadd608c91f9", "type": "electric_scooter", "is_reserved": 0, "lon": -77.04260833333333}, {"fusion_lat": 0.0, "name": "f13bc4bc948d34349177b7da3c08ba89", "is_disabled": 0, "rental_uris": {"android": "https://dc.lft.to/lastmile_qr_scan", "ios": "https://dc.lft.to/lastmile_qr_scan"}, "fusion_lon": 0.0, "lat": 38.92387, "bike_id": "f13bc4bc948d34349177b7da3c08ba89", "type": "electric_scooter", "is_reserved": 0, "lon": -77.02736716666666}, {"fusion_lat": 0.0, "name": "7fd3e66bbd551e93370d19ce5ec1c734", "is_disabled": 0, "rental_uris": {"android": "https://dc.lft.to/lastmile_qr_scan", "ios": "https://dc.lft.to/lastmile_qr_scan"}, "fusion_lon": 0.0, "lat": 38.912887833333336, "bike_id": "7fd3e66bbd551e93370d19ce5ec1c734", "type": "electric_scooter", "is_reserved": 0, "lon": -77.04518}, {"fusion_lat": 0.0, "name": "c2c514a46d282308c0e392056fb7f8d3", "is_disabled": 0, "rental_uris": {"android": "https://dc.lft.to/lastmile_qr_scan", "ios": "https://dc.lft.to/lastmile_qr_scan"}, "fusion_lon": 0.0, "lat": 38.911648, "bike_id": "c2c514a46d282308c0e392056fb7f8d3", "type": "electric_scooter", "is_reserved": 0, "lon": -76.98721066666667}, {"fusion_lat": 0.0, "name": "570b1855f69800ffaeeef4cc1c2fb8c0", "is_disabled": 0, "rental_uris": {"android": "https://dc.lft.to/lastmile_qr_scan", "ios": "https://dc.lft.to/lastmile_qr_scan"}, "fusion_lon": 0.0, "lat": 38.9095325, "bike_id": "570b1855f69800ffaeeef4cc1c2fb8c0", "type": "electric_scooter", "is_reserved": 0, "lon": -77.02376516666666}, {"fusion_lat": 0.0, "name": "f95e3138d4da293a8109dbe8dd758551", "is_disabled": 0, "rental_uris": {"android": "https://dc.lft.to/lastmile_qr_scan", "ios": "https://dc.lft.to/lastmile_qr_scan"}, "fusion_lon": 0.0, "lat": 38.89856666666667, "bike_id": "f95e3138d4da293a8109dbe8dd758551", "type": "electric_scooter", "is_reserved": 0, "lon": -77.02219783333334}, {"fusion_lat": 0.0, "name": "3322ec2ba625e90a4decb613d8e002a6", "is_disabled": 0, "rental_uris": {"android": "https://dc.lft.to/lastmile_qr_scan", "ios": "https://dc.lft.to/lastmile_qr_scan"}, "fusion_lon": 0.0, "lat": 38.906573, "bike_id": "3322ec2ba625e90a4decb613d8e002a6", "type": "electric_scooter", "is_reserved": 0, "lon": -77.04877333333333}, {"fusion_lat": 0.0, "name": "4870f54e4c4f9f4e7229f81f2c02cb99", "is_disabled": 0, "rental_uris": {"android": "https://dc.lft.to/lastmile_qr_scan", "ios": "https://dc.lft.to/lastmile_qr_scan"}, "fusion_lon": 0.0, "lat": 38.87887466666667, "bike_id": "4870f54e4c4f9f4e7229f81f2c02cb99", "type": "electric_scooter", "is_reserved": 0, "lon": -76.96543183333333}, {"fusion_lat": 0.0, "name": "ba9e759f7fc5a68db8c1abb7d307580c", "is_disabled": 0, "rental_uris": {"android": "https://dc.lft.to/lastmile_qr_scan", "ios": "https://dc.lft.to/lastmile_qr_scan"}, "fusion_lon": 0.0, "lat": 38.90407716666667, "bike_id": "ba9e759f7fc5a68db8c1abb7d307580c", "type": "electric_scooter", "is_reserved": 0, "lon": -77.036668}, {"fusion_lat": 0.0, "name": "ec5002eaf5a49104a157abc3d490b84f", "is_disabled": 0, "rental_uris": {"android": "https://dc.lft.to/lastmile_qr_scan", "ios": "https://dc.lft.to/lastmile_qr_scan"}, "fusion_lon": 0.0, "lat": 38.8688855, "bike_id": "ec5002eaf5a49104a157abc3d490b84f", "type": "electric_bike", "is_reserved": 0, "lon": -76.983228}, {"fusion_lat": 0.0, "name": "a4e4aaf181101b83902b79ccec6deb36", "is_disabled": 0, "rental_uris": {"android": "https://dc.lft.to/lastmile_qr_scan", "ios": "https://dc.lft.to/lastmile_qr_scan"}, "fusion_lon": 0.0, "lat": 38.86250533333333, "bike_id": "a4e4aaf181101b83902b79ccec6deb36", "type": "electric_bike", "is_reserved": 0, "lon": -76.98335766666666}, {"fusion_lat": 0.0, "name": "bd51b43c276c3e3713c2cf0ddd2b453c", "is_disabled": 0, "rental_uris": {"android": "https://dc.lft.to/lastmile_qr_scan", "ios": "https://dc.lft.to/lastmile_qr_scan"}, "fusion_lon": 0.0, "lat": 38.917202333333336, "bike_id": "bd51b43c276c3e3713c2cf0ddd2b453c", "type": "electric_scooter", "is_reserved": 0, "lon": -77.008193}, {"fusion_lat": 0.0, "name": "fbe2ea3214323935e06f2a06cf20659e", "is_disabled": 0, "rental_uris": {"android": "https://dc.lft.to/lastmile_qr_scan", "ios": "https://dc.lft.to/lastmile_qr_scan"}, "fusion_lon": 0.0, "lat": 38.923320833333335, "bike_id": "fbe2ea3214323935e06f2a06cf20659e", "type": "electric_scooter", "is_reserved": 0, "lon": -77.0356}, {"fusion_lat": 0.0, "name": "3c783ef6048ce56d36684cc098ed811e", "is_disabled": 0, "rental_uris": {"android": "https://dc.lft.to/lastmile_qr_scan", "ios": "https://dc.lft.to/lastmile_qr_scan"}, "fusion_lon": 0.0, "lat": 38.925118166666664, "bike_id": "3c783ef6048ce56d36684cc098ed811e", "type": "electric_scooter", "is_reserved": 0, "lon": -77.01950066666667}, {"fusion_lat": 0.0, "name": "b97ac19e35221d763866ba2446e3bf68", "is_disabled": 0, "rental_uris": {"android": "https://dc.lft.to/lastmile_qr_scan", "ios": "https://dc.lft.to/lastmile_qr_scan"}, "fusion_lon": 0.0, "lat": 38.89218116666667, "bike_id": "b97ac19e35221d763866ba2446e3bf68", "type": "electric_scooter", "is_reserved": 0, "lon": -77.02217}, {"fusion_lat": 0.0, "name": "ff70febff3492c03c84c0a3eaf9947e5", "is_disabled": 0, "rental_uris": {"android": "https://dc.lft.to/lastmile_qr_scan", "ios": "https://dc.lft.to/lastmile_qr_scan"}, "fusion_lon": 0.0, "lat": 38.900953333333334, "bike_id": "ff70febff3492c03c84c0a3eaf9947e5", "type": "electric_scooter", "is_reserved": 0, "lon": -77.019703}, {"fusion_lat": 0.0, "name": "c1f84f85a61871a58165666142fac2ec", "is_disabled": 0, "rental_uris": {"android": "https://dc.lft.to/lastmile_qr_scan", "ios": "https://dc.lft.to/lastmile_qr_scan"}, "fusion_lon": 0.0, "lat": 38.93483, "bike_id": "c1f84f85a61871a58165666142fac2ec", "type": "electric_scooter", "is_reserved": 0, "lon": -77.03619383333333}, {"fusion_lat": 0.0, "name": "16b820b49adc2efd4d9e218df88ffb58", "is_disabled": 0, "rental_uris": {"android": "https://dc.lft.to/lastmile_qr_scan", "ios": "https://dc.lft.to/lastmile_qr_scan"}, "fusion_lon": 0.0, "lat": 38.9417615, "bike_id": "16b820b49adc2efd4d9e218df88ffb58", "type": "electric_scooter", "is_reserved": 0, "lon": -77.03650583333334}, {"fusion_lat": 0.0, "name": "9a613321cf3f12c8f044ff635e486548", "is_disabled": 0, "rental_uris": {"android": "https://dc.lft.to/lastmile_qr_scan", "ios": "https://dc.lft.to/lastmile_qr_scan"}, "fusion_lon": 0.0, "lat": 38.888738333333336, "bike_id": "9a613321cf3f12c8f044ff635e486548", "type": "electric_scooter", "is_reserved": 0, "lon": -77.02854366666666}, {"fusion_lat": 0.0, "name": "8a9ea20d60aff2547e100c3134aaeabb", "is_disabled": 0, "rental_uris": {"android": "https://dc.lft.to/lastmile_qr_scan", "ios": "https://dc.lft.to/lastmile_qr_scan"}, "fusion_lon": 0.0, "lat": 38.911041166666664, "bike_id": "8a9ea20d60aff2547e100c3134aaeabb", "type": "electric_scooter", "is_reserved": 0, "lon": -77.04213633333333}, {"fusion_lat": 0.0, "name": "160b26244301bfb514878e9958bc9e6a", "is_disabled": 0, "rental_uris": {"android": "https://dc.lft.to/lastmile_qr_scan", "ios": "https://dc.lft.to/lastmile_qr_scan"}, "fusion_lon": 0.0, "lat": 38.89234116666667, "bike_id": "160b26244301bfb514878e9958bc9e6a", "type": "electric_scooter", "is_reserved": 0, "lon": -77.04897666666666}, {"fusion_lat": 0.0, "name": "ed53070dfeed5249687f52bd8dd05d31", "is_disabled": 0, "rental_uris": {"android": "https://dc.lft.to/lastmile_qr_scan", "ios": "https://dc.lft.to/lastmile_qr_scan"}, "fusion_lon": 0.0, "lat": 38.858106, "bike_id": "ed53070dfeed5249687f52bd8dd05d31", "type": "electric_bike", "is_reserved": 0, "lon": -76.98749966666666}, {"fusion_lat": 0.0, "name": "bd9705119b22f952c049380da3081aff", "is_disabled": 0, "rental_uris": {"android": "https://dc.lft.to/lastmile_qr_scan", "ios": "https://dc.lft.to/lastmile_qr_scan"}, "fusion_lon": 0.0, "lat": 38.91984133333333, "bike_id": "bd9705119b22f952c049380da3081aff", "type": "electric_scooter", "is_reserved": 0, "lon": -77.0408555}, {"fusion_lat": 0.0, "name": "c6d195048673c1a31b2cf2940d992046", "is_disabled": 0, "rental_uris": {"android": "https://dc.lft.to/lastmile_qr_scan", "ios": "https://dc.lft.to/lastmile_qr_scan"}, "fusion_lon": 0.0, "lat": 38.910263666666665, "bike_id": "c6d195048673c1a31b2cf2940d992046", "type": "electric_scooter", "is_reserved": 0, "lon": -77.007625}, {"fusion_lat": 0.0, "name": "132bdd13f0e88b9f255935c88d02493b", "is_disabled": 0, "rental_uris": {"android": "https://dc.lft.to/lastmile_qr_scan", "ios": "https://dc.lft.to/lastmile_qr_scan"}, "fusion_lon": 0.0, "lat": 38.924577666666664, "bike_id": "132bdd13f0e88b9f255935c88d02493b", "type": "electric_scooter", "is_reserved": 0, "lon": -76.99333383333334}, {"fusion_lat": 0.0, "name": "608e4fa25db659a83f483121a482e285", "is_disabled": 0, "rental_uris": {"android": "https://dc.lft.to/lastmile_qr_scan", "ios": "https://dc.lft.to/lastmile_qr_scan"}, "fusion_lon": 0.0, "lat": 38.920675333333335, "bike_id": "608e4fa25db659a83f483121a482e285", "type": "electric_scooter", "is_reserved": 0, "lon": -76.998667}, {"fusion_lat": 0.0, "name": "298aeb951020486c460290403d6b928c", "is_disabled": 0, "rental_uris": {"android": "https://dc.lft.to/lastmile_qr_scan", "ios": "https://dc.lft.to/lastmile_qr_scan"}, "fusion_lon": 0.0, "lat": 38.92838416666667, "bike_id": "298aeb951020486c460290403d6b928c", "type": "electric_scooter", "is_reserved": 0, "lon": -76.9802935}, {"fusion_lat": 0.0, "name": "1b3db74a9fdb871efccd36b1f028d0a4", "is_disabled": 0, "rental_uris": {"android": "https://dc.lft.to/lastmile_qr_scan", "ios": "https://dc.lft.to/lastmile_qr_scan"}, "fusion_lon": 0.0, "lat": 38.8651465, "bike_id": "1b3db74a9fdb871efccd36b1f028d0a4", "type": "electric_bike", "is_reserved": 0, "lon": -77.12934733333333}, {"fusion_lat": 0.0, "name": "609f2e0dc7afc23ac4ebd3171a6f280b", "is_disabled": 0, "rental_uris": {"android": "https://dc.lft.to/lastmile_qr_scan", "ios": "https://dc.lft.to/lastmile_qr_scan"}, "fusion_lon": 0.0, "lat": 38.905009166666666, "bike_id": "609f2e0dc7afc23ac4ebd3171a6f280b", "type": "electric_scooter", "is_reserved": 0, "lon": -77.02683933333333}, {"fusion_lat": 0.0, "name": "79b3fcd0a9b5dc31ae979933782d7db9", "is_disabled": 0, "rental_uris": {"android": "https://dc.lft.to/lastmile_qr_scan", "ios": "https://dc.lft.to/lastmile_qr_scan"}, "fusion_lon": 0.0, "lat": 38.92963783333333, "bike_id": "79b3fcd0a9b5dc31ae979933782d7db9", "type": "electric_scooter", "is_reserved": 0, "lon": -77.03099916666666}, {"fusion_lat": 0.0, "name": "3128735f50b3a913e3fd16e6577db119", "is_disabled": 0, "rental_uris": {"android": "https://dc.lft.to/lastmile_qr_scan", "ios": "https://dc.lft.to/lastmile_qr_scan"}, "fusion_lon": 0.0, "lat": 38.888343666666664, "bike_id": "3128735f50b3a913e3fd16e6577db119", "type": "electric_scooter", "is_reserved": 0, "lon": -77.04906466666667}, {"fusion_lat": 0.0, "name": "219e534a3c7e283fd3d571486baeb2b4", "is_disabled": 0, "rental_uris": {"android": "https://dc.lft.to/lastmile_qr_scan", "ios": "https://dc.lft.to/lastmile_qr_scan"}, "fusion_lon": 0.0, "lat": 38.914165833333335, "bike_id": "219e534a3c7e283fd3d571486baeb2b4", "type": "electric_scooter", "is_reserved": 0, "lon": -77.04254216666666}, {"fusion_lat": 0.0, "name": "7d07c32d82579f44e194435cb248c929", "is_disabled": 0, "rental_uris": {"android": "https://dc.lft.to/lastmile_qr_scan", "ios": "https://dc.lft.to/lastmile_qr_scan"}, "fusion_lon": 0.0, "lat": 38.90381766666667, "bike_id": "7d07c32d82579f44e194435cb248c929", "type": "electric_scooter", "is_reserved": 0, "lon": -77.01750333333334}, {"fusion_lat": 0.0, "name": "98f88889e6302cc4614a77981ee0b115", "is_disabled": 0, "rental_uris": {"android": "https://dc.lft.to/lastmile_qr_scan", "ios": "https://dc.lft.to/lastmile_qr_scan"}, "fusion_lon": 0.0, "lat": 38.92243766666667, "bike_id": "98f88889e6302cc4614a77981ee0b115", "type": "electric_scooter", "is_reserved": 0, "lon": -77.0224035}, {"fusion_lat": 0.0, "name": "e3dec363732a32bd8f0412f1fe4b0584", "is_disabled": 0, "rental_uris": {"android": "https://dc.lft.to/lastmile_qr_scan", "ios": "https://dc.lft.to/lastmile_qr_scan"}, "fusion_lon": 0.0, "lat": 38.9659705, "bike_id": "e3dec363732a32bd8f0412f1fe4b0584", "type": "electric_bike", "is_reserved": 0, "lon": -77.02804916666666}, {"fusion_lat": 0.0, "name": "e93f0f814abb4b1ea0524925382d9e63", "is_disabled": 0, "rental_uris": {"android": "https://dc.lft.to/lastmile_qr_scan", "ios": "https://dc.lft.to/lastmile_qr_scan"}, "fusion_lon": 0.0, "lat": 38.901204666666665, "bike_id": "e93f0f814abb4b1ea0524925382d9e63", "type": "electric_scooter", "is_reserved": 0, "lon": -77.0230615}, {"fusion_lat": 0.0, "name": "e4822016ce52f8fd3fcaeb1ca5ed2fa5", "is_disabled": 0, "rental_uris": {"android": "https://dc.lft.to/lastmile_qr_scan", "ios": "https://dc.lft.to/lastmile_qr_scan"}, "fusion_lon": 0.0, "lat": 38.87797833333333, "bike_id": "e4822016ce52f8fd3fcaeb1ca5ed2fa5", "type": "electric_scooter", "is_reserved": 0, "lon": -77.01759816666667}, {"fusion_lat": 0.0, "name": "38c5c8acdc6c830225f421a6aebe2f9f", "is_disabled": 0, "rental_uris": {"android": "https://dc.lft.to/lastmile_qr_scan", "ios": "https://dc.lft.to/lastmile_qr_scan"}, "fusion_lon": 0.0, "lat": 38.92205083333333, "bike_id": "38c5c8acdc6c830225f421a6aebe2f9f", "type": "electric_scooter", "is_reserved": 0, "lon": -77.0234875}, {"fusion_lat": 0.0, "name": "cfd50f2ada7dfb17d39de1e972016120", "is_disabled": 0, "rental_uris": {"android": "https://dc.lft.to/lastmile_qr_scan", "ios": "https://dc.lft.to/lastmile_qr_scan"}, "fusion_lon": 0.0, "lat": 38.91661083333334, "bike_id": "cfd50f2ada7dfb17d39de1e972016120", "type": "electric_scooter", "is_reserved": 0, "lon": -77.00959416666667}, {"fusion_lat": 0.0, "name": "a723108a470318fd54a723252090d27f", "is_disabled": 0, "rental_uris": {"android": "https://dc.lft.to/lastmile_qr_scan", "ios": "https://dc.lft.to/lastmile_qr_scan"}, "fusion_lon": 0.0, "lat": 38.90541, "bike_id": "a723108a470318fd54a723252090d27f", "type": "electric_scooter", "is_reserved": 0, "lon": -76.981957}, {"fusion_lat": 0.0, "name": "675d732230017d07da18dfe05eab396d", "is_disabled": 0, "rental_uris": {"android": "https://dc.lft.to/lastmile_qr_scan", "ios": "https://dc.lft.to/lastmile_qr_scan"}, "fusion_lon": 0.0, "lat": 38.907808833333334, "bike_id": "675d732230017d07da18dfe05eab396d", "type": "electric_scooter", "is_reserved": 0, "lon": -77.03861683333334}, {"fusion_lat": 0.0, "name": "966550e84080b7be0d40da59cacde326", "is_disabled": 0, "rental_uris": {"android": "https://dc.lft.to/lastmile_qr_scan", "ios": "https://dc.lft.to/lastmile_qr_scan"}, "fusion_lon": 0.0, "lat": 38.93081183333334, "bike_id": "966550e84080b7be0d40da59cacde326", "type": "electric_scooter", "is_reserved": 0, "lon": -77.02558866666666}, {"fusion_lat": 0.0, "name": "6099c0fc28ee226b79eafa6f55c860ff", "is_disabled": 0, "rental_uris": {"android": "https://dc.lft.to/lastmile_qr_scan", "ios": "https://dc.lft.to/lastmile_qr_scan"}, "fusion_lon": 0.0, "lat": 38.912697333333334, "bike_id": "6099c0fc28ee226b79eafa6f55c860ff", "type": "electric_scooter", "is_reserved": 0, "lon": -77.0387205}, {"fusion_lat": 0.0, "name": "53ba338464e3a4df56d18f7497cdec74", "is_disabled": 0, "rental_uris": {"android": "https://dc.lft.to/lastmile_qr_scan", "ios": "https://dc.lft.to/lastmile_qr_scan"}, "fusion_lon": 0.0, "lat": 38.8923535, "bike_id": "53ba338464e3a4df56d18f7497cdec74", "type": "electric_scooter", "is_reserved": 0, "lon": -77.0465645}, {"fusion_lat": 0.0, "name": "75ec460f6454c458cb454a9003b92a57", "is_disabled": 0, "rental_uris": {"android": "https://dc.lft.to/lastmile_qr_scan", "ios": "https://dc.lft.to/lastmile_qr_scan"}, "fusion_lon": 0.0, "lat": 38.92747416666667, "bike_id": "75ec460f6454c458cb454a9003b92a57", "type": "electric_scooter", "is_reserved": 0, "lon": -77.02449933333334}, {"fusion_lat": 0.0, "name": "2221899799fda40ea6f4485beaf920b5", "is_disabled": 0, "rental_uris": {"android": "https://dc.lft.to/lastmile_qr_scan", "ios": "https://dc.lft.to/lastmile_qr_scan"}, "fusion_lon": 0.0, "lat": 38.922187666666666, "bike_id": "2221899799fda40ea6f4485beaf920b5", "type": "electric_scooter", "is_reserved": 0, "lon": -76.99642616666667}, {"fusion_lat": 0.0, "name": "1544375695d4f94e7acc845def7338f8", "is_disabled": 0, "rental_uris": {"android": "https://dc.lft.to/lastmile_qr_scan", "ios": "https://dc.lft.to/lastmile_qr_scan"}, "fusion_lon": 0.0, "lat": 38.90734066666667, "bike_id": "1544375695d4f94e7acc845def7338f8", "type": "electric_scooter", "is_reserved": 0, "lon": -77.034483}, {"fusion_lat": 0.0, "name": "2ae16f6c36935bd5f576e1a6d3e1fc1b", "is_disabled": 0, "rental_uris": {"android": "https://dc.lft.to/lastmile_qr_scan", "ios": "https://dc.lft.to/lastmile_qr_scan"}, "fusion_lon": 0.0, "lat": 38.842830166666666, "bike_id": "2ae16f6c36935bd5f576e1a6d3e1fc1b", "type": "electric_bike", "is_reserved": 0, "lon": -77.04488333333333}, {"fusion_lat": 0.0, "name": "926eb503d1af585a76884dcd1c9fb278", "is_disabled": 0, "rental_uris": {"android": "https://dc.lft.to/lastmile_qr_scan", "ios": "https://dc.lft.to/lastmile_qr_scan"}, "fusion_lon": 0.0, "lat": 38.90798516666667, "bike_id": "926eb503d1af585a76884dcd1c9fb278", "type": "electric_scooter", "is_reserved": 0, "lon": -77.042676}, {"fusion_lat": 0.0, "name": "68132eab6ba258601e6b9146a736a819", "is_disabled": 0, "rental_uris": {"android": "https://dc.lft.to/lastmile_qr_scan", "ios": "https://dc.lft.to/lastmile_qr_scan"}, "fusion_lon": 0.0, "lat": 38.903286666666666, "bike_id": "68132eab6ba258601e6b9146a736a819", "type": "electric_bike", "is_reserved": 0, "lon": -76.97528416666667}, {"fusion_lat": 0.0, "name": "6330440417bc8be5007156e7f2954e96", "is_disabled": 0, "rental_uris": {"android": "https://dc.lft.to/lastmile_qr_scan", "ios": "https://dc.lft.to/lastmile_qr_scan"}, "fusion_lon": 0.0, "lat": 38.9044885, "bike_id": "6330440417bc8be5007156e7f2954e96", "type": "electric_scooter", "is_reserved": 0, "lon": -77.01998433333333}, {"fusion_lat": 0.0, "name": "0969984f9a57d168623eae2e2535b633", "is_disabled": 0, "rental_uris": {"android": "https://dc.lft.to/lastmile_qr_scan", "ios": "https://dc.lft.to/lastmile_qr_scan"}, "fusion_lon": 0.0, "lat": 38.9358505, "bike_id": "0969984f9a57d168623eae2e2535b633", "type": "electric_scooter", "is_reserved": 0, "lon": -77.02841716666667}, {"fusion_lat": 0.0, "name": "2efb625f9eedbb48b6a3867c47a6181b", "is_disabled": 0, "rental_uris": {"android": "https://dc.lft.to/lastmile_qr_scan", "ios": "https://dc.lft.to/lastmile_qr_scan"}, "fusion_lon": 0.0, "lat": 38.936216333333334, "bike_id": "2efb625f9eedbb48b6a3867c47a6181b", "type": "electric_scooter", "is_reserved": 0, "lon": -77.03692916666667}, {"fusion_lat": 0.0, "name": "de651e4c39e570d067c0faea7e9c7c62", "is_disabled": 0, "rental_uris": {"android": "https://dc.lft.to/lastmile_qr_scan", "ios": "https://dc.lft.to/lastmile_qr_scan"}, "fusion_lon": 0.0, "lat": 38.857308, "bike_id": "de651e4c39e570d067c0faea7e9c7c62", "type": "electric_bike", "is_reserved": 0, "lon": -77.0533855}, {"fusion_lat": 0.0, "name": "069ff0d1d651c8b76dd10c5ee501fca6", "is_disabled": 0, "rental_uris": {"android": "https://dc.lft.to/lastmile_qr_scan", "ios": "https://dc.lft.to/lastmile_qr_scan"}, "fusion_lon": 0.0, "lat": 38.92814166666667, "bike_id": "069ff0d1d651c8b76dd10c5ee501fca6", "type": "electric_scooter", "is_reserved": 0, "lon": -77.02327383333333}, {"fusion_lat": 0.0, "name": "df80a3b43bbd3be38f7262c1c75e15be", "is_disabled": 0, "rental_uris": {"android": "https://dc.lft.to/lastmile_qr_scan", "ios": "https://dc.lft.to/lastmile_qr_scan"}, "fusion_lon": 0.0, "lat": 38.89297783333333, "bike_id": "df80a3b43bbd3be38f7262c1c75e15be", "type": "electric_scooter", "is_reserved": 0, "lon": -77.0487745}, {"fusion_lat": 0.0, "name": "6b01ebe882d86b197fb7d788b0fb95eb", "is_disabled": 0, "rental_uris": {"android": "https://dc.lft.to/lastmile_qr_scan", "ios": "https://dc.lft.to/lastmile_qr_scan"}, "fusion_lon": 0.0, "lat": 38.90505133333333, "bike_id": "6b01ebe882d86b197fb7d788b0fb95eb", "type": "electric_scooter", "is_reserved": 0, "lon": -77.04623066666667}, {"fusion_lat": 0.0, "name": "ebf223cc331e9e79d520e75cefcb5a6c", "is_disabled": 0, "rental_uris": {"android": "https://dc.lft.to/lastmile_qr_scan", "ios": "https://dc.lft.to/lastmile_qr_scan"}, "fusion_lon": 0.0, "lat": 38.950817, "bike_id": "ebf223cc331e9e79d520e75cefcb5a6c", "type": "electric_bike", "is_reserved": 0, "lon": -77.01191683333333}, {"fusion_lat": 0.0, "name": "0e44392ce13c20999bcef519be3c8b67", "is_disabled": 0, "rental_uris": {"android": "https://dc.lft.to/lastmile_qr_scan", "ios": "https://dc.lft.to/lastmile_qr_scan"}, "fusion_lon": 0.0, "lat": 38.889885666666665, "bike_id": "0e44392ce13c20999bcef519be3c8b67", "type": "electric_scooter", "is_reserved": 0, "lon": -76.91414716666667}, {"fusion_lat": 0.0, "name": "c010e1839e714251a8bab3a9fab76e8a", "is_disabled": 0, "rental_uris": {"android": "https://dc.lft.to/lastmile_qr_scan", "ios": "https://dc.lft.to/lastmile_qr_scan"}, "fusion_lon": 0.0, "lat": 38.9203845, "bike_id": "c010e1839e714251a8bab3a9fab76e8a", "type": "electric_scooter", "is_reserved": 0, "lon": -77.01800766666666}, {"fusion_lat": 0.0, "name": "20f40443a9c8b6253d7e498f79fb1464", "is_disabled": 0, "rental_uris": {"android": "https://dc.lft.to/lastmile_qr_scan", "ios": "https://dc.lft.to/lastmile_qr_scan"}, "fusion_lon": 0.0, "lat": 38.908479666666665, "bike_id": "20f40443a9c8b6253d7e498f79fb1464", "type": "electric_scooter", "is_reserved": 0, "lon": -77.04662583333334}, {"fusion_lat": 0.0, "name": "d8ee715c4e28ee3cdac9cbaed8aa64cb", "is_disabled": 0, "rental_uris": {"android": "https://dc.lft.to/lastmile_qr_scan", "ios": "https://dc.lft.to/lastmile_qr_scan"}, "fusion_lon": 0.0, "lat": 38.915549166666665, "bike_id": "d8ee715c4e28ee3cdac9cbaed8aa64cb", "type": "electric_scooter", "is_reserved": 0, "lon": -77.03855916666667}, {"fusion_lat": 0.0, "name": "ffe657016a1e48cf0a01267fcd60ddb3", "is_disabled": 0, "rental_uris": {"android": "https://dc.lft.to/lastmile_qr_scan", "ios": "https://dc.lft.to/lastmile_qr_scan"}, "fusion_lon": 0.0, "lat": 38.957984833333335, "bike_id": "ffe657016a1e48cf0a01267fcd60ddb3", "type": "electric_bike", "is_reserved": 0, "lon": -76.96042333333334}, {"fusion_lat": 0.0, "name": "125457ac90ddb793e01318c1b5083a18", "is_disabled": 0, "rental_uris": {"android": "https://dc.lft.to/lastmile_qr_scan", "ios": "https://dc.lft.to/lastmile_qr_scan"}, "fusion_lon": 0.0, "lat": 38.92207616666666, "bike_id": "125457ac90ddb793e01318c1b5083a18", "type": "electric_scooter", "is_reserved": 0, "lon": -77.08085433333333}, {"fusion_lat": 0.0, "name": "800d691adf14ca60f908c0ec01b39f03", "is_disabled": 0, "rental_uris": {"android": "https://dc.lft.to/lastmile_qr_scan", "ios": "https://dc.lft.to/lastmile_qr_scan"}, "fusion_lon": 0.0, "lat": 38.9154995, "bike_id": "800d691adf14ca60f908c0ec01b39f03", "type": "electric_scooter", "is_reserved": 0, "lon": -77.03124433333333}, {"fusion_lat": 0.0, "name": "d1a44296f3727730b8779dd15df6c011", "is_disabled": 0, "rental_uris": {"android": "https://dc.lft.to/lastmile_qr_scan", "ios": "https://dc.lft.to/lastmile_qr_scan"}, "fusion_lon": 0.0, "lat": 38.91449816666667, "bike_id": "d1a44296f3727730b8779dd15df6c011", "type": "electric_scooter", "is_reserved": 0, "lon": -77.044977}, {"fusion_lat": 0.0, "name": "5c23ab4cec53ffb214b146b7d86fc649", "is_disabled": 0, "rental_uris": {"android": "https://dc.lft.to/lastmile_qr_scan", "ios": "https://dc.lft.to/lastmile_qr_scan"}, "fusion_lon": 0.0, "lat": 38.90207983333333, "bike_id": "5c23ab4cec53ffb214b146b7d86fc649", "type": "electric_scooter", "is_reserved": 0, "lon": -77.05060383333333}, {"fusion_lat": 0.0, "name": "f54cf3ff7fb58df3e2cd4b9d079afebe", "is_disabled": 0, "rental_uris": {"android": "https://dc.lft.to/lastmile_qr_scan", "ios": "https://dc.lft.to/lastmile_qr_scan"}, "fusion_lon": 0.0, "lat": 38.93507133333333, "bike_id": "f54cf3ff7fb58df3e2cd4b9d079afebe", "type": "electric_scooter", "is_reserved": 0, "lon": -77.0329425}, {"fusion_lat": 0.0, "name": "68340b0f375f7393d17fe37e9469933a", "is_disabled": 0, "rental_uris": {"android": "https://dc.lft.to/lastmile_qr_scan", "ios": "https://dc.lft.to/lastmile_qr_scan"}, "fusion_lon": 0.0, "lat": 38.9218165, "bike_id": "68340b0f375f7393d17fe37e9469933a", "type": "electric_scooter", "is_reserved": 0, "lon": -77.0266135}, {"fusion_lat": 0.0, "name": "68367182975a212188a84fd7383b53aa", "is_disabled": 0, "rental_uris": {"android": "https://dc.lft.to/lastmile_qr_scan", "ios": "https://dc.lft.to/lastmile_qr_scan"}, "fusion_lon": 0.0, "lat": 38.89577383333334, "bike_id": "68367182975a212188a84fd7383b53aa", "type": "electric_scooter", "is_reserved": 0, "lon": -77.03174266666667}, {"fusion_lat": 0.0, "name": "9f48b695283c9a9859e1f9c4638bddfc", "is_disabled": 0, "rental_uris": {"android": "https://dc.lft.to/lastmile_qr_scan", "ios": "https://dc.lft.to/lastmile_qr_scan"}, "fusion_lon": 0.0, "lat": 38.907342666666665, "bike_id": "9f48b695283c9a9859e1f9c4638bddfc", "type": "electric_scooter", "is_reserved": 0, "lon": -77.02959016666667}, {"fusion_lat": 0.0, "name": "682f70f6d87c2502d97a4187a2e8ce67", "is_disabled": 0, "rental_uris": {"android": "https://dc.lft.to/lastmile_qr_scan", "ios": "https://dc.lft.to/lastmile_qr_scan"}, "fusion_lon": 0.0, "lat": 38.909704166666664, "bike_id": "682f70f6d87c2502d97a4187a2e8ce67", "type": "electric_scooter", "is_reserved": 0, "lon": -77.02158916666667}, {"fusion_lat": 0.0, "name": "11827f1583f560ebc474ea8c7da39687", "is_disabled": 0, "rental_uris": {"android": "https://dc.lft.to/lastmile_qr_scan", "ios": "https://dc.lft.to/lastmile_qr_scan"}, "fusion_lon": 0.0, "lat": 38.900015833333335, "bike_id": "11827f1583f560ebc474ea8c7da39687", "type": "electric_scooter", "is_reserved": 0, "lon": -77.02406033333334}, {"fusion_lat": 0.0, "name": "85e67f18b66b610d469ee7bf2bc33ce3", "is_disabled": 0, "rental_uris": {"android": "https://dc.lft.to/lastmile_qr_scan", "ios": "https://dc.lft.to/lastmile_qr_scan"}, "fusion_lon": 0.0, "lat": 38.899584833333336, "bike_id": "85e67f18b66b610d469ee7bf2bc33ce3", "type": "electric_scooter", "is_reserved": 0, "lon": -76.985662}, {"fusion_lat": 0.0, "name": "f3dde810cb347b595f0c34fba74f36fd", "is_disabled": 0, "rental_uris": {"android": "https://dc.lft.to/lastmile_qr_scan", "ios": "https://dc.lft.to/lastmile_qr_scan"}, "fusion_lon": 0.0, "lat": 38.88795366666667, "bike_id": "f3dde810cb347b595f0c34fba74f36fd", "type": "electric_bike", "is_reserved": 0, "lon": -76.92995333333333}, {"fusion_lat": 0.0, "name": "d77931d943243f9b7309754215e10151", "is_disabled": 0, "rental_uris": {"android": "https://dc.lft.to/lastmile_qr_scan", "ios": "https://dc.lft.to/lastmile_qr_scan"}, "fusion_lon": 0.0, "lat": 38.92988166666667, "bike_id": "d77931d943243f9b7309754215e10151", "type": "electric_scooter", "is_reserved": 0, "lon": -77.034696}, {"fusion_lat": 0.0, "name": "576117d35e1e398d6a7c6be65cb07387", "is_disabled": 0, "rental_uris": {"android": "https://dc.lft.to/lastmile_qr_scan", "ios": "https://dc.lft.to/lastmile_qr_scan"}, "fusion_lon": 0.0, "lat": 38.907927666666666, "bike_id": "576117d35e1e398d6a7c6be65cb07387", "type": "electric_scooter", "is_reserved": 0, "lon": -77.04330383333334}, {"fusion_lat": 0.0, "name": "5a0be5d6eae2606ac74e483e0ea99d69", "is_disabled": 0, "rental_uris": {"android": "https://dc.lft.to/lastmile_qr_scan", "ios": "https://dc.lft.to/lastmile_qr_scan"}, "fusion_lon": 0.0, "lat": 38.93205016666667, "bike_id": "5a0be5d6eae2606ac74e483e0ea99d69", "type": "electric_scooter", "is_reserved": 0, "lon": -77.03656666666667}, {"fusion_lat": 0.0, "name": "cfcb387dec23919f8e09919cdbfb5dd1", "is_disabled": 0, "rental_uris": {"android": "https://dc.lft.to/lastmile_qr_scan", "ios": "https://dc.lft.to/lastmile_qr_scan"}, "fusion_lon": 0.0, "lat": 38.921217166666665, "bike_id": "cfcb387dec23919f8e09919cdbfb5dd1", "type": "electric_scooter", "is_reserved": 0, "lon": -77.04422183333334}, {"fusion_lat": 0.0, "name": "99ac538f740e066244172cc7cf09f401", "is_disabled": 0, "rental_uris": {"android": "https://dc.lft.to/lastmile_qr_scan", "ios": "https://dc.lft.to/lastmile_qr_scan"}, "fusion_lon": 0.0, "lat": 38.926146833333334, "bike_id": "99ac538f740e066244172cc7cf09f401", "type": "electric_scooter", "is_reserved": 0, "lon": -77.07570633333333}, {"fusion_lat": 0.0, "name": "0f083975338ba2a68d4642b77dd5c9d4", "is_disabled": 0, "rental_uris": {"android": "https://dc.lft.to/lastmile_qr_scan", "ios": "https://dc.lft.to/lastmile_qr_scan"}, "fusion_lon": 0.0, "lat": 38.91607283333333, "bike_id": "0f083975338ba2a68d4642b77dd5c9d4", "type": "electric_scooter", "is_reserved": 0, "lon": -77.04552666666666}, {"fusion_lat": 0.0, "name": "f7891a1d5c353cfbd1da066013a3f1be", "is_disabled": 0, "rental_uris": {"android": "https://dc.lft.to/lastmile_qr_scan", "ios": "https://dc.lft.to/lastmile_qr_scan"}, "fusion_lon": 0.0, "lat": 38.896581166666664, "bike_id": "f7891a1d5c353cfbd1da066013a3f1be", "type": "electric_scooter", "is_reserved": 0, "lon": -77.01167983333333}, {"fusion_lat": 0.0, "name": "f66d9e9c196a1a868d9b3b90c396cb01", "is_disabled": 0, "rental_uris": {"android": "https://dc.lft.to/lastmile_qr_scan", "ios": "https://dc.lft.to/lastmile_qr_scan"}, "fusion_lon": 0.0, "lat": 38.9338205, "bike_id": "f66d9e9c196a1a868d9b3b90c396cb01", "type": "electric_scooter", "is_reserved": 0, "lon": -77.01956833333334}, {"fusion_lat": 0.0, "name": "21a6aef6828cf1869e04444adcbc8ba9", "is_disabled": 0, "rental_uris": {"android": "https://dc.lft.to/lastmile_qr_scan", "ios": "https://dc.lft.to/lastmile_qr_scan"}, "fusion_lon": 0.0, "lat": 38.871301333333335, "bike_id": "21a6aef6828cf1869e04444adcbc8ba9", "type": "electric_scooter", "is_reserved": 0, "lon": -77.01224166666667}, {"fusion_lat": 0.0, "name": "3473ccff0ec2bfaa9961bae8b8ebdaf5", "is_disabled": 0, "rental_uris": {"android": "https://dc.lft.to/lastmile_qr_scan", "ios": "https://dc.lft.to/lastmile_qr_scan"}, "fusion_lon": 0.0, "lat": 38.915411666666664, "bike_id": "3473ccff0ec2bfaa9961bae8b8ebdaf5", "type": "electric_scooter", "is_reserved": 0, "lon": -77.038622}, {"fusion_lat": 0.0, "name": "10c32ddebfd91c8049518a787e657965", "is_disabled": 0, "rental_uris": {"android": "https://dc.lft.to/lastmile_qr_scan", "ios": "https://dc.lft.to/lastmile_qr_scan"}, "fusion_lon": 0.0, "lat": 38.92808733333333, "bike_id": "10c32ddebfd91c8049518a787e657965", "type": "electric_scooter", "is_reserved": 0, "lon": -77.0435555}, {"fusion_lat": 0.0, "name": "f9e5c6b27d72c13d348bf766a9362d42", "is_disabled": 0, "rental_uris": {"android": "https://dc.lft.to/lastmile_qr_scan", "ios": "https://dc.lft.to/lastmile_qr_scan"}, "fusion_lon": 0.0, "lat": 38.8981745, "bike_id": "f9e5c6b27d72c13d348bf766a9362d42", "type": "electric_scooter", "is_reserved": 0, "lon": -77.050091}, {"fusion_lat": 0.0, "name": "66c08fdbfa117ec91e4d1e975c817260", "is_disabled": 0, "rental_uris": {"android": "https://dc.lft.to/lastmile_qr_scan", "ios": "https://dc.lft.to/lastmile_qr_scan"}, "fusion_lon": 0.0, "lat": 38.90110583333333, "bike_id": "66c08fdbfa117ec91e4d1e975c817260", "type": "electric_scooter", "is_reserved": 0, "lon": -76.9742885}, {"fusion_lat": 0.0, "name": "bfb4147e6be695e1c8e46065571c7ed1", "is_disabled": 0, "rental_uris": {"android": "https://dc.lft.to/lastmile_qr_scan", "ios": "https://dc.lft.to/lastmile_qr_scan"}, "fusion_lon": 0.0, "lat": 38.921517333333334, "bike_id": "bfb4147e6be695e1c8e46065571c7ed1", "type": "electric_scooter", "is_reserved": 0, "lon": -77.03660216666667}, {"fusion_lat": 0.0, "name": "588b3b2f388329e90af67187788cec37", "is_disabled": 0, "rental_uris": {"android": "https://dc.lft.to/lastmile_qr_scan", "ios": "https://dc.lft.to/lastmile_qr_scan"}, "fusion_lon": 0.0, "lat": 38.904446, "bike_id": "588b3b2f388329e90af67187788cec37", "type": "electric_scooter", "is_reserved": 0, "lon": -77.0586775}, {"fusion_lat": 0.0, "name": "7c6bad4013f0c2519809583d379f681e", "is_disabled": 0, "rental_uris": {"android": "https://dc.lft.to/lastmile_qr_scan", "ios": "https://dc.lft.to/lastmile_qr_scan"}, "fusion_lon": 0.0, "lat": 38.90034083333333, "bike_id": "7c6bad4013f0c2519809583d379f681e", "type": "electric_scooter", "is_reserved": 0, "lon": -77.00323}, {"fusion_lat": 0.0, "name": "a0cb902886e4b51d662855c27bb0e5ba", "is_disabled": 0, "rental_uris": {"android": "https://dc.lft.to/lastmile_qr_scan", "ios": "https://dc.lft.to/lastmile_qr_scan"}, "fusion_lon": 0.0, "lat": 38.91104216666667, "bike_id": "a0cb902886e4b51d662855c27bb0e5ba", "type": "electric_scooter", "is_reserved": 0, "lon": -77.03839483333333}, {"fusion_lat": 0.0, "name": "ad97553c52ec8823c23ed43902d9681a", "is_disabled": 0, "rental_uris": {"android": "https://dc.lft.to/lastmile_qr_scan", "ios": "https://dc.lft.to/lastmile_qr_scan"}, "fusion_lon": 0.0, "lat": 38.93865, "bike_id": "ad97553c52ec8823c23ed43902d9681a", "type": "electric_scooter", "is_reserved": 0, "lon": -77.02465416666666}, {"fusion_lat": 0.0, "name": "4d7e5beb1e5266dbfd8b313f0264e520", "is_disabled": 0, "rental_uris": {"android": "https://dc.lft.to/lastmile_qr_scan", "ios": "https://dc.lft.to/lastmile_qr_scan"}, "fusion_lon": 0.0, "lat": 38.9012365, "bike_id": "4d7e5beb1e5266dbfd8b313f0264e520", "type": "electric_scooter", "is_reserved": 0, "lon": -77.04163016666666}, {"fusion_lat": 0.0, "name": "fc70d42405fef0a118eb80798731e061", "is_disabled": 0, "rental_uris": {"android": "https://dc.lft.to/lastmile_qr_scan", "ios": "https://dc.lft.to/lastmile_qr_scan"}, "fusion_lon": 0.0, "lat": 38.920766666666665, "bike_id": "fc70d42405fef0a118eb80798731e061", "type": "electric_scooter", "is_reserved": 0, "lon": -77.01393983333334}, {"fusion_lat": 0.0, "name": "44faaf1fe89c7adc1cad2b2a3900a4fe", "is_disabled": 0, "rental_uris": {"android": "https://dc.lft.to/lastmile_qr_scan", "ios": "https://dc.lft.to/lastmile_qr_scan"}, "fusion_lon": 0.0, "lat": 38.90976783333333, "bike_id": "44faaf1fe89c7adc1cad2b2a3900a4fe", "type": "electric_scooter", "is_reserved": 0, "lon": -77.03431433333333}, {"fusion_lat": 0.0, "name": "22abf21f90774dea1535a539dad5aa91", "is_disabled": 0, "rental_uris": {"android": "https://dc.lft.to/lastmile_qr_scan", "ios": "https://dc.lft.to/lastmile_qr_scan"}, "fusion_lon": 0.0, "lat": 38.87987666666667, "bike_id": "22abf21f90774dea1535a539dad5aa91", "type": "electric_scooter", "is_reserved": 0, "lon": -76.984662}, {"fusion_lat": 0.0, "name": "52d7bc901016773de5e1a4fce8dcc202", "is_disabled": 0, "rental_uris": {"android": "https://dc.lft.to/lastmile_qr_scan", "ios": "https://dc.lft.to/lastmile_qr_scan"}, "fusion_lon": 0.0, "lat": 38.853229, "bike_id": "52d7bc901016773de5e1a4fce8dcc202", "type": "electric_scooter", "is_reserved": 0, "lon": -76.98008333333334}, {"fusion_lat": 0.0, "name": "5966641dad87804d39cebd8befd8446d", "is_disabled": 0, "rental_uris": {"android": "https://dc.lft.to/lastmile_qr_scan", "ios": "https://dc.lft.to/lastmile_qr_scan"}, "fusion_lon": 0.0, "lat": 38.89228683333333, "bike_id": "5966641dad87804d39cebd8befd8446d", "type": "electric_scooter", "is_reserved": 0, "lon": -77.02500733333333}, {"fusion_lat": 0.0, "name": "a0ae5e7e05fffeb3c051bec0cefcd8e1", "is_disabled": 0, "rental_uris": {"android": "https://dc.lft.to/lastmile_qr_scan", "ios": "https://dc.lft.to/lastmile_qr_scan"}, "fusion_lon": 0.0, "lat": 38.909443333333336, "bike_id": "a0ae5e7e05fffeb3c051bec0cefcd8e1", "type": "electric_scooter", "is_reserved": 0, "lon": -77.0188805}, {"fusion_lat": 0.0, "name": "0353850bf12a82ddc80469cd59385888", "is_disabled": 0, "rental_uris": {"android": "https://dc.lft.to/lastmile_qr_scan", "ios": "https://dc.lft.to/lastmile_qr_scan"}, "fusion_lon": 0.0, "lat": 38.900895166666665, "bike_id": "0353850bf12a82ddc80469cd59385888", "type": "electric_scooter", "is_reserved": 0, "lon": -76.9833045}, {"fusion_lat": 0.0, "name": "0da54d978b1ed004f7130645e1684204", "is_disabled": 0, "rental_uris": {"android": "https://dc.lft.to/lastmile_qr_scan", "ios": "https://dc.lft.to/lastmile_qr_scan"}, "fusion_lon": 0.0, "lat": 38.93471783333333, "bike_id": "0da54d978b1ed004f7130645e1684204", "type": "electric_scooter", "is_reserved": 0, "lon": -77.07215466666666}, {"fusion_lat": 0.0, "name": "7e1b22fc427f8aa5a9457327c1132aca", "is_disabled": 0, "rental_uris": {"android": "https://dc.lft.to/lastmile_qr_scan", "ios": "https://dc.lft.to/lastmile_qr_scan"}, "fusion_lon": 0.0, "lat": 38.879631333333336, "bike_id": "7e1b22fc427f8aa5a9457327c1132aca", "type": "electric_bike", "is_reserved": 0, "lon": -76.9161525}, {"fusion_lat": 0.0, "name": "52f2a151f31ba0879355eb227200c3bf", "is_disabled": 0, "rental_uris": {"android": "https://dc.lft.to/lastmile_qr_scan", "ios": "https://dc.lft.to/lastmile_qr_scan"}, "fusion_lon": 0.0, "lat": 38.9171015, "bike_id": "52f2a151f31ba0879355eb227200c3bf", "type": "electric_scooter", "is_reserved": 0, "lon": -76.97664483333334}, {"fusion_lat": 0.0, "name": "1c13eecaa1a405b0e6a3e82cdc6c42f7", "is_disabled": 0, "rental_uris": {"android": "https://dc.lft.to/lastmile_qr_scan", "ios": "https://dc.lft.to/lastmile_qr_scan"}, "fusion_lon": 0.0, "lat": 38.9198045, "bike_id": "1c13eecaa1a405b0e6a3e82cdc6c42f7", "type": "electric_scooter", "is_reserved": 0, "lon": -77.02181383333334}, {"fusion_lat": 0.0, "name": "788db7901138e974c1d8e30a5228b303", "is_disabled": 0, "rental_uris": {"android": "https://dc.lft.to/lastmile_qr_scan", "ios": "https://dc.lft.to/lastmile_qr_scan"}, "fusion_lon": 0.0, "lat": 38.900909166666665, "bike_id": "788db7901138e974c1d8e30a5228b303", "type": "electric_scooter", "is_reserved": 0, "lon": -76.983219}, {"fusion_lat": 0.0, "name": "d523f487f51415db3f2323d50f870ace", "is_disabled": 0, "rental_uris": {"android": "https://dc.lft.to/lastmile_qr_scan", "ios": "https://dc.lft.to/lastmile_qr_scan"}, "fusion_lon": 0.0, "lat": 38.940827166666665, "bike_id": "d523f487f51415db3f2323d50f870ace", "type": "electric_scooter", "is_reserved": 0, "lon": -77.02989533333333}, {"fusion_lat": 0.0, "name": "775c5008817934b64f1e26cac5644658", "is_disabled": 0, "rental_uris": {"android": "https://dc.lft.to/lastmile_qr_scan", "ios": "https://dc.lft.to/lastmile_qr_scan"}, "fusion_lon": 0.0, "lat": 38.91810683333333, "bike_id": "775c5008817934b64f1e26cac5644658", "type": "electric_scooter", "is_reserved": 0, "lon": -77.03301616666667}, {"fusion_lat": 0.0, "name": "bca93d7fbc97e8d1ed935ddf4629318e", "is_disabled": 0, "rental_uris": {"android": "https://dc.lft.to/lastmile_qr_scan", "ios": "https://dc.lft.to/lastmile_qr_scan"}, "fusion_lon": 0.0, "lat": 38.92079183333333, "bike_id": "bca93d7fbc97e8d1ed935ddf4629318e", "type": "electric_scooter", "is_reserved": 0, "lon": -77.0250735}, {"fusion_lat": 0.0, "name": "0f68165cedc2d0c9a8d82d9bbdae5fd9", "is_disabled": 0, "rental_uris": {"android": "https://dc.lft.to/lastmile_qr_scan", "ios": "https://dc.lft.to/lastmile_qr_scan"}, "fusion_lon": 0.0, "lat": 38.913171166666665, "bike_id": "0f68165cedc2d0c9a8d82d9bbdae5fd9", "type": "electric_scooter", "is_reserved": 0, "lon": -77.02128216666667}, {"fusion_lat": 0.0, "name": "38ac56cc026882fb2912d1400ba601c5", "is_disabled": 0, "rental_uris": {"android": "https://dc.lft.to/lastmile_qr_scan", "ios": "https://dc.lft.to/lastmile_qr_scan"}, "fusion_lon": 0.0, "lat": 38.947424166666664, "bike_id": "38ac56cc026882fb2912d1400ba601c5", "type": "electric_scooter", "is_reserved": 0, "lon": -77.0161665}, {"fusion_lat": 0.0, "name": "0ccdb32271865498aa4e676a8ebe6abd", "is_disabled": 0, "rental_uris": {"android": "https://dc.lft.to/lastmile_qr_scan", "ios": "https://dc.lft.to/lastmile_qr_scan"}, "fusion_lon": 0.0, "lat": 38.90435083333333, "bike_id": "0ccdb32271865498aa4e676a8ebe6abd", "type": "electric_scooter", "is_reserved": 0, "lon": -77.06013016666667}, {"fusion_lat": 0.0, "name": "66d2fa390fdeff1944ccf1b8aae419b4", "is_disabled": 0, "rental_uris": {"android": "https://dc.lft.to/lastmile_qr_scan", "ios": "https://dc.lft.to/lastmile_qr_scan"}, "fusion_lon": 0.0, "lat": 38.892206333333334, "bike_id": "66d2fa390fdeff1944ccf1b8aae419b4", "type": "electric_scooter", "is_reserved": 0, "lon": -77.03214333333334}, {"fusion_lat": 0.0, "name": "503eb20b04f283d0cef67ab47239a3c6", "is_disabled": 0, "rental_uris": {"android": "https://dc.lft.to/lastmile_qr_scan", "ios": "https://dc.lft.to/lastmile_qr_scan"}, "fusion_lon": 0.0, "lat": 38.929639, "bike_id": "503eb20b04f283d0cef67ab47239a3c6", "type": "electric_scooter", "is_reserved": 0, "lon": -77.01964833333334}, {"fusion_lat": 0.0, "name": "a4585c2947ce659c09e8855957ca70f8", "is_disabled": 0, "rental_uris": {"android": "https://dc.lft.to/lastmile_qr_scan", "ios": "https://dc.lft.to/lastmile_qr_scan"}, "fusion_lon": 0.0, "lat": 38.8246055, "bike_id": "a4585c2947ce659c09e8855957ca70f8", "type": "electric_bike", "is_reserved": 0, "lon": -77.007928}, {"fusion_lat": 0.0, "name": "aea413d703edc4d7f537b0fb8653a71a", "is_disabled": 0, "rental_uris": {"android": "https://dc.lft.to/lastmile_qr_scan", "ios": "https://dc.lft.to/lastmile_qr_scan"}, "fusion_lon": 0.0, "lat": 38.91084583333333, "bike_id": "aea413d703edc4d7f537b0fb8653a71a", "type": "electric_scooter", "is_reserved": 0, "lon": -77.06501783333333}, {"fusion_lat": 0.0, "name": "a7a1cfa12ed211ce47f142c374c5baf5", "is_disabled": 0, "rental_uris": {"android": "https://dc.lft.to/lastmile_qr_scan", "ios": "https://dc.lft.to/lastmile_qr_scan"}, "fusion_lon": 0.0, "lat": 38.892284, "bike_id": "a7a1cfa12ed211ce47f142c374c5baf5", "type": "electric_scooter", "is_reserved": 0, "lon": -77.0241465}, {"fusion_lat": 0.0, "name": "2031592a00cb909f7886ed830d06206c", "is_disabled": 0, "rental_uris": {"android": "https://dc.lft.to/lastmile_qr_scan", "ios": "https://dc.lft.to/lastmile_qr_scan"}, "fusion_lon": 0.0, "lat": 38.91409383333333, "bike_id": "2031592a00cb909f7886ed830d06206c", "type": "electric_scooter", "is_reserved": 0, "lon": -77.00841416666667}, {"fusion_lat": 0.0, "name": "4801b28b7b3c986c361971882628d5f3", "is_disabled": 0, "rental_uris": {"android": "https://dc.lft.to/lastmile_qr_scan", "ios": "https://dc.lft.to/lastmile_qr_scan"}, "fusion_lon": 0.0, "lat": 38.9046255, "bike_id": "4801b28b7b3c986c361971882628d5f3", "type": "electric_scooter", "is_reserved": 0, "lon": -77.006959},