{"data": {"bikes": [{"lat": 38.93706533333334, "is_disabled": 0, "rental_uris": {"android": "https://dc.lft.to/lastmile_qr_scan", "ios": "https://dc.lft.to/lastmile_qr_scan"}, "type": "electric_scooter", "is_reserved": 0, "name": "7f7ce74b73f7e35d46b7dd337b8a3ccf", "lon": -77.05598666666667, "fusion_lat": 0.0, "fusion_lon": 0.0, "bike_id": "7f7ce74b73f7e35d46b7dd337b8a3ccf"}, {"lat": 38.9363705, "is_disabled": 0, "rental_uris": {"android": "https://dc.lft.to/lastmile_qr_scan", "ios": "https://dc.lft.to/lastmile_qr_scan"}, "type": "electric_bike", "is_reserved": 0, "name": "a4bccf8e8290edb6eadcf3bfa4ba5209", "lon": -76.9545585, "fusion_lat": 0.0, "fusion_lon": 0.0, "bike_id": "a4bccf8e8290edb6eadcf3bfa4ba5209"}, {"lat": 38.93461283333333, "is_disabled": 0, "rental_uris": {"android": "https://dc.lft.to/lastmile_qr_scan", "ios": "https://dc.lft.to/lastmile_qr_scan"}, "type": "electric_scooter", "is_reserved": 0, "name": "e5f2a98b43c670c93aabd9ed57db3169", "lon": -77.05807366666667, "fusion_lat": 0.0, "fusion_lon": 0.0, "bike_id": "e5f2a98b43c670c93aabd9ed57db3169"}, {"lat": 38.93182483333333, "is_disabled": 0, "rental_uris": {"android": "https://dc.lft.to/lastmile_qr_scan", "ios": "https://dc.lft.to/lastmile_qr_scan"}, "type": "electric_scooter", "is_reserved": 0, "name": "5eceb4f8cf87551e767cda730bf9111f", "lon": -77.0297035, "fusion_lat": 0.0, "fusion_lon": 0.0, "bike_id": "5eceb4f8cf87551e767cda730bf9111f"}, {"lat": 38.889369, "is_disabled": 0, "rental_uris": {"android": "https://dc.lft.to/lastmile_qr_scan", "ios": "https://dc.lft.to/lastmile_qr_scan"}, "type": "electric_scooter", "is_reserved": 0, "name": "3402e8a78d92e41da649e915026ef33a", "lon": -76.97734633333333, "fusion_lat": 0.0, "fusion_lon": 0.0, "bike_id": "3402e8a78d92e41da649e915026ef33a"}, {"lat": 38.88733233333333, "is_disabled": 0, "rental_uris": {"android": "https://dc.lft.to/lastmile_qr_scan", "ios": "https://dc.lft.to/lastmile_qr_scan"}, "type": "electric_scooter", "is_reserved": 0, "name": "35e359610439400cf60ab29114fc3943", "lon": -77.01389566666667, "fusion_lat": 0.0, "fusion_lon": 0.0, "bike_id": "35e359610439400cf60ab29114fc3943"}, {"lat": 38.903299833333335, "is_disabled": 0, "rental_uris": {"android": "https://dc.lft.to/lastmile_qr_scan", "ios": "https://dc.lft.to/lastmile_qr_scan"}, "type": "electric_scooter", "is_reserved": 0, "name": "a931c33c112b3a4f1b149fa6e8516ccb", "lon": -77.02487266666667, "fusion_lat": 0.0, "fusion_lon": 0.0, "bike_id": "a931c33c112b3a4f1b149fa6e8516ccb"}, {"lat": 38.90642866666666, "is_disabled": 0, "rental_uris": {"android": "https://dc.lft.to/lastmile_qr_scan", "ios": "https://dc.lft.to/lastmile_qr_scan"}, "type": "electric_scooter", "is_reserved": 0, "name": "eb6d0322782d8c163e9f1d033867062c", "lon": -77.0532185, "fusion_lat": 0.0, "fusion_lon": 0.0, "bike_id": "eb6d0322782d8c163e9f1d033867062c"}, {"lat": 38.903724, "is_disabled": 0, "rental_uris": {"android": "https://dc.lft.to/lastmile_qr_scan", "ios": "https://dc.lft.to/lastmile_qr_scan"}, "type": "electric_scooter", "is_reserved": 0, "name": "0a9ead2f4898f1de97274bc66424b21f", "lon": -77.03208233333334, "fusion_lat": 0.0, "fusion_lon": 0.0, "bike_id": "0a9ead2f4898f1de97274bc66424b21f"}, {"lat": 38.95110966666667, "is_disabled": 0, "rental_uris": {"android": "https://dc.lft.to/lastmile_qr_scan", "ios": "https://dc.lft.to/lastmile_qr_scan"}, "type": "electric_bike", "is_reserved": 0, "name": "b8bb0bd2dd853db624a2d3e50123d574", "lon": -77.08871983333333, "fusion_lat": 0.0, "fusion_lon": 0.0, "bike_id": "b8bb0bd2dd853db624a2d3e50123d574"}, {"lat": 38.92412483333333, "is_disabled": 0, "rental_uris": {"android": "https://dc.lft.to/lastmile_qr_scan", "ios": "https://dc.lft.to/lastmile_qr_scan"}, "type": "electric_scooter", "is_reserved": 0, "name": "ffdbdded3490a21b203479aab0e45649", "lon": -77.020865, "fusion_lat": 0.0, "fusion_lon": 0.0, "bike_id": "ffdbdded3490a21b203479aab0e45649"}, {"lat": 38.924453166666666, "is_disabled": 0, "rental_uris": {"android": "https://dc.lft.to/lastmile_qr_scan", "ios": "https://dc.lft.to/lastmile_qr_scan"}, "type": "electric_scooter", "is_reserved": 0, "name": "1078c2500b9cbee317f5dc43aefb0bb1", "lon": -77.020282, "fusion_lat": 0.0, "fusion_lon": 0.0, "bike_id": "1078c2500b9cbee317f5dc43aefb0bb1"}, {"lat": 38.8949355, "is_disabled": 0, "rental_uris": {"android": "https://dc.lft.to/lastmile_qr_scan", "ios": "https://dc.lft.to/lastmile_qr_scan"}, "type": "electric_scooter", "is_reserved": 0, "name": "c5a8866756f74b1c735c2c9c1fb9e3f4", "lon": -76.9489425, "fusion_lat": 0.0, "fusion_lon": 0.0, "bike_id": "c5a8866756f74b1c735c2c9c1fb9e3f4"}, {"lat": 38.908142166666664, "is_disabled": 0, "rental_uris": {"android": "https://dc.lft.to/lastmile_qr_scan", "ios": "https://dc.lft.to/lastmile_qr_scan"}, "type": "electric_scooter", "is_reserved": 0, "name": "bb9bd16b606bb647e6b56a337f79d5c2", "lon": -77.02211016666666, "fusion_lat": 0.0, "fusion_lon": 0.0, "bike_id": "bb9bd16b606bb647e6b56a337f79d5c2"}, {"lat": 38.89683433333333, "is_disabled": 0, "rental_uris": {"android": "https://dc.lft.to/lastmile_qr_scan", "ios": "https://dc.lft.to/lastmile_qr_scan"}, "type": "electric_scooter", "is_reserved": 0, "name": "5346bf3a3437c5d2472879a197039ff1", "lon": -77.0435675, "fusion_lat": 0.0, "fusion_lon": 0.0, "bike_id": "5346bf3a3437c5d2472879a197039ff1"}, {"lat": 38.908378666666664, "is_disabled": 0, "rental_uris": {"android": "https://dc.lft.to/lastmile_qr_scan", "ios": "https://dc.lft.to/lastmile_qr_scan"}, "type": "electric_scooter", "is_reserved": 0, "name": "cf19dbc8df774dac29ce29bf7300e254", "lon": -77.05494183333333, "fusion_lat": 0.0, "fusion_lon": 0.0, "bike_id": "cf19dbc8df774dac29ce29bf7300e254"}, {"lat": 38.907798666666665, "is_disabled": 0, "rental_uris": {"android": "https://dc.lft.to/lastmile_qr_scan", "ios": "https://dc.lft.to/lastmile_qr_scan"}, "type": "electric_scooter", "is_reserved": 0, "name": "04d0f466e1db4af0eac9cc06b4eaba43", "lon": -77.04517233333333, "fusion_lat": 0.0, "fusion_lon": 0.0, "bike_id": "04d0f466e1db4af0eac9cc06b4eaba43"}, {"lat": 38.91471033333333, "is_disabled": 0, "rental_uris": {"android": "https://dc.lft.to/lastmile_qr_scan", "ios": "https://dc.lft.to/lastmile_qr_scan"}, "type": "electric_scooter", "is_reserved": 0, "name": "a6b593d00de12f770dfec50dd2d74fef", "lon": -77.021629, "fusion_lat": 0.0, "fusion_lon": 0.0, "bike_id": "a6b593d00de12f770dfec50dd2d74fef"}, {"lat": 38.882675, "is_disabled": 0, "rental_uris": {"android": "https://dc.lft.to/lastmile_qr_scan", "ios": "https://dc.lft.to/lastmile_qr_scan"}, "type": "electric_scooter", "is_reserved": 0, "name": "452f0ed03687fb4bec5cefb531414504", "lon": -76.99019716666666, "fusion_lat": 0.0, "fusion_lon": 0.0, "bike_id": "452f0ed03687fb4bec5cefb531414504"}, {"lat": 38.917313666666665, "is_disabled": 0, "rental_uris": {"android": "https://dc.lft.to/lastmile_qr_scan", "ios": "https://dc.lft.to/lastmile_qr_scan"}, "type": "electric_scooter", "is_reserved": 0, "name": "f1272fee81e23d06af0d35b0cf3dc61f", "lon": -77.02290816666667, "fusion_lat": 0.0, "fusion_lon": 0.0, "bike_id": "f1272fee81e23d06af0d35b0cf3dc61f"}, {"lat": 38.929267333333335, "is_disabled": 0, "rental_uris": {"android": "https://dc.lft.to/lastmile_qr_scan", "ios": "https://dc.lft.to/lastmile_qr_scan"}, "type": "electric_scooter", "is_reserved": 0, "name": "3c888f5e268722ea19a020b42878fd4b", "lon": -76.99820366666667, "fusion_lat": 0.0, "fusion_lon": 0.0, "bike_id": "3c888f5e268722ea19a020b42878fd4b"}, {"lat": 38.9350335, "is_disabled": 0, "rental_uris": {"android": "https://dc.lft.to/lastmile_qr_scan", "ios": "https://dc.lft.to/lastmile_qr_scan"}, "type": "electric_scooter", "is_reserved": 0, "name": "9d78a3c24c80cbfd92caee6483aaa00d", "lon": -77.02008, "fusion_lat": 0.0, "fusion_lon": 0.0, "bike_id": "9d78a3c24c80cbfd92caee6483aaa00d"}, {"lat": 38.922470833333335, "is_disabled": 0, "rental_uris": {"android": "https://dc.lft.to/lastmile_qr_scan", "ios": "https://dc.lft.to/lastmile_qr_scan"}, "type": "electric_scooter", "is_reserved": 0, "name": "1ffca1b3a35be77ac50abb242e98222e", "lon": -77.04363383333333, "fusion_lat": 0.0, "fusion_lon": 0.0, "bike_id": "1ffca1b3a35be77ac50abb242e98222e"}, {"lat": 38.90576516666667, "is_disabled": 0, "rental_uris": {"android": "https://dc.lft.to/lastmile_qr_scan", "ios": "https://dc.lft.to/lastmile_qr_scan"}, "type": "electric_scooter", "is_reserved": 0, "name": "bc6bc1fb7315f4449a891e13fca6bc14", "lon": -77.0026085, "fusion_lat": 0.0, "fusion_lon": 0.0, "bike_id": "bc6bc1fb7315f4449a891e13fca6bc14"}, {"lat": 38.9003645, "is_disabled": 0, "rental_uris": {"android": "https://dc.lft.to/lastmile_qr_scan", "ios": "https://dc.lft.to/lastmile_qr_scan"}, "type": "electric_scooter", "is_reserved": 0, "name": "a4b964502120c395904d2d50bd70620a", "lon": -76.98818983333334, "fusion_lat": 0.0, "fusion_lon": 0.0, "bike_id": "a4b964502120c395904d2d50bd70620a"}, {"lat": 38.93534866666667, "is_disabled": 0, "rental_uris": {"android": "https://dc.lft.to/lastmile_qr_scan", "ios": "https://dc.lft.to/lastmile_qr_scan"}, "type": "electric_bike", "is_reserved": 0, "name": "afe6e14b9c992243cf7d935b739db693", "lon": -77.08858666666667, "fusion_lat": 0.0, "fusion_lon": 0.0, "bike_id": "afe6e14b9c992243cf7d935b739db693"}, {"lat": 38.90787183333333, "is_disabled": 0, "rental_uris": {"android": "https://dc.lft.to/lastmile_qr_scan", "ios": "https://dc.lft.to/lastmile_qr_scan"}, "type": "electric_scooter", "is_reserved": 0, "name": "024b36b93764cac370baf9f22ca4d58a", "lon": -77.0096765, "fusion_lat": 0.0, "fusion_lon": 0.0, "bike_id": "024b36b93764cac370baf9f22ca4d58a"}, {"lat": 38.88666666666667, "is_disabled": 0, "rental_uris": {"android": "https://dc.lft.to/lastmile_qr_scan", "ios": "https://dc.lft.to/lastmile_qr_scan"}, "type": "electric_scooter", "is_reserved": 0, "name": "72dbd7ca97e4a9f16969a74f00bce5e2", "lon": -77.0138545, "fusion_lat": 0.0, "fusion_lon": 0.0, "bike_id": "72dbd7ca97e4a9f16969a74f00bce5e2"}, {"lat": 38.91719633333334, "is_disabled": 0, "rental_uris": {"android": "https://dc.lft.to/lastmile_qr_scan", "ios": "https://dc.lft.to/lastmile_qr_scan"}, "type": "electric_scooter", "is_reserved": 0, "name": "bc05d37efadf8279aa8f6afd6034eea3", "lon": -77.041514, "fusion_lat": 0.0, "fusion_lon": 0.0, "bike_id": "bc05d37efadf8279aa8f6afd6034eea3"}, {"lat": 38.92108616666667, "is_disabled": 0, "rental_uris": {"android": "https://dc.lft.to/lastmile_qr_scan", "ios": "https://dc.lft.to/lastmile_qr_scan"}, "type": "electric_scooter", "is_reserved": 0, "name": "17fff56df1e349a8151909ed558b3779", "lon": -76.985736, "fusion_lat": 0.0, "fusion_lon": 0.0, "bike_id": "17fff56df1e349a8151909ed558b3779"}, {"lat": 38.89884633333333, "is_disabled": 0, "rental_uris": {"android": "https://dc.lft.to/lastmile_qr_scan", "ios": "https://dc.lft.to/lastmile_qr_scan"}, "type": "electric_scooter", "is_reserved": 0, "name": "7e1db665e8134301b2ead71675d796bc", "lon": -77.03319983333333, "fusion_lat": 0.0, "fusion_lon": 0.0, "bike_id": "7e1db665e8134301b2ead71675d796bc"}, {"lat": 38.89616933333333, "is_disabled": 0, "rental_uris": {"android": "https://dc.lft.to/lastmile_qr_scan", "ios": "https://dc.lft.to/lastmile_qr_scan"}, "type": "electric_bike", "is_reserved": 0, "name": "16942ca319e3a3a060b5683035368605", "lon": -76.90755783333333, "fusion_lat": 0.0, "fusion_lon": 0.0, "bike_id": "16942ca319e3a3a060b5683035368605"}, {"lat": 38.9181, "is_disabled": 0, "rental_uris": {"android": "https://dc.lft.to/lastmile_qr_scan", "ios": "https://dc.lft.to/lastmile_qr_scan"}, "type": "electric_scooter", "is_reserved": 0, "name": "1f8016919e49258cd0e7a92024418b10", "lon": -77.03443283333333, "fusion_lat": 0.0, "fusion_lon": 0.0, "bike_id": "1f8016919e49258cd0e7a92024418b10"}, {"lat": 38.88708033333333, "is_disabled": 0, "rental_uris": {"android": "https://dc.lft.to/lastmile_qr_scan", "ios": "https://dc.lft.to/lastmile_qr_scan"}, "type": "electric_scooter", "is_reserved": 0, "name": "2c7a7fc07079f49cfdb151c836964eb8", "lon": -77.02166183333334, "fusion_lat": 0.0, "fusion_lon": 0.0, "bike_id": "2c7a7fc07079f49cfdb151c836964eb8"}, {"lat": 38.89882816666667, "is_disabled": 0, "rental_uris": {"android": "https://dc.lft.to/lastmile_qr_scan", "ios": "https://dc.lft.to/lastmile_qr_scan"}, "type": "electric_scooter", "is_reserved": 0, "name": "66740b357a9aa6679a8f5f48d01dce2c", "lon": -76.98840266666667, "fusion_lat": 0.0, "fusion_lon": 0.0, "bike_id": "66740b357a9aa6679a8f5f48d01dce2c"}, {"lat": 38.9186235, "is_disabled": 0, "rental_uris": {"android": "https://dc.lft.to/lastmile_qr_scan", "ios": "https://dc.lft.to/lastmile_qr_scan"}, "type": "electric_scooter", "is_reserved": 0, "name": "db80a502a180d90163c8108a50e3e132", "lon": -77.03195633333333, "fusion_lat": 0.0, "fusion_lon": 0.0, "bike_id": "db80a502a180d90163c8108a50e3e132"}, {"lat": 38.926106, "is_disabled": 0, "rental_uris": {"android": "https://dc.lft.to/lastmile_qr_scan", "ios": "https://dc.lft.to/lastmile_qr_scan"}, "type": "electric_scooter", "is_reserved": 0, "name": "c1adf4a385d65ad736a8497cedbb4cea", "lon": -77.02166216666667, "fusion_lat": 0.0, "fusion_lon": 0.0, "bike_id": "c1adf4a385d65ad736a8497cedbb4cea"}, {"lat": 38.87597683333333, "is_disabled": 0, "rental_uris": {"android": "https://dc.lft.to/lastmile_qr_scan", "ios": "https://dc.lft.to/lastmile_qr_scan"}, "type": "electric_scooter", "is_reserved": 0, "name": "273fd9bffc5141e2b85fe39530404679", "lon": -77.005809, "fusion_lat": 0.0, "fusion_lon": 0.0, "bike_id": "273fd9bffc5141e2b85fe39530404679"}, {"lat": 38.900286666666666, "is_disabled": 0, "rental_uris": {"android": "https://dc.lft.to/lastmile_qr_scan", "ios": "https://dc.lft.to/lastmile_qr_scan"}, "type": "electric_scooter", "is_reserved": 0, "name": "5d1c942276a24eee4974d572ab1d41b2", "lon": -76.986956, "fusion_lat": 0.0, "fusion_lon": 0.0, "bike_id": "5d1c942276a24eee4974d572ab1d41b2"}, {"lat": 38.888162666666666, "is_disabled": 0, "rental_uris": {"android": "https://dc.lft.to/lastmile_qr_scan", "ios": "https://dc.lft.to/lastmile_qr_scan"}, "type": "electric_scooter", "is_reserved": 0, "name": "78835ded3012fd860d0ea072a8e066e4", "lon": -76.97703416666667, "fusion_lat": 0.0, "fusion_lon": 0.0, "bike_id": "78835ded3012fd860d0ea072a8e066e4"}, {"lat": 38.90013916666667, "is_disabled": 0, "rental_uris": {"android": "https://dc.lft.to/lastmile_qr_scan", "ios": "https://dc.lft.to/lastmile_qr_scan"}, "type": "electric_scooter", "is_reserved": 0, "name": "aa55b5f38f2af9ab656f113e073e5a93", "lon": -76.93024833333334, "fusion_lat": 0.0, "fusion_lon": 0.0, "bike_id": "aa55b5f38f2af9ab656f113e073e5a93"}, {"lat": 38.9287755, "is_disabled": 0, "rental_uris": {"android": "https://dc.lft.to/lastmile_qr_scan", "ios": "https://dc.lft.to/lastmile_qr_scan"}, "type": "electric_scooter", "is_reserved": 0, "name": "c7f85db0e185d84c8caa4f2f509154e2", "lon": -77.03346016666667, "fusion_lat": 0.0, "fusion_lon": 0.0, "bike_id": "c7f85db0e185d84c8caa4f2f509154e2"}, {"lat": 38.90393433333333, "is_disabled": 0, "rental_uris": {"android": "https://dc.lft.to/lastmile_qr_scan", "ios": "https://dc.lft.to/lastmile_qr_scan"}, "type": "electric_scooter", "is_reserved": 0, "name": "0fe3a337b99af1f201a5168450cc6eb1", "lon": -76.98107516666667, "fusion_lat": 0.0, "fusion_lon": 0.0, "bike_id": "0fe3a337b99af1f201a5168450cc6eb1"}, {"lat": 38.90034333333333, "is_disabled": 0, "rental_uris": {"android": "https://dc.lft.to/lastmile_qr_scan", "ios": "https://dc.lft.to/lastmile_qr_scan"}, "type": "electric_scooter", "is_reserved": 0, "name": "056a9bd6d8568890e7b37f55f3bb7164", "lon": -76.99830966666667, "fusion_lat": 0.0, "fusion_lon": 0.0, "bike_id": "056a9bd6d8568890e7b37f55f3bb7164"}, {"lat": 38.929574, "is_disabled": 0, "rental_uris": {"android": "https://dc.lft.to/lastmile_qr_scan", "ios": "https://dc.lft.to/lastmile_qr_scan"}, "type": "electric_scooter", "is_reserved": 0, "name": "de6887323dbc277af84c2cde76b46d36", "lon": -77.05516033333333, "fusion_lat": 0.0, "fusion_lon": 0.0, "bike_id": "de6887323dbc277af84c2cde76b46d36"}, {"lat": 38.92885416666667, "is_disabled": 0, "rental_uris": {"android": "https://dc.lft.to/lastmile_qr_scan", "ios": "https://dc.lft.to/lastmile_qr_scan"}, "type": "electric_scooter", "is_reserved": 0, "name": "e7b04311f6a6d74c4f7bac1db3acddfb", "lon": -77.02599416666666, "fusion_lat": 0.0, "fusion_lon": 0.0, "bike_id": "e7b04311f6a6d74c4f7bac1db3acddfb"}, {"lat": 38.8950355, "is_disabled": 0, "rental_uris": {"android": "https://dc.lft.to/lastmile_qr_scan", "ios": "https://dc.lft.to/lastmile_qr_scan"}, "type": "electric_scooter", "is_reserved": 0, "name": "963594dc6d84440565be7f214ffa34fb", "lon": -77.00220383333334, "fusion_lat": 0.0, "fusion_lon": 0.0, "bike_id": "963594dc6d84440565be7f214ffa34fb"}, {"lat": 38.890047333333335, "is_disabled": 0, "rental_uris": {"android": "https://dc.lft.to/lastmile_qr_scan", "ios": "https://dc.lft.to/lastmile_qr_scan"}, "type": "electric_scooter", "is_reserved": 0, "name": "afc8d309307c9a72beb9dfae10077070", "lon": -76.93753483333333, "fusion_lat": 0.0, "fusion_lon": 0.0, "bike_id": "afc8d309307c9a72beb9dfae10077070"}, {"lat": 38.922469666666665, "is_disabled": 0, "rental_uris": {"android": "https://dc.lft.to/lastmile_qr_scan", "ios": "https://dc.lft.to/lastmile_qr_scan"}, "type": "electric_scooter", "is_reserved": 0, "name": "1b031306df510f8de0678044a993077c", "lon": -77.0436425, "fusion_lat": 0.0, "fusion_lon": 0.0, "bike_id": "1b031306df510f8de0678044a993077c"}, {"lat": 38.9170345, "is_disabled": 0, "rental_uris": {"android": "https://dc.lft.to/lastmile_qr_scan", "ios": "https://dc.lft.to/lastmile_qr_scan"}, "type": "electric_scooter", "is_reserved": 0, "name": "11546c6a2eceee3c2a2ea56253656f7b", "lon": -77.03109183333333, "fusion_lat": 0.0, "fusion_lon": 0.0, "bike_id": "11546c6a2eceee3c2a2ea56253656f7b"}, {"lat": 38.892133333333334, "is_disabled": 0, "rental_uris": {"android": "https://dc.lft.to/lastmile_qr_scan", "ios": "https://dc.lft.to/lastmile_qr_scan"}, "type": "electric_scooter", "is_reserved": 0, "name": "be295442d3f1efbab49798915adcf52c", "lon": -77.0035145, "fusion_lat": 0.0, "fusion_lon": 0.0, "bike_id": "be295442d3f1efbab49798915adcf52c"}, {"lat": 38.902292333333335, "is_disabled": 0, "rental_uris": {"android": "https://dc.lft.to/lastmile_qr_scan", "ios": "https://dc.lft.to/lastmile_qr_scan"}, "type": "electric_scooter", "is_reserved": 0, "name": "a66ded3b93636301301d8772d3105342", "lon": -77.03171466666667, "fusion_lat": 0.0, "fusion_lon": 0.0, "bike_id": "a66ded3b93636301301d8772d3105342"}, {"lat": 38.998983, "is_disabled": 0, "rental_uris": {"android": "https://dc.lft.to/lastmile_qr_scan", "ios": "https://dc.lft.to/lastmile_qr_scan"}, "type": "electric_bike", "is_reserved": 0, "name": "52eada0f81b748bc6c52feab6105c33b", "lon": -76.90863566666667, "fusion_lat": 0.0, "fusion_lon": 0.0, "bike_id": "52eada0f81b748bc6c52feab6105c33b"}, {"lat": 38.901722, "is_disabled": 0, "rental_uris": {"android": "https://dc.lft.to/lastmile_qr_scan", "ios": "https://dc.lft.to/lastmile_qr_scan"}, "type": "electric_scooter", "is_reserved": 0, "name": "82c07dcdc72acc831c121be17fec7c9b", "lon": -76.980747, "fusion_lat": 0.0, "fusion_lon": 0.0, "bike_id": "82c07dcdc72acc831c121be17fec7c9b"}, {"lat": 38.927830166666666, "is_disabled": 0, "rental_uris": {"android": "https://dc.lft.to/lastmile_qr_scan", "ios": "https://dc.lft.to/lastmile_qr_scan"}, "type": "electric_scooter", "is_reserved": 0, "name": "7d9834cb3177c4073178fae18c385032", "lon": -76.99626583333334, "fusion_lat": 0.0, "fusion_lon": 0.0, "bike_id": "7d9834cb3177c4073178fae18c385032"}, {"lat": 38.89709883333333, "is_disabled": 0, "rental_uris": {"android": "https://dc.lft.to/lastmile_qr_scan", "ios": "https://dc.lft.to/lastmile_qr_scan"}, "type": "electric_scooter", "is_reserved": 0, "name": "92ae525a9434d1dff7d82a69d190c029", "lon": -76.99119366666666, "fusion_lat": 0.0, "fusion_lon": 0.0, "bike_id": "92ae525a9434d1dff7d82a69d190c029"}, {"lat": 38.90397633333333, "is_disabled": 0, "rental_uris": {"android": "https://dc.lft.to/lastmile_qr_scan", "ios": "https://dc.lft.to/lastmile_qr_scan"}, "type": "electric_scooter", "is_reserved": 0, "name": "70fb382799d014d6bba1587bda9025ab", "lon": -77.00428233333334, "fusion_lat": 0.0, "fusion_lon": 0.0, "bike_id": "70fb382799d014d6bba1587bda9025ab"}, {"lat": 38.870381333333334, "is_disabled": 0, "rental_uris": {"android": "https://dc.lft.to/lastmile_qr_scan", "ios": "https://dc.lft.to/lastmile_qr_scan"}, "type": "electric_bike", "is_reserved": 0, "name": "c0f19610573728dd9a851fcda6400baf", "lon": -77.22910133333333, "fusion_lat": 0.0, "fusion_lon": 0.0, "bike_id": "c0f19610573728dd9a851fcda6400baf"}, {"lat": 38.92278916666667, "is_disabled": 0, "rental_uris": {"android": "https://dc.lft.to/lastmile_qr_scan", "ios": "https://dc.lft.to/lastmile_qr_scan"}, "type": "electric_scooter", "is_reserved": 0, "name": "e97d07ad9c3c9a5b41d4ad8fc8239817", "lon": -77.02119333333333, "fusion_lat": 0.0, "fusion_lon": 0.0, "bike_id": "e97d07ad9c3c9a5b41d4ad8fc8239817"}, {"lat": 38.919514166666666, "is_disabled": 0, "rental_uris": {"android": "https://dc.lft.to/lastmile_qr_scan", "ios": "https://dc.lft.to/lastmile_qr_scan"}, "type": "electric_scooter", "is_reserved": 0, "name": "a5b8a6d1239b6fd7ac2fbf5f4be06bb0", "lon": -77.01884183333334, "fusion_lat": 0.0, "fusion_lon": 0.0, "bike_id": "a5b8a6d1239b6fd7ac2fbf5f4be06bb0"}, {"lat": 38.92757433333333, "is_disabled": 0, "rental_uris": {"android": "https://dc.lft.to/lastmile_qr_scan", "ios": "https://dc.lft.to/lastmile_qr_scan"}, "type": "electric_scooter", "is_reserved": 0, "name": "b722494b70c991669513287b794381ef", "lon": -77.03204833333334, "fusion_lat": 0.0, "fusion_lon": 0.0, "bike_id": "b722494b70c991669513287b794381ef"}, {"lat": 38.90443666666667, "is_disabled": 0, "rental_uris": {"android": "https://dc.lft.to/lastmile_qr_scan", "ios": "https://dc.lft.to/lastmile_qr_scan"}, "type": "electric_scooter", "is_reserved": 0, "name": "1396492947c3c68fb0196e94ac169494", "lon": -77.03674533333333, "fusion_lat": 0.0, "fusion_lon": 0.0, "bike_id": "1396492947c3c68fb0196e94ac169494"}, {"lat": 38.909082166666664, "is_disabled": 0, "rental_uris": {"android": "https://dc.lft.to/lastmile_qr_scan", "ios": "https://dc.lft.to/lastmile_qr_scan"}, "type": "electric_scooter", "is_reserved": 0, "name": "415ee77c8be911cedcbb585e2bad9ca0", "lon": -77.031828, "fusion_lat": 0.0, "fusion_lon": 0.0, "bike_id": "415ee77c8be911cedcbb585e2bad9ca0"}, {"lat": 38.90037383333333, "is_disabled": 0, "rental_uris": {"android": "https://dc.lft.to/lastmile_qr_scan", "ios": "https://dc.lft.to/lastmile_qr_scan"}, "type": "electric_scooter", "is_reserved": 0, "name": "096c6f494d359008d2c335acece75536", "lon": -76.98833516666667, "fusion_lat": 0.0, "fusion_lon": 0.0, "bike_id": "096c6f494d359008d2c335acece75536"}, {"lat": 38.93246, "is_disabled": 0, "rental_uris": {"android": "https://dc.lft.to/lastmile_qr_scan", "ios": "https://dc.lft.to/lastmile_qr_scan"}, "type": "electric_scooter", "is_reserved": 0, "name": "8cdf6b4b9262fae521bfa060e7815baa", "lon": -77.032795, "fusion_lat": 0.0, "fusion_lon": 0.0, "bike_id": "8cdf6b4b9262fae521bfa060e7815baa"}, {"lat": 38.901802333333336, "is_disabled": 0, "rental_uris": {"android": "https://dc.lft.to/lastmile_qr_scan", "ios": "https://dc.lft.to/lastmile_qr_scan"}, "type": "electric_scooter", "is_reserved": 0, "name": "57d62b18a3b697f6680c0c4d6bc2b5f1", "lon": -77.05064016666667, "fusion_lat": 0.0, "fusion_lon": 0.0, "bike_id": "57d62b18a3b697f6680c0c4d6bc2b5f1"}, {"lat": 38.90368766666667, "is_disabled": 0, "rental_uris": {"android": "https://dc.lft.to/lastmile_qr_scan", "ios": "https://dc.lft.to/lastmile_qr_scan"}, "type": "electric_scooter", "is_reserved": 0, "name": "792c66f350b03470f8a79cff12f33c38", "lon": -77.04521016666666, "fusion_lat": 0.0, "fusion_lon": 0.0, "bike_id": "792c66f350b03470f8a79cff12f33c38"}, {"lat": 38.9892445, "is_disabled": 0, "rental_uris": {"android": "https://dc.lft.to/lastmile_qr_scan", "ios": "https://dc.lft.to/lastmile_qr_scan"}, "type": "electric_bike", "is_reserved": 0, "name": "fd65a9cfc6d4993b867841d29fc8811f", "lon": -77.10112083333334, "fusion_lat": 0.0, "fusion_lon": 0.0, "bike_id": "fd65a9cfc6d4993b867841d29fc8811f"}, {"lat": 38.89562183333334, "is_disabled": 0, "rental_uris": {"android": "https://dc.lft.to/lastmile_qr_scan", "ios": "https://dc.lft.to/lastmile_qr_scan"}, "type": "electric_scooter", "is_reserved": 0, "name": "1df69ff6f5b6ca139075cf297a900158", "lon": -77.04678833333334, "fusion_lat": 0.0, "fusion_lon": 0.0, "bike_id": "1df69ff6f5b6ca139075cf297a900158"}, {"lat": 38.89376133333333, "is_disabled": 0, "rental_uris": {"android": "https://dc.lft.to/lastmile_qr_scan", "ios": "https://dc.lft.to/lastmile_qr_scan"}, "type": "electric_scooter", "is_reserved": 0, "name": "6f324414fe062d305a343b5adae9c41a", "lon": -77.028117, "fusion_lat": 0.0, "fusion_lon": 0.0, "bike_id": "6f324414fe062d305a343b5adae9c41a"}, {"lat": 38.93430216666667, "is_disabled": 0, "rental_uris": {"android": "https://dc.lft.to/lastmile_qr_scan", "ios": "https://dc.lft.to/lastmile_qr_scan"}, "type": "electric_scooter", "is_reserved": 0, "name": "e132007c27c733b45564d57876c3d7e8", "lon": -77.034486, "fusion_lat": 0.0, "fusion_lon": 0.0, "bike_id": "e132007c27c733b45564d57876c3d7e8"}, {"lat": 38.903517, "is_disabled": 0, "rental_uris": {"android": "https://dc.lft.to/lastmile_qr_scan", "ios": "https://dc.lft.to/lastmile_qr_scan"}, "type": "electric_scooter", "is_reserved": 0, "name": "0c3de63a321021118e5c2b2b46fd513c", "lon": -77.0195095, "fusion_lat": 0.0, "fusion_lon": 0.0, "bike_id": "0c3de63a321021118e5c2b2b46fd513c"}, {"lat": 38.922645333333335, "is_disabled": 0, "rental_uris": {"android": "https://dc.lft.to/lastmile_qr_scan", "ios": "https://dc.lft.to/lastmile_qr_scan"}, "type": "electric_scooter", "is_reserved": 0, "name": "aee4cdf80f15e12b5d2c7b87f2598b37", "lon": -77.0368195, "fusion_lat": 0.0, "fusion_lon": 0.0, "bike_id": "aee4cdf80f15e12b5d2c7b87f2598b37"}, {"lat": 38.92489716666667, "is_disabled": 0, "rental_uris": {"android": "https://dc.lft.to/lastmile_qr_scan", "ios": "https://dc.lft.to/lastmile_qr_scan"}, "type": "electric_scooter", "is_reserved": 0, "name": "dc706bf0aac787cef5671bfdfe3e754f", "lon": -77.02158083333333, "fusion_lat": 0.0, "fusion_lon": 0.0, "bike_id": "dc706bf0aac787cef5671bfdfe3e754f"}, {"lat": 38.89612316666667, "is_disabled": 0, "rental_uris": {"android": "https://dc.lft.to/lastmile_qr_scan", "ios": "https://dc.lft.to/lastmile_qr_scan"}, "type": "electric_scooter", "is_reserved": 0, "name": "71e234c1aba7c63ee0fe80ebe066398d", "lon": -77.03187633333333, "fusion_lat": 0.0, "fusion_lon": 0.0, "bike_id": "71e234c1aba7c63ee0fe80ebe066398d"}, {"lat": 38.912974166666665, "is_disabled": 0, "rental_uris": {"android": "https://dc.lft.to/lastmile_qr_scan", "ios": "https://dc.lft.to/lastmile_qr_scan"}, "type": "electric_scooter", "is_reserved": 0, "name": "ad2a9d6105ab67d863ad87c0f4fdbe13", "lon": -77.0451575, "fusion_lat": 0.0, "fusion_lon": 0.0, "bike_id": "ad2a9d6105ab67d863ad87c0f4fdbe13"}, {"lat": 38.944182833333336, "is_disabled": 0, "rental_uris": {"android": "https://dc.lft.to/lastmile_qr_scan", "ios": "https://dc.lft.to/lastmile_qr_scan"}, "type": "electric_scooter", "is_reserved": 0, "name": "6d1a9336dfbbf776a3de0e9394b3bc92", "lon": -77.055178, "fusion_lat": 0.0, "fusion_lon": 0.0, "bike_id": "6d1a9336dfbbf776a3de0e9394b3bc92"}, {"lat": 38.975192166666666, "is_disabled": 0, "rental_uris": {"android": "https://dc.lft.to/lastmile_qr_scan", "ios": "https://dc.lft.to/lastmile_qr_scan"}, "type": "electric_scooter", "is_reserved": 0, "name": "3b1a7cbd843391648986a7e515117a19", "lon": -77.01692383333334, "fusion_lat": 0.0, "fusion_lon": 0.0, "bike_id": "3b1a7cbd843391648986a7e515117a19"}, {"lat": 38.886116, "is_disabled": 0, "rental_uris": {"android": "https://dc.lft.to/lastmile_qr_scan", "ios": "https://dc.lft.to/lastmile_qr_scan"}, "type": "electric_scooter", "is_reserved": 0, "name": "3d8a68a4351d97953c9e102a138ff25b", "lon": -77.0028395, "fusion_lat": 0.0, "fusion_lon": 0.0, "bike_id": "3d8a68a4351d97953c9e102a138ff25b"}, {"lat": 38.901937333333336, "is_disabled": 0, "rental_uris": {"android": "https://dc.lft.to/lastmile_qr_scan", "ios": "https://dc.lft.to/lastmile_qr_scan"}, "type": "electric_scooter", "is_reserved": 0, "name": "c8f6b0192d801c9bba67a5f508f66407", "lon": -77.0590115, "fusion_lat": 0.0, "fusion_lon": 0.0, "bike_id": "c8f6b0192d801c9bba67a5f508f66407"}, {"lat": 38.90564066666666, "is_disabled": 0, "rental_uris": {"android": "https://dc.lft.to/lastmile_qr_scan", "ios": "https://dc.lft.to/lastmile_qr_scan"}, "type": "electric_scooter", "is_reserved": 0, "name": "07e3744465b2773f412564daea49b4b1", "lon": -77.01569116666667, "fusion_lat": 0.0, "fusion_lon": 0.0, "bike_id": "07e3744465b2773f412564daea49b4b1"}, {"lat": 38.90057816666667, "is_disabled": 0, "rental_uris": {"android": "https://dc.lft.to/lastmile_qr_scan", "ios": "https://dc.lft.to/lastmile_qr_scan"}, "type": "electric_scooter", "is_reserved": 0, "name": "6963460390ab9a85a9648769301b8b38", "lon": -77.031803, "fusion_lat": 0.0, "fusion_lon": 0.0, "bike_id": "6963460390ab9a85a9648769301b8b38"}, {"lat": 39.0848835, "is_disabled": 0, "rental_uris": {"android": "https://dc.lft.to/lastmile_qr_scan", "ios": "https://dc.lft.to/lastmile_qr_scan"}, "type": "electric_bike", "is_reserved": 0, "name": "1f18b64dcd3b2108fa7d6e6895b7ab7e", "lon": -76.95053383333334, "fusion_lat": 0.0, "fusion_lon": 0.0, "bike_id": "1f18b64dcd3b2108fa7d6e6895b7ab7e"}, {"lat": 38.933513833333336, "is_disabled": 0, "rental_uris": {"android": "https://dc.lft.to/lastmile_qr_scan", "ios": "https://dc.lft.to/lastmile_qr_scan"}, "type": "electric_scooter", "is_reserved": 0, "name": "70e4ee4d2959d33cb112deec9f0d431f", "lon": -77.08580616666667, "fusion_lat": 0.0, "fusion_lon": 0.0, "bike_id": "70e4ee4d2959d33cb112deec9f0d431f"}, {"lat": 38.90309583333333, "is_disabled": 0, "rental_uris": {"android": "https://dc.lft.to/lastmile_qr_scan", "ios": "https://dc.lft.to/lastmile_qr_scan"}, "type": "electric_scooter", "is_reserved": 0, "name": "143012f20d17156d8f8529b612f32d59", "lon": -77.05051266666666, "fusion_lat": 0.0, "fusion_lon": 0.0, "bike_id": "143012f20d17156d8f8529b612f32d59"}, {"lat": 38.90442516666667, "is_disabled": 0, "rental_uris": {"android": "https://dc.lft.to/lastmile_qr_scan", "ios": "https://dc.lft.to/lastmile_qr_scan"}, "type": "electric_scooter", "is_reserved": 0, "name": "79931b598b0709f31f829583b2566601", "lon": -77.05316766666667, "fusion_lat": 0.0, "fusion_lon": 0.0, "bike_id": "79931b598b0709f31f829583b2566601"}, {"lat": 38.928899666666666, "is_disabled": 0, "rental_uris": {"android": "https://dc.lft.to/lastmile_qr_scan", "ios": "https://dc.lft.to/lastmile_qr_scan"}, "type": "electric_scooter", "is_reserved": 0, "name": "3ebced43d65cb945eb4d502509cc65c5", "lon": -77.03469716666666, "fusion_lat": 0.0, "fusion_lon": 0.0, "bike_id": "3ebced43d65cb945eb4d502509cc65c5"}, {"lat": 38.8990255, "is_disabled": 0, "rental_uris": {"android": "https://dc.lft.to/lastmile_qr_scan", "ios": "https://dc.lft.to/lastmile_qr_scan"}, "type": "electric_scooter", "is_reserved": 0, "name": "a8050bcab41182e62321956944b20caf", "lon": -76.933886, "fusion_lat": 0.0, "fusion_lon": 0.0, "bike_id": "a8050bcab41182e62321956944b20caf"}, {"lat": 38.928230666666664, "is_disabled": 0, "rental_uris": {"android": "https://dc.lft.to/lastmile_qr_scan", "ios": "https://dc.lft.to/lastmile_qr_scan"}, "type": "electric_scooter", "is_reserved": 0, "name": "637860cbabd0096d836476b7b59bd990", "lon": -77.02278816666667, "fusion_lat": 0.0, "fusion_lon": 0.0, "bike_id": "637860cbabd0096d836476b7b59bd990"}, {"lat": 38.857818, "is_disabled": 0, "rental_uris": {"android": "https://dc.lft.to/lastmile_qr_scan", "ios": "https://dc.lft.to/lastmile_qr_scan"}, "type": "electric_bike", "is_reserved": 0, "name": "4983e95c181d80da20370327984b2846", "lon": -76.98758633333334, "fusion_lat": 0.0, "fusion_lon": 0.0, "bike_id": "4983e95c181d80da20370327984b2846"}, {"lat": 38.939686, "is_disabled": 0, "rental_uris": {"android": "https://dc.lft.to/lastmile_qr_scan", "ios": "https://dc.lft.to/lastmile_qr_scan"}, "type": "electric_bike", "is_reserved": 0, "name": "4e5c9f6f28b9470912c6bb28e6243332", "lon": -76.98619216666667, "fusion_lat": 0.0, "fusion_lon": 0.0, "bike_id": "4e5c9f6f28b9470912c6bb28e6243332"}, {"lat": 38.920671166666665, "is_disabled": 0, "rental_uris": {"android": "https://dc.lft.to/lastmile_qr_scan", "ios": "https://dc.lft.to/lastmile_qr_scan"}, "type": "electric_scooter", "is_reserved": 0, "name": "cdb89378b933b3ab4bac0e305be8197a", "lon": -77.02538833333334, "fusion_lat": 0.0, "fusion_lon": 0.0, "bike_id": "cdb89378b933b3ab4bac0e305be8197a"}, {"lat": 38.867220333333336, "is_disabled": 0, "rental_uris": {"android": "https://dc.lft.to/lastmile_qr_scan", "ios": "https://dc.lft.to/lastmile_qr_scan"}, "type": "electric_scooter", "is_reserved": 0, "name": "439066c0796bc6076108d2e97d650037", "lon": -77.01017133333333, "fusion_lat": 0.0, "fusion_lon": 0.0, "bike_id": "439066c0796bc6076108d2e97d650037"}, {"lat": 38.8706835, "is_disabled": 0, "rental_uris": {"android": "https://dc.lft.to/lastmile_qr_scan", "ios": "https://dc.lft.to/lastmile_qr_scan"}, "type": "electric_scooter", "is_reserved": 0, "name": "d90f0c6806fdfdd6fde5f24997973bae", "lon": -76.980018, "fusion_lat": 0.0, "fusion_lon": 0.0, "bike_id": "d90f0c6806fdfdd6fde5f24997973bae"}, {"lat": 38.902632, "is_disabled": 0, "rental_uris": {"android": "https://dc.lft.to/lastmile_qr_scan", "ios": "https://dc.lft.to/lastmile_qr_scan"}, "type": "electric_scooter", "is_reserved": 0, "name": "98fac0767bf7aa21a13eacea20b81d4c", "lon": -77.039534, "fusion_lat": 0.0, "fusion_lon": 0.0, "bike_id": "98fac0767bf7aa21a13eacea20b81d4c"}, {"lat": 38.824271333333336, "is_disabled": 0, "rental_uris": {"android": "https://dc.lft.to/lastmile_qr_scan", "ios": "https://dc.lft.to/lastmile_qr_scan"}, "type": "electric_bike", "is_reserved": 0, "name": "5b90092060bb01b03e2c792f289e1387", "lon": -77.12045083333334, "fusion_lat": 0.0, "fusion_lon": 0.0, "bike_id": "5b90092060bb01b03e2c792f289e1387"}, {"lat": 38.9025945, "is_disabled": 0, "rental_uris": {"android": "https://dc.lft.to/lastmile_qr_scan", "ios": "https://dc.lft.to/lastmile_qr_scan"}, "type": "electric_scooter", "is_reserved": 0, "name": "be0523431b8aa8baf5c8fe8f517b1b1f", "lon": -77.0173225, "fusion_lat": 0.0, "fusion_lon": 0.0, "bike_id": "be0523431b8aa8baf5c8fe8f517b1b1f"}, {"lat": 38.891308, "is_disabled": 0, "rental_uris": {"android": "https://dc.lft.to/lastmile_qr_scan", "ios": "https://dc.lft.to/lastmile_qr_scan"}, "type": "electric_bike", "is_reserved": 0, "name": "2dc1506006b995073d4799ed213f6512", "lon": -76.94055083333333, "fusion_lat": 0.0, "fusion_lon": 0.0, "bike_id": "2dc1506006b995073d4799ed213f6512"}, {"lat": 38.93855633333333, "is_disabled": 0, "rental_uris": {"android": "https://dc.lft.to/lastmile_qr_scan", "ios": "https://dc.lft.to/lastmile_qr_scan"}, "type": "electric_scooter", "is_reserved": 0, "name": "d563b2eb9d524d66f1dd584700672df9", "lon": -76.994363, "fusion_lat": 0.0, "fusion_lon": 0.0, "bike_id": "d563b2eb9d524d66f1dd584700672df9"}, {"lat": 38.932015166666666, "is_disabled": 0, "rental_uris": {"android": "https://dc.lft.to/lastmile_qr_scan", "ios": "https://dc.lft.to/lastmile_qr_scan"}, "type": "electric_scooter", "is_reserved": 0, "name": "62717d81eaa1be8137301576dcc11ae8", "lon": -77.03748016666667, "fusion_lat": 0.0, "fusion_lon": 0.0, "bike_id": "62717d81eaa1be8137301576dcc11ae8"}, {"lat": 38.896296, "is_disabled": 0, "rental_uris": {"android": "https://dc.lft.to/lastmile_qr_scan", "ios": "https://dc.lft.to/lastmile_qr_scan"}, "type": "electric_scooter", "is_reserved": 0, "name": "f6604e5cc1ef882f3158dd013bd38f48", "lon": -77.03215283333333, "fusion_lat": 0.0, "fusion_lon": 0.0, "bike_id": "f6604e5cc1ef882f3158dd013bd38f48"}, {"lat": 38.89231366666667, "is_disabled": 0, "rental_uris": {"android": "https://dc.lft.to/lastmile_qr_scan", "ios": "https://dc.lft.to/lastmile_qr_scan"}, "type": "electric_scooter", "is_reserved": 0, "name": "90ff0470cae131e696436c7a6ce74c98", "lon": -77.03208083333334, "fusion_lat": 0.0, "fusion_lon": 0.0, "bike_id": "90ff0470cae131e696436c7a6ce74c98"}, {"lat": 38.92329066666667, "is_disabled": 0, "rental_uris": {"android": "https://dc.lft.to/lastmile_qr_scan", "ios": "https://dc.lft.to/lastmile_qr_scan"}, "type": "electric_scooter", "is_reserved": 0, "name": "aa9a66b73acbea1708de3c1894efe4ee", "lon": -77.0568495, "fusion_lat": 0.0, "fusion_lon": 0.0, "bike_id": "aa9a66b73acbea1708de3c1894efe4ee"}, {"lat": 38.919172833333334, "is_disabled": 0, "rental_uris": {"android": "https://dc.lft.to/lastmile_qr_scan", "ios": "https://dc.lft.to/lastmile_qr_scan"}, "type": "electric_scooter", "is_reserved": 0, "name": "bc837e528f6e04fd009fdabb00df52f1", "lon": -77.02492566666666, "fusion_lat": 0.0, "fusion_lon": 0.0, "bike_id": "bc837e528f6e04fd009fdabb00df52f1"}, {"lat": 38.9247975, "is_disabled": 0, "rental_uris": {"android": "https://dc.lft.to/lastmile_qr_scan", "ios": "https://dc.lft.to/lastmile_qr_scan"}, "type": "electric_scooter", "is_reserved": 0, "name": "5957955ad8ca036a43fc2302620e62bf", "lon": -77.0382475, "fusion_lat": 0.0, "fusion_lon": 0.0, "bike_id": "5957955ad8ca036a43fc2302620e62bf"}, {"lat": 38.88101266666666, "is_disabled": 0, "rental_uris": {"android": "https://dc.lft.to/lastmile_qr_scan", "ios": "https://dc.lft.to/lastmile_qr_scan"}, "type": "electric_scooter", "is_reserved": 0, "name": "5c17eed32e36576524abfd472a9cb5b2", "lon": -77.026142, "fusion_lat": 0.0, "fusion_lon": 0.0, "bike_id": "5c17eed32e36576524abfd472a9cb5b2"}, {"lat": 38.89211133333333, "is_disabled": 0, "rental_uris": {"android": "https://dc.lft.to/lastmile_qr_scan", "ios": "https://dc.lft.to/lastmile_qr_scan"}, "type": "electric_scooter", "is_reserved": 0, "name": "3f7427cf304a504a8e0718dfc3ac1ef8", "lon": -77.00349133333333, "fusion_lat": 0.0, "fusion_lon": 0.0, "bike_id": "3f7427cf304a504a8e0718dfc3ac1ef8"}, {"lat": 38.9233415, "is_disabled": 0, "rental_uris": {"android": "https://dc.lft.to/lastmile_qr_scan", "ios": "https://dc.lft.to/lastmile_qr_scan"}, "type": "electric_scooter", "is_reserved": 0, "name": "7f5d44d43dcb0eb83687d1bc3cb91c9b", "lon": -77.05676916666667, "fusion_lat": 0.0, "fusion_lon": 0.0, "bike_id": "7f5d44d43dcb0eb83687d1bc3cb91c9b"}, {"lat": 38.9161085, "is_disabled": 0, "rental_uris": {"android": "https://dc.lft.to/lastmile_qr_scan", "ios": "https://dc.lft.to/lastmile_qr_scan"}, "type": "electric_scooter", "is_reserved": 0, "name": "b89cbed0cbf9656a7ab9f0cb0f252d02", "lon": -77.04858066666667, "fusion_lat": 0.0, "fusion_lon": 0.0, "bike_id": "b89cbed0cbf9656a7ab9f0cb0f252d02"}, {"lat": 38.9135975, "is_disabled": 0, "rental_uris": {"android": "https://dc.lft.to/lastmile_qr_scan", "ios": "https://dc.lft.to/lastmile_qr_scan"}, "type": "electric_scooter", "is_reserved": 0, "name": "fa32c97280f8dc42db0db49d31bce7e5", "lon": -77.03354416666667, "fusion_lat": 0.0, "fusion_lon": 0.0, "bike_id": "fa32c97280f8dc42db0db49d31bce7e5"}, {"lat": 38.929460666666664, "is_disabled": 0, "rental_uris": {"android": "https://dc.lft.to/lastmile_qr_scan", "ios": "https://dc.lft.to/lastmile_qr_scan"}, "type": "electric_scooter", "is_reserved": 0, "name": "aa9f9815fefa9557e70eae207bd36f23", "lon": -77.03241483333333, "fusion_lat": 0.0, "fusion_lon": 0.0, "bike_id": "aa9f9815fefa9557e70eae207bd36f23"}, {"lat": 38.9151005, "is_disabled": 0, "rental_uris": {"android": "https://dc.lft.to/lastmile_qr_scan", "ios": "https://dc.lft.to/lastmile_qr_scan"}, "type": "electric_scooter", "is_reserved": 0, "name": "f0cae9081c3fd8dc647038c376a005f3", "lon": -77.04510766666667, "fusion_lat": 0.0, "fusion_lon": 0.0, "bike_id": "f0cae9081c3fd8dc647038c376a005f3"}, {"lat": 38.8996655, "is_disabled": 0, "rental_uris": {"android": "https://dc.lft.to/lastmile_qr_scan", "ios": "https://dc.lft.to/lastmile_qr_scan"}, "type": "electric_scooter", "is_reserved": 0, "name": "619bb39bb6d4520f419523dfa8d80921", "lon": -77.0466055, "fusion_lat": 0.0, "fusion_lon": 0.0, "bike_id": "619bb39bb6d4520f419523dfa8d80921"}, {"lat": 38.892552, "is_disabled": 0, "rental_uris": {"android": "https://dc.lft.to/lastmile_qr_scan", "ios": "https://dc.lft.to/lastmile_qr_scan"}, "type": "electric_scooter", "is_reserved": 0, "name": "17a469d49bcf826a65ceafd9529463da", "lon": -77.05025716666667, "fusion_lat": 0.0, "fusion_lon": 0.0, "bike_id": "17a469d49bcf826a65ceafd9529463da"}, {"lat": 38.952990166666666, "is_disabled": 0, "rental_uris": {"android": "https://dc.lft.to/lastmile_qr_scan", "ios": "https://dc.lft.to/lastmile_qr_scan"}, "type": "electric_scooter", "is_reserved": 0, "name": "f4ed2f695a2ad39c6e0d206b2602c5b7", "lon": -77.0277845, "fusion_lat": 0.0, "fusion_lon": 0.0, "bike_id": "f4ed2f695a2ad39c6e0d206b2602c5b7"}, {"lat": 38.92495016666667, "is_disabled": 0, "rental_uris": {"android": "https://dc.lft.to/lastmile_qr_scan", "ios": "https://dc.lft.to/lastmile_qr_scan"}, "type": "electric_scooter", "is_reserved": 0, "name": "68b016692a0fa416d2f8bae226136dd1", "lon": -77.03903733333334, "fusion_lat": 0.0, "fusion_lon": 0.0, "bike_id": "68b016692a0fa416d2f8bae226136dd1"}, {"lat": 38.895983666666666, "is_disabled": 0, "rental_uris": {"android": "https://dc.lft.to/lastmile_qr_scan", "ios": "https://dc.lft.to/lastmile_qr_scan"}, "type": "electric_bike", "is_reserved": 0, "name": "5efee3fa5ffadf9dd5cc878b0fc1b136", "lon": -76.96788116666667, "fusion_lat": 0.0, "fusion_lon": 0.0, "bike_id": "5efee3fa5ffadf9dd5cc878b0fc1b136"}, {"lat": 38.89767616666666, "is_disabled": 0, "rental_uris": {"android": "https://dc.lft.to/lastmile_qr_scan", "ios": "https://dc.lft.to/lastmile_qr_scan"}, "type": "electric_scooter", "is_reserved": 0, "name": "527aa4dc1cd8c91aae0515c879787e5c", "lon": -77.01221983333333, "fusion_lat": 0.0, "fusion_lon": 0.0, "bike_id": "527aa4dc1cd8c91aae0515c879787e5c"}, {"lat": 38.897366833333336, "is_disabled": 0, "rental_uris": {"android": "https://dc.lft.to/lastmile_qr_scan", "ios": "https://dc.lft.to/lastmile_qr_scan"}, "type": "electric_scooter", "is_reserved": 0, "name": "76fb49b28842ab3c901db356555eb0a7", "lon": -77.03006, "fusion_lat": 0.0, "fusion_lon": 0.0, "bike_id": "76fb49b28842ab3c901db356555eb0a7"}, {"lat": 38.93014866666667, "is_disabled": 0, "rental_uris": {"android": "https://dc.lft.to/lastmile_qr_scan", "ios": "https://dc.lft.to/lastmile_qr_scan"}, "type": "electric_scooter", "is_reserved": 0, "name": "6f73862a772ba456a15409f70c5bfea5", "lon": -77.02342166666666, "fusion_lat": 0.0, "fusion_lon": 0.0, "bike_id": "6f73862a772ba456a15409f70c5bfea5"}, {"lat": 38.92976133333333, "is_disabled": 0, "rental_uris": {"android": "https://dc.lft.to/lastmile_qr_scan", "ios": "https://dc.lft.to/lastmile_qr_scan"}, "type": "electric_scooter", "is_reserved": 0, "name": "32b56fa380d31cf4f85f68f21bd14cde", "lon": -77.03269066666667, "fusion_lat": 0.0, "fusion_lon": 0.0, "bike_id": "32b56fa380d31cf4f85f68f21bd14cde"}, {"lat": 38.8961165, "is_disabled": 0, "rental_uris": {"android": "https://dc.lft.to/lastmile_qr_scan", "ios": "https://dc.lft.to/lastmile_qr_scan"}, "type": "electric_scooter", "is_reserved": 0, "name": "3710f7001d43ce6196c09f289cdbf187", "lon": -77.03042033333334, "fusion_lat": 0.0, "fusion_lon": 0.0, "bike_id": "3710f7001d43ce6196c09f289cdbf187"}, {"lat": 38.90496266666667, "is_disabled": 0, "rental_uris": {"android": "https://dc.lft.to/lastmile_qr_scan", "ios": "https://dc.lft.to/lastmile_qr_scan"}, "type": "electric_scooter", "is_reserved": 0, "name": "d696ad09b5ddfd308eaf8d90d0490696", "lon": -77.0434995, "fusion_lat": 0.0, "fusion_lon": 0.0, "bike_id": "d696ad09b5ddfd308eaf8d90d0490696"}, {"lat": 38.92060266666667, "is_disabled": 0, "rental_uris": {"android": "https://dc.lft.to/lastmile_qr_scan", "ios": "https://dc.lft.to/lastmile_qr_scan"}, "type": "electric_scooter", "is_reserved": 0, "name": "bf9f61bf86efcf3a815b0b29b8215450", "lon": -77.02084166666667, "fusion_lat": 0.0, "fusion_lon": 0.0, "bike_id": "bf9f61bf86efcf3a815b0b29b8215450"}, {"lat": 38.89201583333333, "is_disabled": 0, "rental_uris": {"android": "https://dc.lft.to/lastmile_qr_scan", "ios": "https://dc.lft.to/lastmile_qr_scan"}, "type": "electric_scooter", "is_reserved": 0, "name": "353ab9558da9a6447fa441810b08016e", "lon": -77.0029405, "fusion_lat": 0.0, "fusion_lon": 0.0, "bike_id": "353ab9558da9a6447fa441810b08016e"}, {"lat": 38.9027275, "is_disabled": 0, "rental_uris": {"android": "https://dc.lft.to/lastmile_qr_scan", "ios": "https://dc.lft.to/lastmile_qr_scan"}, "type": "electric_scooter", "is_reserved": 0, "name": "f1dca680bbc1a1486218caf6d9d40039", "lon": -77.033347, "fusion_lat": 0.0, "fusion_lon": 0.0, "bike_id": "f1dca680bbc1a1486218caf6d9d40039"}, {"lat": 38.94177783333333, "is_disabled": 0, "rental_uris": {"android": "https://dc.lft.to/lastmile_qr_scan", "ios": "https://dc.lft.to/lastmile_qr_scan"}, "type": "electric_scooter", "is_reserved": 0, "name": "684694beb28533f46d98977ed501a80e", "lon": -77.03653633333333, "fusion_lat": 0.0, "fusion_lon": 0.0, "bike_id": "684694beb28533f46d98977ed501a80e"}, {"lat": 38.94112533333333, "is_disabled": 0, "rental_uris": {"android": "https://dc.lft.to/lastmile_qr_scan", "ios": "https://dc.lft.to/lastmile_qr_scan"}, "type": "electric_scooter", "is_reserved": 0, "name": "30755286329e809b6b9d996d6962f5a8", "lon": -77.061388, "fusion_lat": 0.0, "fusion_lon": 0.0, "bike_id": "30755286329e809b6b9d996d6962f5a8"}, {"lat": 38.9201485, "is_disabled": 0, "rental_uris": {"android": "https://dc.lft.to/lastmile_qr_scan", "ios": "https://dc.lft.to/lastmile_qr_scan"}, "type": "electric_scooter", "is_reserved": 0, "name": "0a76dab2ba7b13a500f4b5e877e72ec9", "lon": -77.03782283333334, "fusion_lat": 0.0, "fusion_lon": 0.0, "bike_id": "0a76dab2ba7b13a500f4b5e877e72ec9"}, {"lat": 38.908953833333335, "is_disabled": 0, "rental_uris": {"android": "https://dc.lft.to/lastmile_qr_scan", "ios": "https://dc.lft.to/lastmile_qr_scan"}, "type": "electric_scooter", "is_reserved": 0, "name": "a34e2ce621c38526bec375572f126cc6", "lon": -77.07272133333333, "fusion_lat": 0.0, "fusion_lon": 0.0, "bike_id": "a34e2ce621c38526bec375572f126cc6"}, {"lat": 38.927913, "is_disabled": 0, "rental_uris": {"android": "https://dc.lft.to/lastmile_qr_scan", "ios": "https://dc.lft.to/lastmile_qr_scan"}, "type": "electric_scooter", "is_reserved": 0, "name": "debb864de506dcc83ceeac3a20a88588", "lon": -77.03080166666666, "fusion_lat": 0.0, "fusion_lon": 0.0, "bike_id": "debb864de506dcc83ceeac3a20a88588"}, {"lat": 38.91567116666667, "is_disabled": 0, "rental_uris": {"android": "https://dc.lft.to/lastmile_qr_scan", "ios": "https://dc.lft.to/lastmile_qr_scan"}, "type": "electric_scooter", "is_reserved": 0, "name": "a9541011ca8fbc9e1437950ffadc69e2", "lon": -77.00723833333333, "fusion_lat": 0.0, "fusion_lon": 0.0, "bike_id": "a9541011ca8fbc9e1437950ffadc69e2"}, {"lat": 38.924958333333336, "is_disabled": 0, "rental_uris": {"android": "https://dc.lft.to/lastmile_qr_scan", "ios": "https://dc.lft.to/lastmile_qr_scan"}, "type": "electric_scooter", "is_reserved": 0, "name": "5d11f08c96c8ab7b9fd2c1ee393177e5", "lon": -77.04132933333334, "fusion_lat": 0.0, "fusion_lon": 0.0, "bike_id": "5d11f08c96c8ab7b9fd2c1ee393177e5"}, {"lat": 38.905966666666664, "is_disabled": 0, "rental_uris": {"android": "https://dc.lft.to/lastmile_qr_scan", "ios": "https://dc.lft.to/lastmile_qr_scan"}, "type": "electric_scooter", "is_reserved": 0, "name": "58b68917de78c9bc6648bcbb9c6dd196", "lon": -77.04006666666666, "fusion_lat": 0.0, "fusion_lon": 0.0, "bike_id": "58b68917de78c9bc6648bcbb9c6dd196"}, {"lat": 38.903801333333334, "is_disabled": 0, "rental_uris": {"android": "https://dc.lft.to/lastmile_qr_scan", "ios": "https://dc.lft.to/lastmile_qr_scan"}, "type": "electric_scooter", "is_reserved": 0, "name": "d060fc3ebe90bf554c659758f26d9d7d", "lon": -77.04194383333333, "fusion_lat": 0.0, "fusion_lon": 0.0, "bike_id": "d060fc3ebe90bf554c659758f26d9d7d"}, {"lat": 38.8749725, "is_disabled": 0, "rental_uris": {"android": "https://dc.lft.to/lastmile_qr_scan", "ios": "https://dc.lft.to/lastmile_qr_scan"}, "type": "electric_scooter", "is_reserved": 0, "name": "2bc581abb078a2614e38c27521274804", "lon": -76.99791533333334, "fusion_lat": 0.0, "fusion_lon": 0.0, "bike_id": "2bc581abb078a2614e38c27521274804"}, {"lat": 38.903851833333334, "is_disabled": 0, "rental_uris": {"android": "https://dc.lft.to/lastmile_qr_scan", "ios": "https://dc.lft.to/lastmile_qr_scan"}, "type": "electric_scooter", "is_reserved": 0, "name": "093edcc0c9afa34b2287d93de1fe6f91", "lon": -77.03574416666666, "fusion_lat": 0.0, "fusion_lon": 0.0, "bike_id": "093edcc0c9afa34b2287d93de1fe6f91"}, {"lat": 38.964088333333336, "is_disabled": 0, "rental_uris": {"android": "https://dc.lft.to/lastmile_qr_scan", "ios": "https://dc.lft.to/lastmile_qr_scan"}, "type": "electric_scooter", "is_reserved": 0, "name": "e6da6b8aa263da798d40619e47ffc2df", "lon": -77.03292566666667, "fusion_lat": 0.0, "fusion_lon": 0.0, "bike_id": "e6da6b8aa263da798d40619e47ffc2df"}, {"lat": 38.8949205, "is_disabled": 0, "rental_uris": {"android": "https://dc.lft.to/lastmile_qr_scan", "ios": "https://dc.lft.to/lastmile_qr_scan"}, "type": "electric_scooter", "is_reserved": 0, "name": "ce8323d28aac65666686d0f0e598d3c3", "lon": -77.02301533333333, "fusion_lat": 0.0, "fusion_lon": 0.0, "bike_id": "ce8323d28aac65666686d0f0e598d3c3"}, {"lat": 38.9239435, "is_disabled": 0, "rental_uris": {"android": "https://dc.lft.to/lastmile_qr_scan", "ios": "https://dc.lft.to/lastmile_qr_scan"}, "type": "electric_scooter", "is_reserved": 0, "name": "3636aed60f1a161d5c17c4bb2e5dd33c", "lon": -77.0340935, "fusion_lat": 0.0, "fusion_lon": 0.0, "bike_id": "3636aed60f1a161d5c17c4bb2e5dd33c"}, {"lat": 38.902484, "is_disabled": 0, "rental_uris": {"android": "https://dc.lft.to/lastmile_qr_scan", "ios": "https://dc.lft.to/lastmile_qr_scan"}, "type": "electric_scooter", "is_reserved": 0, "name": "660beec15c0c536155ce4409b871a799", "lon": -77.030297, "fusion_lat": 0.0, "fusion_lon": 0.0, "bike_id": "660beec15c0c536155ce4409b871a799"}, {"lat": 38.93254116666667, "is_disabled": 0, "rental_uris": {"android": "https://dc.lft.to/lastmile_qr_scan", "ios": "https://dc.lft.to/lastmile_qr_scan"}, "type": "electric_scooter", "is_reserved": 0, "name": "4920ca240e51ea3a7d412e37c6de41b3", "lon": -77.03844833333333, "fusion_lat": 0.0, "fusion_lon": 0.0, "bike_id": "4920ca240e51ea3a7d412e37c6de41b3"}, {"lat": 38.92059866666666, "is_disabled": 0, "rental_uris": {"android": "https://dc.lft.to/lastmile_qr_scan", "ios": "https://dc.lft.to/lastmile_qr_scan"}, "type": "electric_scooter", "is_reserved": 0, "name": "b01d479693e212317c5eb9afb24aa2ec", "lon": -77.02417766666667, "fusion_lat": 0.0, "fusion_lon": 0.0, "bike_id": "b01d479693e212317c5eb9afb24aa2ec"}, {"lat": 38.9268675, "is_disabled": 0, "rental_uris": {"android": "https://dc.lft.to/lastmile_qr_scan", "ios": "https://dc.lft.to/lastmile_qr_scan"}, "type": "electric_scooter", "is_reserved": 0, "name": "e626addd8a407b9beb55ae3a3181df45", "lon": -77.02966133333334, "fusion_lat": 0.0, "fusion_lon": 0.0, "bike_id": "e626addd8a407b9beb55ae3a3181df45"}, {"lat": 38.9282295, "is_disabled": 0, "rental_uris": {"android": "https://dc.lft.to/lastmile_qr_scan", "ios": "https://dc.lft.to/lastmile_qr_scan"}, "type": "electric_scooter", "is_reserved": 0, "name": "de822459c0a7b814e19a7e291a82bc5e", "lon": -77.02277466666666, "fusion_lat": 0.0, "fusion_lon": 0.0, "bike_id": "de822459c0a7b814e19a7e291a82bc5e"}, {"lat": 38.922639, "is_disabled": 0, "rental_uris": {"android": "https://dc.lft.to/lastmile_qr_scan", "ios": "https://dc.lft.to/lastmile_qr_scan"}, "type": "electric_scooter", "is_reserved": 0, "name": "c08a16089fa6052e66afaae13d6c2939", "lon": -77.02445033333333, "fusion_lat": 0.0, "fusion_lon": 0.0, "bike_id": "c08a16089fa6052e66afaae13d6c2939"}, {"lat": 38.87057633333333, "is_disabled": 0, "rental_uris": {"android": "https://dc.lft.to/lastmile_qr_scan", "ios": "https://dc.lft.to/lastmile_qr_scan"}, "type": "electric_bike", "is_reserved": 0, "name": "31defb2b0fb38ea30cb2c8417de34ea2", "lon": -77.11044166666667, "fusion_lat": 0.0, "fusion_lon": 0.0, "bike_id": "31defb2b0fb38ea30cb2c8417de34ea2"}, {"lat": 38.906571166666666, "is_disabled": 0, "rental_uris": {"android": "https://dc.lft.to/lastmile_qr_scan", "ios": "https://dc.lft.to/lastmile_qr_scan"}, "type": "electric_scooter", "is_reserved": 0, "name": "4e8e90fd0230d9707b6273a11182ef8f", "lon": -77.03465516666667, "fusion_lat": 0.0, "fusion_lon": 0.0, "bike_id": "4e8e90fd0230d9707b6273a11182ef8f"}, {"lat": 38.917084833333334, "is_disabled": 0, "rental_uris": {"android": "https://dc.lft.to/lastmile_qr_scan", "ios": "https://dc.lft.to/lastmile_qr_scan"}, "type": "electric_scooter", "is_reserved": 0, "name": "f5314e1fcd351430878fea839d89531b", "lon": -77.03726233333333, "fusion_lat": 0.0, "fusion_lon": 0.0, "bike_id": "f5314e1fcd351430878fea839d89531b"}, {"lat": 38.90390266666667, "is_disabled": 0, "rental_uris": {"android": "https://dc.lft.to/lastmile_qr_scan", "ios": "https://dc.lft.to/lastmile_qr_scan"}, "type": "electric_scooter", "is_reserved": 0, "name": "20480fc58ae65d1144cfa2b53f138b9c", "lon": -77.04353583333334, "fusion_lat": 0.0, "fusion_lon": 0.0, "bike_id": "20480fc58ae65d1144cfa2b53f138b9c"}, {"lat": 38.899672, "is_disabled": 0, "rental_uris": {"android": "https://dc.lft.to/lastmile_qr_scan", "ios": "https://dc.lft.to/lastmile_qr_scan"}, "type": "electric_scooter", "is_reserved": 0, "name": "b4108c06a7342c34fd05407887c7e30f", "lon": -77.00934616666666, "fusion_lat": 0.0, "fusion_lon": 0.0, "bike_id": "b4108c06a7342c34fd05407887c7e30f"}, {"lat": 38.90808, "is_disabled": 0, "rental_uris": {"android": "https://dc.lft.to/lastmile_qr_scan", "ios": "https://dc.lft.to/lastmile_qr_scan"}, "type": "electric_scooter", "is_reserved": 0, "name": "18165dc89965cde48da722f2bcbfaba0", "lon": -76.98794633333333, "fusion_lat": 0.0, "fusion_lon": 0.0, "bike_id": "18165dc89965cde48da722f2bcbfaba0"}, {"lat": 38.92347, "is_disabled": 0, "rental_uris": {"android": "https://dc.lft.to/lastmile_qr_scan", "ios": "https://dc.lft.to/lastmile_qr_scan"}, "type": "electric_scooter", "is_reserved": 0, "name": "1873199ab468520058df11aaa25dfc1a", "lon": -77.034152, "fusion_lat": 0.0, "fusion_lon": 0.0, "bike_id": "1873199ab468520058df11aaa25dfc1a"}, {"lat": 38.93891333333333, "is_disabled": 0, "rental_uris": {"android": "https://dc.lft.to/lastmile_qr_scan", "ios": "https://dc.lft.to/lastmile_qr_scan"}, "type": "electric_scooter", "is_reserved": 0, "name": "529ce85d62f16ce3cf5e68c319baba04", "lon": -77.01768016666666, "fusion_lat": 0.0, "fusion_lon": 0.0, "bike_id": "529ce85d62f16ce3cf5e68c319baba04"}, {"lat": 38.931419166666664, "is_disabled": 0, "rental_uris": {"android": "https://dc.lft.to/lastmile_qr_scan", "ios": "https://dc.lft.to/lastmile_qr_scan"}, "type": "electric_scooter", "is_reserved": 0, "name": "b755db8fd108432eae662f2075d36a09", "lon": -77.05699966666667, "fusion_lat": 0.0, "fusion_lon": 0.0, "bike_id": "b755db8fd108432eae662f2075d36a09"}, {"lat": 38.88820483333333, "is_disabled": 0, "rental_uris": {"android": "https://dc.lft.to/lastmile_qr_scan", "ios": "https://dc.lft.to/lastmile_qr_scan"}, "type": "electric_scooter", "is_reserved": 0, "name": "4675511d4c280dfc10b555be51d87978", "lon": -76.97704083333333, "fusion_lat": 0.0, "fusion_lon": 0.0, "bike_id": "4675511d4c280dfc10b555be51d87978"}, {"lat": 38.89455916666667, "is_disabled": 0, "rental_uris": {"android": "https://dc.lft.to/lastmile_qr_scan", "ios": "https://dc.lft.to/lastmile_qr_scan"}, "type": "electric_scooter", "is_reserved": 0, "name": "da0e4653922308bf2fc6fc3c3fef6bb7", "lon": -77.03163666666667, "fusion_lat": 0.0, "fusion_lon": 0.0, "bike_id": "da0e4653922308bf2fc6fc3c3fef6bb7"}, {"lat": 38.926104, "is_disabled": 0, "rental_uris": {"android": "https://dc.lft.to/lastmile_qr_scan", "ios": "https://dc.lft.to/lastmile_qr_scan"}, "type": "electric_scooter", "is_reserved": 0, "name": "ab239f32cec8a3926125f91b69c329c9", "lon": -76.9820535, "fusion_lat": 0.0, "fusion_lon": 0.0, "bike_id": "ab239f32cec8a3926125f91b69c329c9"}, {"lat": 38.94194366666667, "is_disabled": 0, "rental_uris": {"android": "https://dc.lft.to/lastmile_qr_scan", "ios": "https://dc.lft.to/lastmile_qr_scan"}, "type": "electric_scooter", "is_reserved": 0, "name": "90a7d7c542a4f32d8fcc0d6f337f5b37", "lon": -77.02481833333333, "fusion_lat": 0.0, "fusion_lon": 0.0, "bike_id": "90a7d7c542a4f32d8fcc0d6f337f5b37"}, {"lat": 38.89198483333333, "is_disabled": 0, "rental_uris": {"android": "https://dc.lft.to/lastmile_qr_scan", "ios": "https://dc.lft.to/lastmile_qr_scan"}, "type": "electric_scooter", "is_reserved": 0, "name": "cb80bc0c4ebeb7848ae4eeb78af81b19", "lon": -77.01547016666666, "fusion_lat": 0.0, "fusion_lon": 0.0, "bike_id": "cb80bc0c4ebeb7848ae4eeb78af81b19"}, {"lat": 38.92555616666667, "is_disabled": 0, "rental_uris": {"android": "https://dc.lft.to/lastmile_qr_scan", "ios": "https://dc.lft.to/lastmile_qr_scan"}, "type": "electric_scooter", "is_reserved": 0, "name": "f1fef176840d4bfa3a5aefb0657d2387", "lon": -77.0532115, "fusion_lat": 0.0, "fusion_lon": 0.0, "bike_id": "f1fef176840d4bfa3a5aefb0657d2387"}, {"lat": 38.88192983333333, "is_disabled": 0, "rental_uris": {"android": "https://dc.lft.to/lastmile_qr_scan", "ios": "https://dc.lft.to/lastmile_qr_scan"}, "type": "electric_scooter", "is_reserved": 0, "name": "a2903cfe93295b0b081776cf57eca269", "lon": -77.028525, "fusion_lat": 0.0, "fusion_lon": 0.0, "bike_id": "a2903cfe93295b0b081776cf57eca269"}, {"lat": 38.943861166666665, "is_disabled": 0, "rental_uris": {"android": "https://dc.lft.to/lastmile_qr_scan", "ios": "https://dc.lft.to/lastmile_qr_scan"}, "type": "electric_scooter", "is_reserved": 0, "name": "0ff5feab90d54d4ec79af45ccd7b3cce", "lon": -77.06892433333333, "fusion_lat": 0.0, "fusion_lon": 0.0, "bike_id": "0ff5feab90d54d4ec79af45ccd7b3cce"}, {"lat": 38.807371833333335, "is_disabled": 0, "rental_uris": {"android": "https://dc.lft.to/lastmile_qr_scan", "ios": "https://dc.lft.to/lastmile_qr_scan"}, "type": "electric_bike", "is_reserved": 0, "name": "5e4908e015f1aa7e5a306f72d0c72163", "lon": -77.0969465, "fusion_lat": 0.0, "fusion_lon": 0.0, "bike_id": "5e4908e015f1aa7e5a306f72d0c72163"}, {"lat": 38.874272166666664, "is_disabled": 0, "rental_uris": {"android": "https://dc.lft.to/lastmile_qr_scan", "ios": "https://dc.lft.to/lastmile_qr_scan"}, "type": "electric_bike", "is_reserved": 0, "name": "691c4003182ee4cbbdf92b388dfc19f4", "lon": -77.01230916666667, "fusion_lat": 0.0, "fusion_lon": 0.0, "bike_id": "691c4003182ee4cbbdf92b388dfc19f4"}, {"lat": 38.92058466666667, "is_disabled": 0, "rental_uris": {"android": "https://dc.lft.to/lastmile_qr_scan", "ios": "https://dc.lft.to/lastmile_qr_scan"}, "type": "electric_bike", "is_reserved": 0, "name": "c450ab670251283cb00aba88e82315d1", "lon": -76.97072066666667, "fusion_lat": 0.0, "fusion_lon": 0.0, "bike_id": "c450ab670251283cb00aba88e82315d1"}, {"lat": 38.8921645, "is_disabled": 0, "rental_uris": {"android": "https://dc.lft.to/lastmile_qr_scan", "ios": "https://dc.lft.to/lastmile_qr_scan"}, "type": "electric_scooter", "is_reserved": 0, "name": "c6d082278fdc3fe20e2a898295d3bcd8", "lon": -77.021657, "fusion_lat": 0.0, "fusion_lon": 0.0, "bike_id": "c6d082278fdc3fe20e2a898295d3bcd8"}, {"lat": 38.89725383333333, "is_disabled": 0, "rental_uris": {"android": "https://dc.lft.to/lastmile_qr_scan", "ios": "https://dc.lft.to/lastmile_qr_scan"}, "type": "electric_scooter", "is_reserved": 0, "name": "d21e8bad90b117ff616ba539497f6a10", "lon": -77.0435745, "fusion_lat": 0.0, "fusion_lon": 0.0, "bike_id": "d21e8bad90b117ff616ba539497f6a10"}, {"lat": 38.906514, "is_disabled": 0, "rental_uris": {"android": "https://dc.lft.to/lastmile_qr_scan", "ios": "https://dc.lft.to/lastmile_qr_scan"}, "type": "electric_scooter", "is_reserved": 0, "name": "53317cf031cf557f6da71dbc007269fe", "lon": -77.048635, "fusion_lat": 0.0, "fusion_lon": 0.0, "bike_id": "53317cf031cf557f6da71dbc007269fe"}, {"lat": 38.916940833333335, "is_disabled": 0, "rental_uris": {"android": "https://dc.lft.to/lastmile_qr_scan", "ios": "https://dc.lft.to/lastmile_qr_scan"}, "type": "electric_scooter", "is_reserved": 0, "name": "3bc398877ac28f38d80c78fd33823b2a", "lon": -77.03820666666667, "fusion_lat": 0.0, "fusion_lon": 0.0, "bike_id": "3bc398877ac28f38d80c78fd33823b2a"}, {"lat": 38.924781333333335, "is_disabled": 0, "rental_uris": {"android": "https://dc.lft.to/lastmile_qr_scan", "ios": "https://dc.lft.to/lastmile_qr_scan"}, "type": "electric_scooter", "is_reserved": 0, "name": "db1c55d4b7836dc6d4990d9406977bf3", "lon": -77.02185966666667, "fusion_lat": 0.0, "fusion_lon": 0.0, "bike_id": "db1c55d4b7836dc6d4990d9406977bf3"}, {"lat": 38.938853333333334, "is_disabled": 0, "rental_uris": {"android": "https://dc.lft.to/lastmile_qr_scan", "ios": "https://dc.lft.to/lastmile_qr_scan"}, "type": "electric_scooter", "is_reserved": 0, "name": "c4c90ab5334ed8dc47186bdbe998047a", "lon": -77.03228216666666, "fusion_lat": 0.0, "fusion_lon": 0.0, "bike_id": "c4c90ab5334ed8dc47186bdbe998047a"}, {"lat": 38.903174666666665, "is_disabled": 0, "rental_uris": {"android": "https://dc.lft.to/lastmile_qr_scan", "ios": "https://dc.lft.to/lastmile_qr_scan"}, "type": "electric_scooter", "is_reserved": 0, "name": "c185eafc80ea6027a001a01e11e0e6e9", "lon": -77.0249605, "fusion_lat": 0.0, "fusion_lon": 0.0, "bike_id": "c185eafc80ea6027a001a01e11e0e6e9"}, {"lat": 38.926551833333335, "is_disabled": 0, "rental_uris": {"android": "https://dc.lft.to/lastmile_qr_scan", "ios": "https://dc.lft.to/lastmile_qr_scan"}, "type": "electric_scooter", "is_reserved": 0, "name": "fa11b57058f5318ba95e5c460009cbd0", "lon": -77.0242105, "fusion_lat": 0.0, "fusion_lon": 0.0, "bike_id": "fa11b57058f5318ba95e5c460009cbd0"}, {"lat": 38.90029033333333, "is_disabled": 0, "rental_uris": {"android": "https://dc.lft.to/lastmile_qr_scan", "ios": "https://dc.lft.to/lastmile_qr_scan"}, "type": "electric_scooter", "is_reserved": 0, "name": "57b0e63f528638dbb41614f48763092e", "lon": -76.99904466666666, "fusion_lat": 0.0, "fusion_lon": 0.0, "bike_id": "57b0e63f528638dbb41614f48763092e"}, {"lat": 38.92472566666667, "is_disabled": 0, "rental_uris": {"android": "https://dc.lft.to/lastmile_qr_scan", "ios": "https://dc.lft.to/lastmile_qr_scan"}, "type": "electric_scooter", "is_reserved": 0, "name": "9a5b03f4f216d46131c7e2d493f668f8", "lon": -77.022683, "fusion_lat": 0.0, "fusion_lon": 0.0, "bike_id": "9a5b03f4f216d46131c7e2d493f668f8"}, {"lat": 39.04234433333333, "is_disabled": 0, "rental_uris": {"android": "https://dc.lft.to/lastmile_qr_scan", "ios": "https://dc.lft.to/lastmile_qr_scan"}, "type": "electric_bike", "is_reserved": 0, "name": "d281eff552b5c99b280b2ffd018b4d39", "lon": -76.99739, "fusion_lat": 0.0, "fusion_lon": 0.0, "bike_id": "d281eff552b5c99b280b2ffd018b4d39"}, {"lat": 38.898158333333335, "is_disabled": 0, "rental_uris": {"android": "https://dc.lft.to/lastmile_qr_scan", "ios": "https://dc.lft.to/lastmile_qr_scan"}, "type": "electric_scooter", "is_reserved": 0, "name": "ef5307f1ee2443f804ab32039b69f4d4", "lon": -77.024934, "fusion_lat": 0.0, "fusion_lon": 0.0, "bike_id": "ef5307f1ee2443f804ab32039b69f4d4"}, {"lat": 38.90904916666667, "is_disabled": 0, "rental_uris": {"android": "https://dc.lft.to/lastmile_qr_scan", "ios": "https://dc.lft.to/lastmile_qr_scan"}, "type": "electric_scooter", "is_reserved": 0, "name": "959dff4fbe396f68f6b56d768840e71e", "lon": -77.022918, "fusion_lat": 0.0, "fusion_lon": 0.0, "bike_id": "959dff4fbe396f68f6b56d768840e71e"}, {"lat": 38.97336466666667, "is_disabled": 0, "rental_uris": {"android": "https://dc.lft.to/lastmile_qr_scan", "ios": "https://dc.lft.to/lastmile_qr_scan"}, "type": "electric_bike", "is_reserved": 0, "name": "099491010d233e81c6ada859ae634e51", "lon": -76.9958325, "fusion_lat": 0.0, "fusion_lon": 0.0, "bike_id": "099491010d233e81c6ada859ae634e51"}, {"lat": 38.91343616666666, "is_disabled": 0, "rental_uris": {"android": "https://dc.lft.to/lastmile_qr_scan", "ios": "https://dc.lft.to/lastmile_qr_scan"}, "type": "electric_scooter", "is_reserved": 0, "name": "fb3a246650bd90c16f863535d0759f48", "lon": -77.02054983333333, "fusion_lat": 0.0, "fusion_lon": 0.0, "bike_id": "fb3a246650bd90c16f863535d0759f48"}, {"lat": 38.90369233333333, "is_disabled": 0, "rental_uris": {"android": "https://dc.lft.to/lastmile_qr_scan", "ios": "https://dc.lft.to/lastmile_qr_scan"}, "type": "electric_scooter", "is_reserved": 0, "name": "d77b499c87d3e4f6672aba999f510da8", "lon": -77.01927183333333, "fusion_lat": 0.0, "fusion_lon": 0.0, "bike_id": "d77b499c87d3e4f6672aba999f510da8"}, {"lat": 38.92055916666666, "is_disabled": 0, "rental_uris": {"android": "https://dc.lft.to/lastmile_qr_scan", "ios": "https://dc.lft.to/lastmile_qr_scan"}, "type": "electric_scooter", "is_reserved": 0, "name": "8164ea73b5b671236730b75b4f509543", "lon": -76.98432033333333, "fusion_lat": 0.0, "fusion_lon": 0.0, "bike_id": "8164ea73b5b671236730b75b4f509543"}, {"lat": 38.9005555, "is_disabled": 0, "rental_uris": {"android": "https://dc.lft.to/lastmile_qr_scan", "ios": "https://dc.lft.to/lastmile_qr_scan"}, "type": "electric_scooter", "is_reserved": 0, "name": "6a9e684db068591f50da12c881d34ce7", "lon": -76.98489983333333, "fusion_lat": 0.0, "fusion_lon": 0.0, "bike_id": "6a9e684db068591f50da12c881d34ce7"}, {"lat": 38.905024833333336, "is_disabled": 0, "rental_uris": {"android": "https://dc.lft.to/lastmile_qr_scan", "ios": "https://dc.lft.to/lastmile_qr_scan"}, "type": "electric_scooter", "is_reserved": 0, "name": "9269e4ceb1827583a8e2572411812956", "lon": -77.05443566666666, "fusion_lat": 0.0, "fusion_lon": 0.0, "bike_id": "9269e4ceb1827583a8e2572411812956"}, {"lat": 38.929717833333335, "is_disabled": 0, "rental_uris": {"android": "https://dc.lft.to/lastmile_qr_scan", "ios": "https://dc.lft.to/lastmile_qr_scan"}, "type": "electric_scooter", "is_reserved": 0, "name": "10af03bacaec69c74f024334bf45d1be", "lon": -77.04115816666666, "fusion_lat": 0.0, "fusion_lon": 0.0, "bike_id": "10af03bacaec69c74f024334bf45d1be"}, {"lat": 38.9132525, "is_disabled": 0, "rental_uris": {"android": "https://dc.lft.to/lastmile_qr_scan", "ios": "https://dc.lft.to/lastmile_qr_scan"}, "type": "electric_scooter", "is_reserved": 0, "name": "9a43ad8c2a7637096183ebf15618c67d", "lon": -77.04531616666667, "fusion_lat": 0.0, "fusion_lon": 0.0, "bike_id": "9a43ad8c2a7637096183ebf15618c67d"}, {"lat": 38.90039016666667, "is_disabled": 0, "rental_uris": {"android": "https://dc.lft.to/lastmile_qr_scan", "ios": "https://dc.lft.to/lastmile_qr_scan"}, "type": "electric_scooter", "is_reserved": 0, "name": "76a55729f36e78bca8570c2f17158701", "lon": -77.05005133333333, "fusion_lat": 0.0, "fusion_lon": 0.0, "bike_id": "76a55729f36e78bca8570c2f17158701"}, {"lat": 38.858813, "is_disabled": 0, "rental_uris": {"android": "https://dc.lft.to/lastmile_qr_scan", "ios": "https://dc.lft.to/lastmile_qr_scan"}, "type": "electric_scooter", "is_reserved": 0, "name": "bbc76ab53ba5c9fafce770a8608b6d0b", "lon": -76.98939766666666, "fusion_lat": 0.0, "fusion_lon": 0.0, "bike_id": "bbc76ab53ba5c9fafce770a8608b6d0b"}, {"lat": 38.921135666666665, "is_disabled": 0, "rental_uris": {"android": "https://dc.lft.to/lastmile_qr_scan", "ios": "https://dc.lft.to/lastmile_qr_scan"}, "type": "electric_scooter", "is_reserved": 0, "name": "fedbabe7bc1214911d20da834b4745cf", "lon": -77.02074166666667, "fusion_lat": 0.0, "fusion_lon": 0.0, "bike_id": "fedbabe7bc1214911d20da834b4745cf"}, {"lat": 38.901483999999996, "is_disabled": 0, "rental_uris": {"android": "https://dc.lft.to/lastmile_qr_scan", "ios": "https://dc.lft.to/lastmile_qr_scan"}, "type": "electric_scooter", "is_reserved": 0, "name": "5f669099d405f2dcfe38d7fc7e169c8e", "lon": -76.97420266666667, "fusion_lat": 0.0, "fusion_lon": 0.0, "bike_id": "5f669099d405f2dcfe38d7fc7e169c8e"}, {"lat": 38.89578733333333, "is_disabled": 0, "rental_uris": {"android": "https://dc.lft.to/lastmile_qr_scan", "ios": "https://dc.lft.to/lastmile_qr_scan"}, "type": "electric_scooter", "is_reserved": 0, "name": "a91ad2df7f074df1ec48457c626a7872", "lon": -77.04139283333333, "fusion_lat": 0.0, "fusion_lon": 0.0, "bike_id": "a91ad2df7f074df1ec48457c626a7872"}, {"lat": 38.9266005, "is_disabled": 0, "rental_uris": {"android": "https://dc.lft.to/lastmile_qr_scan", "ios": "https://dc.lft.to/lastmile_qr_scan"}, "type": "electric_scooter", "is_reserved": 0, "name": "d483bd3825fce244a62a29db08587b02", "lon": -77.02306866666666, "fusion_lat": 0.0, "fusion_lon": 0.0, "bike_id": "d483bd3825fce244a62a29db08587b02"}, {"lat": 38.920897833333335, "is_disabled": 0, "rental_uris": {"android": "https://dc.lft.to/lastmile_qr_scan", "ios": "https://dc.lft.to/lastmile_qr_scan"}, "type": "electric_scooter", "is_reserved": 0, "name": "1f9a3ccbc390e5c37d3942d32944a3d9", "lon": -77.0251755, "fusion_lat": 0.0, "fusion_lon": 0.0, "bike_id": "1f9a3ccbc390e5c37d3942d32944a3d9"}, {"lat": 38.88617883333333, "is_disabled": 0, "rental_uris": {"android": "https://dc.lft.to/lastmile_qr_scan", "ios": "https://dc.lft.to/lastmile_qr_scan"}, "type": "electric_scooter", "is_reserved": 0, "name": "c919c36433f15fe4a6858eb8270e67a1", "lon": -77.0228085, "fusion_lat": 0.0, "fusion_lon": 0.0, "bike_id": "c919c36433f15fe4a6858eb8270e67a1"}, {"lat": 38.922189833333334, "is_disabled": 0, "rental_uris": {"android": "https://dc.lft.to/lastmile_qr_scan", "ios": "https://dc.lft.to/lastmile_qr_scan"}, "type": "electric_scooter", "is_reserved": 0, "name": "97c58b3beeaa7ae925098a696c348481", "lon": -77.04251066666667, "fusion_lat": 0.0, "fusion_lon": 0.0, "bike_id": "97c58b3beeaa7ae925098a696c348481"}, {"lat": 38.918439666666664, "is_disabled": 0, "rental_uris": {"android": "https://dc.lft.to/lastmile_qr_scan", "ios": "https://dc.lft.to/lastmile_qr_scan"}, "type": "electric_scooter", "is_reserved": 0, "name": "69bfc242a2448775a54df40aa0559451", "lon": -77.04156916666666, "fusion_lat": 0.0, "fusion_lon": 0.0, "bike_id": "69bfc242a2448775a54df40aa0559451"}, {"lat": 38.90505516666666, "is_disabled": 0, "rental_uris": {"android": "https://dc.lft.to/lastmile_qr_scan", "ios": "https://dc.lft.to/lastmile_qr_scan"}, "type": "electric_scooter", "is_reserved": 0, "name": "70813e61c9027e724933b54de456483a", "lon": -77.040702, "fusion_lat": 0.0, "fusion_lon": 0.0, "bike_id": "70813e61c9027e724933b54de456483a"}, {"lat": 38.9489885, "is_disabled": 0, "rental_uris": {"android": "https://dc.lft.to/lastmile_qr_scan", "ios": "https://dc.lft.to/lastmile_qr_scan"}, "type": "electric_scooter", "is_reserved": 0, "name": "48812525f2dedf653a344d0e347f97d5", "lon": -77.033412, "fusion_lat": 0.0, "fusion_lon": 0.0, "bike_id": "48812525f2dedf653a344d0e347f97d5"}, {"lat": 38.9173965, "is_disabled": 0, "rental_uris": {"android": "https://dc.lft.to/lastmile_qr_scan", "ios": "https://dc.lft.to/lastmile_qr_scan"}, "type": "electric_scooter", "is_reserved": 0, "name": "386d03bfa4a7254045b64d7294f7c23d", "lon": -77.02116383333333, "fusion_lat": 0.0, "fusion_lon": 0.0, "bike_id": "386d03bfa4a7254045b64d7294f7c23d"}, {"lat": 38.909684166666665, "is_disabled": 0, "rental_uris": {"android": "https://dc.lft.to/lastmile_qr_scan", "ios": "https://dc.lft.to/lastmile_qr_scan"}, "type": "electric_scooter", "is_reserved": 0, "name": "c510a1cc698bf156520afaf0f883b8cc", "lon": -77.0452185, "fusion_lat": 0.0, "fusion_lon": 0.0, "bike_id": "c510a1cc698bf156520afaf0f883b8cc"}, {"lat": 38.920748833333334, "is_disabled": 0, "rental_uris": {"android": "https://dc.lft.to/lastmile_qr_scan", "ios": "https://dc.lft.to/lastmile_qr_scan"}, "type": "electric_scooter", "is_reserved": 0, "name": "724df649dc2243ebb248c1264181ff69", "lon": -77.024107, "fusion_lat": 0.0, "fusion_lon": 0.0, "bike_id": "724df649dc2243ebb248c1264181ff69"}, {"lat": 38.90934583333333, "is_disabled": 0, "rental_uris": {"android": "https://dc.lft.to/lastmile_qr_scan", "ios": "https://dc.lft.to/lastmile_qr_scan"}, "type": "electric_scooter", "is_reserved": 0, "name": "90496adcdcb896e9616b53684b6514ef", "lon": -77.05745966666667, "fusion_lat": 0.0, "fusion_lon": 0.0, "bike_id": "90496adcdcb896e9616b53684b6514ef"}, {"lat": 38.9186095, "is_disabled": 0, "rental_uris": {"android": "https://dc.lft.to/lastmile_qr_scan", "ios": "https://dc.lft.to/lastmile_qr_scan"}, "type": "electric_bike", "is_reserved": 0, "name": "5b7526ea7597d96979f3596d12837270", "lon": -76.960852, "fusion_lat": 0.0, "fusion_lon": 0.0, "bike_id": "5b7526ea7597d96979f3596d12837270"}, {"lat": 38.92481883333333, "is_disabled": 0, "rental_uris": {"android": "https://dc.lft.to/lastmile_qr_scan", "ios": "https://dc.lft.to/lastmile_qr_scan"}, "type": "electric_scooter", "is_reserved": 0, "name": "7abd9da810de2da2302172eb3a683bf4", "lon": -77.038248, "fusion_lat": 0.0, "fusion_lon": 0.0, "bike_id": "7abd9da810de2da2302172eb3a683bf4"}, {"lat": 38.898844833333335, "is_disabled": 0, "rental_uris": {"android": "https://dc.lft.to/lastmile_qr_scan", "ios": "https://dc.lft.to/lastmile_qr_scan"}, "type": "electric_scooter", "is_reserved": 0, "name": "01a3b38fc8318f69bb6e473811f434bc", "lon": -76.9883545, "fusion_lat": 0.0, "fusion_lon": 0.0, "bike_id": "01a3b38fc8318f69bb6e473811f434bc"}, {"lat": 38.93854366666667, "is_disabled": 0, "rental_uris": {"android": "https://dc.lft.to/lastmile_qr_scan", "ios": "https://dc.lft.to/lastmile_qr_scan"}, "type": "electric_scooter", "is_reserved": 0, "name": "f607e8ba09679da8f8c949bd5f1d5d35", "lon": -77.024741, "fusion_lat": 0.0, "fusion_lon": 0.0, "bike_id": "f607e8ba09679da8f8c949bd5f1d5d35"}, {"lat": 38.92323416666667, "is_disabled": 0, "rental_uris": {"android": "https://dc.lft.to/lastmile_qr_scan", "ios": "https://dc.lft.to/lastmile_qr_scan"}, "type": "electric_scooter", "is_reserved": 0, "name": "28a790450c3003ab44024dab01cccaf9", "lon": -77.04042383333334, "fusion_lat": 0.0, "fusion_lon": 0.0, "bike_id": "28a790450c3003ab44024dab01cccaf9"}, {"lat": 38.877093333333335, "is_disabled": 0, "rental_uris": {"android": "https://dc.lft.to/lastmile_qr_scan", "ios": "https://dc.lft.to/lastmile_qr_scan"}, "type": "electric_scooter", "is_reserved": 0, "name": "be5f21cd20d16a73a365a571f8751558", "lon": -77.0176285, "fusion_lat": 0.0, "fusion_lon": 0.0, "bike_id": "be5f21cd20d16a73a365a571f8751558"}, {"lat": 38.9098395, "is_disabled": 0, "rental_uris": {"android": "https://dc.lft.to/lastmile_qr_scan", "ios": "https://dc.lft.to/lastmile_qr_scan"}, "type": "electric_bike", "is_reserved": 0, "name": "fcbdbbf02de4deca1f3501f08667de54", "lon": -77.06485133333334, "fusion_lat": 0.0, "fusion_lon": 0.0, "bike_id": "fcbdbbf02de4deca1f3501f08667de54"}, {"lat": 38.923409666666664, "is_disabled": 0, "rental_uris": {"android": "https://dc.lft.to/lastmile_qr_scan", "ios": "https://dc.lft.to/lastmile_qr_scan"}, "type": "electric_scooter", "is_reserved": 0, "name": "82fc6f2a9153120f0236fef9f7c20633", "lon": -77.034958, "fusion_lat": 0.0, "fusion_lon": 0.0, "bike_id": "82fc6f2a9153120f0236fef9f7c20633"}, {"lat": 38.911866, "is_disabled": 0, "rental_uris": {"android": "https://dc.lft.to/lastmile_qr_scan", "ios": "https://dc.lft.to/lastmile_qr_scan"}, "type": "electric_scooter", "is_reserved": 0, "name": "4ef91332738a36054cd734ba2b0d310e", "lon": -77.06087683333334, "fusion_lat": 0.0, "fusion_lon": 0.0, "bike_id": "4ef91332738a36054cd734ba2b0d310e"}, {"lat": 38.92482066666667, "is_disabled": 0, "rental_uris": {"android": "https://dc.lft.to/lastmile_qr_scan", "ios": "https://dc.lft.to/lastmile_qr_scan"}, "type": "electric_scooter", "is_reserved": 0, "name": "c6a14e389fbc8319f0f95eeff4c40d2e", "lon": -77.05097666666667, "fusion_lat": 0.0, "fusion_lon": 0.0, "bike_id": "c6a14e389fbc8319f0f95eeff4c40d2e"}, {"lat": 38.901007166666666, "is_disabled": 0, "rental_uris": {"android": "https://dc.lft.to/lastmile_qr_scan", "ios": "https://dc.lft.to/lastmile_qr_scan"}, "type": "electric_scooter", "is_reserved": 0, "name": "51d23501b7b1081fca9f4c62a145013d", "lon": -76.98102933333334, "fusion_lat": 0.0, "fusion_lon": 0.0, "bike_id": "51d23501b7b1081fca9f4c62a145013d"}, {"lat": 38.8949125, "is_disabled": 0, "rental_uris": {"android": "https://dc.lft.to/lastmile_qr_scan", "ios": "https://dc.lft.to/lastmile_qr_scan"}, "type": "electric_scooter", "is_reserved": 0, "name": "99b7c568b572c09f25ec2848d797607e", "lon": -77.0229395, "fusion_lat": 0.0, "fusion_lon": 0.0, "bike_id": "99b7c568b572c09f25ec2848d797607e"}, {"lat": 38.950677166666665, "is_disabled": 0, "rental_uris": {"android": "https://dc.lft.to/lastmile_qr_scan", "ios": "https://dc.lft.to/lastmile_qr_scan"}, "type": "electric_bike", "is_reserved": 0, "name": "79b89d2c71eca509a50e60d566fb5a5d", "lon": -76.97086533333334, "fusion_lat": 0.0, "fusion_lon": 0.0, "bike_id": "79b89d2c71eca509a50e60d566fb5a5d"}, {"lat": 38.901252666666664, "is_disabled": 0, "rental_uris": {"android": "https://dc.lft.to/lastmile_qr_scan", "ios": "https://dc.lft.to/lastmile_qr_scan"}, "type": "electric_scooter", "is_reserved": 0, "name": "23e4f655b1ab2daae996e7ba8a5a375b", "lon": -76.99046916666667, "fusion_lat": 0.0, "fusion_lon": 0.0, "bike_id": "23e4f655b1ab2daae996e7ba8a5a375b"}, {"lat": 38.93287433333333, "is_disabled": 0, "rental_uris": {"android": "https://dc.lft.to/lastmile_qr_scan", "ios": "https://dc.lft.to/lastmile_qr_scan"}, "type": "electric_scooter", "is_reserved": 0, "name": "9a25d97126c63a61c143c261e5227765", "lon": -77.0399995, "fusion_lat": 0.0, "fusion_lon": 0.0, "bike_id": "9a25d97126c63a61c143c261e5227765"}, {"lat": 38.904271, "is_disabled": 0, "rental_uris": {"android": "https://dc.lft.to/lastmile_qr_scan", "ios": "https://dc.lft.to/lastmile_qr_scan"}, "type": "electric_scooter", "is_reserved": 0, "name": "079348aa4bc18c48cdc3e3a32038b041", "lon": -77.043374, "fusion_lat": 0.0, "fusion_lon": 0.0, "bike_id": "079348aa4bc18c48cdc3e3a32038b041"}, {"lat": 38.9444285, "is_disabled": 0, "rental_uris": {"android": "https://dc.lft.to/lastmile_qr_scan", "ios": "https://dc.lft.to/lastmile_qr_scan"}, "type": "electric_scooter", "is_reserved": 0, "name": "17023da9ccf79746c1f4b9caba962817", "lon": -77.06401816666667, "fusion_lat": 0.0, "fusion_lon": 0.0, "bike_id": "17023da9ccf79746c1f4b9caba962817"}, {"lat": 38.85789283333333, "is_disabled": 0, "rental_uris": {"android": "https://dc.lft.to/lastmile_qr_scan", "ios": "https://dc.lft.to/lastmile_qr_scan"}, "type": "electric_bike", "is_reserved": 0, "name": "3407fd52ff7e1f7ab9a9bd4dcdc11b9a", "lon": -77.099637, "fusion_lat": 0.0, "fusion_lon": 0.0, "bike_id": "3407fd52ff7e1f7ab9a9bd4dcdc11b9a"}, {"lat": 38.975192166666666, "is_disabled": 0, "rental_uris": {"android": "https://dc.lft.to/lastmile_qr_scan", "ios": "https://dc.lft.to/lastmile_qr_scan"}, "type": "electric_scooter", "is_reserved": 0, "name": "00a5a1e812e105fdc901219aedc738ac", "lon": -77.01689833333333, "fusion_lat": 0.0, "fusion_lon": 0.0, "bike_id": "00a5a1e812e105fdc901219aedc738ac"}, {"lat": 38.880803666666665, "is_disabled": 0, "rental_uris": {"android": "https://dc.lft.to/lastmile_qr_scan", "ios": "https://dc.lft.to/lastmile_qr_scan"}, "type": "electric_scooter", "is_reserved": 0, "name": "154fceab2d920fe1257882f64e897dab", "lon": -76.98532733333333, "fusion_lat": 0.0, "fusion_lon": 0.0, "bike_id": "154fceab2d920fe1257882f64e897dab"}, {"lat": 38.92219383333333, "is_disabled": 0, "rental_uris": {"android": "https://dc.lft.to/lastmile_qr_scan", "ios": "https://dc.lft.to/lastmile_qr_scan"}, "type": "electric_scooter", "is_reserved": 0, "name": "e74bceee98006fb4a61c52da23ce64e4", "lon": -77.04332816666667, "fusion_lat": 0.0, "fusion_lon": 0.0, "bike_id": "e74bceee98006fb4a61c52da23ce64e4"}, {"lat": 38.905674166666664, "is_disabled": 0, "rental_uris": {"android": "https://dc.lft.to/lastmile_qr_scan", "ios": "https://dc.lft.to/lastmile_qr_scan"}, "type": "electric_scooter", "is_reserved": 0, "name": "7ed9b75796c69c57c799b2bf0586eefe", "lon": -77.01799883333334, "fusion_lat": 0.0, "fusion_lon": 0.0, "bike_id": "7ed9b75796c69c57c799b2bf0586eefe"}, {"lat": 38.87174066666667, "is_disabled": 0, "rental_uris": {"android": "https://dc.lft.to/lastmile_qr_scan", "ios": "https://dc.lft.to/lastmile_qr_scan"}, "type": "electric_bike", "is_reserved": 0, "name": "75f8706bb3bd08b2325202c7756d2772", "lon": -77.233927, "fusion_lat": 0.0, "fusion_lon": 0.0, "bike_id": "75f8706bb3bd08b2325202c7756d2772"}, {"lat": 38.900281, "is_disabled": 0, "rental_uris": {"android": "https://dc.lft.to/lastmile_qr_scan", "ios": "https://dc.lft.to/lastmile_qr_scan"}, "type": "electric_scooter", "is_reserved": 0, "name": "b6e75f1e1cdd6f91628853510a04430d", "lon": -77.002061, "fusion_lat": 0.0, "fusion_lon": 0.0, "bike_id": "b6e75f1e1cdd6f91628853510a04430d"}, {"lat": 38.920176166666664, "is_disabled": 0, "rental_uris": {"android": "https://dc.lft.to/lastmile_qr_scan", "ios": "https://dc.lft.to/lastmile_qr_scan"}, "type": "electric_scooter", "is_reserved": 0, "name": "5666ccae04a989267feb0c001a41d552", "lon": -76.97838533333334, "fusion_lat": 0.0, "fusion_lon": 0.0, "bike_id": "5666ccae04a989267feb0c001a41d552"}, {"lat": 38.91682733333333, "is_disabled": 0, "rental_uris": {"android": "https://dc.lft.to/lastmile_qr_scan", "ios": "https://dc.lft.to/lastmile_qr_scan"}, "type": "electric_scooter", "is_reserved": 0, "name": "6efb0d8bcd6f43ce8c773fc645428d34", "lon": -77.036831, "fusion_lat": 0.0, "fusion_lon": 0.0, "bike_id": "6efb0d8bcd6f43ce8c773fc645428d34"}, {"lat": 38.89871633333333, "is_disabled": 0, "rental_uris": {"android": "https://dc.lft.to/lastmile_qr_scan", "ios": "https://dc.lft.to/lastmile_qr_scan"}, "type": "electric_scooter", "is_reserved": 0, "name": "e6b89df420778b7f11f209e6103efc48", "lon": -77.0215795, "fusion_lat": 0.0, "fusion_lon": 0.0, "bike_id": "e6b89df420778b7f11f209e6103efc48"}, {"lat": 38.90519916666667, "is_disabled": 0, "rental_uris": {"android": "https://dc.lft.to/lastmile_qr_scan", "ios": "https://dc.lft.to/lastmile_qr_scan"}, "type": "electric_scooter", "is_reserved": 0, "name": "0ec6a659eb34664a552508ac7c458591", "lon": -77.05009766666667, "fusion_lat": 0.0, "fusion_lon": 0.0, "bike_id": "0ec6a659eb34664a552508ac7c458591"}, {"lat": 38.94199533333333, "is_disabled": 0, "rental_uris": {"android": "https://dc.lft.to/lastmile_qr_scan", "ios": "https://dc.lft.to/lastmile_qr_scan"}, "type": "electric_scooter", "is_reserved": 0, "name": "f10c6793a9d3b66c04ced493b4b13530", "lon": -77.025925, "fusion_lat": 0.0, "fusion_lon": 0.0, "bike_id": "f10c6793a9d3b66c04ced493b4b13530"}, {"lat": 38.980146833333336, "is_disabled": 0, "rental_uris": {"android": "https://dc.lft.to/lastmile_qr_scan", "ios": "https://dc.lft.to/lastmile_qr_scan"}, "type": "electric_bike", "is_reserved": 0, "name": "409c644a615e1207182d0b1a6e8786a8", "lon": -76.94254933333333, "fusion_lat": 0.0, "fusion_lon": 0.0, "bike_id": "409c644a615e1207182d0b1a6e8786a8"}, {"lat": 38.905851, "is_disabled": 0, "rental_uris": {"android": "https://dc.lft.to/lastmile_qr_scan", "ios": "https://dc.lft.to/lastmile_qr_scan"}, "type": "electric_scooter", "is_reserved": 0, "name": "a0346615ed68baa744c243947125d178", "lon": -77.04693316666666, "fusion_lat": 0.0, "fusion_lon": 0.0, "bike_id": "a0346615ed68baa744c243947125d178"}, {"lat": 38.91611533333333, "is_disabled": 0, "rental_uris": {"android": "https://dc.lft.to/lastmile_qr_scan", "ios": "https://dc.lft.to/lastmile_qr_scan"}, "type": "electric_scooter", "is_reserved": 0, "name": "af13354fb932d6268398f05c6e392d24", "lon": -77.03209516666666, "fusion_lat": 0.0, "fusion_lon": 0.0, "bike_id": "af13354fb932d6268398f05c6e392d24"}, {"lat": 38.86722066666667, "is_disabled": 0, "rental_uris": {"android": "https://dc.lft.to/lastmile_qr_scan", "ios": "https://dc.lft.to/lastmile_qr_scan"}, "type": "electric_scooter", "is_reserved": 0, "name": "5e076ac69fb762ca9e7018caf13c2999", "lon": -77.01010883333333, "fusion_lat": 0.0, "fusion_lon": 0.0, "bike_id": "5e076ac69fb762ca9e7018caf13c2999"}, {"lat": 38.8089845, "is_disabled": 0, "rental_uris": {"android": "https://dc.lft.to/lastmile_qr_scan", "ios": "https://dc.lft.to/lastmile_qr_scan"}, "type": "electric_bike", "is_reserved": 0, "name": "46082d7761e68eb3546f773f70615e27", "lon": -77.11556033333333, "fusion_lat": 0.0, "fusion_lon": 0.0, "bike_id": "46082d7761e68eb3546f773f70615e27"}, {"lat": 38.875747, "is_disabled": 0, "rental_uris": {"android": "https://dc.lft.to/lastmile_qr_scan", "ios": "https://dc.lft.to/lastmile_qr_scan"}, "type": "electric_scooter", "is_reserved": 0, "name": "2d0033cd48b599ea2ffce61605ea547d", "lon": -77.00582833333333, "fusion_lat": 0.0, "fusion_lon": 0.0, "bike_id": "2d0033cd48b599ea2ffce61605ea547d"}, {"lat": 38.91760933333333, "is_disabled": 0, "rental_uris": {"android": "https://dc.lft.to/lastmile_qr_scan", "ios": "https://dc.lft.to/lastmile_qr_scan"}, "type": "electric_scooter", "is_reserved": 0, "name": "f53a7357bb85edb52ec828a84187db84", "lon": -77.00917766666667, "fusion_lat": 0.0, "fusion_lon": 0.0, "bike_id": "f53a7357bb85edb52ec828a84187db84"}, {"lat": 38.90865316666667, "is_disabled": 0, "rental_uris": {"android": "https://dc.lft.to/lastmile_qr_scan", "ios": "https://dc.lft.to/lastmile_qr_scan"}, "type": "electric_scooter", "is_reserved": 0, "name": "c8e73314dd0a9701ba9f0949848415ba", "lon": -77.07169816666666, "fusion_lat": 0.0, "fusion_lon": 0.0, "bike_id": "c8e73314dd0a9701ba9f0949848415ba"}, {"lat": 38.9160545, "is_disabled": 0, "rental_uris": {"android": "https://dc.lft.to/lastmile_qr_scan", "ios": "https://dc.lft.to/lastmile_qr_scan"}, "type": "electric_scooter", "is_reserved": 0, "name": "52594492d2c3f79c29b6c7b3de853cf3", "lon": -77.03175166666666, "fusion_lat": 0.0, "fusion_lon": 0.0, "bike_id": "52594492d2c3f79c29b6c7b3de853cf3"}, {"lat": 38.922537166666665, "is_disabled": 0, "rental_uris": {"android": "https://dc.lft.to/lastmile_qr_scan", "ios": "https://dc.lft.to/lastmile_qr_scan"}, "type": "electric_scooter", "is_reserved": 0, "name": "7c0a834900066d30fce2801885ffb5ba", "lon": -77.01949583333334, "fusion_lat": 0.0, "fusion_lon": 0.0, "bike_id": "7c0a834900066d30fce2801885ffb5ba"}, {"lat": 38.918513833333336, "is_disabled": 0, "rental_uris": {"android": "https://dc.lft.to/lastmile_qr_scan", "ios": "https://dc.lft.to/lastmile_qr_scan"}, "type": "electric_scooter", "is_reserved": 0, "name": "5cf5bc77fd5b91781f4a19962822d924", "lon": -77.02538216666666, "fusion_lat": 0.0, "fusion_lon": 0.0, "bike_id": "5cf5bc77fd5b91781f4a19962822d924"}, {"lat": 38.9233135, "is_disabled": 0, "rental_uris": {"android": "https://dc.lft.to/lastmile_qr_scan", "ios": "https://dc.lft.to/lastmile_qr_scan"}, "type": "electric_scooter", "is_reserved": 0, "name": "89d469fe3310b40534abb6fa831df5ad", "lon": -77.01952683333333, "fusion_lat": 0.0, "fusion_lon": 0.0, "bike_id": "89d469fe3310b40534abb6fa831df5ad"}, {"lat": 38.919422833333336, "is_disabled": 0, "rental_uris": {"android": "https://dc.lft.to/lastmile_qr_scan", "ios": "https://dc.lft.to/lastmile_qr_scan"}, "type": "electric_scooter", "is_reserved": 0, "name": "09e5d33cd0611a5a9f548aedfd5e25b4", "lon": -77.02189733333333, "fusion_lat": 0.0, "fusion_lon": 0.0, "bike_id": "09e5d33cd0611a5a9f548aedfd5e25b4"}, {"lat": 38.919247, "is_disabled": 0, "rental_uris": {"android": "https://dc.lft.to/lastmile_qr_scan", "ios": "https://dc.lft.to/lastmile_qr_scan"}, "type": "electric_scooter", "is_reserved": 0, "name": "af8784c8e228c74ecf4290cc3818e8a0", "lon": -77.00999266666666, "fusion_lat": 0.0, "fusion_lon": 0.0, "bike_id": "af8784c8e228c74ecf4290cc3818e8a0"}, {"lat": 38.945380666666665, "is_disabled": 0, "rental_uris": {"android": "https://dc.lft.to/lastmile_qr_scan", "ios": "https://dc.lft.to/lastmile_qr_scan"}, "type": "electric_bike", "is_reserved": 0, "name": "9bd47314561643a407169b2b32f9a983", "lon": -77.34469183333333, "fusion_lat": 0.0, "fusion_lon": 0.0, "bike_id": "9bd47314561643a407169b2b32f9a983"}, {"lat": 38.924551666666666, "is_disabled": 0, "rental_uris": {"android": "https://dc.lft.to/lastmile_qr_scan", "ios": "https://dc.lft.to/lastmile_qr_scan"}, "type": "electric_scooter", "is_reserved": 0, "name": "2a71d8364b084933f9d68b66932c7e57", "lon": -77.021622, "fusion_lat": 0.0, "fusion_lon": 0.0, "bike_id": "2a71d8364b084933f9d68b66932c7e57"}, {"lat": 38.92073416666667, "is_disabled": 0, "rental_uris": {"android": "https://dc.lft.to/lastmile_qr_scan", "ios": "https://dc.lft.to/lastmile_qr_scan"}, "type": "electric_scooter", "is_reserved": 0, "name": "0b01e0decf876163535ef5b447b2a038", "lon": -77.02394866666667, "fusion_lat": 0.0, "fusion_lon": 0.0, "bike_id": "0b01e0decf876163535ef5b447b2a038"}, {"lat": 38.8865435, "is_disabled": 0, "rental_uris": {"android": "https://dc.lft.to/lastmile_qr_scan", "ios": "https://dc.lft.to/lastmile_qr_scan"}, "type": "electric_scooter", "is_reserved": 0, "name": "131b7fd7a3c4f66fd519611b1e3ab144", "lon": -76.93680616666667, "fusion_lat": 0.0, "fusion_lon": 0.0, "bike_id": "131b7fd7a3c4f66fd519611b1e3ab144"}, {"lat": 38.907688, "is_disabled": 0, "rental_uris": {"android": "https://dc.lft.to/lastmile_qr_scan", "ios": "https://dc.lft.to/lastmile_qr_scan"}, "type": "electric_scooter", "is_reserved": 0, "name": "db6b2e5377769acc246c4730605f9022", "lon": -77.00766816666666, "fusion_lat": 0.0, "fusion_lon": 0.0, "bike_id": "db6b2e5377769acc246c4730605f9022"}, {"lat": 38.91721366666667, "is_disabled": 0, "rental_uris": {"android": "https://dc.lft.to/lastmile_qr_scan", "ios": "https://dc.lft.to/lastmile_qr_scan"}, "type": "electric_scooter", "is_reserved": 0, "name": "9843a9792c758dcad5f44afdc7819632", "lon": -77.06845683333333, "fusion_lat": 0.0, "fusion_lon": 0.0, "bike_id": "9843a9792c758dcad5f44afdc7819632"}, {"lat": 38.92469616666666, "is_disabled": 0, "rental_uris": {"android": "https://dc.lft.to/lastmile_qr_scan", "ios": "https://dc.lft.to/lastmile_qr_scan"}, "type": "electric_scooter", "is_reserved": 0, "name": "2e78ea3b1ccbd01c1ded3975e93cfec5", "lon": -77.02215666666666, "fusion_lat": 0.0, "fusion_lon": 0.0, "bike_id": "2e78ea3b1ccbd01c1ded3975e93cfec5"}, {"lat": 39.084334166666665, "is_disabled": 0, "rental_uris": {"android": "https://dc.lft.to/lastmile_qr_scan", "ios": "https://dc.lft.to/lastmile_qr_scan"}, "type": "electric_bike", "is_reserved": 0, "name": "3021ff43d4ed6f3a4accc26111589ed2", "lon": -76.95143433333334, "fusion_lat": 0.0, "fusion_lon": 0.0, "bike_id": "3021ff43d4ed6f3a4accc26111589ed2"}, {"lat": 38.9103695, "is_disabled": 0, "rental_uris": {"android": "https://dc.lft.to/lastmile_qr_scan", "ios": "https://dc.lft.to/lastmile_qr_scan"}, "type": "electric_scooter", "is_reserved": 0, "name": "aabd903e55dbe1a3b5b8db3d7726eb26", "lon": -77.06502066666667, "fusion_lat": 0.0, "fusion_lon": 0.0, "bike_id": "aabd903e55dbe1a3b5b8db3d7726eb26"}, {"lat": 38.90574466666666, "is_disabled": 0, "rental_uris": {"android": "https://dc.lft.to/lastmile_qr_scan", "ios": "https://dc.lft.to/lastmile_qr_scan"}, "type": "electric_scooter", "is_reserved": 0, "name": "68d319d7286658602d980aab55e7916d", "lon": -77.00588283333333, "fusion_lat": 0.0, "fusion_lon": 0.0, "bike_id": "68d319d7286658602d980aab55e7916d"}, {"lat": 38.892219, "is_disabled": 0, "rental_uris": {"android": "https://dc.lft.to/lastmile_qr_scan", "ios": "https://dc.lft.to/lastmile_qr_scan"}, "type": "electric_scooter", "is_reserved": 0, "name": "5887e4adcd7f7f06619d0c038f05edaa", "lon": -77.043679, "fusion_lat": 0.0, "fusion_lon": 0.0, "bike_id": "5887e4adcd7f7f06619d0c038f05edaa"}, {"lat": 38.90708166666667, "is_disabled": 0, "rental_uris": {"android": "https://dc.lft.to/lastmile_qr_scan", "ios": "https://dc.lft.to/lastmile_qr_scan"}, "type": "electric_scooter", "is_reserved": 0, "name": "43c3b3d8bd29a27a13ba1cbacecb6174", "lon": -77.0321105, "fusion_lat": 0.0, "fusion_lon": 0.0, "bike_id": "43c3b3d8bd29a27a13ba1cbacecb6174"}, {"lat": 38.919990166666665, "is_disabled": 0, "rental_uris": {"android": "https://dc.lft.to/lastmile_qr_scan", "ios": "https://dc.lft.to/lastmile_qr_scan"}, "type": "electric_scooter", "is_reserved": 0, "name": "f552295cbfde96203ef51fecbfc72c0d", "lon": -76.98398683333333, "fusion_lat": 0.0, "fusion_lon": 0.0, "bike_id": "f552295cbfde96203ef51fecbfc72c0d"}, {"lat": 38.854397, "is_disabled": 0, "rental_uris": {"android": "https://dc.lft.to/lastmile_qr_scan", "ios": "https://dc.lft.to/lastmile_qr_scan"}, "type": "electric_scooter", "is_reserved": 0, "name": "c01720a798b18feceee3245ccd9378e7", "lon": -76.97166316666667, "fusion_lat": 0.0, "fusion_lon": 0.0, "bike_id": "c01720a798b18feceee3245ccd9378e7"}, {"lat": 38.91951916666667, "is_disabled": 0, "rental_uris": {"android": "https://dc.lft.to/lastmile_qr_scan", "ios": "https://dc.lft.to/lastmile_qr_scan"}, "type": "electric_scooter", "is_reserved": 0, "name": "66f888179e128554c1219e93547e108c", "lon": -77.0319145, "fusion_lat": 0.0, "fusion_lon": 0.0, "bike_id": "66f888179e128554c1219e93547e108c"}, {"lat": 38.900892166666665, "is_disabled": 0, "rental_uris": {"android": "https://dc.lft.to/lastmile_qr_scan", "ios": "https://dc.lft.to/lastmile_qr_scan"}, "type": "electric_scooter", "is_reserved": 0, "name": "21128a31bc3b87b944eb637d511d0b69", "lon": -77.04896983333333, "fusion_lat": 0.0, "fusion_lon": 0.0, "bike_id": "21128a31bc3b87b944eb637d511d0b69"}, {"lat": 38.930619166666666, "is_disabled": 0, "rental_uris": {"android": "https://dc.lft.to/lastmile_qr_scan", "ios": "https://dc.lft.to/lastmile_qr_scan"}, "type": "electric_scooter", "is_reserved": 0, "name": "9135ccb64b674203cd0e14095ceaa078", "lon": -77.02329666666667, "fusion_lat": 0.0, "fusion_lon": 0.0, "bike_id": "9135ccb64b674203cd0e14095ceaa078"}, {"lat": 38.90166766666667, "is_disabled": 0, "rental_uris": {"android": "https://dc.lft.to/lastmile_qr_scan", "ios": "https://dc.lft.to/lastmile_qr_scan"}, "type": "electric_bike", "is_reserved": 0, "name": "d3f16a1ff0f28a08e5f25f8fd0ec6230", "lon": -76.97689883333334, "fusion_lat": 0.0, "fusion_lon": 0.0, "bike_id": "d3f16a1ff0f28a08e5f25f8fd0ec6230"}, {"lat": 38.903793666666665, "is_disabled": 0, "rental_uris": {"android": "https://dc.lft.to/lastmile_qr_scan", "ios": "https://dc.lft.to/lastmile_qr_scan"}, "type": "electric_scooter", "is_reserved": 0, "name": "c0d5f25708456cb9c8e36688efd8e812", "lon": -77.04214516666667, "fusion_lat": 0.0, "fusion_lon": 0.0, "bike_id": "c0d5f25708456cb9c8e36688efd8e812"}, {"lat": 38.89981133333333, "is_disabled": 0, "rental_uris": {"android": "https://dc.lft.to/lastmile_qr_scan", "ios": "https://dc.lft.to/lastmile_qr_scan"}, "type": "electric_scooter", "is_reserved": 0, "name": "11095b80551d130b6a5325610973a4ae", "lon": -77.02090583333333, "fusion_lat": 0.0, "fusion_lon": 0.0, "bike_id": "11095b80551d130b6a5325610973a4ae"}, {"lat": 38.9210045, "is_disabled": 0, "rental_uris": {"android": "https://dc.lft.to/lastmile_qr_scan", "ios": "https://dc.lft.to/lastmile_qr_scan"}, "type": "electric_scooter", "is_reserved": 0, "name": "8c700abf191aaf7289b64ae5032e16d7", "lon": -77.04691266666667, "fusion_lat": 0.0, "fusion_lon": 0.0, "bike_id": "8c700abf191aaf7289b64ae5032e16d7"}, {"lat": 38.911061833333335, "is_disabled": 0, "rental_uris": {"android": "https://dc.lft.to/lastmile_qr_scan", "ios": "https://dc.lft.to/lastmile_qr_scan"}, "type": "electric_scooter", "is_reserved": 0, "name": "805d3e43dd20d20586823482290fde3a", "lon": -77.04448033333334, "fusion_lat": 0.0, "fusion_lon": 0.0, "bike_id": "805d3e43dd20d20586823482290fde3a"}, {"lat": 38.93714083333333, "is_disabled": 0, "rental_uris": {"android": "https://dc.lft.to/lastmile_qr_scan", "ios": "https://dc.lft.to/lastmile_qr_scan"}, "type": "electric_scooter", "is_reserved": 0, "name": "d6bfd5a371ed7d47ee9c676806bd54d6", "lon": -77.03296933333333, "fusion_lat": 0.0, "fusion_lon": 0.0, "bike_id": "d6bfd5a371ed7d47ee9c676806bd54d6"}, {"lat": 38.89965483333334, "is_disabled": 0, "rental_uris": {"android": "https://dc.lft.to/lastmile_qr_scan", "ios": "https://dc.lft.to/lastmile_qr_scan"}, "type": "electric_scooter", "is_reserved": 0, "name": "79151bee7ced760676e12ab179de9de7", "lon": -77.00931133333333, "fusion_lat": 0.0, "fusion_lon": 0.0, "bike_id": "79151bee7ced760676e12ab179de9de7"}, {"lat": 38.87436116666667, "is_disabled": 0, "rental_uris": {"android": "https://dc.lft.to/lastmile_qr_scan", "ios": "https://dc.lft.to/lastmile_qr_scan"}, "type": "electric_scooter", "is_reserved": 0, "name": "aaa11c91bd0a609219e7c0460dc22617", "lon": -77.0005, "fusion_lat": 0.0, "fusion_lon": 0.0, "bike_id": "aaa11c91bd0a609219e7c0460dc22617"}, {"lat": 38.9246525, "is_disabled": 0, "rental_uris": {"android": "https://dc.lft.to/lastmile_qr_scan", "ios": "https://dc.lft.to/lastmile_qr_scan"}, "type": "electric_scooter", "is_reserved": 0, "name": "753be54470f842c3625f8812334e39da", "lon": -77.03937433333333, "fusion_lat": 0.0, "fusion_lon": 0.0, "bike_id": "753be54470f842c3625f8812334e39da"}, {"lat": 38.91794983333333, "is_disabled": 0, "rental_uris": {"android": "https://dc.lft.to/lastmile_qr_scan", "ios": "https://dc.lft.to/lastmile_qr_scan"}, "type": "electric_scooter", "is_reserved": 0, "name": "099c8fb8ac98e0619e543255a7329904", "lon": -77.02722216666666, "fusion_lat": 0.0, "fusion_lon": 0.0, "bike_id": "099c8fb8ac98e0619e543255a7329904"}, {"lat": 38.92340133333333, "is_disabled": 0, "rental_uris": {"android": "https://dc.lft.to/lastmile_qr_scan", "ios": "https://dc.lft.to/lastmile_qr_scan"}, "type": "electric_bike", "is_reserved": 0, "name": "a9037e195f79f293559ab7d6bdf44fe1", "lon": -76.97142733333334, "fusion_lat": 0.0, "fusion_lon": 0.0, "bike_id": "a9037e195f79f293559ab7d6bdf44fe1"}, {"lat": 38.92475266666667, "is_disabled": 0, "rental_uris": {"android": "https://dc.lft.to/lastmile_qr_scan", "ios": "https://dc.lft.to/lastmile_qr_scan"}, "type": "electric_scooter", "is_reserved": 0, "name": "68ce68bb3908d9b88c5a589c0bd2226e", "lon": -77.02247266666667, "fusion_lat": 0.0, "fusion_lon": 0.0, "bike_id": "68ce68bb3908d9b88c5a589c0bd2226e"}, {"lat": 38.90513383333333, "is_disabled": 0, "rental_uris": {"android": "https://dc.lft.to/lastmile_qr_scan", "ios": "https://dc.lft.to/lastmile_qr_scan"}, "type": "electric_scooter", "is_reserved": 0, "name": "1f98520438fd1d83babedd401d7f384a", "lon": -77.040605, "fusion_lat": 0.0, "fusion_lon": 0.0, "bike_id": "1f98520438fd1d83babedd401d7f384a"}, {"lat": 38.9092095, "is_disabled": 0, "rental_uris": {"android": "https://dc.lft.to/lastmile_qr_scan", "ios": "https://dc.lft.to/lastmile_qr_scan"}, "type": "electric_scooter", "is_reserved": 0, "name": "9e6012d6c8e2dc53e5a446576d5167fb", "lon": -77.07274783333334, "fusion_lat": 0.0, "fusion_lon": 0.0, "bike_id": "9e6012d6c8e2dc53e5a446576d5167fb"}, {"lat": 38.94138383333333, "is_disabled": 0, "rental_uris": {"android": "https://dc.lft.to/lastmile_qr_scan", "ios": "https://dc.lft.to/lastmile_qr_scan"}, "type": "electric_scooter", "is_reserved": 0, "name": "aced8ae93d05fb0b538bd7a3bf599ff1", "lon": -77.023247, "fusion_lat": 0.0, "fusion_lon": 0.0, "bike_id": "aced8ae93d05fb0b538bd7a3bf599ff1"}, {"lat": 38.89982533333333, "is_disabled": 0, "rental_uris": {"android": "https://dc.lft.to/lastmile_qr_scan", "ios": "https://dc.lft.to/lastmile_qr_scan"}, "type": "electric_scooter", "is_reserved": 0, "name": "492b7395ecf74607f4ed582c9d1ab005", "lon": -77.04190683333333, "fusion_lat": 0.0, "fusion_lon": 0.0, "bike_id": "492b7395ecf74607f4ed582c9d1ab005"}, {"lat": 38.884898, "is_disabled": 0, "rental_uris": {"android": "https://dc.lft.to/lastmile_qr_scan", "ios": "https://dc.lft.to/lastmile_qr_scan"}, "type": "electric_scooter", "is_reserved": 0, "name": "3d1ff5d35e77e8857d9a3c7c5afb976a", "lon": -77.025467, "fusion_lat": 0.0, "fusion_lon": 0.0, "bike_id": "3d1ff5d35e77e8857d9a3c7c5afb976a"}, {"lat": 38.8360975, "is_disabled": 0, "rental_uris": {"android": "https://dc.lft.to/lastmile_qr_scan", "ios": "https://dc.lft.to/lastmile_qr_scan"}, "type": "electric_bike", "is_reserved": 0, "name": "c1b3b9fcb04384841b0bfb5cef5b1998", "lon": -77.003798, "fusion_lat": 0.0, "fusion_lon": 0.0, "bike_id": "c1b3b9fcb04384841b0bfb5cef5b1998"}, {"lat": 38.91270633333333, "is_disabled": 0, "rental_uris": {"android": "https://dc.lft.to/lastmile_qr_scan", "ios": "https://dc.lft.to/lastmile_qr_scan"}, "type": "electric_scooter", "is_reserved": 0, "name": "b22db0ee70e753fc3c55f296df938f30", "lon": -77.04551633333334, "fusion_lat": 0.0, "fusion_lon": 0.0, "bike_id": "b22db0ee70e753fc3c55f296df938f30"},