{"data": {"bikes": [{"lon": -77.03664733333333, "bike_id": "55acbb6c7e026837cc03017c62807430", "lat": 38.91812983333333, "fusion_lon": 0.0, "fusion_lat": 0.0, "type": "electric_scooter", "name": "55acbb6c7e026837cc03017c62807430", "is_disabled": 0, "rental_uris": {"ios": "https://dc.lft.to/lastmile_qr_scan", "android": "https://dc.lft.to/lastmile_qr_scan"}, "is_reserved": 0}, {"lon": -77.041552, "bike_id": "67f2f5732d0cff347cfff4d8f221e688", "lat": 38.91714066666667, "fusion_lon": 0.0, "fusion_lat": 0.0, "type": "electric_scooter", "name": "67f2f5732d0cff347cfff4d8f221e688", "is_disabled": 0, "rental_uris": {"ios": "https://dc.lft.to/lastmile_qr_scan", "android": "https://dc.lft.to/lastmile_qr_scan"}, "is_reserved": 0}, {"lon": -77.03094716666666, "bike_id": "0e1ad8e44ec4502652b49423c0bd0585", "lat": 38.905715666666666, "fusion_lon": 0.0, "fusion_lat": 0.0, "type": "electric_scooter", "name": "0e1ad8e44ec4502652b49423c0bd0585", "is_disabled": 0, "rental_uris": {"ios": "https://dc.lft.to/lastmile_qr_scan", "android": "https://dc.lft.to/lastmile_qr_scan"}, "is_reserved": 0}, {"lon": -77.0219195, "bike_id": "f6c84aca2962fe68536a999972e6300a", "lat": 38.91478683333333, "fusion_lon": 0.0, "fusion_lat": 0.0, "type": "electric_scooter", "name": "f6c84aca2962fe68536a999972e6300a", "is_disabled": 0, "rental_uris": {"ios": "https://dc.lft.to/lastmile_qr_scan", "android": "https://dc.lft.to/lastmile_qr_scan"}, "is_reserved": 0}, {"lon": -77.02372466666667, "bike_id": "88094f555ecaed0be49f653716040828", "lat": 38.8793215, "fusion_lon": 0.0, "fusion_lat": 0.0, "type": "electric_scooter", "name": "88094f555ecaed0be49f653716040828", "is_disabled": 0, "rental_uris": {"ios": "https://dc.lft.to/lastmile_qr_scan", "android": "https://dc.lft.to/lastmile_qr_scan"}, "is_reserved": 0}, {"lon": -77.0368255, "bike_id": "d1e4b6399f233bb1a8c55d1ea9b48e50", "lat": 38.90824766666667, "fusion_lon": 0.0, "fusion_lat": 0.0, "type": "electric_scooter", "name": "d1e4b6399f233bb1a8c55d1ea9b48e50", "is_disabled": 0, "rental_uris": {"ios": "https://dc.lft.to/lastmile_qr_scan", "android": "https://dc.lft.to/lastmile_qr_scan"}, "is_reserved": 0}, {"lon": -77.02463533333334, "bike_id": "be0c2a576dc67f8103b7056667485740", "lat": 38.917027, "fusion_lon": 0.0, "fusion_lat": 0.0, "type": "electric_scooter", "name": "be0c2a576dc67f8103b7056667485740", "is_disabled": 0, "rental_uris": {"ios": "https://dc.lft.to/lastmile_qr_scan", "android": "https://dc.lft.to/lastmile_qr_scan"}, "is_reserved": 0}, {"lon": -77.03790566666666, "bike_id": "516f7e8b5b8efaa63e638ac92fd88593", "lat": 38.93598333333333, "fusion_lon": 0.0, "fusion_lat": 0.0, "type": "electric_scooter", "name": "516f7e8b5b8efaa63e638ac92fd88593", "is_disabled": 0, "rental_uris": {"ios": "https://dc.lft.to/lastmile_qr_scan", "android": "https://dc.lft.to/lastmile_qr_scan"}, "is_reserved": 0}, {"lon": -77.01853516666667, "bike_id": "ed2ae692f1eefacaa4a4db090f325beb", "lat": 38.973703666666665, "fusion_lon": 0.0, "fusion_lat": 0.0, "type": "electric_scooter", "name": "ed2ae692f1eefacaa4a4db090f325beb", "is_disabled": 0, "rental_uris": {"ios": "https://dc.lft.to/lastmile_qr_scan", "android": "https://dc.lft.to/lastmile_qr_scan"}, "is_reserved": 0}, {"lon": -77.03863666666666, "bike_id": "517594a37a55ad15dbbbb0a3189640ad", "lat": 38.93171183333333, "fusion_lon": 0.0, "fusion_lat": 0.0, "type": "electric_scooter", "name": "517594a37a55ad15dbbbb0a3189640ad", "is_disabled": 0, "rental_uris": {"ios": "https://dc.lft.to/lastmile_qr_scan", "android": "https://dc.lft.to/lastmile_qr_scan"}, "is_reserved": 0}, {"lon": -77.0500095, "bike_id": "b31d0150752df2e88f6de521c4e00b74", "lat": 38.892307333333335, "fusion_lon": 0.0, "fusion_lat": 0.0, "type": "electric_scooter", "name": "b31d0150752df2e88f6de521c4e00b74", "is_disabled": 0, "rental_uris": {"ios": "https://dc.lft.to/lastmile_qr_scan", "android": "https://dc.lft.to/lastmile_qr_scan"}, "is_reserved": 0}, {"lon": -76.975779, "bike_id": "cfc2b6a669c5d2c58f4e564d70352f9a", "lat": 38.865767, "fusion_lon": 0.0, "fusion_lat": 0.0, "type": "electric_scooter", "name": "cfc2b6a669c5d2c58f4e564d70352f9a", "is_disabled": 0, "rental_uris": {"ios": "https://dc.lft.to/lastmile_qr_scan", "android": "https://dc.lft.to/lastmile_qr_scan"}, "is_reserved": 0}, {"lon": -76.99267983333333, "bike_id": "b1e2ba88302cfa4525e069cf7903bba8", "lat": 38.89946466666667, "fusion_lon": 0.0, "fusion_lat": 0.0, "type": "electric_scooter", "name": "b1e2ba88302cfa4525e069cf7903bba8", "is_disabled": 0, "rental_uris": {"ios": "https://dc.lft.to/lastmile_qr_scan", "android": "https://dc.lft.to/lastmile_qr_scan"}, "is_reserved": 0}, {"lon": -77.02109283333333, "bike_id": "42c05696328fb61c36cbf1aed7879841", "lat": 38.9060885, "fusion_lon": 0.0, "fusion_lat": 0.0, "type": "electric_scooter", "name": "42c05696328fb61c36cbf1aed7879841", "is_disabled": 0, "rental_uris": {"ios": "https://dc.lft.to/lastmile_qr_scan", "android": "https://dc.lft.to/lastmile_qr_scan"}, "is_reserved": 0}, {"lon": -77.05241966666667, "bike_id": "f9e834bc60d3e15bf8cdfae30e90b222", "lat": 38.900106666666666, "fusion_lon": 0.0, "fusion_lat": 0.0, "type": "electric_scooter", "name": "f9e834bc60d3e15bf8cdfae30e90b222", "is_disabled": 0, "rental_uris": {"ios": "https://dc.lft.to/lastmile_qr_scan", "android": "https://dc.lft.to/lastmile_qr_scan"}, "is_reserved": 0}, {"lon": -76.98924716666667, "bike_id": "712cfd42be7ce6adb4edf86bdfc51366", "lat": 38.858111, "fusion_lon": 0.0, "fusion_lat": 0.0, "type": "electric_scooter", "name": "712cfd42be7ce6adb4edf86bdfc51366", "is_disabled": 0, "rental_uris": {"ios": "https://dc.lft.to/lastmile_qr_scan", "android": "https://dc.lft.to/lastmile_qr_scan"}, "is_reserved": 0}, {"lon": -77.04392616666667, "bike_id": "2d3033cfbe492c8a59680b7d22b95047", "lat": 39.047175333333335, "fusion_lon": 0.0, "fusion_lat": 0.0, "type": "electric_bike", "name": "2d3033cfbe492c8a59680b7d22b95047", "is_disabled": 0, "rental_uris": {"ios": "https://dc.lft.to/lastmile_qr_scan", "android": "https://dc.lft.to/lastmile_qr_scan"}, "is_reserved": 0}, {"lon": -77.02213833333333, "bike_id": "88158d965069dfbd67eb782d816f0576", "lat": 38.92620083333333, "fusion_lon": 0.0, "fusion_lat": 0.0, "type": "electric_scooter", "name": "88158d965069dfbd67eb782d816f0576", "is_disabled": 0, "rental_uris": {"ios": "https://dc.lft.to/lastmile_qr_scan", "android": "https://dc.lft.to/lastmile_qr_scan"}, "is_reserved": 0}, {"lon": -77.0651265, "bike_id": "d669eae6b05a9f79e20397d2241722ea", "lat": 38.905058833333335, "fusion_lon": 0.0, "fusion_lat": 0.0, "type": "electric_scooter", "name": "d669eae6b05a9f79e20397d2241722ea", "is_disabled": 0, "rental_uris": {"ios": "https://dc.lft.to/lastmile_qr_scan", "android": "https://dc.lft.to/lastmile_qr_scan"}, "is_reserved": 0}, {"lon": -77.04015283333334, "bike_id": "62b03773cc2dddd1160412c43a3f1430", "lat": 38.922125333333334, "fusion_lon": 0.0, "fusion_lat": 0.0, "type": "electric_scooter", "name": "62b03773cc2dddd1160412c43a3f1430", "is_disabled": 0, "rental_uris": {"ios": "https://dc.lft.to/lastmile_qr_scan", "android": "https://dc.lft.to/lastmile_qr_scan"}, "is_reserved": 0}, {"lon": -76.94633833333333, "bike_id": "32bb80ebe0208ff0922f980f9548f569", "lat": 38.898349833333334, "fusion_lon": 0.0, "fusion_lat": 0.0, "type": "electric_scooter", "name": "32bb80ebe0208ff0922f980f9548f569", "is_disabled": 0, "rental_uris": {"ios": "https://dc.lft.to/lastmile_qr_scan", "android": "https://dc.lft.to/lastmile_qr_scan"}, "is_reserved": 0}, {"lon": -77.03528933333334, "bike_id": "dd315816fcc6362209683e3b839e4a50", "lat": 38.923369, "fusion_lon": 0.0, "fusion_lat": 0.0, "type": "electric_scooter", "name": "dd315816fcc6362209683e3b839e4a50", "is_disabled": 0, "rental_uris": {"ios": "https://dc.lft.to/lastmile_qr_scan", "android": "https://dc.lft.to/lastmile_qr_scan"}, "is_reserved": 0}, {"lon": -77.04946333333334, "bike_id": "54051c3e352bc46ecca0d40e7b52aed9", "lat": 38.90848833333333, "fusion_lon": 0.0, "fusion_lat": 0.0, "type": "electric_scooter", "name": "54051c3e352bc46ecca0d40e7b52aed9", "is_disabled": 0, "rental_uris": {"ios": "https://dc.lft.to/lastmile_qr_scan", "android": "https://dc.lft.to/lastmile_qr_scan"}, "is_reserved": 0}, {"lon": -77.01763416666667, "bike_id": "b7a0bbc0b43858dddde1878da72b70f8", "lat": 38.903962, "fusion_lon": 0.0, "fusion_lat": 0.0, "type": "electric_scooter", "name": "b7a0bbc0b43858dddde1878da72b70f8", "is_disabled": 0, "rental_uris": {"ios": "https://dc.lft.to/lastmile_qr_scan", "android": "https://dc.lft.to/lastmile_qr_scan"}, "is_reserved": 0}, {"lon": -76.94106766666667, "bike_id": "de3151344e25bdaf4d42cd84aba32678", "lat": 38.88642266666667, "fusion_lon": 0.0, "fusion_lat": 0.0, "type": "electric_scooter", "name": "de3151344e25bdaf4d42cd84aba32678", "is_disabled": 0, "rental_uris": {"ios": "https://dc.lft.to/lastmile_qr_scan", "android": "https://dc.lft.to/lastmile_qr_scan"}, "is_reserved": 0}, {"lon": -77.03672216666666, "bike_id": "ab00abe22d37f629b12bd9996cb184ca", "lat": 38.920947, "fusion_lon": 0.0, "fusion_lat": 0.0, "type": "electric_scooter", "name": "ab00abe22d37f629b12bd9996cb184ca", "is_disabled": 0, "rental_uris": {"ios": "https://dc.lft.to/lastmile_qr_scan", "android": "https://dc.lft.to/lastmile_qr_scan"}, "is_reserved": 0}, {"lon": -76.965256, "bike_id": "5ff80f26c007c95d425763031d1ccc6c", "lat": 38.87629366666667, "fusion_lon": 0.0, "fusion_lat": 0.0, "type": "electric_scooter", "name": "5ff80f26c007c95d425763031d1ccc6c", "is_disabled": 0, "rental_uris": {"ios": "https://dc.lft.to/lastmile_qr_scan", "android": "https://dc.lft.to/lastmile_qr_scan"}, "is_reserved": 0}, {"lon": -77.05025533333334, "bike_id": "b5abc2bf6a039e3dbd0f18c7f6de9bf4", "lat": 38.89817983333333, "fusion_lon": 0.0, "fusion_lat": 0.0, "type": "electric_scooter", "name": "b5abc2bf6a039e3dbd0f18c7f6de9bf4", "is_disabled": 0, "rental_uris": {"ios": "https://dc.lft.to/lastmile_qr_scan", "android": "https://dc.lft.to/lastmile_qr_scan"}, "is_reserved": 0}, {"lon": -77.033765, "bike_id": "d10c66863d00ef1ed1b3a52757fcd2a6", "lat": 38.90982983333333, "fusion_lon": 0.0, "fusion_lat": 0.0, "type": "electric_scooter", "name": "d10c66863d00ef1ed1b3a52757fcd2a6", "is_disabled": 0, "rental_uris": {"ios": "https://dc.lft.to/lastmile_qr_scan", "android": "https://dc.lft.to/lastmile_qr_scan"}, "is_reserved": 0}, {"lon": -77.03315783333333, "bike_id": "ecec6b82b54d3a88deaae1ff94788016", "lat": 38.92165116666666, "fusion_lon": 0.0, "fusion_lat": 0.0, "type": "electric_scooter", "name": "ecec6b82b54d3a88deaae1ff94788016", "is_disabled": 0, "rental_uris": {"ios": "https://dc.lft.to/lastmile_qr_scan", "android": "https://dc.lft.to/lastmile_qr_scan"}, "is_reserved": 0}, {"lon": -77.03550216666666, "bike_id": "cdb1951967223288f8761c1c9b0209f8", "lat": 38.90780133333333, "fusion_lon": 0.0, "fusion_lat": 0.0, "type": "electric_scooter", "name": "cdb1951967223288f8761c1c9b0209f8", "is_disabled": 0, "rental_uris": {"ios": "https://dc.lft.to/lastmile_qr_scan", "android": "https://dc.lft.to/lastmile_qr_scan"}, "is_reserved": 0}, {"lon": -77.052144, "bike_id": "f568c27d981be17f79fe53fd04a7f20f", "lat": 38.915612, "fusion_lon": 0.0, "fusion_lat": 0.0, "type": "electric_scooter", "name": "f568c27d981be17f79fe53fd04a7f20f", "is_disabled": 0, "rental_uris": {"ios": "https://dc.lft.to/lastmile_qr_scan", "android": "https://dc.lft.to/lastmile_qr_scan"}, "is_reserved": 0}, {"lon": -76.98492933333333, "bike_id": "5c1a3d8660d67558e42b95f4a4ca5b01", "lat": 38.87832933333333, "fusion_lon": 0.0, "fusion_lat": 0.0, "type": "electric_scooter", "name": "5c1a3d8660d67558e42b95f4a4ca5b01", "is_disabled": 0, "rental_uris": {"ios": "https://dc.lft.to/lastmile_qr_scan", "android": "https://dc.lft.to/lastmile_qr_scan"}, "is_reserved": 0}, {"lon": -77.03101083333334, "bike_id": "b69a87d8dee50887d048975fb05a1e37", "lat": 38.934568166666665, "fusion_lon": 0.0, "fusion_lat": 0.0, "type": "electric_scooter", "name": "b69a87d8dee50887d048975fb05a1e37", "is_disabled": 0, "rental_uris": {"ios": "https://dc.lft.to/lastmile_qr_scan", "android": "https://dc.lft.to/lastmile_qr_scan"}, "is_reserved": 0}, {"lon": -77.03261883333333, "bike_id": "34a1002e6021343b756635ba127e65e1", "lat": 38.9297825, "fusion_lon": 0.0, "fusion_lat": 0.0, "type": "electric_scooter", "name": "34a1002e6021343b756635ba127e65e1", "is_disabled": 0, "rental_uris": {"ios": "https://dc.lft.to/lastmile_qr_scan", "android": "https://dc.lft.to/lastmile_qr_scan"}, "is_reserved": 0}, {"lon": -77.00583033333334, "bike_id": "6482ffb1f393619068551b6788b05e4f", "lat": 38.903890833333335, "fusion_lon": 0.0, "fusion_lat": 0.0, "type": "electric_scooter", "name": "6482ffb1f393619068551b6788b05e4f", "is_disabled": 0, "rental_uris": {"ios": "https://dc.lft.to/lastmile_qr_scan", "android": "https://dc.lft.to/lastmile_qr_scan"}, "is_reserved": 0}, {"lon": -77.03858066666666, "bike_id": "885b66d4a89f859f044fc54e064e7a81", "lat": 38.93202316666667, "fusion_lon": 0.0, "fusion_lat": 0.0, "type": "electric_scooter", "name": "885b66d4a89f859f044fc54e064e7a81", "is_disabled": 0, "rental_uris": {"ios": "https://dc.lft.to/lastmile_qr_scan", "android": "https://dc.lft.to/lastmile_qr_scan"}, "is_reserved": 0}, {"lon": -77.03192483333333, "bike_id": "db8ce9203d88ed45b5d0a607b18dbe72", "lat": 38.91064566666667, "fusion_lon": 0.0, "fusion_lat": 0.0, "type": "electric_scooter", "name": "db8ce9203d88ed45b5d0a607b18dbe72", "is_disabled": 0, "rental_uris": {"ios": "https://dc.lft.to/lastmile_qr_scan", "android": "https://dc.lft.to/lastmile_qr_scan"}, "is_reserved": 0}, {"lon": -77.03855683333333, "bike_id": "35716bf55d80748624ac9aa2502fe251", "lat": 38.916239833333336, "fusion_lon": 0.0, "fusion_lat": 0.0, "type": "electric_scooter", "name": "35716bf55d80748624ac9aa2502fe251", "is_disabled": 0, "rental_uris": {"ios": "https://dc.lft.to/lastmile_qr_scan", "android": "https://dc.lft.to/lastmile_qr_scan"}, "is_reserved": 0}, {"lon": -77.02059616666666, "bike_id": "221f2186e92c857c11bbfafa3493fac9", "lat": 38.901670333333335, "fusion_lon": 0.0, "fusion_lat": 0.0, "type": "electric_scooter", "name": "221f2186e92c857c11bbfafa3493fac9", "is_disabled": 0, "rental_uris": {"ios": "https://dc.lft.to/lastmile_qr_scan", "android": "https://dc.lft.to/lastmile_qr_scan"}, "is_reserved": 0}, {"lon": -77.03204083333334, "bike_id": "b61340ba5f794d0735c71052017acad7", "lat": 38.939681666666665, "fusion_lon": 0.0, "fusion_lat": 0.0, "type": "electric_scooter", "name": "b61340ba5f794d0735c71052017acad7", "is_disabled": 0, "rental_uris": {"ios": "https://dc.lft.to/lastmile_qr_scan", "android": "https://dc.lft.to/lastmile_qr_scan"}, "is_reserved": 0}, {"lon": -77.03272316666667, "bike_id": "ba25faad4746f4a2e3964d37ac8a4e6e", "lat": 38.901494, "fusion_lon": 0.0, "fusion_lat": 0.0, "type": "electric_scooter", "name": "ba25faad4746f4a2e3964d37ac8a4e6e", "is_disabled": 0, "rental_uris": {"ios": "https://dc.lft.to/lastmile_qr_scan", "android": "https://dc.lft.to/lastmile_qr_scan"}, "is_reserved": 0}, {"lon": -77.04434616666667, "bike_id": "6c57bd43a0b7974a273cd974e0df5f13", "lat": 38.921691833333334, "fusion_lon": 0.0, "fusion_lat": 0.0, "type": "electric_scooter", "name": "6c57bd43a0b7974a273cd974e0df5f13", "is_disabled": 0, "rental_uris": {"ios": "https://dc.lft.to/lastmile_qr_scan", "android": "https://dc.lft.to/lastmile_qr_scan"}, "is_reserved": 0}, {"lon": -77.01419733333333, "bike_id": "5dca787a70d4e7f641c47f41199d15fc", "lat": 38.9282125, "fusion_lon": 0.0, "fusion_lat": 0.0, "type": "electric_scooter", "name": "5dca787a70d4e7f641c47f41199d15fc", "is_disabled": 0, "rental_uris": {"ios": "https://dc.lft.to/lastmile_qr_scan", "android": "https://dc.lft.to/lastmile_qr_scan"}, "is_reserved": 0}, {"lon": -77.1856435, "bike_id": "0287cce6376025495dd1d1bcefe4a409", "lat": 39.0997665, "fusion_lon": 0.0, "fusion_lat": 0.0, "type": "electric_bike", "name": "0287cce6376025495dd1d1bcefe4a409", "is_disabled": 0, "rental_uris": {"ios": "https://dc.lft.to/lastmile_qr_scan", "android": "https://dc.lft.to/lastmile_qr_scan"}, "is_reserved": 0}, {"lon": -77.031783, "bike_id": "a77a58de3e8666fdad756d95dca72eb8", "lat": 38.936056666666666, "fusion_lon": 0.0, "fusion_lat": 0.0, "type": "electric_scooter", "name": "a77a58de3e8666fdad756d95dca72eb8", "is_disabled": 0, "rental_uris": {"ios": "https://dc.lft.to/lastmile_qr_scan", "android": "https://dc.lft.to/lastmile_qr_scan"}, "is_reserved": 0}, {"lon": -77.0313055, "bike_id": "0ec3541e6abed5de37b2ab68eab79847", "lat": 38.94505633333333, "fusion_lon": 0.0, "fusion_lat": 0.0, "type": "electric_scooter", "name": "0ec3541e6abed5de37b2ab68eab79847", "is_disabled": 0, "rental_uris": {"ios": "https://dc.lft.to/lastmile_qr_scan", "android": "https://dc.lft.to/lastmile_qr_scan"}, "is_reserved": 0}, {"lon": -77.0006705, "bike_id": "ff6cf6138ea665db7b340def265cf78f", "lat": 38.875995833333334, "fusion_lon": 0.0, "fusion_lat": 0.0, "type": "electric_scooter", "name": "ff6cf6138ea665db7b340def265cf78f", "is_disabled": 0, "rental_uris": {"ios": "https://dc.lft.to/lastmile_qr_scan", "android": "https://dc.lft.to/lastmile_qr_scan"}, "is_reserved": 0}, {"lon": -77.0324865, "bike_id": "bce45a565c3911443ec49c7a0b38b418", "lat": 38.905611666666665, "fusion_lon": 0.0, "fusion_lat": 0.0, "type": "electric_scooter", "name": "bce45a565c3911443ec49c7a0b38b418", "is_disabled": 0, "rental_uris": {"ios": "https://dc.lft.to/lastmile_qr_scan", "android": "https://dc.lft.to/lastmile_qr_scan"}, "is_reserved": 0}, {"lon": -77.00480966666667, "bike_id": "c6eaf248976d3845fc9d5417f312b90d", "lat": 38.895840166666666, "fusion_lon": 0.0, "fusion_lat": 0.0, "type": "electric_scooter", "name": "c6eaf248976d3845fc9d5417f312b90d", "is_disabled": 0, "rental_uris": {"ios": "https://dc.lft.to/lastmile_qr_scan", "android": "https://dc.lft.to/lastmile_qr_scan"}, "is_reserved": 0}, {"lon": -77.031853, "bike_id": "3a3c8188dd6756d31b33507d69c81eb1", "lat": 38.9127965, "fusion_lon": 0.0, "fusion_lat": 0.0, "type": "electric_scooter", "name": "3a3c8188dd6756d31b33507d69c81eb1", "is_disabled": 0, "rental_uris": {"ios": "https://dc.lft.to/lastmile_qr_scan", "android": "https://dc.lft.to/lastmile_qr_scan"}, "is_reserved": 0}, {"lon": -77.03181366666666, "bike_id": "3150147f39d655b677607825b6b5935f", "lat": 38.921024, "fusion_lon": 0.0, "fusion_lat": 0.0, "type": "electric_bike", "name": "3150147f39d655b677607825b6b5935f", "is_disabled": 0, "rental_uris": {"ios": "https://dc.lft.to/lastmile_qr_scan", "android": "https://dc.lft.to/lastmile_qr_scan"}, "is_reserved": 0}, {"lon": -77.04037516666666, "bike_id": "c37617709ef2e65839f1f4f92dbb1eb5", "lat": 38.918571166666666, "fusion_lon": 0.0, "fusion_lat": 0.0, "type": "electric_scooter", "name": "c37617709ef2e65839f1f4f92dbb1eb5", "is_disabled": 0, "rental_uris": {"ios": "https://dc.lft.to/lastmile_qr_scan", "android": "https://dc.lft.to/lastmile_qr_scan"}, "is_reserved": 0}, {"lon": -76.98777333333334, "bike_id": "54a779130bb7b67f74207f47c5da37c8", "lat": 38.866074833333336, "fusion_lon": 0.0, "fusion_lat": 0.0, "type": "electric_bike", "name": "54a779130bb7b67f74207f47c5da37c8", "is_disabled": 0, "rental_uris": {"ios": "https://dc.lft.to/lastmile_qr_scan", "android": "https://dc.lft.to/lastmile_qr_scan"}, "is_reserved": 0}, {"lon": -77.007529, "bike_id": "d93923670924468ce994b587f722ad25", "lat": 38.89827233333333, "fusion_lon": 0.0, "fusion_lat": 0.0, "type": "electric_scooter", "name": "d93923670924468ce994b587f722ad25", "is_disabled": 0, "rental_uris": {"ios": "https://dc.lft.to/lastmile_qr_scan", "android": "https://dc.lft.to/lastmile_qr_scan"}, "is_reserved": 0}, {"lon": -77.0222575, "bike_id": "4a608c1e485486702be896aab4974412", "lat": 38.90324283333333, "fusion_lon": 0.0, "fusion_lat": 0.0, "type": "electric_scooter", "name": "4a608c1e485486702be896aab4974412", "is_disabled": 0, "rental_uris": {"ios": "https://dc.lft.to/lastmile_qr_scan", "android": "https://dc.lft.to/lastmile_qr_scan"}, "is_reserved": 0}, {"lon": -76.99547233333334, "bike_id": "e705103f0287a55ce87a836eaf466ea4", "lat": 38.862636, "fusion_lon": 0.0, "fusion_lat": 0.0, "type": "electric_scooter", "name": "e705103f0287a55ce87a836eaf466ea4", "is_disabled": 0, "rental_uris": {"ios": "https://dc.lft.to/lastmile_qr_scan", "android": "https://dc.lft.to/lastmile_qr_scan"}, "is_reserved": 0}, {"lon": -77.02312483333333, "bike_id": "0634f4f1ea2f50584bcb4922f552d869", "lat": 38.909597, "fusion_lon": 0.0, "fusion_lat": 0.0, "type": "electric_scooter", "name": "0634f4f1ea2f50584bcb4922f552d869", "is_disabled": 0, "rental_uris": {"ios": "https://dc.lft.to/lastmile_qr_scan", "android": "https://dc.lft.to/lastmile_qr_scan"}, "is_reserved": 0}, {"lon": -77.22808366666666, "bike_id": "f7cdb60c6a487c7a57caa1177b127480", "lat": 38.91012533333333, "fusion_lon": 0.0, "fusion_lat": 0.0, "type": "electric_bike", "name": "f7cdb60c6a487c7a57caa1177b127480", "is_disabled": 0, "rental_uris": {"ios": "https://dc.lft.to/lastmile_qr_scan", "android": "https://dc.lft.to/lastmile_qr_scan"}, "is_reserved": 0}, {"lon": -77.03998866666667, "bike_id": "3a7d5bd5f03bb661a5f3414ade7713d5", "lat": 38.914115833333334, "fusion_lon": 0.0, "fusion_lat": 0.0, "type": "electric_scooter", "name": "3a7d5bd5f03bb661a5f3414ade7713d5", "is_disabled": 0, "rental_uris": {"ios": "https://dc.lft.to/lastmile_qr_scan", "android": "https://dc.lft.to/lastmile_qr_scan"}, "is_reserved": 0}, {"lon": -77.0460485, "bike_id": "26a131a6bfd206117ee1d97ad93c5a45", "lat": 38.883828666666666, "fusion_lon": 0.0, "fusion_lat": 0.0, "type": "electric_scooter", "name": "26a131a6bfd206117ee1d97ad93c5a45", "is_disabled": 0, "rental_uris": {"ios": "https://dc.lft.to/lastmile_qr_scan", "android": "https://dc.lft.to/lastmile_qr_scan"}, "is_reserved": 0}, {"lon": -77.0309875, "bike_id": "b5f4334de3de43416804370a41e4946a", "lat": 38.93455216666667, "fusion_lon": 0.0, "fusion_lat": 0.0, "type": "electric_scooter", "name": "b5f4334de3de43416804370a41e4946a", "is_disabled": 0, "rental_uris": {"ios": "https://dc.lft.to/lastmile_qr_scan", "android": "https://dc.lft.to/lastmile_qr_scan"}, "is_reserved": 0}, {"lon": -77.03334733333334, "bike_id": "71e092769c06f651ec0cb1aaa2ffe074", "lat": 38.96050683333333, "fusion_lon": 0.0, "fusion_lat": 0.0, "type": "electric_scooter", "name": "71e092769c06f651ec0cb1aaa2ffe074", "is_disabled": 0, "rental_uris": {"ios": "https://dc.lft.to/lastmile_qr_scan", "android": "https://dc.lft.to/lastmile_qr_scan"}, "is_reserved": 0}, {"lon": -77.0279185, "bike_id": "421c04234ae089e557e18aac5722e35f", "lat": 38.954230833333334, "fusion_lon": 0.0, "fusion_lat": 0.0, "type": "electric_scooter", "name": "421c04234ae089e557e18aac5722e35f", "is_disabled": 0, "rental_uris": {"ios": "https://dc.lft.to/lastmile_qr_scan", "android": "https://dc.lft.to/lastmile_qr_scan"}, "is_reserved": 0}, {"lon": -77.045013, "bike_id": "0992146494ff154f5cc1ce0269d1b3ef", "lat": 38.91589466666667, "fusion_lon": 0.0, "fusion_lat": 0.0, "type": "electric_scooter", "name": "0992146494ff154f5cc1ce0269d1b3ef", "is_disabled": 0, "rental_uris": {"ios": "https://dc.lft.to/lastmile_qr_scan", "android": "https://dc.lft.to/lastmile_qr_scan"}, "is_reserved": 0}, {"lon": -77.02200433333333, "bike_id": "f89ef0e5ae62a2c0887e0db5fb24a64d", "lat": 38.9108375, "fusion_lon": 0.0, "fusion_lat": 0.0, "type": "electric_scooter", "name": "f89ef0e5ae62a2c0887e0db5fb24a64d", "is_disabled": 0, "rental_uris": {"ios": "https://dc.lft.to/lastmile_qr_scan", "android": "https://dc.lft.to/lastmile_qr_scan"}, "is_reserved": 0}, {"lon": -76.991272, "bike_id": "f2275930c723340d4af40394da6001f9", "lat": 38.9226535, "fusion_lon": 0.0, "fusion_lat": 0.0, "type": "electric_scooter", "name": "f2275930c723340d4af40394da6001f9", "is_disabled": 0, "rental_uris": {"ios": "https://dc.lft.to/lastmile_qr_scan", "android": "https://dc.lft.to/lastmile_qr_scan"}, "is_reserved": 0}, {"lon": -77.019967, "bike_id": "986eaa72c9adc7616c3d00996f38e81f", "lat": 38.904465, "fusion_lon": 0.0, "fusion_lat": 0.0, "type": "electric_scooter", "name": "986eaa72c9adc7616c3d00996f38e81f", "is_disabled": 0, "rental_uris": {"ios": "https://dc.lft.to/lastmile_qr_scan", "android": "https://dc.lft.to/lastmile_qr_scan"}, "is_reserved": 0}, {"lon": -77.02813483333334, "bike_id": "3bbb55dfb778d3959262725f899099a7", "lat": 38.91726466666667, "fusion_lon": 0.0, "fusion_lat": 0.0, "type": "electric_scooter", "name": "3bbb55dfb778d3959262725f899099a7", "is_disabled": 0, "rental_uris": {"ios": "https://dc.lft.to/lastmile_qr_scan", "android": "https://dc.lft.to/lastmile_qr_scan"}, "is_reserved": 0}, {"lon": -77.03130616666667, "bike_id": "3e7848cdf314537cde97ea7eb1a49a86", "lat": 38.988264, "fusion_lon": 0.0, "fusion_lat": 0.0, "type": "electric_scooter", "name": "3e7848cdf314537cde97ea7eb1a49a86", "is_disabled": 0, "rental_uris": {"ios": "https://dc.lft.to/lastmile_qr_scan", "android": "https://dc.lft.to/lastmile_qr_scan"}, "is_reserved": 0}, {"lon": -77.02976783333334, "bike_id": "c83108e0910f4737a1c8465838bcb3d5", "lat": 38.91725016666667, "fusion_lon": 0.0, "fusion_lat": 0.0, "type": "electric_scooter", "name": "c83108e0910f4737a1c8465838bcb3d5", "is_disabled": 0, "rental_uris": {"ios": "https://dc.lft.to/lastmile_qr_scan", "android": "https://dc.lft.to/lastmile_qr_scan"}, "is_reserved": 0}, {"lon": -76.96388566666667, "bike_id": "93c05e0436f15c6e49602db80162275a", "lat": 38.951799666666666, "fusion_lon": 0.0, "fusion_lat": 0.0, "type": "electric_bike", "name": "93c05e0436f15c6e49602db80162275a", "is_disabled": 0, "rental_uris": {"ios": "https://dc.lft.to/lastmile_qr_scan", "android": "https://dc.lft.to/lastmile_qr_scan"}, "is_reserved": 0}, {"lon": -77.020982, "bike_id": "75cf52a530685529bf535f3028329870", "lat": 38.909765666666665, "fusion_lon": 0.0, "fusion_lat": 0.0, "type": "electric_scooter", "name": "75cf52a530685529bf535f3028329870", "is_disabled": 0, "rental_uris": {"ios": "https://dc.lft.to/lastmile_qr_scan", "android": "https://dc.lft.to/lastmile_qr_scan"}, "is_reserved": 0}, {"lon": -77.05743383333333, "bike_id": "b7da9129c4e8059c47e42b438fa1def7", "lat": 38.924373, "fusion_lon": 0.0, "fusion_lat": 0.0, "type": "electric_scooter", "name": "b7da9129c4e8059c47e42b438fa1def7", "is_disabled": 0, "rental_uris": {"ios": "https://dc.lft.to/lastmile_qr_scan", "android": "https://dc.lft.to/lastmile_qr_scan"}, "is_reserved": 0}, {"lon": -77.021891, "bike_id": "8893b2ef02138c229b14ace4afe49217", "lat": 38.905855333333335, "fusion_lon": 0.0, "fusion_lat": 0.0, "type": "electric_scooter", "name": "8893b2ef02138c229b14ace4afe49217", "is_disabled": 0, "rental_uris": {"ios": "https://dc.lft.to/lastmile_qr_scan", "android": "https://dc.lft.to/lastmile_qr_scan"}, "is_reserved": 0}, {"lon": -77.0298365, "bike_id": "3b3805df1439ad5e51e65bf764b8b64e", "lat": 38.94742, "fusion_lon": 0.0, "fusion_lat": 0.0, "type": "electric_scooter", "name": "3b3805df1439ad5e51e65bf764b8b64e", "is_disabled": 0, "rental_uris": {"ios": "https://dc.lft.to/lastmile_qr_scan", "android": "https://dc.lft.to/lastmile_qr_scan"}, "is_reserved": 0}, {"lon": -77.03410066666666, "bike_id": "a62f09e917d2b45576c3d02edc375a7b", "lat": 38.9342105, "fusion_lon": 0.0, "fusion_lat": 0.0, "type": "electric_scooter", "name": "a62f09e917d2b45576c3d02edc375a7b", "is_disabled": 0, "rental_uris": {"ios": "https://dc.lft.to/lastmile_qr_scan", "android": "https://dc.lft.to/lastmile_qr_scan"}, "is_reserved": 0}, {"lon": -77.04635033333334, "bike_id": "2a5586b2c1614bbb243fa716b88e1519", "lat": 38.92118466666667, "fusion_lon": 0.0, "fusion_lat": 0.0, "type": "electric_scooter", "name": "2a5586b2c1614bbb243fa716b88e1519", "is_disabled": 0, "rental_uris": {"ios": "https://dc.lft.to/lastmile_qr_scan", "android": "https://dc.lft.to/lastmile_qr_scan"}, "is_reserved": 0}, {"lon": -77.03152033333333, "bike_id": "db81c08b40fa89d018a1f0183ef218ea", "lat": 38.91711383333333, "fusion_lon": 0.0, "fusion_lat": 0.0, "type": "electric_scooter", "name": "db81c08b40fa89d018a1f0183ef218ea", "is_disabled": 0, "rental_uris": {"ios": "https://dc.lft.to/lastmile_qr_scan", "android": "https://dc.lft.to/lastmile_qr_scan"}, "is_reserved": 0}, {"lon": -77.033184, "bike_id": "5810451acc5ef703bfb77f56e3284474", "lat": 38.90843433333333, "fusion_lon": 0.0, "fusion_lat": 0.0, "type": "electric_scooter", "name": "5810451acc5ef703bfb77f56e3284474", "is_disabled": 0, "rental_uris": {"ios": "https://dc.lft.to/lastmile_qr_scan", "android": "https://dc.lft.to/lastmile_qr_scan"}, "is_reserved": 0}, {"lon": -77.03836516666667, "bike_id": "6d2ed89e7bf64b6809859c8419607521", "lat": 38.91035466666666, "fusion_lon": 0.0, "fusion_lat": 0.0, "type": "electric_scooter", "name": "6d2ed89e7bf64b6809859c8419607521", "is_disabled": 0, "rental_uris": {"ios": "https://dc.lft.to/lastmile_qr_scan", "android": "https://dc.lft.to/lastmile_qr_scan"}, "is_reserved": 0}, {"lon": -76.98537366666666, "bike_id": "61d3908f062bce49d0f7c8fb11d27d63", "lat": 38.9102365, "fusion_lon": 0.0, "fusion_lat": 0.0, "type": "electric_scooter", "name": "61d3908f062bce49d0f7c8fb11d27d63", "is_disabled": 0, "rental_uris": {"ios": "https://dc.lft.to/lastmile_qr_scan", "android": "https://dc.lft.to/lastmile_qr_scan"}, "is_reserved": 0}, {"lon": -77.02563, "bike_id": "f6e0fb84feb843c1f9e315b5b195300b", "lat": 38.92402366666666, "fusion_lon": 0.0, "fusion_lat": 0.0, "type": "electric_scooter", "name": "f6e0fb84feb843c1f9e315b5b195300b", "is_disabled": 0, "rental_uris": {"ios": "https://dc.lft.to/lastmile_qr_scan", "android": "https://dc.lft.to/lastmile_qr_scan"}, "is_reserved": 0}, {"lon": -77.0236875, "bike_id": "b57d9a91bb67143ed4042e996467e4f8", "lat": 38.89219666666666, "fusion_lon": 0.0, "fusion_lat": 0.0, "type": "electric_scooter", "name": "b57d9a91bb67143ed4042e996467e4f8", "is_disabled": 0, "rental_uris": {"ios": "https://dc.lft.to/lastmile_qr_scan", "android": "https://dc.lft.to/lastmile_qr_scan"}, "is_reserved": 0}, {"lon": -76.98725, "bike_id": "1f91862391fcd130e2c10c7faee0341d", "lat": 38.86711716666667, "fusion_lon": 0.0, "fusion_lat": 0.0, "type": "electric_scooter", "name": "1f91862391fcd130e2c10c7faee0341d", "is_disabled": 0, "rental_uris": {"ios": "https://dc.lft.to/lastmile_qr_scan", "android": "https://dc.lft.to/lastmile_qr_scan"}, "is_reserved": 0}, {"lon": -77.00370633333333, "bike_id": "b9f1ae97de29125ad11ca18084356d88", "lat": 38.897281666666665, "fusion_lon": 0.0, "fusion_lat": 0.0, "type": "electric_scooter", "name": "b9f1ae97de29125ad11ca18084356d88", "is_disabled": 0, "rental_uris": {"ios": "https://dc.lft.to/lastmile_qr_scan", "android": "https://dc.lft.to/lastmile_qr_scan"}, "is_reserved": 0}, {"lon": -76.94881133333334, "bike_id": "d3e3b7a4a0974e42fe0d0dcdf0bd1c10", "lat": 38.8942935, "fusion_lon": 0.0, "fusion_lat": 0.0, "type": "electric_scooter", "name": "d3e3b7a4a0974e42fe0d0dcdf0bd1c10", "is_disabled": 0, "rental_uris": {"ios": "https://dc.lft.to/lastmile_qr_scan", "android": "https://dc.lft.to/lastmile_qr_scan"}, "is_reserved": 0}, {"lon": -77.000277, "bike_id": "78973797849adc972caed541b34996f3", "lat": 38.900211666666664, "fusion_lon": 0.0, "fusion_lat": 0.0, "type": "electric_scooter", "name": "78973797849adc972caed541b34996f3", "is_disabled": 0, "rental_uris": {"ios": "https://dc.lft.to/lastmile_qr_scan", "android": "https://dc.lft.to/lastmile_qr_scan"}, "is_reserved": 0}, {"lon": -77.05292516666667, "bike_id": "a65fb7066ece657b44daa729ed825599", "lat": 38.90339316666667, "fusion_lon": 0.0, "fusion_lat": 0.0, "type": "electric_scooter", "name": "a65fb7066ece657b44daa729ed825599", "is_disabled": 0, "rental_uris": {"ios": "https://dc.lft.to/lastmile_qr_scan", "android": "https://dc.lft.to/lastmile_qr_scan"}, "is_reserved": 0}, {"lon": -77.0232735, "bike_id": "4fa4189b1bd711734e5d1baf849ef7bf", "lat": 38.94968883333333, "fusion_lon": 0.0, "fusion_lat": 0.0, "type": "electric_scooter", "name": "4fa4189b1bd711734e5d1baf849ef7bf", "is_disabled": 0, "rental_uris": {"ios": "https://dc.lft.to/lastmile_qr_scan", "android": "https://dc.lft.to/lastmile_qr_scan"}, "is_reserved": 0}, {"lon": -76.99845866666666, "bike_id": "0e43ddac00c4a2ca1d29b97318bbdc5a", "lat": 38.900513, "fusion_lon": 0.0, "fusion_lat": 0.0, "type": "electric_scooter", "name": "0e43ddac00c4a2ca1d29b97318bbdc5a", "is_disabled": 0, "rental_uris": {"ios": "https://dc.lft.to/lastmile_qr_scan", "android": "https://dc.lft.to/lastmile_qr_scan"}, "is_reserved": 0}, {"lon": -76.94122483333334, "bike_id": "65efbce0765d4810810c8763c29d984e", "lat": 38.908236333333335, "fusion_lon": 0.0, "fusion_lat": 0.0, "type": "electric_scooter", "name": "65efbce0765d4810810c8763c29d984e", "is_disabled": 0, "rental_uris": {"ios": "https://dc.lft.to/lastmile_qr_scan", "android": "https://dc.lft.to/lastmile_qr_scan"}, "is_reserved": 0}, {"lon": -77.033787, "bike_id": "ee478dd5855e4b0497dcf26ebc2fadc2", "lat": 38.93872566666667, "fusion_lon": 0.0, "fusion_lat": 0.0, "type": "electric_scooter", "name": "ee478dd5855e4b0497dcf26ebc2fadc2", "is_disabled": 0, "rental_uris": {"ios": "https://dc.lft.to/lastmile_qr_scan", "android": "https://dc.lft.to/lastmile_qr_scan"}, "is_reserved": 0}, {"lon": -76.94792166666667, "bike_id": "2359ff1de646753d80aaf25bfd23fdc4", "lat": 38.86188083333333, "fusion_lon": 0.0, "fusion_lat": 0.0, "type": "electric_bike", "name": "2359ff1de646753d80aaf25bfd23fdc4", "is_disabled": 0, "rental_uris": {"ios": "https://dc.lft.to/lastmile_qr_scan", "android": "https://dc.lft.to/lastmile_qr_scan"}, "is_reserved": 0}, {"lon": -77.03181133333334, "bike_id": "673270e655e23695494d7d54be3aa234", "lat": 38.909103333333334, "fusion_lon": 0.0, "fusion_lat": 0.0, "type": "electric_scooter", "name": "673270e655e23695494d7d54be3aa234", "is_disabled": 0, "rental_uris": {"ios": "https://dc.lft.to/lastmile_qr_scan", "android": "https://dc.lft.to/lastmile_qr_scan"}, "is_reserved": 0}, {"lon": -77.02397066666667, "bike_id": "8f9099912a8ccbbdbe74080e0b4d90e6", "lat": 38.91598483333333, "fusion_lon": 0.0, "fusion_lat": 0.0, "type": "electric_scooter", "name": "8f9099912a8ccbbdbe74080e0b4d90e6", "is_disabled": 0, "rental_uris": {"ios": "https://dc.lft.to/lastmile_qr_scan", "android": "https://dc.lft.to/lastmile_qr_scan"}, "is_reserved": 0}, {"lon": -76.99057116666667, "bike_id": "f6538503a075616efa6ec9f8bb4cc693", "lat": 38.8638045, "fusion_lon": 0.0, "fusion_lat": 0.0, "type": "electric_scooter", "name": "f6538503a075616efa6ec9f8bb4cc693", "is_disabled": 0, "rental_uris": {"ios": "https://dc.lft.to/lastmile_qr_scan", "android": "https://dc.lft.to/lastmile_qr_scan"}, "is_reserved": 0}, {"lon": -77.006786, "bike_id": "728bbc7c37743623edf4e24553c0f304", "lat": 38.834924666666666, "fusion_lon": 0.0, "fusion_lat": 0.0, "type": "electric_scooter", "name": "728bbc7c37743623edf4e24553c0f304", "is_disabled": 0, "rental_uris": {"ios": "https://dc.lft.to/lastmile_qr_scan", "android": "https://dc.lft.to/lastmile_qr_scan"}, "is_reserved": 0}, {"lon": -77.03472866666667, "bike_id": "38a5a52ab3bacc9c4e0b23a410078d52", "lat": 38.884887166666665, "fusion_lon": 0.0, "fusion_lat": 0.0, "type": "electric_scooter", "name": "38a5a52ab3bacc9c4e0b23a410078d52", "is_disabled": 0, "rental_uris": {"ios": "https://dc.lft.to/lastmile_qr_scan", "android": "https://dc.lft.to/lastmile_qr_scan"}, "is_reserved": 0}, {"lon": -76.93738166666667, "bike_id": "41aa4d80b8280911a4f533117935338a", "lat": 38.890097, "fusion_lon": 0.0, "fusion_lat": 0.0, "type": "electric_scooter", "name": "41aa4d80b8280911a4f533117935338a", "is_disabled": 0, "rental_uris": {"ios": "https://dc.lft.to/lastmile_qr_scan", "android": "https://dc.lft.to/lastmile_qr_scan"}, "is_reserved": 0}, {"lon": -77.0367945, "bike_id": "37720d0ef89d286a027edb8927c6f874", "lat": 38.908784833333335, "fusion_lon": 0.0, "fusion_lat": 0.0, "type": "electric_scooter", "name": "37720d0ef89d286a027edb8927c6f874", "is_disabled": 0, "rental_uris": {"ios": "https://dc.lft.to/lastmile_qr_scan", "android": "https://dc.lft.to/lastmile_qr_scan"}, "is_reserved": 0}, {"lon": -77.00676816666666, "bike_id": "1a9708f3a58c85d53e972839323a5953", "lat": 38.90011033333333, "fusion_lon": 0.0, "fusion_lat": 0.0, "type": "electric_scooter", "name": "1a9708f3a58c85d53e972839323a5953", "is_disabled": 0, "rental_uris": {"ios": "https://dc.lft.to/lastmile_qr_scan", "android": "https://dc.lft.to/lastmile_qr_scan"}, "is_reserved": 0}, {"lon": -76.93754183333333, "bike_id": "bce17e2d4746c48c0f4456eb8ca41692", "lat": 38.89047016666667, "fusion_lon": 0.0, "fusion_lat": 0.0, "type": "electric_scooter", "name": "bce17e2d4746c48c0f4456eb8ca41692", "is_disabled": 0, "rental_uris": {"ios": "https://dc.lft.to/lastmile_qr_scan", "android": "https://dc.lft.to/lastmile_qr_scan"}, "is_reserved": 0}, {"lon": -77.05240116666667, "bike_id": "fa474e119b6e19878bb24e8fa37e88c1", "lat": 38.92459016666667, "fusion_lon": 0.0, "fusion_lat": 0.0, "type": "electric_scooter", "name": "fa474e119b6e19878bb24e8fa37e88c1", "is_disabled": 0, "rental_uris": {"ios": "https://dc.lft.to/lastmile_qr_scan", "android": "https://dc.lft.to/lastmile_qr_scan"}, "is_reserved": 0}, {"lon": -76.99544433333334, "bike_id": "b0d307cbd7c447742a6a6c55beddb77d", "lat": 38.862604166666664, "fusion_lon": 0.0, "fusion_lat": 0.0, "type": "electric_scooter", "name": "b0d307cbd7c447742a6a6c55beddb77d", "is_disabled": 0, "rental_uris": {"ios": "https://dc.lft.to/lastmile_qr_scan", "android": "https://dc.lft.to/lastmile_qr_scan"}, "is_reserved": 0}, {"lon": -77.0163655, "bike_id": "822a8b0f718ef110aaf5b9423c6bf944", "lat": 38.92896416666667, "fusion_lon": 0.0, "fusion_lat": 0.0, "type": "electric_scooter", "name": "822a8b0f718ef110aaf5b9423c6bf944", "is_disabled": 0, "rental_uris": {"ios": "https://dc.lft.to/lastmile_qr_scan", "android": "https://dc.lft.to/lastmile_qr_scan"}, "is_reserved": 0}, {"lon": -77.03672616666667, "bike_id": "f5a6d75670fa55413cbea05c24b91471", "lat": 38.9095885, "fusion_lon": 0.0, "fusion_lat": 0.0, "type": "electric_scooter", "name": "f5a6d75670fa55413cbea05c24b91471", "is_disabled": 0, "rental_uris": {"ios": "https://dc.lft.to/lastmile_qr_scan", "android": "https://dc.lft.to/lastmile_qr_scan"}, "is_reserved": 0}, {"lon": -77.04901633333333, "bike_id": "788909b08b31037cd0dad18943a32b7b", "lat": 38.903548666666666, "fusion_lon": 0.0, "fusion_lat": 0.0, "type": "electric_scooter", "name": "788909b08b31037cd0dad18943a32b7b", "is_disabled": 0, "rental_uris": {"ios": "https://dc.lft.to/lastmile_qr_scan", "android": "https://dc.lft.to/lastmile_qr_scan"}, "is_reserved": 0}, {"lon": -77.03667583333333, "bike_id": "e281ce65c3a6b34f8b8948aba4acf57e", "lat": 38.921204333333336, "fusion_lon": 0.0, "fusion_lat": 0.0, "type": "electric_scooter", "name": "e281ce65c3a6b34f8b8948aba4acf57e", "is_disabled": 0, "rental_uris": {"ios": "https://dc.lft.to/lastmile_qr_scan", "android": "https://dc.lft.to/lastmile_qr_scan"}, "is_reserved": 0}, {"lon": -77.03257283333333, "bike_id": "7083fbcc5ee87bc8c784276dd28a09c8", "lat": 38.931363833333336, "fusion_lon": 0.0, "fusion_lat": 0.0, "type": "electric_scooter", "name": "7083fbcc5ee87bc8c784276dd28a09c8", "is_disabled": 0, "rental_uris": {"ios": "https://dc.lft.to/lastmile_qr_scan", "android": "https://dc.lft.to/lastmile_qr_scan"}, "is_reserved": 0}, {"lon": -77.05801533333333, "bike_id": "a68a888446124f4342b5660c59c438ec", "lat": 38.934538333333336, "fusion_lon": 0.0, "fusion_lat": 0.0, "type": "electric_scooter", "name": "a68a888446124f4342b5660c59c438ec", "is_disabled": 0, "rental_uris": {"ios": "https://dc.lft.to/lastmile_qr_scan", "android": "https://dc.lft.to/lastmile_qr_scan"}, "is_reserved": 0}, {"lon": -77.045024, "bike_id": "e4f4994bdf9aba74d6573e4248a0acbf", "lat": 38.91391483333334, "fusion_lon": 0.0, "fusion_lat": 0.0, "type": "electric_scooter", "name": "e4f4994bdf9aba74d6573e4248a0acbf", "is_disabled": 0, "rental_uris": {"ios": "https://dc.lft.to/lastmile_qr_scan", "android": "https://dc.lft.to/lastmile_qr_scan"}, "is_reserved": 0}, {"lon": -77.06266433333333, "bike_id": "6899488b4ed910a74e906328d827f264", "lat": 38.90277616666667, "fusion_lon": 0.0, "fusion_lat": 0.0, "type": "electric_scooter", "name": "6899488b4ed910a74e906328d827f264", "is_disabled": 0, "rental_uris": {"ios": "https://dc.lft.to/lastmile_qr_scan", "android": "https://dc.lft.to/lastmile_qr_scan"}, "is_reserved": 0}, {"lon": -77.032071, "bike_id": "2bb75a6e7d0609044b8e6e0658743a18", "lat": 38.921961, "fusion_lon": 0.0, "fusion_lat": 0.0, "type": "electric_scooter", "name": "2bb75a6e7d0609044b8e6e0658743a18", "is_disabled": 0, "rental_uris": {"ios": "https://dc.lft.to/lastmile_qr_scan", "android": "https://dc.lft.to/lastmile_qr_scan"}, "is_reserved": 0}, {"lon": -77.03425483333334, "bike_id": "c0ae9d5a2dbd7ad2f24ae571ba39fbde", "lat": 38.919269, "fusion_lon": 0.0, "fusion_lat": 0.0, "type": "electric_scooter", "name": "c0ae9d5a2dbd7ad2f24ae571ba39fbde", "is_disabled": 0, "rental_uris": {"ios": "https://dc.lft.to/lastmile_qr_scan", "android": "https://dc.lft.to/lastmile_qr_scan"}, "is_reserved": 0}, {"lon": -77.01909083333334, "bike_id": "a81352bad568eb551b6e8edd8108dc30", "lat": 38.886184166666666, "fusion_lon": 0.0, "fusion_lat": 0.0, "type": "electric_scooter", "name": "a81352bad568eb551b6e8edd8108dc30", "is_disabled": 0, "rental_uris": {"ios": "https://dc.lft.to/lastmile_qr_scan", "android": "https://dc.lft.to/lastmile_qr_scan"}, "is_reserved": 0}, {"lon": -77.00929966666666, "bike_id": "a969c91926d38b6d2ed0ff208ebe1c2a", "lat": 38.89604633333333, "fusion_lon": 0.0, "fusion_lat": 0.0, "type": "electric_scooter", "name": "a969c91926d38b6d2ed0ff208ebe1c2a", "is_disabled": 0, "rental_uris": {"ios": "https://dc.lft.to/lastmile_qr_scan", "android": "https://dc.lft.to/lastmile_qr_scan"}, "is_reserved": 0}, {"lon": -77.010947, "bike_id": "8a0a394b48ff2fdc3af52a8a5ed2765a", "lat": 38.894829, "fusion_lon": 0.0, "fusion_lat": 0.0, "type": "electric_scooter", "name": "8a0a394b48ff2fdc3af52a8a5ed2765a", "is_disabled": 0, "rental_uris": {"ios": "https://dc.lft.to/lastmile_qr_scan", "android": "https://dc.lft.to/lastmile_qr_scan"}, "is_reserved": 0}, {"lon": -77.0262855, "bike_id": "a871637d393f5cc94f74561d667eaae2", "lat": 38.96228283333333, "fusion_lon": 0.0, "fusion_lat": 0.0, "type": "electric_bike", "name": "a871637d393f5cc94f74561d667eaae2", "is_disabled": 0, "rental_uris": {"ios": "https://dc.lft.to/lastmile_qr_scan", "android": "https://dc.lft.to/lastmile_qr_scan"}, "is_reserved": 0}, {"lon": -77.03968366666666, "bike_id": "bf32504b2cd9326987ada22846a8228a", "lat": 38.91627583333333, "fusion_lon": 0.0, "fusion_lat": 0.0, "type": "electric_scooter", "name": "bf32504b2cd9326987ada22846a8228a", "is_disabled": 0, "rental_uris": {"ios": "https://dc.lft.to/lastmile_qr_scan", "android": "https://dc.lft.to/lastmile_qr_scan"}, "is_reserved": 0}, {"lon": -76.9953225, "bike_id": "68cb491d1d36c991fbacd4f02694ebdb", "lat": 38.88374133333333, "fusion_lon": 0.0, "fusion_lat": 0.0, "type": "electric_scooter", "name": "68cb491d1d36c991fbacd4f02694ebdb", "is_disabled": 0, "rental_uris": {"ios": "https://dc.lft.to/lastmile_qr_scan", "android": "https://dc.lft.to/lastmile_qr_scan"}, "is_reserved": 0}, {"lon": -77.029566, "bike_id": "843df37c191ab4f534366e5ae8e01ae3", "lat": 38.904971, "fusion_lon": 0.0, "fusion_lat": 0.0, "type": "electric_scooter", "name": "843df37c191ab4f534366e5ae8e01ae3", "is_disabled": 0, "rental_uris": {"ios": "https://dc.lft.to/lastmile_qr_scan", "android": "https://dc.lft.to/lastmile_qr_scan"}, "is_reserved": 0}, {"lon": -76.94156433333333, "bike_id": "17931923f079420ce24c5f0a3ba2e19f", "lat": 38.87905383333333, "fusion_lon": 0.0, "fusion_lat": 0.0, "type": "electric_scooter", "name": "17931923f079420ce24c5f0a3ba2e19f", "is_disabled": 0, "rental_uris": {"ios": "https://dc.lft.to/lastmile_qr_scan", "android": "https://dc.lft.to/lastmile_qr_scan"}, "is_reserved": 0}, {"lon": -77.08823733333334, "bike_id": "259f775e2d2c7e3d9a1ca489df5aba0f", "lat": 38.9097675, "fusion_lon": 0.0, "fusion_lat": 0.0, "type": "electric_scooter", "name": "259f775e2d2c7e3d9a1ca489df5aba0f", "is_disabled": 0, "rental_uris": {"ios": "https://dc.lft.to/lastmile_qr_scan", "android": "https://dc.lft.to/lastmile_qr_scan"}, "is_reserved": 0}, {"lon": -77.04172283333334, "bike_id": "1d56fe751dfb28bdfa4add61c818cb1c", "lat": 38.91821366666667, "fusion_lon": 0.0, "fusion_lat": 0.0, "type": "electric_scooter", "name": "1d56fe751dfb28bdfa4add61c818cb1c", "is_disabled": 0, "rental_uris": {"ios": "https://dc.lft.to/lastmile_qr_scan", "android": "https://dc.lft.to/lastmile_qr_scan"}, "is_reserved": 0}, {"lon": -77.00179616666667, "bike_id": "ed1029cf3b37a5e938044e5ed8008246", "lat": 38.9110475, "fusion_lon": 0.0, "fusion_lat": 0.0, "type": "electric_bike", "name": "ed1029cf3b37a5e938044e5ed8008246", "is_disabled": 0, "rental_uris": {"ios": "https://dc.lft.to/lastmile_qr_scan", "android": "https://dc.lft.to/lastmile_qr_scan"}, "is_reserved": 0}, {"lon": -76.98332816666667, "bike_id": "c61e69b20c04b5f08145b05e474e6abd", "lat": 38.900955333333336, "fusion_lon": 0.0, "fusion_lat": 0.0, "type": "electric_scooter", "name": "c61e69b20c04b5f08145b05e474e6abd", "is_disabled": 0, "rental_uris": {"ios": "https://dc.lft.to/lastmile_qr_scan", "android": "https://dc.lft.to/lastmile_qr_scan"}, "is_reserved": 0}, {"lon": -77.002892, "bike_id": "fbb8aaec7f6129ee0d9f858dffb90c60", "lat": 38.8748335, "fusion_lon": 0.0, "fusion_lat": 0.0, "type": "electric_scooter", "name": "fbb8aaec7f6129ee0d9f858dffb90c60", "is_disabled": 0, "rental_uris": {"ios": "https://dc.lft.to/lastmile_qr_scan", "android": "https://dc.lft.to/lastmile_qr_scan"}, "is_reserved": 0}, {"lon": -76.992726, "bike_id": "d9d8fc19c8fb5a329afab739067527c0", "lat": 38.897669666666665, "fusion_lon": 0.0, "fusion_lat": 0.0, "type": "electric_scooter", "name": "d9d8fc19c8fb5a329afab739067527c0", "is_disabled": 0, "rental_uris": {"ios": "https://dc.lft.to/lastmile_qr_scan", "android": "https://dc.lft.to/lastmile_qr_scan"}, "is_reserved": 0}, {"lon": -77.01355666666667, "bike_id": "266082a3577aef4df9aae8544b0ef6ca", "lat": 38.897226833333335, "fusion_lon": 0.0, "fusion_lat": 0.0, "type": "electric_scooter", "name": "266082a3577aef4df9aae8544b0ef6ca", "is_disabled": 0, "rental_uris": {"ios": "https://dc.lft.to/lastmile_qr_scan", "android": "https://dc.lft.to/lastmile_qr_scan"}, "is_reserved": 0}, {"lon": -77.02396316666666, "bike_id": "35c4ace79ac85a71bed67bcc8252e455", "lat": 38.919608333333336, "fusion_lon": 0.0, "fusion_lat": 0.0, "type": "electric_scooter", "name": "35c4ace79ac85a71bed67bcc8252e455", "is_disabled": 0, "rental_uris": {"ios": "https://dc.lft.to/lastmile_qr_scan", "android": "https://dc.lft.to/lastmile_qr_scan"}, "is_reserved": 0}, {"lon": -77.052309, "bike_id": "9c9080884480f79d78751bdf45dff833", "lat": 38.92361116666667, "fusion_lon": 0.0, "fusion_lat": 0.0, "type": "electric_scooter", "name": "9c9080884480f79d78751bdf45dff833", "is_disabled": 0, "rental_uris": {"ios": "https://dc.lft.to/lastmile_qr_scan", "android": "https://dc.lft.to/lastmile_qr_scan"}, "is_reserved": 0}, {"lon": -77.02138583333333, "bike_id": "d2d5360481386bc41d14cc7bfddf7fe0", "lat": 38.92458933333333, "fusion_lon": 0.0, "fusion_lat": 0.0, "type": "electric_scooter", "name": "d2d5360481386bc41d14cc7bfddf7fe0", "is_disabled": 0, "rental_uris": {"ios": "https://dc.lft.to/lastmile_qr_scan", "android": "https://dc.lft.to/lastmile_qr_scan"}, "is_reserved": 0}, {"lon": -77.05409266666666, "bike_id": "e6243673b43c03ac0cc8603466d4f4b7", "lat": 38.95045066666667, "fusion_lon": 0.0, "fusion_lat": 0.0, "type": "electric_scooter", "name": "e6243673b43c03ac0cc8603466d4f4b7", "is_disabled": 0, "rental_uris": {"ios": "https://dc.lft.to/lastmile_qr_scan", "android": "https://dc.lft.to/lastmile_qr_scan"}, "is_reserved": 0}, {"lon": -77.00209766666667, "bike_id": "11586f9ee7ae1e77aa9f4be7a02c0943", "lat": 38.895428, "fusion_lon": 0.0, "fusion_lat": 0.0, "type": "electric_scooter", "name": "11586f9ee7ae1e77aa9f4be7a02c0943", "is_disabled": 0, "rental_uris": {"ios": "https://dc.lft.to/lastmile_qr_scan", "android": "https://dc.lft.to/lastmile_qr_scan"}, "is_reserved": 0}, {"lon": -76.9869985, "bike_id": "f83a6366b87e90ff4a6d60b23b238a5c", "lat": 38.86250166666667, "fusion_lon": 0.0, "fusion_lat": 0.0, "type": "electric_scooter", "name": "f83a6366b87e90ff4a6d60b23b238a5c", "is_disabled": 0, "rental_uris": {"ios": "https://dc.lft.to/lastmile_qr_scan", "android": "https://dc.lft.to/lastmile_qr_scan"}, "is_reserved": 0}, {"lon": -76.93732833333334, "bike_id": "04f5b619f907e26d67ca61fcb48b2c34", "lat": 38.890118666666666, "fusion_lon": 0.0, "fusion_lat": 0.0, "type": "electric_scooter", "name": "04f5b619f907e26d67ca61fcb48b2c34", "is_disabled": 0, "rental_uris": {"ios": "https://dc.lft.to/lastmile_qr_scan", "android": "https://dc.lft.to/lastmile_qr_scan"}, "is_reserved": 0}, {"lon": -77.02269533333333, "bike_id": "62f5b3775838b255f561088753f3862a", "lat": 38.937590166666666, "fusion_lon": 0.0, "fusion_lat": 0.0, "type": "electric_scooter", "name": "62f5b3775838b255f561088753f3862a", "is_disabled": 0, "rental_uris": {"ios": "https://dc.lft.to/lastmile_qr_scan", "android": "https://dc.lft.to/lastmile_qr_scan"}, "is_reserved": 0}, {"lon": -77.02042183333333, "bike_id": "02f15de063b45cf2df2d328cf71f4397", "lat": 38.9087045, "fusion_lon": 0.0, "fusion_lat": 0.0, "type": "electric_scooter", "name": "02f15de063b45cf2df2d328cf71f4397", "is_disabled": 0, "rental_uris": {"ios": "https://dc.lft.to/lastmile_qr_scan", "android": "https://dc.lft.to/lastmile_qr_scan"}, "is_reserved": 0}, {"lon": -76.99558766666667, "bike_id": "c1852f8f7e2372c063716b3ff1267769", "lat": 38.900265, "fusion_lon": 0.0, "fusion_lat": 0.0, "type": "electric_scooter", "name": "c1852f8f7e2372c063716b3ff1267769", "is_disabled": 0, "rental_uris": {"ios": "https://dc.lft.to/lastmile_qr_scan", "android": "https://dc.lft.to/lastmile_qr_scan"}, "is_reserved": 0}, {"lon": -77.022188, "bike_id": "ee6c563b125e0a6895a407996b5a99f1", "lat": 38.91116, "fusion_lon": 0.0, "fusion_lat": 0.0, "type": "electric_scooter", "name": "ee6c563b125e0a6895a407996b5a99f1", "is_disabled": 0, "rental_uris": {"ios": "https://dc.lft.to/lastmile_qr_scan", "android": "https://dc.lft.to/lastmile_qr_scan"}, "is_reserved": 0}, {"lon": -76.97602, "bike_id": "fc319793e442023a4d6721bd07756e9c", "lat": 38.90567883333333, "fusion_lon": 0.0, "fusion_lat": 0.0, "type": "electric_scooter", "name": "fc319793e442023a4d6721bd07756e9c", "is_disabled": 0, "rental_uris": {"ios": "https://dc.lft.to/lastmile_qr_scan", "android": "https://dc.lft.to/lastmile_qr_scan"}, "is_reserved": 0}, {"lon": -77.01280316666667, "bike_id": "16237151927d836b70663a48674cd829", "lat": 38.951663833333335, "fusion_lon": 0.0, "fusion_lat": 0.0, "type": "electric_bike", "name": "16237151927d836b70663a48674cd829", "is_disabled": 0, "rental_uris": {"ios": "https://dc.lft.to/lastmile_qr_scan", "android": "https://dc.lft.to/lastmile_qr_scan"}, "is_reserved": 0}, {"lon": -76.973274, "bike_id": "6cd2456e550fef67fe1308f8adf36b05", "lat": 38.9177665, "fusion_lon": 0.0, "fusion_lat": 0.0, "type": "electric_scooter", "name": "6cd2456e550fef67fe1308f8adf36b05", "is_disabled": 0, "rental_uris": {"ios": "https://dc.lft.to/lastmile_qr_scan", "android": "https://dc.lft.to/lastmile_qr_scan"}, "is_reserved": 0}, {"lon": -77.00532566666666, "bike_id": "2ae10e3b3392eea32f3a3ce4c030809f", "lat": 38.9297455, "fusion_lon": 0.0, "fusion_lat": 0.0, "type": "electric_scooter", "name": "2ae10e3b3392eea32f3a3ce4c030809f", "is_disabled": 0, "rental_uris": {"ios": "https://dc.lft.to/lastmile_qr_scan", "android": "https://dc.lft.to/lastmile_qr_scan"}, "is_reserved": 0}, {"lon": -77.00546066666666, "bike_id": "5634c1f1ddd74876833b1e3dde5c056b", "lat": 38.874603666666665, "fusion_lon": 0.0, "fusion_lat": 0.0, "type": "electric_scooter", "name": "5634c1f1ddd74876833b1e3dde5c056b", "is_disabled": 0, "rental_uris": {"ios": "https://dc.lft.to/lastmile_qr_scan", "android": "https://dc.lft.to/lastmile_qr_scan"}, "is_reserved": 0}, {"lon": -77.03185183333333, "bike_id": "a2479771d0e6a4a95822165144668fe5", "lat": 38.884132, "fusion_lon": 0.0, "fusion_lat": 0.0, "type": "electric_scooter", "name": "a2479771d0e6a4a95822165144668fe5", "is_disabled": 0, "rental_uris": {"ios": "https://dc.lft.to/lastmile_qr_scan", "android": "https://dc.lft.to/lastmile_qr_scan"}, "is_reserved": 0}, {"lon": -77.02574416666667, "bike_id": "570539cf59e789b1e313f47a6065051d", "lat": 38.887458333333335, "fusion_lon": 0.0, "fusion_lat": 0.0, "type": "electric_scooter", "name": "570539cf59e789b1e313f47a6065051d", "is_disabled": 0, "rental_uris": {"ios": "https://dc.lft.to/lastmile_qr_scan", "android": "https://dc.lft.to/lastmile_qr_scan"}, "is_reserved": 0}, {"lon": -77.04083966666667, "bike_id": "52e3c598218b6f52c37248dcb323f595", "lat": 38.9202975, "fusion_lon": 0.0, "fusion_lat": 0.0, "type": "electric_scooter", "name": "52e3c598218b6f52c37248dcb323f595", "is_disabled": 0, "rental_uris": {"ios": "https://dc.lft.to/lastmile_qr_scan", "android": "https://dc.lft.to/lastmile_qr_scan"}, "is_reserved": 0}, {"lon": -77.03623083333333, "bike_id": "b5922883c82911ca4bf2684c4b1d4ff0", "lat": 38.9169435, "fusion_lon": 0.0, "fusion_lat": 0.0, "type": "electric_scooter", "name": "b5922883c82911ca4bf2684c4b1d4ff0", "is_disabled": 0, "rental_uris": {"ios": "https://dc.lft.to/lastmile_qr_scan", "android": "https://dc.lft.to/lastmile_qr_scan"}, "is_reserved": 0}, {"lon": -77.01999966666666, "bike_id": "c752e40223124ac0dc5dbc70a92016a9", "lat": 38.96627566666667, "fusion_lon": 0.0, "fusion_lat": 0.0, "type": "electric_scooter", "name": "c752e40223124ac0dc5dbc70a92016a9", "is_disabled": 0, "rental_uris": {"ios": "https://dc.lft.to/lastmile_qr_scan", "android": "https://dc.lft.to/lastmile_qr_scan"}, "is_reserved": 0}, {"lon": -77.01523766666666, "bike_id": "3e7331d93ea964a7780130e211b5c6a1", "lat": 38.9267315, "fusion_lon": 0.0, "fusion_lat": 0.0, "type": "electric_scooter", "name": "3e7331d93ea964a7780130e211b5c6a1", "is_disabled": 0, "rental_uris": {"ios": "https://dc.lft.to/lastmile_qr_scan", "android": "https://dc.lft.to/lastmile_qr_scan"}, "is_reserved": 0}, {"lon": -77.04722466666666, "bike_id": "bf3b9ade387db5719cd603c0b0ea6d51", "lat": 38.90187783333333, "fusion_lon": 0.0, "fusion_lat": 0.0, "type": "electric_scooter", "name": "bf3b9ade387db5719cd603c0b0ea6d51", "is_disabled": 0, "rental_uris": {"ios": "https://dc.lft.to/lastmile_qr_scan", "android": "https://dc.lft.to/lastmile_qr_scan"}, "is_reserved": 0}, {"lon": -77.02590533333333, "bike_id": "460155d6d95d752a2d5bd5f28c0c7061", "lat": 38.90102366666667, "fusion_lon": 0.0, "fusion_lat": 0.0, "type": "electric_scooter", "name": "460155d6d95d752a2d5bd5f28c0c7061", "is_disabled": 0, "rental_uris": {"ios": "https://dc.lft.to/lastmile_qr_scan", "android": "https://dc.lft.to/lastmile_qr_scan"}, "is_reserved": 0}, {"lon": -77.02766316666667, "bike_id": "dcce0279364487e70df50cf577d25890", "lat": 38.95426883333333, "fusion_lon": 0.0, "fusion_lat": 0.0, "type": "electric_scooter", "name": "dcce0279364487e70df50cf577d25890", "is_disabled": 0, "rental_uris": {"ios": "https://dc.lft.to/lastmile_qr_scan", "android": "https://dc.lft.to/lastmile_qr_scan"}, "is_reserved": 0}, {"lon": -76.9846525, "bike_id": "06fd34d7758a9146754d763904d98b61", "lat": 38.903983, "fusion_lon": 0.0, "fusion_lat": 0.0, "type": "electric_scooter", "name": "06fd34d7758a9146754d763904d98b61", "is_disabled": 0, "rental_uris": {"ios": "https://dc.lft.to/lastmile_qr_scan", "android": "https://dc.lft.to/lastmile_qr_scan"}, "is_reserved": 0}, {"lon": -77.01888816666667, "bike_id": "8505e3e41679e333b8af9043c682eb63", "lat": 38.898565, "fusion_lon": 0.0, "fusion_lat": 0.0, "type": "electric_scooter", "name": "8505e3e41679e333b8af9043c682eb63", "is_disabled": 0, "rental_uris": {"ios": "https://dc.lft.to/lastmile_qr_scan", "android": "https://dc.lft.to/lastmile_qr_scan"}, "is_reserved": 0}, {"lon": -77.036583, "bike_id": "d5a5f57f7832e046a6b90ce929bf546c", "lat": 38.90349833333333, "fusion_lon": 0.0, "fusion_lat": 0.0, "type": "electric_scooter", "name": "d5a5f57f7832e046a6b90ce929bf546c", "is_disabled": 0, "rental_uris": {"ios": "https://dc.lft.to/lastmile_qr_scan", "android": "https://dc.lft.to/lastmile_qr_scan"}, "is_reserved": 0}, {"lon": -77.0318805, "bike_id": "ce28d17a3226d2e51b37b0be6ab07c0f", "lat": 38.9162755, "fusion_lon": 0.0, "fusion_lat": 0.0, "type": "electric_scooter", "name": "ce28d17a3226d2e51b37b0be6ab07c0f", "is_disabled": 0, "rental_uris": {"ios": "https://dc.lft.to/lastmile_qr_scan", "android": "https://dc.lft.to/lastmile_qr_scan"}, "is_reserved": 0}, {"lon": -77.027919, "bike_id": "033e8c4ad99b901a8f294dbe6f7e2d1d", "lat": 38.902671833333336, "fusion_lon": 0.0, "fusion_lat": 0.0, "type": "electric_scooter", "name": "033e8c4ad99b901a8f294dbe6f7e2d1d", "is_disabled": 0, "rental_uris": {"ios": "https://dc.lft.to/lastmile_qr_scan", "android": "https://dc.lft.to/lastmile_qr_scan"}, "is_reserved": 0}, {"lon": -77.03206016666667, "bike_id": "0aa63eb8d3f1dbd1f24fbece686a1da8", "lat": 38.91174983333333, "fusion_lon": 0.0, "fusion_lat": 0.0, "type": "electric_scooter", "name": "0aa63eb8d3f1dbd1f24fbece686a1da8", "is_disabled": 0, "rental_uris": {"ios": "https://dc.lft.to/lastmile_qr_scan", "android": "https://dc.lft.to/lastmile_qr_scan"}, "is_reserved": 0}, {"lon": -77.0318925, "bike_id": "f983181615b7389ddadea77a52a7b246", "lat": 38.90912, "fusion_lon": 0.0, "fusion_lat": 0.0, "type": "electric_scooter", "name": "f983181615b7389ddadea77a52a7b246", "is_disabled": 0, "rental_uris": {"ios": "https://dc.lft.to/lastmile_qr_scan", "android": "https://dc.lft.to/lastmile_qr_scan"}, "is_reserved": 0}, {"lon": -77.026954, "bike_id": "870ffc5f8a46697163b3bad9ecb64441", "lat": 38.9168315, "fusion_lon": 0.0, "fusion_lat": 0.0, "type": "electric_scooter", "name": "870ffc5f8a46697163b3bad9ecb64441", "is_disabled": 0, "rental_uris": {"ios": "https://dc.lft.to/lastmile_qr_scan", "android": "https://dc.lft.to/lastmile_qr_scan"}, "is_reserved": 0}, {"lon": -76.99373166666666, "bike_id": "7301cd21624d4e7b86aea70ddf1aec60", "lat": 38.92399066666667, "fusion_lon": 0.0, "fusion_lat": 0.0, "type": "electric_scooter", "name": "7301cd21624d4e7b86aea70ddf1aec60", "is_disabled": 0, "rental_uris": {"ios": "https://dc.lft.to/lastmile_qr_scan", "android": "https://dc.lft.to/lastmile_qr_scan"}, "is_reserved": 0}, {"lon": -77.03331583333333, "bike_id": "948755f7fb28bab4ab0b48952b399642", "lat": 38.938985833333334, "fusion_lon": 0.0, "fusion_lat": 0.0, "type": "electric_scooter", "name": "948755f7fb28bab4ab0b48952b399642", "is_disabled": 0, "rental_uris": {"ios": "https://dc.lft.to/lastmile_qr_scan", "android": "https://dc.lft.to/lastmile_qr_scan"}, "is_reserved": 0}, {"lon": -77.07320433333334, "bike_id": "bcb815d8c365b653bb201e25a0dd6703", "lat": 38.913963, "fusion_lon": 0.0, "fusion_lat": 0.0, "type": "electric_scooter", "name": "bcb815d8c365b653bb201e25a0dd6703", "is_disabled": 0, "rental_uris": {"ios": "https://dc.lft.to/lastmile_qr_scan", "android": "https://dc.lft.to/lastmile_qr_scan"}, "is_reserved": 0}, {"lon": -77.03778633333333, "bike_id": "28f4e57e75cb1fd3d7632b5ea78f1a6d", "lat": 38.9296745, "fusion_lon": 0.0, "fusion_lat": 0.0, "type": "electric_scooter", "name": "28f4e57e75cb1fd3d7632b5ea78f1a6d", "is_disabled": 0, "rental_uris": {"ios": "https://dc.lft.to/lastmile_qr_scan", "android": "https://dc.lft.to/lastmile_qr_scan"}, "is_reserved": 0}, {"lon": -77.02602333333333, "bike_id": "6159604bfee37492b187d601380759aa", "lat": 38.90047666666667, "fusion_lon": 0.0, "fusion_lat": 0.0, "type": "electric_scooter", "name": "6159604bfee37492b187d601380759aa", "is_disabled": 0, "rental_uris": {"ios": "https://dc.lft.to/lastmile_qr_scan", "android": "https://dc.lft.to/lastmile_qr_scan"}, "is_reserved": 0}, {"lon": -77.024174, "bike_id": "e773817fd2676a1cfcbbd6b709c8bb99", "lat": 38.920824833333334, "fusion_lon": 0.0, "fusion_lat": 0.0, "type": "electric_scooter", "name": "e773817fd2676a1cfcbbd6b709c8bb99", "is_disabled": 0, "rental_uris": {"ios": "https://dc.lft.to/lastmile_qr_scan", "android": "https://dc.lft.to/lastmile_qr_scan"}, "is_reserved": 0}, {"lon": -76.984076, "bike_id": "ba902d52914004d19fcf0aa8195c7bdb", "lat": 38.9062995, "fusion_lon": 0.0, "fusion_lat": 0.0, "type": "electric_scooter", "name": "ba902d52914004d19fcf0aa8195c7bdb", "is_disabled": 0, "rental_uris": {"ios": "https://dc.lft.to/lastmile_qr_scan", "android": "https://dc.lft.to/lastmile_qr_scan"}, "is_reserved": 0}, {"lon": -77.04045516666666, "bike_id": "fedc1d85c10831462c76b738d9b0a104", "lat": 38.90404183333333, "fusion_lon": 0.0, "fusion_lat": 0.0, "type": "electric_scooter", "name": "fedc1d85c10831462c76b738d9b0a104", "is_disabled": 0, "rental_uris": {"ios": "https://dc.lft.to/lastmile_qr_scan", "android": "https://dc.lft.to/lastmile_qr_scan"}, "is_reserved": 0}, {"lon": -77.05590883333333, "bike_id": "161c3d14b5cd27cd590041fbe5f8c506", "lat": 38.893089833333335, "fusion_lon": 0.0, "fusion_lat": 0.0, "type": "electric_scooter", "name": "161c3d14b5cd27cd590041fbe5f8c506", "is_disabled": 0, "rental_uris": {"ios": "https://dc.lft.to/lastmile_qr_scan", "android": "https://dc.lft.to/lastmile_qr_scan"}, "is_reserved": 0}, {"lon": -77.02295666666667, "bike_id": "f612ed0bd40c04a480a04098d1a4c66b", "lat": 38.91838666666666, "fusion_lon": 0.0, "fusion_lat": 0.0, "type": "electric_scooter", "name": "f612ed0bd40c04a480a04098d1a4c66b", "is_disabled": 0, "rental_uris": {"ios": "https://dc.lft.to/lastmile_qr_scan", "android": "https://dc.lft.to/lastmile_qr_scan"}, "is_reserved": 0}, {"lon": -77.025953, "bike_id": "3b68c6a58205c5a69010469b348f208e", "lat": 38.9169445, "fusion_lon": 0.0, "fusion_lat": 0.0, "type": "electric_scooter", "name": "3b68c6a58205c5a69010469b348f208e", "is_disabled": 0, "rental_uris": {"ios": "https://dc.lft.to/lastmile_qr_scan", "android": "https://dc.lft.to/lastmile_qr_scan"}, "is_reserved": 0}, {"lon": -76.989373, "bike_id": "7c044f0a5f8f6d29c2ee1241f20cc144", "lat": 38.91840333333333, "fusion_lon": 0.0, "fusion_lat": 0.0, "type": "electric_scooter", "name": "7c044f0a5f8f6d29c2ee1241f20cc144", "is_disabled": 0, "rental_uris": {"ios": "https://dc.lft.to/lastmile_qr_scan", "android": "https://dc.lft.to/lastmile_qr_scan"}, "is_reserved": 0}, {"lon": -77.02572866666667, "bike_id": "cfebae49ee2bb20166b652178a35fa3f", "lat": 38.9133825, "fusion_lon": 0.0, "fusion_lat": 0.0, "type": "electric_scooter", "name": "cfebae49ee2bb20166b652178a35fa3f", "is_disabled": 0, "rental_uris": {"ios": "https://dc.lft.to/lastmile_qr_scan", "android": "https://dc.lft.to/lastmile_qr_scan"}, "is_reserved": 0}, {"lon": -77.13929116666667, "bike_id": "32f485eb356bb598294e6d1e9cce8e1c", "lat": 38.872984833333334, "fusion_lon": 0.0, "fusion_lat": 0.0, "type": "electric_bike", "name": "32f485eb356bb598294e6d1e9cce8e1c", "is_disabled": 0, "rental_uris": {"ios": "https://dc.lft.to/lastmile_qr_scan", "android": "https://dc.lft.to/lastmile_qr_scan"}, "is_reserved": 0}, {"lon": -77.04904733333333, "bike_id": "5de39638123ea392a000e089540fba59", "lat": 38.91602066666667, "fusion_lon": 0.0, "fusion_lat": 0.0, "type": "electric_scooter", "name": "5de39638123ea392a000e089540fba59", "is_disabled": 0, "rental_uris": {"ios": "https://dc.lft.to/lastmile_qr_scan", "android": "https://dc.lft.to/lastmile_qr_scan"}, "is_reserved": 0}, {"lon": -76.98837266666666, "bike_id": "94a6f98c799cae38f2b40f9c48a85779", "lat": 38.896659, "fusion_lon": 0.0, "fusion_lat": 0.0, "type": "electric_scooter", "name": "94a6f98c799cae38f2b40f9c48a85779", "is_disabled": 0, "rental_uris": {"ios": "https://dc.lft.to/lastmile_qr_scan", "android": "https://dc.lft.to/lastmile_qr_scan"}, "is_reserved": 0}, {"lon": -76.97207233333333, "bike_id": "c14c999ee45ffbac87370b4b513b874a", "lat": 38.89289866666667, "fusion_lon": 0.0, "fusion_lat": 0.0, "type": "electric_bike", "name": "c14c999ee45ffbac87370b4b513b874a", "is_disabled": 0, "rental_uris": {"ios": "https://dc.lft.to/lastmile_qr_scan", "android": "https://dc.lft.to/lastmile_qr_scan"}, "is_reserved": 0}, {"lon": -76.92110716666667, "bike_id": "1f7d01c28df3fc1056e0da6d6709d6bd", "lat": 38.89104316666667, "fusion_lon": 0.0, "fusion_lat": 0.0, "type": "electric_scooter", "name": "1f7d01c28df3fc1056e0da6d6709d6bd", "is_disabled": 0, "rental_uris": {"ios": "https://dc.lft.to/lastmile_qr_scan", "android": "https://dc.lft.to/lastmile_qr_scan"}, "is_reserved": 0}, {"lon": -76.98232616666667, "bike_id": "a0ece56955a20cae72adf22fefd16463", "lat": 38.864711166666666, "fusion_lon": 0.0, "fusion_lat": 0.0, "type": "electric_scooter", "name": "a0ece56955a20cae72adf22fefd16463", "is_disabled": 0, "rental_uris": {"ios": "https://dc.lft.to/lastmile_qr_scan", "android": "https://dc.lft.to/lastmile_qr_scan"}, "is_reserved": 0}, {"lon": -77.0177625, "bike_id": "60eb4ee6595f8f4c1344bda2c03e6661", "lat": 38.90034333333333, "fusion_lon": 0.0, "fusion_lat": 0.0, "type": "electric_scooter", "name": "60eb4ee6595f8f4c1344bda2c03e6661", "is_disabled": 0, "rental_uris": {"ios": "https://dc.lft.to/lastmile_qr_scan", "android": "https://dc.lft.to/lastmile_qr_scan"}, "is_reserved": 0}, {"lon": -77.02472016666667, "bike_id": "e3f2078e968072e82d65bf051389e6c3", "lat": 38.90328066666667, "fusion_lon": 0.0, "fusion_lat": 0.0, "type": "electric_scooter", "name": "e3f2078e968072e82d65bf051389e6c3", "is_disabled": 0, "rental_uris": {"ios": "https://dc.lft.to/lastmile_qr_scan", "android": "https://dc.lft.to/lastmile_qr_scan"}, "is_reserved": 0}, {"lon": -77.06128116666666, "bike_id": "2dac1fc5cab699e5e4ec9ddd34e91913", "lat": 38.90536, "fusion_lon": 0.0, "fusion_lat": 0.0, "type": "electric_scooter", "name": "2dac1fc5cab699e5e4ec9ddd34e91913", "is_disabled": 0, "rental_uris": {"ios": "https://dc.lft.to/lastmile_qr_scan", "android": "https://dc.lft.to/lastmile_qr_scan"}, "is_reserved": 0}, {"lon": -76.97728383333333, "bike_id": "645032041966668d1118cfe463dbe82b", "lat": 38.872440833333336, "fusion_lon": 0.0, "fusion_lat": 0.0, "type": "electric_scooter", "name": "645032041966668d1118cfe463dbe82b", "is_disabled": 0, "rental_uris": {"ios": "https://dc.lft.to/lastmile_qr_scan", "android": "https://dc.lft.to/lastmile_qr_scan"}, "is_reserved": 0}, {"lon": -77.04873066666667, "bike_id": "d9b2490788a86b2c547a2aab5979714d", "lat": 38.909712666666664, "fusion_lon": 0.0, "fusion_lat": 0.0, "type": "electric_scooter", "name": "d9b2490788a86b2c547a2aab5979714d", "is_disabled": 0, "rental_uris": {"ios": "https://dc.lft.to/lastmile_qr_scan", "android": "https://dc.lft.to/lastmile_qr_scan"}, "is_reserved": 0}, {"lon": -77.0557405, "bike_id": "55ea294a3f0716c97f4d0ae8e0189ce9", "lat": 38.8973095, "fusion_lon": 0.0, "fusion_lat": 0.0, "type": "electric_scooter", "name": "55ea294a3f0716c97f4d0ae8e0189ce9", "is_disabled": 0, "rental_uris": {"ios": "https://dc.lft.to/lastmile_qr_scan", "android": "https://dc.lft.to/lastmile_qr_scan"}, "is_reserved": 0}, {"lon": -77.01992316666667, "bike_id": "76809b4b15920da06fca1037356f2d22", "lat": 38.902593333333336, "fusion_lon": 0.0, "fusion_lat": 0.0, "type": "electric_scooter", "name": "76809b4b15920da06fca1037356f2d22", "is_disabled": 0, "rental_uris": {"ios": "https://dc.lft.to/lastmile_qr_scan", "android": "https://dc.lft.to/lastmile_qr_scan"}, "is_reserved": 0}, {"lon": -77.03431933333333, "bike_id": "bed28956f6438d521158bc46e1d8a2a0", "lat": 38.96530933333333, "fusion_lon": 0.0, "fusion_lat": 0.0, "type": "electric_bike", "name": "bed28956f6438d521158bc46e1d8a2a0", "is_disabled": 0, "rental_uris": {"ios": "https://dc.lft.to/lastmile_qr_scan", "android": "https://dc.lft.to/lastmile_qr_scan"}, "is_reserved": 0}, {"lon": -76.97296916666667, "bike_id": "111f498628aa2d8c372c3c28e1a56051", "lat": 38.916459, "fusion_lon": 0.0, "fusion_lat": 0.0, "type": "electric_bike", "name": "111f498628aa2d8c372c3c28e1a56051", "is_disabled": 0, "rental_uris": {"ios": "https://dc.lft.to/lastmile_qr_scan", "android": "https://dc.lft.to/lastmile_qr_scan"}, "is_reserved": 0}, {"lon": -76.96538183333334, "bike_id": "949815eca55ba354cdb086b2c921ba0b", "lat": 38.9184275, "fusion_lon": 0.0, "fusion_lat": 0.0, "type": "electric_scooter", "name": "949815eca55ba354cdb086b2c921ba0b", "is_disabled": 0, "rental_uris": {"ios": "https://dc.lft.to/lastmile_qr_scan", "android": "https://dc.lft.to/lastmile_qr_scan"}, "is_reserved": 0}, {"lon": -77.002864, "bike_id": "e863062e5965b130dd2c00f5b9c721c4", "lat": 38.90585866666667, "fusion_lon": 0.0, "fusion_lat": 0.0, "type": "electric_scooter", "name": "e863062e5965b130dd2c00f5b9c721c4", "is_disabled": 0, "rental_uris": {"ios": "https://dc.lft.to/lastmile_qr_scan", "android": "https://dc.lft.to/lastmile_qr_scan"}, "is_reserved": 0}, {"lon": -77.23335, "bike_id": "61853effd92bc802e5370f9b0b6f7b1e", "lat": 38.872782, "fusion_lon": 0.0, "fusion_lat": 0.0, "type": "electric_bike", "name": "61853effd92bc802e5370f9b0b6f7b1e", "is_disabled": 0, "rental_uris": {"ios": "https://dc.lft.to/lastmile_qr_scan", "android": "https://dc.lft.to/lastmile_qr_scan"}, "is_reserved": 0}, {"lon": -77.058949, "bike_id": "b4999fc4af7628451a0ef5cd2a50c0c9", "lat": 38.9360955, "fusion_lon": 0.0, "fusion_lat": 0.0, "type": "electric_scooter", "name": "b4999fc4af7628451a0ef5cd2a50c0c9", "is_disabled": 0, "rental_uris": {"ios": "https://dc.lft.to/lastmile_qr_scan", "android": "https://dc.lft.to/lastmile_qr_scan"}, "is_reserved": 0}, {"lon": -77.0215715, "bike_id": "9956db91d0ace9ee774edd079e4dff39", "lat": 38.92602483333334, "fusion_lon": 0.0, "fusion_lat": 0.0, "type": "electric_scooter", "name": "9956db91d0ace9ee774edd079e4dff39", "is_disabled": 0, "rental_uris": {"ios": "https://dc.lft.to/lastmile_qr_scan", "android": "https://dc.lft.to/lastmile_qr_scan"}, "is_reserved": 0}, {"lon": -76.98924833333334, "bike_id": "9d93939d1b6bced5191d0fa36bdac3d5", "lat": 38.882024, "fusion_lon": 0.0, "fusion_lat": 0.0, "type": "electric_scooter", "name": "9d93939d1b6bced5191d0fa36bdac3d5", "is_disabled": 0, "rental_uris": {"ios": "https://dc.lft.to/lastmile_qr_scan", "android": "https://dc.lft.to/lastmile_qr_scan"}, "is_reserved": 0}, {"lon": -77.03517233333334, "bike_id": "c5f410ff772be5e873ebd5dbe1c0ff9b", "lat": 38.9069495, "fusion_lon": 0.0, "fusion_lat": 0.0, "type": "electric_scooter", "name": "c5f410ff772be5e873ebd5dbe1c0ff9b", "is_disabled": 0, "rental_uris": {"ios": "https://dc.lft.to/lastmile_qr_scan", "android": "https://dc.lft.to/lastmile_qr_scan"}, "is_reserved": 0}, {"lon": -77.0418065, "bike_id": "242515fac8e340c66aa7cadd0130ac72", "lat": 38.915544833333335, "fusion_lon": 0.0, "fusion_lat": 0.0, "type": "electric_scooter", "name": "242515fac8e340c66aa7cadd0130ac72", "is_disabled": 0, "rental_uris": {"ios": "https://dc.lft.to/lastmile_qr_scan", "android": "https://dc.lft.to/lastmile_qr_scan"}, "is_reserved": 0}, {"lon": -76.98529, "bike_id": "ec3da6b822753074e77a0c6693ab16d6", "lat": 38.866856, "fusion_lon": 0.0, "fusion_lat": 0.0, "type": "electric_scooter", "name": "ec3da6b822753074e77a0c6693ab16d6", "is_disabled": 0, "rental_uris": {"ios": "https://dc.lft.to/lastmile_qr_scan", "android": "https://dc.lft.to/lastmile_qr_scan"}, "is_reserved": 0}, {"lon": -77.000071, "bike_id": "4413fe6387d1ee0407e74175ee94f637", "lat": 38.92448133333333, "fusion_lon": 0.0, "fusion_lat": 0.0, "type": "electric_scooter", "name": "4413fe6387d1ee0407e74175ee94f637", "is_disabled": 0, "rental_uris": {"ios": "https://dc.lft.to/lastmile_qr_scan", "android": "https://dc.lft.to/lastmile_qr_scan"}, "is_reserved": 0}, {"lon": -76.95005783333333, "bike_id": "9486bf283d3be5f3978c41261e995b2f", "lat": 38.893821833333334, "fusion_lon": 0.0, "fusion_lat": 0.0, "type": "electric_scooter", "name": "9486bf283d3be5f3978c41261e995b2f", "is_disabled": 0, "rental_uris": {"ios": "https://dc.lft.to/lastmile_qr_scan", "android": "https://dc.lft.to/lastmile_qr_scan"}, "is_reserved": 0}, {"lon": -76.988788, "bike_id": "5706c3ec925b989c09ff0b7328e3f485", "lat": 38.8665985, "fusion_lon": 0.0, "fusion_lat": 0.0, "type": "electric_scooter", "name": "5706c3ec925b989c09ff0b7328e3f485", "is_disabled": 0, "rental_uris": {"ios": "https://dc.lft.to/lastmile_qr_scan", "android": "https://dc.lft.to/lastmile_qr_scan"}, "is_reserved": 0}, {"lon": -77.02184316666667, "bike_id": "e2494c48fde0deb9bd163553d535fc2d", "lat": 38.90958966666667, "fusion_lon": 0.0, "fusion_lat": 0.0, "type": "electric_scooter", "name": "e2494c48fde0deb9bd163553d535fc2d", "is_disabled": 0, "rental_uris": {"ios": "https://dc.lft.to/lastmile_qr_scan", "android": "https://dc.lft.to/lastmile_qr_scan"}, "is_reserved": 0}, {"lon": -77.00895333333334, "bike_id": "c938bcf2ddc7fac4e1b4b602f9db43d0", "lat": 38.922771, "fusion_lon": 0.0, "fusion_lat": 0.0, "type": "electric_scooter", "name": "c938bcf2ddc7fac4e1b4b602f9db43d0", "is_disabled": 0, "rental_uris": {"ios": "https://dc.lft.to/lastmile_qr_scan", "android": "https://dc.lft.to/lastmile_qr_scan"}, "is_reserved": 0}, {"lon": -77.23321916666667, "bike_id": "d79318279dc022931104c63c6b2a4489", "lat": 38.87283683333333, "fusion_lon": 0.0, "fusion_lat": 0.0, "type": "electric_bike", "name": "d79318279dc022931104c63c6b2a4489", "is_disabled": 0, "rental_uris": {"ios": "https://dc.lft.to/lastmile_qr_scan", "android": "https://dc.lft.to/lastmile_qr_scan"}, "is_reserved": 0}, {"lon": -77.028282, "bike_id": "f320ac697612d9fc91ab8c4bf143a921", "lat": 38.8873155, "fusion_lon": 0.0, "fusion_lat": 0.0, "type": "electric_scooter", "name": "f320ac697612d9fc91ab8c4bf143a921", "is_disabled": 0, "rental_uris": {"ios": "https://dc.lft.to/lastmile_qr_scan", "android": "https://dc.lft.to/lastmile_qr_scan"}, "is_reserved": 0}, {"lon": -77.02877833333334, "bike_id": "409238a8b539b13fa793811864deb018", "lat": 38.90433083333333, "fusion_lon": 0.0, "fusion_lat": 0.0, "type": "electric_scooter", "name": "409238a8b539b13fa793811864deb018", "is_disabled": 0, "rental_uris": {"ios": "https://dc.lft.to/lastmile_qr_scan", "android": "https://dc.lft.to/lastmile_qr_scan"}, "is_reserved": 0}, {"lon": -77.00732683333334, "bike_id": "4c99e1f06f0ed54fb080e2b5570f009c", "lat": 38.90367533333333, "fusion_lon": 0.0, "fusion_lat": 0.0, "type": "electric_scooter", "name": "4c99e1f06f0ed54fb080e2b5570f009c", "is_disabled": 0, "rental_uris": {"ios": "https://dc.lft.to/lastmile_qr_scan", "android": "https://dc.lft.to/lastmile_qr_scan"}, "is_reserved": 0}, {"lon": -76.98965633333333, "bike_id": "4ea89c1a45939c42c789803ca2835cab", "lat": 38.8569075, "fusion_lon": 0.0, "fusion_lat": 0.0, "type": "electric_scooter", "name": "4ea89c1a45939c42c789803ca2835cab", "is_disabled": 0, "rental_uris": {"ios": "https://dc.lft.to/lastmile_qr_scan", "android": "https://dc.lft.to/lastmile_qr_scan"}, "is_reserved": 0}, {"lon": -77.02799283333333, "bike_id": "6d03a23ee81c50dee2c1833864edd025", "lat": 38.929612166666665, "fusion_lon": 0.0, "fusion_lat": 0.0, "type": "electric_scooter", "name": "6d03a23ee81c50dee2c1833864edd025", "is_disabled": 0, "rental_uris": {"ios": "https://dc.lft.to/lastmile_qr_scan", "android": "https://dc.lft.to/lastmile_qr_scan"}, "is_reserved": 0}, {"lon": -77.02392166666667, "bike_id": "1ac0215d51b4de1a9326ce1e35a228f0", "lat": 38.920765, "fusion_lon": 0.0, "fusion_lat": 0.0, "type": "electric_scooter", "name": "1ac0215d51b4de1a9326ce1e35a228f0", "is_disabled": 0, "rental_uris": {"ios": "https://dc.lft.to/lastmile_qr_scan", "android": "https://dc.lft.to/lastmile_qr_scan"}, "is_reserved": 0}, {"lon": -77.0176995, "bike_id": "2a43ef278503e61b5dba7a52e102f5d3", "lat": 38.87795116666667, "fusion_lon": 0.0, "fusion_lat": 0.0, "type": "electric_scooter", "name": "2a43ef278503e61b5dba7a52e102f5d3", "is_disabled": 0, "rental_uris": {"ios": "https://dc.lft.to/lastmile_qr_scan", "android": "https://dc.lft.to/lastmile_qr_scan"}, "is_reserved": 0}, {"lon": -76.9826685, "bike_id": "28e57e11d8551f5c23c0b3a651b6ca9a", "lat": 38.90857316666666, "fusion_lon": 0.0, "fusion_lat": 0.0, "type": "electric_scooter", "name": "28e57e11d8551f5c23c0b3a651b6ca9a", "is_disabled": 0, "rental_uris": {"ios": "https://dc.lft.to/lastmile_qr_scan", "android": "https://dc.lft.to/lastmile_qr_scan"}, "is_reserved": 0}, {"lon": -77.02267016666667, "bike_id": "83cbaec435a69fcdf4c27918ae0bc530", "lat": 38.927325, "fusion_lon": 0.0, "fusion_lat": 0.0, "type": "electric_scooter", "name": "83cbaec435a69fcdf4c27918ae0bc530", "is_disabled": 0, "rental_uris": {"ios": "https://dc.lft.to/lastmile_qr_scan", "android": "https://dc.lft.to/lastmile_qr_scan"}, "is_reserved": 0}, {"lon": -77.02184133333333, "bike_id": "80819ebfc925ef214bc1d0459266c98f", "lat": 38.91939416666666, "fusion_lon": 0.0, "fusion_lat": 0.0, "type": "electric_scooter", "name": "80819ebfc925ef214bc1d0459266c98f", "is_disabled": 0, "rental_uris": {"ios": "https://dc.lft.to/lastmile_qr_scan", "android": "https://dc.lft.to/lastmile_qr_scan"}, "is_reserved": 0}, {"lon": -76.98197, "bike_id": "4ead0a0b6fde7712bd06b5ee9515dcce", "lat": 38.899468166666665, "fusion_lon": 0.0, "fusion_lat": 0.0, "type": "electric_scooter", "name": "4ead0a0b6fde7712bd06b5ee9515dcce", "is_disabled": 0, "rental_uris": {"ios": "https://dc.lft.to/lastmile_qr_scan", "android": "https://dc.lft.to/lastmile_qr_scan"}, "is_reserved": 0}, {"lon": -76.98716966666667, "bike_id": "78671dc3853590ebb9abf19e70a7a538", "lat": 38.86624033333333, "fusion_lon": 0.0, "fusion_lat": 0.0, "type": "electric_scooter", "name": "78671dc3853590ebb9abf19e70a7a538", "is_disabled": 0, "rental_uris": {"ios": "https://dc.lft.to/lastmile_qr_scan", "android": "https://dc.lft.to/lastmile_qr_scan"}, "is_reserved": 0}, {"lon": -76.95187133333333, "bike_id": "e3614d73014320fcb17017b23bf49ab4", "lat": 38.907386333333335, "fusion_lon": 0.0, "fusion_lat": 0.0, "type": "electric_scooter", "name": "e3614d73014320fcb17017b23bf49ab4", "is_disabled": 0, "rental_uris": {"ios": "https://dc.lft.to/lastmile_qr_scan", "android": "https://dc.lft.to/lastmile_qr_scan"}, "is_reserved": 0}, {"lon": -76.98005716666667, "bike_id": "d95ea0821e444ffce21b63e174d50a2e", "lat": 38.90680533333333, "fusion_lon": 0.0, "fusion_lat": 0.0, "type": "electric_scooter", "name": "d95ea0821e444ffce21b63e174d50a2e", "is_disabled": 0, "rental_uris": {"ios": "https://dc.lft.to/lastmile_qr_scan", "android": "https://dc.lft.to/lastmile_qr_scan"}, "is_reserved": 0}, {"lon": -77.04138416666666, "bike_id": "56de2ae547bd5e9224f2eb689f92f913", "lat": 38.92992116666667, "fusion_lon": 0.0, "fusion_lat": 0.0, "type": "electric_scooter", "name": "56de2ae547bd5e9224f2eb689f92f913", "is_disabled": 0, "rental_uris": {"ios": "https://dc.lft.to/lastmile_qr_scan", "android": "https://dc.lft.to/lastmile_qr_scan"}, "is_reserved": 0}, {"lon": -76.94189833333333, "bike_id": "23628ae45f29f567cb87b52bb8cb4005", "lat": 38.893097, "fusion_lon": 0.0, "fusion_lat": 0.0, "type": "electric_bike", "name": "23628ae45f29f567cb87b52bb8cb4005", "is_disabled": 0, "rental_uris": {"ios": "https://dc.lft.to/lastmile_qr_scan", "android": "https://dc.lft.to/lastmile_qr_scan"}, "is_reserved": 0}, {"lon": -77.03490883333333, "bike_id": "054a2501e896c66f0298931be9fb8a76", "lat": 38.93273033333333, "fusion_lon": 0.0, "fusion_lat": 0.0, "type": "electric_scooter", "name": "054a2501e896c66f0298931be9fb8a76", "is_disabled": 0, "rental_uris": {"ios": "https://dc.lft.to/lastmile_qr_scan", "android": "https://dc.lft.to/lastmile_qr_scan"}, "is_reserved": 0}, {"lon": -76.986696, "bike_id": "3676af897c5a3068c336c56eae2e1a0d", "lat": 38.899679166666665, "fusion_lon": 0.0, "fusion_lat": 0.0, "type": "electric_bike", "name": "3676af897c5a3068c336c56eae2e1a0d", "is_disabled": 0, "rental_uris": {"ios": "https://dc.lft.to/lastmile_qr_scan", "android": "https://dc.lft.to/lastmile_qr_scan"}, "is_reserved": 0}, {"lon": -77.03759183333334, "bike_id": "2d945b3a49d31eccb8818053fe07c4f2", "lat": 38.91884483333333, "fusion_lon": 0.0, "fusion_lat": 0.0, "type": "electric_scooter", "name": "2d945b3a49d31eccb8818053fe07c4f2", "is_disabled": 0, "rental_uris": {"ios": "https://dc.lft.to/lastmile_qr_scan", "android": "https://dc.lft.to/lastmile_qr_scan"}, "is_reserved": 0}, {"lon": -77.04902066666666, "bike_id": "a982012111cc0998bcd710dee3e71f9d", "lat": 38.892423, "fusion_lon": 0.0, "fusion_lat": 0.0, "type": "electric_scooter", "name": "a982012111cc0998bcd710dee3e71f9d", "is_disabled": 0, "rental_uris": {"ios": "https://dc.lft.to/lastmile_qr_scan", "android": "https://dc.lft.to/lastmile_qr_scan"}, "is_reserved": 0}, {"lon": -76.998699, "bike_id": "9331621896f1aa662feadee3d60e2aac", "lat": 38.900302333333336, "fusion_lon": 0.0, "fusion_lat": 0.0, "type": "electric_scooter", "name": "9331621896f1aa662feadee3d60e2aac", "is_disabled": 0, "rental_uris": {"ios": "https://dc.lft.to/lastmile_qr_scan", "android": "https://dc.lft.to/lastmile_qr_scan"}, "is_reserved": 0}, {"lon": -77.054969, "bike_id": "df57ab47b09e78af044a3cbb8d685f65", "lat": 38.9084455, "fusion_lon": 0.0, "fusion_lat": 0.0, "type": "electric_scooter", "name": "df57ab47b09e78af044a3cbb8d685f65", "is_disabled": 0, "rental_uris": {"ios": "https://dc.lft.to/lastmile_qr_scan", "android": "https://dc.lft.to/lastmile_qr_scan"}, "is_reserved": 0}, {"lon": -77.01025166666666, "bike_id": "3e222d540189800523e247ff243a2748", "lat": 38.910451333333334, "fusion_lon": 0.0, "fusion_lat": 0.0, "type": "electric_scooter", "name": "3e222d540189800523e247ff243a2748", "is_disabled": 0, "rental_uris": {"ios": "https://dc.lft.to/lastmile_qr_scan", "android": "https://dc.lft.to/lastmile_qr_scan"}, "is_reserved": 0}, {"lon": -77.05501633333333, "bike_id": "151c3a5a1d9f6e5f39f3237ced6e2308", "lat": 38.89760883333334, "fusion_lon": 0.0, "fusion_lat": 0.0, "type": "electric_scooter", "name": "151c3a5a1d9f6e5f39f3237ced6e2308", "is_disabled": 0, "rental_uris": {"ios": "https://dc.lft.to/lastmile_qr_scan", "android": "https://dc.lft.to/lastmile_qr_scan"}, "is_reserved": 0}, {"lon": -77.02552716666666, "bike_id": "44054ce8a5245d93e8559e064ecbf812", "lat": 38.94138366666667, "fusion_lon": 0.0, "fusion_lat": 0.0, "type": "electric_scooter", "name": "44054ce8a5245d93e8559e064ecbf812", "is_disabled": 0, "rental_uris": {"ios": "https://dc.lft.to/lastmile_qr_scan", "android": "https://dc.lft.to/lastmile_qr_scan"}, "is_reserved": 0}, {"lon": -76.96359716666667, "bike_id": "bef14b9b4dbb570a1867ad0d2f9e0e74", "lat": 38.935013, "fusion_lon": 0.0, "fusion_lat": 0.0, "type": "electric_scooter", "name": "bef14b9b4dbb570a1867ad0d2f9e0e74", "is_disabled": 0, "rental_uris": {"ios": "https://dc.lft.to/lastmile_qr_scan", "android": "https://dc.lft.to/lastmile_qr_scan"}, "is_reserved": 0}, {"lon": -76.93608483333334, "bike_id": "d5d1aa1a231758bdc564b8bdd2b81d53", "lat": 38.896859666666664, "fusion_lon": 0.0, "fusion_lat": 0.0, "type": "electric_scooter", "name": "d5d1aa1a231758bdc564b8bdd2b81d53", "is_disabled": 0, "rental_uris": {"ios": "https://dc.lft.to/lastmile_qr_scan", "android": "https://dc.lft.to/lastmile_qr_scan"}, "is_reserved": 0}, {"lon": -77.00916183333334, "bike_id": "e3ccf268e7eceac7a67d0c0fd39beea5", "lat": 38.827832666666666, "fusion_lon": 0.0, "fusion_lat": 0.0, "type": "electric_bike", "name": "e3ccf268e7eceac7a67d0c0fd39beea5", "is_disabled": 0, "rental_uris": {"ios": "https://dc.lft.to/lastmile_qr_scan", "android": "https://dc.lft.to/lastmile_qr_scan"}, "is_reserved": 0}, {"lon": -77.04480333333333, "bike_id": "681e3cbdd53eabbfc5beeefc830a520d", "lat": 38.91888, "fusion_lon": 0.0, "fusion_lat": 0.0, "type": "electric_scooter", "name": "681e3cbdd53eabbfc5beeefc830a520d", "is_disabled": 0, "rental_uris": {"ios": "https://dc.lft.to/lastmile_qr_scan", "android": "https://dc.lft.to/lastmile_qr_scan"}, "is_reserved": 0}, {"lon": -77.00065083333334, "bike_id": "5d93e71e832567fcb8915e298df19b01", "lat": 38.924352666666664, "fusion_lon": 0.0, "fusion_lat": 0.0, "type": "electric_scooter", "name": "5d93e71e832567fcb8915e298df19b01", "is_disabled": 0, "rental_uris": {"ios": "https://dc.lft.to/lastmile_qr_scan", "android": "https://dc.lft.to/lastmile_qr_scan"}, "is_reserved": 0}, {"lon": -77.02798033333333, "bike_id": "aef20380aabff1986f7a255820e15b93", "lat": 38.91690466666667, "fusion_lon": 0.0, "fusion_lat": 0.0, "type": "electric_scooter", "name": "aef20380aabff1986f7a255820e15b93", "is_disabled": 0, "rental_uris": {"ios": "https://dc.lft.to/lastmile_qr_scan", "android": "https://dc.lft.to/lastmile_qr_scan"}, "is_reserved": 0}, {"lon": -77.04258933333334, "bike_id": "343d9f0adc72c0a082d1cdeb2737befe", "lat": 38.91787033333333, "fusion_lon": 0.0, "fusion_lat": 0.0, "type": "electric_scooter", "name": "343d9f0adc72c0a082d1cdeb2737befe", "is_disabled": 0, "rental_uris": {"ios": "https://dc.lft.to/lastmile_qr_scan", "android": "https://dc.lft.to/lastmile_qr_scan"}, "is_reserved": 0}, {"lon": -76.9761605, "bike_id": "049016f5e3d611950eaa46202138d133", "lat": 38.903827166666666, "fusion_lon": 0.0, "fusion_lat": 0.0, "type": "electric_scooter", "name": "049016f5e3d611950eaa46202138d133", "is_disabled": 0, "rental_uris": {"ios": "https://dc.lft.to/lastmile_qr_scan", "android": "https://dc.lft.to/lastmile_qr_scan"}, "is_reserved": 0}, {"lon": -76.99829216666667, "bike_id": "d9d9021258831e13e18b1c697fa0c0b3", "lat": 38.905033, "fusion_lon": 0.0, "fusion_lat": 0.0, "type": "electric_scooter", "name": "d9d9021258831e13e18b1c697fa0c0b3", "is_disabled": 0, "rental_uris": {"ios": "https://dc.lft.to/lastmile_qr_scan", "android": "https://dc.lft.to/lastmile_qr_scan"}, "is_reserved": 0}, {"lon": -77.02894133333334, "bike_id": "3b8789ea43212a2008434b6d248c048f", "lat": 38.90393733333333, "fusion_lon": 0.0, "fusion_lat": 0.0, "type": "electric_scooter", "name": "3b8789ea43212a2008434b6d248c048f", "is_disabled": 0, "rental_uris": {"ios": "https://dc.lft.to/lastmile_qr_scan", "android": "https://dc.lft.to/lastmile_qr_scan"}, "is_reserved": 0}, {"lon": -77.02404466666667, "bike_id": "0cdf55a6c5aaa5a96d1465028c7ab6dc", "lat": 38.920618833333336, "fusion_lon": 0.0, "fusion_lat": 0.0, "type": "electric_scooter", "name": "0cdf55a6c5aaa5a96d1465028c7ab6dc", "is_disabled": 0, "rental_uris": {"ios": "https://dc.lft.to/lastmile_qr_scan", "android": "https://dc.lft.to/lastmile_qr_scan"}, "is_reserved": 0}, {"lon": -77.047261, "bike_id": "b60ec63cfdac366ea45b66f4efc55c20", "lat": 38.922338833333335, "fusion_lon": 0.0, "fusion_lat": 0.0, "type": "electric_scooter", "name": "b60ec63cfdac366ea45b66f4efc55c20", "is_disabled": 0, "rental_uris": {"ios": "https://dc.lft.to/lastmile_qr_scan", "android": "https://dc.lft.to/lastmile_qr_scan"}, "is_reserved": 0}, {"lon": -77.03835033333333, "bike_id": "b2d6ed9ef81b153a8b45282fafb68dfe", "lat": 38.914911333333336, "fusion_lon": 0.0, "fusion_lat": 0.0, "type": "electric_scooter", "name": "b2d6ed9ef81b153a8b45282fafb68dfe", "is_disabled": 0, "rental_uris": {"ios": "https://dc.lft.to/lastmile_qr_scan", "android": "https://dc.lft.to/lastmile_qr_scan"}, "is_reserved": 0}, {"lon": -77.029824, "bike_id": "268f196d1b95da51f2431f574fbd57d8", "lat": 38.939315, "fusion_lon": 0.0, "fusion_lat": 0.0, "type": "electric_scooter", "name": "268f196d1b95da51f2431f574fbd57d8", "is_disabled": 0, "rental_uris": {"ios": "https://dc.lft.to/lastmile_qr_scan", "android": "https://dc.lft.to/lastmile_qr_scan"}, "is_reserved": 0}, {"lon": -76.96530233333333, "bike_id": "51c4111b350cdb7374d7273b84ce0a9c", "lat": 38.876294666666666, "fusion_lon": 0.0, "fusion_lat": 0.0, "type": "electric_scooter", "name": "51c4111b350cdb7374d7273b84ce0a9c", "is_disabled": 0, "rental_uris": {"ios": "https://dc.lft.to/lastmile_qr_scan", "android": "https://dc.lft.to/lastmile_qr_scan"}, "is_reserved": 0}, {"lon": -77.03165033333333, "bike_id": "e4c7effe237fd564590ab1270b00ca6a", "lat": 38.9141485, "fusion_lon": 0.0, "fusion_lat": 0.0, "type": "electric_scooter", "name": "e4c7effe237fd564590ab1270b00ca6a", "is_disabled": 0, "rental_uris": {"ios": "https://dc.lft.to/lastmile_qr_scan", "android": "https://dc.lft.to/lastmile_qr_scan"}, "is_reserved": 0}, {"lon": -77.02185866666666, "bike_id": "fdcbe6228dbe28e7627ba0536eafd23b", "lat": 38.911291, "fusion_lon": 0.0, "fusion_lat": 0.0, "type": "electric_scooter", "name": "fdcbe6228dbe28e7627ba0536eafd23b", "is_disabled": 0, "rental_uris": {"ios": "https://dc.lft.to/lastmile_qr_scan", "android": "https://dc.lft.to/lastmile_qr_scan"}, "is_reserved": 0}, {"lon": -76.98689066666667, "bike_id": "63642a1b4dbe75699f7dc26d78794612", "lat": 38.912912666666664, "fusion_lon": 0.0, "fusion_lat": 0.0, "type": "electric_bike", "name": "63642a1b4dbe75699f7dc26d78794612", "is_disabled": 0, "rental_uris": {"ios": "https://dc.lft.to/lastmile_qr_scan", "android": "https://dc.lft.to/lastmile_qr_scan"}, "is_reserved": 0}, {"lon": -77.06418483333333, "bike_id": "d92bbf6f7fc87b3ce8365aeafe834ff1", "lat": 38.99333933333333, "fusion_lon": 0.0, "fusion_lat": 0.0, "type": "electric_scooter", "name": "d92bbf6f7fc87b3ce8365aeafe834ff1", "is_disabled": 0, "rental_uris": {"ios": "https://dc.lft.to/lastmile_qr_scan", "android": "https://dc.lft.to/lastmile_qr_scan"}, "is_reserved": 0}, {"lon": -77.04117966666666, "bike_id": "63147699c033cd2f1ea6b278444744aa", "lat": 38.93482266666667, "fusion_lon": 0.0, "fusion_lat": 0.0, "type": "electric_scooter", "name": "63147699c033cd2f1ea6b278444744aa", "is_disabled": 0, "rental_uris": {"ios": "https://dc.lft.to/lastmile_qr_scan", "android": "https://dc.lft.to/lastmile_qr_scan"}, "is_reserved": 0}, {"lon": -77.03956433333333, "bike_id": "6cfad81b2861853ce9697dd88c5701ee", "lat": 38.9156, "fusion_lon": 0.0, "fusion_lat": 0.0, "type": "electric_scooter", "name": "6cfad81b2861853ce9697dd88c5701ee", "is_disabled": 0, "rental_uris": {"ios": "https://dc.lft.to/lastmile_qr_scan", "android": "https://dc.lft.to/lastmile_qr_scan"}, "is_reserved": 0}, {"lon": -76.97870783333333, "bike_id": "035a73882261c4a0a2287699a64cd0cf", "lat": 38.8830315, "fusion_lon": 0.0, "fusion_lat": 0.0, "type": "electric_scooter", "name": "035a73882261c4a0a2287699a64cd0cf", "is_disabled": 0, "rental_uris": {"ios": "https://dc.lft.to/lastmile_qr_scan", "android": "https://dc.lft.to/lastmile_qr_scan"}, "is_reserved": 0}, {"lon": -77.02390966666667, "bike_id": "4f92b77d2117591dc253dfc23dd941c8", "lat": 38.931040833333334, "fusion_lon": 0.0, "fusion_lat": 0.0, "type": "electric_scooter", "name": "4f92b77d2117591dc253dfc23dd941c8", "is_disabled": 0, "rental_uris": {"ios": "https://dc.lft.to/lastmile_qr_scan", "android": "https://dc.lft.to/lastmile_qr_scan"}, "is_reserved": 0}, {"lon": -77.008895, "bike_id": "a5ac131a12f618cf9bf39a43c31648a6", "lat": 38.897649333333334, "fusion_lon": 0.0, "fusion_lat": 0.0, "type": "electric_scooter", "name": "a5ac131a12f618cf9bf39a43c31648a6", "is_disabled": 0, "rental_uris": {"ios": "https://dc.lft.to/lastmile_qr_scan", "android": "https://dc.lft.to/lastmile_qr_scan"}, "is_reserved": 0}, {"lon": -77.039152, "bike_id": "094470719a1cfca876cf11d0305f4568", "lat": 38.914062, "fusion_lon": 0.0, "fusion_lat": 0.0, "type": "electric_scooter", "name": "094470719a1cfca876cf11d0305f4568", "is_disabled": 0, "rental_uris": {"ios": "https://dc.lft.to/lastmile_qr_scan", "android": "https://dc.lft.to/lastmile_qr_scan"}, "is_reserved": 0}, {"lon": -77.03633433333333, "bike_id": "e367fa5529e207d41bd07294fd4e2b2c", "lat": 38.94497666666667, "fusion_lon": 0.0, "fusion_lat": 0.0, "type": "electric_scooter", "name": "e367fa5529e207d41bd07294fd4e2b2c", "is_disabled": 0, "rental_uris": {"ios": "https://dc.lft.to/lastmile_qr_scan", "android": "https://dc.lft.to/lastmile_qr_scan"}, "is_reserved": 0}, {"lon": -76.9810735, "bike_id": "e6d72095ab35706e8fed5d1bace3f932", "lat": 38.904102333333334, "fusion_lon": 0.0, "fusion_lat": 0.0, "type": "electric_scooter", "name": "e6d72095ab35706e8fed5d1bace3f932", "is_disabled": 0, "rental_uris": {"ios": "https://dc.lft.to/lastmile_qr_scan", "android": "https://dc.lft.to/lastmile_qr_scan"}, "is_reserved": 0}, {"lon": -77.03268, "bike_id": "da895efd21db6e97e8daf814993f6174", "lat": 38.91990833333333, "fusion_lon": 0.0, "fusion_lat": 0.0, "type": "electric_scooter", "name": "da895efd21db6e97e8daf814993f6174", "is_disabled": 0, "rental_uris": {"ios": "https://dc.lft.to/lastmile_qr_scan", "android": "https://dc.lft.to/lastmile_qr_scan"}, "is_reserved": 0}, {"lon": -76.9863305, "bike_id": "616d8a311058fde74009889f6e07b349", "lat": 38.9015795, "fusion_lon": 0.0, "fusion_lat": 0.0, "type": "electric_scooter", "name": "616d8a311058fde74009889f6e07b349", "is_disabled": 0, "rental_uris": {"ios": "https://dc.lft.to/lastmile_qr_scan", "android": "https://dc.lft.to/lastmile_qr_scan"}, "is_reserved": 0}, {"lon": -77.02245416666666, "bike_id": "3f8c6e19f16f8b1660822c64a5176e40", "lat": 38.922757, "fusion_lon": 0.0, "fusion_lat": 0.0, "type": "electric_scooter", "name": "3f8c6e19f16f8b1660822c64a5176e40", "is_disabled": 0, "rental_uris": {"ios": "https://dc.lft.to/lastmile_qr_scan", "android": "https://dc.lft.to/lastmile_qr_scan"}, "is_reserved": 0}, {"lon": -77.03091266666667, "bike_id": "73ddd75fa7e053739296b6b014314570", "lat": 38.9170665, "fusion_lon": 0.0, "fusion_lat": 0.0, "type": "electric_scooter", "name": "73ddd75fa7e053739296b6b014314570", "is_disabled": 0, "rental_uris": {"ios": "https://dc.lft.to/lastmile_qr_scan", "android": "https://dc.lft.to/lastmile_qr_scan"}, "is_reserved": 0}, {"lon": -77.022359, "bike_id": "e128a5f38641b35f90d0a83b881e604e", "lat": 38.96203383333334, "fusion_lon": 0.0, "fusion_lat": 0.0, "type": "electric_scooter", "name": "e128a5f38641b35f90d0a83b881e604e", "is_disabled": 0, "rental_uris": {"ios": "https://dc.lft.to/lastmile_qr_scan", "android": "https://dc.lft.to/lastmile_qr_scan"}, "is_reserved": 0}, {"lon": -77.0078085, "bike_id": "c1fa32993b201b55064538e1985f376b", "lat": 38.8794065, "fusion_lon": 0.0, "fusion_lat": 0.0, "type": "electric_scooter", "name": "c1fa32993b201b55064538e1985f376b", "is_disabled": 0, "rental_uris": {"ios": "https://dc.lft.to/lastmile_qr_scan", "android": "https://dc.lft.to/lastmile_qr_scan"}, "is_reserved": 0}, {"lon": -77.02716316666667, "bike_id": "8770558916c5b95fcebc9c325a9fccd7", "lat": 38.90673566666667, "fusion_lon": 0.0, "fusion_lat": 0.0, "type": "electric_scooter", "name": "8770558916c5b95fcebc9c325a9fccd7", "is_disabled": 0, "rental_uris": {"ios": "https://dc.lft.to/lastmile_qr_scan", "android": "https://dc.lft.to/lastmile_qr_scan"}, "is_reserved": 0}, {"lon": -76.9823085, "bike_id": "eb2c2cf449a9820c3c0b073a841d3bf1", "lat": 38.9164975, "fusion_lon": 0.0, "fusion_lat": 0.0, "type": "electric_scooter", "name": "eb2c2cf449a9820c3c0b073a841d3bf1", "is_disabled": 0, "rental_uris": {"ios": "https://dc.lft.to/lastmile_qr_scan", "android": "https://dc.lft.to/lastmile_qr_scan"}, "is_reserved": 0}, {"lon": -77.02280633333334, "bike_id": "098a963183ad0ecac9b05c53779ede7f", "lat": 38.9160575, "fusion_lon": 0.0, "fusion_lat": 0.0, "type": "electric_scooter", "name": "098a963183ad0ecac9b05c53779ede7f", "is_disabled": 0, "rental_uris": {"ios": "https://dc.lft.to/lastmile_qr_scan", "android": "https://dc.lft.to/lastmile_qr_scan"}, "is_reserved": 0}, {"lon": -77.04751283333333, "bike_id": "575539483a6049c331905b02e1ef3776", "lat": 38.91762966666667, "fusion_lon": 0.0, "fusion_lat": 0.0, "type": "electric_scooter", "name": "575539483a6049c331905b02e1ef3776", "is_disabled": 0, "rental_uris": {"ios": "https://dc.lft.to/lastmile_qr_scan", "android": "https://dc.lft.to/lastmile_qr_scan"}, "is_reserved": 0}, {"lon": -77.0269975, "bike_id": "49f83910351486a6c648bfd2ac8a0619", "lat": 38.9084445, "fusion_lon": 0.0, "fusion_lat": 0.0, "type": "electric_scooter", "name": "49f83910351486a6c648bfd2ac8a0619", "is_disabled": 0, "rental_uris": {"ios": "https://dc.lft.to/lastmile_qr_scan", "android": "https://dc.lft.to/lastmile_qr_scan"}, "is_reserved": 0}, {"lon": -77.02366, "bike_id": "a1fb25e566e2432310586a4ebee40124", "lat": 38.89969883333333, "fusion_lon": 0.0, "fusion_lat": 0.0, "type": "electric_scooter", "name": "a1fb25e566e2432310586a4ebee40124", "is_disabled": 0, "rental_uris": {"ios": "https://dc.lft.to/lastmile_qr_scan", "android": "https://dc.lft.to/lastmile_qr_scan"}, "is_reserved": 0}, {"lon": -77.0334625, "bike_id": "375c84c016d0b5976a3ad5c7bfc615b8", "lat": 38.945130166666665, "fusion_lon": 0.0, "fusion_lat": 0.0, "type": "electric_bike", "name": "375c84c016d0b5976a3ad5c7bfc615b8", "is_disabled": 0, "rental_uris": {"ios": "https://dc.lft.to/lastmile_qr_scan", "android": "https://dc.lft.to/lastmile_qr_scan"}, "is_reserved": 0}, {"lon": -76.96911483333334, "bike_id": "b89d4fa80bdde021c502874f944bbb06", "lat": 38.846098833333336, "fusion_lon": 0.0, "fusion_lat": 0.0, "type": "electric_bike", "name": "b89d4fa80bdde021c502874f944bbb06", "is_disabled": 0, "rental_uris": {"ios": "https://dc.lft.to/lastmile_qr_scan", "android": "https://dc.lft.to/lastmile_qr_scan"}, "is_reserved": 0}, {"lon": -77.03858233333334, "bike_id": "61d28d86093cc79c1e7ada59ec9b5f4d", "lat": 38.916225833333336, "fusion_lon": 0.0, "fusion_lat": 0.0, "type": "electric_scooter", "name": "61d28d86093cc79c1e7ada59ec9b5f4d", "is_disabled": 0, "rental_uris": {"ios": "https://dc.lft.to/lastmile_qr_scan", "android": "https://dc.lft.to/lastmile_qr_scan"}, "is_reserved": 0}, {"lon": -77.031837, "bike_id": "2a63c74a5afe8b84967bf53276b32921", "lat": 38.9142695, "fusion_lon": 0.0, "fusion_lat": 0.0, "type": "electric_scooter", "name": "2a63c74a5afe8b84967bf53276b32921", "is_disabled": 0, "rental_uris": {"ios": "https://dc.lft.to/lastmile_qr_scan", "android": "https://dc.lft.to/lastmile_qr_scan"}, "is_reserved": 0}, {"lon": -76.99068416666667, "bike_id": "39e1154d1685e92b53f64dbdc7804b45", "lat": 38.92747216666667, "fusion_lon": 0.0, "fusion_lat": 0.0, "type": "electric_scooter", "name": "39e1154d1685e92b53f64dbdc7804b45", "is_disabled": 0, "rental_uris": {"ios": "https://dc.lft.to/lastmile_qr_scan", "android": "https://dc.lft.to/lastmile_qr_scan"}, "is_reserved": 0}, {"lon": -77.02246733333334, "bike_id": "faed856b2f5902ba981043e7a22213f1", "lat": 38.89992383333333, "fusion_lon": 0.0, "fusion_lat": 0.0, "type": "electric_scooter", "name": "faed856b2f5902ba981043e7a22213f1", "is_disabled": 0, "rental_uris": {"ios": "https://dc.lft.to/lastmile_qr_scan", "android": "https://dc.lft.to/lastmile_qr_scan"}, "is_reserved": 0}, {"lon": -77.014157, "bike_id": "9f0469a79278130ede5b9929a033ead5", "lat": 38.92802016666667, "fusion_lon": 0.0, "fusion_lat": 0.0, "type": "electric_scooter", "name": "9f0469a79278130ede5b9929a033ead5", "is_disabled": 0, "rental_uris": {"ios": "https://dc.lft.to/lastmile_qr_scan", "android": "https://dc.lft.to/lastmile_qr_scan"}, "is_reserved": 0}, {"lon": -77.0364275, "bike_id": "5df21295e837c58aed73bdbc21d166f7", "lat": 38.90275416666667, "fusion_lon": 0.0, "fusion_lat": 0.0, "type": "electric_scooter", "name": "5df21295e837c58aed73bdbc21d166f7", "is_disabled": 0, "rental_uris": {"ios": "https://dc.lft.to/lastmile_qr_scan", "android": "https://dc.lft.to/lastmile_qr_scan"}, "is_reserved": 0}, {"lon": -77.11597733333333, "bike_id": "48f438bb0201c0ea71320a6dfa514075", "lat": 39.07494166666667, "fusion_lon": 0.0, "fusion_lat": 0.0, "type": "electric_bike", "name": "48f438bb0201c0ea71320a6dfa514075", "is_disabled": 0, "rental_uris": {"ios": "https://dc.lft.to/lastmile_qr_scan", "android": "https://dc.lft.to/lastmile_qr_scan"}, "is_reserved": 0}, {"lon": -76.990536, "bike_id": "e6501ab47f00c563f255fd611c981a40", "lat": 38.86378233333333, "fusion_lon": 0.0, "fusion_lat": 0.0, "type": "electric_scooter", "name": "e6501ab47f00c563f255fd611c981a40", "is_disabled": 0, "rental_uris": {"ios": "https://dc.lft.to/lastmile_qr_scan", "android": "https://dc.lft.to/lastmile_qr_scan"}, "is_reserved": 0}, {"lon": -77.02447683333334, "bike_id": "e4c22fd1201cb5fc60ad0902d98d2feb", "lat": 38.92066, "fusion_lon": 0.0, "fusion_lat": 0.0, "type": "electric_scooter", "name": "e4c22fd1201cb5fc60ad0902d98d2feb", "is_disabled": 0, "rental_uris": {"ios": "https://dc.lft.to/lastmile_qr_scan", "android": "https://dc.lft.to/lastmile_qr_scan"}, "is_reserved": 0}, {"lon": -77.035014, "bike_id": "69ee4d41cf5fb87d264dd6408a17d019", "lat": 38.93459266666667, "fusion_lon": 0.0, "fusion_lat": 0.0, "type": "electric_scooter", "name": "69ee4d41cf5fb87d264dd6408a17d019", "is_disabled": 0, "rental_uris": {"ios": "https://dc.lft.to/lastmile_qr_scan", "android": "https://dc.lft.to/lastmile_qr_scan"}, "is_reserved": 0},