{"data": {"bikes": [{"lat": 38.91330416666667, "is_disabled": 0, "type": "electric_scooter", "lon": -77.03124466666667, "bike_id": "a818021194ec8e53b24cefbacb1cb78f", "fusion_lat": 0.0, "name": "a818021194ec8e53b24cefbacb1cb78f", "is_reserved": 0, "rental_uris": {"android": "https://dc.lft.to/lastmile_qr_scan", "ios": "https://dc.lft.to/lastmile_qr_scan"}, "fusion_lon": 0.0}, {"lat": 38.873149, "is_disabled": 0, "type": "electric_bike", "lon": -76.99154166666666, "bike_id": "68c8701bcccc1e1ce70328cd103e0a19", "fusion_lat": 0.0, "name": "68c8701bcccc1e1ce70328cd103e0a19", "is_reserved": 0, "rental_uris": {"android": "https://dc.lft.to/lastmile_qr_scan", "ios": "https://dc.lft.to/lastmile_qr_scan"}, "fusion_lon": 0.0}, {"lat": 38.9513565, "is_disabled": 0, "type": "electric_scooter", "lon": -77.0133225, "bike_id": "730735343ad09c1d07e1538ca0192d1e", "fusion_lat": 0.0, "name": "730735343ad09c1d07e1538ca0192d1e", "is_reserved": 0, "rental_uris": {"android": "https://dc.lft.to/lastmile_qr_scan", "ios": "https://dc.lft.to/lastmile_qr_scan"}, "fusion_lon": 0.0}, {"lat": 38.917888833333336, "is_disabled": 0, "type": "electric_scooter", "lon": -77.0407265, "bike_id": "2cce613ac84c4b76febdf985f37aff16", "fusion_lat": 0.0, "name": "2cce613ac84c4b76febdf985f37aff16", "is_reserved": 0, "rental_uris": {"android": "https://dc.lft.to/lastmile_qr_scan", "ios": "https://dc.lft.to/lastmile_qr_scan"}, "fusion_lon": 0.0}, {"lat": 38.9071385, "is_disabled": 0, "type": "electric_scooter", "lon": -77.04755433333334, "bike_id": "0d6566a6ea3f56cbfbdda836bf0e7bf9", "fusion_lat": 0.0, "name": "0d6566a6ea3f56cbfbdda836bf0e7bf9", "is_reserved": 0, "rental_uris": {"android": "https://dc.lft.to/lastmile_qr_scan", "ios": "https://dc.lft.to/lastmile_qr_scan"}, "fusion_lon": 0.0}, {"lat": 38.901281, "is_disabled": 0, "type": "electric_scooter", "lon": -76.99743066666667, "bike_id": "6600abf917cfe57f8d098be37eaecddf", "fusion_lat": 0.0, "name": "6600abf917cfe57f8d098be37eaecddf", "is_reserved": 0, "rental_uris": {"android": "https://dc.lft.to/lastmile_qr_scan", "ios": "https://dc.lft.to/lastmile_qr_scan"}, "fusion_lon": 0.0}, {"lat": 38.9096375, "is_disabled": 0, "type": "electric_scooter", "lon": -77.02289083333334, "bike_id": "cc29c57d376ad250d0668add5669a4ff", "fusion_lat": 0.0, "name": "cc29c57d376ad250d0668add5669a4ff", "is_reserved": 0, "rental_uris": {"android": "https://dc.lft.to/lastmile_qr_scan", "ios": "https://dc.lft.to/lastmile_qr_scan"}, "fusion_lon": 0.0}, {"lat": 38.8851345, "is_disabled": 0, "type": "electric_scooter", "lon": -77.01559383333333, "bike_id": "8ef8c36d4d7943e31849195e5d98102b", "fusion_lat": 0.0, "name": "8ef8c36d4d7943e31849195e5d98102b", "is_reserved": 0, "rental_uris": {"android": "https://dc.lft.to/lastmile_qr_scan", "ios": "https://dc.lft.to/lastmile_qr_scan"}, "fusion_lon": 0.0}, {"lat": 38.91558233333333, "is_disabled": 0, "type": "electric_scooter", "lon": -77.04872383333333, "bike_id": "57bf1498cdb50d040b692fb7ed0cf8a0", "fusion_lat": 0.0, "name": "57bf1498cdb50d040b692fb7ed0cf8a0", "is_reserved": 0, "rental_uris": {"android": "https://dc.lft.to/lastmile_qr_scan", "ios": "https://dc.lft.to/lastmile_qr_scan"}, "fusion_lon": 0.0}, {"lat": 38.90311, "is_disabled": 0, "type": "electric_scooter", "lon": -76.97803, "bike_id": "4fa2765be2ab444086a6dd32f2af4298", "fusion_lat": 0.0, "name": "4fa2765be2ab444086a6dd32f2af4298", "is_reserved": 0, "rental_uris": {"android": "https://dc.lft.to/lastmile_qr_scan", "ios": "https://dc.lft.to/lastmile_qr_scan"}, "fusion_lon": 0.0}, {"lat": 38.97084316666667, "is_disabled": 0, "type": "electric_bike", "lon": -77.0696505, "bike_id": "d940ac6d5c47688b3e1e61a6d38ecfb3", "fusion_lat": 0.0, "name": "d940ac6d5c47688b3e1e61a6d38ecfb3", "is_reserved": 0, "rental_uris": {"android": "https://dc.lft.to/lastmile_qr_scan", "ios": "https://dc.lft.to/lastmile_qr_scan"}, "fusion_lon": 0.0}, {"lat": 38.91994533333333, "is_disabled": 0, "type": "electric_scooter", "lon": -77.01793583333334, "bike_id": "a7e2ee6a1d56076ebdf310d7412951b4", "fusion_lat": 0.0, "name": "a7e2ee6a1d56076ebdf310d7412951b4", "is_reserved": 0, "rental_uris": {"android": "https://dc.lft.to/lastmile_qr_scan", "ios": "https://dc.lft.to/lastmile_qr_scan"}, "fusion_lon": 0.0}, {"lat": 38.906546166666665, "is_disabled": 0, "type": "electric_scooter", "lon": -77.02500416666666, "bike_id": "8ab09bbd3c8b39b4c0dd9789650d70b0", "fusion_lat": 0.0, "name": "8ab09bbd3c8b39b4c0dd9789650d70b0", "is_reserved": 0, "rental_uris": {"android": "https://dc.lft.to/lastmile_qr_scan", "ios": "https://dc.lft.to/lastmile_qr_scan"}, "fusion_lon": 0.0}, {"lat": 38.898762, "is_disabled": 0, "type": "electric_scooter", "lon": -76.93183683333334, "bike_id": "da3be04a9794b1ff7c2b2c7786e27fe3", "fusion_lat": 0.0, "name": "da3be04a9794b1ff7c2b2c7786e27fe3", "is_reserved": 0, "rental_uris": {"android": "https://dc.lft.to/lastmile_qr_scan", "ios": "https://dc.lft.to/lastmile_qr_scan"}, "fusion_lon": 0.0}, {"lat": 38.908415166666664, "is_disabled": 0, "type": "electric_scooter", "lon": -77.02717816666667, "bike_id": "ec6f5e95a005a5f7c9a9ac345ce93ed7", "fusion_lat": 0.0, "name": "ec6f5e95a005a5f7c9a9ac345ce93ed7", "is_reserved": 0, "rental_uris": {"android": "https://dc.lft.to/lastmile_qr_scan", "ios": "https://dc.lft.to/lastmile_qr_scan"}, "fusion_lon": 0.0}, {"lat": 38.885820333333335, "is_disabled": 0, "type": "electric_scooter", "lon": -77.02014666666666, "bike_id": "d857261c94ba0317a677c10172904932", "fusion_lat": 0.0, "name": "d857261c94ba0317a677c10172904932", "is_reserved": 0, "rental_uris": {"android": "https://dc.lft.to/lastmile_qr_scan", "ios": "https://dc.lft.to/lastmile_qr_scan"}, "fusion_lon": 0.0}, {"lat": 38.93347966666666, "is_disabled": 0, "type": "electric_scooter", "lon": -77.05710916666666, "bike_id": "ab0327e15fa0e36470458bc690c88f8d", "fusion_lat": 0.0, "name": "ab0327e15fa0e36470458bc690c88f8d", "is_reserved": 0, "rental_uris": {"android": "https://dc.lft.to/lastmile_qr_scan", "ios": "https://dc.lft.to/lastmile_qr_scan"}, "fusion_lon": 0.0}, {"lat": 38.90153933333333, "is_disabled": 0, "type": "electric_scooter", "lon": -77.03986583333334, "bike_id": "f2c2a5ad8bf16fa2c88c89538ab339a1", "fusion_lat": 0.0, "name": "f2c2a5ad8bf16fa2c88c89538ab339a1", "is_reserved": 0, "rental_uris": {"android": "https://dc.lft.to/lastmile_qr_scan", "ios": "https://dc.lft.to/lastmile_qr_scan"}, "fusion_lon": 0.0}, {"lat": 38.836754, "is_disabled": 0, "type": "electric_scooter", "lon": -77.0057655, "bike_id": "84d876dba90216f1344aac1adb81eb00", "fusion_lat": 0.0, "name": "84d876dba90216f1344aac1adb81eb00", "is_reserved": 0, "rental_uris": {"android": "https://dc.lft.to/lastmile_qr_scan", "ios": "https://dc.lft.to/lastmile_qr_scan"}, "fusion_lon": 0.0}, {"lat": 38.908593, "is_disabled": 0, "type": "electric_scooter", "lon": -77.04589633333333, "bike_id": "e0b6220eb81a4a80158ec106b4c06066", "fusion_lat": 0.0, "name": "e0b6220eb81a4a80158ec106b4c06066", "is_reserved": 0, "rental_uris": {"android": "https://dc.lft.to/lastmile_qr_scan", "ios": "https://dc.lft.to/lastmile_qr_scan"}, "fusion_lon": 0.0}, {"lat": 38.870151666666665, "is_disabled": 0, "type": "electric_bike", "lon": -76.96024616666666, "bike_id": "c34fdac00e8474b0777af65c145d57c6", "fusion_lat": 0.0, "name": "c34fdac00e8474b0777af65c145d57c6", "is_reserved": 0, "rental_uris": {"android": "https://dc.lft.to/lastmile_qr_scan", "ios": "https://dc.lft.to/lastmile_qr_scan"}, "fusion_lon": 0.0}, {"lat": 38.91917183333333, "is_disabled": 0, "type": "electric_scooter", "lon": -77.013411, "bike_id": "a5fbd7a4a7383862fd085d8e6d8e7dac", "fusion_lat": 0.0, "name": "a5fbd7a4a7383862fd085d8e6d8e7dac", "is_reserved": 0, "rental_uris": {"android": "https://dc.lft.to/lastmile_qr_scan", "ios": "https://dc.lft.to/lastmile_qr_scan"}, "fusion_lon": 0.0}, {"lat": 38.90607466666667, "is_disabled": 0, "type": "electric_scooter", "lon": -77.06295966666667, "bike_id": "ad813f957b634d34121c8c141c76cd9f", "fusion_lat": 0.0, "name": "ad813f957b634d34121c8c141c76cd9f", "is_reserved": 0, "rental_uris": {"android": "https://dc.lft.to/lastmile_qr_scan", "ios": "https://dc.lft.to/lastmile_qr_scan"}, "fusion_lon": 0.0}, {"lat": 38.90041683333333, "is_disabled": 0, "type": "electric_scooter", "lon": -76.990206, "bike_id": "5250731e3e4c134438a3094127db9ebc", "fusion_lat": 0.0, "name": "5250731e3e4c134438a3094127db9ebc", "is_reserved": 0, "rental_uris": {"android": "https://dc.lft.to/lastmile_qr_scan", "ios": "https://dc.lft.to/lastmile_qr_scan"}, "fusion_lon": 0.0}, {"lat": 38.916946833333334, "is_disabled": 0, "type": "electric_scooter", "lon": -77.037643, "bike_id": "21b4deac81305d4e906ee1ae0dd948e5", "fusion_lat": 0.0, "name": "21b4deac81305d4e906ee1ae0dd948e5", "is_reserved": 0, "rental_uris": {"android": "https://dc.lft.to/lastmile_qr_scan", "ios": "https://dc.lft.to/lastmile_qr_scan"}, "fusion_lon": 0.0}, {"lat": 38.9349805, "is_disabled": 0, "type": "electric_scooter", "lon": -77.05801433333333, "bike_id": "f0f0459cf6c9705a03e0793e8476e6c4", "fusion_lat": 0.0, "name": "f0f0459cf6c9705a03e0793e8476e6c4", "is_reserved": 0, "rental_uris": {"android": "https://dc.lft.to/lastmile_qr_scan", "ios": "https://dc.lft.to/lastmile_qr_scan"}, "fusion_lon": 0.0}, {"lat": 38.930346166666666, "is_disabled": 0, "type": "electric_scooter", "lon": -77.03631783333333, "bike_id": "c66ef934965434433e5995ab3b7a00fe", "fusion_lat": 0.0, "name": "c66ef934965434433e5995ab3b7a00fe", "is_reserved": 0, "rental_uris": {"android": "https://dc.lft.to/lastmile_qr_scan", "ios": "https://dc.lft.to/lastmile_qr_scan"}, "fusion_lon": 0.0}, {"lat": 38.90450166666667, "is_disabled": 0, "type": "electric_scooter", "lon": -77.02884066666667, "bike_id": "f521417f45c04ca696fbd94261bef4a6", "fusion_lat": 0.0, "name": "f521417f45c04ca696fbd94261bef4a6", "is_reserved": 0, "rental_uris": {"android": "https://dc.lft.to/lastmile_qr_scan", "ios": "https://dc.lft.to/lastmile_qr_scan"}, "fusion_lon": 0.0}, {"lat": 38.92441083333333, "is_disabled": 0, "type": "electric_scooter", "lon": -77.0402755, "bike_id": "2fc5732aaeb4964f89075d9b4e2dae0a", "fusion_lat": 0.0, "name": "2fc5732aaeb4964f89075d9b4e2dae0a", "is_reserved": 0, "rental_uris": {"android": "https://dc.lft.to/lastmile_qr_scan", "ios": "https://dc.lft.to/lastmile_qr_scan"}, "fusion_lon": 0.0}, {"lat": 38.895308666666665, "is_disabled": 0, "type": "electric_scooter", "lon": -77.011125, "bike_id": "4b2ca72092ba508bf80a9625d1ec18b2", "fusion_lat": 0.0, "name": "4b2ca72092ba508bf80a9625d1ec18b2", "is_reserved": 0, "rental_uris": {"android": "https://dc.lft.to/lastmile_qr_scan", "ios": "https://dc.lft.to/lastmile_qr_scan"}, "fusion_lon": 0.0}, {"lat": 38.886581666666665, "is_disabled": 0, "type": "electric_scooter", "lon": -76.99627616666666, "bike_id": "6f5e8b4b56928cf18973161615f4ebd0", "fusion_lat": 0.0, "name": "6f5e8b4b56928cf18973161615f4ebd0", "is_reserved": 0, "rental_uris": {"android": "https://dc.lft.to/lastmile_qr_scan", "ios": "https://dc.lft.to/lastmile_qr_scan"}, "fusion_lon": 0.0}, {"lat": 38.923659666666666, "is_disabled": 0, "type": "electric_scooter", "lon": -77.07679033333334, "bike_id": "53055b881809ed14a19d6ed4bdfe99be", "fusion_lat": 0.0, "name": "53055b881809ed14a19d6ed4bdfe99be", "is_reserved": 0, "rental_uris": {"android": "https://dc.lft.to/lastmile_qr_scan", "ios": "https://dc.lft.to/lastmile_qr_scan"}, "fusion_lon": 0.0}, {"lat": 38.918596666666666, "is_disabled": 0, "type": "electric_scooter", "lon": -77.0742595, "bike_id": "c27a54672a375a1c4f7756bc803347f9", "fusion_lat": 0.0, "name": "c27a54672a375a1c4f7756bc803347f9", "is_reserved": 0, "rental_uris": {"android": "https://dc.lft.to/lastmile_qr_scan", "ios": "https://dc.lft.to/lastmile_qr_scan"}, "fusion_lon": 0.0}, {"lat": 38.93043866666667, "is_disabled": 0, "type": "electric_scooter", "lon": -77.0324485, "bike_id": "14eeb2d8bc1a888a1345949eb203260d", "fusion_lat": 0.0, "name": "14eeb2d8bc1a888a1345949eb203260d", "is_reserved": 0, "rental_uris": {"android": "https://dc.lft.to/lastmile_qr_scan", "ios": "https://dc.lft.to/lastmile_qr_scan"}, "fusion_lon": 0.0}, {"lat": 38.91466783333333, "is_disabled": 0, "type": "electric_scooter", "lon": -77.01889983333334, "bike_id": "bc145c1e12490309abc3817f26ce1808", "fusion_lat": 0.0, "name": "bc145c1e12490309abc3817f26ce1808", "is_reserved": 0, "rental_uris": {"android": "https://dc.lft.to/lastmile_qr_scan", "ios": "https://dc.lft.to/lastmile_qr_scan"}, "fusion_lon": 0.0}, {"lat": 38.88427733333333, "is_disabled": 0, "type": "electric_bike", "lon": -76.980905, "bike_id": "705ff63d47b4adbf9284ce875c153279", "fusion_lat": 0.0, "name": "705ff63d47b4adbf9284ce875c153279", "is_reserved": 0, "rental_uris": {"android": "https://dc.lft.to/lastmile_qr_scan", "ios": "https://dc.lft.to/lastmile_qr_scan"}, "fusion_lon": 0.0}, {"lat": 38.89204133333333, "is_disabled": 0, "type": "electric_bike", "lon": -76.9705035, "bike_id": "5b27c54ee2409b7c94c433c7b644d5ab", "fusion_lat": 0.0, "name": "5b27c54ee2409b7c94c433c7b644d5ab", "is_reserved": 0, "rental_uris": {"android": "https://dc.lft.to/lastmile_qr_scan", "ios": "https://dc.lft.to/lastmile_qr_scan"}, "fusion_lon": 0.0}, {"lat": 38.91678, "is_disabled": 0, "type": "electric_scooter", "lon": -77.02976016666666, "bike_id": "8852a7ab640d443b971320c541f5b612", "fusion_lat": 0.0, "name": "8852a7ab640d443b971320c541f5b612", "is_reserved": 0, "rental_uris": {"android": "https://dc.lft.to/lastmile_qr_scan", "ios": "https://dc.lft.to/lastmile_qr_scan"}, "fusion_lon": 0.0}, {"lat": 38.906112666666665, "is_disabled": 0, "type": "electric_scooter", "lon": -77.05858766666667, "bike_id": "76276c40c63a5ea441e4cfd7fb2ede2a", "fusion_lat": 0.0, "name": "76276c40c63a5ea441e4cfd7fb2ede2a", "is_reserved": 0, "rental_uris": {"android": "https://dc.lft.to/lastmile_qr_scan", "ios": "https://dc.lft.to/lastmile_qr_scan"}, "fusion_lon": 0.0}, {"lat": 38.89291333333333, "is_disabled": 0, "type": "electric_bike", "lon": -77.00143666666666, "bike_id": "75532f001fb50317e1e375e949fa8b4e", "fusion_lat": 0.0, "name": "75532f001fb50317e1e375e949fa8b4e", "is_reserved": 0, "rental_uris": {"android": "https://dc.lft.to/lastmile_qr_scan", "ios": "https://dc.lft.to/lastmile_qr_scan"}, "fusion_lon": 0.0}, {"lat": 38.892610166666664, "is_disabled": 0, "type": "electric_scooter", "lon": -76.94156366666667, "bike_id": "b223e7a6104abc7c60ac4bbbc0323cb2", "fusion_lat": 0.0, "name": "b223e7a6104abc7c60ac4bbbc0323cb2", "is_reserved": 0, "rental_uris": {"android": "https://dc.lft.to/lastmile_qr_scan", "ios": "https://dc.lft.to/lastmile_qr_scan"}, "fusion_lon": 0.0}, {"lat": 38.897589833333335, "is_disabled": 0, "type": "electric_scooter", "lon": -77.045424, "bike_id": "97590ee006792bb73e4004117a3bb00f", "fusion_lat": 0.0, "name": "97590ee006792bb73e4004117a3bb00f", "is_reserved": 0, "rental_uris": {"android": "https://dc.lft.to/lastmile_qr_scan", "ios": "https://dc.lft.to/lastmile_qr_scan"}, "fusion_lon": 0.0}, {"lat": 38.873419166666665, "is_disabled": 0, "type": "electric_scooter", "lon": -76.99165766666667, "bike_id": "2f1cc8374b82d40609f7106a58d4011d", "fusion_lat": 0.0, "name": "2f1cc8374b82d40609f7106a58d4011d", "is_reserved": 0, "rental_uris": {"android": "https://dc.lft.to/lastmile_qr_scan", "ios": "https://dc.lft.to/lastmile_qr_scan"}, "fusion_lon": 0.0}, {"lat": 38.897403833333335, "is_disabled": 0, "type": "electric_scooter", "lon": -77.00858116666667, "bike_id": "68811a340d45cf3907956b31b38c9858", "fusion_lat": 0.0, "name": "68811a340d45cf3907956b31b38c9858", "is_reserved": 0, "rental_uris": {"android": "https://dc.lft.to/lastmile_qr_scan", "ios": "https://dc.lft.to/lastmile_qr_scan"}, "fusion_lon": 0.0}, {"lat": 38.9280155, "is_disabled": 0, "type": "electric_scooter", "lon": -77.04312416666667, "bike_id": "857032cf882d3a2d0aa9bdf8e69aad8b", "fusion_lat": 0.0, "name": "857032cf882d3a2d0aa9bdf8e69aad8b", "is_reserved": 0, "rental_uris": {"android": "https://dc.lft.to/lastmile_qr_scan", "ios": "https://dc.lft.to/lastmile_qr_scan"}, "fusion_lon": 0.0}, {"lat": 38.805618, "is_disabled": 0, "type": "electric_bike", "lon": -77.13241183333334, "bike_id": "828c7fc97db9c25da15981ba0c119d14", "fusion_lat": 0.0, "name": "828c7fc97db9c25da15981ba0c119d14", "is_reserved": 0, "rental_uris": {"android": "https://dc.lft.to/lastmile_qr_scan", "ios": "https://dc.lft.to/lastmile_qr_scan"}, "fusion_lon": 0.0}, {"lat": 38.90418566666666, "is_disabled": 0, "type": "electric_scooter", "lon": -77.05326083333334, "bike_id": "d7946954374b3693b9f37aac51f208ef", "fusion_lat": 0.0, "name": "d7946954374b3693b9f37aac51f208ef", "is_reserved": 0, "rental_uris": {"android": "https://dc.lft.to/lastmile_qr_scan", "ios": "https://dc.lft.to/lastmile_qr_scan"}, "fusion_lon": 0.0}, {"lat": 38.90740366666667, "is_disabled": 0, "type": "electric_bike", "lon": -77.06907383333333, "bike_id": "cce53d0848a0378af86be2fa6be5385c", "fusion_lat": 0.0, "name": "cce53d0848a0378af86be2fa6be5385c", "is_reserved": 0, "rental_uris": {"android": "https://dc.lft.to/lastmile_qr_scan", "ios": "https://dc.lft.to/lastmile_qr_scan"}, "fusion_lon": 0.0}, {"lat": 38.89903983333333, "is_disabled": 0, "type": "electric_scooter", "lon": -76.93343716666666, "bike_id": "6627fe153febb9c0327d7322156ee165", "fusion_lat": 0.0, "name": "6627fe153febb9c0327d7322156ee165", "is_reserved": 0, "rental_uris": {"android": "https://dc.lft.to/lastmile_qr_scan", "ios": "https://dc.lft.to/lastmile_qr_scan"}, "fusion_lon": 0.0}, {"lat": 38.9167845, "is_disabled": 0, "type": "electric_scooter", "lon": -77.02971283333333, "bike_id": "a31e12ccdf2de6cf0b9f2a40d80b3eb2", "fusion_lat": 0.0, "name": "a31e12ccdf2de6cf0b9f2a40d80b3eb2", "is_reserved": 0, "rental_uris": {"android": "https://dc.lft.to/lastmile_qr_scan", "ios": "https://dc.lft.to/lastmile_qr_scan"}, "fusion_lon": 0.0}, {"lat": 38.900260333333335, "is_disabled": 0, "type": "electric_scooter", "lon": -76.988023, "bike_id": "f57697b0d9a5ea9cad4ffb41006dcf6e", "fusion_lat": 0.0, "name": "f57697b0d9a5ea9cad4ffb41006dcf6e", "is_reserved": 0, "rental_uris": {"android": "https://dc.lft.to/lastmile_qr_scan", "ios": "https://dc.lft.to/lastmile_qr_scan"}, "fusion_lon": 0.0}, {"lat": 38.89773316666667, "is_disabled": 0, "type": "electric_scooter", "lon": -77.0320895, "bike_id": "05887db2190b3fb7eb62cd8d4d3c6d9d", "fusion_lat": 0.0, "name": "05887db2190b3fb7eb62cd8d4d3c6d9d", "is_reserved": 0, "rental_uris": {"android": "https://dc.lft.to/lastmile_qr_scan", "ios": "https://dc.lft.to/lastmile_qr_scan"}, "fusion_lon": 0.0}, {"lat": 38.9042475, "is_disabled": 0, "type": "electric_scooter", "lon": -77.02096016666667, "bike_id": "7d5e4ea441a5e5d546d93d20471b51c5", "fusion_lat": 0.0, "name": "7d5e4ea441a5e5d546d93d20471b51c5", "is_reserved": 0, "rental_uris": {"android": "https://dc.lft.to/lastmile_qr_scan", "ios": "https://dc.lft.to/lastmile_qr_scan"}, "fusion_lon": 0.0}, {"lat": 38.88519766666667, "is_disabled": 0, "type": "electric_scooter", "lon": -77.033469, "bike_id": "6775fa873beed638ae3d70f3250206b7", "fusion_lat": 0.0, "name": "6775fa873beed638ae3d70f3250206b7", "is_reserved": 0, "rental_uris": {"android": "https://dc.lft.to/lastmile_qr_scan", "ios": "https://dc.lft.to/lastmile_qr_scan"}, "fusion_lon": 0.0}, {"lat": 38.85811016666667, "is_disabled": 0, "type": "electric_scooter", "lon": -76.98991233333334, "bike_id": "ff690dcef81225708d33f8426c1698c7", "fusion_lat": 0.0, "name": "ff690dcef81225708d33f8426c1698c7", "is_reserved": 0, "rental_uris": {"android": "https://dc.lft.to/lastmile_qr_scan", "ios": "https://dc.lft.to/lastmile_qr_scan"}, "fusion_lon": 0.0}, {"lat": 38.939920666666666, "is_disabled": 0, "type": "electric_scooter", "lon": -77.07178483333334, "bike_id": "58ae97696ce68739f661f36891e1c0fc", "fusion_lat": 0.0, "name": "58ae97696ce68739f661f36891e1c0fc", "is_reserved": 0, "rental_uris": {"android": "https://dc.lft.to/lastmile_qr_scan", "ios": "https://dc.lft.to/lastmile_qr_scan"}, "fusion_lon": 0.0}, {"lat": 38.89765666666667, "is_disabled": 0, "type": "electric_scooter", "lon": -77.03263383333334, "bike_id": "af7725cc9d5f4505053f85431de2d1c4", "fusion_lat": 0.0, "name": "af7725cc9d5f4505053f85431de2d1c4", "is_reserved": 0, "rental_uris": {"android": "https://dc.lft.to/lastmile_qr_scan", "ios": "https://dc.lft.to/lastmile_qr_scan"}, "fusion_lon": 0.0}, {"lat": 38.908666833333335, "is_disabled": 0, "type": "electric_scooter", "lon": -77.0318415, "bike_id": "6c77a392f9f41ff5bf1cd6104ed9673f", "fusion_lat": 0.0, "name": "6c77a392f9f41ff5bf1cd6104ed9673f", "is_reserved": 0, "rental_uris": {"android": "https://dc.lft.to/lastmile_qr_scan", "ios": "https://dc.lft.to/lastmile_qr_scan"}, "fusion_lon": 0.0}, {"lat": 38.91544416666667, "is_disabled": 0, "type": "electric_scooter", "lon": -77.03183966666667, "bike_id": "18848d9be3d03b3b25473ff3d6bf5b23", "fusion_lat": 0.0, "name": "18848d9be3d03b3b25473ff3d6bf5b23", "is_reserved": 0, "rental_uris": {"android": "https://dc.lft.to/lastmile_qr_scan", "ios": "https://dc.lft.to/lastmile_qr_scan"}, "fusion_lon": 0.0}, {"lat": 38.9298195, "is_disabled": 0, "type": "electric_scooter", "lon": -77.0383475, "bike_id": "18bc9dd6139b2db97c007a108cd2b271", "fusion_lat": 0.0, "name": "18bc9dd6139b2db97c007a108cd2b271", "is_reserved": 0, "rental_uris": {"android": "https://dc.lft.to/lastmile_qr_scan", "ios": "https://dc.lft.to/lastmile_qr_scan"}, "fusion_lon": 0.0}, {"lat": 38.882685333333335, "is_disabled": 0, "type": "electric_scooter", "lon": -76.98826066666666, "bike_id": "c46dd58c04d61fa58dc9f545a2091abd", "fusion_lat": 0.0, "name": "c46dd58c04d61fa58dc9f545a2091abd", "is_reserved": 0, "rental_uris": {"android": "https://dc.lft.to/lastmile_qr_scan", "ios": "https://dc.lft.to/lastmile_qr_scan"}, "fusion_lon": 0.0}, {"lat": 38.915358833333336, "is_disabled": 0, "type": "electric_scooter", "lon": -77.03201483333333, "bike_id": "d6a7a9ff70da8b0df210281e7a06238e", "fusion_lat": 0.0, "name": "d6a7a9ff70da8b0df210281e7a06238e", "is_reserved": 0, "rental_uris": {"android": "https://dc.lft.to/lastmile_qr_scan", "ios": "https://dc.lft.to/lastmile_qr_scan"}, "fusion_lon": 0.0}, {"lat": 38.88410983333333, "is_disabled": 0, "type": "electric_scooter", "lon": -77.02443716666667, "bike_id": "4639ff348db932adb6c8255e996c51f6", "fusion_lat": 0.0, "name": "4639ff348db932adb6c8255e996c51f6", "is_reserved": 0, "rental_uris": {"android": "https://dc.lft.to/lastmile_qr_scan", "ios": "https://dc.lft.to/lastmile_qr_scan"}, "fusion_lon": 0.0}, {"lat": 38.935979, "is_disabled": 0, "type": "electric_scooter", "lon": -77.0563345, "bike_id": "46aa5319e090c8b24917ec259a9be13e", "fusion_lat": 0.0, "name": "46aa5319e090c8b24917ec259a9be13e", "is_reserved": 0, "rental_uris": {"android": "https://dc.lft.to/lastmile_qr_scan", "ios": "https://dc.lft.to/lastmile_qr_scan"}, "fusion_lon": 0.0}, {"lat": 38.9050995, "is_disabled": 0, "type": "electric_scooter", "lon": -77.04495933333334, "bike_id": "a4ff8b7aef437bd8dad8ac651cad8714", "fusion_lat": 0.0, "name": "a4ff8b7aef437bd8dad8ac651cad8714", "is_reserved": 0, "rental_uris": {"android": "https://dc.lft.to/lastmile_qr_scan", "ios": "https://dc.lft.to/lastmile_qr_scan"}, "fusion_lon": 0.0}, {"lat": 38.90388633333333, "is_disabled": 0, "type": "electric_scooter", "lon": -77.04148783333333, "bike_id": "b89921447831c9faea296e64e58880b8", "fusion_lat": 0.0, "name": "b89921447831c9faea296e64e58880b8", "is_reserved": 0, "rental_uris": {"android": "https://dc.lft.to/lastmile_qr_scan", "ios": "https://dc.lft.to/lastmile_qr_scan"}, "fusion_lon": 0.0}, {"lat": 38.91731983333333, "is_disabled": 0, "type": "electric_scooter", "lon": -77.041802, "bike_id": "6968bc61fead630bd731501481746600", "fusion_lat": 0.0, "name": "6968bc61fead630bd731501481746600", "is_reserved": 0, "rental_uris": {"android": "https://dc.lft.to/lastmile_qr_scan", "ios": "https://dc.lft.to/lastmile_qr_scan"}, "fusion_lon": 0.0}, {"lat": 38.91705116666667, "is_disabled": 0, "type": "electric_scooter", "lon": -77.04024816666667, "bike_id": "bd8e635f9dc88887bea1ff6c5aaed499", "fusion_lat": 0.0, "name": "bd8e635f9dc88887bea1ff6c5aaed499", "is_reserved": 0, "rental_uris": {"android": "https://dc.lft.to/lastmile_qr_scan", "ios": "https://dc.lft.to/lastmile_qr_scan"}, "fusion_lon": 0.0}, {"lat": 38.90729116666667, "is_disabled": 0, "type": "electric_scooter", "lon": -77.02375766666667, "bike_id": "89339d903a96b50438208c04107ecd00", "fusion_lat": 0.0, "name": "89339d903a96b50438208c04107ecd00", "is_reserved": 0, "rental_uris": {"android": "https://dc.lft.to/lastmile_qr_scan", "ios": "https://dc.lft.to/lastmile_qr_scan"}, "fusion_lon": 0.0}, {"lat": 38.91897216666667, "is_disabled": 0, "type": "electric_scooter", "lon": -77.032094, "bike_id": "865ccbbefd8ca9890af9a49ed7f9912d", "fusion_lat": 0.0, "name": "865ccbbefd8ca9890af9a49ed7f9912d", "is_reserved": 0, "rental_uris": {"android": "https://dc.lft.to/lastmile_qr_scan", "ios": "https://dc.lft.to/lastmile_qr_scan"}, "fusion_lon": 0.0}, {"lat": 38.856418, "is_disabled": 0, "type": "electric_bike", "lon": -77.11256533333334, "bike_id": "97cfab5e019304b36e24a7bad2d6bbb0", "fusion_lat": 0.0, "name": "97cfab5e019304b36e24a7bad2d6bbb0", "is_reserved": 0, "rental_uris": {"android": "https://dc.lft.to/lastmile_qr_scan", "ios": "https://dc.lft.to/lastmile_qr_scan"}, "fusion_lon": 0.0}, {"lat": 38.894990666666665, "is_disabled": 0, "type": "electric_scooter", "lon": -77.002134, "bike_id": "607ccae95c7e51eb0d13c3a91fdbbf5c", "fusion_lat": 0.0, "name": "607ccae95c7e51eb0d13c3a91fdbbf5c", "is_reserved": 0, "rental_uris": {"android": "https://dc.lft.to/lastmile_qr_scan", "ios": "https://dc.lft.to/lastmile_qr_scan"}, "fusion_lon": 0.0}, {"lat": 38.911694833333335, "is_disabled": 0, "type": "electric_scooter", "lon": -77.0385775, "bike_id": "896d5b9f6fb2ed0eb3641492d9ccc339", "fusion_lat": 0.0, "name": "896d5b9f6fb2ed0eb3641492d9ccc339", "is_reserved": 0, "rental_uris": {"android": "https://dc.lft.to/lastmile_qr_scan", "ios": "https://dc.lft.to/lastmile_qr_scan"}, "fusion_lon": 0.0}, {"lat": 38.91061583333333, "is_disabled": 0, "type": "electric_scooter", "lon": -77.029211, "bike_id": "d0d90f105b57923d48782edcd1356494", "fusion_lat": 0.0, "name": "d0d90f105b57923d48782edcd1356494", "is_reserved": 0, "rental_uris": {"android": "https://dc.lft.to/lastmile_qr_scan", "ios": "https://dc.lft.to/lastmile_qr_scan"}, "fusion_lon": 0.0}, {"lat": 38.869136166666664, "is_disabled": 0, "type": "electric_scooter", "lon": -76.982988, "bike_id": "bf6645b11ff41f23d87232ebf77cde20", "fusion_lat": 0.0, "name": "bf6645b11ff41f23d87232ebf77cde20", "is_reserved": 0, "rental_uris": {"android": "https://dc.lft.to/lastmile_qr_scan", "ios": "https://dc.lft.to/lastmile_qr_scan"}, "fusion_lon": 0.0}, {"lat": 38.90846966666667, "is_disabled": 0, "type": "electric_scooter", "lon": -77.02711533333333, "bike_id": "d315848292cedd9c6642cf3b7a03180d", "fusion_lat": 0.0, "name": "d315848292cedd9c6642cf3b7a03180d", "is_reserved": 0, "rental_uris": {"android": "https://dc.lft.to/lastmile_qr_scan", "ios": "https://dc.lft.to/lastmile_qr_scan"}, "fusion_lon": 0.0}, {"lat": 38.91332716666667, "is_disabled": 0, "type": "electric_scooter", "lon": -77.03128916666667, "bike_id": "c99f85e0168c3f61d4286da7913bf6d2", "fusion_lat": 0.0, "name": "c99f85e0168c3f61d4286da7913bf6d2", "is_reserved": 0, "rental_uris": {"android": "https://dc.lft.to/lastmile_qr_scan", "ios": "https://dc.lft.to/lastmile_qr_scan"}, "fusion_lon": 0.0}, {"lat": 38.884207333333336, "is_disabled": 0, "type": "electric_scooter", "lon": -77.00030933333333, "bike_id": "7f2382025295a49a5bef8d18c2cd47d5", "fusion_lat": 0.0, "name": "7f2382025295a49a5bef8d18c2cd47d5", "is_reserved": 0, "rental_uris": {"android": "https://dc.lft.to/lastmile_qr_scan", "ios": "https://dc.lft.to/lastmile_qr_scan"}, "fusion_lon": 0.0}, {"lat": 38.98657466666667, "is_disabled": 0, "type": "electric_bike", "lon": -77.05637366666667, "bike_id": "99f53d5ad1d71f3c595cb8f06abe7d3a", "fusion_lat": 0.0, "name": "99f53d5ad1d71f3c595cb8f06abe7d3a", "is_reserved": 0, "rental_uris": {"android": "https://dc.lft.to/lastmile_qr_scan", "ios": "https://dc.lft.to/lastmile_qr_scan"}, "fusion_lon": 0.0}, {"lat": 38.84425866666667, "is_disabled": 0, "type": "electric_scooter", "lon": -76.99778666666667, "bike_id": "75df4824ec3288422eb62d3b290e6625", "fusion_lat": 0.0, "name": "75df4824ec3288422eb62d3b290e6625", "is_reserved": 0, "rental_uris": {"android": "https://dc.lft.to/lastmile_qr_scan", "ios": "https://dc.lft.to/lastmile_qr_scan"}, "fusion_lon": 0.0}, {"lat": 38.905892, "is_disabled": 0, "type": "electric_scooter", "lon": -77.06521183333334, "bike_id": "f3732f4135151f35f7eea6cfa3c412cb", "fusion_lat": 0.0, "name": "f3732f4135151f35f7eea6cfa3c412cb", "is_reserved": 0, "rental_uris": {"android": "https://dc.lft.to/lastmile_qr_scan", "ios": "https://dc.lft.to/lastmile_qr_scan"}, "fusion_lon": 0.0}, {"lat": 38.87805933333333, "is_disabled": 0, "type": "electric_bike", "lon": -76.960746, "bike_id": "14bdbe0760f0976074375c3d92f039b5", "fusion_lat": 0.0, "name": "14bdbe0760f0976074375c3d92f039b5", "is_reserved": 0, "rental_uris": {"android": "https://dc.lft.to/lastmile_qr_scan", "ios": "https://dc.lft.to/lastmile_qr_scan"}, "fusion_lon": 0.0}, {"lat": 38.927929, "is_disabled": 0, "type": "electric_scooter", "lon": -77.04354566666666, "bike_id": "d5daa2b6137ac26025e4cc754ecf615a", "fusion_lat": 0.0, "name": "d5daa2b6137ac26025e4cc754ecf615a", "is_reserved": 0, "rental_uris": {"android": "https://dc.lft.to/lastmile_qr_scan", "ios": "https://dc.lft.to/lastmile_qr_scan"}, "fusion_lon": 0.0}, {"lat": 38.906655, "is_disabled": 0, "type": "electric_scooter", "lon": -77.02947433333334, "bike_id": "cf3db0d7734ed002d7884fb1ded357e4", "fusion_lat": 0.0, "name": "cf3db0d7734ed002d7884fb1ded357e4", "is_reserved": 0, "rental_uris": {"android": "https://dc.lft.to/lastmile_qr_scan", "ios": "https://dc.lft.to/lastmile_qr_scan"}, "fusion_lon": 0.0}, {"lat": 38.90033916666667, "is_disabled": 0, "type": "electric_scooter", "lon": -76.99821883333334, "bike_id": "235774a6ae73bea02f6f0653a79780d5", "fusion_lat": 0.0, "name": "235774a6ae73bea02f6f0653a79780d5", "is_reserved": 0, "rental_uris": {"android": "https://dc.lft.to/lastmile_qr_scan", "ios": "https://dc.lft.to/lastmile_qr_scan"}, "fusion_lon": 0.0}, {"lat": 38.88458933333333, "is_disabled": 0, "type": "electric_scooter", "lon": -76.92622133333333, "bike_id": "ebe47c700317da625625394008586937", "fusion_lat": 0.0, "name": "ebe47c700317da625625394008586937", "is_reserved": 0, "rental_uris": {"android": "https://dc.lft.to/lastmile_qr_scan", "ios": "https://dc.lft.to/lastmile_qr_scan"}, "fusion_lon": 0.0}, {"lat": 38.90610783333333, "is_disabled": 0, "type": "electric_scooter", "lon": -77.06292833333333, "bike_id": "4bae3b85b7eb9d203f34f4cb94884aa0", "fusion_lat": 0.0, "name": "4bae3b85b7eb9d203f34f4cb94884aa0", "is_reserved": 0, "rental_uris": {"android": "https://dc.lft.to/lastmile_qr_scan", "ios": "https://dc.lft.to/lastmile_qr_scan"}, "fusion_lon": 0.0}, {"lat": 38.9375675, "is_disabled": 0, "type": "electric_scooter", "lon": -77.03142783333334, "bike_id": "d0c76b1c16b6a73310e1cdb98c64b659", "fusion_lat": 0.0, "name": "d0c76b1c16b6a73310e1cdb98c64b659", "is_reserved": 0, "rental_uris": {"android": "https://dc.lft.to/lastmile_qr_scan", "ios": "https://dc.lft.to/lastmile_qr_scan"}, "fusion_lon": 0.0}, {"lat": 38.938728833333336, "is_disabled": 0, "type": "electric_scooter", "lon": -77.02441666666667, "bike_id": "869a46d2e5b6060ed5bdfc5670f97124", "fusion_lat": 0.0, "name": "869a46d2e5b6060ed5bdfc5670f97124", "is_reserved": 0, "rental_uris": {"android": "https://dc.lft.to/lastmile_qr_scan", "ios": "https://dc.lft.to/lastmile_qr_scan"}, "fusion_lon": 0.0}, {"lat": 38.89733566666666, "is_disabled": 0, "type": "electric_scooter", "lon": -77.024621, "bike_id": "99c1a4b3f259bdd6c2c3abe3e7b0ee64", "fusion_lat": 0.0, "name": "99c1a4b3f259bdd6c2c3abe3e7b0ee64", "is_reserved": 0, "rental_uris": {"android": "https://dc.lft.to/lastmile_qr_scan", "ios": "https://dc.lft.to/lastmile_qr_scan"}, "fusion_lon": 0.0}, {"lat": 38.90882516666667, "is_disabled": 0, "type": "electric_scooter", "lon": -77.06438833333333, "bike_id": "bd3b9e1ba103cf04d3c21ca36903a3a4", "fusion_lat": 0.0, "name": "bd3b9e1ba103cf04d3c21ca36903a3a4", "is_reserved": 0, "rental_uris": {"android": "https://dc.lft.to/lastmile_qr_scan", "ios": "https://dc.lft.to/lastmile_qr_scan"}, "fusion_lon": 0.0}, {"lat": 38.906153833333335, "is_disabled": 0, "type": "electric_scooter", "lon": -77.0651875, "bike_id": "2852516fcb1903b1539c070fc4ff519c", "fusion_lat": 0.0, "name": "2852516fcb1903b1539c070fc4ff519c", "is_reserved": 0, "rental_uris": {"android": "https://dc.lft.to/lastmile_qr_scan", "ios": "https://dc.lft.to/lastmile_qr_scan"}, "fusion_lon": 0.0}, {"lat": 38.9248905, "is_disabled": 0, "type": "electric_scooter", "lon": -77.03943483333333, "bike_id": "54daf11e192f9b329710b9a9f2e64bf8", "fusion_lat": 0.0, "name": "54daf11e192f9b329710b9a9f2e64bf8", "is_reserved": 0, "rental_uris": {"android": "https://dc.lft.to/lastmile_qr_scan", "ios": "https://dc.lft.to/lastmile_qr_scan"}, "fusion_lon": 0.0}, {"lat": 38.90499883333333, "is_disabled": 0, "type": "electric_scooter", "lon": -77.05810833333334, "bike_id": "d52f43956e62e651a89d0947c17c419a", "fusion_lat": 0.0, "name": "d52f43956e62e651a89d0947c17c419a", "is_reserved": 0, "rental_uris": {"android": "https://dc.lft.to/lastmile_qr_scan", "ios": "https://dc.lft.to/lastmile_qr_scan"}, "fusion_lon": 0.0}, {"lat": 38.90254566666667, "is_disabled": 0, "type": "electric_scooter", "lon": -77.03967166666666, "bike_id": "6b33a96b12493f9043da43e6f1756788", "fusion_lat": 0.0, "name": "6b33a96b12493f9043da43e6f1756788", "is_reserved": 0, "rental_uris": {"android": "https://dc.lft.to/lastmile_qr_scan", "ios": "https://dc.lft.to/lastmile_qr_scan"}, "fusion_lon": 0.0}, {"lat": 38.92852416666667, "is_disabled": 0, "type": "electric_bike", "lon": -77.10679983333333, "bike_id": "b5ff05be1febfee0679753ab8ae73c9c", "fusion_lat": 0.0, "name": "b5ff05be1febfee0679753ab8ae73c9c", "is_reserved": 0, "rental_uris": {"android": "https://dc.lft.to/lastmile_qr_scan", "ios": "https://dc.lft.to/lastmile_qr_scan"}, "fusion_lon": 0.0}, {"lat": 38.91390233333333, "is_disabled": 0, "type": "electric_scooter", "lon": -77.03663066666667, "bike_id": "de8e0a6c62a70024971ad915fe2ec8e6", "fusion_lat": 0.0, "name": "de8e0a6c62a70024971ad915fe2ec8e6", "is_reserved": 0, "rental_uris": {"android": "https://dc.lft.to/lastmile_qr_scan", "ios": "https://dc.lft.to/lastmile_qr_scan"}, "fusion_lon": 0.0}, {"lat": 38.910163, "is_disabled": 0, "type": "electric_scooter", "lon": -77.038511, "bike_id": "2d28b3b4b1b933b8a8148715b358f0f9", "fusion_lat": 0.0, "name": "2d28b3b4b1b933b8a8148715b358f0f9", "is_reserved": 0, "rental_uris": {"android": "https://dc.lft.to/lastmile_qr_scan", "ios": "https://dc.lft.to/lastmile_qr_scan"}, "fusion_lon": 0.0}, {"lat": 38.93178616666667, "is_disabled": 0, "type": "electric_scooter", "lon": -77.03152566666667, "bike_id": "711fea5c764b780226ec8b6f219c5a59", "fusion_lat": 0.0, "name": "711fea5c764b780226ec8b6f219c5a59", "is_reserved": 0, "rental_uris": {"android": "https://dc.lft.to/lastmile_qr_scan", "ios": "https://dc.lft.to/lastmile_qr_scan"}, "fusion_lon": 0.0}, {"lat": 38.80747266666667, "is_disabled": 0, "type": "electric_bike", "lon": -77.09429016666667, "bike_id": "2d8af85739856a4ddf8f38fa015e38e1", "fusion_lat": 0.0, "name": "2d8af85739856a4ddf8f38fa015e38e1", "is_reserved": 0, "rental_uris": {"android": "https://dc.lft.to/lastmile_qr_scan", "ios": "https://dc.lft.to/lastmile_qr_scan"}, "fusion_lon": 0.0}, {"lat": 38.920541, "is_disabled": 0, "type": "electric_scooter", "lon": -77.03286133333333, "bike_id": "370e3d64c11795dd08bfbf7eb6a9fb32", "fusion_lat": 0.0, "name": "370e3d64c11795dd08bfbf7eb6a9fb32", "is_reserved": 0, "rental_uris": {"android": "https://dc.lft.to/lastmile_qr_scan", "ios": "https://dc.lft.to/lastmile_qr_scan"}, "fusion_lon": 0.0}, {"lat": 38.94202416666667, "is_disabled": 0, "type": "electric_scooter", "lon": -77.01834216666667, "bike_id": "77489febe576f851868087d0f950e3cd", "fusion_lat": 0.0, "name": "77489febe576f851868087d0f950e3cd", "is_reserved": 0, "rental_uris": {"android": "https://dc.lft.to/lastmile_qr_scan", "ios": "https://dc.lft.to/lastmile_qr_scan"}, "fusion_lon": 0.0}, {"lat": 38.8874425, "is_disabled": 0, "type": "electric_scooter", "lon": -77.01490616666666, "bike_id": "b34c86a24ebd3557caf492b93ddaaa9c", "fusion_lat": 0.0, "name": "b34c86a24ebd3557caf492b93ddaaa9c", "is_reserved": 0, "rental_uris": {"android": "https://dc.lft.to/lastmile_qr_scan", "ios": "https://dc.lft.to/lastmile_qr_scan"}, "fusion_lon": 0.0}, {"lat": 38.88925066666667, "is_disabled": 0, "type": "electric_scooter", "lon": -76.97375983333333, "bike_id": "7c84afac549b511923bbd476a74c8173", "fusion_lat": 0.0, "name": "7c84afac549b511923bbd476a74c8173", "is_reserved": 0, "rental_uris": {"android": "https://dc.lft.to/lastmile_qr_scan", "ios": "https://dc.lft.to/lastmile_qr_scan"}, "fusion_lon": 0.0}, {"lat": 38.917805666666666, "is_disabled": 0, "type": "electric_scooter", "lon": -77.02260883333334, "bike_id": "a2a4b7640a6fb34872966d255f31c70e", "fusion_lat": 0.0, "name": "a2a4b7640a6fb34872966d255f31c70e", "is_reserved": 0, "rental_uris": {"android": "https://dc.lft.to/lastmile_qr_scan", "ios": "https://dc.lft.to/lastmile_qr_scan"}, "fusion_lon": 0.0}, {"lat": 38.906291, "is_disabled": 0, "type": "electric_scooter", "lon": -77.0627865, "bike_id": "d8e63f011090290d8e6169fd3e3c9717", "fusion_lat": 0.0, "name": "d8e63f011090290d8e6169fd3e3c9717", "is_reserved": 0, "rental_uris": {"android": "https://dc.lft.to/lastmile_qr_scan", "ios": "https://dc.lft.to/lastmile_qr_scan"}, "fusion_lon": 0.0}, {"lat": 38.91055216666667, "is_disabled": 0, "type": "electric_scooter", "lon": -77.04236033333333, "bike_id": "289a53a65db065aab7bce79ae9ede066", "fusion_lat": 0.0, "name": "289a53a65db065aab7bce79ae9ede066", "is_reserved": 0, "rental_uris": {"android": "https://dc.lft.to/lastmile_qr_scan", "ios": "https://dc.lft.to/lastmile_qr_scan"}, "fusion_lon": 0.0}, {"lat": 38.861608, "is_disabled": 0, "type": "electric_bike", "lon": -77.130947, "bike_id": "f5f8bb4bde82852c7d1e00bd011d48b5", "fusion_lat": 0.0, "name": "f5f8bb4bde82852c7d1e00bd011d48b5", "is_reserved": 0, "rental_uris": {"android": "https://dc.lft.to/lastmile_qr_scan", "ios": "https://dc.lft.to/lastmile_qr_scan"}, "fusion_lon": 0.0}, {"lat": 38.96703616666667, "is_disabled": 0, "type": "electric_bike", "lon": -77.10224666666667, "bike_id": "088500dca7b736340cc42819680a2493", "fusion_lat": 0.0, "name": "088500dca7b736340cc42819680a2493", "is_reserved": 0, "rental_uris": {"android": "https://dc.lft.to/lastmile_qr_scan", "ios": "https://dc.lft.to/lastmile_qr_scan"}, "fusion_lon": 0.0}, {"lat": 38.914154333333336, "is_disabled": 0, "type": "electric_scooter", "lon": -77.02233383333333, "bike_id": "49ce6ff3c655cf735e3ced5aefca8668", "fusion_lat": 0.0, "name": "49ce6ff3c655cf735e3ced5aefca8668", "is_reserved": 0, "rental_uris": {"android": "https://dc.lft.to/lastmile_qr_scan", "ios": "https://dc.lft.to/lastmile_qr_scan"}, "fusion_lon": 0.0}, {"lat": 38.90264033333333, "is_disabled": 0, "type": "electric_scooter", "lon": -77.01766433333333, "bike_id": "957dbb1bc537b13d28c31e09ec06533d", "fusion_lat": 0.0, "name": "957dbb1bc537b13d28c31e09ec06533d", "is_reserved": 0, "rental_uris": {"android": "https://dc.lft.to/lastmile_qr_scan", "ios": "https://dc.lft.to/lastmile_qr_scan"}, "fusion_lon": 0.0}, {"lat": 38.9087435, "is_disabled": 0, "type": "electric_scooter", "lon": -77.04326133333333, "bike_id": "4a5c447efd389ca085425369208dcca3", "fusion_lat": 0.0, "name": "4a5c447efd389ca085425369208dcca3", "is_reserved": 0, "rental_uris": {"android": "https://dc.lft.to/lastmile_qr_scan", "ios": "https://dc.lft.to/lastmile_qr_scan"}, "fusion_lon": 0.0}, {"lat": 38.91049566666667, "is_disabled": 0, "type": "electric_scooter", "lon": -77.02684, "bike_id": "ed3b9fb7b169df3040534e69a6784e02", "fusion_lat": 0.0, "name": "ed3b9fb7b169df3040534e69a6784e02", "is_reserved": 0, "rental_uris": {"android": "https://dc.lft.to/lastmile_qr_scan", "ios": "https://dc.lft.to/lastmile_qr_scan"}, "fusion_lon": 0.0}, {"lat": 38.890502833333336, "is_disabled": 0, "type": "electric_scooter", "lon": -76.93759666666666, "bike_id": "6d34e4182534de2d9dcbf6f22bfab327", "fusion_lat": 0.0, "name": "6d34e4182534de2d9dcbf6f22bfab327", "is_reserved": 0, "rental_uris": {"android": "https://dc.lft.to/lastmile_qr_scan", "ios": "https://dc.lft.to/lastmile_qr_scan"}, "fusion_lon": 0.0}, {"lat": 38.838147, "is_disabled": 0, "type": "electric_bike", "lon": -77.09522666666666, "bike_id": "9917d4341413a0ae921b45b4b2697669", "fusion_lat": 0.0, "name": "9917d4341413a0ae921b45b4b2697669", "is_reserved": 0, "rental_uris": {"android": "https://dc.lft.to/lastmile_qr_scan", "ios": "https://dc.lft.to/lastmile_qr_scan"}, "fusion_lon": 0.0}, {"lat": 38.876308333333334, "is_disabled": 0, "type": "electric_scooter", "lon": -76.96526333333334, "bike_id": "281a45b0eac1a4781fce828f0f31e211", "fusion_lat": 0.0, "name": "281a45b0eac1a4781fce828f0f31e211", "is_reserved": 0, "rental_uris": {"android": "https://dc.lft.to/lastmile_qr_scan", "ios": "https://dc.lft.to/lastmile_qr_scan"}, "fusion_lon": 0.0}, {"lat": 38.932325166666665, "is_disabled": 0, "type": "electric_scooter", "lon": -77.03093516666667, "bike_id": "16d86cfe3f5b53115b12577ca10c49ce", "fusion_lat": 0.0, "name": "16d86cfe3f5b53115b12577ca10c49ce", "is_reserved": 0, "rental_uris": {"android": "https://dc.lft.to/lastmile_qr_scan", "ios": "https://dc.lft.to/lastmile_qr_scan"}, "fusion_lon": 0.0}, {"lat": 38.902780166666666, "is_disabled": 0, "type": "electric_scooter", "lon": -77.03443333333334, "bike_id": "1c613df83391cc78869dced04205bdd9", "fusion_lat": 0.0, "name": "1c613df83391cc78869dced04205bdd9", "is_reserved": 0, "rental_uris": {"android": "https://dc.lft.to/lastmile_qr_scan", "ios": "https://dc.lft.to/lastmile_qr_scan"}, "fusion_lon": 0.0}, {"lat": 38.91695383333333, "is_disabled": 0, "type": "electric_scooter", "lon": -77.02460733333334, "bike_id": "28289607768290d42ef873b006ad88cf", "fusion_lat": 0.0, "name": "28289607768290d42ef873b006ad88cf", "is_reserved": 0, "rental_uris": {"android": "https://dc.lft.to/lastmile_qr_scan", "ios": "https://dc.lft.to/lastmile_qr_scan"}, "fusion_lon": 0.0}, {"lat": 38.859233, "is_disabled": 0, "type": "electric_scooter", "lon": -76.99716366666667, "bike_id": "9ef4d7d77725dd226e08947449e78405", "fusion_lat": 0.0, "name": "9ef4d7d77725dd226e08947449e78405", "is_reserved": 0, "rental_uris": {"android": "https://dc.lft.to/lastmile_qr_scan", "ios": "https://dc.lft.to/lastmile_qr_scan"}, "fusion_lon": 0.0}, {"lat": 38.89707083333333, "is_disabled": 0, "type": "electric_scooter", "lon": -77.00351666666667, "bike_id": "adcab49e401f1a3d82c4257d8167164c", "fusion_lat": 0.0, "name": "adcab49e401f1a3d82c4257d8167164c", "is_reserved": 0, "rental_uris": {"android": "https://dc.lft.to/lastmile_qr_scan", "ios": "https://dc.lft.to/lastmile_qr_scan"}, "fusion_lon": 0.0}, {"lat": 38.91657583333333, "is_disabled": 0, "type": "electric_scooter", "lon": -77.01918066666667, "bike_id": "6b453b518517046323d6ccb9fdece686", "fusion_lat": 0.0, "name": "6b453b518517046323d6ccb9fdece686", "is_reserved": 0, "rental_uris": {"android": "https://dc.lft.to/lastmile_qr_scan", "ios": "https://dc.lft.to/lastmile_qr_scan"}, "fusion_lon": 0.0}, {"lat": 38.92408066666667, "is_disabled": 0, "type": "electric_scooter", "lon": -77.0274415, "bike_id": "3a112a9c0511c9de103ec1c6077ad246", "fusion_lat": 0.0, "name": "3a112a9c0511c9de103ec1c6077ad246", "is_reserved": 0, "rental_uris": {"android": "https://dc.lft.to/lastmile_qr_scan", "ios": "https://dc.lft.to/lastmile_qr_scan"}, "fusion_lon": 0.0}, {"lat": 38.95404883333333, "is_disabled": 0, "type": "electric_scooter", "lon": -77.0275185, "bike_id": "6e612a276489b0f72ee779b18dba8546", "fusion_lat": 0.0, "name": "6e612a276489b0f72ee779b18dba8546", "is_reserved": 0, "rental_uris": {"android": "https://dc.lft.to/lastmile_qr_scan", "ios": "https://dc.lft.to/lastmile_qr_scan"}, "fusion_lon": 0.0}, {"lat": 38.9039075, "is_disabled": 0, "type": "electric_scooter", "lon": -77.04286716666667, "bike_id": "c627210676d1e5e6e183c38646f2871d", "fusion_lat": 0.0, "name": "c627210676d1e5e6e183c38646f2871d", "is_reserved": 0, "rental_uris": {"android": "https://dc.lft.to/lastmile_qr_scan", "ios": "https://dc.lft.to/lastmile_qr_scan"}, "fusion_lon": 0.0}, {"lat": 38.90299683333333, "is_disabled": 0, "type": "electric_scooter", "lon": -77.04043466666667, "bike_id": "981c1efc4d0351401b59a775f776be04", "fusion_lat": 0.0, "name": "981c1efc4d0351401b59a775f776be04", "is_reserved": 0, "rental_uris": {"android": "https://dc.lft.to/lastmile_qr_scan", "ios": "https://dc.lft.to/lastmile_qr_scan"}, "fusion_lon": 0.0}, {"lat": 38.902628166666666, "is_disabled": 0, "type": "electric_scooter", "lon": -77.017693, "bike_id": "dedc0af0ef7262f4f41c6196cc4426d3", "fusion_lat": 0.0, "name": "dedc0af0ef7262f4f41c6196cc4426d3", "is_reserved": 0, "rental_uris": {"android": "https://dc.lft.to/lastmile_qr_scan", "ios": "https://dc.lft.to/lastmile_qr_scan"}, "fusion_lon": 0.0}, {"lat": 38.865161666666665, "is_disabled": 0, "type": "electric_scooter", "lon": -76.990381, "bike_id": "8390d0d984d2cfe51e8d63f83200d68d", "fusion_lat": 0.0, "name": "8390d0d984d2cfe51e8d63f83200d68d", "is_reserved": 0, "rental_uris": {"android": "https://dc.lft.to/lastmile_qr_scan", "ios": "https://dc.lft.to/lastmile_qr_scan"}, "fusion_lon": 0.0}, {"lat": 38.839309166666666, "is_disabled": 0, "type": "electric_bike", "lon": -77.07904733333334, "bike_id": "e48fddd4ac6cacc7b6ccc3856acb2b4d", "fusion_lat": 0.0, "name": "e48fddd4ac6cacc7b6ccc3856acb2b4d", "is_reserved": 0, "rental_uris": {"android": "https://dc.lft.to/lastmile_qr_scan", "ios": "https://dc.lft.to/lastmile_qr_scan"}, "fusion_lon": 0.0}, {"lat": 38.931980833333334, "is_disabled": 0, "type": "electric_scooter", "lon": -77.0385675, "bike_id": "dc0ae9ee7f454c7f643601ed718ab4aa", "fusion_lat": 0.0, "name": "dc0ae9ee7f454c7f643601ed718ab4aa", "is_reserved": 0, "rental_uris": {"android": "https://dc.lft.to/lastmile_qr_scan", "ios": "https://dc.lft.to/lastmile_qr_scan"}, "fusion_lon": 0.0}, {"lat": 38.89832083333334, "is_disabled": 0, "type": "electric_scooter", "lon": -77.02526883333333, "bike_id": "a8137c5dbad3f00dfa1e51335ba8abee", "fusion_lat": 0.0, "name": "a8137c5dbad3f00dfa1e51335ba8abee", "is_reserved": 0, "rental_uris": {"android": "https://dc.lft.to/lastmile_qr_scan", "ios": "https://dc.lft.to/lastmile_qr_scan"}, "fusion_lon": 0.0}, {"lat": 38.92227316666666, "is_disabled": 0, "type": "electric_scooter", "lon": -77.03881333333334, "bike_id": "e770855cc32a860d9db072fc27ef570b", "fusion_lat": 0.0, "name": "e770855cc32a860d9db072fc27ef570b", "is_reserved": 0, "rental_uris": {"android": "https://dc.lft.to/lastmile_qr_scan", "ios": "https://dc.lft.to/lastmile_qr_scan"}, "fusion_lon": 0.0}, {"lat": 38.905111166666664, "is_disabled": 0, "type": "electric_scooter", "lon": -77.00211183333333, "bike_id": "b6a83e91f993cf5fafcf85d6e720d417", "fusion_lat": 0.0, "name": "b6a83e91f993cf5fafcf85d6e720d417", "is_reserved": 0, "rental_uris": {"android": "https://dc.lft.to/lastmile_qr_scan", "ios": "https://dc.lft.to/lastmile_qr_scan"}, "fusion_lon": 0.0}, {"lat": 38.903962, "is_disabled": 0, "type": "electric_scooter", "lon": -77.04477633333333, "bike_id": "18207ff8abc23b3dd427a63803087484", "fusion_lat": 0.0, "name": "18207ff8abc23b3dd427a63803087484", "is_reserved": 0, "rental_uris": {"android": "https://dc.lft.to/lastmile_qr_scan", "ios": "https://dc.lft.to/lastmile_qr_scan"}, "fusion_lon": 0.0}, {"lat": 38.90461333333333, "is_disabled": 0, "type": "electric_scooter", "lon": -77.01459066666666, "bike_id": "8da946623222c62042268c7ee32fa739", "fusion_lat": 0.0, "name": "8da946623222c62042268c7ee32fa739", "is_reserved": 0, "rental_uris": {"android": "https://dc.lft.to/lastmile_qr_scan", "ios": "https://dc.lft.to/lastmile_qr_scan"}, "fusion_lon": 0.0}, {"lat": 38.909923666666664, "is_disabled": 0, "type": "electric_scooter", "lon": -77.03381516666667, "bike_id": "a0660006aa9fbdb26017fa649a899cbe", "fusion_lat": 0.0, "name": "a0660006aa9fbdb26017fa649a899cbe", "is_reserved": 0, "rental_uris": {"android": "https://dc.lft.to/lastmile_qr_scan", "ios": "https://dc.lft.to/lastmile_qr_scan"}, "fusion_lon": 0.0}, {"lat": 38.925002, "is_disabled": 0, "type": "electric_scooter", "lon": -77.00894783333334, "bike_id": "82d1ad12c06aae82e48c0a0a9c2c39a4", "fusion_lat": 0.0, "name": "82d1ad12c06aae82e48c0a0a9c2c39a4", "is_reserved": 0, "rental_uris": {"android": "https://dc.lft.to/lastmile_qr_scan", "ios": "https://dc.lft.to/lastmile_qr_scan"}, "fusion_lon": 0.0}, {"lat": 38.89376516666667, "is_disabled": 0, "type": "electric_scooter", "lon": -76.94995583333333, "bike_id": "1f52cfe18e99d77f80ee24b0cc2fd235", "fusion_lat": 0.0, "name": "1f52cfe18e99d77f80ee24b0cc2fd235", "is_reserved": 0, "rental_uris": {"android": "https://dc.lft.to/lastmile_qr_scan", "ios": "https://dc.lft.to/lastmile_qr_scan"}, "fusion_lon": 0.0}, {"lat": 38.88089983333333, "is_disabled": 0, "type": "electric_scooter", "lon": -76.92724466666667, "bike_id": "1f4695cc27edfd987712720d92ef345c", "fusion_lat": 0.0, "name": "1f4695cc27edfd987712720d92ef345c", "is_reserved": 0, "rental_uris": {"android": "https://dc.lft.to/lastmile_qr_scan", "ios": "https://dc.lft.to/lastmile_qr_scan"}, "fusion_lon": 0.0}, {"lat": 38.92467, "is_disabled": 0, "type": "electric_scooter", "lon": -77.03964966666666, "bike_id": "53def0a304d85503fcdd77e4385d449e", "fusion_lat": 0.0, "name": "53def0a304d85503fcdd77e4385d449e", "is_reserved": 0, "rental_uris": {"android": "https://dc.lft.to/lastmile_qr_scan", "ios": "https://dc.lft.to/lastmile_qr_scan"}, "fusion_lon": 0.0}, {"lat": 38.93664716666667, "is_disabled": 0, "type": "electric_scooter", "lon": -77.0362945, "bike_id": "932b56d4a3816bf88e457b4811ddb53c", "fusion_lat": 0.0, "name": "932b56d4a3816bf88e457b4811ddb53c", "is_reserved": 0, "rental_uris": {"android": "https://dc.lft.to/lastmile_qr_scan", "ios": "https://dc.lft.to/lastmile_qr_scan"}, "fusion_lon": 0.0}, {"lat": 38.88438583333333, "is_disabled": 0, "type": "electric_scooter", "lon": -77.03036, "bike_id": "5d60a2e877758a072b1c1f77e7952b5d", "fusion_lat": 0.0, "name": "5d60a2e877758a072b1c1f77e7952b5d", "is_reserved": 0, "rental_uris": {"android": "https://dc.lft.to/lastmile_qr_scan", "ios": "https://dc.lft.to/lastmile_qr_scan"}, "fusion_lon": 0.0}, {"lat": 38.903037833333336, "is_disabled": 0, "type": "electric_scooter", "lon": -77.02069, "bike_id": "4b281854a991358b093140f401384264", "fusion_lat": 0.0, "name": "4b281854a991358b093140f401384264", "is_reserved": 0, "rental_uris": {"android": "https://dc.lft.to/lastmile_qr_scan", "ios": "https://dc.lft.to/lastmile_qr_scan"}, "fusion_lon": 0.0}, {"lat": 38.9120975, "is_disabled": 0, "type": "electric_scooter", "lon": -77.041451, "bike_id": "f8e8b0b12e550eb184b3baddc8c322ca", "fusion_lat": 0.0, "name": "f8e8b0b12e550eb184b3baddc8c322ca", "is_reserved": 0, "rental_uris": {"android": "https://dc.lft.to/lastmile_qr_scan", "ios": "https://dc.lft.to/lastmile_qr_scan"}, "fusion_lon": 0.0}, {"lat": 38.925793166666665, "is_disabled": 0, "type": "electric_scooter", "lon": -77.05756783333334, "bike_id": "a46903b2b03c1583df7cd503d5613114", "fusion_lat": 0.0, "name": "a46903b2b03c1583df7cd503d5613114", "is_reserved": 0, "rental_uris": {"android": "https://dc.lft.to/lastmile_qr_scan", "ios": "https://dc.lft.to/lastmile_qr_scan"}, "fusion_lon": 0.0}, {"lat": 38.92906683333333, "is_disabled": 0, "type": "electric_scooter", "lon": -77.07453133333334, "bike_id": "c2f95bbedaec8b5afef184fd550071b6", "fusion_lat": 0.0, "name": "c2f95bbedaec8b5afef184fd550071b6", "is_reserved": 0, "rental_uris": {"android": "https://dc.lft.to/lastmile_qr_scan", "ios": "https://dc.lft.to/lastmile_qr_scan"}, "fusion_lon": 0.0}, {"lat": 38.89250116666667, "is_disabled": 0, "type": "electric_scooter", "lon": -77.02204133333333, "bike_id": "add7cafbc6c9e4c6c301e7f1c49dc18b", "fusion_lat": 0.0, "name": "add7cafbc6c9e4c6c301e7f1c49dc18b", "is_reserved": 0, "rental_uris": {"android": "https://dc.lft.to/lastmile_qr_scan", "ios": "https://dc.lft.to/lastmile_qr_scan"}, "fusion_lon": 0.0}, {"lat": 38.905703333333335, "is_disabled": 0, "type": "electric_scooter", "lon": -77.04694716666667, "bike_id": "45786858b88173dfee0836a6eb951856", "fusion_lat": 0.0, "name": "45786858b88173dfee0836a6eb951856", "is_reserved": 0, "rental_uris": {"android": "https://dc.lft.to/lastmile_qr_scan", "ios": "https://dc.lft.to/lastmile_qr_scan"}, "fusion_lon": 0.0}, {"lat": 38.88016316666667, "is_disabled": 0, "type": "electric_scooter", "lon": -77.00561633333334, "bike_id": "4b0b5ee58f6b503496571fabe4ac21f7", "fusion_lat": 0.0, "name": "4b0b5ee58f6b503496571fabe4ac21f7", "is_reserved": 0, "rental_uris": {"android": "https://dc.lft.to/lastmile_qr_scan", "ios": "https://dc.lft.to/lastmile_qr_scan"}, "fusion_lon": 0.0}, {"lat": 38.84592383333333, "is_disabled": 0, "type": "electric_bike", "lon": -77.07681533333333, "bike_id": "ed159f9bf8248b18669ff7ab4945d9c2", "fusion_lat": 0.0, "name": "ed159f9bf8248b18669ff7ab4945d9c2", "is_reserved": 0, "rental_uris": {"android": "https://dc.lft.to/lastmile_qr_scan", "ios": "https://dc.lft.to/lastmile_qr_scan"}, "fusion_lon": 0.0}, {"lat": 38.876667833333336, "is_disabled": 0, "type": "electric_scooter", "lon": -77.00415316666667, "bike_id": "a5c5cb04d421dd732b4f93596b8f4973", "fusion_lat": 0.0, "name": "a5c5cb04d421dd732b4f93596b8f4973", "is_reserved": 0, "rental_uris": {"android": "https://dc.lft.to/lastmile_qr_scan", "ios": "https://dc.lft.to/lastmile_qr_scan"}, "fusion_lon": 0.0}, {"lat": 38.86616716666666, "is_disabled": 0, "type": "electric_scooter", "lon": -76.98668383333333, "bike_id": "e2a21b695dd8c49d942562e13c0ed5fd", "fusion_lat": 0.0, "name": "e2a21b695dd8c49d942562e13c0ed5fd", "is_reserved": 0, "rental_uris": {"android": "https://dc.lft.to/lastmile_qr_scan", "ios": "https://dc.lft.to/lastmile_qr_scan"}, "fusion_lon": 0.0}, {"lat": 38.9095795, "is_disabled": 0, "type": "electric_scooter", "lon": -77.048218, "bike_id": "8b40f2d86be7f51a2f54815143c2a934", "fusion_lat": 0.0, "name": "8b40f2d86be7f51a2f54815143c2a934", "is_reserved": 0, "rental_uris": {"android": "https://dc.lft.to/lastmile_qr_scan", "ios": "https://dc.lft.to/lastmile_qr_scan"}, "fusion_lon": 0.0}, {"lat": 38.94043333333333, "is_disabled": 0, "type": "electric_scooter", "lon": -77.02905066666666, "bike_id": "42fd96a82a6a05293b045b74dbfafff8", "fusion_lat": 0.0, "name": "42fd96a82a6a05293b045b74dbfafff8", "is_reserved": 0, "rental_uris": {"android": "https://dc.lft.to/lastmile_qr_scan", "ios": "https://dc.lft.to/lastmile_qr_scan"}, "fusion_lon": 0.0}, {"lat": 38.90633416666667, "is_disabled": 0, "type": "electric_scooter", "lon": -77.01371116666667, "bike_id": "c32a105d46856a9b1ceecebfe594c026", "fusion_lat": 0.0, "name": "c32a105d46856a9b1ceecebfe594c026", "is_reserved": 0, "rental_uris": {"android": "https://dc.lft.to/lastmile_qr_scan", "ios": "https://dc.lft.to/lastmile_qr_scan"}, "fusion_lon": 0.0}, {"lat": 38.842739333333334, "is_disabled": 0, "type": "electric_bike", "lon": -76.98843716666667, "bike_id": "52e0069f03b790052f3ea8c6a53e8fd5", "fusion_lat": 0.0, "name": "52e0069f03b790052f3ea8c6a53e8fd5", "is_reserved": 0, "rental_uris": {"android": "https://dc.lft.to/lastmile_qr_scan", "ios": "https://dc.lft.to/lastmile_qr_scan"}, "fusion_lon": 0.0}, {"lat": 38.9168235, "is_disabled": 0, "type": "electric_scooter", "lon": -77.02288416666667, "bike_id": "74b01e83cd40caeaa08b925e0b156036", "fusion_lat": 0.0, "name": "74b01e83cd40caeaa08b925e0b156036", "is_reserved": 0, "rental_uris": {"android": "https://dc.lft.to/lastmile_qr_scan", "ios": "https://dc.lft.to/lastmile_qr_scan"}, "fusion_lon": 0.0}, {"lat": 38.9057125, "is_disabled": 0, "type": "electric_scooter", "lon": -77.00603833333334, "bike_id": "c19f323e65a3de9756146bd961c8d277", "fusion_lat": 0.0, "name": "c19f323e65a3de9756146bd961c8d277", "is_reserved": 0, "rental_uris": {"android": "https://dc.lft.to/lastmile_qr_scan", "ios": "https://dc.lft.to/lastmile_qr_scan"}, "fusion_lon": 0.0}, {"lat": 38.904232666666665, "is_disabled": 0, "type": "electric_scooter", "lon": -77.0533465, "bike_id": "1c198e8745ccc1f8458438bd498531e0", "fusion_lat": 0.0, "name": "1c198e8745ccc1f8458438bd498531e0", "is_reserved": 0, "rental_uris": {"android": "https://dc.lft.to/lastmile_qr_scan", "ios": "https://dc.lft.to/lastmile_qr_scan"}, "fusion_lon": 0.0}, {"lat": 38.92464066666667, "is_disabled": 0, "type": "electric_scooter", "lon": -77.0523445, "bike_id": "02948d170863c016a3bf40dc5f67adcf", "fusion_lat": 0.0, "name": "02948d170863c016a3bf40dc5f67adcf", "is_reserved": 0, "rental_uris": {"android": "https://dc.lft.to/lastmile_qr_scan", "ios": "https://dc.lft.to/lastmile_qr_scan"}, "fusion_lon": 0.0}, {"lat": 38.90740483333333, "is_disabled": 0, "type": "electric_scooter", "lon": -77.00342516666667, "bike_id": "398561caf4bcb5e8cdc133ea6c2a7892", "fusion_lat": 0.0, "name": "398561caf4bcb5e8cdc133ea6c2a7892", "is_reserved": 0, "rental_uris": {"android": "https://dc.lft.to/lastmile_qr_scan", "ios": "https://dc.lft.to/lastmile_qr_scan"}, "fusion_lon": 0.0}, {"lat": 38.89975733333333, "is_disabled": 0, "type": "electric_scooter", "lon": -77.05097233333333, "bike_id": "c91bd0e2ee153010681310f3e057ce61", "fusion_lat": 0.0, "name": "c91bd0e2ee153010681310f3e057ce61", "is_reserved": 0, "rental_uris": {"android": "https://dc.lft.to/lastmile_qr_scan", "ios": "https://dc.lft.to/lastmile_qr_scan"}, "fusion_lon": 0.0}, {"lat": 38.900387333333335, "is_disabled": 0, "type": "electric_scooter", "lon": -76.98833766666667, "bike_id": "2c341dab105d21b373bbe668e6942658", "fusion_lat": 0.0, "name": "2c341dab105d21b373bbe668e6942658", "is_reserved": 0, "rental_uris": {"android": "https://dc.lft.to/lastmile_qr_scan", "ios": "https://dc.lft.to/lastmile_qr_scan"}, "fusion_lon": 0.0}, {"lat": 38.957045666666666, "is_disabled": 0, "type": "electric_scooter", "lon": -77.07088683333333, "bike_id": "400affd46f68394ad66c78e581a99ad3", "fusion_lat": 0.0, "name": "400affd46f68394ad66c78e581a99ad3", "is_reserved": 0, "rental_uris": {"android": "https://dc.lft.to/lastmile_qr_scan", "ios": "https://dc.lft.to/lastmile_qr_scan"}, "fusion_lon": 0.0}, {"lat": 38.885174166666665, "is_disabled": 0, "type": "electric_scooter", "lon": -77.00275016666667, "bike_id": "718b6e4f3857df22c17ebe93c2be091e", "fusion_lat": 0.0, "name": "718b6e4f3857df22c17ebe93c2be091e", "is_reserved": 0, "rental_uris": {"android": "https://dc.lft.to/lastmile_qr_scan", "ios": "https://dc.lft.to/lastmile_qr_scan"}, "fusion_lon": 0.0}, {"lat": 38.86628666666667, "is_disabled": 0, "type": "electric_scooter", "lon": -76.9871525, "bike_id": "81a2d3437ad2b111eee7b3fde508febe", "fusion_lat": 0.0, "name": "81a2d3437ad2b111eee7b3fde508febe", "is_reserved": 0, "rental_uris": {"android": "https://dc.lft.to/lastmile_qr_scan", "ios": "https://dc.lft.to/lastmile_qr_scan"}, "fusion_lon": 0.0}, {"lat": 38.901589333333334, "is_disabled": 0, "type": "electric_scooter", "lon": -76.98637383333333, "bike_id": "659007418cf77488dfd1ec9730ce99ed", "fusion_lat": 0.0, "name": "659007418cf77488dfd1ec9730ce99ed", "is_reserved": 0, "rental_uris": {"android": "https://dc.lft.to/lastmile_qr_scan", "ios": "https://dc.lft.to/lastmile_qr_scan"}, "fusion_lon": 0.0}, {"lat": 38.8923245, "is_disabled": 0, "type": "electric_scooter", "lon": -77.028009, "bike_id": "4c993207da6736c2a6a64cd99bbda65e", "fusion_lat": 0.0, "name": "4c993207da6736c2a6a64cd99bbda65e", "is_reserved": 0, "rental_uris": {"android": "https://dc.lft.to/lastmile_qr_scan", "ios": "https://dc.lft.to/lastmile_qr_scan"}, "fusion_lon": 0.0}, {"lat": 38.89779, "is_disabled": 0, "type": "electric_bike", "lon": -76.90438716666667, "bike_id": "dbf0e936dbe98d87e228b94db747dc0b", "fusion_lat": 0.0, "name": "dbf0e936dbe98d87e228b94db747dc0b", "is_reserved": 0, "rental_uris": {"android": "https://dc.lft.to/lastmile_qr_scan", "ios": "https://dc.lft.to/lastmile_qr_scan"}, "fusion_lon": 0.0}, {"lat": 38.886149333333336, "is_disabled": 0, "type": "electric_scooter", "lon": -77.02172816666666, "bike_id": "f59b2cbf372fa28bd25d9aa6ad47fe2c", "fusion_lat": 0.0, "name": "f59b2cbf372fa28bd25d9aa6ad47fe2c", "is_reserved": 0, "rental_uris": {"android": "https://dc.lft.to/lastmile_qr_scan", "ios": "https://dc.lft.to/lastmile_qr_scan"}, "fusion_lon": 0.0}, {"lat": 38.923347666666665, "is_disabled": 0, "type": "electric_scooter", "lon": -77.04304716666667, "bike_id": "79ce33e175a63d5009582d7a19c0dc43", "fusion_lat": 0.0, "name": "79ce33e175a63d5009582d7a19c0dc43", "is_reserved": 0, "rental_uris": {"android": "https://dc.lft.to/lastmile_qr_scan", "ios": "https://dc.lft.to/lastmile_qr_scan"}, "fusion_lon": 0.0}, {"lat": 38.90375083333333, "is_disabled": 0, "type": "electric_scooter", "lon": -77.03911933333333, "bike_id": "dbe1483fa187104a874587340342240e", "fusion_lat": 0.0, "name": "dbe1483fa187104a874587340342240e", "is_reserved": 0, "rental_uris": {"android": "https://dc.lft.to/lastmile_qr_scan", "ios": "https://dc.lft.to/lastmile_qr_scan"}, "fusion_lon": 0.0}, {"lat": 38.90974166666667, "is_disabled": 0, "type": "electric_scooter", "lon": -77.00922733333333, "bike_id": "6e62c17f92a38c04304dd5145e8fb40c", "fusion_lat": 0.0, "name": "6e62c17f92a38c04304dd5145e8fb40c", "is_reserved": 0, "rental_uris": {"android": "https://dc.lft.to/lastmile_qr_scan", "ios": "https://dc.lft.to/lastmile_qr_scan"}, "fusion_lon": 0.0}, {"lat": 38.905620166666665, "is_disabled": 0, "type": "electric_scooter", "lon": -77.03427583333334, "bike_id": "40c14857b5a702297ae7318937661af0", "fusion_lat": 0.0, "name": "40c14857b5a702297ae7318937661af0", "is_reserved": 0, "rental_uris": {"android": "https://dc.lft.to/lastmile_qr_scan", "ios": "https://dc.lft.to/lastmile_qr_scan"}, "fusion_lon": 0.0}, {"lat": 38.9241975, "is_disabled": 0, "type": "electric_scooter", "lon": -77.0517695, "bike_id": "c3dc5de914c5dc4d86cc9334be7d2d25", "fusion_lat": 0.0, "name": "c3dc5de914c5dc4d86cc9334be7d2d25", "is_reserved": 0, "rental_uris": {"android": "https://dc.lft.to/lastmile_qr_scan", "ios": "https://dc.lft.to/lastmile_qr_scan"}, "fusion_lon": 0.0}, {"lat": 38.89501516666667, "is_disabled": 0, "type": "electric_bike", "lon": -77.07349016666667, "bike_id": "65e2837079e55f09eb631363596f67ba", "fusion_lat": 0.0, "name": "65e2837079e55f09eb631363596f67ba", "is_reserved": 0, "rental_uris": {"android": "https://dc.lft.to/lastmile_qr_scan", "ios": "https://dc.lft.to/lastmile_qr_scan"}, "fusion_lon": 0.0}, {"lat": 38.89347183333334, "is_disabled": 0, "type": "electric_scooter", "lon": -76.9493425, "bike_id": "ee66de3e0ac82d013a6c0269f06c6315", "fusion_lat": 0.0, "name": "ee66de3e0ac82d013a6c0269f06c6315", "is_reserved": 0, "rental_uris": {"android": "https://dc.lft.to/lastmile_qr_scan", "ios": "https://dc.lft.to/lastmile_qr_scan"}, "fusion_lon": 0.0}, {"lat": 38.944283666666664, "is_disabled": 0, "type": "electric_scooter", "lon": -76.992055, "bike_id": "d6097dfbae2602a72c5ed74b5a5a72fb", "fusion_lat": 0.0, "name": "d6097dfbae2602a72c5ed74b5a5a72fb", "is_reserved": 0, "rental_uris": {"android": "https://dc.lft.to/lastmile_qr_scan", "ios": "https://dc.lft.to/lastmile_qr_scan"}, "fusion_lon": 0.0}, {"lat": 38.89851216666667, "is_disabled": 0, "type": "electric_bike", "lon": -76.93190666666666, "bike_id": "ce8001065929f81147efa367405af6b4", "fusion_lat": 0.0, "name": "ce8001065929f81147efa367405af6b4", "is_reserved": 0, "rental_uris": {"android": "https://dc.lft.to/lastmile_qr_scan", "ios": "https://dc.lft.to/lastmile_qr_scan"}, "fusion_lon": 0.0}, {"lat": 38.91694, "is_disabled": 0, "type": "electric_scooter", "lon": -77.0313245, "bike_id": "cc4b9214be02dcaeef17eb4b2b5fc710", "fusion_lat": 0.0, "name": "cc4b9214be02dcaeef17eb4b2b5fc710", "is_reserved": 0, "rental_uris": {"android": "https://dc.lft.to/lastmile_qr_scan", "ios": "https://dc.lft.to/lastmile_qr_scan"}, "fusion_lon": 0.0}, {"lat": 38.915406833333336, "is_disabled": 0, "type": "electric_scooter", "lon": -77.03185483333333, "bike_id": "5a5c720534e759ae3b1aec5561e69569", "fusion_lat": 0.0, "name": "5a5c720534e759ae3b1aec5561e69569", "is_reserved": 0, "rental_uris": {"android": "https://dc.lft.to/lastmile_qr_scan", "ios": "https://dc.lft.to/lastmile_qr_scan"}, "fusion_lon": 0.0}, {"lat": 38.89250783333333, "is_disabled": 0, "type": "electric_scooter", "lon": -77.046565, "bike_id": "bc3f2eb376396e1389806d85c334d5ae", "fusion_lat": 0.0, "name": "bc3f2eb376396e1389806d85c334d5ae", "is_reserved": 0, "rental_uris": {"android": "https://dc.lft.to/lastmile_qr_scan", "ios": "https://dc.lft.to/lastmile_qr_scan"}, "fusion_lon": 0.0}, {"lat": 38.91071433333333, "is_disabled": 0, "type": "electric_scooter", "lon": -77.01639983333334, "bike_id": "ed454802c8daa2dd650820732a46635e", "fusion_lat": 0.0, "name": "ed454802c8daa2dd650820732a46635e", "is_reserved": 0, "rental_uris": {"android": "https://dc.lft.to/lastmile_qr_scan", "ios": "https://dc.lft.to/lastmile_qr_scan"}, "fusion_lon": 0.0}, {"lat": 38.90046066666667, "is_disabled": 0, "type": "electric_scooter", "lon": -77.00733933333333, "bike_id": "6fca6f33514280362f07a2a8e4cfab42", "fusion_lat": 0.0, "name": "6fca6f33514280362f07a2a8e4cfab42", "is_reserved": 0, "rental_uris": {"android": "https://dc.lft.to/lastmile_qr_scan", "ios": "https://dc.lft.to/lastmile_qr_scan"}, "fusion_lon": 0.0}, {"lat": 38.911122666666664, "is_disabled": 0, "type": "electric_scooter", "lon": -77.03711316666667, "bike_id": "ac80da6b8a27af9373b6844f6172944f", "fusion_lat": 0.0, "name": "ac80da6b8a27af9373b6844f6172944f", "is_reserved": 0, "rental_uris": {"android": "https://dc.lft.to/lastmile_qr_scan", "ios": "https://dc.lft.to/lastmile_qr_scan"}, "fusion_lon": 0.0}, {"lat": 38.906482, "is_disabled": 0, "type": "electric_scooter", "lon": -77.01203833333334, "bike_id": "dd0e1107f6c932a1e54f20473a55d0eb", "fusion_lat": 0.0, "name": "dd0e1107f6c932a1e54f20473a55d0eb", "is_reserved": 0, "rental_uris": {"android": "https://dc.lft.to/lastmile_qr_scan", "ios": "https://dc.lft.to/lastmile_qr_scan"}, "fusion_lon": 0.0}, {"lat": 38.952513, "is_disabled": 0, "type": "electric_bike", "lon": -76.98238733333334, "bike_id": "f57bcaef6c8962346b1a34bc3cbfd358", "fusion_lat": 0.0, "name": "f57bcaef6c8962346b1a34bc3cbfd358", "is_reserved": 0, "rental_uris": {"android": "https://dc.lft.to/lastmile_qr_scan", "ios": "https://dc.lft.to/lastmile_qr_scan"}, "fusion_lon": 0.0}, {"lat": 38.927848833333336, "is_disabled": 0, "type": "electric_scooter", "lon": -77.031515, "bike_id": "b9f987bef969168ef9156ece80141d27", "fusion_lat": 0.0, "name": "b9f987bef969168ef9156ece80141d27", "is_reserved": 0, "rental_uris": {"android": "https://dc.lft.to/lastmile_qr_scan", "ios": "https://dc.lft.to/lastmile_qr_scan"}, "fusion_lon": 0.0}, {"lat": 38.8989915, "is_disabled": 0, "type": "electric_scooter", "lon": -77.00358166666666, "bike_id": "9cee81b9a60b65608008672c7e6c0124", "fusion_lat": 0.0, "name": "9cee81b9a60b65608008672c7e6c0124", "is_reserved": 0, "rental_uris": {"android": "https://dc.lft.to/lastmile_qr_scan", "ios": "https://dc.lft.to/lastmile_qr_scan"}, "fusion_lon": 0.0}, {"lat": 38.90282933333334, "is_disabled": 0, "type": "electric_scooter", "lon": -77.04375833333333, "bike_id": "20c1521be3de4aaf5c6d3d9d7a5c80e2", "fusion_lat": 0.0, "name": "20c1521be3de4aaf5c6d3d9d7a5c80e2", "is_reserved": 0, "rental_uris": {"android": "https://dc.lft.to/lastmile_qr_scan", "ios": "https://dc.lft.to/lastmile_qr_scan"}, "fusion_lon": 0.0}, {"lat": 38.865958166666665, "is_disabled": 0, "type": "electric_bike", "lon": -76.93225216666667, "bike_id": "e0d1dfab4b474e0f7a3031212bb81ee5", "fusion_lat": 0.0, "name": "e0d1dfab4b474e0f7a3031212bb81ee5", "is_reserved": 0, "rental_uris": {"android": "https://dc.lft.to/lastmile_qr_scan", "ios": "https://dc.lft.to/lastmile_qr_scan"}, "fusion_lon": 0.0}, {"lat": 38.92171066666667, "is_disabled": 0, "type": "electric_scooter", "lon": -77.05138083333334, "bike_id": "6ca8a1593ca9cbd2fe2152d39d7b6f87", "fusion_lat": 0.0, "name": "6ca8a1593ca9cbd2fe2152d39d7b6f87", "is_reserved": 0, "rental_uris": {"android": "https://dc.lft.to/lastmile_qr_scan", "ios": "https://dc.lft.to/lastmile_qr_scan"}, "fusion_lon": 0.0}, {"lat": 38.9322445, "is_disabled": 0, "type": "electric_scooter", "lon": -77.0441405, "bike_id": "1808977c00ddf5e2b2723729015ae65e", "fusion_lat": 0.0, "name": "1808977c00ddf5e2b2723729015ae65e", "is_reserved": 0, "rental_uris": {"android": "https://dc.lft.to/lastmile_qr_scan", "ios": "https://dc.lft.to/lastmile_qr_scan"}, "fusion_lon": 0.0}, {"lat": 38.9345355, "is_disabled": 0, "type": "electric_scooter", "lon": -77.03232183333333, "bike_id": "8a2b3f1a11fdc7b3068402c0818018f7", "fusion_lat": 0.0, "name": "8a2b3f1a11fdc7b3068402c0818018f7", "is_reserved": 0, "rental_uris": {"android": "https://dc.lft.to/lastmile_qr_scan", "ios": "https://dc.lft.to/lastmile_qr_scan"}, "fusion_lon": 0.0}, {"lat": 38.9111995, "is_disabled": 0, "type": "electric_scooter", "lon": -77.04363483333333, "bike_id": "f7cd5d761a9487de40f368c6ec03abaa", "fusion_lat": 0.0, "name": "f7cd5d761a9487de40f368c6ec03abaa", "is_reserved": 0, "rental_uris": {"android": "https://dc.lft.to/lastmile_qr_scan", "ios": "https://dc.lft.to/lastmile_qr_scan"}, "fusion_lon": 0.0}, {"lat": 38.89243, "is_disabled": 0, "type": "electric_scooter", "lon": -77.03958233333333, "bike_id": "4daa43967109d506733d5635fbdfd452", "fusion_lat": 0.0, "name": "4daa43967109d506733d5635fbdfd452", "is_reserved": 0, "rental_uris": {"android": "https://dc.lft.to/lastmile_qr_scan", "ios": "https://dc.lft.to/lastmile_qr_scan"}, "fusion_lon": 0.0}, {"lat": 38.91672916666667, "is_disabled": 0, "type": "electric_scooter", "lon": -77.04298266666666, "bike_id": "fb68908476cb75feb272dc0f61e119ee", "fusion_lat": 0.0, "name": "fb68908476cb75feb272dc0f61e119ee", "is_reserved": 0, "rental_uris": {"android": "https://dc.lft.to/lastmile_qr_scan", "ios": "https://dc.lft.to/lastmile_qr_scan"}, "fusion_lon": 0.0}, {"lat": 38.884217666666665, "is_disabled": 0, "type": "electric_bike", "lon": -77.030403, "bike_id": "406ba279c315211234c26f88eb6f4050", "fusion_lat": 0.0, "name": "406ba279c315211234c26f88eb6f4050", "is_reserved": 0, "rental_uris": {"android": "https://dc.lft.to/lastmile_qr_scan", "ios": "https://dc.lft.to/lastmile_qr_scan"}, "fusion_lon": 0.0}, {"lat": 38.92334066666667, "is_disabled": 0, "type": "electric_scooter", "lon": -77.044624, "bike_id": "a143daf69e8fc5cc69912d7b09d6e812", "fusion_lat": 0.0, "name": "a143daf69e8fc5cc69912d7b09d6e812", "is_reserved": 0, "rental_uris": {"android": "https://dc.lft.to/lastmile_qr_scan", "ios": "https://dc.lft.to/lastmile_qr_scan"}, "fusion_lon": 0.0}, {"lat": 38.852147, "is_disabled": 0, "type": "electric_bike", "lon": -77.12950483333333, "bike_id": "abb42a2aac2fd324274806c5e57b75f2", "fusion_lat": 0.0, "name": "abb42a2aac2fd324274806c5e57b75f2", "is_reserved": 0, "rental_uris": {"android": "https://dc.lft.to/lastmile_qr_scan", "ios": "https://dc.lft.to/lastmile_qr_scan"}, "fusion_lon": 0.0}, {"lat": 38.9621415, "is_disabled": 0, "type": "electric_bike", "lon": -77.02785566666667, "bike_id": "af4eeeaeb050904f23bf766131271b9a", "fusion_lat": 0.0, "name": "af4eeeaeb050904f23bf766131271b9a", "is_reserved": 0, "rental_uris": {"android": "https://dc.lft.to/lastmile_qr_scan", "ios": "https://dc.lft.to/lastmile_qr_scan"}, "fusion_lon": 0.0}, {"lat": 38.8998735, "is_disabled": 0, "type": "electric_scooter", "lon": -77.05251, "bike_id": "12fb453d79f6aada1e72234bbc173f69", "fusion_lat": 0.0, "name": "12fb453d79f6aada1e72234bbc173f69", "is_reserved": 0, "rental_uris": {"android": "https://dc.lft.to/lastmile_qr_scan", "ios": "https://dc.lft.to/lastmile_qr_scan"}, "fusion_lon": 0.0}, {"lat": 38.9056435, "is_disabled": 0, "type": "electric_scooter", "lon": -77.03476183333333, "bike_id": "0ca4a93d5013c9c9b529e87af1533a6f", "fusion_lat": 0.0, "name": "0ca4a93d5013c9c9b529e87af1533a6f", "is_reserved": 0, "rental_uris": {"android": "https://dc.lft.to/lastmile_qr_scan", "ios": "https://dc.lft.to/lastmile_qr_scan"}, "fusion_lon": 0.0}, {"lat": 38.943246333333335, "is_disabled": 0, "type": "electric_scooter", "lon": -77.07379916666666, "bike_id": "b99884ac2df496cfd59ac008a838354e", "fusion_lat": 0.0, "name": "b99884ac2df496cfd59ac008a838354e", "is_reserved": 0, "rental_uris": {"android": "https://dc.lft.to/lastmile_qr_scan", "ios": "https://dc.lft.to/lastmile_qr_scan"}, "fusion_lon": 0.0}, {"lat": 38.90141633333333, "is_disabled": 0, "type": "electric_scooter", "lon": -77.02557433333334, "bike_id": "4085a013bcbfdcd805df50af702d6079", "fusion_lat": 0.0, "name": "4085a013bcbfdcd805df50af702d6079", "is_reserved": 0, "rental_uris": {"android": "https://dc.lft.to/lastmile_qr_scan", "ios": "https://dc.lft.to/lastmile_qr_scan"}, "fusion_lon": 0.0}, {"lat": 38.896433, "is_disabled": 0, "type": "electric_scooter", "lon": -77.0285825, "bike_id": "e1c4232d8dfe2e6210a00973d70f15f2", "fusion_lat": 0.0, "name": "e1c4232d8dfe2e6210a00973d70f15f2", "is_reserved": 0, "rental_uris": {"android": "https://dc.lft.to/lastmile_qr_scan", "ios": "https://dc.lft.to/lastmile_qr_scan"}, "fusion_lon": 0.0}, {"lat": 38.9283465, "is_disabled": 0, "type": "electric_scooter", "lon": -76.99849816666666, "bike_id": "cd8fdd2af56bdb63ad52414d9b5f323e", "fusion_lat": 0.0, "name": "cd8fdd2af56bdb63ad52414d9b5f323e", "is_reserved": 0, "rental_uris": {"android": "https://dc.lft.to/lastmile_qr_scan", "ios": "https://dc.lft.to/lastmile_qr_scan"}, "fusion_lon": 0.0}, {"lat": 38.9362555, "is_disabled": 0, "type": "electric_scooter", "lon": -77.05748783333334, "bike_id": "4f3307887ba3e1ee11937411d87b6c93", "fusion_lat": 0.0, "name": "4f3307887ba3e1ee11937411d87b6c93", "is_reserved": 0, "rental_uris": {"android": "https://dc.lft.to/lastmile_qr_scan", "ios": "https://dc.lft.to/lastmile_qr_scan"}, "fusion_lon": 0.0}, {"lat": 38.90972383333333, "is_disabled": 0, "type": "electric_scooter", "lon": -77.0340535, "bike_id": "5490ed09e53811bbaf15cacf0412dbe7", "fusion_lat": 0.0, "name": "5490ed09e53811bbaf15cacf0412dbe7", "is_reserved": 0, "rental_uris": {"android": "https://dc.lft.to/lastmile_qr_scan", "ios": "https://dc.lft.to/lastmile_qr_scan"}, "fusion_lon": 0.0}, {"lat": 38.9451415, "is_disabled": 0, "type": "electric_bike", "lon": -77.00678266666667, "bike_id": "4face1ac6e1e855b552d10368b590794", "fusion_lat": 0.0, "name": "4face1ac6e1e855b552d10368b590794", "is_reserved": 0, "rental_uris": {"android": "https://dc.lft.to/lastmile_qr_scan", "ios": "https://dc.lft.to/lastmile_qr_scan"}, "fusion_lon": 0.0}, {"lat": 38.90743116666667, "is_disabled": 0, "type": "electric_scooter", "lon": -77.041935, "bike_id": "cc96de720a99f72c44a2ca5c701388c2", "fusion_lat": 0.0, "name": "cc96de720a99f72c44a2ca5c701388c2", "is_reserved": 0, "rental_uris": {"android": "https://dc.lft.to/lastmile_qr_scan", "ios": "https://dc.lft.to/lastmile_qr_scan"}, "fusion_lon": 0.0}, {"lat": 38.90133516666667, "is_disabled": 0, "type": "electric_scooter", "lon": -77.00317733333333, "bike_id": "ed14e7c3cdb062c808b52c99328298df", "fusion_lat": 0.0, "name": "ed14e7c3cdb062c808b52c99328298df", "is_reserved": 0, "rental_uris": {"android": "https://dc.lft.to/lastmile_qr_scan", "ios": "https://dc.lft.to/lastmile_qr_scan"}, "fusion_lon": 0.0}, {"lat": 38.928793166666665, "is_disabled": 0, "type": "electric_scooter", "lon": -77.0386955, "bike_id": "8f77f2c40d01f3c98066f9d3dbbc291c", "fusion_lat": 0.0, "name": "8f77f2c40d01f3c98066f9d3dbbc291c", "is_reserved": 0, "rental_uris": {"android": "https://dc.lft.to/lastmile_qr_scan", "ios": "https://dc.lft.to/lastmile_qr_scan"}, "fusion_lon": 0.0}, {"lat": 38.93474166666667, "is_disabled": 0, "type": "electric_scooter", "lon": -77.034057, "bike_id": "63e877da5ba41a0d1c449954d25f79b0", "fusion_lat": 0.0, "name": "63e877da5ba41a0d1c449954d25f79b0", "is_reserved": 0, "rental_uris": {"android": "https://dc.lft.to/lastmile_qr_scan", "ios": "https://dc.lft.to/lastmile_qr_scan"}, "fusion_lon": 0.0}, {"lat": 38.853171, "is_disabled": 0, "type": "electric_scooter", "lon": -76.98025683333333, "bike_id": "23537768e85e9a4b6e87fc9151c1efca", "fusion_lat": 0.0, "name": "23537768e85e9a4b6e87fc9151c1efca", "is_reserved": 0, "rental_uris": {"android": "https://dc.lft.to/lastmile_qr_scan", "ios": "https://dc.lft.to/lastmile_qr_scan"}, "fusion_lon": 0.0}, {"lat": 38.8740565, "is_disabled": 0, "type": "electric_scooter", "lon": -77.01456316666666, "bike_id": "ce61b6968b98e1e1598efcb09e179066", "fusion_lat": 0.0, "name": "ce61b6968b98e1e1598efcb09e179066", "is_reserved": 0, "rental_uris": {"android": "https://dc.lft.to/lastmile_qr_scan", "ios": "https://dc.lft.to/lastmile_qr_scan"}, "fusion_lon": 0.0}, {"lat": 38.927542, "is_disabled": 0, "type": "electric_scooter", "lon": -76.996245, "bike_id": "f62d0ad541883f33dc2847caf2b2bdb2", "fusion_lat": 0.0, "name": "f62d0ad541883f33dc2847caf2b2bdb2", "is_reserved": 0, "rental_uris": {"android": "https://dc.lft.to/lastmile_qr_scan", "ios": "https://dc.lft.to/lastmile_qr_scan"}, "fusion_lon": 0.0}, {"lat": 38.90733183333333, "is_disabled": 0, "type": "electric_scooter", "lon": -77.0298575, "bike_id": "48b34fbad23fc7f7fe8e358bf46f1372", "fusion_lat": 0.0, "name": "48b34fbad23fc7f7fe8e358bf46f1372", "is_reserved": 0, "rental_uris": {"android": "https://dc.lft.to/lastmile_qr_scan", "ios": "https://dc.lft.to/lastmile_qr_scan"}, "fusion_lon": 0.0}, {"lat": 38.92758283333333, "is_disabled": 0, "type": "electric_scooter", "lon": -77.03243866666666, "bike_id": "0ed3334d36cb0a73b99d922c3c67aa77", "fusion_lat": 0.0, "name": "0ed3334d36cb0a73b99d922c3c67aa77", "is_reserved": 0, "rental_uris": {"android": "https://dc.lft.to/lastmile_qr_scan", "ios": "https://dc.lft.to/lastmile_qr_scan"}, "fusion_lon": 0.0}, {"lat": 38.872266833333335, "is_disabled": 0, "type": "electric_scooter", "lon": -77.01186633333333, "bike_id": "80f5e975184e7cceb8950b6a50d195ca", "fusion_lat": 0.0, "name": "80f5e975184e7cceb8950b6a50d195ca", "is_reserved": 0, "rental_uris": {"android": "https://dc.lft.to/lastmile_qr_scan", "ios": "https://dc.lft.to/lastmile_qr_scan"}, "fusion_lon": 0.0}, {"lat": 38.88118933333333, "is_disabled": 0, "type": "electric_scooter", "lon": -77.01973966666667, "bike_id": "0ee12434aa0e4655222f8091d71fe9f6", "fusion_lat": 0.0, "name": "0ee12434aa0e4655222f8091d71fe9f6", "is_reserved": 0, "rental_uris": {"android": "https://dc.lft.to/lastmile_qr_scan", "ios": "https://dc.lft.to/lastmile_qr_scan"}, "fusion_lon": 0.0}, {"lat": 38.937378333333335, "is_disabled": 0, "type": "electric_scooter", "lon": -77.03496566666666, "bike_id": "402913c94be4c18221763c4dad98b926", "fusion_lat": 0.0, "name": "402913c94be4c18221763c4dad98b926", "is_reserved": 0, "rental_uris": {"android": "https://dc.lft.to/lastmile_qr_scan", "ios": "https://dc.lft.to/lastmile_qr_scan"}, "fusion_lon": 0.0}, {"lat": 38.920003333333334, "is_disabled": 0, "type": "electric_scooter", "lon": -77.02405566666667, "bike_id": "e9e159e4d495fd4108b7b3e6a3454689", "fusion_lat": 0.0, "name": "e9e159e4d495fd4108b7b3e6a3454689", "is_reserved": 0, "rental_uris": {"android": "https://dc.lft.to/lastmile_qr_scan", "ios": "https://dc.lft.to/lastmile_qr_scan"}, "fusion_lon": 0.0}, {"lat": 38.92615383333333, "is_disabled": 0, "type": "electric_scooter", "lon": -77.044085, "bike_id": "e214354d4dd77e1ec08b59b52a51405c", "fusion_lat": 0.0, "name": "e214354d4dd77e1ec08b59b52a51405c", "is_reserved": 0, "rental_uris": {"android": "https://dc.lft.to/lastmile_qr_scan", "ios": "https://dc.lft.to/lastmile_qr_scan"}, "fusion_lon": 0.0}, {"lat": 38.90968733333333, "is_disabled": 0, "type": "electric_scooter", "lon": -77.03864333333334, "bike_id": "9da46910182b17f56b7855ba178be680", "fusion_lat": 0.0, "name": "9da46910182b17f56b7855ba178be680", "is_reserved": 0, "rental_uris": {"android": "https://dc.lft.to/lastmile_qr_scan", "ios": "https://dc.lft.to/lastmile_qr_scan"}, "fusion_lon": 0.0}, {"lat": 38.89612866666667, "is_disabled": 0, "type": "electric_scooter", "lon": -76.9565645, "bike_id": "fd59a0b46d4eb53983e1e155ab53ea95", "fusion_lat": 0.0, "name": "fd59a0b46d4eb53983e1e155ab53ea95", "is_reserved": 0, "rental_uris": {"android": "https://dc.lft.to/lastmile_qr_scan", "ios": "https://dc.lft.to/lastmile_qr_scan"}, "fusion_lon": 0.0}, {"lat": 38.90969583333333, "is_disabled": 0, "type": "electric_scooter", "lon": -77.03216583333334, "bike_id": "bf859c2a475df8376be55707aed41447", "fusion_lat": 0.0, "name": "bf859c2a475df8376be55707aed41447", "is_reserved": 0, "rental_uris": {"android": "https://dc.lft.to/lastmile_qr_scan", "ios": "https://dc.lft.to/lastmile_qr_scan"}, "fusion_lon": 0.0}, {"lat": 38.887345833333335, "is_disabled": 0, "type": "electric_scooter", "lon": -77.03158166666667, "bike_id": "898417b2e851548e72f4a96e329f223d", "fusion_lat": 0.0, "name": "898417b2e851548e72f4a96e329f223d", "is_reserved": 0, "rental_uris": {"android": "https://dc.lft.to/lastmile_qr_scan", "ios": "https://dc.lft.to/lastmile_qr_scan"}, "fusion_lon": 0.0}, {"lat": 38.88422966666667, "is_disabled": 0, "type": "electric_scooter", "lon": -77.03035016666666, "bike_id": "b288f6e403680fa34c376778a2ad45ea", "fusion_lat": 0.0, "name": "b288f6e403680fa34c376778a2ad45ea", "is_reserved": 0, "rental_uris": {"android": "https://dc.lft.to/lastmile_qr_scan", "ios": "https://dc.lft.to/lastmile_qr_scan"}, "fusion_lon": 0.0}, {"lat": 38.916969, "is_disabled": 0, "type": "electric_scooter", "lon": -77.03482933333333, "bike_id": "e8d978650240ac7b2639beaf4915fcca", "fusion_lat": 0.0, "name": "e8d978650240ac7b2639beaf4915fcca", "is_reserved": 0, "rental_uris": {"android": "https://dc.lft.to/lastmile_qr_scan", "ios": "https://dc.lft.to/lastmile_qr_scan"}, "fusion_lon": 0.0}, {"lat": 38.88676616666667, "is_disabled": 0, "type": "electric_bike", "lon": -77.00197966666667, "bike_id": "ac0fc1b743d4929e0171dbecea578463", "fusion_lat": 0.0, "name": "ac0fc1b743d4929e0171dbecea578463", "is_reserved": 0, "rental_uris": {"android": "https://dc.lft.to/lastmile_qr_scan", "ios": "https://dc.lft.to/lastmile_qr_scan"}, "fusion_lon": 0.0}, {"lat": 39.015949666666664, "is_disabled": 0, "type": "electric_bike", "lon": -77.0442765, "bike_id": "b9a2b2c8048aefd06d8d831e3a936c17", "fusion_lat": 0.0, "name": "b9a2b2c8048aefd06d8d831e3a936c17", "is_reserved": 0, "rental_uris": {"android": "https://dc.lft.to/lastmile_qr_scan", "ios": "https://dc.lft.to/lastmile_qr_scan"}, "fusion_lon": 0.0}, {"lat": 38.910811833333334, "is_disabled": 0, "type": "electric_scooter", "lon": -77.07643483333334, "bike_id": "5ad7e8cbba8691ad28e8076868d2ddb7", "fusion_lat": 0.0, "name": "5ad7e8cbba8691ad28e8076868d2ddb7", "is_reserved": 0, "rental_uris": {"android": "https://dc.lft.to/lastmile_qr_scan", "ios": "https://dc.lft.to/lastmile_qr_scan"}, "fusion_lon": 0.0}, {"lat": 38.94804933333333, "is_disabled": 0, "type": "electric_scooter", "lon": -77.07911083333333, "bike_id": "bad567c9e0dd8518dab51675e5e08114", "fusion_lat": 0.0, "name": "bad567c9e0dd8518dab51675e5e08114", "is_reserved": 0, "rental_uris": {"android": "https://dc.lft.to/lastmile_qr_scan", "ios": "https://dc.lft.to/lastmile_qr_scan"}, "fusion_lon": 0.0}, {"lat": 38.90001183333333, "is_disabled": 0, "type": "electric_scooter", "lon": -76.99854983333333, "bike_id": "f3ffd0dfffc247eef95d5719da895481", "fusion_lat": 0.0, "name": "f3ffd0dfffc247eef95d5719da895481", "is_reserved": 0, "rental_uris": {"android": "https://dc.lft.to/lastmile_qr_scan", "ios": "https://dc.lft.to/lastmile_qr_scan"}, "fusion_lon": 0.0}, {"lat": 38.891225, "is_disabled": 0, "type": "electric_scooter", "lon": -76.940951, "bike_id": "a6295af400987ca68eccedca009ccc2d", "fusion_lat": 0.0, "name": "a6295af400987ca68eccedca009ccc2d", "is_reserved": 0, "rental_uris": {"android": "https://dc.lft.to/lastmile_qr_scan", "ios": "https://dc.lft.to/lastmile_qr_scan"}, "fusion_lon": 0.0}, {"lat": 38.904742, "is_disabled": 0, "type": "electric_scooter", "lon": -77.03230833333333, "bike_id": "6b888a2108fcb6cd4a56986d99d83496", "fusion_lat": 0.0, "name": "6b888a2108fcb6cd4a56986d99d83496", "is_reserved": 0, "rental_uris": {"android": "https://dc.lft.to/lastmile_qr_scan", "ios": "https://dc.lft.to/lastmile_qr_scan"}, "fusion_lon": 0.0}, {"lat": 38.935432166666665, "is_disabled": 0, "type": "electric_scooter", "lon": -77.034109, "bike_id": "666eb8b73c804bd404f6ceda9a3e45ee", "fusion_lat": 0.0, "name": "666eb8b73c804bd404f6ceda9a3e45ee", "is_reserved": 0, "rental_uris": {"android": "https://dc.lft.to/lastmile_qr_scan", "ios": "https://dc.lft.to/lastmile_qr_scan"}, "fusion_lon": 0.0}, {"lat": 38.9067855, "is_disabled": 0, "type": "electric_scooter", "lon": -77.03589633333333, "bike_id": "3e411401ee15b07986436e708445e737", "fusion_lat": 0.0, "name": "3e411401ee15b07986436e708445e737", "is_reserved": 0, "rental_uris": {"android": "https://dc.lft.to/lastmile_qr_scan", "ios": "https://dc.lft.to/lastmile_qr_scan"}, "fusion_lon": 0.0}, {"lat": 38.933286333333335, "is_disabled": 0, "type": "electric_scooter", "lon": -77.05712183333333, "bike_id": "e1788dd543cd3fe7d15599a3300947a6", "fusion_lat": 0.0, "name": "e1788dd543cd3fe7d15599a3300947a6", "is_reserved": 0, "rental_uris": {"android": "https://dc.lft.to/lastmile_qr_scan", "ios": "https://dc.lft.to/lastmile_qr_scan"}, "fusion_lon": 0.0}, {"lat": 38.9490355, "is_disabled": 0, "type": "electric_bike", "lon": -76.972383, "bike_id": "939a506bd70c540014fd34c13e478b23", "fusion_lat": 0.0, "name": "939a506bd70c540014fd34c13e478b23", "is_reserved": 0, "rental_uris": {"android": "https://dc.lft.to/lastmile_qr_scan", "ios": "https://dc.lft.to/lastmile_qr_scan"}, "fusion_lon": 0.0}, {"lat": 38.89866816666667, "is_disabled": 0, "type": "electric_scooter", "lon": -77.030293, "bike_id": "5b71c241223b69abe815e516572abf07", "fusion_lat": 0.0, "name": "5b71c241223b69abe815e516572abf07", "is_reserved": 0, "rental_uris": {"android": "https://dc.lft.to/lastmile_qr_scan", "ios": "https://dc.lft.to/lastmile_qr_scan"}, "fusion_lon": 0.0}, {"lat": 38.9306905, "is_disabled": 0, "type": "electric_scooter", "lon": -77.03132483333333, "bike_id": "2725d308f5ac2d530ed68577c72becc1", "fusion_lat": 0.0, "name": "2725d308f5ac2d530ed68577c72becc1", "is_reserved": 0, "rental_uris": {"android": "https://dc.lft.to/lastmile_qr_scan", "ios": "https://dc.lft.to/lastmile_qr_scan"}, "fusion_lon": 0.0}, {"lat": 38.9162425, "is_disabled": 0, "type": "electric_scooter", "lon": -77.031437, "bike_id": "cb38d837b0c86dc2807aa0340500a922", "fusion_lat": 0.0, "name": "cb38d837b0c86dc2807aa0340500a922", "is_reserved": 0, "rental_uris": {"android": "https://dc.lft.to/lastmile_qr_scan", "ios": "https://dc.lft.to/lastmile_qr_scan"}, "fusion_lon": 0.0}, {"lat": 38.940831333333335, "is_disabled": 0, "type": "electric_scooter", "lon": -77.06129483333333, "bike_id": "ca2d925e49d3a3ac013b669529e8d8ef", "fusion_lat": 0.0, "name": "ca2d925e49d3a3ac013b669529e8d8ef", "is_reserved": 0, "rental_uris": {"android": "https://dc.lft.to/lastmile_qr_scan", "ios": "https://dc.lft.to/lastmile_qr_scan"}, "fusion_lon": 0.0}, {"lat": 38.89811366666667, "is_disabled": 0, "type": "electric_scooter", "lon": -77.02385266666667, "bike_id": "6e1b946cef16dc0c871ddac4790c68ed", "fusion_lat": 0.0, "name": "6e1b946cef16dc0c871ddac4790c68ed", "is_reserved": 0, "rental_uris": {"android": "https://dc.lft.to/lastmile_qr_scan", "ios": "https://dc.lft.to/lastmile_qr_scan"}, "fusion_lon": 0.0}, {"lat": 38.939839, "is_disabled": 0, "type": "electric_scooter", "lon": -77.02892216666666, "bike_id": "aa02d21f1ef54f69e1b1dcffa3606145", "fusion_lat": 0.0, "name": "aa02d21f1ef54f69e1b1dcffa3606145", "is_reserved": 0, "rental_uris": {"android": "https://dc.lft.to/lastmile_qr_scan", "ios": "https://dc.lft.to/lastmile_qr_scan"}, "fusion_lon": 0.0}, {"lat": 38.92396133333333, "is_disabled": 0, "type": "electric_scooter", "lon": -77.02693033333334, "bike_id": "a37ea8ca53a69db402829f974a3f5e15", "fusion_lat": 0.0, "name": "a37ea8ca53a69db402829f974a3f5e15", "is_reserved": 0, "rental_uris": {"android": "https://dc.lft.to/lastmile_qr_scan", "ios": "https://dc.lft.to/lastmile_qr_scan"}, "fusion_lon": 0.0}, {"lat": 38.896537, "is_disabled": 0, "type": "electric_scooter", "lon": -77.02303133333334, "bike_id": "1fb6ed50993e2c31b97c92abb913b7ff", "fusion_lat": 0.0, "name": "1fb6ed50993e2c31b97c92abb913b7ff", "is_reserved": 0, "rental_uris": {"android": "https://dc.lft.to/lastmile_qr_scan", "ios": "https://dc.lft.to/lastmile_qr_scan"}, "fusion_lon": 0.0}, {"lat": 38.90873883333333, "is_disabled": 0, "type": "electric_scooter", "lon": -77.06678966666666, "bike_id": "286e610c7a7057958830c52deec4fb03", "fusion_lat": 0.0, "name": "286e610c7a7057958830c52deec4fb03", "is_reserved": 0, "rental_uris": {"android": "https://dc.lft.to/lastmile_qr_scan", "ios": "https://dc.lft.to/lastmile_qr_scan"}, "fusion_lon": 0.0}, {"lat": 38.91457283333333, "is_disabled": 0, "type": "electric_scooter", "lon": -77.02166316666667, "bike_id": "6a6f87ffb06e9e5d619fc11dcc41d97c", "fusion_lat": 0.0, "name": "6a6f87ffb06e9e5d619fc11dcc41d97c", "is_reserved": 0, "rental_uris": {"android": "https://dc.lft.to/lastmile_qr_scan", "ios": "https://dc.lft.to/lastmile_qr_scan"}, "fusion_lon": 0.0}, {"lat": 38.92798616666666, "is_disabled": 0, "type": "electric_scooter", "lon": -77.043158, "bike_id": "7e680c3bd2d932d44282e7d21d190a88", "fusion_lat": 0.0, "name": "7e680c3bd2d932d44282e7d21d190a88", "is_reserved": 0, "rental_uris": {"android": "https://dc.lft.to/lastmile_qr_scan", "ios": "https://dc.lft.to/lastmile_qr_scan"}, "fusion_lon": 0.0}, {"lat": 38.85515766666666, "is_disabled": 0, "type": "electric_bike", "lon": -77.12018783333333, "bike_id": "427a8ff6a234f2552559839c13f3fd6d", "fusion_lat": 0.0, "name": "427a8ff6a234f2552559839c13f3fd6d", "is_reserved": 0, "rental_uris": {"android": "https://dc.lft.to/lastmile_qr_scan", "ios": "https://dc.lft.to/lastmile_qr_scan"}, "fusion_lon": 0.0}, {"lat": 38.909786833333335, "is_disabled": 0, "type": "electric_scooter", "lon": -77.02397833333333, "bike_id": "97f5a30bad0a0dfcbab79d43d22ff15c", "fusion_lat": 0.0, "name": "97f5a30bad0a0dfcbab79d43d22ff15c", "is_reserved": 0, "rental_uris": {"android": "https://dc.lft.to/lastmile_qr_scan", "ios": "https://dc.lft.to/lastmile_qr_scan"}, "fusion_lon": 0.0}, {"lat": 38.89756116666667, "is_disabled": 0, "type": "electric_scooter", "lon": -77.025963, "bike_id": "4ed366eb8b17f326830e38bf224caa3f", "fusion_lat": 0.0, "name": "4ed366eb8b17f326830e38bf224caa3f", "is_reserved": 0, "rental_uris": {"android": "https://dc.lft.to/lastmile_qr_scan", "ios": "https://dc.lft.to/lastmile_qr_scan"}, "fusion_lon": 0.0}, {"lat": 38.90622533333333, "is_disabled": 0, "type": "electric_scooter", "lon": -76.98988166666666, "bike_id": "99b0457d30efe192890df2331a903697", "fusion_lat": 0.0, "name": "99b0457d30efe192890df2331a903697", "is_reserved": 0, "rental_uris": {"android": "https://dc.lft.to/lastmile_qr_scan", "ios": "https://dc.lft.to/lastmile_qr_scan"}, "fusion_lon": 0.0}, {"lat": 38.915538833333336, "is_disabled": 0, "type": "electric_scooter", "lon": -77.03175083333333, "bike_id": "da8fff4bf752e923f53d3e3df46d5312", "fusion_lat": 0.0, "name": "da8fff4bf752e923f53d3e3df46d5312", "is_reserved": 0, "rental_uris": {"android": "https://dc.lft.to/lastmile_qr_scan", "ios": "https://dc.lft.to/lastmile_qr_scan"}, "fusion_lon": 0.0}, {"lat": 38.90364316666667, "is_disabled": 0, "type": "electric_scooter", "lon": -77.0385185, "bike_id": "c44e04c13a2156a54b24cfe5cad320f3", "fusion_lat": 0.0, "name": "c44e04c13a2156a54b24cfe5cad320f3", "is_reserved": 0, "rental_uris": {"android": "https://dc.lft.to/lastmile_qr_scan", "ios": "https://dc.lft.to/lastmile_qr_scan"}, "fusion_lon": 0.0}, {"lat": 38.89907816666667, "is_disabled": 0, "type": "electric_scooter", "lon": -76.93345533333333, "bike_id": "8cb63147c0b2ab6b15f8e500ce5b267d", "fusion_lat": 0.0, "name": "8cb63147c0b2ab6b15f8e500ce5b267d", "is_reserved": 0, "rental_uris": {"android": "https://dc.lft.to/lastmile_qr_scan", "ios": "https://dc.lft.to/lastmile_qr_scan"}, "fusion_lon": 0.0}, {"lat": 38.8911795, "is_disabled": 0, "type": "electric_scooter", "lon": -76.9438505, "bike_id": "5acd5aea5660ca7ac13d45846340944b", "fusion_lat": 0.0, "name": "5acd5aea5660ca7ac13d45846340944b", "is_reserved": 0, "rental_uris": {"android": "https://dc.lft.to/lastmile_qr_scan", "ios": "https://dc.lft.to/lastmile_qr_scan"}, "fusion_lon": 0.0}, {"lat": 38.93056083333333, "is_disabled": 0, "type": "electric_scooter", "lon": -77.04182266666666, "bike_id": "0a54e2f7a909fa3d998e418fa0d8a1ec", "fusion_lat": 0.0, "name": "0a54e2f7a909fa3d998e418fa0d8a1ec", "is_reserved": 0, "rental_uris": {"android": "https://dc.lft.to/lastmile_qr_scan", "ios": "https://dc.lft.to/lastmile_qr_scan"}, "fusion_lon": 0.0}, {"lat": 38.915215333333336, "is_disabled": 0, "type": "electric_scooter", "lon": -77.0384765, "bike_id": "944a3b7eba4ea0355805dbe4d625fcca", "fusion_lat": 0.0, "name": "944a3b7eba4ea0355805dbe4d625fcca", "is_reserved": 0, "rental_uris": {"android": "https://dc.lft.to/lastmile_qr_scan", "ios": "https://dc.lft.to/lastmile_qr_scan"}, "fusion_lon": 0.0}, {"lat": 38.85910333333333, "is_disabled": 0, "type": "electric_scooter", "lon": -76.99146416666666, "bike_id": "318d8b1d70b80f9902f1302a114be9ff", "fusion_lat": 0.0, "name": "318d8b1d70b80f9902f1302a114be9ff", "is_reserved": 0, "rental_uris": {"android": "https://dc.lft.to/lastmile_qr_scan", "ios": "https://dc.lft.to/lastmile_qr_scan"}, "fusion_lon": 0.0}, {"lat": 38.908662666666665, "is_disabled": 0, "type": "electric_scooter", "lon": -77.08591716666666, "bike_id": "cbc64f6c360cd6eea5b3c2f5bc16cd36", "fusion_lat": 0.0, "name": "cbc64f6c360cd6eea5b3c2f5bc16cd36", "is_reserved": 0, "rental_uris": {"android": "https://dc.lft.to/lastmile_qr_scan", "ios": "https://dc.lft.to/lastmile_qr_scan"}, "fusion_lon": 0.0}, {"lat": 38.914050333333336, "is_disabled": 0, "type": "electric_bike", "lon": -77.04849433333334, "bike_id": "b7316db4c938c9b670110075fad5535e", "fusion_lat": 0.0, "name": "b7316db4c938c9b670110075fad5535e", "is_reserved": 0, "rental_uris": {"android": "https://dc.lft.to/lastmile_qr_scan", "ios": "https://dc.lft.to/lastmile_qr_scan"}, "fusion_lon": 0.0}, {"lat": 38.9347975, "is_disabled": 0, "type": "electric_scooter", "lon": -77.07271866666666, "bike_id": "25abba8fa4adf33367e12888f2bee278", "fusion_lat": 0.0, "name": "25abba8fa4adf33367e12888f2bee278", "is_reserved": 0, "rental_uris": {"android": "https://dc.lft.to/lastmile_qr_scan", "ios": "https://dc.lft.to/lastmile_qr_scan"}, "fusion_lon": 0.0}, {"lat": 38.9076135, "is_disabled": 0, "type": "electric_scooter", "lon": -77.043407, "bike_id": "afce734e5bc7009ac0786529746f1775", "fusion_lat": 0.0, "name": "afce734e5bc7009ac0786529746f1775", "is_reserved": 0, "rental_uris": {"android": "https://dc.lft.to/lastmile_qr_scan", "ios": "https://dc.lft.to/lastmile_qr_scan"}, "fusion_lon": 0.0}, {"lat": 38.90742183333333, "is_disabled": 0, "type": "electric_scooter", "lon": -77.00374783333334, "bike_id": "661d99e3694f1ecdbec6dd8e12a5844d", "fusion_lat": 0.0, "name": "661d99e3694f1ecdbec6dd8e12a5844d", "is_reserved": 0, "rental_uris": {"android": "https://dc.lft.to/lastmile_qr_scan", "ios": "https://dc.lft.to/lastmile_qr_scan"}, "fusion_lon": 0.0}, {"lat": 38.90554566666667, "is_disabled": 0, "type": "electric_scooter", "lon": -77.06520316666666, "bike_id": "d112bcf5a6b36b34f59d9eaf8bee39ad", "fusion_lat": 0.0, "name": "d112bcf5a6b36b34f59d9eaf8bee39ad", "is_reserved": 0, "rental_uris": {"android": "https://dc.lft.to/lastmile_qr_scan", "ios": "https://dc.lft.to/lastmile_qr_scan"}, "fusion_lon": 0.0}, {"lat": 38.904558333333334, "is_disabled": 0, "type": "electric_scooter", "lon": -77.0294985, "bike_id": "4e8d357be35ae0a24fa66e19a1969d49", "fusion_lat": 0.0, "name": "4e8d357be35ae0a24fa66e19a1969d49", "is_reserved": 0, "rental_uris": {"android": "https://dc.lft.to/lastmile_qr_scan", "ios": "https://dc.lft.to/lastmile_qr_scan"}, "fusion_lon": 0.0}, {"lat": 38.913484833333335, "is_disabled": 0, "type": "electric_scooter", "lon": -77.03191433333333, "bike_id": "596e022c032bd5f09227c49d73740a29", "fusion_lat": 0.0, "name": "596e022c032bd5f09227c49d73740a29", "is_reserved": 0, "rental_uris": {"android": "https://dc.lft.to/lastmile_qr_scan", "ios": "https://dc.lft.to/lastmile_qr_scan"}, "fusion_lon": 0.0}, {"lat": 38.93060966666667, "is_disabled": 0, "type": "electric_scooter", "lon": -77.03156616666666, "bike_id": "a048be0300130199a143e9a4721e484a", "fusion_lat": 0.0, "name": "a048be0300130199a143e9a4721e484a", "is_reserved": 0, "rental_uris": {"android": "https://dc.lft.to/lastmile_qr_scan", "ios": "https://dc.lft.to/lastmile_qr_scan"}, "fusion_lon": 0.0}, {"lat": 38.917008333333335, "is_disabled": 0, "type": "electric_scooter", "lon": -77.00812866666666, "bike_id": "0586b506d1426ed5a1601eaebbaf61f4", "fusion_lat": 0.0, "name": "0586b506d1426ed5a1601eaebbaf61f4", "is_reserved": 0, "rental_uris": {"android": "https://dc.lft.to/lastmile_qr_scan", "ios": "https://dc.lft.to/lastmile_qr_scan"}, "fusion_lon": 0.0}, {"lat": 38.93213183333334, "is_disabled": 0, "type": "electric_scooter", "lon": -77.03663466666667, "bike_id": "201e001adf3219945d1c14586a6ef0ee", "fusion_lat": 0.0, "name": "201e001adf3219945d1c14586a6ef0ee", "is_reserved": 0, "rental_uris": {"android": "https://dc.lft.to/lastmile_qr_scan", "ios": "https://dc.lft.to/lastmile_qr_scan"}, "fusion_lon": 0.0}, {"lat": 38.93631716666667, "is_disabled": 0, "type": "electric_scooter", "lon": -77.05877433333333, "bike_id": "d3702d44c1f7db5ff5bf8a07d326c8af", "fusion_lat": 0.0, "name": "d3702d44c1f7db5ff5bf8a07d326c8af", "is_reserved": 0, "rental_uris": {"android": "https://dc.lft.to/lastmile_qr_scan", "ios": "https://dc.lft.to/lastmile_qr_scan"}, "fusion_lon": 0.0}, {"lat": 38.87632416666667, "is_disabled": 0, "type": "electric_scooter", "lon": -76.96527283333333, "bike_id": "00aa03615d69301485f5627a6215c8c3", "fusion_lat": 0.0, "name": "00aa03615d69301485f5627a6215c8c3", "is_reserved": 0, "rental_uris": {"android": "https://dc.lft.to/lastmile_qr_scan", "ios": "https://dc.lft.to/lastmile_qr_scan"}, "fusion_lon": 0.0}, {"lat": 38.946377, "is_disabled": 0, "type": "electric_scooter", "lon": -77.019425, "bike_id": "2371e98e0d8012a34916b8c3d3a922f4", "fusion_lat": 0.0, "name": "2371e98e0d8012a34916b8c3d3a922f4", "is_reserved": 0, "rental_uris": {"android": "https://dc.lft.to/lastmile_qr_scan", "ios": "https://dc.lft.to/lastmile_qr_scan"}, "fusion_lon": 0.0}, {"lat": 38.9141625, "is_disabled": 0, "type": "electric_scooter", "lon": -77.03173716666667, "bike_id": "73a4ff7f240bbb89de4fa9b86bb503ba", "fusion_lat": 0.0, "name": "73a4ff7f240bbb89de4fa9b86bb503ba", "is_reserved": 0, "rental_uris": {"android": "https://dc.lft.to/lastmile_qr_scan", "ios": "https://dc.lft.to/lastmile_qr_scan"}, "fusion_lon": 0.0}, {"lat": 38.90336116666667, "is_disabled": 0, "type": "electric_scooter", "lon": -77.020605, "bike_id": "a830fca0271bb8efdd91e031c6a2f021", "fusion_lat": 0.0, "name": "a830fca0271bb8efdd91e031c6a2f021", "is_reserved": 0, "rental_uris": {"android": "https://dc.lft.to/lastmile_qr_scan", "ios": "https://dc.lft.to/lastmile_qr_scan"}, "fusion_lon": 0.0}, {"lat": 38.88110533333333, "is_disabled": 0, "type": "electric_scooter", "lon": -77.02644016666666, "bike_id": "635e5c7c86b26aa7b0b838e1111f3f4a", "fusion_lat": 0.0, "name": "635e5c7c86b26aa7b0b838e1111f3f4a", "is_reserved": 0, "rental_uris": {"android": "https://dc.lft.to/lastmile_qr_scan", "ios": "https://dc.lft.to/lastmile_qr_scan"}, "fusion_lon": 0.0}, {"lat": 38.909693, "is_disabled": 0, "type": "electric_scooter", "lon": -76.98474216666666, "bike_id": "6f9e1c3b31b4cf0e61a7a9694ef7bb81", "fusion_lat": 0.0, "name": "6f9e1c3b31b4cf0e61a7a9694ef7bb81", "is_reserved": 0, "rental_uris": {"android": "https://dc.lft.to/lastmile_qr_scan", "ios": "https://dc.lft.to/lastmile_qr_scan"}, "fusion_lon": 0.0}, {"lat": 39.03413666666667, "is_disabled": 0, "type": "electric_bike", "lon": -77.04215483333333, "bike_id": "d825ebf819de9380a13ba36cd98576dd", "fusion_lat": 0.0, "name": "d825ebf819de9380a13ba36cd98576dd", "is_reserved": 0, "rental_uris": {"android": "https://dc.lft.to/lastmile_qr_scan", "ios": "https://dc.lft.to/lastmile_qr_scan"},