{"data": {"bikes": [{"rental_uris": {"ios": "https://dc.lft.to/lastmile_qr_scan", "android": "https://dc.lft.to/lastmile_qr_scan"}, "lon": -77.05355066666667, "type": "electric_scooter", "fusion_lat": 0.0, "lat": 38.92794716666667, "name": "a76927694062ca287765668417340ba3", "fusion_lon": 0.0, "bike_id": "a76927694062ca287765668417340ba3", "is_disabled": 0, "is_reserved": 0}, {"rental_uris": {"ios": "https://dc.lft.to/lastmile_qr_scan", "android": "https://dc.lft.to/lastmile_qr_scan"}, "lon": -77.0237635, "type": "electric_scooter", "fusion_lat": 0.0, "lat": 38.915958, "name": "6e3ad6aca32cf2c2a7cb9037125f1894", "fusion_lon": 0.0, "bike_id": "6e3ad6aca32cf2c2a7cb9037125f1894", "is_disabled": 0, "is_reserved": 0}, {"rental_uris": {"ios": "https://dc.lft.to/lastmile_qr_scan", "android": "https://dc.lft.to/lastmile_qr_scan"}, "lon": -77.052236, "type": "electric_scooter", "fusion_lat": 0.0, "lat": 38.924972333333336, "name": "6827e533570e658c76ce18529d93f92c", "fusion_lon": 0.0, "bike_id": "6827e533570e658c76ce18529d93f92c", "is_disabled": 0, "is_reserved": 0}, {"rental_uris": {"ios": "https://dc.lft.to/lastmile_qr_scan", "android": "https://dc.lft.to/lastmile_qr_scan"}, "lon": -77.02695883333334, "type": "electric_scooter", "fusion_lat": 0.0, "lat": 38.908753833333336, "name": "00674378b6da39abcc5897acaeecd6dd", "fusion_lon": 0.0, "bike_id": "00674378b6da39abcc5897acaeecd6dd", "is_disabled": 0, "is_reserved": 0}, {"rental_uris": {"ios": "https://dc.lft.to/lastmile_qr_scan", "android": "https://dc.lft.to/lastmile_qr_scan"}, "lon": -77.05142716666667, "type": "electric_scooter", "fusion_lat": 0.0, "lat": 38.897688333333335, "name": "4af610a77dd626c605584d909fc9e226", "fusion_lon": 0.0, "bike_id": "4af610a77dd626c605584d909fc9e226", "is_disabled": 0, "is_reserved": 0}, {"rental_uris": {"ios": "https://dc.lft.to/lastmile_qr_scan", "android": "https://dc.lft.to/lastmile_qr_scan"}, "lon": -77.0182535, "type": "electric_scooter", "fusion_lat": 0.0, "lat": 38.8771635, "name": "dea585721c13795c94edefba45ee187f", "fusion_lon": 0.0, "bike_id": "dea585721c13795c94edefba45ee187f", "is_disabled": 0, "is_reserved": 0}, {"rental_uris": {"ios": "https://dc.lft.to/lastmile_qr_scan", "android": "https://dc.lft.to/lastmile_qr_scan"}, "lon": -77.048879, "type": "electric_scooter", "fusion_lat": 0.0, "lat": 38.905924, "name": "58f20442855e16c9b3a1adaed013dad0", "fusion_lon": 0.0, "bike_id": "58f20442855e16c9b3a1adaed013dad0", "is_disabled": 0, "is_reserved": 0}, {"rental_uris": {"ios": "https://dc.lft.to/lastmile_qr_scan", "android": "https://dc.lft.to/lastmile_qr_scan"}, "lon": -77.04252783333334, "type": "electric_scooter", "fusion_lat": 0.0, "lat": 38.92066066666667, "name": "4c77e5af8a0b74fb2a65c67706799fdb", "fusion_lon": 0.0, "bike_id": "4c77e5af8a0b74fb2a65c67706799fdb", "is_disabled": 0, "is_reserved": 0}, {"rental_uris": {"ios": "https://dc.lft.to/lastmile_qr_scan", "android": "https://dc.lft.to/lastmile_qr_scan"}, "lon": -77.00783033333333, "type": "electric_scooter", "fusion_lat": 0.0, "lat": 38.897353333333335, "name": "2a1891d4019b0167ffdd4dc02bb3669b", "fusion_lon": 0.0, "bike_id": "2a1891d4019b0167ffdd4dc02bb3669b", "is_disabled": 0, "is_reserved": 0}, {"rental_uris": {"ios": "https://dc.lft.to/lastmile_qr_scan", "android": "https://dc.lft.to/lastmile_qr_scan"}, "lon": -77.12900916666666, "type": "electric_bike", "fusion_lat": 0.0, "lat": 38.8638015, "name": "d46befdb00afe39127f706d4bbe0aa01", "fusion_lon": 0.0, "bike_id": "d46befdb00afe39127f706d4bbe0aa01", "is_disabled": 0, "is_reserved": 0}, {"rental_uris": {"ios": "https://dc.lft.to/lastmile_qr_scan", "android": "https://dc.lft.to/lastmile_qr_scan"}, "lon": -77.03388416666667, "type": "electric_scooter", "fusion_lat": 0.0, "lat": 38.88656, "name": "c7702905e4cb8d6e8fa010660bc3f3aa", "fusion_lon": 0.0, "bike_id": "c7702905e4cb8d6e8fa010660bc3f3aa", "is_disabled": 0, "is_reserved": 0}, {"rental_uris": {"ios": "https://dc.lft.to/lastmile_qr_scan", "android": "https://dc.lft.to/lastmile_qr_scan"}, "lon": -77.0208375, "type": "electric_scooter", "fusion_lat": 0.0, "lat": 38.881805666666665, "name": "473df03b0368aad25e37b0a402e14d97", "fusion_lon": 0.0, "bike_id": "473df03b0368aad25e37b0a402e14d97", "is_disabled": 0, "is_reserved": 0}, {"rental_uris": {"ios": "https://dc.lft.to/lastmile_qr_scan", "android": "https://dc.lft.to/lastmile_qr_scan"}, "lon": -77.021216, "type": "electric_scooter", "fusion_lat": 0.0, "lat": 38.89482233333333, "name": "a44386a1bba4787e5c20be30651128e5", "fusion_lon": 0.0, "bike_id": "a44386a1bba4787e5c20be30651128e5", "is_disabled": 0, "is_reserved": 0}, {"rental_uris": {"ios": "https://dc.lft.to/lastmile_qr_scan", "android": "https://dc.lft.to/lastmile_qr_scan"}, "lon": -77.0529495, "type": "electric_scooter", "fusion_lat": 0.0, "lat": 38.9279305, "name": "0f8f551e62f00bed5dde63567e53880b", "fusion_lon": 0.0, "bike_id": "0f8f551e62f00bed5dde63567e53880b", "is_disabled": 0, "is_reserved": 0}, {"rental_uris": {"ios": "https://dc.lft.to/lastmile_qr_scan", "android": "https://dc.lft.to/lastmile_qr_scan"}, "lon": -77.02601516666667, "type": "electric_scooter", "fusion_lat": 0.0, "lat": 38.975895, "name": "63adb81337e7dabe00abfb02353d109e", "fusion_lon": 0.0, "bike_id": "63adb81337e7dabe00abfb02353d109e", "is_disabled": 0, "is_reserved": 0}, {"rental_uris": {"ios": "https://dc.lft.to/lastmile_qr_scan", "android": "https://dc.lft.to/lastmile_qr_scan"}, "lon": -77.026914, "type": "electric_scooter", "fusion_lat": 0.0, "lat": 38.906373333333335, "name": "e0c23c891b4e9c1dfdfc5357dbc2e0f2", "fusion_lon": 0.0, "bike_id": "e0c23c891b4e9c1dfdfc5357dbc2e0f2", "is_disabled": 0, "is_reserved": 0}, {"rental_uris": {"ios": "https://dc.lft.to/lastmile_qr_scan", "android": "https://dc.lft.to/lastmile_qr_scan"}, "lon": -77.03427416666666, "type": "electric_scooter", "fusion_lat": 0.0, "lat": 38.919201, "name": "5562b7e42c29003ead7cc362f95d765b", "fusion_lon": 0.0, "bike_id": "5562b7e42c29003ead7cc362f95d765b", "is_disabled": 0, "is_reserved": 0}, {"rental_uris": {"ios": "https://dc.lft.to/lastmile_qr_scan", "android": "https://dc.lft.to/lastmile_qr_scan"}, "lon": -77.02153516666667, "type": "electric_scooter", "fusion_lat": 0.0, "lat": 38.928301, "name": "776f90db52e5bc57526f7d3f180e1ec9", "fusion_lon": 0.0, "bike_id": "776f90db52e5bc57526f7d3f180e1ec9", "is_disabled": 0, "is_reserved": 0}, {"rental_uris": {"ios": "https://dc.lft.to/lastmile_qr_scan", "android": "https://dc.lft.to/lastmile_qr_scan"}, "lon": -77.02487816666667, "type": "electric_scooter", "fusion_lat": 0.0, "lat": 38.89739683333333, "name": "230f5837370336554be8829788d5d074", "fusion_lon": 0.0, "bike_id": "230f5837370336554be8829788d5d074", "is_disabled": 0, "is_reserved": 0}, {"rental_uris": {"ios": "https://dc.lft.to/lastmile_qr_scan", "android": "https://dc.lft.to/lastmile_qr_scan"}, "lon": -76.94722766666666, "type": "electric_scooter", "fusion_lat": 0.0, "lat": 38.8967705, "name": "24656367fb22cb793e16977e961bbc2e", "fusion_lon": 0.0, "bike_id": "24656367fb22cb793e16977e961bbc2e", "is_disabled": 0, "is_reserved": 0}, {"rental_uris": {"ios": "https://dc.lft.to/lastmile_qr_scan", "android": "https://dc.lft.to/lastmile_qr_scan"}, "lon": -76.99860866666667, "type": "electric_scooter", "fusion_lat": 0.0, "lat": 38.900444, "name": "869b0b330e9e7d40b962dc75cde5c5dd", "fusion_lon": 0.0, "bike_id": "869b0b330e9e7d40b962dc75cde5c5dd", "is_disabled": 0, "is_reserved": 0}, {"rental_uris": {"ios": "https://dc.lft.to/lastmile_qr_scan", "android": "https://dc.lft.to/lastmile_qr_scan"}, "lon": -76.988524, "type": "electric_scooter", "fusion_lat": 0.0, "lat": 38.903450666666664, "name": "db655fb9adc4bbcbd25fe0e960ab1afe", "fusion_lon": 0.0, "bike_id": "db655fb9adc4bbcbd25fe0e960ab1afe", "is_disabled": 0, "is_reserved": 0}, {"rental_uris": {"ios": "https://dc.lft.to/lastmile_qr_scan", "android": "https://dc.lft.to/lastmile_qr_scan"}, "lon": -77.02780883333334, "type": "electric_scooter", "fusion_lat": 0.0, "lat": 38.92377533333333, "name": "9590a25f6ffc193ff60a861cd36729c7", "fusion_lon": 0.0, "bike_id": "9590a25f6ffc193ff60a861cd36729c7", "is_disabled": 0, "is_reserved": 0}, {"rental_uris": {"ios": "https://dc.lft.to/lastmile_qr_scan", "android": "https://dc.lft.to/lastmile_qr_scan"}, "lon": -77.0250895, "type": "electric_scooter", "fusion_lat": 0.0, "lat": 38.90426716666666, "name": "95b94e9a4172b50c09944bb97e9f9394", "fusion_lon": 0.0, "bike_id": "95b94e9a4172b50c09944bb97e9f9394", "is_disabled": 0, "is_reserved": 0}, {"rental_uris": {"ios": "https://dc.lft.to/lastmile_qr_scan", "android": "https://dc.lft.to/lastmile_qr_scan"}, "lon": -77.04710366666667, "type": "electric_scooter", "fusion_lat": 0.0, "lat": 38.90964566666667, "name": "fcb9770d898c747f29a19d42294721d4", "fusion_lon": 0.0, "bike_id": "fcb9770d898c747f29a19d42294721d4", "is_disabled": 0, "is_reserved": 0}, {"rental_uris": {"ios": "https://dc.lft.to/lastmile_qr_scan", "android": "https://dc.lft.to/lastmile_qr_scan"}, "lon": -77.03655216666667, "type": "electric_scooter", "fusion_lat": 0.0, "lat": 38.9308225, "name": "26ecf3ddadeef0d57150790667d22c10", "fusion_lon": 0.0, "bike_id": "26ecf3ddadeef0d57150790667d22c10", "is_disabled": 0, "is_reserved": 0}, {"rental_uris": {"ios": "https://dc.lft.to/lastmile_qr_scan", "android": "https://dc.lft.to/lastmile_qr_scan"}, "lon": -77.03836683333333, "type": "electric_scooter", "fusion_lat": 0.0, "lat": 38.903849, "name": "4f855cd255117fae191c1f42711878a8", "fusion_lon": 0.0, "bike_id": "4f855cd255117fae191c1f42711878a8", "is_disabled": 0, "is_reserved": 0}, {"rental_uris": {"ios": "https://dc.lft.to/lastmile_qr_scan", "android": "https://dc.lft.to/lastmile_qr_scan"}, "lon": -77.04119566666667, "type": "electric_scooter", "fusion_lat": 0.0, "lat": 38.90366783333333, "name": "84625513f42688c6f2223c09a0e82d37", "fusion_lon": 0.0, "bike_id": "84625513f42688c6f2223c09a0e82d37", "is_disabled": 0, "is_reserved": 0}, {"rental_uris": {"ios": "https://dc.lft.to/lastmile_qr_scan", "android": "https://dc.lft.to/lastmile_qr_scan"}, "lon": -77.022065, "type": "electric_scooter", "fusion_lat": 0.0, "lat": 38.915415, "name": "216ca4b5ac0ebed0747de7bf3388bbfd", "fusion_lon": 0.0, "bike_id": "216ca4b5ac0ebed0747de7bf3388bbfd", "is_disabled": 0, "is_reserved": 0}, {"rental_uris": {"ios": "https://dc.lft.to/lastmile_qr_scan", "android": "https://dc.lft.to/lastmile_qr_scan"}, "lon": -77.03315783333333, "type": "electric_scooter", "fusion_lat": 0.0, "lat": 38.9013645, "name": "68604a33b492e6d07598495a04301134", "fusion_lon": 0.0, "bike_id": "68604a33b492e6d07598495a04301134", "is_disabled": 0, "is_reserved": 0}, {"rental_uris": {"ios": "https://dc.lft.to/lastmile_qr_scan", "android": "https://dc.lft.to/lastmile_qr_scan"}, "lon": -77.0634065, "type": "electric_scooter", "fusion_lat": 0.0, "lat": 38.94456733333333, "name": "caacf98f2067eaaf63a451cb7a140aec", "fusion_lon": 0.0, "bike_id": "caacf98f2067eaaf63a451cb7a140aec", "is_disabled": 0, "is_reserved": 0}, {"rental_uris": {"ios": "https://dc.lft.to/lastmile_qr_scan", "android": "https://dc.lft.to/lastmile_qr_scan"}, "lon": -77.0280705, "type": "electric_scooter", "fusion_lat": 0.0, "lat": 38.93083583333333, "name": "31110a345ea0e3b46c9153cc73f7edcb", "fusion_lon": 0.0, "bike_id": "31110a345ea0e3b46c9153cc73f7edcb", "is_disabled": 0, "is_reserved": 0}, {"rental_uris": {"ios": "https://dc.lft.to/lastmile_qr_scan", "android": "https://dc.lft.to/lastmile_qr_scan"}, "lon": -76.961774, "type": "electric_bike", "fusion_lat": 0.0, "lat": 38.91866816666667, "name": "ebeaaddc425e74fc8d715c88b8f3955e", "fusion_lon": 0.0, "bike_id": "ebeaaddc425e74fc8d715c88b8f3955e", "is_disabled": 0, "is_reserved": 0}, {"rental_uris": {"ios": "https://dc.lft.to/lastmile_qr_scan", "android": "https://dc.lft.to/lastmile_qr_scan"}, "lon": -77.03440733333333, "type": "electric_scooter", "fusion_lat": 0.0, "lat": 38.907358, "name": "a26294b8ebe3d2fd1401cdb899d64407", "fusion_lon": 0.0, "bike_id": "a26294b8ebe3d2fd1401cdb899d64407", "is_disabled": 0, "is_reserved": 0}, {"rental_uris": {"ios": "https://dc.lft.to/lastmile_qr_scan", "android": "https://dc.lft.to/lastmile_qr_scan"}, "lon": -77.09162133333334, "type": "electric_bike", "fusion_lat": 0.0, "lat": 38.967637333333336, "name": "b440b88b74e896b826b09f3a027cb2a3", "fusion_lon": 0.0, "bike_id": "b440b88b74e896b826b09f3a027cb2a3", "is_disabled": 0, "is_reserved": 0}, {"rental_uris": {"ios": "https://dc.lft.to/lastmile_qr_scan", "android": "https://dc.lft.to/lastmile_qr_scan"}, "lon": -77.0377725, "type": "electric_scooter", "fusion_lat": 0.0, "lat": 38.936089333333335, "name": "9195c3e53cbc2066d5d99d7d17d2ee86", "fusion_lon": 0.0, "bike_id": "9195c3e53cbc2066d5d99d7d17d2ee86", "is_disabled": 0, "is_reserved": 0}, {"rental_uris": {"ios": "https://dc.lft.to/lastmile_qr_scan", "android": "https://dc.lft.to/lastmile_qr_scan"}, "lon": -77.04408016666666, "type": "electric_scooter", "fusion_lat": 0.0, "lat": 38.87429983333333, "name": "9bda07e14edbb16077e329a3da74bcbd", "fusion_lon": 0.0, "bike_id": "9bda07e14edbb16077e329a3da74bcbd", "is_disabled": 0, "is_reserved": 0}, {"rental_uris": {"ios": "https://dc.lft.to/lastmile_qr_scan", "android": "https://dc.lft.to/lastmile_qr_scan"}, "lon": -77.02325716666667, "type": "electric_scooter", "fusion_lat": 0.0, "lat": 38.88343716666667, "name": "220326fc24ed0ed00a161a79966f6c2c", "fusion_lon": 0.0, "bike_id": "220326fc24ed0ed00a161a79966f6c2c", "is_disabled": 0, "is_reserved": 0}, {"rental_uris": {"ios": "https://dc.lft.to/lastmile_qr_scan", "android": "https://dc.lft.to/lastmile_qr_scan"}, "lon": -77.03962216666666, "type": "electric_scooter", "fusion_lat": 0.0, "lat": 38.9027375, "name": "6e6602363c150cc5b29b1de964d1b3fe", "fusion_lon": 0.0, "bike_id": "6e6602363c150cc5b29b1de964d1b3fe", "is_disabled": 0, "is_reserved": 0}, {"rental_uris": {"ios": "https://dc.lft.to/lastmile_qr_scan", "android": "https://dc.lft.to/lastmile_qr_scan"}, "lon": -77.03454683333334, "type": "electric_scooter", "fusion_lat": 0.0, "lat": 38.921636666666664, "name": "46fee0311ea39bddc09c30281a983a72", "fusion_lon": 0.0, "bike_id": "46fee0311ea39bddc09c30281a983a72", "is_disabled": 0, "is_reserved": 0}, {"rental_uris": {"ios": "https://dc.lft.to/lastmile_qr_scan", "android": "https://dc.lft.to/lastmile_qr_scan"}, "lon": -77.0415485, "type": "electric_scooter", "fusion_lat": 0.0, "lat": 38.918516833333335, "name": "f7c6f84b64ad6432d1b3769bfa4808b0", "fusion_lon": 0.0, "bike_id": "f7c6f84b64ad6432d1b3769bfa4808b0", "is_disabled": 0, "is_reserved": 0}, {"rental_uris": {"ios": "https://dc.lft.to/lastmile_qr_scan", "android": "https://dc.lft.to/lastmile_qr_scan"}, "lon": -77.04692433333334, "type": "electric_scooter", "fusion_lat": 0.0, "lat": 38.920976, "name": "4b25dd3e55b0533d6d22754ae5b4f7b1", "fusion_lon": 0.0, "bike_id": "4b25dd3e55b0533d6d22754ae5b4f7b1", "is_disabled": 0, "is_reserved": 0}, {"rental_uris": {"ios": "https://dc.lft.to/lastmile_qr_scan", "android": "https://dc.lft.to/lastmile_qr_scan"}, "lon": -77.03228333333334, "type": "electric_scooter", "fusion_lat": 0.0, "lat": 38.89645816666667, "name": "04e417b46dc6849b5fa74d22817b1cdc", "fusion_lon": 0.0, "bike_id": "04e417b46dc6849b5fa74d22817b1cdc", "is_disabled": 0, "is_reserved": 0}, {"rental_uris": {"ios": "https://dc.lft.to/lastmile_qr_scan", "android": "https://dc.lft.to/lastmile_qr_scan"}, "lon": -77.055953, "type": "electric_scooter", "fusion_lat": 0.0, "lat": 38.9369875, "name": "ba6d221467be6a7a49e97b1b10c1f84c", "fusion_lon": 0.0, "bike_id": "ba6d221467be6a7a49e97b1b10c1f84c", "is_disabled": 0, "is_reserved": 0}, {"rental_uris": {"ios": "https://dc.lft.to/lastmile_qr_scan", "android": "https://dc.lft.to/lastmile_qr_scan"}, "lon": -77.02883266666667, "type": "electric_scooter", "fusion_lat": 0.0, "lat": 38.90466966666666, "name": "804bba30338299e2093204ddba6bf959", "fusion_lon": 0.0, "bike_id": "804bba30338299e2093204ddba6bf959", "is_disabled": 0, "is_reserved": 0}, {"rental_uris": {"ios": "https://dc.lft.to/lastmile_qr_scan", "android": "https://dc.lft.to/lastmile_qr_scan"}, "lon": -77.03926433333334, "type": "electric_scooter", "fusion_lat": 0.0, "lat": 38.91766466666667, "name": "313bb53e903894678be46ae9f38d62cc", "fusion_lon": 0.0, "bike_id": "313bb53e903894678be46ae9f38d62cc", "is_disabled": 0, "is_reserved": 0}, {"rental_uris": {"ios": "https://dc.lft.to/lastmile_qr_scan", "android": "https://dc.lft.to/lastmile_qr_scan"}, "lon": -77.01586966666666, "type": "electric_scooter", "fusion_lat": 0.0, "lat": 38.95711433333334, "name": "de689e73b3ac111bf0d3463f12042907", "fusion_lon": 0.0, "bike_id": "de689e73b3ac111bf0d3463f12042907", "is_disabled": 0, "is_reserved": 0}, {"rental_uris": {"ios": "https://dc.lft.to/lastmile_qr_scan", "android": "https://dc.lft.to/lastmile_qr_scan"}, "lon": -77.036659, "type": "electric_scooter", "fusion_lat": 0.0, "lat": 38.91722933333333, "name": "e7a9169b451ff9e5b33dc9c5a2da5d2c", "fusion_lon": 0.0, "bike_id": "e7a9169b451ff9e5b33dc9c5a2da5d2c", "is_disabled": 0, "is_reserved": 0}, {"rental_uris": {"ios": "https://dc.lft.to/lastmile_qr_scan", "android": "https://dc.lft.to/lastmile_qr_scan"}, "lon": -77.04269666666667, "type": "electric_scooter", "fusion_lat": 0.0, "lat": 38.922403833333334, "name": "78f6a585b8fccd89a6cd5362c1afabbe", "fusion_lon": 0.0, "bike_id": "78f6a585b8fccd89a6cd5362c1afabbe", "is_disabled": 0, "is_reserved": 0}, {"rental_uris": {"ios": "https://dc.lft.to/lastmile_qr_scan", "android": "https://dc.lft.to/lastmile_qr_scan"}, "lon": -77.04352233333333, "type": "electric_scooter", "fusion_lat": 0.0, "lat": 38.93155633333333, "name": "4f57ed477650238a1746f7918e3ab04c", "fusion_lon": 0.0, "bike_id": "4f57ed477650238a1746f7918e3ab04c", "is_disabled": 0, "is_reserved": 0}, {"rental_uris": {"ios": "https://dc.lft.to/lastmile_qr_scan", "android": "https://dc.lft.to/lastmile_qr_scan"}, "lon": -77.038358, "type": "electric_scooter", "fusion_lat": 0.0, "lat": 38.902605333333334, "name": "8cce0201bdb436738639b99e74076d4a", "fusion_lon": 0.0, "bike_id": "8cce0201bdb436738639b99e74076d4a", "is_disabled": 0, "is_reserved": 0}, {"rental_uris": {"ios": "https://dc.lft.to/lastmile_qr_scan", "android": "https://dc.lft.to/lastmile_qr_scan"}, "lon": -77.09221783333334, "type": "electric_scooter", "fusion_lat": 0.0, "lat": 38.916994833333334, "name": "6b2bf13608d36231526368dd7bf4f738", "fusion_lon": 0.0, "bike_id": "6b2bf13608d36231526368dd7bf4f738", "is_disabled": 0, "is_reserved": 0}, {"rental_uris": {"ios": "https://dc.lft.to/lastmile_qr_scan", "android": "https://dc.lft.to/lastmile_qr_scan"}, "lon": -77.02834383333334, "type": "electric_scooter", "fusion_lat": 0.0, "lat": 38.88771066666666, "name": "77eec3475f1a97bbc3da16f878be488e", "fusion_lon": 0.0, "bike_id": "77eec3475f1a97bbc3da16f878be488e", "is_disabled": 0, "is_reserved": 0}, {"rental_uris": {"ios": "https://dc.lft.to/lastmile_qr_scan", "android": "https://dc.lft.to/lastmile_qr_scan"}, "lon": -77.03256933333333, "type": "electric_scooter", "fusion_lat": 0.0, "lat": 38.93279, "name": "ff5ecc5e5e3e407fddc6fed8af191a52", "fusion_lon": 0.0, "bike_id": "ff5ecc5e5e3e407fddc6fed8af191a52", "is_disabled": 0, "is_reserved": 0}, {"rental_uris": {"ios": "https://dc.lft.to/lastmile_qr_scan", "android": "https://dc.lft.to/lastmile_qr_scan"}, "lon": -77.014403, "type": "electric_scooter", "fusion_lat": 0.0, "lat": 38.929901666666666, "name": "b9640b86a8543ff3a521d38ea7f51bed", "fusion_lon": 0.0, "bike_id": "b9640b86a8543ff3a521d38ea7f51bed", "is_disabled": 0, "is_reserved": 0}, {"rental_uris": {"ios": "https://dc.lft.to/lastmile_qr_scan", "android": "https://dc.lft.to/lastmile_qr_scan"}, "lon": -77.03267466666667, "type": "electric_scooter", "fusion_lat": 0.0, "lat": 38.938249, "name": "596c376c87224f28456ff2674e2ebf5a", "fusion_lon": 0.0, "bike_id": "596c376c87224f28456ff2674e2ebf5a", "is_disabled": 0, "is_reserved": 0}, {"rental_uris": {"ios": "https://dc.lft.to/lastmile_qr_scan", "android": "https://dc.lft.to/lastmile_qr_scan"}, "lon": -77.03446766666667, "type": "electric_scooter", "fusion_lat": 0.0, "lat": 38.918403, "name": "86a68b284fdc1964fcdc717e18f6f9b6", "fusion_lon": 0.0, "bike_id": "86a68b284fdc1964fcdc717e18f6f9b6", "is_disabled": 0, "is_reserved": 0}, {"rental_uris": {"ios": "https://dc.lft.to/lastmile_qr_scan", "android": "https://dc.lft.to/lastmile_qr_scan"}, "lon": -77.00499966666666, "type": "electric_scooter", "fusion_lat": 0.0, "lat": 38.878958, "name": "38a3c07016dd5f9b802bcb9913fbd12a", "fusion_lon": 0.0, "bike_id": "38a3c07016dd5f9b802bcb9913fbd12a", "is_disabled": 0, "is_reserved": 0}, {"rental_uris": {"ios": "https://dc.lft.to/lastmile_qr_scan", "android": "https://dc.lft.to/lastmile_qr_scan"}, "lon": -76.93567316666666, "type": "electric_bike", "fusion_lat": 0.0, "lat": 38.88528566666667, "name": "a2cd722fcc8ba0d7203349e3a5b2a494", "fusion_lon": 0.0, "bike_id": "a2cd722fcc8ba0d7203349e3a5b2a494", "is_disabled": 0, "is_reserved": 0}, {"rental_uris": {"ios": "https://dc.lft.to/lastmile_qr_scan", "android": "https://dc.lft.to/lastmile_qr_scan"}, "lon": -77.02567166666667, "type": "electric_scooter", "fusion_lat": 0.0, "lat": 38.887503333333335, "name": "643724fa55485cf75183e507e8ee1a5a", "fusion_lon": 0.0, "bike_id": "643724fa55485cf75183e507e8ee1a5a", "is_disabled": 0, "is_reserved": 0}, {"rental_uris": {"ios": "https://dc.lft.to/lastmile_qr_scan", "android": "https://dc.lft.to/lastmile_qr_scan"}, "lon": -77.04112766666667, "type": "electric_scooter", "fusion_lat": 0.0, "lat": 38.92375, "name": "8c3e537e69496b5f09038ce168ea7031", "fusion_lon": 0.0, "bike_id": "8c3e537e69496b5f09038ce168ea7031", "is_disabled": 0, "is_reserved": 0}, {"rental_uris": {"ios": "https://dc.lft.to/lastmile_qr_scan", "android": "https://dc.lft.to/lastmile_qr_scan"}, "lon": -77.032046, "type": "electric_scooter", "fusion_lat": 0.0, "lat": 38.92583483333333, "name": "ead6fecf5f0d16bb931753f545066760", "fusion_lon": 0.0, "bike_id": "ead6fecf5f0d16bb931753f545066760", "is_disabled": 0, "is_reserved": 0}, {"rental_uris": {"ios": "https://dc.lft.to/lastmile_qr_scan", "android": "https://dc.lft.to/lastmile_qr_scan"}, "lon": -76.94970833333333, "type": "electric_scooter", "fusion_lat": 0.0, "lat": 38.8936675, "name": "cc8927b8efb1399560ca00afdd5da914", "fusion_lon": 0.0, "bike_id": "cc8927b8efb1399560ca00afdd5da914", "is_disabled": 0, "is_reserved": 0}, {"rental_uris": {"ios": "https://dc.lft.to/lastmile_qr_scan", "android": "https://dc.lft.to/lastmile_qr_scan"}, "lon": -77.03743283333333, "type": "electric_scooter", "fusion_lat": 0.0, "lat": 38.91491166666667, "name": "dd6dff6bbbc61732a60bec00998fda8c", "fusion_lon": 0.0, "bike_id": "dd6dff6bbbc61732a60bec00998fda8c", "is_disabled": 0, "is_reserved": 0}, {"rental_uris": {"ios": "https://dc.lft.to/lastmile_qr_scan", "android": "https://dc.lft.to/lastmile_qr_scan"}, "lon": -77.04152, "type": "electric_scooter", "fusion_lat": 0.0, "lat": 38.9178725, "name": "8473201483920dc4c20872676fa41216", "fusion_lon": 0.0, "bike_id": "8473201483920dc4c20872676fa41216", "is_disabled": 0, "is_reserved": 0}, {"rental_uris": {"ios": "https://dc.lft.to/lastmile_qr_scan", "android": "https://dc.lft.to/lastmile_qr_scan"}, "lon": -76.98020466666667, "type": "electric_scooter", "fusion_lat": 0.0, "lat": 38.90381083333333, "name": "26b3b6e490c47a318da76767581e1a2f", "fusion_lon": 0.0, "bike_id": "26b3b6e490c47a318da76767581e1a2f", "is_disabled": 0, "is_reserved": 0}, {"rental_uris": {"ios": "https://dc.lft.to/lastmile_qr_scan", "android": "https://dc.lft.to/lastmile_qr_scan"}, "lon": -77.01075633333333, "type": "electric_bike", "fusion_lat": 0.0, "lat": 38.962615, "name": "68395b736493666769e62dcf27885b3a", "fusion_lon": 0.0, "bike_id": "68395b736493666769e62dcf27885b3a", "is_disabled": 0, "is_reserved": 0}, {"rental_uris": {"ios": "https://dc.lft.to/lastmile_qr_scan", "android": "https://dc.lft.to/lastmile_qr_scan"}, "lon": -77.07563166666667, "type": "electric_scooter", "fusion_lat": 0.0, "lat": 38.920948333333335, "name": "a5450f10a86bf781bbd9497cdbf963cb", "fusion_lon": 0.0, "bike_id": "a5450f10a86bf781bbd9497cdbf963cb", "is_disabled": 0, "is_reserved": 0}, {"rental_uris": {"ios": "https://dc.lft.to/lastmile_qr_scan", "android": "https://dc.lft.to/lastmile_qr_scan"}, "lon": -77.010963, "type": "electric_scooter", "fusion_lat": 0.0, "lat": 38.894746833333336, "name": "1b5abc1c7bce4581caedfa17e446f7ea", "fusion_lon": 0.0, "bike_id": "1b5abc1c7bce4581caedfa17e446f7ea", "is_disabled": 0, "is_reserved": 0}, {"rental_uris": {"ios": "https://dc.lft.to/lastmile_qr_scan", "android": "https://dc.lft.to/lastmile_qr_scan"}, "lon": -76.99965666666667, "type": "electric_scooter", "fusion_lat": 0.0, "lat": 38.908441, "name": "e7870d0afa02111c857180261aa27e33", "fusion_lon": 0.0, "bike_id": "e7870d0afa02111c857180261aa27e33", "is_disabled": 0, "is_reserved": 0}, {"rental_uris": {"ios": "https://dc.lft.to/lastmile_qr_scan", "android": "https://dc.lft.to/lastmile_qr_scan"}, "lon": -77.042202, "type": "electric_scooter", "fusion_lat": 0.0, "lat": 38.91118983333333, "name": "c366ca81d1dbba993a551acc65d0d973", "fusion_lon": 0.0, "bike_id": "c366ca81d1dbba993a551acc65d0d973", "is_disabled": 0, "is_reserved": 0}, {"rental_uris": {"ios": "https://dc.lft.to/lastmile_qr_scan", "android": "https://dc.lft.to/lastmile_qr_scan"}, "lon": -77.03795483333333, "type": "electric_bike", "fusion_lat": 0.0, "lat": 38.93072566666667, "name": "3beece9874f005639488ce249886071c", "fusion_lon": 0.0, "bike_id": "3beece9874f005639488ce249886071c", "is_disabled": 0, "is_reserved": 0}, {"rental_uris": {"ios": "https://dc.lft.to/lastmile_qr_scan", "android": "https://dc.lft.to/lastmile_qr_scan"}, "lon": -77.03000616666667, "type": "electric_scooter", "fusion_lat": 0.0, "lat": 38.934559166666666, "name": "d400a52fcace7e22430ea30316299858", "fusion_lon": 0.0, "bike_id": "d400a52fcace7e22430ea30316299858", "is_disabled": 0, "is_reserved": 0}, {"rental_uris": {"ios": "https://dc.lft.to/lastmile_qr_scan", "android": "https://dc.lft.to/lastmile_qr_scan"}, "lon": -77.01409883333334, "type": "electric_scooter", "fusion_lat": 0.0, "lat": 38.9169525, "name": "df870187f04295dbb21878a9db563544", "fusion_lon": 0.0, "bike_id": "df870187f04295dbb21878a9db563544", "is_disabled": 0, "is_reserved": 0}, {"rental_uris": {"ios": "https://dc.lft.to/lastmile_qr_scan", "android": "https://dc.lft.to/lastmile_qr_scan"}, "lon": -77.01802466666666, "type": "electric_scooter", "fusion_lat": 0.0, "lat": 38.942038833333335, "name": "05e96c4260016a97cfb69008513de6f8", "fusion_lon": 0.0, "bike_id": "05e96c4260016a97cfb69008513de6f8", "is_disabled": 0, "is_reserved": 0}, {"rental_uris": {"ios": "https://dc.lft.to/lastmile_qr_scan", "android": "https://dc.lft.to/lastmile_qr_scan"}, "lon": -76.99840233333333, "type": "electric_bike", "fusion_lat": 0.0, "lat": 38.839153333333336, "name": "3d15622a17664b9feed45450edf48266", "fusion_lon": 0.0, "bike_id": "3d15622a17664b9feed45450edf48266", "is_disabled": 0, "is_reserved": 0}, {"rental_uris": {"ios": "https://dc.lft.to/lastmile_qr_scan", "android": "https://dc.lft.to/lastmile_qr_scan"}, "lon": -77.036256, "type": "electric_scooter", "fusion_lat": 0.0, "lat": 38.91318533333333, "name": "58af3b74581eb98c62216fc3273ba37e", "fusion_lon": 0.0, "bike_id": "58af3b74581eb98c62216fc3273ba37e", "is_disabled": 0, "is_reserved": 0}, {"rental_uris": {"ios": "https://dc.lft.to/lastmile_qr_scan", "android": "https://dc.lft.to/lastmile_qr_scan"}, "lon": -77.01357216666666, "type": "electric_scooter", "fusion_lat": 0.0, "lat": 38.952895, "name": "a1c68605d0086b5bc457eb6319f76c4e", "fusion_lon": 0.0, "bike_id": "a1c68605d0086b5bc457eb6319f76c4e", "is_disabled": 0, "is_reserved": 0}, {"rental_uris": {"ios": "https://dc.lft.to/lastmile_qr_scan", "android": "https://dc.lft.to/lastmile_qr_scan"}, "lon": -77.02421166666667, "type": "electric_scooter", "fusion_lat": 0.0, "lat": 38.892211833333334, "name": "ca7f3f208005b09cadc0b4487ee4a074", "fusion_lon": 0.0, "bike_id": "ca7f3f208005b09cadc0b4487ee4a074", "is_disabled": 0, "is_reserved": 0}, {"rental_uris": {"ios": "https://dc.lft.to/lastmile_qr_scan", "android": "https://dc.lft.to/lastmile_qr_scan"}, "lon": -76.98345433333333, "type": "electric_scooter", "fusion_lat": 0.0, "lat": 38.91542416666667, "name": "99facf2b3a16f642b40b23f8ff3ffaba", "fusion_lon": 0.0, "bike_id": "99facf2b3a16f642b40b23f8ff3ffaba", "is_disabled": 0, "is_reserved": 0}, {"rental_uris": {"ios": "https://dc.lft.to/lastmile_qr_scan", "android": "https://dc.lft.to/lastmile_qr_scan"}, "lon": -77.00957683333333, "type": "electric_scooter", "fusion_lat": 0.0, "lat": 38.90731516666666, "name": "b6e992633fac9392e00710df6fe2603e", "fusion_lon": 0.0, "bike_id": "b6e992633fac9392e00710df6fe2603e", "is_disabled": 0, "is_reserved": 0}, {"rental_uris": {"ios": "https://dc.lft.to/lastmile_qr_scan", "android": "https://dc.lft.to/lastmile_qr_scan"}, "lon": -77.01224783333333, "type": "electric_scooter", "fusion_lat": 0.0, "lat": 38.864177833333336, "name": "216114bb241064538c968ac1eb5c1b82", "fusion_lon": 0.0, "bike_id": "216114bb241064538c968ac1eb5c1b82", "is_disabled": 0, "is_reserved": 0}, {"rental_uris": {"ios": "https://dc.lft.to/lastmile_qr_scan", "android": "https://dc.lft.to/lastmile_qr_scan"}, "lon": -76.93346783333334, "type": "electric_scooter", "fusion_lat": 0.0, "lat": 38.8990915, "name": "a85531e6ab001197431b70c33215783a", "fusion_lon": 0.0, "bike_id": "a85531e6ab001197431b70c33215783a", "is_disabled": 0, "is_reserved": 0}, {"rental_uris": {"ios": "https://dc.lft.to/lastmile_qr_scan", "android": "https://dc.lft.to/lastmile_qr_scan"}, "lon": -77.0409, "type": "electric_scooter", "fusion_lat": 0.0, "lat": 38.907263, "name": "42eaccb1994a2339e523f4447924f644", "fusion_lon": 0.0, "bike_id": "42eaccb1994a2339e523f4447924f644", "is_disabled": 0, "is_reserved": 0}, {"rental_uris": {"ios": "https://dc.lft.to/lastmile_qr_scan", "android": "https://dc.lft.to/lastmile_qr_scan"}, "lon": -77.02557733333333, "type": "electric_scooter", "fusion_lat": 0.0, "lat": 38.89504216666667, "name": "24600324df1f963b7e36d926640f251c", "fusion_lon": 0.0, "bike_id": "24600324df1f963b7e36d926640f251c", "is_disabled": 0, "is_reserved": 0}, {"rental_uris": {"ios": "https://dc.lft.to/lastmile_qr_scan", "android": "https://dc.lft.to/lastmile_qr_scan"}, "lon": -77.04424566666667, "type": "electric_scooter", "fusion_lat": 0.0, "lat": 38.9260695, "name": "dea0d814b7c7917aa74b73321feae1e9", "fusion_lon": 0.0, "bike_id": "dea0d814b7c7917aa74b73321feae1e9", "is_disabled": 0, "is_reserved": 0}, {"rental_uris": {"ios": "https://dc.lft.to/lastmile_qr_scan", "android": "https://dc.lft.to/lastmile_qr_scan"}, "lon": -77.02312116666667, "type": "electric_scooter", "fusion_lat": 0.0, "lat": 38.929506333333336, "name": "c32813adcc6e84940d49afa31bf75a2d", "fusion_lon": 0.0, "bike_id": "c32813adcc6e84940d49afa31bf75a2d", "is_disabled": 0, "is_reserved": 0}, {"rental_uris": {"ios": "https://dc.lft.to/lastmile_qr_scan", "android": "https://dc.lft.to/lastmile_qr_scan"}, "lon": -77.03077383333333, "type": "electric_scooter", "fusion_lat": 0.0, "lat": 38.909862833333335, "name": "0b4d454de15473d1e1bcd6f22266ff9c", "fusion_lon": 0.0, "bike_id": "0b4d454de15473d1e1bcd6f22266ff9c", "is_disabled": 0, "is_reserved": 0}, {"rental_uris": {"ios": "https://dc.lft.to/lastmile_qr_scan", "android": "https://dc.lft.to/lastmile_qr_scan"}, "lon": -77.01514766666666, "type": "electric_scooter", "fusion_lat": 0.0, "lat": 38.887364833333336, "name": "aa58d10982a31b80435882798d7c8f9e", "fusion_lon": 0.0, "bike_id": "aa58d10982a31b80435882798d7c8f9e", "is_disabled": 0, "is_reserved": 0}, {"rental_uris": {"ios": "https://dc.lft.to/lastmile_qr_scan", "android": "https://dc.lft.to/lastmile_qr_scan"}, "lon": -77.0120245, "type": "electric_scooter", "fusion_lat": 0.0, "lat": 38.91523683333333, "name": "ec05b5b16ee8b869947069e181521e30", "fusion_lon": 0.0, "bike_id": "ec05b5b16ee8b869947069e181521e30", "is_disabled": 0, "is_reserved": 0}, {"rental_uris": {"ios": "https://dc.lft.to/lastmile_qr_scan", "android": "https://dc.lft.to/lastmile_qr_scan"}, "lon": -77.03584283333333, "type": "electric_scooter", "fusion_lat": 0.0, "lat": 38.90243983333333, "name": "5ad83b12b1fb36ae78568ff499391af8", "fusion_lon": 0.0, "bike_id": "5ad83b12b1fb36ae78568ff499391af8", "is_disabled": 0, "is_reserved": 0}, {"rental_uris": {"ios": "https://dc.lft.to/lastmile_qr_scan", "android": "https://dc.lft.to/lastmile_qr_scan"}, "lon": -76.90431633333333, "type": "electric_bike", "fusion_lat": 0.0, "lat": 38.89779033333333, "name": "1cfec20bffa2ff5c4a2f15549dabf1c2", "fusion_lon": 0.0, "bike_id": "1cfec20bffa2ff5c4a2f15549dabf1c2", "is_disabled": 0, "is_reserved": 0}, {"rental_uris": {"ios": "https://dc.lft.to/lastmile_qr_scan", "android": "https://dc.lft.to/lastmile_qr_scan"}, "lon": -77.04886283333333, "type": "electric_scooter", "fusion_lat": 0.0, "lat": 38.91233233333333, "name": "98f9d260c055305c43e4c55fc1a700c8", "fusion_lon": 0.0, "bike_id": "98f9d260c055305c43e4c55fc1a700c8", "is_disabled": 0, "is_reserved": 0}, {"rental_uris": {"ios": "https://dc.lft.to/lastmile_qr_scan", "android": "https://dc.lft.to/lastmile_qr_scan"}, "lon": -77.03431816666667, "type": "electric_scooter", "fusion_lat": 0.0, "lat": 38.903536, "name": "5eeab5c766afea6b706f41998ad39e1d", "fusion_lon": 0.0, "bike_id": "5eeab5c766afea6b706f41998ad39e1d", "is_disabled": 0, "is_reserved": 0}, {"rental_uris": {"ios": "https://dc.lft.to/lastmile_qr_scan", "android": "https://dc.lft.to/lastmile_qr_scan"}, "lon": -77.00725466666667, "type": "electric_scooter", "fusion_lat": 0.0, "lat": 38.88490516666667, "name": "2a4deeaecc375699515bddc17af22962", "fusion_lon": 0.0, "bike_id": "2a4deeaecc375699515bddc17af22962", "is_disabled": 0, "is_reserved": 0}, {"rental_uris": {"ios": "https://dc.lft.to/lastmile_qr_scan", "android": "https://dc.lft.to/lastmile_qr_scan"}, "lon": -77.035156, "type": "electric_scooter", "fusion_lat": 0.0, "lat": 38.918373833333334, "name": "56e1ba11ee8238641d2f384e91b50e77", "fusion_lon": 0.0, "bike_id": "56e1ba11ee8238641d2f384e91b50e77", "is_disabled": 0, "is_reserved": 0}, {"rental_uris": {"ios": "https://dc.lft.to/lastmile_qr_scan", "android": "https://dc.lft.to/lastmile_qr_scan"}, "lon": -77.02712333333334, "type": "electric_scooter", "fusion_lat": 0.0, "lat": 38.91819816666667, "name": "0144ff1936d991d2c0f938f557af85a3", "fusion_lon": 0.0, "bike_id": "0144ff1936d991d2c0f938f557af85a3", "is_disabled": 0, "is_reserved": 0}, {"rental_uris": {"ios": "https://dc.lft.to/lastmile_qr_scan", "android": "https://dc.lft.to/lastmile_qr_scan"}, "lon": -77.01961366666667, "type": "electric_scooter", "fusion_lat": 0.0, "lat": 38.929739, "name": "5a9ba23c61ef89aa9d031df5aa73fdf1", "fusion_lon": 0.0, "bike_id": "5a9ba23c61ef89aa9d031df5aa73fdf1", "is_disabled": 0, "is_reserved": 0}, {"rental_uris": {"ios": "https://dc.lft.to/lastmile_qr_scan", "android": "https://dc.lft.to/lastmile_qr_scan"}, "lon": -77.0199055, "type": "electric_scooter", "fusion_lat": 0.0, "lat": 38.904777333333335, "name": "6eb09b12ce5d939fb5ca72d310c814b9", "fusion_lon": 0.0, "bike_id": "6eb09b12ce5d939fb5ca72d310c814b9", "is_disabled": 0, "is_reserved": 0}, {"rental_uris": {"ios": "https://dc.lft.to/lastmile_qr_scan", "android": "https://dc.lft.to/lastmile_qr_scan"}, "lon": -77.01746116666666, "type": "electric_scooter", "fusion_lat": 0.0, "lat": 38.91716366666667, "name": "dcc3206e774452cb2d9053d4fb49d268", "fusion_lon": 0.0, "bike_id": "dcc3206e774452cb2d9053d4fb49d268", "is_disabled": 0, "is_reserved": 0}, {"rental_uris": {"ios": "https://dc.lft.to/lastmile_qr_scan", "android": "https://dc.lft.to/lastmile_qr_scan"}, "lon": -77.03323883333333, "type": "electric_scooter", "fusion_lat": 0.0, "lat": 38.90032583333333, "name": "32edb13b0fcc79dd9f4f3501955d8455", "fusion_lon": 0.0, "bike_id": "32edb13b0fcc79dd9f4f3501955d8455", "is_disabled": 0, "is_reserved": 0}, {"rental_uris": {"ios": "https://dc.lft.to/lastmile_qr_scan", "android": "https://dc.lft.to/lastmile_qr_scan"}, "lon": -77.041817, "type": "electric_scooter", "fusion_lat": 0.0, "lat": 38.926237, "name": "9e10a94631ee3f78c8c89c4c3b03ad1b", "fusion_lon": 0.0, "bike_id": "9e10a94631ee3f78c8c89c4c3b03ad1b", "is_disabled": 0, "is_reserved": 0}, {"rental_uris": {"ios": "https://dc.lft.to/lastmile_qr_scan", "android": "https://dc.lft.to/lastmile_qr_scan"}, "lon": -77.010857, "type": "electric_scooter", "fusion_lat": 0.0, "lat": 38.895163333333336, "name": "ba82c4db13c82e0acd11d6fb2fce8b11", "fusion_lon": 0.0, "bike_id": "ba82c4db13c82e0acd11d6fb2fce8b11", "is_disabled": 0, "is_reserved": 0}, {"rental_uris": {"ios": "https://dc.lft.to/lastmile_qr_scan", "android": "https://dc.lft.to/lastmile_qr_scan"}, "lon": -77.04157866666667, "type": "electric_scooter", "fusion_lat": 0.0, "lat": 38.919161, "name": "820106394259651f40bff4f94a2b680d", "fusion_lon": 0.0, "bike_id": "820106394259651f40bff4f94a2b680d", "is_disabled": 0, "is_reserved": 0}, {"rental_uris": {"ios": "https://dc.lft.to/lastmile_qr_scan", "android": "https://dc.lft.to/lastmile_qr_scan"}, "lon": -77.01808216666667, "type": "electric_scooter", "fusion_lat": 0.0, "lat": 38.91979416666667, "name": "0d6b5ed48157f369c3c61f8d95d2ba2b", "fusion_lon": 0.0, "bike_id": "0d6b5ed48157f369c3c61f8d95d2ba2b", "is_disabled": 0, "is_reserved": 0}, {"rental_uris": {"ios": "https://dc.lft.to/lastmile_qr_scan", "android": "https://dc.lft.to/lastmile_qr_scan"}, "lon": -77.02560066666666, "type": "electric_scooter", "fusion_lat": 0.0, "lat": 38.925349, "name": "aac4d29f637d1b0b8f7b1ed2a07b6231", "fusion_lon": 0.0, "bike_id": "aac4d29f637d1b0b8f7b1ed2a07b6231", "is_disabled": 0, "is_reserved": 0}, {"rental_uris": {"ios": "https://dc.lft.to/lastmile_qr_scan", "android": "https://dc.lft.to/lastmile_qr_scan"}, "lon": -76.94727316666666, "type": "electric_scooter", "fusion_lat": 0.0, "lat": 38.89678333333333, "name": "697049d6e2fc632d399e6ffef7c62ed3", "fusion_lon": 0.0, "bike_id": "697049d6e2fc632d399e6ffef7c62ed3", "is_disabled": 0, "is_reserved": 0}, {"rental_uris": {"ios": "https://dc.lft.to/lastmile_qr_scan", "android": "https://dc.lft.to/lastmile_qr_scan"}, "lon": -77.02727583333333, "type": "electric_scooter", "fusion_lat": 0.0, "lat": 38.92481933333333, "name": "7eb6118199724dc13e1fa06525da86e8", "fusion_lon": 0.0, "bike_id": "7eb6118199724dc13e1fa06525da86e8", "is_disabled": 0, "is_reserved": 0}, {"rental_uris": {"ios": "https://dc.lft.to/lastmile_qr_scan", "android": "https://dc.lft.to/lastmile_qr_scan"}, "lon": -77.027255, "type": "electric_scooter", "fusion_lat": 0.0, "lat": 38.924805666666664, "name": "e38288934dfa982f8ab6414ca74543f8", "fusion_lon": 0.0, "bike_id": "e38288934dfa982f8ab6414ca74543f8", "is_disabled": 0, "is_reserved": 0}, {"rental_uris": {"ios": "https://dc.lft.to/lastmile_qr_scan", "android": "https://dc.lft.to/lastmile_qr_scan"}, "lon": -77.04388883333333, "type": "electric_scooter", "fusion_lat": 0.0, "lat": 38.917831666666665, "name": "3d02ca1522752a296ed169c524335fd0", "fusion_lon": 0.0, "bike_id": "3d02ca1522752a296ed169c524335fd0", "is_disabled": 0, "is_reserved": 0}, {"rental_uris": {"ios": "https://dc.lft.to/lastmile_qr_scan", "android": "https://dc.lft.to/lastmile_qr_scan"}, "lon": -77.04642183333333, "type": "electric_bike", "fusion_lat": 0.0, "lat": 38.852136, "name": "41f9fede31e62c195d605ea21cb631a7", "fusion_lon": 0.0, "bike_id": "41f9fede31e62c195d605ea21cb631a7", "is_disabled": 0, "is_reserved": 0}, {"rental_uris": {"ios": "https://dc.lft.to/lastmile_qr_scan", "android": "https://dc.lft.to/lastmile_qr_scan"}, "lon": -77.04553583333333, "type": "electric_scooter", "fusion_lat": 0.0, "lat": 38.91786616666667, "name": "aff77aa2f7d45660d3360908a497f10b", "fusion_lon": 0.0, "bike_id": "aff77aa2f7d45660d3360908a497f10b", "is_disabled": 0, "is_reserved": 0}, {"rental_uris": {"ios": "https://dc.lft.to/lastmile_qr_scan", "android": "https://dc.lft.to/lastmile_qr_scan"}, "lon": -77.01278316666667, "type": "electric_scooter", "fusion_lat": 0.0, "lat": 38.90051533333333, "name": "fee3c4b94d402bb8d7f2a09f26c91ef4", "fusion_lon": 0.0, "bike_id": "fee3c4b94d402bb8d7f2a09f26c91ef4", "is_disabled": 0, "is_reserved": 0}, {"rental_uris": {"ios": "https://dc.lft.to/lastmile_qr_scan", "android": "https://dc.lft.to/lastmile_qr_scan"}, "lon": -77.02836866666667, "type": "electric_scooter", "fusion_lat": 0.0, "lat": 38.88770566666667, "name": "051727af71b93a5a4aba281ff56ceae9", "fusion_lon": 0.0, "bike_id": "051727af71b93a5a4aba281ff56ceae9", "is_disabled": 0, "is_reserved": 0}, {"rental_uris": {"ios": "https://dc.lft.to/lastmile_qr_scan", "android": "https://dc.lft.to/lastmile_qr_scan"}, "lon": -77.03685916666667, "type": "electric_scooter", "fusion_lat": 0.0, "lat": 38.922645333333335, "name": "452725a7e070c9840808bfd22ed43354", "fusion_lon": 0.0, "bike_id": "452725a7e070c9840808bfd22ed43354", "is_disabled": 0, "is_reserved": 0}, {"rental_uris": {"ios": "https://dc.lft.to/lastmile_qr_scan", "android": "https://dc.lft.to/lastmile_qr_scan"}, "lon": -77.038235, "type": "electric_scooter", "fusion_lat": 0.0, "lat": 38.90778133333333, "name": "b46e6071da94b3e98f9b87815197531d", "fusion_lon": 0.0, "bike_id": "b46e6071da94b3e98f9b87815197531d", "is_disabled": 0, "is_reserved": 0}, {"rental_uris": {"ios": "https://dc.lft.to/lastmile_qr_scan", "android": "https://dc.lft.to/lastmile_qr_scan"}, "lon": -77.04569383333333, "type": "electric_scooter", "fusion_lat": 0.0, "lat": 38.91055816666667, "name": "2289b1110e56466752a0f66d625fcd0c", "fusion_lon": 0.0, "bike_id": "2289b1110e56466752a0f66d625fcd0c", "is_disabled": 0, "is_reserved": 0}, {"rental_uris": {"ios": "https://dc.lft.to/lastmile_qr_scan", "android": "https://dc.lft.to/lastmile_qr_scan"}, "lon": -77.02221066666667, "type": "electric_scooter", "fusion_lat": 0.0, "lat": 38.8935725, "name": "3d18de3a6c253b888d69b0b674df2139", "fusion_lon": 0.0, "bike_id": "3d18de3a6c253b888d69b0b674df2139", "is_disabled": 0, "is_reserved": 0}, {"rental_uris": {"ios": "https://dc.lft.to/lastmile_qr_scan", "android": "https://dc.lft.to/lastmile_qr_scan"}, "lon": -77.039015, "type": "electric_scooter", "fusion_lat": 0.0, "lat": 38.92217633333333, "name": "00413bc7e8fc7bf39a611591dc1eef42", "fusion_lon": 0.0, "bike_id": "00413bc7e8fc7bf39a611591dc1eef42", "is_disabled": 0, "is_reserved": 0}, {"rental_uris": {"ios": "https://dc.lft.to/lastmile_qr_scan", "android": "https://dc.lft.to/lastmile_qr_scan"}, "lon": -77.02407183333334, "type": "electric_scooter", "fusion_lat": 0.0, "lat": 38.9110775, "name": "3e8b2264bebfa4e86891a4999f7f15b4", "fusion_lon": 0.0, "bike_id": "3e8b2264bebfa4e86891a4999f7f15b4", "is_disabled": 0, "is_reserved": 0}, {"rental_uris": {"ios": "https://dc.lft.to/lastmile_qr_scan", "android": "https://dc.lft.to/lastmile_qr_scan"}, "lon": -77.031877, "type": "electric_scooter", "fusion_lat": 0.0, "lat": 38.917667, "name": "d9f523a2223289868b9417c25a7c2889", "fusion_lon": 0.0, "bike_id": "d9f523a2223289868b9417c25a7c2889", "is_disabled": 0, "is_reserved": 0}, {"rental_uris": {"ios": "https://dc.lft.to/lastmile_qr_scan", "android": "https://dc.lft.to/lastmile_qr_scan"}, "lon": -77.01700683333334, "type": "electric_scooter", "fusion_lat": 0.0, "lat": 38.920274166666665, "name": "0b958450140babc83094d758d7397492", "fusion_lon": 0.0, "bike_id": "0b958450140babc83094d758d7397492", "is_disabled": 0, "is_reserved": 0}, {"rental_uris": {"ios": "https://dc.lft.to/lastmile_qr_scan", "android": "https://dc.lft.to/lastmile_qr_scan"}, "lon": -77.038648, "type": "electric_scooter", "fusion_lat": 0.0, "lat": 38.91564183333333, "name": "38d6f929d409d81376d4f630f7d8f8ee", "fusion_lon": 0.0, "bike_id": "38d6f929d409d81376d4f630f7d8f8ee", "is_disabled": 0, "is_reserved": 0}, {"rental_uris": {"ios": "https://dc.lft.to/lastmile_qr_scan", "android": "https://dc.lft.to/lastmile_qr_scan"}, "lon": -76.99931433333333, "type": "electric_scooter", "fusion_lat": 0.0, "lat": 38.8961875, "name": "e70aed08af875ab1229999e2e548d538", "fusion_lon": 0.0, "bike_id": "e70aed08af875ab1229999e2e548d538", "is_disabled": 0, "is_reserved": 0}, {"rental_uris": {"ios": "https://dc.lft.to/lastmile_qr_scan", "android": "https://dc.lft.to/lastmile_qr_scan"}, "lon": -77.0327495, "type": "electric_bike", "fusion_lat": 0.0, "lat": 38.93311216666667, "name": "8020a4e3a789963e64eee27bec2bc58e", "fusion_lon": 0.0, "bike_id": "8020a4e3a789963e64eee27bec2bc58e", "is_disabled": 0, "is_reserved": 0}, {"rental_uris": {"ios": "https://dc.lft.to/lastmile_qr_scan", "android": "https://dc.lft.to/lastmile_qr_scan"}, "lon": -77.0502265, "type": "electric_scooter", "fusion_lat": 0.0, "lat": 38.923554, "name": "c6e3c7fbe9745385eea4924101ad6112", "fusion_lon": 0.0, "bike_id": "c6e3c7fbe9745385eea4924101ad6112", "is_disabled": 0, "is_reserved": 0}, {"rental_uris": {"ios": "https://dc.lft.to/lastmile_qr_scan", "android": "https://dc.lft.to/lastmile_qr_scan"}, "lon": -77.04176233333334, "type": "electric_scooter", "fusion_lat": 0.0, "lat": 38.91182383333334, "name": "13598f15137a72a7c74f61cc616f7e13", "fusion_lon": 0.0, "bike_id": "13598f15137a72a7c74f61cc616f7e13", "is_disabled": 0, "is_reserved": 0}, {"rental_uris": {"ios": "https://dc.lft.to/lastmile_qr_scan", "android": "https://dc.lft.to/lastmile_qr_scan"}, "lon": -77.0276315, "type": "electric_scooter", "fusion_lat": 0.0, "lat": 38.913455, "name": "85286dbe4f5c7e86dd52163c4e545ac6", "fusion_lon": 0.0, "bike_id": "85286dbe4f5c7e86dd52163c4e545ac6", "is_disabled": 0, "is_reserved": 0}, {"rental_uris": {"ios": "https://dc.lft.to/lastmile_qr_scan", "android": "https://dc.lft.to/lastmile_qr_scan"}, "lon": -77.0242735, "type": "electric_scooter", "fusion_lat": 0.0, "lat": 38.9205425, "name": "0ea42e6b5fd7ea8456f2743db7cfc6de", "fusion_lon": 0.0, "bike_id": "0ea42e6b5fd7ea8456f2743db7cfc6de", "is_disabled": 0, "is_reserved": 0}, {"rental_uris": {"ios": "https://dc.lft.to/lastmile_qr_scan", "android": "https://dc.lft.to/lastmile_qr_scan"}, "lon": -77.07395383333333, "type": "electric_bike", "fusion_lat": 0.0, "lat": 38.9617505, "name": "41050bb1b1fb0487992ef831c22cdf05", "fusion_lon": 0.0, "bike_id": "41050bb1b1fb0487992ef831c22cdf05", "is_disabled": 0, "is_reserved": 0}, {"rental_uris": {"ios": "https://dc.lft.to/lastmile_qr_scan", "android": "https://dc.lft.to/lastmile_qr_scan"}, "lon": -76.93174516666667, "type": "electric_scooter", "fusion_lat": 0.0, "lat": 38.89886933333333, "name": "1b323d1cb2a4bf5a9abc443008519a71", "fusion_lon": 0.0, "bike_id": "1b323d1cb2a4bf5a9abc443008519a71", "is_disabled": 0, "is_reserved": 0}, {"rental_uris": {"ios": "https://dc.lft.to/lastmile_qr_scan", "android": "https://dc.lft.to/lastmile_qr_scan"}, "lon": -77.03249066666666, "type": "electric_bike", "fusion_lat": 0.0, "lat": 38.92909683333333, "name": "a95904271b2b65010225d63cc38f4944", "fusion_lon": 0.0, "bike_id": "a95904271b2b65010225d63cc38f4944", "is_disabled": 0, "is_reserved": 0}, {"rental_uris": {"ios": "https://dc.lft.to/lastmile_qr_scan", "android": "https://dc.lft.to/lastmile_qr_scan"}, "lon": -77.03814316666667, "type": "electric_scooter", "fusion_lat": 0.0, "lat": 38.92065183333333, "name": "99400b89b304324a714b1f825546e4d5", "fusion_lon": 0.0, "bike_id": "99400b89b304324a714b1f825546e4d5", "is_disabled": 0, "is_reserved": 0}, {"rental_uris": {"ios": "https://dc.lft.to/lastmile_qr_scan", "android": "https://dc.lft.to/lastmile_qr_scan"}, "lon": -77.00250366666667, "type": "electric_scooter", "fusion_lat": 0.0, "lat": 38.911904666666665, "name": "73984151e9a5cc64b7c24b525929be6f", "fusion_lon": 0.0, "bike_id": "73984151e9a5cc64b7c24b525929be6f", "is_disabled": 0, "is_reserved": 0}, {"rental_uris": {"ios": "https://dc.lft.to/lastmile_qr_scan", "android": "https://dc.lft.to/lastmile_qr_scan"}, "lon": -77.03054083333333, "type": "electric_scooter", "fusion_lat": 0.0, "lat": 38.88411033333333, "name": "8d8b6b2d4815b807931ee354b25c3eee", "fusion_lon": 0.0, "bike_id": "8d8b6b2d4815b807931ee354b25c3eee", "is_disabled": 0, "is_reserved": 0}, {"rental_uris": {"ios": "https://dc.lft.to/lastmile_qr_scan", "android": "https://dc.lft.to/lastmile_qr_scan"}, "lon": -77.04196433333334, "type": "electric_scooter", "fusion_lat": 0.0, "lat": 38.91871116666667, "name": "41938b91d9342f241f2a8d35edd6852f", "fusion_lon": 0.0, "bike_id": "41938b91d9342f241f2a8d35edd6852f", "is_disabled": 0, "is_reserved": 0}, {"rental_uris": {"ios": "https://dc.lft.to/lastmile_qr_scan", "android": "https://dc.lft.to/lastmile_qr_scan"}, "lon": -77.04783866666666, "type": "electric_scooter", "fusion_lat": 0.0, "lat": 38.893675, "name": "630f4f6c613146733fe5c192f15cf856", "fusion_lon": 0.0, "bike_id": "630f4f6c613146733fe5c192f15cf856", "is_disabled": 0, "is_reserved": 0}, {"rental_uris": {"ios": "https://dc.lft.to/lastmile_qr_scan", "android": "https://dc.lft.to/lastmile_qr_scan"}, "lon": -77.04474033333334, "type": "electric_scooter", "fusion_lat": 0.0, "lat": 38.903247666666665, "name": "a14c872acc68bfd96bed3928a80613e8", "fusion_lon": 0.0, "bike_id": "a14c872acc68bfd96bed3928a80613e8", "is_disabled": 0, "is_reserved": 0}, {"rental_uris": {"ios": "https://dc.lft.to/lastmile_qr_scan", "android": "https://dc.lft.to/lastmile_qr_scan"}, "lon": -76.99578583333333, "type": "electric_scooter", "fusion_lat": 0.0, "lat": 38.90025833333333, "name": "51458dbf1f0ed7ff0737e22329896830", "fusion_lon": 0.0, "bike_id": "51458dbf1f0ed7ff0737e22329896830", "is_disabled": 0, "is_reserved": 0}, {"rental_uris": {"ios": "https://dc.lft.to/lastmile_qr_scan", "android": "https://dc.lft.to/lastmile_qr_scan"}, "lon": -77.02319016666667, "type": "electric_scooter", "fusion_lat": 0.0, "lat": 38.9206455, "name": "fe7fb5172cee8e394da548c57cf203ef", "fusion_lon": 0.0, "bike_id": "fe7fb5172cee8e394da548c57cf203ef", "is_disabled": 0, "is_reserved": 0}, {"rental_uris": {"ios": "https://dc.lft.to/lastmile_qr_scan", "android": "https://dc.lft.to/lastmile_qr_scan"}, "lon": -76.92374883333333, "type": "electric_bike", "fusion_lat": 0.0, "lat": 38.88376266666667, "name": "3dcf22535e04f4e3cc00b5b7a11da619", "fusion_lon": 0.0, "bike_id": "3dcf22535e04f4e3cc00b5b7a11da619", "is_disabled": 0, "is_reserved": 0}, {"rental_uris": {"ios": "https://dc.lft.to/lastmile_qr_scan", "android": "https://dc.lft.to/lastmile_qr_scan"}, "lon": -77.00807666666667, "type": "electric_scooter", "fusion_lat": 0.0, "lat": 38.905646833333336, "name": "7bda5aad2c454fb2647b36ad0ebe6cb9", "fusion_lon": 0.0, "bike_id": "7bda5aad2c454fb2647b36ad0ebe6cb9", "is_disabled": 0, "is_reserved": 0}, {"rental_uris": {"ios": "https://dc.lft.to/lastmile_qr_scan", "android": "https://dc.lft.to/lastmile_qr_scan"}, "lon": -77.09877516666667, "type": "electric_bike", "fusion_lat": 0.0, "lat": 38.94789466666667, "name": "a3980cf8cb8a25d63302ee0f0baed9a7", "fusion_lon": 0.0, "bike_id": "a3980cf8cb8a25d63302ee0f0baed9a7", "is_disabled": 0, "is_reserved": 0}, {"rental_uris": {"ios": "https://dc.lft.to/lastmile_qr_scan", "android": "https://dc.lft.to/lastmile_qr_scan"}, "lon": -77.04223016666667, "type": "electric_scooter", "fusion_lat": 0.0, "lat": 38.911198666666664, "name": "6c73507947c7ed6004cc0df250534c85", "fusion_lon": 0.0, "bike_id": "6c73507947c7ed6004cc0df250534c85", "is_disabled": 0, "is_reserved": 0}, {"rental_uris": {"ios": "https://dc.lft.to/lastmile_qr_scan", "android": "https://dc.lft.to/lastmile_qr_scan"}, "lon": -77.043081, "type": "electric_scooter", "fusion_lat": 0.0, "lat": 38.908811, "name": "a205f5d7430326e36ac003f1386fd2c6", "fusion_lon": 0.0, "bike_id": "a205f5d7430326e36ac003f1386fd2c6", "is_disabled": 0, "is_reserved": 0}, {"rental_uris": {"ios": "https://dc.lft.to/lastmile_qr_scan", "android": "https://dc.lft.to/lastmile_qr_scan"}, "lon": -76.99586433333333, "type": "electric_scooter", "fusion_lat": 0.0, "lat": 38.95503333333333, "name": "8c8c2517c07c3300b8698689db0d2d58", "fusion_lon": 0.0, "bike_id": "8c8c2517c07c3300b8698689db0d2d58", "is_disabled": 0, "is_reserved": 0}, {"rental_uris": {"ios": "https://dc.lft.to/lastmile_qr_scan", "android": "https://dc.lft.to/lastmile_qr_scan"}, "lon": -77.04502116666667, "type": "electric_scooter", "fusion_lat": 0.0, "lat": 38.911064333333336, "name": "9e071a908aad6378308ed4ed919c7ce6", "fusion_lon": 0.0, "bike_id": "9e071a908aad6378308ed4ed919c7ce6", "is_disabled": 0, "is_reserved": 0}, {"rental_uris": {"ios": "https://dc.lft.to/lastmile_qr_scan", "android": "https://dc.lft.to/lastmile_qr_scan"}, "lon": -77.01079883333334, "type": "electric_bike", "fusion_lat": 0.0, "lat": 38.95657416666667, "name": "be695d19e19db7fbc9cf792ad1a3ba35", "fusion_lon": 0.0, "bike_id": "be695d19e19db7fbc9cf792ad1a3ba35", "is_disabled": 0, "is_reserved": 0}, {"rental_uris": {"ios": "https://dc.lft.to/lastmile_qr_scan", "android": "https://dc.lft.to/lastmile_qr_scan"}, "lon": -77.028406, "type": "electric_scooter", "fusion_lat": 0.0, "lat": 38.924759, "name": "6c8b6c3c97b3a3f8f86aad6727e10f12", "fusion_lon": 0.0, "bike_id": "6c8b6c3c97b3a3f8f86aad6727e10f12", "is_disabled": 0, "is_reserved": 0}, {"rental_uris": {"ios": "https://dc.lft.to/lastmile_qr_scan", "android": "https://dc.lft.to/lastmile_qr_scan"}, "lon": -77.032623, "type": "electric_scooter", "fusion_lat": 0.0, "lat": 38.91985916666667, "name": "8fc17e522207e3fc5e7209d182550b2f", "fusion_lon": 0.0, "bike_id": "8fc17e522207e3fc5e7209d182550b2f", "is_disabled": 0, "is_reserved": 0}, {"rental_uris": {"ios": "https://dc.lft.to/lastmile_qr_scan", "android": "https://dc.lft.to/lastmile_qr_scan"}, "lon": -76.99271466666667, "type": "electric_scooter", "fusion_lat": 0.0, "lat": 38.89766, "name": "e5f1889e6470bff1eb33880ac9510c40", "fusion_lon": 0.0, "bike_id": "e5f1889e6470bff1eb33880ac9510c40", "is_disabled": 0, "is_reserved": 0}, {"rental_uris": {"ios": "https://dc.lft.to/lastmile_qr_scan", "android": "https://dc.lft.to/lastmile_qr_scan"}, "lon": -77.035508, "type": "electric_scooter", "fusion_lat": 0.0, "lat": 38.93137133333333, "name": "40d052dea76faf94bd6580ca62a93fe3", "fusion_lon": 0.0, "bike_id": "40d052dea76faf94bd6580ca62a93fe3", "is_disabled": 0, "is_reserved": 0}, {"rental_uris": {"ios": "https://dc.lft.to/lastmile_qr_scan", "android": "https://dc.lft.to/lastmile_qr_scan"}, "lon": -77.02407433333333, "type": "electric_scooter", "fusion_lat": 0.0, "lat": 38.9170435, "name": "242bee3aee42f05bfaee2fbaad30f00f", "fusion_lon": 0.0, "bike_id": "242bee3aee42f05bfaee2fbaad30f00f", "is_disabled": 0, "is_reserved": 0}, {"rental_uris": {"ios": "https://dc.lft.to/lastmile_qr_scan", "android": "https://dc.lft.to/lastmile_qr_scan"}, "lon": -76.98994533333334, "type": "electric_bike", "fusion_lat": 0.0, "lat": 38.863864666666665, "name": "5f5d583f1c66a9b2aba0ebfd2c2bdbee", "fusion_lon": 0.0, "bike_id": "5f5d583f1c66a9b2aba0ebfd2c2bdbee", "is_disabled": 0, "is_reserved": 0}, {"rental_uris": {"ios": "https://dc.lft.to/lastmile_qr_scan", "android": "https://dc.lft.to/lastmile_qr_scan"}, "lon": -77.0370345, "type": "electric_scooter", "fusion_lat": 0.0, "lat": 38.92635583333333, "name": "d401e2cd90aba5fd14e540853943452a", "fusion_lon": 0.0, "bike_id": "d401e2cd90aba5fd14e540853943452a", "is_disabled": 0, "is_reserved": 0}, {"rental_uris": {"ios": "https://dc.lft.to/lastmile_qr_scan", "android": "https://dc.lft.to/lastmile_qr_scan"}, "lon": -77.0206625, "type": "electric_scooter", "fusion_lat": 0.0, "lat": 38.9353345, "name": "ca156cd1d49075028b4fd0eb5ad76f1e", "fusion_lon": 0.0, "bike_id": "ca156cd1d49075028b4fd0eb5ad76f1e", "is_disabled": 0, "is_reserved": 0}, {"rental_uris": {"ios": "https://dc.lft.to/lastmile_qr_scan", "android": "https://dc.lft.to/lastmile_qr_scan"}, "lon": -77.04466266666667, "type": "electric_scooter", "fusion_lat": 0.0, "lat": 38.903368, "name": "9e913947a00817529abd16df81cf444e", "fusion_lon": 0.0, "bike_id": "9e913947a00817529abd16df81cf444e", "is_disabled": 0, "is_reserved": 0}, {"rental_uris": {"ios": "https://dc.lft.to/lastmile_qr_scan", "android": "https://dc.lft.to/lastmile_qr_scan"}, "lon": -77.02765833333333, "type": "electric_scooter", "fusion_lat": 0.0, "lat": 38.892045833333334, "name": "333af7eba879d90a9dda9f82967e5de1", "fusion_lon": 0.0, "bike_id": "333af7eba879d90a9dda9f82967e5de1", "is_disabled": 0, "is_reserved": 0}, {"rental_uris": {"ios": "https://dc.lft.to/lastmile_qr_scan", "android": "https://dc.lft.to/lastmile_qr_scan"}, "lon": -77.04255666666667, "type": "electric_scooter", "fusion_lat": 0.0, "lat": 38.92061266666666, "name": "df8642c1581e196596126a83dd085db3", "fusion_lon": 0.0, "bike_id": "df8642c1581e196596126a83dd085db3", "is_disabled": 0, "is_reserved": 0}, {"rental_uris": {"ios": "https://dc.lft.to/lastmile_qr_scan", "android": "https://dc.lft.to/lastmile_qr_scan"}, "lon": -77.04475083333334, "type": "electric_scooter", "fusion_lat": 0.0, "lat": 38.91321, "name": "d9e804fdf2c12e0490bc17b518636342", "fusion_lon": 0.0, "bike_id": "d9e804fdf2c12e0490bc17b518636342", "is_disabled": 0, "is_reserved": 0}, {"rental_uris": {"ios": "https://dc.lft.to/lastmile_qr_scan", "android": "https://dc.lft.to/lastmile_qr_scan"}, "lon": -77.00611716666667, "type": "electric_scooter", "fusion_lat": 0.0, "lat": 38.906007333333335, "name": "7d73b548fddfffb5c4f4281f1354557f", "fusion_lon": 0.0, "bike_id": "7d73b548fddfffb5c4f4281f1354557f", "is_disabled": 0, "is_reserved": 0}, {"rental_uris": {"ios": "https://dc.lft.to/lastmile_qr_scan", "android": "https://dc.lft.to/lastmile_qr_scan"}, "lon": -77.07102066666667, "type": "electric_bike", "fusion_lat": 0.0, "lat": 38.9145005, "name": "06d22bbad5b62d754ac3181159308ee2", "fusion_lon": 0.0, "bike_id": "06d22bbad5b62d754ac3181159308ee2", "is_disabled": 0, "is_reserved": 0}, {"rental_uris": {"ios": "https://dc.lft.to/lastmile_qr_scan", "android": "https://dc.lft.to/lastmile_qr_scan"}, "lon": -76.98092866666667, "type": "electric_bike", "fusion_lat": 0.0, "lat": 38.88137283333333, "name": "c1635b62aa0318ffc93a848dd886aecc", "fusion_lon": 0.0, "bike_id": "c1635b62aa0318ffc93a848dd886aecc", "is_disabled": 0, "is_reserved": 0}, {"rental_uris": {"ios": "https://dc.lft.to/lastmile_qr_scan", "android": "https://dc.lft.to/lastmile_qr_scan"}, "lon": -77.0120915, "type": "electric_bike", "fusion_lat": 0.0, "lat": 38.87105833333333, "name": "bae8d366fbc4a13cee579569a3cf253d", "fusion_lon": 0.0, "bike_id": "bae8d366fbc4a13cee579569a3cf253d", "is_disabled": 0, "is_reserved": 0}, {"rental_uris": {"ios": "https://dc.lft.to/lastmile_qr_scan", "android": "https://dc.lft.to/lastmile_qr_scan"}, "lon": -77.04680966666666, "type": "electric_scooter", "fusion_lat": 0.0, "lat": 38.892233833333336, "name": "589fa58d21ee243989d8cc3c0c055119", "fusion_lon": 0.0, "bike_id": "589fa58d21ee243989d8cc3c0c055119", "is_disabled": 0, "is_reserved": 0}, {"rental_uris": {"ios": "https://dc.lft.to/lastmile_qr_scan", "android": "https://dc.lft.to/lastmile_qr_scan"}, "lon": -77.03838866666666, "type": "electric_scooter", "fusion_lat": 0.0, "lat": 38.907511166666666, "name": "5667d3283100dda80f0809cbc8668164", "fusion_lon": 0.0, "bike_id": "5667d3283100dda80f0809cbc8668164", "is_disabled": 0, "is_reserved": 0}, {"rental_uris": {"ios": "https://dc.lft.to/lastmile_qr_scan", "android": "https://dc.lft.to/lastmile_qr_scan"}, "lon": -77.05302033333334, "type": "electric_scooter", "fusion_lat": 0.0, "lat": 38.90268366666667, "name": "bd619983e6ae672afebe6497cd31687c", "fusion_lon": 0.0, "bike_id": "bd619983e6ae672afebe6497cd31687c", "is_disabled": 0, "is_reserved": 0}, {"rental_uris": {"ios": "https://dc.lft.to/lastmile_qr_scan", "android": "https://dc.lft.to/lastmile_qr_scan"}, "lon": -77.0772725, "type": "electric_scooter", "fusion_lat": 0.0, "lat": 38.94708716666667, "name": "6fd64b7096d9ff7af62f1b9daa423c80", "fusion_lon": 0.0, "bike_id": "6fd64b7096d9ff7af62f1b9daa423c80", "is_disabled": 0, "is_reserved": 0}, {"rental_uris": {"ios": "https://dc.lft.to/lastmile_qr_scan", "android": "https://dc.lft.to/lastmile_qr_scan"}, "lon": -77.02774916666667, "type": "electric_scooter", "fusion_lat": 0.0, "lat": 38.953839333333335, "name": "8fc561d73d694ccc702f4359e59c732a", "fusion_lon": 0.0, "bike_id": "8fc561d73d694ccc702f4359e59c732a", "is_disabled": 0, "is_reserved": 0}, {"rental_uris": {"ios": "https://dc.lft.to/lastmile_qr_scan", "android": "https://dc.lft.to/lastmile_qr_scan"}, "lon": -77.03210266666666, "type": "electric_scooter", "fusion_lat": 0.0, "lat": 38.9201215, "name": "21ad65b0ad91c661be4537fb4bf72eaa", "fusion_lon": 0.0, "bike_id": "21ad65b0ad91c661be4537fb4bf72eaa", "is_disabled": 0, "is_reserved": 0}, {"rental_uris": {"ios": "https://dc.lft.to/lastmile_qr_scan", "android": "https://dc.lft.to/lastmile_qr_scan"}, "lon": -77.02543316666667, "type": "electric_scooter", "fusion_lat": 0.0, "lat": 38.92403816666667, "name": "e759a6c51cf65d3637f090a29d9ae771", "fusion_lon": 0.0, "bike_id": "e759a6c51cf65d3637f090a29d9ae771", "is_disabled": 0, "is_reserved": 0}, {"rental_uris": {"ios": "https://dc.lft.to/lastmile_qr_scan", "android": "https://dc.lft.to/lastmile_qr_scan"}, "lon": -76.97304633333333, "type": "electric_scooter", "fusion_lat": 0.0, "lat": 38.91990916666666, "name": "20aa32290aee9e2e4b9acadaffa4e52c", "fusion_lon": 0.0, "bike_id": "20aa32290aee9e2e4b9acadaffa4e52c", "is_disabled": 0, "is_reserved": 0}, {"rental_uris": {"ios": "https://dc.lft.to/lastmile_qr_scan", "android": "https://dc.lft.to/lastmile_qr_scan"}, "lon": -77.03667166666666, "type": "electric_scooter", "fusion_lat": 0.0, "lat": 38.91819316666667, "name": "6f171f940261729ec98cb6b208ef616c", "fusion_lon": 0.0, "bike_id": "6f171f940261729ec98cb6b208ef616c", "is_disabled": 0, "is_reserved": 0}, {"rental_uris": {"ios": "https://dc.lft.to/lastmile_qr_scan", "android": "https://dc.lft.to/lastmile_qr_scan"}, "lon": -77.0346475, "type": "electric_scooter", "fusion_lat": 0.0, "lat": 38.92349016666667, "name": "2f20de7a12f37a122d8bef087a27bba2", "fusion_lon": 0.0, "bike_id": "2f20de7a12f37a122d8bef087a27bba2", "is_disabled": 0, "is_reserved": 0}, {"rental_uris": {"ios": "https://dc.lft.to/lastmile_qr_scan", "android": "https://dc.lft.to/lastmile_qr_scan"}, "lon": -77.0336105, "type": "electric_scooter", "fusion_lat": 0.0, "lat": 38.93223033333334, "name": "a75967f78b5a70824740c6b432fdccf9", "fusion_lon": 0.0, "bike_id": "a75967f78b5a70824740c6b432fdccf9", "is_disabled": 0, "is_reserved": 0}, {"rental_uris": {"ios": "https://dc.lft.to/lastmile_qr_scan", "android": "https://dc.lft.to/lastmile_qr_scan"}, "lon": -77.005964, "type": "electric_scooter", "fusion_lat": 0.0, "lat": 38.884912, "name": "92686add91574243c03e04cca01904ec", "fusion_lon": 0.0, "bike_id": "92686add91574243c03e04cca01904ec", "is_disabled": 0, "is_reserved": 0}, {"rental_uris": {"ios": "https://dc.lft.to/lastmile_qr_scan", "android": "https://dc.lft.to/lastmile_qr_scan"}, "lon": -77.04785783333334, "type": "electric_scooter", "fusion_lat": 0.0, "lat": 38.89957716666667, "name": "8bb2c588d0fc794d2e91b61c17e3e637", "fusion_lon": 0.0, "bike_id": "8bb2c588d0fc794d2e91b61c17e3e637", "is_disabled": 0, "is_reserved": 0}, {"rental_uris": {"ios": "https://dc.lft.to/lastmile_qr_scan", "android": "https://dc.lft.to/lastmile_qr_scan"}, "lon": -77.02175, "type": "electric_scooter", "fusion_lat": 0.0, "lat": 38.880364666666665, "name": "7f7d6c237ff8a59a1cee0f1cb2cda1fa", "fusion_lon": 0.0, "bike_id": "7f7d6c237ff8a59a1cee0f1cb2cda1fa", "is_disabled": 0, "is_reserved": 0}, {"rental_uris": {"ios": "https://dc.lft.to/lastmile_qr_scan", "android": "https://dc.lft.to/lastmile_qr_scan"}, "lon": -77.03730883333333, "type": "electric_scooter", "fusion_lat": 0.0, "lat": 38.90704733333333, "name": "c9a2dec79604cb0905526f014355cf76", "fusion_lon": 0.0, "bike_id": "c9a2dec79604cb0905526f014355cf76", "is_disabled": 0, "is_reserved": 0}, {"rental_uris": {"ios": "https://dc.lft.to/lastmile_qr_scan", "android": "https://dc.lft.to/lastmile_qr_scan"}, "lon": -77.03917633333333, "type": "electric_scooter", "fusion_lat": 0.0, "lat": 38.911143833333334, "name": "eff0bd694512e253b9ae59cbd4750278", "fusion_lon": 0.0, "bike_id": "eff0bd694512e253b9ae59cbd4750278", "is_disabled": 0, "is_reserved": 0}, {"rental_uris": {"ios": "https://dc.lft.to/lastmile_qr_scan", "android": "https://dc.lft.to/lastmile_qr_scan"}, "lon": -77.03423933333333, "type": "electric_scooter", "fusion_lat": 0.0, "lat": 38.919202, "name": "1e776aa6c54f42452ff83355c04c6994", "fusion_lon": 0.0, "bike_id": "1e776aa6c54f42452ff83355c04c6994", "is_disabled": 0, "is_reserved": 0}, {"rental_uris": {"ios": "https://dc.lft.to/lastmile_qr_scan", "android": "https://dc.lft.to/lastmile_qr_scan"}, "lon": -77.0346605, "type": "electric_scooter", "fusion_lat": 0.0, "lat": 38.90900283333333, "name": "0b7fbe159ed5d2cb24e58e1eec80652b", "fusion_lon": 0.0, "bike_id": "0b7fbe159ed5d2cb24e58e1eec80652b", "is_disabled": 0, "is_reserved": 0}, {"rental_uris": {"ios": "https://dc.lft.to/lastmile_qr_scan", "android": "https://dc.lft.to/lastmile_qr_scan"}, "lon": -77.07274366666667, "type": "electric_scooter", "fusion_lat": 0.0, "lat": 38.93482183333333, "name": "342afd0bac7910fd5e344c8b4e3fbbde", "fusion_lon": 0.0, "bike_id": "342afd0bac7910fd5e344c8b4e3fbbde", "is_disabled": 0, "is_reserved": 0}, {"rental_uris": {"ios": "https://dc.lft.to/lastmile_qr_scan", "android": "https://dc.lft.to/lastmile_qr_scan"}, "lon": -77.00102566666666, "type": "electric_scooter", "fusion_lat": 0.0, "lat": 38.90756483333333, "name": "dc31fd5511887f67a290474f4c555ab4", "fusion_lon": 0.0, "bike_id": "dc31fd5511887f67a290474f4c555ab4", "is_disabled": 0, "is_reserved": 0}, {"rental_uris": {"ios": "https://dc.lft.to/lastmile_qr_scan", "android": "https://dc.lft.to/lastmile_qr_scan"}, "lon": -77.0428585, "type": "electric_scooter", "fusion_lat": 0.0, "lat": 38.922656333333336, "name": "cd1c9521250447518422885a66425345", "fusion_lon": 0.0, "bike_id": "cd1c9521250447518422885a66425345", "is_disabled": 0, "is_reserved": 0}, {"rental_uris": {"ios": "https://dc.lft.to/lastmile_qr_scan", "android": "https://dc.lft.to/lastmile_qr_scan"}, "lon": -76.990094, "type": "electric_scooter", "fusion_lat": 0.0, "lat": 38.86509616666667, "name": "edb08f83f3be3b18d968410a1e27ee10", "fusion_lon": 0.0, "bike_id": "edb08f83f3be3b18d968410a1e27ee10", "is_disabled": 0, "is_reserved": 0}, {"rental_uris": {"ios": "https://dc.lft.to/lastmile_qr_scan", "android": "https://dc.lft.to/lastmile_qr_scan"}, "lon": -77.040312, "type": "electric_scooter", "fusion_lat": 0.0, "lat": 38.92343483333333, "name": "cb8eac21dc063f127b5d2c32b624226a", "fusion_lon": 0.0, "bike_id": "cb8eac21dc063f127b5d2c32b624226a", "is_disabled": 0, "is_reserved": 0}, {"rental_uris": {"ios": "https://dc.lft.to/lastmile_qr_scan", "android": "https://dc.lft.to/lastmile_qr_scan"}, "lon": -77.00259016666666, "type": "electric_scooter", "fusion_lat": 0.0, "lat": 38.901276, "name": "6260ccaab6cdb150b45b62cfdd528383", "fusion_lon": 0.0, "bike_id": "6260ccaab6cdb150b45b62cfdd528383", "is_disabled": 0, "is_reserved": 0}, {"rental_uris": {"ios": "https://dc.lft.to/lastmile_qr_scan", "android": "https://dc.lft.to/lastmile_qr_scan"}, "lon": -76.999807, "type": "electric_scooter", "fusion_lat": 0.0, "lat": 38.83840033333333, "name": "bc4485c7080dbec7189ac2ded67e68b9", "fusion_lon": 0.0, "bike_id": "bc4485c7080dbec7189ac2ded67e68b9", "is_disabled": 0, "is_reserved": 0}, {"rental_uris": {"ios": "https://dc.lft.to/lastmile_qr_scan", "android": "https://dc.lft.to/lastmile_qr_scan"}, "lon": -77.002613, "type": "electric_scooter", "fusion_lat": 0.0, "lat": 38.877527, "name": "4698190af8c7416c85a181676f38c024", "fusion_lon": 0.0, "bike_id": "4698190af8c7416c85a181676f38c024", "is_disabled": 0, "is_reserved": 0}, {"rental_uris": {"ios": "https://dc.lft.to/lastmile_qr_scan", "android": "https://dc.lft.to/lastmile_qr_scan"}, "lon": -77.04806733333334, "type": "electric_scooter", "fusion_lat": 0.0, "lat": 38.893683833333334, "name": "03672bff787a46b5e8e1159c9836713b", "fusion_lon": 0.0, "bike_id": "03672bff787a46b5e8e1159c9836713b", "is_disabled": 0, "is_reserved": 0}, {"rental_uris": {"ios": "https://dc.lft.to/lastmile_qr_scan", "android": "https://dc.lft.to/lastmile_qr_scan"}, "lon": -77.05438266666667, "type": "electric_scooter", "fusion_lat": 0.0, "lat": 38.896073, "name": "c07801e2be235facd7d4c1d9be531932", "fusion_lon": 0.0, "bike_id": "c07801e2be235facd7d4c1d9be531932", "is_disabled": 0, "is_reserved": 0}, {"rental_uris": {"ios": "https://dc.lft.to/lastmile_qr_scan", "android": "https://dc.lft.to/lastmile_qr_scan"}, "lon": -77.02126216666667, "type": "electric_scooter", "fusion_lat": 0.0, "lat": 38.909717666666666, "name": "8da2b927cc187a68be59d5b9dfd8dd44", "fusion_lon": 0.0, "bike_id": "8da2b927cc187a68be59d5b9dfd8dd44", "is_disabled": 0, "is_reserved": 0}, {"rental_uris": {"ios": "https://dc.lft.to/lastmile_qr_scan", "android": "https://dc.lft.to/lastmile_qr_scan"}, "lon": -77.0337835, "type": "electric_scooter", "fusion_lat": 0.0, "lat": 38.9384455, "name": "d058e32e73e99c6b18724846b53468a2", "fusion_lon": 0.0, "bike_id": "d058e32e73e99c6b18724846b53468a2", "is_disabled": 0, "is_reserved": 0}, {"rental_uris": {"ios": "https://dc.lft.to/lastmile_qr_scan", "android": "https://dc.lft.to/lastmile_qr_scan"}, "lon": -77.01836283333333, "type": "electric_scooter", "fusion_lat": 0.0, "lat": 38.90881233333333, "name": "44dab5e11d49b998ca8cadb31ea6d083", "fusion_lon": 0.0, "bike_id": "44dab5e11d49b998ca8cadb31ea6d083", "is_disabled": 0, "is_reserved": 0}, {"rental_uris": {"ios": "https://dc.lft.to/lastmile_qr_scan", "android": "https://dc.lft.to/lastmile_qr_scan"}, "lon": -77.01121533333334, "type": "electric_scooter", "fusion_lat": 0.0, "lat": 38.900271333333336, "name": "6450b09252ef70d64621f9e1f5305615", "fusion_lon": 0.0, "bike_id": "6450b09252ef70d64621f9e1f5305615", "is_disabled": 0, "is_reserved": 0}, {"rental_uris": {"ios": "https://dc.lft.to/lastmile_qr_scan", "android": "https://dc.lft.to/lastmile_qr_scan"}, "lon": -77.00525816666666, "type": "electric_scooter", "fusion_lat": 0.0, "lat": 38.9289925, "name": "c9b29e54f14bb16a7b0d04dabe57d1b9", "fusion_lon": 0.0, "bike_id": "c9b29e54f14bb16a7b0d04dabe57d1b9", "is_disabled": 0, "is_reserved": 0}, {"rental_uris": {"ios": "https://dc.lft.to/lastmile_qr_scan", "android": "https://dc.lft.to/lastmile_qr_scan"}, "lon": -76.98264616666667, "type": "electric_scooter", "fusion_lat": 0.0, "lat": 38.86354933333333, "name": "3c089183825ffa7c0985e39209e30b7c", "fusion_lon": 0.0, "bike_id": "3c089183825ffa7c0985e39209e30b7c", "is_disabled": 0, "is_reserved": 0}, {"rental_uris": {"ios": "https://dc.lft.to/lastmile_qr_scan", "android": "https://dc.lft.to/lastmile_qr_scan"}, "lon": -76.98562416666667, "type": "electric_bike", "fusion_lat": 0.0, "lat": 38.89214583333333, "name": "1b6bb1607b49d7323bdac104b5cb3d21", "fusion_lon": 0.0, "bike_id": "1b6bb1607b49d7323bdac104b5cb3d21", "is_disabled": 0, "is_reserved": 0}, {"rental_uris": {"ios": "https://dc.lft.to/lastmile_qr_scan", "android": "https://dc.lft.to/lastmile_qr_scan"}, "lon": -77.04433516666667, "type": "electric_scooter", "fusion_lat": 0.0, "lat": 38.90569933333333, "name": "719def10bfde24b9125602a5ba7910ca", "fusion_lon": 0.0, "bike_id": "719def10bfde24b9125602a5ba7910ca", "is_disabled": 0, "is_reserved": 0}, {"rental_uris": {"ios": "https://dc.lft.to/lastmile_qr_scan", "android": "https://dc.lft.to/lastmile_qr_scan"}, "lon": -77.01651883333334, "type": "electric_scooter", "fusion_lat": 0.0, "lat": 38.953330333333334, "name": "f7f65a1917633436f61ee0d27fc21f97", "fusion_lon": 0.0, "bike_id": "f7f65a1917633436f61ee0d27fc21f97", "is_disabled": 0, "is_reserved": 0}, {"rental_uris": {"ios": "https://dc.lft.to/lastmile_qr_scan", "android": "https://dc.lft.to/lastmile_qr_scan"}, "lon": -77.04975216666666, "type": "electric_scooter", "fusion_lat": 0.0, "lat": 38.901059000000004, "name": "d066532a32093d75707954aadc399a4b", "fusion_lon": 0.0, "bike_id": "d066532a32093d75707954aadc399a4b", "is_disabled": 0, "is_reserved": 0}, {"rental_uris": {"ios": "https://dc.lft.to/lastmile_qr_scan", "android": "https://dc.lft.to/lastmile_qr_scan"}, "lon": -77.042749, "type": "electric_scooter", "fusion_lat": 0.0, "lat": 38.923106, "name": "96705a502d0adc56b0d19fb90509d94f", "fusion_lon": 0.0, "bike_id": "96705a502d0adc56b0d19fb90509d94f", "is_disabled": 0, "is_reserved": 0}, {"rental_uris": {"ios": "https://dc.lft.to/lastmile_qr_scan", "android": "https://dc.lft.to/lastmile_qr_scan"}, "lon": -76.965274, "type": "electric_scooter", "fusion_lat": 0.0, "lat": 38.876276, "name": "b3406d7588b62cfc972d84b615d35a11", "fusion_lon": 0.0, "bike_id": "b3406d7588b62cfc972d84b615d35a11", "is_disabled": 0, "is_reserved": 0}, {"rental_uris": {"ios": "https://dc.lft.to/lastmile_qr_scan", "android": "https://dc.lft.to/lastmile_qr_scan"}, "lon": -77.04190966666667, "type": "electric_scooter", "fusion_lat": 0.0, "lat": 38.9126085, "name": "4520d7acffb9044fff0f94f8b1ed5c75", "fusion_lon": 0.0, "bike_id": "4520d7acffb9044fff0f94f8b1ed5c75", "is_disabled": 0, "is_reserved": 0}, {"rental_uris": {"ios": "https://dc.lft.to/lastmile_qr_scan", "android": "https://dc.lft.to/lastmile_qr_scan"}, "lon": -77.01602783333334, "type": "electric_scooter", "fusion_lat": 0.0, "lat": 38.899774666666666, "name": "618af537e1558d99f155ff9434e20479", "fusion_lon": 0.0, "bike_id": "618af537e1558d99f155ff9434e20479", "is_disabled": 0, "is_reserved": 0}, {"rental_uris": {"ios": "https://dc.lft.to/lastmile_qr_scan", "android": "https://dc.lft.to/lastmile_qr_scan"}, "lon": -77.03300083333333, "type": "electric_scooter", "fusion_lat": 0.0, "lat": 38.91115, "name": "d1e0dc2c04aada30627e2977d47f5c83", "fusion_lon": 0.0, "bike_id": "d1e0dc2c04aada30627e2977d47f5c83", "is_disabled": 0, "is_reserved": 0}, {"rental_uris": {"ios": "https://dc.lft.to/lastmile_qr_scan", "android": "https://dc.lft.to/lastmile_qr_scan"}, "lon": -77.01109516666666, "type": "electric_scooter", "fusion_lat": 0.0, "lat": 38.90358966666667, "name": "cc635a6544358d5b171e5f6eba6494ca", "fusion_lon": 0.0, "bike_id": "cc635a6544358d5b171e5f6eba6494ca", "is_disabled": 0, "is_reserved": 0}, {"rental_uris": {"ios": "https://dc.lft.to/lastmile_qr_scan", "android": "https://dc.lft.to/lastmile_qr_scan"}, "lon": -77.01523616666667, "type": "electric_scooter", "fusion_lat": 0.0, "lat": 38.916094666666666, "name": "d89a5e2160d57a32fff462bff56c9e1a", "fusion_lon": 0.0, "bike_id": "d89a5e2160d57a32fff462bff56c9e1a", "is_disabled": 0, "is_reserved": 0}, {"rental_uris": {"ios": "https://dc.lft.to/lastmile_qr_scan", "android": "https://dc.lft.to/lastmile_qr_scan"}, "lon": -77.02801533333333, "type": "electric_scooter", "fusion_lat": 0.0, "lat": 38.89903433333333, "name": "36db9e63af4cf354ff82a3f917ac9c80", "fusion_lon": 0.0, "bike_id": "36db9e63af4cf354ff82a3f917ac9c80", "is_disabled": 0, "is_reserved": 0}, {"rental_uris": {"ios": "https://dc.lft.to/lastmile_qr_scan", "android": "https://dc.lft.to/lastmile_qr_scan"}, "lon": -77.03324916666666, "type": "electric_scooter", "fusion_lat": 0.0, "lat": 38.919164, "name": "5cf60246328f57fd8d00ccac3f619f5d", "fusion_lon": 0.0, "bike_id": "5cf60246328f57fd8d00ccac3f619f5d", "is_disabled": 0, "is_reserved": 0}, {"rental_uris": {"ios": "https://dc.lft.to/lastmile_qr_scan", "android": "https://dc.lft.to/lastmile_qr_scan"}, "lon": -77.17839933333333, "type": "electric_bike", "fusion_lat": 0.0, "lat": 39.088558, "name": "4198567255ba7bf7cd586ea71a19333a", "fusion_lon": 0.0, "bike_id": "4198567255ba7bf7cd586ea71a19333a", "is_disabled": 0, "is_reserved": 0}, {"rental_uris": {"ios": "https://dc.lft.to/lastmile_qr_scan", "android": "https://dc.lft.to/lastmile_qr_scan"}, "lon": -77.02704733333333, "type": "electric_scooter", "fusion_lat": 0.0, "lat": 38.95004133333333, "name": "8442d8a651c296e83f976669f2577407", "fusion_lon": 0.0, "bike_id": "8442d8a651c296e83f976669f2577407", "is_disabled": 0, "is_reserved": 0}, {"rental_uris": {"ios": "https://dc.lft.to/lastmile_qr_scan", "android": "https://dc.lft.to/lastmile_qr_scan"}, "lon": -76.95356666666666, "type": "electric_bike", "fusion_lat": 0.0, "lat": 38.93953716666667, "name": "a86aed031997ad175505f65d820034b6", "fusion_lon": 0.0, "bike_id": "a86aed031997ad175505f65d820034b6", "is_disabled": 0, "is_reserved": 0}, {"rental_uris": {"ios": "https://dc.lft.to/lastmile_qr_scan", "android": "https://dc.lft.to/lastmile_qr_scan"}, "lon": -77.0356735, "type": "electric_scooter", "fusion_lat": 0.0, "lat": 38.907600333333335, "name": "767c7a34f7ae0b07bd8f63f53603decb", "fusion_lon": 0.0, "bike_id": "767c7a34f7ae0b07bd8f63f53603decb", "is_disabled": 0, "is_reserved": 0}, {"rental_uris": {"ios": "https://dc.lft.to/lastmile_qr_scan", "android": "https://dc.lft.to/lastmile_qr_scan"}, "lon": -77.03261466666666, "type": "electric_scooter", "fusion_lat": 0.0, "lat": 38.92741816666667, "name": "b023ec76c2da6b00428e67c7ff4b0085", "fusion_lon": 0.0, "bike_id": "b023ec76c2da6b00428e67c7ff4b0085", "is_disabled": 0, "is_reserved": 0}, {"rental_uris": {"ios": "https://dc.lft.to/lastmile_qr_scan", "android": "https://dc.lft.to/lastmile_qr_scan"}, "lon": -77.0019905, "type": "electric_scooter", "fusion_lat": 0.0, "lat": 38.900156333333335, "name": "b230e27d6dc294f72cb6a990d1bbb637", "fusion_lon": 0.0, "bike_id": "b230e27d6dc294f72cb6a990d1bbb637", "is_disabled": 0, "is_reserved": 0}, {"rental_uris": {"ios": "https://dc.lft.to/lastmile_qr_scan", "android": "https://dc.lft.to/lastmile_qr_scan"}, "lon": -77.0441965, "type": "electric_scooter", "fusion_lat": 0.0, "lat": 38.922330333333335, "name": "621ecf92d632efef42c7e85a4533f3a1", "fusion_lon": 0.0, "bike_id": "621ecf92d632efef42c7e85a4533f3a1", "is_disabled": 0, "is_reserved": 0}, {"rental_uris": {"ios": "https://dc.lft.to/lastmile_qr_scan", "android": "https://dc.lft.to/lastmile_qr_scan"}, "lon": -76.98899466666667, "type": "electric_scooter", "fusion_lat": 0.0, "lat": 38.8669295, "name": "f23a049ea8025001fb96991034a3b32c", "fusion_lon": 0.0, "bike_id": "f23a049ea8025001fb96991034a3b32c", "is_disabled": 0, "is_reserved": 0}, {"rental_uris": {"ios": "https://dc.lft.to/lastmile_qr_scan", "android": "https://dc.lft.to/lastmile_qr_scan"}, "lon": -77.03494366666666, "type": "electric_scooter", "fusion_lat": 0.0, "lat": 38.91921116666666, "name": "c0416a5ca3ae8dbdc8c10df4682294c8", "fusion_lon": 0.0, "bike_id": "c0416a5ca3ae8dbdc8c10df4682294c8", "is_disabled": 0, "is_reserved": 0}, {"rental_uris": {"ios": "https://dc.lft.to/lastmile_qr_scan", "android": "https://dc.lft.to/lastmile_qr_scan"}, "lon": -77.0430395, "type": "electric_bike", "fusion_lat": 0.0, "lat": 39.0544665, "name": "89ecae2a686c1951ff7d84b7c6ddbbd0", "fusion_lon": 0.0, "bike_id": "89ecae2a686c1951ff7d84b7c6ddbbd0", "is_disabled": 0, "is_reserved": 0}, {"rental_uris": {"ios": "https://dc.lft.to/lastmile_qr_scan", "android": "https://dc.lft.to/lastmile_qr_scan"}, "lon": -77.03795333333333, "type": "electric_scooter", "fusion_lat": 0.0, "lat": 38.9302715, "name": "8ebe22e1cac21716a49551f004b58c1a", "fusion_lon": 0.0, "bike_id": "8ebe22e1cac21716a49551f004b58c1a", "is_disabled": 0, "is_reserved": 0}, {"rental_uris": {"ios": "https://dc.lft.to/lastmile_qr_scan", "android": "https://dc.lft.to/lastmile_qr_scan"}, "lon": -77.04848133333333, "type": "electric_scooter", "fusion_lat": 0.0, "lat": 38.905367166666665, "name": "1921dafb4a6125039b21d2628900de73", "fusion_lon": 0.0, "bike_id": "1921dafb4a6125039b21d2628900de73", "is_disabled": 0, "is_reserved": 0}, {"rental_uris": {"ios": "https://dc.lft.to/lastmile_qr_scan", "android": "https://dc.lft.to/lastmile_qr_scan"}, "lon": -77.10893883333334, "type": "electric_bike", "fusion_lat": 0.0, "lat": 38.830427, "name": "93d3302bc844fbaec610716a91157705", "fusion_lon": 0.0, "bike_id": "93d3302bc844fbaec610716a91157705", "is_disabled": 0, "is_reserved": 0}, {"rental_uris": {"ios": "https://dc.lft.to/lastmile_qr_scan", "android": "https://dc.lft.to/lastmile_qr_scan"}, "lon": -77.0109775, "type": "electric_bike", "fusion_lat": 0.0, "lat": 38.96311683333333, "name": "5292cdf3b3441cdd1915f4f33eabd274", "fusion_lon": 0.0, "bike_id": "5292cdf3b3441cdd1915f4f33eabd274", "is_disabled": 0, "is_reserved": 0}, {"rental_uris": {"ios": "https://dc.lft.to/lastmile_qr_scan", "android": "https://dc.lft.to/lastmile_qr_scan"}, "lon": -77.02208233333333, "type": "electric_scooter", "fusion_lat": 0.0, "lat": 38.905311166666664, "name": "316b7c0eadb5f63f0fb4ce2451cb5fd3", "fusion_lon": 0.0, "bike_id": "316b7c0eadb5f63f0fb4ce2451cb5fd3", "is_disabled": 0, "is_reserved": 0}, {"rental_uris": {"ios": "https://dc.lft.to/lastmile_qr_scan", "android": "https://dc.lft.to/lastmile_qr_scan"}, "lon": -76.99145566666667, "type": "electric_scooter", "fusion_lat": 0.0, "lat": 38.89346183333333, "name": "2a13606501ea267c904a0fe8e94c0d95", "fusion_lon": 0.0, "bike_id": "2a13606501ea267c904a0fe8e94c0d95", "is_disabled": 0, "is_reserved": 0}, {"rental_uris": {"ios": "https://dc.lft.to/lastmile_qr_scan", "android": "https://dc.lft.to/lastmile_qr_scan"}, "lon": -77.01814216666666, "type": "electric_scooter", "fusion_lat": 0.0, "lat": 38.904252166666666, "name": "db673cf4bd70fd0cec2e35b7669a491c", "fusion_lon": 0.0, "bike_id": "db673cf4bd70fd0cec2e35b7669a491c", "is_disabled": 0, "is_reserved": 0}, {"rental_uris": {"ios": "https://dc.lft.to/lastmile_qr_scan", "android": "https://dc.lft.to/lastmile_qr_scan"}, "lon": -76.9732185, "type": "electric_scooter", "fusion_lat": 0.0, "lat": 38.90478266666667, "name": "2cc019268dfbab84514495ce49455d4d", "fusion_lon": 0.0, "bike_id": "2cc019268dfbab84514495ce49455d4d", "is_disabled": 0, "is_reserved": 0}, {"rental_uris": {"ios": "https://dc.lft.to/lastmile_qr_scan", "android": "https://dc.lft.to/lastmile_qr_scan"}, "lon": -76.9951935, "type": "electric_scooter", "fusion_lat": 0.0, "lat": 38.88376916666667, "name": "cc28fe6ea36fc890e3430fc8054c7666", "fusion_lon": 0.0, "bike_id": "cc28fe6ea36fc890e3430fc8054c7666", "is_disabled": 0, "is_reserved": 0}, {"rental_uris": {"ios": "https://dc.lft.to/lastmile_qr_scan", "android": "https://dc.lft.to/lastmile_qr_scan"}, "lon": -77.0013345, "type": "electric_scooter", "fusion_lat": 0.0, "lat": 38.904138333333336, "name": "6fa9bf92267357c654ef6abab09c5912", "fusion_lon": 0.0, "bike_id": "6fa9bf92267357c654ef6abab09c5912", "is_disabled": 0, "is_reserved": 0}, {"rental_uris": {"ios": "https://dc.lft.to/lastmile_qr_scan", "android": "https://dc.lft.to/lastmile_qr_scan"}, "lon": -77.03346933333333, "type": "electric_scooter", "fusion_lat": 0.0, "lat": 38.92877, "name": "c2bebadf3fd78b0afabf58aa733c6ae9", "fusion_lon": 0.0, "bike_id": "c2bebadf3fd78b0afabf58aa733c6ae9", "is_disabled": 0, "is_reserved": 0}, {"rental_uris": {"ios": "https://dc.lft.to/lastmile_qr_scan", "android": "https://dc.lft.to/lastmile_qr_scan"}, "lon": -77.0467925, "type": "electric_scooter", "fusion_lat": 0.0, "lat": 38.89732083333333, "name": "c9258f319ab4b55d72ddd711f1f9d3e4", "fusion_lon": 0.0, "bike_id": "c9258f319ab4b55d72ddd711f1f9d3e4", "is_disabled": 0, "is_reserved": 0}, {"rental_uris": {"ios": "https://dc.lft.to/lastmile_qr_scan", "android": "https://dc.lft.to/lastmile_qr_scan"}, "lon": -77.02136233333333, "type": "electric_scooter", "fusion_lat": 0.0, "lat": 38.93762316666667, "name": "9f7b07dfd108e756393fb3a63c7b1971", "fusion_lon": 0.0, "bike_id": "9f7b07dfd108e756393fb3a63c7b1971", "is_disabled": 0, "is_reserved": 0}, {"rental_uris": {"ios": "https://dc.lft.to/lastmile_qr_scan", "android": "https://dc.lft.to/lastmile_qr_scan"}, "lon": -77.0330875, "type": "electric_scooter", "fusion_lat": 0.0, "lat": 38.926563333333334, "name": "c162acdec20da74670e6722a3df76ff1", "fusion_lon": 0.0, "bike_id": "c162acdec20da74670e6722a3df76ff1", "is_disabled": 0, "is_reserved": 0}, {"rental_uris": {"ios": "https://dc.lft.to/lastmile_qr_scan", "android": "https://dc.lft.to/lastmile_qr_scan"}, "lon": -76.97673133333333, "type": "electric_scooter", "fusion_lat": 0.0, "lat": 38.89884466666667, "name": "a8665b44f2237b190dace368ea90c0df", "fusion_lon": 0.0, "bike_id": "a8665b44f2237b190dace368ea90c0df", "is_disabled": 0, "is_reserved": 0}, {"rental_uris": {"ios": "https://dc.lft.to/lastmile_qr_scan", "android": "https://dc.lft.to/lastmile_qr_scan"}, "lon": -77.02376766666667, "type": "electric_scooter", "fusion_lat": 0.0, "lat": 38.95245216666667, "name": "ae63d9a1d30d2a2874d21a8502313440", "fusion_lon": 0.0, "bike_id": "ae63d9a1d30d2a2874d21a8502313440", "is_disabled": 0, "is_reserved": 0}, {"rental_uris": {"ios": "https://dc.lft.to/lastmile_qr_scan", "android": "https://dc.lft.to/lastmile_qr_scan"}, "lon": -76.990198, "type": "electric_scooter", "fusion_lat": 0.0, "lat": 38.861044666666665, "name": "f333c2790e703909b0828ecb793f86ca", "fusion_lon": 0.0, "bike_id": "f333c2790e703909b0828ecb793f86ca", "is_disabled": 0, "is_reserved": 0}, {"rental_uris": {"ios": "https://dc.lft.to/lastmile_qr_scan", "android": "https://dc.lft.to/lastmile_qr_scan"}, "lon": -76.99035283333333, "type": "electric_scooter", "fusion_lat": 0.0, "lat": 38.863957666666664, "name": "33d52e64094707bafca2408cf6c9ad2a", "fusion_lon": 0.0, "bike_id": "33d52e64094707bafca2408cf6c9ad2a", "is_disabled": 0, "is_reserved": 0}, {"rental_uris": {"ios": "https://dc.lft.to/lastmile_qr_scan", "android": "https://dc.lft.to/lastmile_qr_scan"}, "lon": -76.99749633333333, "type": "electric_scooter", "fusion_lat": 0.0, "lat": 38.900171666666665, "name": "b628b4d1664c7f064d58383b9f6f4c58", "fusion_lon": 0.0, "bike_id": "b628b4d1664c7f064d58383b9f6f4c58", "is_disabled": 0, "is_reserved": 0}, {"rental_uris": {"ios": "https://dc.lft.to/lastmile_qr_scan", "android": "https://dc.lft.to/lastmile_qr_scan"}, "lon": -77.030696, "type": "electric_scooter", "fusion_lat": 0.0, "lat": 38.9057135, "name": "56066f3e0c5a90c58d07081fc982ce29", "fusion_lon": 0.0, "bike_id": "56066f3e0c5a90c58d07081fc982ce29", "is_disabled": 0, "is_reserved": 0}, {"rental_uris": {"ios": "https://dc.lft.to/lastmile_qr_scan", "android": "https://dc.lft.to/lastmile_qr_scan"}, "lon": -77.03184466666667, "type": "electric_scooter", "fusion_lat": 0.0, "lat": 38.91924016666667, "name": "bc2a20e7b0255f81bfb8eff1b7a8867f", "fusion_lon": 0.0, "bike_id": "bc2a20e7b0255f81bfb8eff1b7a8867f", "is_disabled": 0, "is_reserved": 0}, {"rental_uris": {"ios": "https://dc.lft.to/lastmile_qr_scan", "android": "https://dc.lft.to/lastmile_qr_scan"}, "lon": -77.02776, "type": "electric_scooter", "fusion_lat": 0.0, "lat": 38.92686416666667, "name": "ba73f1bf997db76e75d3b8b114dfed72", "fusion_lon": 0.0, "bike_id": "ba73f1bf997db76e75d3b8b114dfed72", "is_disabled": 0, "is_reserved": 0}, {"rental_uris": {"ios": "https://dc.lft.to/lastmile_qr_scan", "android": "https://dc.lft.to/lastmile_qr_scan"}, "lon": -76.98014416666666, "type": "electric_bike", "fusion_lat": 0.0, "lat": 38.9023345, "name": "4e8ec51f767e2620ee572f3db3861706", "fusion_lon": 0.0, "bike_id": "4e8ec51f767e2620ee572f3db3861706", "is_disabled": 0, "is_reserved": 0}, {"rental_uris": {"ios": "https://dc.lft.to/lastmile_qr_scan", "android": "https://dc.lft.to/lastmile_qr_scan"}, "lon": -76.9476245, "type": "electric_scooter", "fusion_lat": 0.0, "lat": 38.900560666666664, "name": "751308234e3c94c6aed237d581bf7f85", "fusion_lon": 0.0, "bike_id": "751308234e3c94c6aed237d581bf7f85", "is_disabled": 0, "is_reserved": 0}, {"rental_uris": {"ios": "https://dc.lft.to/lastmile_qr_scan", "android": "https://dc.lft.to/lastmile_qr_scan"}, "lon": -77.03425283333333, "type": "electric_scooter", "fusion_lat": 0.0, "lat": 38.92738816666667, "name": "6752240b753e4baf2cce632e2aaaefac", "fusion_lon": 0.0, "bike_id": "6752240b753e4baf2cce632e2aaaefac", "is_disabled": 0, "is_reserved": 0}, {"rental_uris": {"ios": "https://dc.lft.to/lastmile_qr_scan", "android": "https://dc.lft.to/lastmile_qr_scan"}, "lon": -76.99171316666667, "type": "electric_scooter", "fusion_lat": 0.0, "lat": 38.87924966666667, "name": "aa1b93b206919aa66014ebabc59d8ef3", "fusion_lon": 0.0, "bike_id": "aa1b93b206919aa66014ebabc59d8ef3", "is_disabled": 0, "is_reserved": 0}, {"rental_uris": {"ios": "https://dc.lft.to/lastmile_qr_scan", "android": "https://dc.lft.to/lastmile_qr_scan"}, "lon": -77.02499983333334, "type": "electric_scooter", "fusion_lat": 0.0, "lat": 38.9428725, "name": "da6baac4ecd4150d824ba00093f7ebbe", "fusion_lon": 0.0, "bike_id": "da6baac4ecd4150d824ba00093f7ebbe", "is_disabled": 0, "is_reserved": 0}, {"rental_uris": {"ios": "https://dc.lft.to/lastmile_qr_scan", "android": "https://dc.lft.to/lastmile_qr_scan"}, "lon": -77.0092765, "type": "electric_scooter", "fusion_lat": 0.0, "lat": 38.916929833333334, "name": "beef1707264317f4721ced107a94041f", "fusion_lon": 0.0, "bike_id": "beef1707264317f4721ced107a94041f", "is_disabled": 0, "is_reserved": 0}, {"rental_uris": {"ios": "https://dc.lft.to/lastmile_qr_scan", "android": "https://dc.lft.to/lastmile_qr_scan"}, "lon": -77.020689, "type": "electric_scooter", "fusion_lat": 0.0, "lat": 38.90420683333333, "name": "5862f4732979ad565423250c7b52ae8c", "fusion_lon": 0.0, "bike_id": "5862f4732979ad565423250c7b52ae8c", "is_disabled": 0, "is_reserved": 0}, {"rental_uris": {"ios": "https://dc.lft.to/lastmile_qr_scan", "android": "https://dc.lft.to/lastmile_qr_scan"}, "lon": -77.064761, "type": "electric_bike", "fusion_lat": 0.0, "lat": 38.97383283333333, "name": "45cde95c0f4aaa54ba592634baae1510", "fusion_lon": 0.0, "bike_id": "45cde95c0f4aaa54ba592634baae1510", "is_disabled": 0, "is_reserved": 0}, {"rental_uris": {"ios": "https://dc.lft.to/lastmile_qr_scan", "android": "https://dc.lft.to/lastmile_qr_scan"}, "lon": -77.00213383333333, "type": "electric_scooter", "fusion_lat": 0.0, "lat": 38.905142, "name": "14aa0544aa077f556e115f5d09fe603b", "fusion_lon": 0.0, "bike_id": "14aa0544aa077f556e115f5d09fe603b", "is_disabled": 0, "is_reserved": 0}, {"rental_uris": {"ios": "https://dc.lft.to/lastmile_qr_scan", "android": "https://dc.lft.to/lastmile_qr_scan"}, "lon": -77.002586, "type": "electric_scooter", "fusion_lat": 0.0, "lat": 38.9012705, "name": "d667dd0df0ee9fc8857cf0f5c4e4687e", "fusion_lon": 0.0, "bike_id": "d667dd0df0ee9fc8857cf0f5c4e4687e", "is_disabled": 0, "is_reserved": 0}, {"rental_uris": {"ios": "https://dc.lft.to/lastmile_qr_scan", "android": "https://dc.lft.to/lastmile_qr_scan"}, "lon": -77.0268165, "type": "electric_scooter", "fusion_lat": 0.0, "lat": 38.900096, "name": "c4c512a4de89ce39033fde0f6242029a", "fusion_lon": 0.0, "bike_id": "c4c512a4de89ce39033fde0f6242029a", "is_disabled": 0, "is_reserved": 0}, {"rental_uris": {"ios": "https://dc.lft.to/lastmile_qr_scan", "android": "https://dc.lft.to/lastmile_qr_scan"}, "lon": -77.04159583333333, "type": "electric_scooter", "fusion_lat": 0.0, "lat": 38.91025483333333, "name": "8dde0916d0fa30d78b6c92548c692c17", "fusion_lon": 0.0, "bike_id": "8dde0916d0fa30d78b6c92548c692c17", "is_disabled": 0, "is_reserved": 0}, {"rental_uris": {"ios": "https://dc.lft.to/lastmile_qr_scan", "android": "https://dc.lft.to/lastmile_qr_scan"}, "lon": -77.03383133333334, "type": "electric_scooter", "fusion_lat": 0.0, "lat": 38.92158166666667, "name": "1230d874b6ed10a5171f657b8617b285", "fusion_lon": 0.0, "bike_id": "1230d874b6ed10a5171f657b8617b285", "is_disabled": 0, "is_reserved": 0}, {"rental_uris": {"ios": "https://dc.lft.to/lastmile_qr_scan", "android": "https://dc.lft.to/lastmile_qr_scan"}, "lon": -76.99069716666666, "type": "electric_scooter", "fusion_lat": 0.0, "lat": 38.90414583333333, "name": "7c189167a9c858b943aa9e76386245a5", "fusion_lon": 0.0, "bike_id": "7c189167a9c858b943aa9e76386245a5", "is_disabled": 0, "is_reserved": 0}, {"rental_uris": {"ios": "https://dc.lft.to/lastmile_qr_scan", "android": "https://dc.lft.to/lastmile_qr_scan"}, "lon": -77.005027, "type": "electric_scooter", "fusion_lat": 0.0, "lat": 38.875343, "name": "427cf9fd517e9988a584045beb064eef", "fusion_lon": 0.0, "bike_id": "427cf9fd517e9988a584045beb064eef", "is_disabled": 0, "is_reserved": 0}, {"rental_uris": {"ios": "https://dc.lft.to/lastmile_qr_scan", "android": "https://dc.lft.to/lastmile_qr_scan"}, "lon": -77.0150865, "type": "electric_scooter", "fusion_lat": 0.0, "lat": 38.910821166666665, "name": "da6fd10e210813acab901314da4d64a2", "fusion_lon": 0.0, "bike_id": "da6fd10e210813acab901314da4d64a2", "is_disabled": 0, "is_reserved": 0}, {"rental_uris": {"ios": "https://dc.lft.to/lastmile_qr_scan", "android": "https://dc.lft.to/lastmile_qr_scan"}, "lon": -77.034896, "type": "electric_scooter", "fusion_lat": 0.0, "lat": 38.9192485, "name": "1207a33ce7e172d8c123f651d237182e", "fusion_lon": 0.0, "bike_id": "1207a33ce7e172d8c123f651d237182e", "is_disabled": 0, "is_reserved": 0}, {"rental_uris": {"ios": "https://dc.lft.to/lastmile_qr_scan", "android": "https://dc.lft.to/lastmile_qr_scan"}, "lon": -77.04622866666666, "type": "electric_bike", "fusion_lat": 0.0, "lat": 38.99910916666666, "name": "0e35f3686cf3c921cc845deabe1c5ae7", "fusion_lon": 0.0, "bike_id": "0e35f3686cf3c921cc845deabe1c5ae7", "is_disabled": 0, "is_reserved": 0}, {"rental_uris": {"ios": "https://dc.lft.to/lastmile_qr_scan", "android": "https://dc.lft.to/lastmile_qr_scan"}, "lon": -76.9371945, "type": "electric_scooter", "fusion_lat": 0.0, "lat": 38.895913, "name": "cdd84d542ca854a7f251fd7571da9db5", "fusion_lon": 0.0, "bike_id": "cdd84d542ca854a7f251fd7571da9db5", "is_disabled": 0, "is_reserved": 0}, {"rental_uris": {"ios": "https://dc.lft.to/lastmile_qr_scan", "android": "https://dc.lft.to/lastmile_qr_scan"}, "lon": -77.04108466666666, "type": "electric_scooter", "fusion_lat": 0.0, "lat": 38.924436666666665, "name": "beb5912d57038080d2cd541fdecf4753", "fusion_lon": 0.0, "bike_id": "beb5912d57038080d2cd541fdecf4753", "is_disabled": 0, "is_reserved": 0}, {"rental_uris": {"ios": "https://dc.lft.to/lastmile_qr_scan", "android": "https://dc.lft.to/lastmile_qr_scan"}, "lon": -77.0329215, "type": "electric_scooter", "fusion_lat": 0.0, "lat": 38.909743666666664, "name": "7eb62803e595b7d76806899514c27260", "fusion_lon": 0.0, "bike_id": "7eb62803e595b7d76806899514c27260", "is_disabled": 0, "is_reserved": 0}, {"rental_uris": {"ios": "https://dc.lft.to/lastmile_qr_scan", "android": "https://dc.lft.to/lastmile_qr_scan"}, "lon": -77.01951233333334, "type": "electric_scooter", "fusion_lat": 0.0, "lat": 38.90364116666667, "name": "0a623b38b9c7d8e5ac851e1741177775", "fusion_lon": 0.0, "bike_id": "0a623b38b9c7d8e5ac851e1741177775", "is_disabled": 0, "is_reserved": 0}, {"rental_uris": {"ios": "https://dc.lft.to/lastmile_qr_scan", "android": "https://dc.lft.to/lastmile_qr_scan"}, "lon": -76.97409833333333, "type": "electric_scooter", "fusion_lat": 0.0, "lat": 38.90155983333333, "name": "250334547329026a9827296da29cb283", "fusion_lon": 0.0, "bike_id": "250334547329026a9827296da29cb283", "is_disabled": 0, "is_reserved": 0}, {"rental_uris": {"ios": "https://dc.lft.to/lastmile_qr_scan", "android": "https://dc.lft.to/lastmile_qr_scan"}, "lon": -76.97932016666667, "type": "electric_scooter", "fusion_lat": 0.0, "lat": 38.90671533333333, "name": "3f751fa9ab64713c4145a403225e4ba7", "fusion_lon": 0.0, "bike_id": "3f751fa9ab64713c4145a403225e4ba7", "is_disabled": 0, "is_reserved": 0}, {"rental_uris": {"ios": "https://dc.lft.to/lastmile_qr_scan", "android": "https://dc.lft.to/lastmile_qr_scan"}, "lon": -77.035378, "type": "electric_scooter", "fusion_lat": 0.0, "lat": 38.904025833333336, "name": "947de487fe7cd2c5555aca977a95712f", "fusion_lon": 0.0, "bike_id": "947de487fe7cd2c5555aca977a95712f", "is_disabled": 0, "is_reserved": 0}, {"rental_uris": {"ios": "https://dc.lft.to/lastmile_qr_scan", "android": "https://dc.lft.to/lastmile_qr_scan"}, "lon": -77.04666433333334, "type": "electric_scooter", "fusion_lat": 0.0, "lat": 38.913189, "name": "4b2fe1147c94946d921ba3377b0b4aed", "fusion_lon": 0.0, "bike_id": "4b2fe1147c94946d921ba3377b0b4aed", "is_disabled": 0, "is_reserved": 0}, {"rental_uris": {"ios": "https://dc.lft.to/lastmile_qr_scan", "android": "https://dc.lft.to/lastmile_qr_scan"}, "lon": -77.0325385, "type": "electric_scooter", "fusion_lat": 0.0, "lat": 38.9045015, "name": "0c92875770826005c2b6cfaacc6982ab", "fusion_lon": 0.0, "bike_id": "0c92875770826005c2b6cfaacc6982ab", "is_disabled": 0, "is_reserved": 0}, {"rental_uris": {"ios": "https://dc.lft.to/lastmile_qr_scan", "android": "https://dc.lft.to/lastmile_qr_scan"}, "lon": -77.0107645, "type": "electric_scooter", "fusion_lat": 0.0, "lat": 38.8950135, "name": "3d22cb34144e839067e23ca7830780a1", "fusion_lon": 0.0, "bike_id": "3d22cb34144e839067e23ca7830780a1", "is_disabled": 0, "is_reserved": 0}, {"rental_uris": {"ios": "https://dc.lft.to/lastmile_qr_scan", "android": "https://dc.lft.to/lastmile_qr_scan"}, "lon": -77.0110765, "type": "electric_scooter", "fusion_lat": 0.0, "lat": 38.915604, "name": "56f6edf6df4de3d17668ab7291797997", "fusion_lon": 0.0, "bike_id": "56f6edf6df4de3d17668ab7291797997", "is_disabled": 0, "is_reserved": 0}, {"rental_uris": {"ios": "https://dc.lft.to/lastmile_qr_scan", "android": "https://dc.lft.to/lastmile_qr_scan"}, "lon": -77.00254016666666, "type": "electric_scooter", "fusion_lat": 0.0, "lat": 38.91188483333333, "name": "5f3b715b711b18773250f2b3aab54b0f", "fusion_lon": 0.0, "bike_id": "5f3b715b711b18773250f2b3aab54b0f", "is_disabled": 0, "is_reserved": 0}, {"rental_uris": {"ios": "https://dc.lft.to/lastmile_qr_scan", "android": "https://dc.lft.to/lastmile_qr_scan"}, "lon": -77.01201133333333, "type": "electric_scooter", "fusion_lat": 0.0, "lat": 38.8709825, "name": "9271e7b1b11d57a5d96c32e5798143d2", "fusion_lon": 0.0, "bike_id": "9271e7b1b11d57a5d96c32e5798143d2", "is_disabled": 0, "is_reserved": 0}, {"rental_uris": {"ios": "https://dc.lft.to/lastmile_qr_scan", "android": "https://dc.lft.to/lastmile_qr_scan"}, "lon": -77.04261383333333, "type": "electric_scooter", "fusion_lat": 0.0, "lat": 38.9072935, "name": "605fc362765c9f65b3dca5a1c3133f7f", "fusion_lon": 0.0, "bike_id": "605fc362765c9f65b3dca5a1c3133f7f", "is_disabled": 0, "is_reserved": 0}, {"rental_uris": {"ios": "https://dc.lft.to/lastmile_qr_scan", "android": "https://dc.lft.to/lastmile_qr_scan"}, "lon": -77.034327, "type": "electric_scooter", "fusion_lat": 0.0, "lat": 38.90346816666667, "name": "bc54562315f3f21ddf25bf571d1c205e", "fusion_lon": 0.0, "bike_id": "bc54562315f3f21ddf25bf571d1c205e", "is_disabled": 0, "is_reserved": 0}, {"rental_uris": {"ios": "https://dc.lft.to/lastmile_qr_scan", "android": "https://dc.lft.to/lastmile_qr_scan"}, "lon": -77.04159766666666, "type": "electric_scooter", "fusion_lat": 0.0, "lat": 38.9052925, "name": "26e10e4496a4965feef9453b47dec10c", "fusion_lon": 0.0, "bike_id": "26e10e4496a4965feef9453b47dec10c", "is_disabled": 0, "is_reserved": 0}, {"rental_uris": {"ios": "https://dc.lft.to/lastmile_qr_scan", "android": "https://dc.lft.to/lastmile_qr_scan"}, "lon": -77.00769683333333, "type": "electric_scooter", "fusion_lat": 0.0, "lat": 38.907606666666666, "name": "b6f2d848bcc59490823ec6d229f63a88", "fusion_lon": 0.0, "bike_id": "b6f2d848bcc59490823ec6d229f63a88", "is_disabled": 0, "is_reserved": 0}, {"rental_uris": {"ios": "https://dc.lft.to/lastmile_qr_scan", "android": "https://dc.lft.to/lastmile_qr_scan"}, "lon": -77.03199216666667, "type": "electric_scooter", "fusion_lat": 0.0, "lat": 38.91994616666667, "name": "240d80b69483a87bb00d02076d7c75c9", "fusion_lon": 0.0, "bike_id": "240d80b69483a87bb00d02076d7c75c9", "is_disabled": 0, "is_reserved": 0}, {"rental_uris": {"ios": "https://dc.lft.to/lastmile_qr_scan", "android": "https://dc.lft.to/lastmile_qr_scan"}, "lon": -77.06101716666667, "type": "electric_scooter", "fusion_lat": 0.0, "lat": 38.912203833333336, "name": "4457a13aaadd3e5fa738a45455dd1558", "fusion_lon": 0.0, "bike_id": "4457a13aaadd3e5fa738a45455dd1558", "is_disabled": 0, "is_reserved": 0}, {"rental_uris": {"ios": "https://dc.lft.to/lastmile_qr_scan", "android": "https://dc.lft.to/lastmile_qr_scan"}, "lon": -76.9353085, "type": "electric_scooter", "fusion_lat": 0.0, "lat": 38.89683866666667, "name": "52f26f73ca03d5dde231f794f5114515", "fusion_lon": 0.0, "bike_id": "52f26f73ca03d5dde231f794f5114515", "is_disabled": 0, "is_reserved": 0}, {"rental_uris": {"ios": "https://dc.lft.to/lastmile_qr_scan", "android": "https://dc.lft.to/lastmile_qr_scan"}, "lon": -77.045432, "type": "electric_scooter", "fusion_lat": 0.0, "lat": 38.919422833333336, "name": "1a56fe1fb0d74e7cb593919ded894e3a", "fusion_lon": 0.0, "bike_id": "1a56fe1fb0d74e7cb593919ded894e3a", "is_disabled": 0, "is_reserved": 0}, {"rental_uris": {"ios": "https://dc.lft.to/lastmile_qr_scan", "android": "https://dc.lft.to/lastmile_qr_scan"},