{"data": {"bikes": [{"lat": 38.9175825, "is_disabled": 0, "type": "electric_scooter", "lon": -77.02299883333333, "bike_id": "5559d9a339acf916d58eefc23cefc765", "fusion_lat": 0.0, "name": "5559d9a339acf916d58eefc23cefc765", "is_reserved": 0, "rental_uris": {"android": "https://dc.lft.to/lastmile_qr_scan", "ios": "https://dc.lft.to/lastmile_qr_scan"}, "fusion_lon": 0.0}, {"lat": 38.915717666666666, "is_disabled": 0, "type": "electric_scooter", "lon": -77.046674, "bike_id": "bd89ac224c6692e5ca9865db9ded2ce4", "fusion_lat": 0.0, "name": "bd89ac224c6692e5ca9865db9ded2ce4", "is_reserved": 0, "rental_uris": {"android": "https://dc.lft.to/lastmile_qr_scan", "ios": "https://dc.lft.to/lastmile_qr_scan"}, "fusion_lon": 0.0}, {"lat": 38.91317266666667, "is_disabled": 0, "type": "electric_scooter", "lon": -77.0365505, "bike_id": "a533333c61a23e22dbbc0378b38f992c", "fusion_lat": 0.0, "name": "a533333c61a23e22dbbc0378b38f992c", "is_reserved": 0, "rental_uris": {"android": "https://dc.lft.to/lastmile_qr_scan", "ios": "https://dc.lft.to/lastmile_qr_scan"}, "fusion_lon": 0.0}, {"lat": 38.911105666666664, "is_disabled": 0, "type": "electric_scooter", "lon": -77.035531, "bike_id": "fd27238f1a6d255d897fa3cbbc980290", "fusion_lat": 0.0, "name": "fd27238f1a6d255d897fa3cbbc980290", "is_reserved": 0, "rental_uris": {"android": "https://dc.lft.to/lastmile_qr_scan", "ios": "https://dc.lft.to/lastmile_qr_scan"}, "fusion_lon": 0.0}, {"lat": 38.95538916666667, "is_disabled": 0, "type": "electric_bike", "lon": -77.01783133333333, "bike_id": "8db6b0a9d6855172f626956118b4b59d", "fusion_lat": 0.0, "name": "8db6b0a9d6855172f626956118b4b59d", "is_reserved": 0, "rental_uris": {"android": "https://dc.lft.to/lastmile_qr_scan", "ios": "https://dc.lft.to/lastmile_qr_scan"}, "fusion_lon": 0.0}, {"lat": 38.9495075, "is_disabled": 0, "type": "electric_scooter", "lon": -77.01622733333333, "bike_id": "295510def774ec8672989e8a861662b4", "fusion_lat": 0.0, "name": "295510def774ec8672989e8a861662b4", "is_reserved": 0, "rental_uris": {"android": "https://dc.lft.to/lastmile_qr_scan", "ios": "https://dc.lft.to/lastmile_qr_scan"}, "fusion_lon": 0.0}, {"lat": 38.89852483333333, "is_disabled": 0, "type": "electric_scooter", "lon": -76.99034566666667, "bike_id": "97981134df693396e65ab9522e3896f7", "fusion_lat": 0.0, "name": "97981134df693396e65ab9522e3896f7", "is_reserved": 0, "rental_uris": {"android": "https://dc.lft.to/lastmile_qr_scan", "ios": "https://dc.lft.to/lastmile_qr_scan"}, "fusion_lon": 0.0}, {"lat": 38.923377, "is_disabled": 0, "type": "electric_bike", "lon": -77.05675583333333, "bike_id": "83cc98d7234170ff2e54aadf75e81bd2", "fusion_lat": 0.0, "name": "83cc98d7234170ff2e54aadf75e81bd2", "is_reserved": 0, "rental_uris": {"android": "https://dc.lft.to/lastmile_qr_scan", "ios": "https://dc.lft.to/lastmile_qr_scan"}, "fusion_lon": 0.0}, {"lat": 38.930119, "is_disabled": 0, "type": "electric_bike", "lon": -77.2164645, "bike_id": "dd8210d8862c70e5df07a67551cd73f1", "fusion_lat": 0.0, "name": "dd8210d8862c70e5df07a67551cd73f1", "is_reserved": 0, "rental_uris": {"android": "https://dc.lft.to/lastmile_qr_scan", "ios": "https://dc.lft.to/lastmile_qr_scan"}, "fusion_lon": 0.0}, {"lat": 38.902151333333336, "is_disabled": 0, "type": "electric_scooter", "lon": -76.94584916666666, "bike_id": "019db6be56a7fb79fc4ab99f292279dd", "fusion_lat": 0.0, "name": "019db6be56a7fb79fc4ab99f292279dd", "is_reserved": 0, "rental_uris": {"android": "https://dc.lft.to/lastmile_qr_scan", "ios": "https://dc.lft.to/lastmile_qr_scan"}, "fusion_lon": 0.0}, {"lat": 38.91964933333333, "is_disabled": 0, "type": "electric_bike", "lon": -76.97265833333333, "bike_id": "128e9641cc0470bb7735519e28a13478", "fusion_lat": 0.0, "name": "128e9641cc0470bb7735519e28a13478", "is_reserved": 0, "rental_uris": {"android": "https://dc.lft.to/lastmile_qr_scan", "ios": "https://dc.lft.to/lastmile_qr_scan"}, "fusion_lon": 0.0}, {"lat": 38.897759, "is_disabled": 0, "type": "electric_scooter", "lon": -77.04358383333333, "bike_id": "88ed2c519328583dc82341c46d70d7ab", "fusion_lat": 0.0, "name": "88ed2c519328583dc82341c46d70d7ab", "is_reserved": 0, "rental_uris": {"android": "https://dc.lft.to/lastmile_qr_scan", "ios": "https://dc.lft.to/lastmile_qr_scan"}, "fusion_lon": 0.0}, {"lat": 38.956159166666666, "is_disabled": 0, "type": "electric_scooter", "lon": -77.0278075, "bike_id": "6bf0629f5c2b745747b6329797de7c15", "fusion_lat": 0.0, "name": "6bf0629f5c2b745747b6329797de7c15", "is_reserved": 0, "rental_uris": {"android": "https://dc.lft.to/lastmile_qr_scan", "ios": "https://dc.lft.to/lastmile_qr_scan"}, "fusion_lon": 0.0}, {"lat": 38.930608666666664, "is_disabled": 0, "type": "electric_scooter", "lon": -77.04183233333333, "bike_id": "9fe418b0e659a4efa9ca465803600e62", "fusion_lat": 0.0, "name": "9fe418b0e659a4efa9ca465803600e62", "is_reserved": 0, "rental_uris": {"android": "https://dc.lft.to/lastmile_qr_scan", "ios": "https://dc.lft.to/lastmile_qr_scan"}, "fusion_lon": 0.0}, {"lat": 38.91518383333333, "is_disabled": 0, "type": "electric_scooter", "lon": -77.0384615, "bike_id": "b484810c8762d072ef9d56a68beb3621", "fusion_lat": 0.0, "name": "b484810c8762d072ef9d56a68beb3621", "is_reserved": 0, "rental_uris": {"android": "https://dc.lft.to/lastmile_qr_scan", "ios": "https://dc.lft.to/lastmile_qr_scan"}, "fusion_lon": 0.0}, {"lat": 38.93480666666667, "is_disabled": 0, "type": "electric_scooter", "lon": -77.07270033333333, "bike_id": "0ee284107f8cc0808881f1c6b3052f5b", "fusion_lat": 0.0, "name": "0ee284107f8cc0808881f1c6b3052f5b", "is_reserved": 0, "rental_uris": {"android": "https://dc.lft.to/lastmile_qr_scan", "ios": "https://dc.lft.to/lastmile_qr_scan"}, "fusion_lon": 0.0}, {"lat": 38.908686, "is_disabled": 0, "type": "electric_scooter", "lon": -77.08593683333334, "bike_id": "7fe69293aa4a212b69e8b0113173e384", "fusion_lat": 0.0, "name": "7fe69293aa4a212b69e8b0113173e384", "is_reserved": 0, "rental_uris": {"android": "https://dc.lft.to/lastmile_qr_scan", "ios": "https://dc.lft.to/lastmile_qr_scan"}, "fusion_lon": 0.0}, {"lat": 38.9076995, "is_disabled": 0, "type": "electric_scooter", "lon": -77.06809, "bike_id": "776de7e8aa3a83fd0272ad6218d68825", "fusion_lat": 0.0, "name": "776de7e8aa3a83fd0272ad6218d68825", "is_reserved": 0, "rental_uris": {"android": "https://dc.lft.to/lastmile_qr_scan", "ios": "https://dc.lft.to/lastmile_qr_scan"}, "fusion_lon": 0.0}, {"lat": 38.9363675, "is_disabled": 0, "type": "electric_scooter", "lon": -77.05876433333333, "bike_id": "fafca3344c62f2d877a37d0fd92168fc", "fusion_lat": 0.0, "name": "fafca3344c62f2d877a37d0fd92168fc", "is_reserved": 0, "rental_uris": {"android": "https://dc.lft.to/lastmile_qr_scan", "ios": "https://dc.lft.to/lastmile_qr_scan"}, "fusion_lon": 0.0}, {"lat": 38.90967966666667, "is_disabled": 0, "type": "electric_scooter", "lon": -77.031953, "bike_id": "a293dc0493b294b8b5f0853cbddf430d", "fusion_lat": 0.0, "name": "a293dc0493b294b8b5f0853cbddf430d", "is_reserved": 0, "rental_uris": {"android": "https://dc.lft.to/lastmile_qr_scan", "ios": "https://dc.lft.to/lastmile_qr_scan"}, "fusion_lon": 0.0}, {"lat": 38.9090435, "is_disabled": 0, "type": "electric_scooter", "lon": -76.99929683333333, "bike_id": "8c3ced4f2148eb4f4a682b15ff271362", "fusion_lat": 0.0, "name": "8c3ced4f2148eb4f4a682b15ff271362", "is_reserved": 0, "rental_uris": {"android": "https://dc.lft.to/lastmile_qr_scan", "ios": "https://dc.lft.to/lastmile_qr_scan"}, "fusion_lon": 0.0}, {"lat": 38.913535, "is_disabled": 0, "type": "electric_scooter", "lon": -77.0318665, "bike_id": "8b7766592d2dbd69fbbf6ffae013e1da", "fusion_lat": 0.0, "name": "8b7766592d2dbd69fbbf6ffae013e1da", "is_reserved": 0, "rental_uris": {"android": "https://dc.lft.to/lastmile_qr_scan", "ios": "https://dc.lft.to/lastmile_qr_scan"}, "fusion_lon": 0.0}, {"lat": 38.891162, "is_disabled": 0, "type": "electric_scooter", "lon": -76.94385016666666, "bike_id": "236aed5dc83a4bb93fb53f8cd5984977", "fusion_lat": 0.0, "name": "236aed5dc83a4bb93fb53f8cd5984977", "is_reserved": 0, "rental_uris": {"android": "https://dc.lft.to/lastmile_qr_scan", "ios": "https://dc.lft.to/lastmile_qr_scan"}, "fusion_lon": 0.0}, {"lat": 38.917018666666664, "is_disabled": 0, "type": "electric_scooter", "lon": -77.00816366666666, "bike_id": "acab0ff3ecb112a00b793627125e84e1", "fusion_lat": 0.0, "name": "acab0ff3ecb112a00b793627125e84e1", "is_reserved": 0, "rental_uris": {"android": "https://dc.lft.to/lastmile_qr_scan", "ios": "https://dc.lft.to/lastmile_qr_scan"}, "fusion_lon": 0.0}, {"lat": 38.93218933333333, "is_disabled": 0, "type": "electric_scooter", "lon": -77.0365165, "bike_id": "555e40e313349b41d2b35f529bf801cb", "fusion_lat": 0.0, "name": "555e40e313349b41d2b35f529bf801cb", "is_reserved": 0, "rental_uris": {"android": "https://dc.lft.to/lastmile_qr_scan", "ios": "https://dc.lft.to/lastmile_qr_scan"}, "fusion_lon": 0.0}, {"lat": 38.93068366666667, "is_disabled": 0, "type": "electric_scooter", "lon": -77.03158433333333, "bike_id": "fef5b6bb1ddfe0afe8e24a3227055f51", "fusion_lat": 0.0, "name": "fef5b6bb1ddfe0afe8e24a3227055f51", "is_reserved": 0, "rental_uris": {"android": "https://dc.lft.to/lastmile_qr_scan", "ios": "https://dc.lft.to/lastmile_qr_scan"}, "fusion_lon": 0.0}, {"lat": 38.90619816666667, "is_disabled": 0, "type": "electric_scooter", "lon": -76.98989133333333, "bike_id": "8b88c369a18fa3ef4899bf2540f172b5", "fusion_lat": 0.0, "name": "8b88c369a18fa3ef4899bf2540f172b5", "is_reserved": 0, "rental_uris": {"android": "https://dc.lft.to/lastmile_qr_scan", "ios": "https://dc.lft.to/lastmile_qr_scan"}, "fusion_lon": 0.0}, {"lat": 38.85907066666667, "is_disabled": 0, "type": "electric_scooter", "lon": -76.9913945, "bike_id": "b59aeb898e519c0c2541082ae54f6464", "fusion_lat": 0.0, "name": "b59aeb898e519c0c2541082ae54f6464", "is_reserved": 0, "rental_uris": {"android": "https://dc.lft.to/lastmile_qr_scan", "ios": "https://dc.lft.to/lastmile_qr_scan"}, "fusion_lon": 0.0}, {"lat": 38.934081, "is_disabled": 0, "type": "electric_scooter", "lon": -77.03268316666667, "bike_id": "e8e1caf83107cd7887d26cf75ee39504", "fusion_lat": 0.0, "name": "e8e1caf83107cd7887d26cf75ee39504", "is_reserved": 0, "rental_uris": {"android": "https://dc.lft.to/lastmile_qr_scan", "ios": "https://dc.lft.to/lastmile_qr_scan"}, "fusion_lon": 0.0}, {"lat": 38.8991395, "is_disabled": 0, "type": "electric_scooter", "lon": -76.93354016666666, "bike_id": "81f4e516b12058588b1439abf0d1ba98", "fusion_lat": 0.0, "name": "81f4e516b12058588b1439abf0d1ba98", "is_reserved": 0, "rental_uris": {"android": "https://dc.lft.to/lastmile_qr_scan", "ios": "https://dc.lft.to/lastmile_qr_scan"}, "fusion_lon": 0.0}, {"lat": 38.90728716666667, "is_disabled": 0, "type": "electric_scooter", "lon": -77.0482755, "bike_id": "f39522126fa4c202e39cf0d29a2cab25", "fusion_lat": 0.0, "name": "f39522126fa4c202e39cf0d29a2cab25", "is_reserved": 0, "rental_uris": {"android": "https://dc.lft.to/lastmile_qr_scan", "ios": "https://dc.lft.to/lastmile_qr_scan"}, "fusion_lon": 0.0}, {"lat": 38.90077516666667, "is_disabled": 0, "type": "electric_scooter", "lon": -77.05313633333333, "bike_id": "bf425a1a6792ee962ea503f778255a91", "fusion_lat": 0.0, "name": "bf425a1a6792ee962ea503f778255a91", "is_reserved": 0, "rental_uris": {"android": "https://dc.lft.to/lastmile_qr_scan", "ios": "https://dc.lft.to/lastmile_qr_scan"}, "fusion_lon": 0.0}, {"lat": 38.93675916666667, "is_disabled": 0, "type": "electric_scooter", "lon": -77.03572583333333, "bike_id": "5c1841b3471f2f2d5f636eed60e90186", "fusion_lat": 0.0, "name": "5c1841b3471f2f2d5f636eed60e90186", "is_reserved": 0, "rental_uris": {"android": "https://dc.lft.to/lastmile_qr_scan", "ios": "https://dc.lft.to/lastmile_qr_scan"}, "fusion_lon": 0.0}, {"lat": 38.9463095, "is_disabled": 0, "type": "electric_scooter", "lon": -77.018489, "bike_id": "b97198ca219b85ed99bd2ae45b36b245", "fusion_lat": 0.0, "name": "b97198ca219b85ed99bd2ae45b36b245", "is_reserved": 0, "rental_uris": {"android": "https://dc.lft.to/lastmile_qr_scan", "ios": "https://dc.lft.to/lastmile_qr_scan"}, "fusion_lon": 0.0}, {"lat": 38.9220655, "is_disabled": 0, "type": "electric_scooter", "lon": -77.04254833333333, "bike_id": "fbd570962f09d0de3a8da9fac452154e", "fusion_lat": 0.0, "name": "fbd570962f09d0de3a8da9fac452154e", "is_reserved": 0, "rental_uris": {"android": "https://dc.lft.to/lastmile_qr_scan", "ios": "https://dc.lft.to/lastmile_qr_scan"}, "fusion_lon": 0.0}, {"lat": 39.03050966666667, "is_disabled": 0, "type": "electric_bike", "lon": -77.0947965, "bike_id": "3f4b60f2bb33a744b79195fe8131e0ca", "fusion_lat": 0.0, "name": "3f4b60f2bb33a744b79195fe8131e0ca", "is_reserved": 0, "rental_uris": {"android": "https://dc.lft.to/lastmile_qr_scan", "ios": "https://dc.lft.to/lastmile_qr_scan"}, "fusion_lon": 0.0}, {"lat": 38.89522383333333, "is_disabled": 0, "type": "electric_scooter", "lon": -77.043491, "bike_id": "c97ebccc28cde41128ac1311cfd6d188", "fusion_lat": 0.0, "name": "c97ebccc28cde41128ac1311cfd6d188", "is_reserved": 0, "rental_uris": {"android": "https://dc.lft.to/lastmile_qr_scan", "ios": "https://dc.lft.to/lastmile_qr_scan"}, "fusion_lon": 0.0}, {"lat": 38.923338333333334, "is_disabled": 0, "type": "electric_scooter", "lon": -77.03896133333333, "bike_id": "6f9b4770f65a9843da514f4b1ffa5d66", "fusion_lat": 0.0, "name": "6f9b4770f65a9843da514f4b1ffa5d66", "is_reserved": 0, "rental_uris": {"android": "https://dc.lft.to/lastmile_qr_scan", "ios": "https://dc.lft.to/lastmile_qr_scan"}, "fusion_lon": 0.0}, {"lat": 38.9096985, "is_disabled": 0, "type": "electric_scooter", "lon": -77.04518433333334, "bike_id": "e67e0770fdc2b6cc0009b879933e8ef4", "fusion_lat": 0.0, "name": "e67e0770fdc2b6cc0009b879933e8ef4", "is_reserved": 0, "rental_uris": {"android": "https://dc.lft.to/lastmile_qr_scan", "ios": "https://dc.lft.to/lastmile_qr_scan"}, "fusion_lon": 0.0}, {"lat": 38.901400833333334, "is_disabled": 0, "type": "electric_scooter", "lon": -77.000719, "bike_id": "97c134745095972a11640bb18981c4e5", "fusion_lat": 0.0, "name": "97c134745095972a11640bb18981c4e5", "is_reserved": 0, "rental_uris": {"android": "https://dc.lft.to/lastmile_qr_scan", "ios": "https://dc.lft.to/lastmile_qr_scan"}, "fusion_lon": 0.0}, {"lat": 38.921823, "is_disabled": 0, "type": "electric_scooter", "lon": -77.04233116666667, "bike_id": "3e8ae77ceb3dd00d0d1fd19cc14036eb", "fusion_lat": 0.0, "name": "3e8ae77ceb3dd00d0d1fd19cc14036eb", "is_reserved": 0, "rental_uris": {"android": "https://dc.lft.to/lastmile_qr_scan", "ios": "https://dc.lft.to/lastmile_qr_scan"}, "fusion_lon": 0.0}, {"lat": 38.90978333333334, "is_disabled": 0, "type": "electric_scooter", "lon": -77.04799766666666, "bike_id": "ddfa919aa98d555340f0a67678695cf9", "fusion_lat": 0.0, "name": "ddfa919aa98d555340f0a67678695cf9", "is_reserved": 0, "rental_uris": {"android": "https://dc.lft.to/lastmile_qr_scan", "ios": "https://dc.lft.to/lastmile_qr_scan"}, "fusion_lon": 0.0}, {"lat": 38.92139183333333, "is_disabled": 0, "type": "electric_scooter", "lon": -77.01046333333333, "bike_id": "fc285a60e5c4d9ff1aeb0f24199275cb", "fusion_lat": 0.0, "name": "fc285a60e5c4d9ff1aeb0f24199275cb", "is_reserved": 0, "rental_uris": {"android": "https://dc.lft.to/lastmile_qr_scan", "ios": "https://dc.lft.to/lastmile_qr_scan"}, "fusion_lon": 0.0}, {"lat": 38.88494683333333, "is_disabled": 0, "type": "electric_scooter", "lon": -77.00709466666666, "bike_id": "dd9a0c00809c3757bc290d145b0d336f", "fusion_lat": 0.0, "name": "dd9a0c00809c3757bc290d145b0d336f", "is_reserved": 0, "rental_uris": {"android": "https://dc.lft.to/lastmile_qr_scan", "ios": "https://dc.lft.to/lastmile_qr_scan"}, "fusion_lon": 0.0}, {"lat": 38.93267483333333, "is_disabled": 0, "type": "electric_scooter", "lon": -77.03900516666667, "bike_id": "a242d2b92fd3c05dbdad82e310e113c0", "fusion_lat": 0.0, "name": "a242d2b92fd3c05dbdad82e310e113c0", "is_reserved": 0, "rental_uris": {"android": "https://dc.lft.to/lastmile_qr_scan", "ios": "https://dc.lft.to/lastmile_qr_scan"}, "fusion_lon": 0.0}, {"lat": 38.842931666666665, "is_disabled": 0, "type": "electric_scooter", "lon": -76.999491, "bike_id": "e0bdc8c2fc0b4e48799cb1c88c6c9fe5", "fusion_lat": 0.0, "name": "e0bdc8c2fc0b4e48799cb1c88c6c9fe5", "is_reserved": 0, "rental_uris": {"android": "https://dc.lft.to/lastmile_qr_scan", "ios": "https://dc.lft.to/lastmile_qr_scan"}, "fusion_lon": 0.0}, {"lat": 38.8427645, "is_disabled": 0, "type": "electric_bike", "lon": -76.98837583333334, "bike_id": "fad42663e0c1b7f1f2966238caa7c8ad", "fusion_lat": 0.0, "name": "fad42663e0c1b7f1f2966238caa7c8ad", "is_reserved": 0, "rental_uris": {"android": "https://dc.lft.to/lastmile_qr_scan", "ios": "https://dc.lft.to/lastmile_qr_scan"}, "fusion_lon": 0.0}, {"lat": 38.9311745, "is_disabled": 0, "type": "electric_scooter", "lon": -77.03811716666667, "bike_id": "b72c590a9a415f4aa33ed49bdbcdac03", "fusion_lat": 0.0, "name": "b72c590a9a415f4aa33ed49bdbcdac03", "is_reserved": 0, "rental_uris": {"android": "https://dc.lft.to/lastmile_qr_scan", "ios": "https://dc.lft.to/lastmile_qr_scan"}, "fusion_lon": 0.0}, {"lat": 38.924810666666666, "is_disabled": 0, "type": "electric_scooter", "lon": -77.02634083333334, "bike_id": "62e1beea2ac52e1e69551e989933148e", "fusion_lat": 0.0, "name": "62e1beea2ac52e1e69551e989933148e", "is_reserved": 0, "rental_uris": {"android": "https://dc.lft.to/lastmile_qr_scan", "ios": "https://dc.lft.to/lastmile_qr_scan"}, "fusion_lon": 0.0}, {"lat": 38.90954883333333, "is_disabled": 0, "type": "electric_scooter", "lon": -77.02271666666667, "bike_id": "1deb4b0f013c477f6612f2ed57c3b5df", "fusion_lat": 0.0, "name": "1deb4b0f013c477f6612f2ed57c3b5df", "is_reserved": 0, "rental_uris": {"android": "https://dc.lft.to/lastmile_qr_scan", "ios": "https://dc.lft.to/lastmile_qr_scan"}, "fusion_lon": 0.0}, {"lat": 38.866232333333336, "is_disabled": 0, "type": "electric_scooter", "lon": -76.98699616666667, "bike_id": "7cb1dfda24dad16eebbe65889f95647a", "fusion_lat": 0.0, "name": "7cb1dfda24dad16eebbe65889f95647a", "is_reserved": 0, "rental_uris": {"android": "https://dc.lft.to/lastmile_qr_scan", "ios": "https://dc.lft.to/lastmile_qr_scan"}, "fusion_lon": 0.0}, {"lat": 38.92410533333333, "is_disabled": 0, "type": "electric_scooter", "lon": -77.02552333333334, "bike_id": "059b34d887b4aa1da22f325850ab3e72", "fusion_lat": 0.0, "name": "059b34d887b4aa1da22f325850ab3e72", "is_reserved": 0, "rental_uris": {"android": "https://dc.lft.to/lastmile_qr_scan", "ios": "https://dc.lft.to/lastmile_qr_scan"}, "fusion_lon": 0.0}, {"lat": 38.89372316666667, "is_disabled": 0, "type": "electric_scooter", "lon": -76.94998333333334, "bike_id": "85b93ba0222fb8698d11f60b0c24aa14", "fusion_lat": 0.0, "name": "85b93ba0222fb8698d11f60b0c24aa14", "is_reserved": 0, "rental_uris": {"android": "https://dc.lft.to/lastmile_qr_scan", "ios": "https://dc.lft.to/lastmile_qr_scan"}, "fusion_lon": 0.0}, {"lat": 38.90679216666667, "is_disabled": 0, "type": "electric_scooter", "lon": -77.0352785, "bike_id": "71689cd3caa795a097e6215248a235a6", "fusion_lat": 0.0, "name": "71689cd3caa795a097e6215248a235a6", "is_reserved": 0, "rental_uris": {"android": "https://dc.lft.to/lastmile_qr_scan", "ios": "https://dc.lft.to/lastmile_qr_scan"}, "fusion_lon": 0.0}, {"lat": 38.918421, "is_disabled": 0, "type": "electric_scooter", "lon": -76.96535566666667, "bike_id": "b784aa6cd50e3723bd15579910bd81f5", "fusion_lat": 0.0, "name": "b784aa6cd50e3723bd15579910bd81f5", "is_reserved": 0, "rental_uris": {"android": "https://dc.lft.to/lastmile_qr_scan", "ios": "https://dc.lft.to/lastmile_qr_scan"}, "fusion_lon": 0.0}, {"lat": 38.84625716666667, "is_disabled": 0, "type": "electric_bike", "lon": -77.06941133333333, "bike_id": "47dd1b7e7fca0de30a512834220c4404", "fusion_lat": 0.0, "name": "47dd1b7e7fca0de30a512834220c4404", "is_reserved": 0, "rental_uris": {"android": "https://dc.lft.to/lastmile_qr_scan", "ios": "https://dc.lft.to/lastmile_qr_scan"}, "fusion_lon": 0.0}, {"lat": 38.9238645, "is_disabled": 0, "type": "electric_scooter", "lon": -77.03077216666667, "bike_id": "0c85a701556b21215ca8cd4fd3242b80", "fusion_lat": 0.0, "name": "0c85a701556b21215ca8cd4fd3242b80", "is_reserved": 0, "rental_uris": {"android": "https://dc.lft.to/lastmile_qr_scan", "ios": "https://dc.lft.to/lastmile_qr_scan"}, "fusion_lon": 0.0}, {"lat": 38.90958216666667, "is_disabled": 0, "type": "electric_scooter", "lon": -77.02275183333333, "bike_id": "343f9106e9d479ee1fb436fa6871037c", "fusion_lat": 0.0, "name": "343f9106e9d479ee1fb436fa6871037c", "is_reserved": 0, "rental_uris": {"android": "https://dc.lft.to/lastmile_qr_scan", "ios": "https://dc.lft.to/lastmile_qr_scan"}, "fusion_lon": 0.0}, {"lat": 38.8950205, "is_disabled": 0, "type": "electric_scooter", "lon": -77.02767666666666, "bike_id": "016b9bfadcee2a1b7b4129a6db540642", "fusion_lat": 0.0, "name": "016b9bfadcee2a1b7b4129a6db540642", "is_reserved": 0, "rental_uris": {"android": "https://dc.lft.to/lastmile_qr_scan", "ios": "https://dc.lft.to/lastmile_qr_scan"}, "fusion_lon": 0.0}, {"lat": 38.91714116666667, "is_disabled": 0, "type": "electric_scooter", "lon": -77.03467933333333, "bike_id": "b68ac6cccfb5f6b4039a0885e1a6ea31", "fusion_lat": 0.0, "name": "b68ac6cccfb5f6b4039a0885e1a6ea31", "is_reserved": 0, "rental_uris": {"android": "https://dc.lft.to/lastmile_qr_scan", "ios": "https://dc.lft.to/lastmile_qr_scan"}, "fusion_lon": 0.0}, {"lat": 38.892783666666666, "is_disabled": 0, "type": "electric_scooter", "lon": -77.0503945, "bike_id": "b33e52ed2dfa57fdf6cc2258aaa1d61a", "fusion_lat": 0.0, "name": "b33e52ed2dfa57fdf6cc2258aaa1d61a", "is_reserved": 0, "rental_uris": {"android": "https://dc.lft.to/lastmile_qr_scan", "ios": "https://dc.lft.to/lastmile_qr_scan"}, "fusion_lon": 0.0}, {"lat": 38.936426833333336, "is_disabled": 0, "type": "electric_scooter", "lon": -77.03663716666667, "bike_id": "2357a55d2d83493b39391621ddc1b944", "fusion_lat": 0.0, "name": "2357a55d2d83493b39391621ddc1b944", "is_reserved": 0, "rental_uris": {"android": "https://dc.lft.to/lastmile_qr_scan", "ios": "https://dc.lft.to/lastmile_qr_scan"}, "fusion_lon": 0.0}, {"lat": 38.91772733333333, "is_disabled": 0, "type": "electric_scooter", "lon": -77.0230255, "bike_id": "f7e83798158c98f1f1bd0979e33a8f10", "fusion_lat": 0.0, "name": "f7e83798158c98f1f1bd0979e33a8f10", "is_reserved": 0, "rental_uris": {"android": "https://dc.lft.to/lastmile_qr_scan", "ios": "https://dc.lft.to/lastmile_qr_scan"}, "fusion_lon": 0.0}, {"lat": 38.88747716666666, "is_disabled": 0, "type": "electric_scooter", "lon": -77.02068583333333, "bike_id": "2d8e57112748962e2f1127b87a702930", "fusion_lat": 0.0, "name": "2d8e57112748962e2f1127b87a702930", "is_reserved": 0, "rental_uris": {"android": "https://dc.lft.to/lastmile_qr_scan", "ios": "https://dc.lft.to/lastmile_qr_scan"}, "fusion_lon": 0.0}, {"lat": 38.902702833333336, "is_disabled": 0, "type": "electric_scooter", "lon": -77.03369383333333, "bike_id": "ba9a24541494ae79f00eb874922cf6bc", "fusion_lat": 0.0, "name": "ba9a24541494ae79f00eb874922cf6bc", "is_reserved": 0, "rental_uris": {"android": "https://dc.lft.to/lastmile_qr_scan", "ios": "https://dc.lft.to/lastmile_qr_scan"}, "fusion_lon": 0.0}, {"lat": 38.8671615, "is_disabled": 0, "type": "electric_scooter", "lon": -76.9872085, "bike_id": "c3fea977d36aeb54e69e28f1110131fd", "fusion_lat": 0.0, "name": "c3fea977d36aeb54e69e28f1110131fd", "is_reserved": 0, "rental_uris": {"android": "https://dc.lft.to/lastmile_qr_scan", "ios": "https://dc.lft.to/lastmile_qr_scan"}, "fusion_lon": 0.0}, {"lat": 38.905742000000004, "is_disabled": 0, "type": "electric_scooter", "lon": -77.02207483333333, "bike_id": "4f95c09752f1d5e3479b08f22cdaf545", "fusion_lat": 0.0, "name": "4f95c09752f1d5e3479b08f22cdaf545", "is_reserved": 0, "rental_uris": {"android": "https://dc.lft.to/lastmile_qr_scan", "ios": "https://dc.lft.to/lastmile_qr_scan"}, "fusion_lon": 0.0}, {"lat": 38.94442183333334, "is_disabled": 0, "type": "electric_scooter", "lon": -77.06413, "bike_id": "227249ff75c93308a207d610e7886b8a", "fusion_lat": 0.0, "name": "227249ff75c93308a207d610e7886b8a", "is_reserved": 0, "rental_uris": {"android": "https://dc.lft.to/lastmile_qr_scan", "ios": "https://dc.lft.to/lastmile_qr_scan"}, "fusion_lon": 0.0}, {"lat": 38.920371833333334, "is_disabled": 0, "type": "electric_scooter", "lon": -76.97804466666666, "bike_id": "4a23bec86208e1b064ff5cfb2d3ae653", "fusion_lat": 0.0, "name": "4a23bec86208e1b064ff5cfb2d3ae653", "is_reserved": 0, "rental_uris": {"android": "https://dc.lft.to/lastmile_qr_scan", "ios": "https://dc.lft.to/lastmile_qr_scan"}, "fusion_lon": 0.0}, {"lat": 38.9279435, "is_disabled": 0, "type": "electric_scooter", "lon": -76.98492333333333, "bike_id": "75a46816370776dbf2773a4694cba738", "fusion_lat": 0.0, "name": "75a46816370776dbf2773a4694cba738", "is_reserved": 0, "rental_uris": {"android": "https://dc.lft.to/lastmile_qr_scan", "ios": "https://dc.lft.to/lastmile_qr_scan"}, "fusion_lon": 0.0}, {"lat": 38.892236833333335, "is_disabled": 0, "type": "electric_scooter", "lon": -77.03978433333333, "bike_id": "d36f9a616a197af61256d3c82f07f265", "fusion_lat": 0.0, "name": "d36f9a616a197af61256d3c82f07f265", "is_reserved": 0, "rental_uris": {"android": "https://dc.lft.to/lastmile_qr_scan", "ios": "https://dc.lft.to/lastmile_qr_scan"}, "fusion_lon": 0.0}, {"lat": 38.927064333333334, "is_disabled": 0, "type": "electric_scooter", "lon": -77.0240995, "bike_id": "d88af5863c555245d86b68bb0b80295c", "fusion_lat": 0.0, "name": "d88af5863c555245d86b68bb0b80295c", "is_reserved": 0, "rental_uris": {"android": "https://dc.lft.to/lastmile_qr_scan", "ios": "https://dc.lft.to/lastmile_qr_scan"}, "fusion_lon": 0.0}, {"lat": 38.9028815, "is_disabled": 0, "type": "electric_scooter", "lon": -77.05157583333333, "bike_id": "c1b4e86735bbcf9450277ca805abf712", "fusion_lat": 0.0, "name": "c1b4e86735bbcf9450277ca805abf712", "is_reserved": 0, "rental_uris": {"android": "https://dc.lft.to/lastmile_qr_scan", "ios": "https://dc.lft.to/lastmile_qr_scan"}, "fusion_lon": 0.0}, {"lat": 38.90378966666667, "is_disabled": 0, "type": "electric_scooter", "lon": -77.0579265, "bike_id": "a9895c81eb1c612b43d354c192e70dea", "fusion_lat": 0.0, "name": "a9895c81eb1c612b43d354c192e70dea", "is_reserved": 0, "rental_uris": {"android": "https://dc.lft.to/lastmile_qr_scan", "ios": "https://dc.lft.to/lastmile_qr_scan"}, "fusion_lon": 0.0}, {"lat": 38.91745366666667, "is_disabled": 0, "type": "electric_scooter", "lon": -77.0366145, "bike_id": "4505f13f703742c2fdf9484623d1169f", "fusion_lat": 0.0, "name": "4505f13f703742c2fdf9484623d1169f", "is_reserved": 0, "rental_uris": {"android": "https://dc.lft.to/lastmile_qr_scan", "ios": "https://dc.lft.to/lastmile_qr_scan"}, "fusion_lon": 0.0}, {"lat": 38.91410533333333, "is_disabled": 0, "type": "electric_scooter", "lon": -77.03523016666666, "bike_id": "ac856c773f728ddae1ae8ccbae15c364", "fusion_lat": 0.0, "name": "ac856c773f728ddae1ae8ccbae15c364", "is_reserved": 0, "rental_uris": {"android": "https://dc.lft.to/lastmile_qr_scan", "ios": "https://dc.lft.to/lastmile_qr_scan"}, "fusion_lon": 0.0}, {"lat": 38.905916500000004, "is_disabled": 0, "type": "electric_scooter", "lon": -76.98637666666667, "bike_id": "3a255f5761f9f5907de8709d00da7cc9", "fusion_lat": 0.0, "name": "3a255f5761f9f5907de8709d00da7cc9", "is_reserved": 0, "rental_uris": {"android": "https://dc.lft.to/lastmile_qr_scan", "ios": "https://dc.lft.to/lastmile_qr_scan"}, "fusion_lon": 0.0}, {"lat": 38.921822666666664, "is_disabled": 0, "type": "electric_scooter", "lon": -77.03813616666666, "bike_id": "4cc548b41675f6d82e18fc0431bf010e", "fusion_lat": 0.0, "name": "4cc548b41675f6d82e18fc0431bf010e", "is_reserved": 0, "rental_uris": {"android": "https://dc.lft.to/lastmile_qr_scan", "ios": "https://dc.lft.to/lastmile_qr_scan"}, "fusion_lon": 0.0}, {"lat": 38.915651833333335, "is_disabled": 0, "type": "electric_scooter", "lon": -77.0316495, "bike_id": "8a6b3e289d149263f17f5adea3b1d6bb", "fusion_lat": 0.0, "name": "8a6b3e289d149263f17f5adea3b1d6bb", "is_reserved": 0, "rental_uris": {"android": "https://dc.lft.to/lastmile_qr_scan", "ios": "https://dc.lft.to/lastmile_qr_scan"}, "fusion_lon": 0.0}, {"lat": 38.9536185, "is_disabled": 0, "type": "electric_bike", "lon": -76.98086, "bike_id": "7e5c6e965f1733377c917c3610b70252", "fusion_lat": 0.0, "name": "7e5c6e965f1733377c917c3610b70252", "is_reserved": 0, "rental_uris": {"android": "https://dc.lft.to/lastmile_qr_scan", "ios": "https://dc.lft.to/lastmile_qr_scan"}, "fusion_lon": 0.0}, {"lat": 38.92119783333333, "is_disabled": 0, "type": "electric_scooter", "lon": -77.03658583333333, "bike_id": "fcef3a5175330e18d9b45352b9510d0f", "fusion_lat": 0.0, "name": "fcef3a5175330e18d9b45352b9510d0f", "is_reserved": 0, "rental_uris": {"android": "https://dc.lft.to/lastmile_qr_scan", "ios": "https://dc.lft.to/lastmile_qr_scan"}, "fusion_lon": 0.0}, {"lat": 38.92039416666667, "is_disabled": 0, "type": "electric_scooter", "lon": -77.03393483333333, "bike_id": "f7836411c7ef13db85d2d520cce3d247", "fusion_lat": 0.0, "name": "f7836411c7ef13db85d2d520cce3d247", "is_reserved": 0, "rental_uris": {"android": "https://dc.lft.to/lastmile_qr_scan", "ios": "https://dc.lft.to/lastmile_qr_scan"}, "fusion_lon": 0.0}, {"lat": 38.89331, "is_disabled": 0, "type": "electric_bike", "lon": -76.92113266666667, "bike_id": "34c4da13387893ccea77bad8bed2fade", "fusion_lat": 0.0, "name": "34c4da13387893ccea77bad8bed2fade", "is_reserved": 0, "rental_uris": {"android": "https://dc.lft.to/lastmile_qr_scan", "ios": "https://dc.lft.to/lastmile_qr_scan"}, "fusion_lon": 0.0}, {"lat": 38.902154333333336, "is_disabled": 0, "type": "electric_scooter", "lon": -77.02321766666667, "bike_id": "21565b1aa5389cbc33a90c613de09389", "fusion_lat": 0.0, "name": "21565b1aa5389cbc33a90c613de09389", "is_reserved": 0, "rental_uris": {"android": "https://dc.lft.to/lastmile_qr_scan", "ios": "https://dc.lft.to/lastmile_qr_scan"}, "fusion_lon": 0.0}, {"lat": 38.897403, "is_disabled": 0, "type": "electric_scooter", "lon": -76.94724566666666, "bike_id": "359714fcd3ce5d2db527dff20646a0ab", "fusion_lat": 0.0, "name": "359714fcd3ce5d2db527dff20646a0ab", "is_reserved": 0, "rental_uris": {"android": "https://dc.lft.to/lastmile_qr_scan", "ios": "https://dc.lft.to/lastmile_qr_scan"}, "fusion_lon": 0.0}, {"lat": 38.8989665, "is_disabled": 0, "type": "electric_scooter", "lon": -76.98424366666667, "bike_id": "5c674a157e05971cf27c191db4924cb0", "fusion_lat": 0.0, "name": "5c674a157e05971cf27c191db4924cb0", "is_reserved": 0, "rental_uris": {"android": "https://dc.lft.to/lastmile_qr_scan", "ios": "https://dc.lft.to/lastmile_qr_scan"}, "fusion_lon": 0.0}, {"lat": 38.9163085, "is_disabled": 0, "type": "electric_scooter", "lon": -77.03132016666666, "bike_id": "d4bb320d2509f47e77f8ac370127b1aa", "fusion_lat": 0.0, "name": "d4bb320d2509f47e77f8ac370127b1aa", "is_reserved": 0, "rental_uris": {"android": "https://dc.lft.to/lastmile_qr_scan", "ios": "https://dc.lft.to/lastmile_qr_scan"}, "fusion_lon": 0.0}, {"lat": 38.93979566666667, "is_disabled": 0, "type": "electric_scooter", "lon": -77.02892466666667, "bike_id": "8242adabcc2477f67b783a7b60df6a9d", "fusion_lat": 0.0, "name": "8242adabcc2477f67b783a7b60df6a9d", "is_reserved": 0, "rental_uris": {"android": "https://dc.lft.to/lastmile_qr_scan", "ios": "https://dc.lft.to/lastmile_qr_scan"}, "fusion_lon": 0.0}, {"lat": 38.905296166666666, "is_disabled": 0, "type": "electric_bike", "lon": -77.059349, "bike_id": "19cf2c343f03a0cd1e199f0d40c079c4", "fusion_lat": 0.0, "name": "19cf2c343f03a0cd1e199f0d40c079c4", "is_reserved": 0, "rental_uris": {"android": "https://dc.lft.to/lastmile_qr_scan", "ios": "https://dc.lft.to/lastmile_qr_scan"}, "fusion_lon": 0.0}, {"lat": 38.92400466666667, "is_disabled": 0, "type": "electric_scooter", "lon": -77.027037, "bike_id": "bf6a81ef48c41bf2238a37724fd8f705", "fusion_lat": 0.0, "name": "bf6a81ef48c41bf2238a37724fd8f705", "is_reserved": 0, "rental_uris": {"android": "https://dc.lft.to/lastmile_qr_scan", "ios": "https://dc.lft.to/lastmile_qr_scan"}, "fusion_lon": 0.0}, {"lat": 38.949057, "is_disabled": 0, "type": "electric_bike", "lon": -76.9723925, "bike_id": "7d2029d1e6e1dd2ceb6011459f79bac7", "fusion_lat": 0.0, "name": "7d2029d1e6e1dd2ceb6011459f79bac7", "is_reserved": 0, "rental_uris": {"android": "https://dc.lft.to/lastmile_qr_scan", "ios": "https://dc.lft.to/lastmile_qr_scan"}, "fusion_lon": 0.0}, {"lat": 38.93739733333334, "is_disabled": 0, "type": "electric_scooter", "lon": -77.03616966666667, "bike_id": "1de6cac27568c127c31ea42f1bc92a45", "fusion_lat": 0.0, "name": "1de6cac27568c127c31ea42f1bc92a45", "is_reserved": 0, "rental_uris": {"android": "https://dc.lft.to/lastmile_qr_scan", "ios": "https://dc.lft.to/lastmile_qr_scan"}, "fusion_lon": 0.0}, {"lat": 38.89838616666667, "is_disabled": 0, "type": "electric_scooter", "lon": -77.030256, "bike_id": "0586eaec6ef53f3542a0aa2f8b136692", "fusion_lat": 0.0, "name": "0586eaec6ef53f3542a0aa2f8b136692", "is_reserved": 0, "rental_uris": {"android": "https://dc.lft.to/lastmile_qr_scan", "ios": "https://dc.lft.to/lastmile_qr_scan"}, "fusion_lon": 0.0}, {"lat": 38.940866, "is_disabled": 0, "type": "electric_scooter", "lon": -77.06133, "bike_id": "2ba8244a9b0826ff25bf1f9a33173ef8", "fusion_lat": 0.0, "name": "2ba8244a9b0826ff25bf1f9a33173ef8", "is_reserved": 0, "rental_uris": {"android": "https://dc.lft.to/lastmile_qr_scan", "ios": "https://dc.lft.to/lastmile_qr_scan"}, "fusion_lon": 0.0}, {"lat": 38.930769, "is_disabled": 0, "type": "electric_scooter", "lon": -77.03129333333334, "bike_id": "9ba6a40851d7505f542c4fe5378e5f0f", "fusion_lat": 0.0, "name": "9ba6a40851d7505f542c4fe5378e5f0f", "is_reserved": 0, "rental_uris": {"android": "https://dc.lft.to/lastmile_qr_scan", "ios": "https://dc.lft.to/lastmile_qr_scan"}, "fusion_lon": 0.0}, {"lat": 38.9236385, "is_disabled": 0, "type": "electric_scooter", "lon": -77.05097666666667, "bike_id": "d496210a395b7d65dc98fdd1d1201b8f", "fusion_lat": 0.0, "name": "d496210a395b7d65dc98fdd1d1201b8f", "is_reserved": 0, "rental_uris": {"android": "https://dc.lft.to/lastmile_qr_scan", "ios": "https://dc.lft.to/lastmile_qr_scan"}, "fusion_lon": 0.0}, {"lat": 38.857933333333335, "is_disabled": 0, "type": "electric_bike", "lon": -77.09960916666667, "bike_id": "f6a783e4866f285271ba1b8860f83aaa", "fusion_lat": 0.0, "name": "f6a783e4866f285271ba1b8860f83aaa", "is_reserved": 0, "rental_uris": {"android": "https://dc.lft.to/lastmile_qr_scan", "ios": "https://dc.lft.to/lastmile_qr_scan"}, "fusion_lon": 0.0}, {"lat": 38.916919166666666, "is_disabled": 0, "type": "electric_scooter", "lon": -77.02303016666667, "bike_id": "d0f37e1215117e221f6dca0c4bab92d8", "fusion_lat": 0.0, "name": "d0f37e1215117e221f6dca0c4bab92d8", "is_reserved": 0, "rental_uris": {"android": "https://dc.lft.to/lastmile_qr_scan", "ios": "https://dc.lft.to/lastmile_qr_scan"}, "fusion_lon": 0.0}, {"lat": 38.87678616666667, "is_disabled": 0, "type": "electric_scooter", "lon": -77.0178955, "bike_id": "ba8513e7fdb35ba63a97fa983ddf57dc", "fusion_lat": 0.0, "name": "ba8513e7fdb35ba63a97fa983ddf57dc", "is_reserved": 0, "rental_uris": {"android": "https://dc.lft.to/lastmile_qr_scan", "ios": "https://dc.lft.to/lastmile_qr_scan"}, "fusion_lon": 0.0}, {"lat": 38.93981733333333, "is_disabled": 0, "type": "electric_scooter", "lon": -77.03270783333333, "bike_id": "d38aa0c7868816a5d711e128174e9809", "fusion_lat": 0.0, "name": "d38aa0c7868816a5d711e128174e9809", "is_reserved": 0, "rental_uris": {"android": "https://dc.lft.to/lastmile_qr_scan", "ios": "https://dc.lft.to/lastmile_qr_scan"}, "fusion_lon": 0.0}, {"lat": 38.91695983333334, "is_disabled": 0, "type": "electric_scooter", "lon": -77.04599983333334, "bike_id": "9fc2fea8b9ee70b17c88bef6cffdf191", "fusion_lat": 0.0, "name": "9fc2fea8b9ee70b17c88bef6cffdf191", "is_reserved": 0, "rental_uris": {"android": "https://dc.lft.to/lastmile_qr_scan", "ios": "https://dc.lft.to/lastmile_qr_scan"}, "fusion_lon": 0.0}, {"lat": 38.939802666666665, "is_disabled": 0, "type": "electric_scooter", "lon": -77.02890733333334, "bike_id": "4f91602a06c3e895baaad66b0652d695", "fusion_lat": 0.0, "name": "4f91602a06c3e895baaad66b0652d695", "is_reserved": 0, "rental_uris": {"android": "https://dc.lft.to/lastmile_qr_scan", "ios": "https://dc.lft.to/lastmile_qr_scan"}, "fusion_lon": 0.0}, {"lat": 38.93264816666667, "is_disabled": 0, "type": "electric_scooter", "lon": -77.0326715, "bike_id": "9da8459ebcff9653d8195df38fafe502", "fusion_lat": 0.0, "name": "9da8459ebcff9653d8195df38fafe502", "is_reserved": 0, "rental_uris": {"android": "https://dc.lft.to/lastmile_qr_scan", "ios": "https://dc.lft.to/lastmile_qr_scan"}, "fusion_lon": 0.0}, {"lat": 38.91568483333333, "is_disabled": 0, "type": "electric_scooter", "lon": -77.03152333333334, "bike_id": "396e4eeff9c02c31fdaea23bd19ea8e7", "fusion_lat": 0.0, "name": "396e4eeff9c02c31fdaea23bd19ea8e7", "is_reserved": 0, "rental_uris": {"android": "https://dc.lft.to/lastmile_qr_scan", "ios": "https://dc.lft.to/lastmile_qr_scan"}, "fusion_lon": 0.0}, {"lat": 38.867264166666665, "is_disabled": 0, "type": "electric_scooter", "lon": -77.010081, "bike_id": "1fd4b8e49cb0c9a3e0fd016bdf2ad9d9", "fusion_lat": 0.0, "name": "1fd4b8e49cb0c9a3e0fd016bdf2ad9d9", "is_reserved": 0, "rental_uris": {"android": "https://dc.lft.to/lastmile_qr_scan", "ios": "https://dc.lft.to/lastmile_qr_scan"}, "fusion_lon": 0.0}, {"lat": 38.883829166666665, "is_disabled": 0, "type": "electric_scooter", "lon": -77.01903233333333, "bike_id": "d74cfd38d29c81e2bdf137035c6befa5", "fusion_lat": 0.0, "name": "d74cfd38d29c81e2bdf137035c6befa5", "is_reserved": 0, "rental_uris": {"android": "https://dc.lft.to/lastmile_qr_scan", "ios": "https://dc.lft.to/lastmile_qr_scan"}, "fusion_lon": 0.0}, {"lat": 38.90490466666667, "is_disabled": 0, "type": "electric_scooter", "lon": -76.98715516666667, "bike_id": "4d9cf425252c4ac1f4cb2914ba4f541c", "fusion_lat": 0.0, "name": "4d9cf425252c4ac1f4cb2914ba4f541c", "is_reserved": 0, "rental_uris": {"android": "https://dc.lft.to/lastmile_qr_scan", "ios": "https://dc.lft.to/lastmile_qr_scan"}, "fusion_lon": 0.0}, {"lat": 38.924785666666665, "is_disabled": 0, "type": "electric_scooter", "lon": -77.0264935, "bike_id": "41407a8b5cdd24de241a347c12f14855", "fusion_lat": 0.0, "name": "41407a8b5cdd24de241a347c12f14855", "is_reserved": 0, "rental_uris": {"android": "https://dc.lft.to/lastmile_qr_scan", "ios": "https://dc.lft.to/lastmile_qr_scan"}, "fusion_lon": 0.0}, {"lat": 38.91222583333333, "is_disabled": 0, "type": "electric_scooter", "lon": -77.00197533333333, "bike_id": "0d4efa8be2f43c9bf1dbfcba2bc89b7c", "fusion_lat": 0.0, "name": "0d4efa8be2f43c9bf1dbfcba2bc89b7c", "is_reserved": 0, "rental_uris": {"android": "https://dc.lft.to/lastmile_qr_scan", "ios": "https://dc.lft.to/lastmile_qr_scan"}, "fusion_lon": 0.0}, {"lat": 38.86889383333333, "is_disabled": 0, "type": "electric_scooter", "lon": -76.983124, "bike_id": "7cde823574d66d6b4873ac99656af95f", "fusion_lat": 0.0, "name": "7cde823574d66d6b4873ac99656af95f", "is_reserved": 0, "rental_uris": {"android": "https://dc.lft.to/lastmile_qr_scan", "ios": "https://dc.lft.to/lastmile_qr_scan"}, "fusion_lon": 0.0}, {"lat": 38.9389285, "is_disabled": 0, "type": "electric_scooter", "lon": -77.028221, "bike_id": "d0e444cf38cb4c02bd1698b4a8ed80df", "fusion_lat": 0.0, "name": "d0e444cf38cb4c02bd1698b4a8ed80df", "is_reserved": 0, "rental_uris": {"android": "https://dc.lft.to/lastmile_qr_scan", "ios": "https://dc.lft.to/lastmile_qr_scan"}, "fusion_lon": 0.0}, {"lat": 38.8734175, "is_disabled": 0, "type": "electric_scooter", "lon": -76.99164766666667, "bike_id": "0d8a079a16bbbe58fe58a7b09a976081", "fusion_lat": 0.0, "name": "0d8a079a16bbbe58fe58a7b09a976081", "is_reserved": 0, "rental_uris": {"android": "https://dc.lft.to/lastmile_qr_scan", "ios": "https://dc.lft.to/lastmile_qr_scan"}, "fusion_lon": 0.0}, {"lat": 38.9051865, "is_disabled": 0, "type": "electric_scooter", "lon": -77.0645045, "bike_id": "97914253dcc363622484af4150b05de0", "fusion_lat": 0.0, "name": "97914253dcc363622484af4150b05de0", "is_reserved": 0, "rental_uris": {"android": "https://dc.lft.to/lastmile_qr_scan", "ios": "https://dc.lft.to/lastmile_qr_scan"}, "fusion_lon": 0.0}, {"lat": 38.94439366666667, "is_disabled": 0, "type": "electric_scooter", "lon": -77.0635115, "bike_id": "6083984abdc57102285f67808e32a50c", "fusion_lat": 0.0, "name": "6083984abdc57102285f67808e32a50c", "is_reserved": 0, "rental_uris": {"android": "https://dc.lft.to/lastmile_qr_scan", "ios": "https://dc.lft.to/lastmile_qr_scan"}, "fusion_lon": 0.0}, {"lat": 38.915539, "is_disabled": 0, "type": "electric_scooter", "lon": -77.04161, "bike_id": "4eebcbb89d13b94e69f089aadb16db65", "fusion_lat": 0.0, "name": "4eebcbb89d13b94e69f089aadb16db65", "is_reserved": 0, "rental_uris": {"android": "https://dc.lft.to/lastmile_qr_scan", "ios": "https://dc.lft.to/lastmile_qr_scan"}, "fusion_lon": 0.0}, {"lat": 38.909168666666666, "is_disabled": 0, "type": "electric_scooter", "lon": -77.03649583333333, "bike_id": "7eb15713b46a3692871aa69e6a6d37bd", "fusion_lat": 0.0, "name": "7eb15713b46a3692871aa69e6a6d37bd", "is_reserved": 0, "rental_uris": {"android": "https://dc.lft.to/lastmile_qr_scan", "ios": "https://dc.lft.to/lastmile_qr_scan"}, "fusion_lon": 0.0}, {"lat": 38.90497833333333, "is_disabled": 0, "type": "electric_scooter", "lon": -77.019892, "bike_id": "b1d20591c1ae4cebe9810f50c35a081d", "fusion_lat": 0.0, "name": "b1d20591c1ae4cebe9810f50c35a081d", "is_reserved": 0, "rental_uris": {"android": "https://dc.lft.to/lastmile_qr_scan", "ios": "https://dc.lft.to/lastmile_qr_scan"}, "fusion_lon": 0.0}, {"lat": 38.92237183333334, "is_disabled": 0, "type": "electric_scooter", "lon": -77.04575666666666, "bike_id": "07531d5bf0d10496031f4f4ccc6bd34d", "fusion_lat": 0.0, "name": "07531d5bf0d10496031f4f4ccc6bd34d", "is_reserved": 0, "rental_uris": {"android": "https://dc.lft.to/lastmile_qr_scan", "ios": "https://dc.lft.to/lastmile_qr_scan"}, "fusion_lon": 0.0}, {"lat": 38.9398865, "is_disabled": 0, "type": "electric_scooter", "lon": -77.07171933333333, "bike_id": "790f84ad11c01480e1e00dd9b12d7570", "fusion_lat": 0.0, "name": "790f84ad11c01480e1e00dd9b12d7570", "is_reserved": 0, "rental_uris": {"android": "https://dc.lft.to/lastmile_qr_scan", "ios": "https://dc.lft.to/lastmile_qr_scan"}, "fusion_lon": 0.0}, {"lat": 38.89742966666667, "is_disabled": 0, "type": "electric_scooter", "lon": -77.02960266666666, "bike_id": "2fd50bf47275a9d08a2c5ab349a2dff9", "fusion_lat": 0.0, "name": "2fd50bf47275a9d08a2c5ab349a2dff9", "is_reserved": 0, "rental_uris": {"android": "https://dc.lft.to/lastmile_qr_scan", "ios": "https://dc.lft.to/lastmile_qr_scan"}, "fusion_lon": 0.0}, {"lat": 38.850506, "is_disabled": 0, "type": "electric_bike", "lon": -76.973179, "bike_id": "940483ffc5b27831078990675b914d8e", "fusion_lat": 0.0, "name": "940483ffc5b27831078990675b914d8e", "is_reserved": 0, "rental_uris": {"android": "https://dc.lft.to/lastmile_qr_scan", "ios": "https://dc.lft.to/lastmile_qr_scan"}, "fusion_lon": 0.0}, {"lat": 38.898839, "is_disabled": 0, "type": "electric_scooter", "lon": -76.93178083333333, "bike_id": "4ed3cd867d148c7c78808be11bc718dc", "fusion_lat": 0.0, "name": "4ed3cd867d148c7c78808be11bc718dc", "is_reserved": 0, "rental_uris": {"android": "https://dc.lft.to/lastmile_qr_scan", "ios": "https://dc.lft.to/lastmile_qr_scan"}, "fusion_lon": 0.0}, {"lat": 38.926266166666665, "is_disabled": 0, "type": "electric_scooter", "lon": -77.0370725, "bike_id": "eba2df7dc4d86bef15cc4f6251cf06db", "fusion_lat": 0.0, "name": "eba2df7dc4d86bef15cc4f6251cf06db", "is_reserved": 0, "rental_uris": {"android": "https://dc.lft.to/lastmile_qr_scan", "ios": "https://dc.lft.to/lastmile_qr_scan"}, "fusion_lon": 0.0}, {"lat": 38.905106333333336, "is_disabled": 0, "type": "electric_scooter", "lon": -77.062024, "bike_id": "01b607b73d47f166700edf4d0374889d", "fusion_lat": 0.0, "name": "01b607b73d47f166700edf4d0374889d", "is_reserved": 0, "rental_uris": {"android": "https://dc.lft.to/lastmile_qr_scan", "ios": "https://dc.lft.to/lastmile_qr_scan"}, "fusion_lon": 0.0}, {"lat": 38.899728333333336, "is_disabled": 0, "type": "electric_scooter", "lon": -77.057097, "bike_id": "f6a8fba4d7a75da9f0c0263d4ca4bb24", "fusion_lat": 0.0, "name": "f6a8fba4d7a75da9f0c0263d4ca4bb24", "is_reserved": 0, "rental_uris": {"android": "https://dc.lft.to/lastmile_qr_scan", "ios": "https://dc.lft.to/lastmile_qr_scan"}, "fusion_lon": 0.0}, {"lat": 38.91417283333333, "is_disabled": 0, "type": "electric_scooter", "lon": -77.03175683333333, "bike_id": "1dc2cfd98b876ff27cc498c2fd3d8a45", "fusion_lat": 0.0, "name": "1dc2cfd98b876ff27cc498c2fd3d8a45", "is_reserved": 0, "rental_uris": {"android": "https://dc.lft.to/lastmile_qr_scan", "ios": "https://dc.lft.to/lastmile_qr_scan"}, "fusion_lon": 0.0}, {"lat": 38.8974145, "is_disabled": 0, "type": "electric_scooter", "lon": -77.04764233333333, "bike_id": "88c7acd12e00ee36cde30193b69a221b", "fusion_lat": 0.0, "name": "88c7acd12e00ee36cde30193b69a221b", "is_reserved": 0, "rental_uris": {"android": "https://dc.lft.to/lastmile_qr_scan", "ios": "https://dc.lft.to/lastmile_qr_scan"}, "fusion_lon": 0.0}, {"lat": 38.91824716666667, "is_disabled": 0, "type": "electric_scooter", "lon": -77.03441016666666, "bike_id": "69915b1b402f7fdf636603e2840e0e1e", "fusion_lat": 0.0, "name": "69915b1b402f7fdf636603e2840e0e1e", "is_reserved": 0, "rental_uris": {"android": "https://dc.lft.to/lastmile_qr_scan", "ios": "https://dc.lft.to/lastmile_qr_scan"}, "fusion_lon": 0.0}, {"lat": 38.90069583333333, "is_disabled": 0, "type": "electric_scooter", "lon": -77.05072733333333, "bike_id": "47622c06468bcacf7819b3439049aa9e", "fusion_lat": 0.0, "name": "47622c06468bcacf7819b3439049aa9e", "is_reserved": 0, "rental_uris": {"android": "https://dc.lft.to/lastmile_qr_scan", "ios": "https://dc.lft.to/lastmile_qr_scan"}, "fusion_lon": 0.0}, {"lat": 38.88580733333333, "is_disabled": 0, "type": "electric_scooter", "lon": -76.91911233333333, "bike_id": "10c135bbc60f337ad5abf3901337bfe8", "fusion_lat": 0.0, "name": "10c135bbc60f337ad5abf3901337bfe8", "is_reserved": 0, "rental_uris": {"android": "https://dc.lft.to/lastmile_qr_scan", "ios": "https://dc.lft.to/lastmile_qr_scan"}, "fusion_lon": 0.0}, {"lat": 38.8981495, "is_disabled": 0, "type": "electric_scooter", "lon": -76.996942, "bike_id": "7fa44eb1b5ad084638edbd25a2cb796d", "fusion_lat": 0.0, "name": "7fa44eb1b5ad084638edbd25a2cb796d", "is_reserved": 0, "rental_uris": {"android": "https://dc.lft.to/lastmile_qr_scan", "ios": "https://dc.lft.to/lastmile_qr_scan"}, "fusion_lon": 0.0}, {"lat": 38.9247325, "is_disabled": 0, "type": "electric_scooter", "lon": -77.02842733333334, "bike_id": "e8b687992970c29960593016ca055baf", "fusion_lat": 0.0, "name": "e8b687992970c29960593016ca055baf", "is_reserved": 0, "rental_uris": {"android": "https://dc.lft.to/lastmile_qr_scan", "ios": "https://dc.lft.to/lastmile_qr_scan"}, "fusion_lon": 0.0}, {"lat": 38.911813333333335, "is_disabled": 0, "type": "electric_scooter", "lon": -77.06089883333334, "bike_id": "ba7382bc640cfc55054ff4a7a49b9848", "fusion_lat": 0.0, "name": "ba7382bc640cfc55054ff4a7a49b9848", "is_reserved": 0, "rental_uris": {"android": "https://dc.lft.to/lastmile_qr_scan", "ios": "https://dc.lft.to/lastmile_qr_scan"}, "fusion_lon": 0.0}, {"lat": 38.92901833333333, "is_disabled": 0, "type": "electric_scooter", "lon": -77.02220583333333, "bike_id": "37f39e8fb76c445bd8e75facf9a8b4df", "fusion_lat": 0.0, "name": "37f39e8fb76c445bd8e75facf9a8b4df", "is_reserved": 0, "rental_uris": {"android": "https://dc.lft.to/lastmile_qr_scan", "ios": "https://dc.lft.to/lastmile_qr_scan"}, "fusion_lon": 0.0}, {"lat": 38.886386, "is_disabled": 0, "type": "electric_bike", "lon": -76.9547595, "bike_id": "0e6e4927d43b20c911bbe71bf97299f9", "fusion_lat": 0.0, "name": "0e6e4927d43b20c911bbe71bf97299f9", "is_reserved": 0, "rental_uris": {"android": "https://dc.lft.to/lastmile_qr_scan", "ios": "https://dc.lft.to/lastmile_qr_scan"}, "fusion_lon": 0.0}, {"lat": 38.9273735, "is_disabled": 0, "type": "electric_scooter", "lon": -77.03451616666666, "bike_id": "c5c91725dba55044c802fb3ee4c178a6", "fusion_lat": 0.0, "name": "c5c91725dba55044c802fb3ee4c178a6", "is_reserved": 0, "rental_uris": {"android": "https://dc.lft.to/lastmile_qr_scan", "ios": "https://dc.lft.to/lastmile_qr_scan"}, "fusion_lon": 0.0}, {"lat": 38.961386, "is_disabled": 0, "type": "electric_scooter", "lon": -77.02779016666666, "bike_id": "f11c04a93c203694b9a2e9374b2e13e2", "fusion_lat": 0.0, "name": "f11c04a93c203694b9a2e9374b2e13e2", "is_reserved": 0, "rental_uris": {"android": "https://dc.lft.to/lastmile_qr_scan", "ios": "https://dc.lft.to/lastmile_qr_scan"}, "fusion_lon": 0.0}, {"lat": 38.901952, "is_disabled": 0, "type": "electric_scooter", "lon": -77.024103, "bike_id": "84657889ea8d7d453f56404baaeb313c", "fusion_lat": 0.0, "name": "84657889ea8d7d453f56404baaeb313c", "is_reserved": 0, "rental_uris": {"android": "https://dc.lft.to/lastmile_qr_scan", "ios": "https://dc.lft.to/lastmile_qr_scan"}, "fusion_lon": 0.0}, {"lat": 39.056351, "is_disabled": 0, "type": "electric_bike", "lon": -77.12527066666667, "bike_id": "20cb3869ac4a9fe6fce0a48392f2a4f3", "fusion_lat": 0.0, "name": "20cb3869ac4a9fe6fce0a48392f2a4f3", "is_reserved": 0, "rental_uris": {"android": "https://dc.lft.to/lastmile_qr_scan", "ios": "https://dc.lft.to/lastmile_qr_scan"}, "fusion_lon": 0.0}, {"lat": 38.927551666666666, "is_disabled": 0, "type": "electric_scooter", "lon": -77.03215583333333, "bike_id": "ea70dc2d358f77e050348290398c8061", "fusion_lat": 0.0, "name": "ea70dc2d358f77e050348290398c8061", "is_reserved": 0, "rental_uris": {"android": "https://dc.lft.to/lastmile_qr_scan", "ios": "https://dc.lft.to/lastmile_qr_scan"}, "fusion_lon": 0.0}, {"lat": 38.911165, "is_disabled": 0, "type": "electric_scooter", "lon": -77.03761683333333, "bike_id": "1f6f8a07826dd7f171873163573e0d8e", "fusion_lat": 0.0, "name": "1f6f8a07826dd7f171873163573e0d8e", "is_reserved": 0, "rental_uris": {"android": "https://dc.lft.to/lastmile_qr_scan", "ios": "https://dc.lft.to/lastmile_qr_scan"}, "fusion_lon": 0.0}, {"lat": 38.887299, "is_disabled": 0, "type": "electric_scooter", "lon": -77.028164, "bike_id": "215a2b87a7e15dfe70c759fb0ecc61e9", "fusion_lat": 0.0, "name": "215a2b87a7e15dfe70c759fb0ecc61e9", "is_reserved": 0, "rental_uris": {"android": "https://dc.lft.to/lastmile_qr_scan", "ios": "https://dc.lft.to/lastmile_qr_scan"}, "fusion_lon": 0.0}, {"lat": 38.881326666666666, "is_disabled": 0, "type": "electric_bike", "lon": -77.0167355, "bike_id": "cedc38ba5db0bd4fbc0c937492d3609c", "fusion_lat": 0.0, "name": "cedc38ba5db0bd4fbc0c937492d3609c", "is_reserved": 0, "rental_uris": {"android": "https://dc.lft.to/lastmile_qr_scan", "ios": "https://dc.lft.to/lastmile_qr_scan"}, "fusion_lon": 0.0}, {"lat": 38.88727266666667, "is_disabled": 0, "type": "electric_scooter", "lon": -77.01376516666667, "bike_id": "eccf1ec509058637549233c7af7ea933", "fusion_lat": 0.0, "name": "eccf1ec509058637549233c7af7ea933", "is_reserved": 0, "rental_uris": {"android": "https://dc.lft.to/lastmile_qr_scan", "ios": "https://dc.lft.to/lastmile_qr_scan"}, "fusion_lon": 0.0}, {"lat": 38.9191415, "is_disabled": 0, "type": "electric_scooter", "lon": -77.000939, "bike_id": "81390a2df94b3377d2f9bad4bb30005d", "fusion_lat": 0.0, "name": "81390a2df94b3377d2f9bad4bb30005d", "is_reserved": 0, "rental_uris": {"android": "https://dc.lft.to/lastmile_qr_scan", "ios": "https://dc.lft.to/lastmile_qr_scan"}, "fusion_lon": 0.0}, {"lat": 38.902916166666664, "is_disabled": 0, "type": "electric_scooter", "lon": -77.02061466666666, "bike_id": "97850e9479acdf2010bde887563cc571", "fusion_lat": 0.0, "name": "97850e9479acdf2010bde887563cc571", "is_reserved": 0, "rental_uris": {"android": "https://dc.lft.to/lastmile_qr_scan", "ios": "https://dc.lft.to/lastmile_qr_scan"}, "fusion_lon": 0.0}, {"lat": 38.90878216666667, "is_disabled": 0, "type": "electric_scooter", "lon": -77.03672483333334, "bike_id": "47fc90ae95d3a062151200ea25c4a4e7", "fusion_lat": 0.0, "name": "47fc90ae95d3a062151200ea25c4a4e7", "is_reserved": 0, "rental_uris": {"android": "https://dc.lft.to/lastmile_qr_scan", "ios": "https://dc.lft.to/lastmile_qr_scan"}, "fusion_lon": 0.0}, {"lat": 38.924583, "is_disabled": 0, "type": "electric_scooter", "lon": -77.01226933333334, "bike_id": "b0c58c3d85cee78251cba12050fe25be", "fusion_lat": 0.0, "name": "b0c58c3d85cee78251cba12050fe25be", "is_reserved": 0, "rental_uris": {"android": "https://dc.lft.to/lastmile_qr_scan", "ios": "https://dc.lft.to/lastmile_qr_scan"}, "fusion_lon": 0.0}, {"lat": 38.92060683333333, "is_disabled": 0, "type": "electric_scooter", "lon": -77.03270566666667, "bike_id": "62c7c51251e543099eb5991ff8e36ea0", "fusion_lat": 0.0, "name": "62c7c51251e543099eb5991ff8e36ea0", "is_reserved": 0, "rental_uris": {"android": "https://dc.lft.to/lastmile_qr_scan", "ios": "https://dc.lft.to/lastmile_qr_scan"}, "fusion_lon": 0.0}, {"lat": 38.952169833333336, "is_disabled": 0, "type": "electric_scooter", "lon": -77.02021966666666, "bike_id": "bfb6226fde68d4f355774b6c67926b54", "fusion_lat": 0.0, "name": "bfb6226fde68d4f355774b6c67926b54", "is_reserved": 0, "rental_uris": {"android": "https://dc.lft.to/lastmile_qr_scan", "ios": "https://dc.lft.to/lastmile_qr_scan"}, "fusion_lon": 0.0}, {"lat": 38.9397765, "is_disabled": 0, "type": "electric_scooter", "lon": -77.03586166666666, "bike_id": "77e92fd794b9b45fe4437a4091e91c72", "fusion_lat": 0.0, "name": "77e92fd794b9b45fe4437a4091e91c72", "is_reserved": 0, "rental_uris": {"android": "https://dc.lft.to/lastmile_qr_scan", "ios": "https://dc.lft.to/lastmile_qr_scan"}, "fusion_lon": 0.0}, {"lat": 38.8635745, "is_disabled": 0, "type": "electric_scooter", "lon": -76.98272033333333, "bike_id": "f1fe2697358ed540ed9c8f174ae93a66", "fusion_lat": 0.0, "name": "f1fe2697358ed540ed9c8f174ae93a66", "is_reserved": 0, "rental_uris": {"android": "https://dc.lft.to/lastmile_qr_scan", "ios": "https://dc.lft.to/lastmile_qr_scan"}, "fusion_lon": 0.0}, {"lat": 38.89088483333333, "is_disabled": 0, "type": "electric_scooter", "lon": -76.9867985, "bike_id": "f09ff36585988bb0d962938122569d21", "fusion_lat": 0.0, "name": "f09ff36585988bb0d962938122569d21", "is_reserved": 0, "rental_uris": {"android": "https://dc.lft.to/lastmile_qr_scan", "ios": "https://dc.lft.to/lastmile_qr_scan"}, "fusion_lon": 0.0}, {"lat": 38.95328516666667, "is_disabled": 0, "type": "electric_bike", "lon": -76.98820866666667, "bike_id": "393536bbfaf98e2e13e7e78f7553cc21", "fusion_lat": 0.0, "name": "393536bbfaf98e2e13e7e78f7553cc21", "is_reserved": 0, "rental_uris": {"android": "https://dc.lft.to/lastmile_qr_scan", "ios": "https://dc.lft.to/lastmile_qr_scan"}, "fusion_lon": 0.0}, {"lat": 38.86621816666667, "is_disabled": 0, "type": "electric_scooter", "lon": -76.98650333333333, "bike_id": "e7cc94fe0059f59f1a4513e639f7e647", "fusion_lat": 0.0, "name": "e7cc94fe0059f59f1a4513e639f7e647", "is_reserved": 0, "rental_uris": {"android": "https://dc.lft.to/lastmile_qr_scan", "ios": "https://dc.lft.to/lastmile_qr_scan"}, "fusion_lon": 0.0}, {"lat": 38.906861, "is_disabled": 0, "type": "electric_bike", "lon": -76.951915, "bike_id": "3dcbff398ee344aff6289484af7885f0", "fusion_lat": 0.0, "name": "3dcbff398ee344aff6289484af7885f0", "is_reserved": 0, "rental_uris": {"android": "https://dc.lft.to/lastmile_qr_scan", "ios": "https://dc.lft.to/lastmile_qr_scan"}, "fusion_lon": 0.0}, {"lat": 38.9095365, "is_disabled": 0, "type": "electric_scooter", "lon": -77.04394916666666, "bike_id": "55e36c3651774938bdc024a7b538d9de", "fusion_lat": 0.0, "name": "55e36c3651774938bdc024a7b538d9de", "is_reserved": 0, "rental_uris": {"android": "https://dc.lft.to/lastmile_qr_scan", "ios": "https://dc.lft.to/lastmile_qr_scan"}, "fusion_lon": 0.0}, {"lat": 38.91501183333333, "is_disabled": 0, "type": "electric_scooter", "lon": -77.01993533333334, "bike_id": "addfe06b6021f7bacd77ffc3c3d12c0a", "fusion_lat": 0.0, "name": "addfe06b6021f7bacd77ffc3c3d12c0a", "is_reserved": 0, "rental_uris": {"android": "https://dc.lft.to/lastmile_qr_scan", "ios": "https://dc.lft.to/lastmile_qr_scan"}, "fusion_lon": 0.0}, {"lat": 38.844241833333335, "is_disabled": 0, "type": "electric_scooter", "lon": -76.99778383333333, "bike_id": "bbd7affcb162570ae233773eaaae2071", "fusion_lat": 0.0, "name": "bbd7affcb162570ae233773eaaae2071", "is_reserved": 0, "rental_uris": {"android": "https://dc.lft.to/lastmile_qr_scan", "ios": "https://dc.lft.to/lastmile_qr_scan"}, "fusion_lon": 0.0}, {"lat": 38.9128555, "is_disabled": 0, "type": "electric_scooter", "lon": -77.02268266666667, "bike_id": "29f68baad15badb4c3e1f9a87dcae426", "fusion_lat": 0.0, "name": "29f68baad15badb4c3e1f9a87dcae426", "is_reserved": 0, "rental_uris": {"android": "https://dc.lft.to/lastmile_qr_scan", "ios": "https://dc.lft.to/lastmile_qr_scan"}, "fusion_lon": 0.0}, {"lat": 38.807083666666664, "is_disabled": 0, "type": "electric_bike", "lon": -77.0617605, "bike_id": "0ee3ac55a9b04528fa5c77d2f5cd0399", "fusion_lat": 0.0, "name": "0ee3ac55a9b04528fa5c77d2f5cd0399", "is_reserved": 0, "rental_uris": {"android": "https://dc.lft.to/lastmile_qr_scan", "ios": "https://dc.lft.to/lastmile_qr_scan"}, "fusion_lon": 0.0}, {"lat": 38.922548, "is_disabled": 0, "type": "electric_scooter", "lon": -77.03886216666666, "bike_id": "097a848480e22cd60cdaf1638ee882b4", "fusion_lat": 0.0, "name": "097a848480e22cd60cdaf1638ee882b4", "is_reserved": 0, "rental_uris": {"android": "https://dc.lft.to/lastmile_qr_scan", "ios": "https://dc.lft.to/lastmile_qr_scan"}, "fusion_lon": 0.0}, {"lat": 38.916872, "is_disabled": 0, "type": "electric_scooter", "lon": -77.02952316666666, "bike_id": "407296feb70f431d6f618315f1c8590a", "fusion_lat": 0.0, "name": "407296feb70f431d6f618315f1c8590a", "is_reserved": 0, "rental_uris": {"android": "https://dc.lft.to/lastmile_qr_scan", "ios": "https://dc.lft.to/lastmile_qr_scan"}, "fusion_lon": 0.0}, {"lat": 38.907649666666664, "is_disabled": 0, "type": "electric_scooter", "lon": -77.02071933333333, "bike_id": "6d3e6f089018c40b8c712bbc17be89a0", "fusion_lat": 0.0, "name": "6d3e6f089018c40b8c712bbc17be89a0", "is_reserved": 0, "rental_uris": {"android": "https://dc.lft.to/lastmile_qr_scan", "ios": "https://dc.lft.to/lastmile_qr_scan"}, "fusion_lon": 0.0}, {"lat": 38.915598333333335, "is_disabled": 0, "type": "electric_scooter", "lon": -77.03225266666666, "bike_id": "3cb5a44d9237a44216f8c41d94156583", "fusion_lat": 0.0, "name": "3cb5a44d9237a44216f8c41d94156583", "is_reserved": 0, "rental_uris": {"android": "https://dc.lft.to/lastmile_qr_scan", "ios": "https://dc.lft.to/lastmile_qr_scan"}, "fusion_lon": 0.0}, {"lat": 38.902741166666665, "is_disabled": 0, "type": "electric_scooter", "lon": -77.0174485, "bike_id": "853438b2cc4e81865964c35e5f161164", "fusion_lat": 0.0, "name": "853438b2cc4e81865964c35e5f161164", "is_reserved": 0, "rental_uris": {"android": "https://dc.lft.to/lastmile_qr_scan", "ios": "https://dc.lft.to/lastmile_qr_scan"}, "fusion_lon": 0.0}, {"lat": 38.896908, "is_disabled": 0, "type": "electric_scooter", "lon": -77.02393066666667, "bike_id": "c1e27ccdb88fd4c26529ce25722b0b98", "fusion_lat": 0.0, "name": "c1e27ccdb88fd4c26529ce25722b0b98", "is_reserved": 0, "rental_uris": {"android": "https://dc.lft.to/lastmile_qr_scan", "ios": "https://dc.lft.to/lastmile_qr_scan"}, "fusion_lon": 0.0}, {"lat": 38.9053065, "is_disabled": 0, "type": "electric_scooter", "lon": -77.05937416666667, "bike_id": "728c957890b22fed31412ca35ccb9c17", "fusion_lat": 0.0, "name": "728c957890b22fed31412ca35ccb9c17", "is_reserved": 0, "rental_uris": {"android": "https://dc.lft.to/lastmile_qr_scan", "ios": "https://dc.lft.to/lastmile_qr_scan"}, "fusion_lon": 0.0}, {"lat": 38.907313, "is_disabled": 0, "type": "electric_scooter", "lon": -77.023733, "bike_id": "2a6f24d9e03ab2abad20d30527ebdf03", "fusion_lat": 0.0, "name": "2a6f24d9e03ab2abad20d30527ebdf03", "is_reserved": 0, "rental_uris": {"android": "https://dc.lft.to/lastmile_qr_scan", "ios": "https://dc.lft.to/lastmile_qr_scan"}, "fusion_lon": 0.0}, {"lat": 38.904980333333334, "is_disabled": 0, "type": "electric_scooter", "lon": -77.00135633333333, "bike_id": "5766630124d491dfd39d9ea027647005", "fusion_lat": 0.0, "name": "5766630124d491dfd39d9ea027647005", "is_reserved": 0, "rental_uris": {"android": "https://dc.lft.to/lastmile_qr_scan", "ios": "https://dc.lft.to/lastmile_qr_scan"}, "fusion_lon": 0.0}, {"lat": 38.88764233333333, "is_disabled": 0, "type": "electric_scooter", "lon": -76.95600116666667, "bike_id": "2892f14d4568149182b138671c56471d", "fusion_lat": 0.0, "name": "2892f14d4568149182b138671c56471d", "is_reserved": 0, "rental_uris": {"android": "https://dc.lft.to/lastmile_qr_scan", "ios": "https://dc.lft.to/lastmile_qr_scan"}, "fusion_lon": 0.0}, {"lat": 38.917754, "is_disabled": 0, "type": "electric_scooter", "lon": -77.01497, "bike_id": "6f96c2bb554c5f72cedd5e73f9cef743", "fusion_lat": 0.0, "name": "6f96c2bb554c5f72cedd5e73f9cef743", "is_reserved": 0, "rental_uris": {"android": "https://dc.lft.to/lastmile_qr_scan", "ios": "https://dc.lft.to/lastmile_qr_scan"}, "fusion_lon": 0.0}, {"lat": 38.92075283333333, "is_disabled": 0, "type": "electric_scooter", "lon": -77.02357083333334, "bike_id": "e55337f3f0e3a0b7c1aec17c0c4d5041", "fusion_lat": 0.0, "name": "e55337f3f0e3a0b7c1aec17c0c4d5041", "is_reserved": 0, "rental_uris": {"android": "https://dc.lft.to/lastmile_qr_scan", "ios": "https://dc.lft.to/lastmile_qr_scan"}, "fusion_lon": 0.0}, {"lat": 38.89223883333333, "is_disabled": 0, "type": "electric_scooter", "lon": -77.04867616666667, "bike_id": "a0ee7678b51e4251888d83dd8879c2c8", "fusion_lat": 0.0, "name": "a0ee7678b51e4251888d83dd8879c2c8", "is_reserved": 0, "rental_uris": {"android": "https://dc.lft.to/lastmile_qr_scan", "ios": "https://dc.lft.to/lastmile_qr_scan"}, "fusion_lon": 0.0}, {"lat": 38.911976333333335, "is_disabled": 0, "type": "electric_scooter", "lon": -77.00453583333334, "bike_id": "b301557e86d8cd127518d160c90990d3", "fusion_lat": 0.0, "name": "b301557e86d8cd127518d160c90990d3", "is_reserved": 0, "rental_uris": {"android": "https://dc.lft.to/lastmile_qr_scan", "ios": "https://dc.lft.to/lastmile_qr_scan"}, "fusion_lon": 0.0}, {"lat": 38.87967716666667, "is_disabled": 0, "type": "electric_scooter", "lon": -77.00596433333334, "bike_id": "a86d2cf71370599abae9a4748c8d4144", "fusion_lat": 0.0, "name": "a86d2cf71370599abae9a4748c8d4144", "is_reserved": 0, "rental_uris": {"android": "https://dc.lft.to/lastmile_qr_scan", "ios": "https://dc.lft.to/lastmile_qr_scan"}, "fusion_lon": 0.0}, {"lat": 38.930992, "is_disabled": 0, "type": "electric_scooter", "lon": -77.03024916666666, "bike_id": "0087c83e2c3643d715c101f520fb855b", "fusion_lat": 0.0, "name": "0087c83e2c3643d715c101f520fb855b", "is_reserved": 0, "rental_uris": {"android": "https://dc.lft.to/lastmile_qr_scan", "ios": "https://dc.lft.to/lastmile_qr_scan"}, "fusion_lon": 0.0}, {"lat": 38.919797, "is_disabled": 0, "type": "electric_scooter", "lon": -77.00020233333333, "bike_id": "15b10db2ff1432cbf01d15d12fb76bd1", "fusion_lat": 0.0, "name": "15b10db2ff1432cbf01d15d12fb76bd1", "is_reserved": 0, "rental_uris": {"android": "https://dc.lft.to/lastmile_qr_scan", "ios": "https://dc.lft.to/lastmile_qr_scan"}, "fusion_lon": 0.0}, {"lat": 38.9036665, "is_disabled": 0, "type": "electric_scooter", "lon": -77.06286116666666, "bike_id": "29af672f35ad8c263dce4a9a92229045", "fusion_lat": 0.0, "name": "29af672f35ad8c263dce4a9a92229045", "is_reserved": 0, "rental_uris": {"android": "https://dc.lft.to/lastmile_qr_scan", "ios": "https://dc.lft.to/lastmile_qr_scan"}, "fusion_lon": 0.0}, {"lat": 38.90422483333333, "is_disabled": 0, "type": "electric_scooter", "lon": -76.99078333333334, "bike_id": "910fa7b2a1e54ce3639897255038bba3", "fusion_lat": 0.0, "name": "910fa7b2a1e54ce3639897255038bba3", "is_reserved": 0, "rental_uris": {"android": "https://dc.lft.to/lastmile_qr_scan", "ios": "https://dc.lft.to/lastmile_qr_scan"}, "fusion_lon": 0.0}, {"lat": 38.84613, "is_disabled": 0, "type": "electric_bike", "lon": -76.96902166666666, "bike_id": "4d6bee0824c1cf790e53d2a5ff502a9c", "fusion_lat": 0.0, "name": "4d6bee0824c1cf790e53d2a5ff502a9c", "is_reserved": 0, "rental_uris": {"android": "https://dc.lft.to/lastmile_qr_scan", "ios": "https://dc.lft.to/lastmile_qr_scan"}, "fusion_lon": 0.0}, {"lat": 38.913554500000004, "is_disabled": 0, "type": "electric_scooter", "lon": -77.0152495, "bike_id": "cb76c212703b923a352d7dc60d5af90e", "fusion_lat": 0.0, "name": "cb76c212703b923a352d7dc60d5af90e", "is_reserved": 0, "rental_uris": {"android": "https://dc.lft.to/lastmile_qr_scan", "ios": "https://dc.lft.to/lastmile_qr_scan"}, "fusion_lon": 0.0}, {"lat": 38.89657166666667, "is_disabled": 0, "type": "electric_scooter", "lon": -77.00911383333333, "bike_id": "b3b46f38e885f1459cb94eed98076cd4", "fusion_lat": 0.0, "name": "b3b46f38e885f1459cb94eed98076cd4", "is_reserved": 0, "rental_uris": {"android": "https://dc.lft.to/lastmile_qr_scan", "ios": "https://dc.lft.to/lastmile_qr_scan"}, "fusion_lon": 0.0}, {"lat": 38.942296666666664, "is_disabled": 0, "type": "electric_scooter", "lon": -77.01391, "bike_id": "19d95a6e59673e2a53a73adbb1046c28", "fusion_lat": 0.0, "name": "19d95a6e59673e2a53a73adbb1046c28", "is_reserved": 0, "rental_uris": {"android": "https://dc.lft.to/lastmile_qr_scan", "ios": "https://dc.lft.to/lastmile_qr_scan"}, "fusion_lon": 0.0}, {"lat": 38.908431666666665, "is_disabled": 0, "type": "electric_scooter", "lon": -77.0385405, "bike_id": "4bfa3897e7e3c5cddc1957459d40d605", "fusion_lat": 0.0, "name": "4bfa3897e7e3c5cddc1957459d40d605", "is_reserved": 0, "rental_uris": {"android": "https://dc.lft.to/lastmile_qr_scan", "ios": "https://dc.lft.to/lastmile_qr_scan"}, "fusion_lon": 0.0}, {"lat": 38.905954, "is_disabled": 0, "type": "electric_scooter", "lon": -77.0021285, "bike_id": "e851e6f4732269b88884dfc1b7ecf45c", "fusion_lat": 0.0, "name": "e851e6f4732269b88884dfc1b7ecf45c", "is_reserved": 0, "rental_uris": {"android": "https://dc.lft.to/lastmile_qr_scan", "ios": "https://dc.lft.to/lastmile_qr_scan"}, "fusion_lon": 0.0}, {"lat": 38.90961816666667, "is_disabled": 0, "type": "electric_scooter", "lon": -77.0268905, "bike_id": "636c6573b14446556a67a116939cf98d", "fusion_lat": 0.0, "name": "636c6573b14446556a67a116939cf98d", "is_reserved": 0, "rental_uris": {"android": "https://dc.lft.to/lastmile_qr_scan", "ios": "https://dc.lft.to/lastmile_qr_scan"}, "fusion_lon": 0.0}, {"lat": 38.91974033333334, "is_disabled": 0, "type": "electric_scooter", "lon": -77.00023166666666, "bike_id": "0f2df8babe305430aa6aa620fa2c5ad1", "fusion_lat": 0.0, "name": "0f2df8babe305430aa6aa620fa2c5ad1", "is_reserved": 0, "rental_uris": {"android": "https://dc.lft.to/lastmile_qr_scan", "ios": "https://dc.lft.to/lastmile_qr_scan"}, "fusion_lon": 0.0}, {"lat": 38.92624, "is_disabled": 0, "type": "electric_scooter", "lon": -77.03613416666667, "bike_id": "fb6e45686623e5bbce1fcc0b8a90ee24", "fusion_lat": 0.0, "name": "fb6e45686623e5bbce1fcc0b8a90ee24", "is_reserved": 0, "rental_uris": {"android": "https://dc.lft.to/lastmile_qr_scan", "ios": "https://dc.lft.to/lastmile_qr_scan"}, "fusion_lon": 0.0}, {"lat": 38.917641, "is_disabled": 0, "type": "electric_scooter", "lon": -77.02300216666667, "bike_id": "4d24f6cf46e0bd7c248ed9776345c94d", "fusion_lat": 0.0, "name": "4d24f6cf46e0bd7c248ed9776345c94d", "is_reserved": 0, "rental_uris": {"android": "https://dc.lft.to/lastmile_qr_scan", "ios": "https://dc.lft.to/lastmile_qr_scan"}, "fusion_lon": 0.0}, {"lat": 38.90140433333333, "is_disabled": 0, "type": "electric_scooter", "lon": -76.98057666666666, "bike_id": "db9880d07ce688df4abc2f9f11f0567a", "fusion_lat": 0.0, "name": "db9880d07ce688df4abc2f9f11f0567a", "is_reserved": 0, "rental_uris": {"android": "https://dc.lft.to/lastmile_qr_scan", "ios": "https://dc.lft.to/lastmile_qr_scan"}, "fusion_lon": 0.0}, {"lat": 38.951922833333334, "is_disabled": 0, "type": "electric_bike", "lon": -76.96724883333333, "bike_id": "3dad899235f1a84c3ed9f76c185c21ef", "fusion_lat": 0.0, "name": "3dad899235f1a84c3ed9f76c185c21ef", "is_reserved": 0, "rental_uris": {"android": "https://dc.lft.to/lastmile_qr_scan", "ios": "https://dc.lft.to/lastmile_qr_scan"}, "fusion_lon": 0.0}, {"lat": 39.0001915, "is_disabled": 0, "type": "electric_bike", "lon": -76.91076583333333, "bike_id": "1ec917132bb86f49620d9636b45d9155", "fusion_lat": 0.0, "name": "1ec917132bb86f49620d9636b45d9155", "is_reserved": 0, "rental_uris": {"android": "https://dc.lft.to/lastmile_qr_scan", "ios": "https://dc.lft.to/lastmile_qr_scan"}, "fusion_lon": 0.0}, {"lat": 38.863901166666665, "is_disabled": 0, "type": "electric_bike", "lon": -76.989906, "bike_id": "1d2259d4312c04bcb4100a2039a92d41", "fusion_lat": 0.0, "name": "1d2259d4312c04bcb4100a2039a92d41", "is_reserved": 0, "rental_uris": {"android": "https://dc.lft.to/lastmile_qr_scan", "ios": "https://dc.lft.to/lastmile_qr_scan"}, "fusion_lon": 0.0}, {"lat": 38.9331775, "is_disabled": 0, "type": "electric_scooter", "lon": -77.03276466666667, "bike_id": "638700a84858780f4617fc7c3968d7d0", "fusion_lat": 0.0, "name": "638700a84858780f4617fc7c3968d7d0", "is_reserved": 0, "rental_uris": {"android": "https://dc.lft.to/lastmile_qr_scan", "ios": "https://dc.lft.to/lastmile_qr_scan"}, "fusion_lon": 0.0}, {"lat": 38.90108433333333, "is_disabled": 0, "type": "electric_scooter", "lon": -76.98488466666667, "bike_id": "af1ad5aa714e8c7f6763d7a7e5cf4947", "fusion_lat": 0.0, "name": "af1ad5aa714e8c7f6763d7a7e5cf4947", "is_reserved": 0, "rental_uris": {"android": "https://dc.lft.to/lastmile_qr_scan", "ios": "https://dc.lft.to/lastmile_qr_scan"}, "fusion_lon": 0.0}, {"lat": 38.90361983333333, "is_disabled": 0, "type": "electric_scooter", "lon": -77.010865, "bike_id": "7d2db3f163527999e649dc0cfd22a03a", "fusion_lat": 0.0, "name": "7d2db3f163527999e649dc0cfd22a03a", "is_reserved": 0, "rental_uris": {"android": "https://dc.lft.to/lastmile_qr_scan", "ios": "https://dc.lft.to/lastmile_qr_scan"}, "fusion_lon": 0.0}, {"lat": 38.90148333333333, "is_disabled": 0, "type": "electric_scooter", "lon": -77.04168416666667, "bike_id": "97a37a4ccc4ee69b9a8df75ec36ce7ab", "fusion_lat": 0.0, "name": "97a37a4ccc4ee69b9a8df75ec36ce7ab", "is_reserved": 0, "rental_uris": {"android": "https://dc.lft.to/lastmile_qr_scan", "ios": "https://dc.lft.to/lastmile_qr_scan"}, "fusion_lon": 0.0}, {"lat": 38.906927833333334, "is_disabled": 0, "type": "electric_scooter", "lon": -77.06349366666667, "bike_id": "6a6be7fdf7e4bdfeeb1224b1873beaa5", "fusion_lat": 0.0, "name": "6a6be7fdf7e4bdfeeb1224b1873beaa5", "is_reserved": 0, "rental_uris": {"android": "https://dc.lft.to/lastmile_qr_scan", "ios": "https://dc.lft.to/lastmile_qr_scan"}, "fusion_lon": 0.0}, {"lat": 38.927969, "is_disabled": 0, "type": "electric_scooter", "lon": -77.0552645, "bike_id": "a056c3c32b8b159f4337d6bb4485dd08", "fusion_lat": 0.0, "name": "a056c3c32b8b159f4337d6bb4485dd08", "is_reserved": 0, "rental_uris": {"android": "https://dc.lft.to/lastmile_qr_scan", "ios": "https://dc.lft.to/lastmile_qr_scan"}, "fusion_lon": 0.0}, {"lat": 38.91750016666667, "is_disabled": 0, "type": "electric_scooter", "lon": -77.0366045, "bike_id": "8829dbf5234472a74efe258dbee60012", "fusion_lat": 0.0, "name": "8829dbf5234472a74efe258dbee60012", "is_reserved": 0, "rental_uris": {"android": "https://dc.lft.to/lastmile_qr_scan", "ios": "https://dc.lft.to/lastmile_qr_scan"}, "fusion_lon": 0.0}, {"lat": 38.906675, "is_disabled": 0, "type": "electric_scooter", "lon": -77.03862416666666, "bike_id": "90961f63960f99d2089f2202c9c002ed", "fusion_lat": 0.0, "name": "90961f63960f99d2089f2202c9c002ed", "is_reserved": 0, "rental_uris": {"android": "https://dc.lft.to/lastmile_qr_scan", "ios": "https://dc.lft.to/lastmile_qr_scan"}, "fusion_lon": 0.0}, {"lat": 38.85324516666667, "is_disabled": 0, "type": "electric_bike", "lon": -76.98006683333334, "bike_id": "13c845a13b2f8228dcc8504ccfd48d68", "fusion_lat": 0.0, "name": "13c845a13b2f8228dcc8504ccfd48d68", "is_reserved": 0, "rental_uris": {"android": "https://dc.lft.to/lastmile_qr_scan", "ios": "https://dc.lft.to/lastmile_qr_scan"}, "fusion_lon": 0.0}, {"lat": 38.92203583333333, "is_disabled": 0, "type": "electric_scooter", "lon": -76.98371033333333, "bike_id": "a6bacd7148c5fd370923dcc4c6fc0c5d", "fusion_lat": 0.0, "name": "a6bacd7148c5fd370923dcc4c6fc0c5d", "is_reserved": 0, "rental_uris": {"android": "https://dc.lft.to/lastmile_qr_scan", "ios": "https://dc.lft.to/lastmile_qr_scan"}, "fusion_lon": 0.0}, {"lat": 38.9274355, "is_disabled": 0, "type": "electric_scooter", "lon": -77.04290633333333, "bike_id": "06df5d1829946326e8b08bd735e7d427", "fusion_lat": 0.0, "name": "06df5d1829946326e8b08bd735e7d427", "is_reserved": 0, "rental_uris": {"android": "https://dc.lft.to/lastmile_qr_scan", "ios": "https://dc.lft.to/lastmile_qr_scan"}, "fusion_lon": 0.0}, {"lat": 38.973285833333335, "is_disabled": 0, "type": "electric_bike", "lon": -77.02152383333333, "bike_id": "82143daf9f009e3a93f6b9e2b87b6ec8", "fusion_lat": 0.0, "name": "82143daf9f009e3a93f6b9e2b87b6ec8", "is_reserved": 0, "rental_uris": {"android": "https://dc.lft.to/lastmile_qr_scan", "ios": "https://dc.lft.to/lastmile_qr_scan"}, "fusion_lon": 0.0}, {"lat": 38.8830985, "is_disabled": 0, "type": "electric_bike", "lon": -77.03153616666667, "bike_id": "f2529bf209f64772d9e9c2b4eea7a000", "fusion_lat": 0.0, "name": "f2529bf209f64772d9e9c2b4eea7a000", "is_reserved": 0, "rental_uris": {"android": "https://dc.lft.to/lastmile_qr_scan", "ios": "https://dc.lft.to/lastmile_qr_scan"}, "fusion_lon": 0.0}, {"lat": 38.926328, "is_disabled": 0, "type": "electric_scooter", "lon": -77.03787733333333, "bike_id": "edebddb2a30adcbcfe2f8e3d897210dd", "fusion_lat": 0.0, "name": "edebddb2a30adcbcfe2f8e3d897210dd", "is_reserved": 0, "rental_uris": {"android": "https://dc.lft.to/lastmile_qr_scan", "ios": "https://dc.lft.to/lastmile_qr_scan"}, "fusion_lon": 0.0}, {"lat": 38.88363433333333, "is_disabled": 0, "type": "electric_scooter", "lon": -76.94154116666667, "bike_id": "cfec2caa2e87a70b53c60ed8bd757fe7", "fusion_lat": 0.0, "name": "cfec2caa2e87a70b53c60ed8bd757fe7", "is_reserved": 0, "rental_uris": {"android": "https://dc.lft.to/lastmile_qr_scan", "ios": "https://dc.lft.to/lastmile_qr_scan"}, "fusion_lon": 0.0}, {"lat": 38.9575255, "is_disabled": 0, "type": "electric_scooter", "lon": -77.02070583333334, "bike_id": "cbc8e7d41a4119724e6b948ab58671f4", "fusion_lat": 0.0, "name": "cbc8e7d41a4119724e6b948ab58671f4", "is_reserved": 0, "rental_uris": {"android": "https://dc.lft.to/lastmile_qr_scan", "ios": "https://dc.lft.to/lastmile_qr_scan"}, "fusion_lon": 0.0}, {"lat": 38.916840666666666, "is_disabled": 0, "type": "electric_scooter", "lon": -77.00203633333334, "bike_id": "8b14ef987d70ddbf55e1597641ac985f", "fusion_lat": 0.0, "name": "8b14ef987d70ddbf55e1597641ac985f", "is_reserved": 0, "rental_uris": {"android": "https://dc.lft.to/lastmile_qr_scan", "ios": "https://dc.lft.to/lastmile_qr_scan"}, "fusion_lon": 0.0}, {"lat": 38.92316833333334, "is_disabled": 0, "type": "electric_scooter", "lon": -77.041222, "bike_id": "93e51786cb913af6c76ee0ff8adb5577", "fusion_lat": 0.0, "name": "93e51786cb913af6c76ee0ff8adb5577", "is_reserved": 0, "rental_uris": {"android": "https://dc.lft.to/lastmile_qr_scan", "ios": "https://dc.lft.to/lastmile_qr_scan"}, "fusion_lon": 0.0}, {"lat": 38.92347816666667, "is_disabled": 0, "type": "electric_scooter", "lon": -77.05117983333334, "bike_id": "4565d8714ce0f03f8cc3fe134214f4c9", "fusion_lat": 0.0, "name": "4565d8714ce0f03f8cc3fe134214f4c9", "is_reserved": 0, "rental_uris": {"android": "https://dc.lft.to/lastmile_qr_scan", "ios": "https://dc.lft.to/lastmile_qr_scan"}, "fusion_lon": 0.0}, {"lat": 38.95904983333333, "is_disabled": 0, "type": "electric_bike", "lon": -76.92480383333333, "bike_id": "c9bd49cd5633d789339d2809bf29237d", "fusion_lat": 0.0, "name": "c9bd49cd5633d789339d2809bf29237d", "is_reserved": 0, "rental_uris": {"android": "https://dc.lft.to/lastmile_qr_scan", "ios": "https://dc.lft.to/lastmile_qr_scan"}, "fusion_lon": 0.0}, {"lat": 38.93600633333333, "is_disabled": 0, "type": "electric_scooter", "lon": -77.05633166666667, "bike_id": "7387fbb691bc16a45945a040effbba72", "fusion_lat": 0.0, "name": "7387fbb691bc16a45945a040effbba72", "is_reserved": 0, "rental_uris": {"android": "https://dc.lft.to/lastmile_qr_scan", "ios": "https://dc.lft.to/lastmile_qr_scan"}, "fusion_lon": 0.0}, {"lat": 38.903685833333334, "is_disabled": 0, "type": "electric_scooter", "lon": -77.04107983333333, "bike_id": "06d032866a2a127d9c18f5008ab88b3a", "fusion_lat": 0.0, "name": "06d032866a2a127d9c18f5008ab88b3a", "is_reserved": 0, "rental_uris": {"android": "https://dc.lft.to/lastmile_qr_scan", "ios": "https://dc.lft.to/lastmile_qr_scan"}, "fusion_lon": 0.0}, {"lat": 38.910640666666666, "is_disabled": 0, "type": "electric_scooter", "lon": -77.02918116666666, "bike_id": "857ff97ec1da07ea9f392fee299e58cd", "fusion_lat": 0.0, "name": "857ff97ec1da07ea9f392fee299e58cd", "is_reserved": 0, "rental_uris": {"android": "https://dc.lft.to/lastmile_qr_scan", "ios": "https://dc.lft.to/lastmile_qr_scan"}, "fusion_lon": 0.0}, {"lat": 38.905131833333336, "is_disabled": 0, "type": "electric_scooter", "lon": -77.0447525, "bike_id": "b7bfb0a7a251e35d4db2e6f9242726c4", "fusion_lat": 0.0, "name": "b7bfb0a7a251e35d4db2e6f9242726c4", "is_reserved": 0, "rental_uris": {"android": "https://dc.lft.to/lastmile_qr_scan", "ios": "https://dc.lft.to/lastmile_qr_scan"}, "fusion_lon": 0.0}, {"lat": 38.91902483333333, "is_disabled": 0, "type": "electric_scooter", "lon": -77.03181533333333, "bike_id": "af7354194202284f2459784ff8b81358", "fusion_lat": 0.0, "name": "af7354194202284f2459784ff8b81358", "is_reserved": 0, "rental_uris": {"android": "https://dc.lft.to/lastmile_qr_scan", "ios": "https://dc.lft.to/lastmile_qr_scan"}, "fusion_lon": 0.0}, {"lat": 38.91706216666667, "is_disabled": 0, "type": "electric_scooter", "lon": -77.04029183333333, "bike_id": "62f9728ee3c0420384ddd26074e15e98", "fusion_lat": 0.0, "name": "62f9728ee3c0420384ddd26074e15e98", "is_reserved": 0, "rental_uris": {"android": "https://dc.lft.to/lastmile_qr_scan", "ios": "https://dc.lft.to/lastmile_qr_scan"}, "fusion_lon": 0.0}, {"lat": 38.9073025, "is_disabled": 0, "type": "electric_scooter", "lon": -77.023796, "bike_id": "cf13ed8b9433757ae2e8e242b278f09c", "fusion_lat": 0.0, "name": "cf13ed8b9433757ae2e8e242b278f09c", "is_reserved": 0, "rental_uris": {"android": "https://dc.lft.to/lastmile_qr_scan", "ios": "https://dc.lft.to/lastmile_qr_scan"}, "fusion_lon": 0.0}, {"lat": 38.933356, "is_disabled": 0, "type": "electric_scooter", "lon": -77.05729666666667, "bike_id": "c663a7e436c9a9a9e2d95965f208101a", "fusion_lat": 0.0, "name": "c663a7e436c9a9a9e2d95965f208101a", "is_reserved": 0, "rental_uris": {"android": "https://dc.lft.to/lastmile_qr_scan", "ios": "https://dc.lft.to/lastmile_qr_scan"}, "fusion_lon": 0.0}, {"lat": 38.9117825, "is_disabled": 0, "type": "electric_scooter", "lon": -77.03863016666666, "bike_id": "c2789d741f4bc3940436cee335bebf29", "fusion_lat": 0.0, "name": "c2789d741f4bc3940436cee335bebf29", "is_reserved": 0, "rental_uris": {"android": "https://dc.lft.to/lastmile_qr_scan", "ios": "https://dc.lft.to/lastmile_qr_scan"}, "fusion_lon": 0.0}, {"lat": 38.9213, "is_disabled": 0, "type": "electric_scooter", "lon": -77.04001966666667, "bike_id": "8cd2aa37c1356ec7cfbaa0a4bfeee7ff", "fusion_lat": 0.0, "name": "8cd2aa37c1356ec7cfbaa0a4bfeee7ff", "is_reserved": 0, "rental_uris": {"android": "https://dc.lft.to/lastmile_qr_scan", "ios": "https://dc.lft.to/lastmile_qr_scan"}, "fusion_lon": 0.0}, {"lat": 38.85647066666667, "is_disabled": 0, "type": "electric_bike", "lon": -77.11259983333333, "bike_id": "14d662b3eea77daa6ff3eb5707cb6ad6", "fusion_lat": 0.0, "name": "14d662b3eea77daa6ff3eb5707cb6ad6", "is_reserved": 0, "rental_uris": {"android": "https://dc.lft.to/lastmile_qr_scan", "ios": "https://dc.lft.to/lastmile_qr_scan"}, "fusion_lon": 0.0}, {"lat": 38.877205833333335, "is_disabled": 0, "type": "electric_scooter", "lon": -77.016744, "bike_id": "1272ccea5c209989d452dedf489c86c0", "fusion_lat": 0.0, "name": "1272ccea5c209989d452dedf489c86c0", "is_reserved": 0, "rental_uris": {"android": "https://dc.lft.to/lastmile_qr_scan", "ios": "https://dc.lft.to/lastmile_qr_scan"}, "fusion_lon": 0.0}, {"lat": 38.8840155, "is_disabled": 0, "type": "electric_scooter", "lon": -77.02420733333334, "bike_id": "3046da4031fadd5a9c7ab4092ec4225f", "fusion_lat": 0.0, "name": "3046da4031fadd5a9c7ab4092ec4225f", "is_reserved": 0, "rental_uris": {"android": "https://dc.lft.to/lastmile_qr_scan", "ios": "https://dc.lft.to/lastmile_qr_scan"}, "fusion_lon": 0.0}, {"lat": 38.9298525, "is_disabled": 0, "type": "electric_scooter", "lon": -77.03831233333334, "bike_id": "f6357c65d44a91ed70b4beba3ea168ee", "fusion_lat": 0.0, "name": "f6357c65d44a91ed70b4beba3ea168ee", "is_reserved": 0, "rental_uris": {"android": "https://dc.lft.to/lastmile_qr_scan", "ios": "https://dc.lft.to/lastmile_qr_scan"}, "fusion_lon": 0.0}, {"lat": 38.88264183333333, "is_disabled": 0, "type": "electric_scooter", "lon": -76.98826266666667, "bike_id": "0fc3e1596abd035956b0348f37ca12c9", "fusion_lat": 0.0, "name": "0fc3e1596abd035956b0348f37ca12c9", "is_reserved": 0, "rental_uris": {"android": "https://dc.lft.to/lastmile_qr_scan", "ios": "https://dc.lft.to/lastmile_qr_scan"}, "fusion_lon": 0.0}, {"lat": 38.91050633333333, "is_disabled": 0, "type": "electric_scooter", "lon": -77.0412475, "bike_id": "38e4e052236b80c23897f84374a8a396", "fusion_lat": 0.0, "name": "38e4e052236b80c23897f84374a8a396", "is_reserved": 0, "rental_uris": {"android": "https://dc.lft.to/lastmile_qr_scan", "ios": "https://dc.lft.to/lastmile_qr_scan"}, "fusion_lon": 0.0}, {"lat": 38.9342395, "is_disabled": 0, "type": "electric_scooter", "lon": -77.04139616666667, "bike_id": "60e97820b548a13d1446c7b6b26f4913", "fusion_lat": 0.0, "name": "60e97820b548a13d1446c7b6b26f4913", "is_reserved": 0, "rental_uris": {"android": "https://dc.lft.to/lastmile_qr_scan", "ios": "https://dc.lft.to/lastmile_qr_scan"}, "fusion_lon": 0.0}, {"lat": 38.905716166666664, "is_disabled": 0, "type": "electric_scooter", "lon": -77.06284283333333, "bike_id": "4790074f8d571d68abc8275ef787c0ff", "fusion_lat": 0.0, "name": "4790074f8d571d68abc8275ef787c0ff", "is_reserved": 0, "rental_uris": {"android": "https://dc.lft.to/lastmile_qr_scan", "ios": "https://dc.lft.to/lastmile_qr_scan"}, "fusion_lon": 0.0}, {"lat": 38.88996916666667, "is_disabled": 0, "type": "electric_scooter", "lon": -76.9556865, "bike_id": "755e8c63280951cfec4473d00f0826b2", "fusion_lat": 0.0, "name": "755e8c63280951cfec4473d00f0826b2", "is_reserved": 0, "rental_uris": {"android": "https://dc.lft.to/lastmile_qr_scan", "ios": "https://dc.lft.to/lastmile_qr_scan"}, "fusion_lon": 0.0}, {"lat": 38.905706, "is_disabled": 0, "type": "electric_scooter", "lon": -77.00590516666666, "bike_id": "9e583e746e1381859ec3e0bea24e26e7", "fusion_lat": 0.0, "name": "9e583e746e1381859ec3e0bea24e26e7", "is_reserved": 0, "rental_uris": {"android": "https://dc.lft.to/lastmile_qr_scan", "ios": "https://dc.lft.to/lastmile_qr_scan"}, "fusion_lon": 0.0}, {"lat": 38.90678916666667, "is_disabled": 0, "type": "electric_scooter", "lon": -77.07176883333334, "bike_id": "05c83a8c150b073b88693a7e4016e61e", "fusion_lat": 0.0, "name": "05c83a8c150b073b88693a7e4016e61e", "is_reserved": 0, "rental_uris": {"android": "https://dc.lft.to/lastmile_qr_scan", "ios": "https://dc.lft.to/lastmile_qr_scan"}, "fusion_lon": 0.0}, {"lat": 38.88621766666667, "is_disabled": 0, "type": "electric_scooter", "lon": -77.003681, "bike_id": "094ffa6f5751020ca6cfee4be73d3659", "fusion_lat": 0.0, "name": "094ffa6f5751020ca6cfee4be73d3659", "is_reserved": 0, "rental_uris": {"android": "https://dc.lft.to/lastmile_qr_scan", "ios": "https://dc.lft.to/lastmile_qr_scan"}, "fusion_lon": 0.0}, {"lat": 38.90783166666667, "is_disabled": 0, "type": "electric_scooter", "lon": -77.03860066666667, "bike_id": "f32ad1e3f5a9fd64a4f0ecff82bdcbd1", "fusion_lat": 0.0, "name": "f32ad1e3f5a9fd64a4f0ecff82bdcbd1", "is_reserved": 0, "rental_uris": {"android": "https://dc.lft.to/lastmile_qr_scan", "ios": "https://dc.lft.to/lastmile_qr_scan"}, "fusion_lon": 0.0}, {"lat": 38.837278, "is_disabled": 0, "type": "electric_bike", "lon": -76.99760816666667, "bike_id": "c6e26a296f58154fd7c56f14af08f1d8", "fusion_lat": 0.0, "name": "c6e26a296f58154fd7c56f14af08f1d8", "is_reserved": 0, "rental_uris": {"android": "https://dc.lft.to/lastmile_qr_scan", "ios": "https://dc.lft.to/lastmile_qr_scan"}, "fusion_lon": 0.0}, {"lat": 38.938198, "is_disabled": 0, "type": "electric_bike", "lon": -77.02652633333334, "bike_id": "d8fdebd0d7de40a7e3a009d16a56ac4e", "fusion_lat": 0.0, "name": "d8fdebd0d7de40a7e3a009d16a56ac4e", "is_reserved": 0, "rental_uris": {"android": "https://dc.lft.to/lastmile_qr_scan", "ios": "https://dc.lft.to/lastmile_qr_scan"}, "fusion_lon": 0.0}, {"lat": 38.855193, "is_disabled": 0, "type": "electric_bike", "lon": -76.98432983333333, "bike_id": "6878465eb45bd476f2cff0b6647501af", "fusion_lat": 0.0, "name": "6878465eb45bd476f2cff0b6647501af", "is_reserved": 0, "rental_uris": {"android": "https://dc.lft.to/lastmile_qr_scan", "ios": "https://dc.lft.to/lastmile_qr_scan"}, "fusion_lon": 0.0}, {"lat": 38.93835716666667, "is_disabled": 0, "type": "electric_scooter", "lon": -77.02595833333334, "bike_id": "551c0187a739ac641473443ba79b375d", "fusion_lat": 0.0, "name": "551c0187a739ac641473443ba79b375d", "is_reserved": 0, "rental_uris": {"android": "https://dc.lft.to/lastmile_qr_scan", "ios": "https://dc.lft.to/lastmile_qr_scan"}, "fusion_lon": 0.0}, {"lat": 38.916185, "is_disabled": 0, "type": "electric_scooter", "lon": -77.0256205, "bike_id": "4dc382c0cc7ba661b75c2829d1e308ff", "fusion_lat": 0.0, "name": "4dc382c0cc7ba661b75c2829d1e308ff", "is_reserved": 0, "rental_uris": {"android": "https://dc.lft.to/lastmile_qr_scan", "ios": "https://dc.lft.to/lastmile_qr_scan"}, "fusion_lon": 0.0}, {"lat": 38.85691583333333, "is_disabled": 0, "type": "electric_scooter", "lon": -76.98171983333333, "bike_id": "9c6cadc0fdbfc9538d2ab8247967969e", "fusion_lat": 0.0, "name": "9c6cadc0fdbfc9538d2ab8247967969e", "is_reserved": 0, "rental_uris": {"android": "https://dc.lft.to/lastmile_qr_scan", "ios": "https://dc.lft.to/lastmile_qr_scan"}, "fusion_lon": 0.0}, {"lat": 38.8963945, "is_disabled": 0, "type": "electric_scooter", "lon": -77.04501433333333, "bike_id": "88d53696f97912bc85e0871ceda5cc89", "fusion_lat": 0.0, "name": "88d53696f97912bc85e0871ceda5cc89", "is_reserved": 0, "rental_uris": {"android": "https://dc.lft.to/lastmile_qr_scan", "ios": "https://dc.lft.to/lastmile_qr_scan"}, "fusion_lon": 0.0}, {"lat": 38.93766166666666, "is_disabled": 0, "type": "electric_scooter", "lon": -77.023756, "bike_id": "be8b3e1ff732e13a4dc1d2c23adf7c96", "fusion_lat": 0.0, "name": "be8b3e1ff732e13a4dc1d2c23adf7c96", "is_reserved": 0, "rental_uris": {"android": "https://dc.lft.to/lastmile_qr_scan", "ios": "https://dc.lft.to/lastmile_qr_scan"}, "fusion_lon": 0.0}, {"lat": 38.907303666666664, "is_disabled": 0, "type": "electric_scooter", "lon": -77.04783483333334, "bike_id": "8bf4ee2f9ffccb7c952ed944250d14b5", "fusion_lat": 0.0, "name": "8bf4ee2f9ffccb7c952ed944250d14b5", "is_reserved": 0, "rental_uris": {"android": "https://dc.lft.to/lastmile_qr_scan", "ios": "https://dc.lft.to/lastmile_qr_scan"}, "fusion_lon": 0.0}, {"lat": 38.90797233333333, "is_disabled": 0, "type": "electric_scooter", "lon": -77.034793, "bike_id": "2fe4a91a2395640383c4aaa93d961307", "fusion_lat": 0.0, "name": "2fe4a91a2395640383c4aaa93d961307", "is_reserved": 0, "rental_uris": {"android": "https://dc.lft.to/lastmile_qr_scan", "ios": "https://dc.lft.to/lastmile_qr_scan"}, "fusion_lon": 0.0}, {"lat": 38.84294933333334, "is_disabled": 0, "type": "electric_scooter", "lon": -76.999469, "bike_id": "20a92f408e56ba655b478567f60c9b4a", "fusion_lat": 0.0, "name": "20a92f408e56ba655b478567f60c9b4a", "is_reserved": 0, "rental_uris": {"android": "https://dc.lft.to/lastmile_qr_scan", "ios": "https://dc.lft.to/lastmile_qr_scan"}, "fusion_lon": 0.0}, {"lat": 38.94098866666667, "is_disabled": 0, "type": "electric_scooter", "lon": -77.03281333333334, "bike_id": "47b6dec5775bbb77fdeecb749731ef19", "fusion_lat": 0.0, "name": "47b6dec5775bbb77fdeecb749731ef19", "is_reserved": 0, "rental_uris": {"android": "https://dc.lft.to/lastmile_qr_scan", "ios": "https://dc.lft.to/lastmile_qr_scan"}, "fusion_lon": 0.0}, {"lat": 38.898145166666666, "is_disabled": 0, "type": "electric_scooter", "lon": -77.02422716666666, "bike_id": "58eab1b889e057c94c5962496684126e", "fusion_lat": 0.0, "name": "58eab1b889e057c94c5962496684126e", "is_reserved": 0, "rental_uris": {"android": "https://dc.lft.to/lastmile_qr_scan", "ios": "https://dc.lft.to/lastmile_qr_scan"}, "fusion_lon": 0.0}, {"lat": 38.9122495, "is_disabled": 0, "type": "electric_scooter", "lon": -77.034374, "bike_id": "751a08c89ed6a296c34ba785087d2be4", "fusion_lat": 0.0, "name": "751a08c89ed6a296c34ba785087d2be4", "is_reserved": 0, "rental_uris": {"android": "https://dc.lft.to/lastmile_qr_scan", "ios": "https://dc.lft.to/lastmile_qr_scan"}, "fusion_lon": 0.0}, {"lat": 38.86006316666667, "is_disabled": 0, "type": "electric_scooter", "lon": -76.98559316666666, "bike_id": "dfe5238108b9feffa4c55b3d6dd5fdf9", "fusion_lat": 0.0, "name": "dfe5238108b9feffa4c55b3d6dd5fdf9", "is_reserved": 0, "rental_uris": {"android": "https://dc.lft.to/lastmile_qr_scan", "ios": "https://dc.lft.to/lastmile_qr_scan"}, "fusion_lon": 0.0}, {"lat": 38.90030933333333, "is_disabled": 0, "type": "electric_scooter", "lon": -77.0020335, "bike_id": "cde02b9619c10fc30f28064498877c2e", "fusion_lat": 0.0, "name": "cde02b9619c10fc30f28064498877c2e", "is_reserved": 0, "rental_uris": {"android": "https://dc.lft.to/lastmile_qr_scan", "ios": "https://dc.lft.to/lastmile_qr_scan"}, "fusion_lon": 0.0}, {"lat": 38.95086633333333, "is_disabled": 0, "type": "electric_scooter", "lon": -77.06657833333334, "bike_id": "2c190f8f7c7ed3c9d37e7e32cd34619e", "fusion_lat": 0.0, "name": "2c190f8f7c7ed3c9d37e7e32cd34619e", "is_reserved": 0, "rental_uris": {"android": "https://dc.lft.to/lastmile_qr_scan", "ios": "https://dc.lft.to/lastmile_qr_scan"}, "fusion_lon": 0.0}, {"lat": 38.90517083333334, "is_disabled": 0, "type": "electric_scooter", "lon": -77.06439366666666, "bike_id": "e156beaaaaf81835a19f72ae0f27f06e", "fusion_lat": 0.0, "name": "e156beaaaaf81835a19f72ae0f27f06e", "is_reserved": 0, "rental_uris": {"android": "https://dc.lft.to/lastmile_qr_scan", "ios": "https://dc.lft.to/lastmile_qr_scan"}, "fusion_lon": 0.0}, {"lat": 38.90571816666667, "is_disabled": 0, "type": "electric_scooter", "lon": -77.02213, "bike_id": "296badf3f7cef86e9d93cfb508ae792f", "fusion_lat": 0.0, "name": "296badf3f7cef86e9d93cfb508ae792f", "is_reserved": 0, "rental_uris": {"android": "https://dc.lft.to/lastmile_qr_scan", "ios": "https://dc.lft.to/lastmile_qr_scan"}, "fusion_lon": 0.0}, {"lat": 38.90138116666667, "is_disabled": 0, "type": "electric_scooter", "lon": -77.0181085, "bike_id": "a5252acac46ff5db1bd92c386988d069", "fusion_lat": 0.0, "name": "a5252acac46ff5db1bd92c386988d069", "is_reserved": 0, "rental_uris": {"android": "https://dc.lft.to/lastmile_qr_scan", "ios": "https://dc.lft.to/lastmile_qr_scan"}, "fusion_lon": 0.0}, {"lat": 38.876285, "is_disabled": 0, "type": "electric_scooter", "lon": -76.96524016666666, "bike_id": "1c236a76661b667b786464fa22b82e78", "fusion_lat": 0.0, "name": "1c236a76661b667b786464fa22b82e78", "is_reserved": 0, "rental_uris": {"android": "https://dc.lft.to/lastmile_qr_scan", "ios": "https://dc.lft.to/lastmile_qr_scan"}, "fusion_lon": 0.0}, {"lat": 38.95406933333334, "is_disabled": 0, "type": "electric_scooter", "lon": -77.02748416666667, "bike_id": "2c95da7920d3ac6c1219ea1d3fe9e637", "fusion_lat": 0.0, "name": "2c95da7920d3ac6c1219ea1d3fe9e637", "is_reserved": 0, "rental_uris": {"android": "https://dc.lft.to/lastmile_qr_scan", "ios": "https://dc.lft.to/lastmile_qr_scan"}, "fusion_lon": 0.0}, {"lat": 38.9055595, "is_disabled": 0, "type": "electric_scooter", "lon": -77.0569335, "bike_id": "933ff19fe97314f082cc40e98a1b0ce5", "fusion_lat": 0.0, "name": "933ff19fe97314f082cc40e98a1b0ce5", "is_reserved": 0, "rental_uris": {"android": "https://dc.lft.to/lastmile_qr_scan", "ios": "https://dc.lft.to/lastmile_qr_scan"}, "fusion_lon": 0.0}, {"lat": 38.903918833333336, "is_disabled": 0, "type": "electric_bike", "lon": -77.01617783333333, "bike_id": "ab46bb74b5c3e0be2716a5c2f6e7d290", "fusion_lat": 0.0, "name": "ab46bb74b5c3e0be2716a5c2f6e7d290", "is_reserved": 0, "rental_uris": {"android": "https://dc.lft.to/lastmile_qr_scan", "ios": "https://dc.lft.to/lastmile_qr_scan"}, "fusion_lon": 0.0}, {"lat": 38.802674833333334, "is_disabled": 0, "type": "electric_bike", "lon": -77.08111366666667, "bike_id": "923f28b119935bf55d409fb779133966", "fusion_lat": 0.0, "name": "923f28b119935bf55d409fb779133966", "is_reserved": 0, "rental_uris": {"android": "https://dc.lft.to/lastmile_qr_scan", "ios": "https://dc.lft.to/lastmile_qr_scan"}, "fusion_lon": 0.0}, {"lat": 38.9182165, "is_disabled": 0, "type": "electric_scooter", "lon": -77.02613766666667, "bike_id": "fe06a8e1b6a518e2b30966c5c08f9239", "fusion_lat": 0.0, "name": "fe06a8e1b6a518e2b30966c5c08f9239", "is_reserved": 0, "rental_uris": {"android": "https://dc.lft.to/lastmile_qr_scan", "ios": "https://dc.lft.to/lastmile_qr_scan"}, "fusion_lon": 0.0}, {"lat": 38.914143833333334, "is_disabled": 0, "type": "electric_scooter", "lon": -77.02231016666667, "bike_id": "c0d3aedcdfb746d30ec75d1ac47bc97a", "fusion_lat": 0.0, "name": "c0d3aedcdfb746d30ec75d1ac47bc97a", "is_reserved": 0, "rental_uris": {"android": "https://dc.lft.to/lastmile_qr_scan", "ios": "https://dc.lft.to/lastmile_qr_scan"}, "fusion_lon": 0.0}, {"lat": 38.93333633333334, "is_disabled": 0, "type": "electric_scooter", "lon": -77.02410583333334, "bike_id": "afc8fd53a79fbdbefa9e641f4afda53c", "fusion_lat": 0.0, "name": "afc8fd53a79fbdbefa9e641f4afda53c", "is_reserved": 0, "rental_uris": {"android": "https://dc.lft.to/lastmile_qr_scan", "ios": "https://dc.lft.to/lastmile_qr_scan"}, "fusion_lon": 0.0}, {"lat": 38.9170975, "is_disabled": 0, "type": "electric_scooter", "lon": -77.0307955, "bike_id": "4af414435881fa9ef797ece7b5462eef", "fusion_lat": 0.0, "name": "4af414435881fa9ef797ece7b5462eef", "is_reserved": 0, "rental_uris": {"android": "https://dc.lft.to/lastmile_qr_scan", "ios": "https://dc.lft.to/lastmile_qr_scan"}, "fusion_lon": 0.0}, {"lat": 38.909576666666666, "is_disabled": 0, "type": "electric_scooter", "lon": -77.0405075, "bike_id": "b2a87e3ceada37b4d0795426845b10ee", "fusion_lat": 0.0, "name": "b2a87e3ceada37b4d0795426845b10ee", "is_reserved": 0, "rental_uris": {"android": "https://dc.lft.to/lastmile_qr_scan", "ios": "https://dc.lft.to/lastmile_qr_scan"}, "fusion_lon": 0.0}, {"lat": 38.918281666666665, "is_disabled": 0, "type": "electric_scooter", "lon": -77.04527383333334, "bike_id": "a27f7f6f95f47b452400134291ca711d", "fusion_lat": 0.0, "name": "a27f7f6f95f47b452400134291ca711d", "is_reserved": 0, "rental_uris": {"android": "https://dc.lft.to/lastmile_qr_scan", "ios": "https://dc.lft.to/lastmile_qr_scan"}, "fusion_lon": 0.0}, {"lat": 38.93481283333333, "is_disabled": 0, "type": "electric_scooter", "lon": -77.05790233333333, "bike_id": "d5f6af2dd422f484a16709126d5a379b", "fusion_lat": 0.0, "name": "d5f6af2dd422f484a16709126d5a379b", "is_reserved": 0, "rental_uris": {"android": "https://dc.lft.to/lastmile_qr_scan", "ios": "https://dc.lft.to/lastmile_qr_scan"}, "fusion_lon": 0.0}, {"lat": 38.900337666666665, "is_disabled": 0, "type": "electric_scooter", "lon": -77.00213483333333, "bike_id": "f549f966d6311cdbe41d83c48b8fccf1", "fusion_lat": 0.0, "name": "f549f966d6311cdbe41d83c48b8fccf1", "is_reserved": 0, "rental_uris": {"android": "https://dc.lft.to/lastmile_qr_scan", "ios": "https://dc.lft.to/lastmile_qr_scan"}, "fusion_lon": 0.0}, {"lat": 38.8875275, "is_disabled": 0, "type": "electric_scooter", "lon": -77.0314885, "bike_id": "a345c3ff6c671e3f77585c069d37aa9c", "fusion_lat": 0.0, "name": "a345c3ff6c671e3f77585c069d37aa9c", "is_reserved": 0, "rental_uris": {"android": "https://dc.lft.to/lastmile_qr_scan", "ios": "https://dc.lft.to/lastmile_qr_scan"}, "fusion_lon": 0.0}, {"lat": 38.94201916666667, "is_disabled": 0, "type": "electric_bike", "lon": -77.01826933333334, "bike_id": "95812f8632d5c5817e7aa5f51b4878b8", "fusion_lat": 0.0, "name": "95812f8632d5c5817e7aa5f51b4878b8", "is_reserved": 0, "rental_uris": {"android": "https://dc.lft.to/lastmile_qr_scan", "ios": "https://dc.lft.to/lastmile_qr_scan"}, "fusion_lon": 0.0}, {"lat": 38.925426333333334, "is_disabled": 0, "type": "electric_scooter", "lon": -77.03454016666667, "bike_id": "f453e05b7bfe325a8abde1f25e7e36e7", "fusion_lat": 0.0, "name": "f453e05b7bfe325a8abde1f25e7e36e7", "is_reserved": 0, "rental_uris": {"android": "https://dc.lft.to/lastmile_qr_scan", "ios": "https://dc.lft.to/lastmile_qr_scan"}, "fusion_lon": 0.0}, {"lat": 38.924893833333336, "is_disabled": 0, "type": "electric_scooter", "lon": -77.031843, "bike_id": "bbf2f6172efb3c4b1c4516a37f5f223f", "fusion_lat": 0.0, "name": "bbf2f6172efb3c4b1c4516a37f5f223f", "is_reserved": 0, "rental_uris": {"android": "https://dc.lft.to/lastmile_qr_scan", "ios": "https://dc.lft.to/lastmile_qr_scan"}, "fusion_lon": 0.0}, {"lat": 38.966138666666666, "is_disabled": 0, "type": "electric_scooter", "lon": -77.02060083333333, "bike_id": "e3461eb5b16d4b7c759077011c2b9817", "fusion_lat": 0.0, "name": "e3461eb5b16d4b7c759077011c2b9817", "is_reserved": 0, "rental_uris": {"android": "https://dc.lft.to/lastmile_qr_scan", "ios": "https://dc.lft.to/lastmile_qr_scan"}, "fusion_lon": 0.0}, {"lat": 38.858073833333336, "is_disabled": 0, "type": "electric_scooter", "lon": -76.98652783333333, "bike_id": "39ae53a7bbc12af09b3dea81f3f303ab", "fusion_lat": 0.0, "name": "39ae53a7bbc12af09b3dea81f3f303ab", "is_reserved": 0, "rental_uris": {"android": "https://dc.lft.to/lastmile_qr_scan", "ios": "https://dc.lft.to/lastmile_qr_scan"}, "fusion_lon": 0.0}, {"lat": 39.0520005, "is_disabled": 0, "type": "electric_bike", "lon": -77.1092085, "bike_id": "790f4d3914b05f9ce322b5c0ff596c22", "fusion_lat": 0.0, "name": "790f4d3914b05f9ce322b5c0ff596c22", "is_reserved": 0, "rental_uris": {"android": "https://dc.lft.to/lastmile_qr_scan", "ios": "https://dc.lft.to/lastmile_qr_scan"}, "fusion_lon": 0.0}, {"lat": 38.915565666666666, "is_disabled": 0, "type": "electric_scooter", "lon": -77.03244383333333, "bike_id": "d2fae3e37a7dfe5dd710d1ff489c27ac", "fusion_lat": 0.0, "name": "d2fae3e37a7dfe5dd710d1ff489c27ac", "is_reserved": 0, "rental_uris": {"android": "https://dc.lft.to/lastmile_qr_scan", "ios": "https://dc.lft.to/lastmile_qr_scan"}, "fusion_lon": 0.0}, {"lat": 38.900787333333334, "is_disabled": 0, "type": "electric_scooter", "lon": -77.02591383333333, "bike_id": "e1a732b35ea43541a6552013a6e2258e", "fusion_lat": 0.0, "name": "e1a732b35ea43541a6552013a6e2258e", "is_reserved": 0, "rental_uris": {"android": "https://dc.lft.to/lastmile_qr_scan", "ios": "https://dc.lft.to/lastmile_qr_scan"}, "fusion_lon": 0.0}, {"lat": 38.917693, "is_disabled": 0, "type": "electric_scooter", "lon": -77.02307666666667, "bike_id": "b7c4a14004c27cc6a36899f48f5c7cda", "fusion_lat": 0.0, "name": "b7c4a14004c27cc6a36899f48f5c7cda", "is_reserved": 0, "rental_uris": {"android": "https://dc.lft.to/lastmile_qr_scan", "ios": "https://dc.lft.to/lastmile_qr_scan"}, "fusion_lon": 0.0}, {"lat": 38.91969233333333, "is_disabled": 0, "type": "electric_scooter", "lon": -77.013492, "bike_id": "3ceeb8852822c11666b3e68f14eef38f", "fusion_lat": 0.0, "name": "3ceeb8852822c11666b3e68f14eef38f", "is_reserved": 0, "rental_uris": {"android": "https://dc.lft.to/lastmile_qr_scan", "ios": "https://dc.lft.to/lastmile_qr_scan"}, "fusion_lon": 0.0}, {"lat": 38.917526, "is_disabled": 0, "type": "electric_scooter", "lon": -77.03660233333333, "bike_id": "2459b07a8bf62529d7df51766d4c7da0", "fusion_lat": 0.0, "name": "2459b07a8bf62529d7df51766d4c7da0", "is_reserved": 0, "rental_uris": {"android": "https://dc.lft.to/lastmile_qr_scan", "ios": "https://dc.lft.to/lastmile_qr_scan"}, "fusion_lon": 0.0},