{"data": {"bikes": [{"bike_id": "ea91b0911b4447ab71752ffc85edce1d", "name": "ea91b0911b4447ab71752ffc85edce1d", "lat": 38.900559, "fusion_lat": 0.0, "type": "electric_scooter", "lon": -77.0434615, "is_disabled": 0, "fusion_lon": 0.0, "rental_uris": {"android": "https://dc.lft.to/lastmile_qr_scan", "ios": "https://dc.lft.to/lastmile_qr_scan"}, "is_reserved": 0}, {"bike_id": "834d2e05bdc906fde09689482eac1b1f", "name": "834d2e05bdc906fde09689482eac1b1f", "lat": 38.919937166666664, "fusion_lat": 0.0, "type": "electric_scooter", "lon": -77.07143966666666, "is_disabled": 0, "fusion_lon": 0.0, "rental_uris": {"android": "https://dc.lft.to/lastmile_qr_scan", "ios": "https://dc.lft.to/lastmile_qr_scan"}, "is_reserved": 0}, {"bike_id": "fd8fc3a5da95cf17402d9b3582af5333", "name": "fd8fc3a5da95cf17402d9b3582af5333", "lat": 38.89942766666667, "fusion_lat": 0.0, "type": "electric_scooter", "lon": -76.97711983333333, "is_disabled": 0, "fusion_lon": 0.0, "rental_uris": {"android": "https://dc.lft.to/lastmile_qr_scan", "ios": "https://dc.lft.to/lastmile_qr_scan"}, "is_reserved": 0}, {"bike_id": "f813bd0ed48afa59ed6cae3e95e2cb9b", "name": "f813bd0ed48afa59ed6cae3e95e2cb9b", "lat": 38.91909883333334, "fusion_lat": 0.0, "type": "electric_scooter", "lon": -77.03338483333333, "is_disabled": 0, "fusion_lon": 0.0, "rental_uris": {"android": "https://dc.lft.to/lastmile_qr_scan", "ios": "https://dc.lft.to/lastmile_qr_scan"}, "is_reserved": 0}, {"bike_id": "56a88a96e846dd54dcce62e3aa2ec4cb", "name": "56a88a96e846dd54dcce62e3aa2ec4cb", "lat": 38.921058, "fusion_lat": 0.0, "type": "electric_scooter", "lon": -77.01775833333333, "is_disabled": 0, "fusion_lon": 0.0, "rental_uris": {"android": "https://dc.lft.to/lastmile_qr_scan", "ios": "https://dc.lft.to/lastmile_qr_scan"}, "is_reserved": 0}, {"bike_id": "df1bdfe249ad839d577e39e088df6ac8", "name": "df1bdfe249ad839d577e39e088df6ac8", "lat": 38.92035966666667, "fusion_lat": 0.0, "type": "electric_scooter", "lon": -77.03115466666667, "is_disabled": 0, "fusion_lon": 0.0, "rental_uris": {"android": "https://dc.lft.to/lastmile_qr_scan", "ios": "https://dc.lft.to/lastmile_qr_scan"}, "is_reserved": 0}, {"bike_id": "c28a3620395624c6b49d1dde83859094", "name": "c28a3620395624c6b49d1dde83859094", "lat": 38.91530783333333, "fusion_lat": 0.0, "type": "electric_scooter", "lon": -77.02178866666667, "is_disabled": 0, "fusion_lon": 0.0, "rental_uris": {"android": "https://dc.lft.to/lastmile_qr_scan", "ios": "https://dc.lft.to/lastmile_qr_scan"}, "is_reserved": 0}, {"bike_id": "85f483f05a4dc46be47cc5725c9b2b37", "name": "85f483f05a4dc46be47cc5725c9b2b37", "lat": 38.995186, "fusion_lat": 0.0, "type": "electric_bike", "lon": -77.03781333333333, "is_disabled": 0, "fusion_lon": 0.0, "rental_uris": {"android": "https://dc.lft.to/lastmile_qr_scan", "ios": "https://dc.lft.to/lastmile_qr_scan"}, "is_reserved": 0}, {"bike_id": "f82480b407c5fe2c198a7ef5c07eb0b1", "name": "f82480b407c5fe2c198a7ef5c07eb0b1", "lat": 38.863753833333334, "fusion_lat": 0.0, "type": "electric_scooter", "lon": -76.99062366666666, "is_disabled": 0, "fusion_lon": 0.0, "rental_uris": {"android": "https://dc.lft.to/lastmile_qr_scan", "ios": "https://dc.lft.to/lastmile_qr_scan"}, "is_reserved": 0}, {"bike_id": "753f332bdfdfa0b6bb4b6aca532ad61e", "name": "753f332bdfdfa0b6bb4b6aca532ad61e", "lat": 38.9024315, "fusion_lat": 0.0, "type": "electric_scooter", "lon": -76.980851, "is_disabled": 0, "fusion_lon": 0.0, "rental_uris": {"android": "https://dc.lft.to/lastmile_qr_scan", "ios": "https://dc.lft.to/lastmile_qr_scan"}, "is_reserved": 0}, {"bike_id": "4ece02ae76a9605497743b1424cfc8b9", "name": "4ece02ae76a9605497743b1424cfc8b9", "lat": 38.885104166666665, "fusion_lat": 0.0, "type": "electric_scooter", "lon": -77.01119016666667, "is_disabled": 0, "fusion_lon": 0.0, "rental_uris": {"android": "https://dc.lft.to/lastmile_qr_scan", "ios": "https://dc.lft.to/lastmile_qr_scan"}, "is_reserved": 0}, {"bike_id": "5be33da27faefd35bbdebd77a219f2f4", "name": "5be33da27faefd35bbdebd77a219f2f4", "lat": 38.898485666666666, "fusion_lat": 0.0, "type": "electric_scooter", "lon": -77.02955316666667, "is_disabled": 0, "fusion_lon": 0.0, "rental_uris": {"android": "https://dc.lft.to/lastmile_qr_scan", "ios": "https://dc.lft.to/lastmile_qr_scan"}, "is_reserved": 0}, {"bike_id": "392a2c39a21e4475a20b03dbc72e6f08", "name": "392a2c39a21e4475a20b03dbc72e6f08", "lat": 38.901183833333334, "fusion_lat": 0.0, "type": "electric_scooter", "lon": -77.03181683333334, "is_disabled": 0, "fusion_lon": 0.0, "rental_uris": {"android": "https://dc.lft.to/lastmile_qr_scan", "ios": "https://dc.lft.to/lastmile_qr_scan"}, "is_reserved": 0}, {"bike_id": "76352f39159d4f96f9ee338353b454c5", "name": "76352f39159d4f96f9ee338353b454c5", "lat": 38.914458, "fusion_lat": 0.0, "type": "electric_scooter", "lon": -77.0320345, "is_disabled": 0, "fusion_lon": 0.0, "rental_uris": {"android": "https://dc.lft.to/lastmile_qr_scan", "ios": "https://dc.lft.to/lastmile_qr_scan"}, "is_reserved": 0}, {"bike_id": "2740c0385c1ae771f4c6472af18ffb36", "name": "2740c0385c1ae771f4c6472af18ffb36", "lat": 38.946638666666665, "fusion_lat": 0.0, "type": "electric_bike", "lon": -76.99339516666667, "is_disabled": 0, "fusion_lon": 0.0, "rental_uris": {"android": "https://dc.lft.to/lastmile_qr_scan", "ios": "https://dc.lft.to/lastmile_qr_scan"}, "is_reserved": 0}, {"bike_id": "6c0a7a4f1335a42a971da51e2ce49630", "name": "6c0a7a4f1335a42a971da51e2ce49630", "lat": 38.917968333333334, "fusion_lat": 0.0, "type": "electric_scooter", "lon": -77.03443183333333, "is_disabled": 0, "fusion_lon": 0.0, "rental_uris": {"android": "https://dc.lft.to/lastmile_qr_scan", "ios": "https://dc.lft.to/lastmile_qr_scan"}, "is_reserved": 0}, {"bike_id": "f2b24c21c5f1374357d065ef088e9279", "name": "f2b24c21c5f1374357d065ef088e9279", "lat": 38.902659666666665, "fusion_lat": 0.0, "type": "electric_scooter", "lon": -77.0174185, "is_disabled": 0, "fusion_lon": 0.0, "rental_uris": {"android": "https://dc.lft.to/lastmile_qr_scan", "ios": "https://dc.lft.to/lastmile_qr_scan"}, "is_reserved": 0}, {"bike_id": "f8df4c64dee052a683f57ae067dad9fc", "name": "f8df4c64dee052a683f57ae067dad9fc", "lat": 38.908421, "fusion_lat": 0.0, "type": "electric_scooter", "lon": -77.0238365, "is_disabled": 0, "fusion_lon": 0.0, "rental_uris": {"android": "https://dc.lft.to/lastmile_qr_scan", "ios": "https://dc.lft.to/lastmile_qr_scan"}, "is_reserved": 0}, {"bike_id": "ca04351b8eb1fe8398c4e647d6245533", "name": "ca04351b8eb1fe8398c4e647d6245533", "lat": 38.920238, "fusion_lat": 0.0, "type": "electric_scooter", "lon": -77.03160466666667, "is_disabled": 0, "fusion_lon": 0.0, "rental_uris": {"android": "https://dc.lft.to/lastmile_qr_scan", "ios": "https://dc.lft.to/lastmile_qr_scan"}, "is_reserved": 0}, {"bike_id": "50ddc1a6e2fa56f95881fdc84b63cbe9", "name": "50ddc1a6e2fa56f95881fdc84b63cbe9", "lat": 38.9051815, "fusion_lat": 0.0, "type": "electric_scooter", "lon": -77.018952, "is_disabled": 0, "fusion_lon": 0.0, "rental_uris": {"android": "https://dc.lft.to/lastmile_qr_scan", "ios": "https://dc.lft.to/lastmile_qr_scan"}, "is_reserved": 0}, {"bike_id": "a574b743dbbfedd7b91af78264a93008", "name": "a574b743dbbfedd7b91af78264a93008", "lat": 38.912728666666666, "fusion_lat": 0.0, "type": "electric_scooter", "lon": -77.02390133333333, "is_disabled": 0, "fusion_lon": 0.0, "rental_uris": {"android": "https://dc.lft.to/lastmile_qr_scan", "ios": "https://dc.lft.to/lastmile_qr_scan"}, "is_reserved": 0}, {"bike_id": "21fef7e665736233760a69c6cbfd1373", "name": "21fef7e665736233760a69c6cbfd1373", "lat": 38.89678083333333, "fusion_lat": 0.0, "type": "electric_scooter", "lon": -77.005145, "is_disabled": 0, "fusion_lon": 0.0, "rental_uris": {"android": "https://dc.lft.to/lastmile_qr_scan", "ios": "https://dc.lft.to/lastmile_qr_scan"}, "is_reserved": 0}, {"bike_id": "dc5c1e45e9a1381a739cb1fd57ebaf23", "name": "dc5c1e45e9a1381a739cb1fd57ebaf23", "lat": 38.8860635, "fusion_lat": 0.0, "type": "electric_bike", "lon": -77.1423355, "is_disabled": 0, "fusion_lon": 0.0, "rental_uris": {"android": "https://dc.lft.to/lastmile_qr_scan", "ios": "https://dc.lft.to/lastmile_qr_scan"}, "is_reserved": 0}, {"bike_id": "eeafb9ea6069e3a8a069b737ba4482c7", "name": "eeafb9ea6069e3a8a069b737ba4482c7", "lat": 38.9119075, "fusion_lat": 0.0, "type": "electric_scooter", "lon": -77.03851866666666, "is_disabled": 0, "fusion_lon": 0.0, "rental_uris": {"android": "https://dc.lft.to/lastmile_qr_scan", "ios": "https://dc.lft.to/lastmile_qr_scan"}, "is_reserved": 0}, {"bike_id": "80e5010c5908dbc9e2acf493abbccb15", "name": "80e5010c5908dbc9e2acf493abbccb15", "lat": 38.9147715, "fusion_lat": 0.0, "type": "electric_scooter", "lon": -77.00218466666666, "is_disabled": 0, "fusion_lon": 0.0, "rental_uris": {"android": "https://dc.lft.to/lastmile_qr_scan", "ios": "https://dc.lft.to/lastmile_qr_scan"}, "is_reserved": 0}, {"bike_id": "79d022a726e284cdac54512970c9729d", "name": "79d022a726e284cdac54512970c9729d", "lat": 38.92066366666667, "fusion_lat": 0.0, "type": "electric_scooter", "lon": -77.02386116666666, "is_disabled": 0, "fusion_lon": 0.0, "rental_uris": {"android": "https://dc.lft.to/lastmile_qr_scan", "ios": "https://dc.lft.to/lastmile_qr_scan"}, "is_reserved": 0}, {"bike_id": "20e6c20d99b1659de8734e2b53049145", "name": "20e6c20d99b1659de8734e2b53049145", "lat": 38.9993235, "fusion_lat": 0.0, "type": "electric_bike", "lon": -77.05136083333333, "is_disabled": 0, "fusion_lon": 0.0, "rental_uris": {"android": "https://dc.lft.to/lastmile_qr_scan", "ios": "https://dc.lft.to/lastmile_qr_scan"}, "is_reserved": 0}, {"bike_id": "7178c58fb29c8bddda8857a9a981ea9a", "name": "7178c58fb29c8bddda8857a9a981ea9a", "lat": 38.92374916666667, "fusion_lat": 0.0, "type": "electric_scooter", "lon": -77.05184066666666, "is_disabled": 0, "fusion_lon": 0.0, "rental_uris": {"android": "https://dc.lft.to/lastmile_qr_scan", "ios": "https://dc.lft.to/lastmile_qr_scan"}, "is_reserved": 0}, {"bike_id": "072755c40a25be0648a9640a36ca3cb6", "name": "072755c40a25be0648a9640a36ca3cb6", "lat": 38.8935745, "fusion_lat": 0.0, "type": "electric_scooter", "lon": -77.00331916666667, "is_disabled": 0, "fusion_lon": 0.0, "rental_uris": {"android": "https://dc.lft.to/lastmile_qr_scan", "ios": "https://dc.lft.to/lastmile_qr_scan"}, "is_reserved": 0}, {"bike_id": "c894144adfa0bc0c05fb41e89899dbf5", "name": "c894144adfa0bc0c05fb41e89899dbf5", "lat": 38.91784066666666, "fusion_lat": 0.0, "type": "electric_scooter", "lon": -77.03211383333333, "is_disabled": 0, "fusion_lon": 0.0, "rental_uris": {"android": "https://dc.lft.to/lastmile_qr_scan", "ios": "https://dc.lft.to/lastmile_qr_scan"}, "is_reserved": 0}, {"bike_id": "ba0f05a45825479aeb352920386ea3d4", "name": "ba0f05a45825479aeb352920386ea3d4", "lat": 38.963972, "fusion_lat": 0.0, "type": "electric_scooter", "lon": -77.02767366666667, "is_disabled": 0, "fusion_lon": 0.0, "rental_uris": {"android": "https://dc.lft.to/lastmile_qr_scan", "ios": "https://dc.lft.to/lastmile_qr_scan"}, "is_reserved": 0}, {"bike_id": "e4c45b439ff329a89810a25c50974a44", "name": "e4c45b439ff329a89810a25c50974a44", "lat": 38.923399333333336, "fusion_lat": 0.0, "type": "electric_scooter", "lon": -77.01897283333334, "is_disabled": 0, "fusion_lon": 0.0, "rental_uris": {"android": "https://dc.lft.to/lastmile_qr_scan", "ios": "https://dc.lft.to/lastmile_qr_scan"}, "is_reserved": 0}, {"bike_id": "276b92b417f3bc59bee51ee56439db09", "name": "276b92b417f3bc59bee51ee56439db09", "lat": 38.88887416666667, "fusion_lat": 0.0, "type": "electric_scooter", "lon": -76.91924183333333, "is_disabled": 0, "fusion_lon": 0.0, "rental_uris": {"android": "https://dc.lft.to/lastmile_qr_scan", "ios": "https://dc.lft.to/lastmile_qr_scan"}, "is_reserved": 0}, {"bike_id": "f2a4316fd39e92400439bdf0de12ce22", "name": "f2a4316fd39e92400439bdf0de12ce22", "lat": 38.9066785, "fusion_lat": 0.0, "type": "electric_scooter", "lon": -77.05017083333334, "is_disabled": 0, "fusion_lon": 0.0, "rental_uris": {"android": "https://dc.lft.to/lastmile_qr_scan", "ios": "https://dc.lft.to/lastmile_qr_scan"}, "is_reserved": 0}, {"bike_id": "21a18472f7bcada4d02e7b4779c28590", "name": "21a18472f7bcada4d02e7b4779c28590", "lat": 38.89195516666667, "fusion_lat": 0.0, "type": "electric_scooter", "lon": -77.04825, "is_disabled": 0, "fusion_lon": 0.0, "rental_uris": {"android": "https://dc.lft.to/lastmile_qr_scan", "ios": "https://dc.lft.to/lastmile_qr_scan"}, "is_reserved": 0}, {"bike_id": "10bb971e185837051ff5060b4e540212", "name": "10bb971e185837051ff5060b4e540212", "lat": 38.9118815, "fusion_lat": 0.0, "type": "electric_scooter", "lon": -77.03832416666667, "is_disabled": 0, "fusion_lon": 0.0, "rental_uris": {"android": "https://dc.lft.to/lastmile_qr_scan", "ios": "https://dc.lft.to/lastmile_qr_scan"}, "is_reserved": 0}, {"bike_id": "6b1575f3895d129aca071a51df4588e5", "name": "6b1575f3895d129aca071a51df4588e5", "lat": 38.922326, "fusion_lat": 0.0, "type": "electric_scooter", "lon": -76.97533133333333, "is_disabled": 0, "fusion_lon": 0.0, "rental_uris": {"android": "https://dc.lft.to/lastmile_qr_scan", "ios": "https://dc.lft.to/lastmile_qr_scan"}, "is_reserved": 0}, {"bike_id": "84c4564e3d70fa0bc9f020b6ac0fb455", "name": "84c4564e3d70fa0bc9f020b6ac0fb455", "lat": 38.879574833333336, "fusion_lat": 0.0, "type": "electric_scooter", "lon": -77.00067766666666, "is_disabled": 0, "fusion_lon": 0.0, "rental_uris": {"android": "https://dc.lft.to/lastmile_qr_scan", "ios": "https://dc.lft.to/lastmile_qr_scan"}, "is_reserved": 0}, {"bike_id": "318427ba0a3119040310bcf693457b79", "name": "318427ba0a3119040310bcf693457b79", "lat": 38.9646165, "fusion_lat": 0.0, "type": "electric_bike", "lon": -77.10655083333333, "is_disabled": 0, "fusion_lon": 0.0, "rental_uris": {"android": "https://dc.lft.to/lastmile_qr_scan", "ios": "https://dc.lft.to/lastmile_qr_scan"}, "is_reserved": 0}, {"bike_id": "fd134fbe85393adcce8cd111ec6bbf29", "name": "fd134fbe85393adcce8cd111ec6bbf29", "lat": 38.928528666666665, "fusion_lat": 0.0, "type": "electric_scooter", "lon": -77.01414266666667, "is_disabled": 0, "fusion_lon": 0.0, "rental_uris": {"android": "https://dc.lft.to/lastmile_qr_scan", "ios": "https://dc.lft.to/lastmile_qr_scan"}, "is_reserved": 0}, {"bike_id": "6ae66dfadb1712dce44c30da51eafb91", "name": "6ae66dfadb1712dce44c30da51eafb91", "lat": 38.899929666666665, "fusion_lat": 0.0, "type": "electric_scooter", "lon": -76.9855275, "is_disabled": 0, "fusion_lon": 0.0, "rental_uris": {"android": "https://dc.lft.to/lastmile_qr_scan", "ios": "https://dc.lft.to/lastmile_qr_scan"}, "is_reserved": 0}, {"bike_id": "ae20c26b0e3fb96f557a85f38058a3b5", "name": "ae20c26b0e3fb96f557a85f38058a3b5", "lat": 38.922359, "fusion_lat": 0.0, "type": "electric_scooter", "lon": -77.03658866666666, "is_disabled": 0, "fusion_lon": 0.0, "rental_uris": {"android": "https://dc.lft.to/lastmile_qr_scan", "ios": "https://dc.lft.to/lastmile_qr_scan"}, "is_reserved": 0}, {"bike_id": "46f913325171428769b5178139094aca", "name": "46f913325171428769b5178139094aca", "lat": 38.9050395, "fusion_lat": 0.0, "type": "electric_scooter", "lon": -77.0364455, "is_disabled": 0, "fusion_lon": 0.0, "rental_uris": {"android": "https://dc.lft.to/lastmile_qr_scan", "ios": "https://dc.lft.to/lastmile_qr_scan"}, "is_reserved": 0}, {"bike_id": "b47b9821e7d6728b8af312539428ac10", "name": "b47b9821e7d6728b8af312539428ac10", "lat": 38.803814, "fusion_lat": 0.0, "type": "electric_bike", "lon": -76.98816066666667, "is_disabled": 0, "fusion_lon": 0.0, "rental_uris": {"android": "https://dc.lft.to/lastmile_qr_scan", "ios": "https://dc.lft.to/lastmile_qr_scan"}, "is_reserved": 0}, {"bike_id": "90af1cb81aed222d83e16ff5a51541e7", "name": "90af1cb81aed222d83e16ff5a51541e7", "lat": 38.88934, "fusion_lat": 0.0, "type": "electric_scooter", "lon": -76.99364666666666, "is_disabled": 0, "fusion_lon": 0.0, "rental_uris": {"android": "https://dc.lft.to/lastmile_qr_scan", "ios": "https://dc.lft.to/lastmile_qr_scan"}, "is_reserved": 0}, {"bike_id": "7a649c3b9e05f357121e415ace28e2d5", "name": "7a649c3b9e05f357121e415ace28e2d5", "lat": 38.89502616666667, "fusion_lat": 0.0, "type": "electric_scooter", "lon": -76.9348015, "is_disabled": 0, "fusion_lon": 0.0, "rental_uris": {"android": "https://dc.lft.to/lastmile_qr_scan", "ios": "https://dc.lft.to/lastmile_qr_scan"}, "is_reserved": 0}, {"bike_id": "271fc77567c62d051f95b9145ac30408", "name": "271fc77567c62d051f95b9145ac30408", "lat": 38.913201, "fusion_lat": 0.0, "type": "electric_scooter", "lon": -77.01659733333334, "is_disabled": 0, "fusion_lon": 0.0, "rental_uris": {"android": "https://dc.lft.to/lastmile_qr_scan", "ios": "https://dc.lft.to/lastmile_qr_scan"}, "is_reserved": 0}, {"bike_id": "1060ff71b22d2228ff4f4cc27831b5aa", "name": "1060ff71b22d2228ff4f4cc27831b5aa", "lat": 38.89365016666667, "fusion_lat": 0.0, "type": "electric_scooter", "lon": -76.9359835, "is_disabled": 0, "fusion_lon": 0.0, "rental_uris": {"android": "https://dc.lft.to/lastmile_qr_scan", "ios": "https://dc.lft.to/lastmile_qr_scan"}, "is_reserved": 0}, {"bike_id": "bb1aae755d8396b9aa4544f1c9e0d5df", "name": "bb1aae755d8396b9aa4544f1c9e0d5df", "lat": 38.895336, "fusion_lat": 0.0, "type": "electric_scooter", "lon": -76.94893016666667, "is_disabled": 0, "fusion_lon": 0.0, "rental_uris": {"android": "https://dc.lft.to/lastmile_qr_scan", "ios": "https://dc.lft.to/lastmile_qr_scan"}, "is_reserved": 0}, {"bike_id": "653fca10c670183aa45d3128b7c20a36", "name": "653fca10c670183aa45d3128b7c20a36", "lat": 38.866611166666665, "fusion_lat": 0.0, "type": "electric_scooter", "lon": -76.979125, "is_disabled": 0, "fusion_lon": 0.0, "rental_uris": {"android": "https://dc.lft.to/lastmile_qr_scan", "ios": "https://dc.lft.to/lastmile_qr_scan"}, "is_reserved": 0}, {"bike_id": "77cf39f4d2cb1f6fba45a2ba766fb0c9", "name": "77cf39f4d2cb1f6fba45a2ba766fb0c9", "lat": 38.900561833333335, "fusion_lat": 0.0, "type": "electric_scooter", "lon": -77.05141316666666, "is_disabled": 0, "fusion_lon": 0.0, "rental_uris": {"android": "https://dc.lft.to/lastmile_qr_scan", "ios": "https://dc.lft.to/lastmile_qr_scan"}, "is_reserved": 0}, {"bike_id": "a5a48924888239004ca57b313505d9b4", "name": "a5a48924888239004ca57b313505d9b4", "lat": 38.9193415, "fusion_lat": 0.0, "type": "electric_scooter", "lon": -77.048937, "is_disabled": 0, "fusion_lon": 0.0, "rental_uris": {"android": "https://dc.lft.to/lastmile_qr_scan", "ios": "https://dc.lft.to/lastmile_qr_scan"}, "is_reserved": 0}, {"bike_id": "dedab80c2621151e4b7eb727f5bc25d3", "name": "dedab80c2621151e4b7eb727f5bc25d3", "lat": 38.91605783333333, "fusion_lat": 0.0, "type": "electric_scooter", "lon": -77.02293483333334, "is_disabled": 0, "fusion_lon": 0.0, "rental_uris": {"android": "https://dc.lft.to/lastmile_qr_scan", "ios": "https://dc.lft.to/lastmile_qr_scan"}, "is_reserved": 0}, {"bike_id": "0f548f4b1c8bd1bca1d28fd12f0cfe17", "name": "0f548f4b1c8bd1bca1d28fd12f0cfe17", "lat": 38.920295, "fusion_lat": 0.0, "type": "electric_scooter", "lon": -77.03075333333334, "is_disabled": 0, "fusion_lon": 0.0, "rental_uris": {"android": "https://dc.lft.to/lastmile_qr_scan", "ios": "https://dc.lft.to/lastmile_qr_scan"}, "is_reserved": 0}, {"bike_id": "ad93edd7384d918ef27111cd80cf4a86", "name": "ad93edd7384d918ef27111cd80cf4a86", "lat": 38.93561783333333, "fusion_lat": 0.0, "type": "electric_scooter", "lon": -77.032591, "is_disabled": 0, "fusion_lon": 0.0, "rental_uris": {"android": "https://dc.lft.to/lastmile_qr_scan", "ios": "https://dc.lft.to/lastmile_qr_scan"}, "is_reserved": 0}, {"bike_id": "698633a4cdd2da27e118a1fbe082eef6", "name": "698633a4cdd2da27e118a1fbe082eef6", "lat": 38.852235666666665, "fusion_lat": 0.0, "type": "electric_scooter", "lon": -76.99427216666666, "is_disabled": 0, "fusion_lon": 0.0, "rental_uris": {"android": "https://dc.lft.to/lastmile_qr_scan", "ios": "https://dc.lft.to/lastmile_qr_scan"}, "is_reserved": 0}, {"bike_id": "a7d82d75f94be9e884303a6188cf2ebe", "name": "a7d82d75f94be9e884303a6188cf2ebe", "lat": 38.93613, "fusion_lat": 0.0, "type": "electric_scooter", "lon": -77.03215633333333, "is_disabled": 0, "fusion_lon": 0.0, "rental_uris": {"android": "https://dc.lft.to/lastmile_qr_scan", "ios": "https://dc.lft.to/lastmile_qr_scan"}, "is_reserved": 0}, {"bike_id": "c0d0682b7eaf73892319fe6871cacd26", "name": "c0d0682b7eaf73892319fe6871cacd26", "lat": 38.924025666666665, "fusion_lat": 0.0, "type": "electric_scooter", "lon": -77.01957483333334, "is_disabled": 0, "fusion_lon": 0.0, "rental_uris": {"android": "https://dc.lft.to/lastmile_qr_scan", "ios": "https://dc.lft.to/lastmile_qr_scan"}, "is_reserved": 0}, {"bike_id": "37a7b38faad4a1f95fe818200c4c62ef", "name": "37a7b38faad4a1f95fe818200c4c62ef", "lat": 38.913024666666665, "fusion_lat": 0.0, "type": "electric_scooter", "lon": -77.036409, "is_disabled": 0, "fusion_lon": 0.0, "rental_uris": {"android": "https://dc.lft.to/lastmile_qr_scan", "ios": "https://dc.lft.to/lastmile_qr_scan"}, "is_reserved": 0}, {"bike_id": "f663a334b620e76a6f6f8d7101c4a814", "name": "f663a334b620e76a6f6f8d7101c4a814", "lat": 38.91852033333333, "fusion_lat": 0.0, "type": "electric_scooter", "lon": -77.0319565, "is_disabled": 0, "fusion_lon": 0.0, "rental_uris": {"android": "https://dc.lft.to/lastmile_qr_scan", "ios": "https://dc.lft.to/lastmile_qr_scan"}, "is_reserved": 0}, {"bike_id": "1f0712856cdc58193e38a03a3ce9ebb5", "name": "1f0712856cdc58193e38a03a3ce9ebb5", "lat": 38.88437716666667, "fusion_lat": 0.0, "type": "electric_scooter", "lon": -77.003468, "is_disabled": 0, "fusion_lon": 0.0, "rental_uris": {"android": "https://dc.lft.to/lastmile_qr_scan", "ios": "https://dc.lft.to/lastmile_qr_scan"}, "is_reserved": 0}, {"bike_id": "a3146064c6ec83a955a589d5b4df8906", "name": "a3146064c6ec83a955a589d5b4df8906", "lat": 38.9842965, "fusion_lat": 0.0, "type": "electric_scooter", "lon": -77.0267005, "is_disabled": 0, "fusion_lon": 0.0, "rental_uris": {"android": "https://dc.lft.to/lastmile_qr_scan", "ios": "https://dc.lft.to/lastmile_qr_scan"}, "is_reserved": 0}, {"bike_id": "cf2af4e8335bfbc904f6103aaf7b0a35", "name": "cf2af4e8335bfbc904f6103aaf7b0a35", "lat": 38.914233833333334, "fusion_lat": 0.0, "type": "electric_bike", "lon": -77.03466516666667, "is_disabled": 0, "fusion_lon": 0.0, "rental_uris": {"android": "https://dc.lft.to/lastmile_qr_scan", "ios": "https://dc.lft.to/lastmile_qr_scan"}, "is_reserved": 0}, {"bike_id": "2714aec755bc5d14224a1675a4c1e118", "name": "2714aec755bc5d14224a1675a4c1e118", "lat": 38.888801, "fusion_lat": 0.0, "type": "electric_scooter", "lon": -76.99034916666666, "is_disabled": 0, "fusion_lon": 0.0, "rental_uris": {"android": "https://dc.lft.to/lastmile_qr_scan", "ios": "https://dc.lft.to/lastmile_qr_scan"}, "is_reserved": 0}, {"bike_id": "8711fce594a8a3457040ebeee7a89bf2", "name": "8711fce594a8a3457040ebeee7a89bf2", "lat": 38.915795333333335, "fusion_lat": 0.0, "type": "electric_scooter", "lon": -77.01246716666667, "is_disabled": 0, "fusion_lon": 0.0, "rental_uris": {"android": "https://dc.lft.to/lastmile_qr_scan", "ios": "https://dc.lft.to/lastmile_qr_scan"}, "is_reserved": 0}, {"bike_id": "1cd8e18eafcf2e9eddf2eb0aff5f1497", "name": "1cd8e18eafcf2e9eddf2eb0aff5f1497", "lat": 38.907686, "fusion_lat": 0.0, "type": "electric_scooter", "lon": -77.04345266666667, "is_disabled": 0, "fusion_lon": 0.0, "rental_uris": {"android": "https://dc.lft.to/lastmile_qr_scan", "ios": "https://dc.lft.to/lastmile_qr_scan"}, "is_reserved": 0}, {"bike_id": "a93ae3c978d9a7b0af6f7b5eb6173bf5", "name": "a93ae3c978d9a7b0af6f7b5eb6173bf5", "lat": 38.91394283333333, "fusion_lat": 0.0, "type": "electric_scooter", "lon": -76.98415483333333, "is_disabled": 0, "fusion_lon": 0.0, "rental_uris": {"android": "https://dc.lft.to/lastmile_qr_scan", "ios": "https://dc.lft.to/lastmile_qr_scan"}, "is_reserved": 0}, {"bike_id": "66e8f12df87e2ed0862c8d3e66b3107f", "name": "66e8f12df87e2ed0862c8d3e66b3107f", "lat": 38.905526333333334, "fusion_lat": 0.0, "type": "electric_scooter", "lon": -77.03634866666667, "is_disabled": 0, "fusion_lon": 0.0, "rental_uris": {"android": "https://dc.lft.to/lastmile_qr_scan", "ios": "https://dc.lft.to/lastmile_qr_scan"}, "is_reserved": 0}, {"bike_id": "8c34cd3f8b74b247ca1443ad055d1173", "name": "8c34cd3f8b74b247ca1443ad055d1173", "lat": 38.905996, "fusion_lat": 0.0, "type": "electric_scooter", "lon": -77.0411405, "is_disabled": 0, "fusion_lon": 0.0, "rental_uris": {"android": "https://dc.lft.to/lastmile_qr_scan", "ios": "https://dc.lft.to/lastmile_qr_scan"}, "is_reserved": 0}, {"bike_id": "184cf53302a2ee32ac08c85ea471a6b3", "name": "184cf53302a2ee32ac08c85ea471a6b3", "lat": 38.8972795, "fusion_lat": 0.0, "type": "electric_scooter", "lon": -77.00962066666666, "is_disabled": 0, "fusion_lon": 0.0, "rental_uris": {"android": "https://dc.lft.to/lastmile_qr_scan", "ios": "https://dc.lft.to/lastmile_qr_scan"}, "is_reserved": 0}, {"bike_id": "831896cb0082ff3a795748e4095b0779", "name": "831896cb0082ff3a795748e4095b0779", "lat": 38.886043, "fusion_lat": 0.0, "type": "electric_scooter", "lon": -77.0451415, "is_disabled": 0, "fusion_lon": 0.0, "rental_uris": {"android": "https://dc.lft.to/lastmile_qr_scan", "ios": "https://dc.lft.to/lastmile_qr_scan"}, "is_reserved": 0}, {"bike_id": "1a45e6da6f13a06bc73d6ef375fd55c8", "name": "1a45e6da6f13a06bc73d6ef375fd55c8", "lat": 38.90225, "fusion_lat": 0.0, "type": "electric_scooter", "lon": -77.02366466666666, "is_disabled": 0, "fusion_lon": 0.0, "rental_uris": {"android": "https://dc.lft.to/lastmile_qr_scan", "ios": "https://dc.lft.to/lastmile_qr_scan"}, "is_reserved": 0}, {"bike_id": "7067abd4197ec2183b6e1c183de0b676", "name": "7067abd4197ec2183b6e1c183de0b676", "lat": 38.95747016666667, "fusion_lat": 0.0, "type": "electric_scooter", "lon": -77.02105116666667, "is_disabled": 0, "fusion_lon": 0.0, "rental_uris": {"android": "https://dc.lft.to/lastmile_qr_scan", "ios": "https://dc.lft.to/lastmile_qr_scan"}, "is_reserved": 0}, {"bike_id": "690b080192c82db7a09ce56518e971d9", "name": "690b080192c82db7a09ce56518e971d9", "lat": 38.907873333333335, "fusion_lat": 0.0, "type": "electric_scooter", "lon": -77.010856, "is_disabled": 0, "fusion_lon": 0.0, "rental_uris": {"android": "https://dc.lft.to/lastmile_qr_scan", "ios": "https://dc.lft.to/lastmile_qr_scan"}, "is_reserved": 0}, {"bike_id": "5a021bf30c885292890331ce5ef47f73", "name": "5a021bf30c885292890331ce5ef47f73", "lat": 38.89682033333333, "fusion_lat": 0.0, "type": "electric_scooter", "lon": -77.004947, "is_disabled": 0, "fusion_lon": 0.0, "rental_uris": {"android": "https://dc.lft.to/lastmile_qr_scan", "ios": "https://dc.lft.to/lastmile_qr_scan"}, "is_reserved": 0}, {"bike_id": "23954189de3571312e42d08c8fe8da63", "name": "23954189de3571312e42d08c8fe8da63", "lat": 38.92721783333333, "fusion_lat": 0.0, "type": "electric_scooter", "lon": -77.03552066666667, "is_disabled": 0, "fusion_lon": 0.0, "rental_uris": {"android": "https://dc.lft.to/lastmile_qr_scan", "ios": "https://dc.lft.to/lastmile_qr_scan"}, "is_reserved": 0}, {"bike_id": "24e95f9660a21e659823ad4174ccbe04", "name": "24e95f9660a21e659823ad4174ccbe04", "lat": 38.97000933333333, "fusion_lat": 0.0, "type": "electric_scooter", "lon": -77.00909216666666, "is_disabled": 0, "fusion_lon": 0.0, "rental_uris": {"android": "https://dc.lft.to/lastmile_qr_scan", "ios": "https://dc.lft.to/lastmile_qr_scan"}, "is_reserved": 0}, {"bike_id": "d4a5c118676958a29e92987bc024443b", "name": "d4a5c118676958a29e92987bc024443b", "lat": 38.89595816666667, "fusion_lat": 0.0, "type": "electric_scooter", "lon": -76.929915, "is_disabled": 0, "fusion_lon": 0.0, "rental_uris": {"android": "https://dc.lft.to/lastmile_qr_scan", "ios": "https://dc.lft.to/lastmile_qr_scan"}, "is_reserved": 0}, {"bike_id": "b0efbf6c048b479c99d045093a64c6f6", "name": "b0efbf6c048b479c99d045093a64c6f6", "lat": 38.90211, "fusion_lat": 0.0, "type": "electric_scooter", "lon": -77.02370433333333, "is_disabled": 0, "fusion_lon": 0.0, "rental_uris": {"android": "https://dc.lft.to/lastmile_qr_scan", "ios": "https://dc.lft.to/lastmile_qr_scan"}, "is_reserved": 0}, {"bike_id": "e26ae3c0115a1ffa36e269f31bfa7c1b", "name": "e26ae3c0115a1ffa36e269f31bfa7c1b", "lat": 38.8969535, "fusion_lat": 0.0, "type": "electric_scooter", "lon": -77.0277555, "is_disabled": 0, "fusion_lon": 0.0, "rental_uris": {"android": "https://dc.lft.to/lastmile_qr_scan", "ios": "https://dc.lft.to/lastmile_qr_scan"}, "is_reserved": 0}, {"bike_id": "070c3f9e35d0d21c406db35956630ec0", "name": "070c3f9e35d0d21c406db35956630ec0", "lat": 38.86205733333333, "fusion_lat": 0.0, "type": "electric_bike", "lon": -76.9953735, "is_disabled": 0, "fusion_lon": 0.0, "rental_uris": {"android": "https://dc.lft.to/lastmile_qr_scan", "ios": "https://dc.lft.to/lastmile_qr_scan"}, "is_reserved": 0}, {"bike_id": "310b17327212993900dd73982cc42653", "name": "310b17327212993900dd73982cc42653", "lat": 38.90718833333333, "fusion_lat": 0.0, "type": "electric_scooter", "lon": -77.0268535, "is_disabled": 0, "fusion_lon": 0.0, "rental_uris": {"android": "https://dc.lft.to/lastmile_qr_scan", "ios": "https://dc.lft.to/lastmile_qr_scan"}, "is_reserved": 0}, {"bike_id": "4c50324fd7ad3e891465ad9206662340", "name": "4c50324fd7ad3e891465ad9206662340", "lat": 38.91761566666667, "fusion_lat": 0.0, "type": "electric_scooter", "lon": -77.01937866666667, "is_disabled": 0, "fusion_lon": 0.0, "rental_uris": {"android": "https://dc.lft.to/lastmile_qr_scan", "ios": "https://dc.lft.to/lastmile_qr_scan"}, "is_reserved": 0}, {"bike_id": "da5a5a94c2370ea4fdb546e84b4cd649", "name": "da5a5a94c2370ea4fdb546e84b4cd649", "lat": 38.919797833333334, "fusion_lat": 0.0, "type": "electric_scooter", "lon": -77.0415895, "is_disabled": 0, "fusion_lon": 0.0, "rental_uris": {"android": "https://dc.lft.to/lastmile_qr_scan", "ios": "https://dc.lft.to/lastmile_qr_scan"}, "is_reserved": 0}, {"bike_id": "6440a7744bc00ca7a33484e2ee52541e", "name": "6440a7744bc00ca7a33484e2ee52541e", "lat": 38.924332166666666, "fusion_lat": 0.0, "type": "electric_scooter", "lon": -77.003214, "is_disabled": 0, "fusion_lon": 0.0, "rental_uris": {"android": "https://dc.lft.to/lastmile_qr_scan", "ios": "https://dc.lft.to/lastmile_qr_scan"}, "is_reserved": 0}, {"bike_id": "8995c6d9eacab91341afc760d2818b00", "name": "8995c6d9eacab91341afc760d2818b00", "lat": 38.92246883333333, "fusion_lat": 0.0, "type": "electric_scooter", "lon": -77.03522233333334, "is_disabled": 0, "fusion_lon": 0.0, "rental_uris": {"android": "https://dc.lft.to/lastmile_qr_scan", "ios": "https://dc.lft.to/lastmile_qr_scan"}, "is_reserved": 0}, {"bike_id": "5f719422072666a4fe55e33978291e3e", "name": "5f719422072666a4fe55e33978291e3e", "lat": 38.885791166666664, "fusion_lat": 0.0, "type": "electric_scooter", "lon": -77.0218425, "is_disabled": 0, "fusion_lon": 0.0, "rental_uris": {"android": "https://dc.lft.to/lastmile_qr_scan", "ios": "https://dc.lft.to/lastmile_qr_scan"}, "is_reserved": 0}, {"bike_id": "949bea1b66f54f65e10d3175bccf18e4", "name": "949bea1b66f54f65e10d3175bccf18e4", "lat": 38.9359885, "fusion_lat": 0.0, "type": "electric_scooter", "lon": -77.0586865, "is_disabled": 0, "fusion_lon": 0.0, "rental_uris": {"android": "https://dc.lft.to/lastmile_qr_scan", "ios": "https://dc.lft.to/lastmile_qr_scan"}, "is_reserved": 0}, {"bike_id": "8b8cca564e41faecf948efd753df4cd2", "name": "8b8cca564e41faecf948efd753df4cd2", "lat": 38.94912866666667, "fusion_lat": 0.0, "type": "electric_scooter", "lon": -77.02071116666667, "is_disabled": 0, "fusion_lon": 0.0, "rental_uris": {"android": "https://dc.lft.to/lastmile_qr_scan", "ios": "https://dc.lft.to/lastmile_qr_scan"}, "is_reserved": 0}, {"bike_id": "d2d3f5cdb3f6af68d6a0b8af2b79902e", "name": "d2d3f5cdb3f6af68d6a0b8af2b79902e", "lat": 38.89849733333333, "fusion_lat": 0.0, "type": "electric_bike", "lon": -76.931916, "is_disabled": 0, "fusion_lon": 0.0, "rental_uris": {"android": "https://dc.lft.to/lastmile_qr_scan", "ios": "https://dc.lft.to/lastmile_qr_scan"}, "is_reserved": 0}, {"bike_id": "d9266396d48567fcdd405a0d66646314", "name": "d9266396d48567fcdd405a0d66646314", "lat": 38.9005835, "fusion_lat": 0.0, "type": "electric_scooter", "lon": -77.013439, "is_disabled": 0, "fusion_lon": 0.0, "rental_uris": {"android": "https://dc.lft.to/lastmile_qr_scan", "ios": "https://dc.lft.to/lastmile_qr_scan"}, "is_reserved": 0}, {"bike_id": "4416ba9f07718b497e04e2b46af7ae60", "name": "4416ba9f07718b497e04e2b46af7ae60", "lat": 38.90578433333334, "fusion_lat": 0.0, "type": "electric_scooter", "lon": -77.007901, "is_disabled": 0, "fusion_lon": 0.0, "rental_uris": {"android": "https://dc.lft.to/lastmile_qr_scan", "ios": "https://dc.lft.to/lastmile_qr_scan"}, "is_reserved": 0}, {"bike_id": "aecb61bd37c94d4a662c27e046d27ec3", "name": "aecb61bd37c94d4a662c27e046d27ec3", "lat": 38.902411, "fusion_lat": 0.0, "type": "electric_scooter", "lon": -77.03754216666667, "is_disabled": 0, "fusion_lon": 0.0, "rental_uris": {"android": "https://dc.lft.to/lastmile_qr_scan", "ios": "https://dc.lft.to/lastmile_qr_scan"}, "is_reserved": 0}, {"bike_id": "242b51f51c702e8be0907fac2ef6e4b3", "name": "242b51f51c702e8be0907fac2ef6e4b3", "lat": 38.9039295, "fusion_lat": 0.0, "type": "electric_scooter", "lon": -77.06301616666667, "is_disabled": 0, "fusion_lon": 0.0, "rental_uris": {"android": "https://dc.lft.to/lastmile_qr_scan", "ios": "https://dc.lft.to/lastmile_qr_scan"}, "is_reserved": 0}, {"bike_id": "57b149cda8ede85e64950cc57e788032", "name": "57b149cda8ede85e64950cc57e788032", "lat": 38.9266515, "fusion_lat": 0.0, "type": "electric_scooter", "lon": -77.0275295, "is_disabled": 0, "fusion_lon": 0.0, "rental_uris": {"android": "https://dc.lft.to/lastmile_qr_scan", "ios": "https://dc.lft.to/lastmile_qr_scan"}, "is_reserved": 0}, {"bike_id": "1c41ac4d8a82dda51b85f3a81e2acc92", "name": "1c41ac4d8a82dda51b85f3a81e2acc92", "lat": 38.92066166666667, "fusion_lat": 0.0, "type": "electric_scooter", "lon": -77.0238795, "is_disabled": 0, "fusion_lon": 0.0, "rental_uris": {"android": "https://dc.lft.to/lastmile_qr_scan", "ios": "https://dc.lft.to/lastmile_qr_scan"}, "is_reserved": 0}, {"bike_id": "c7900ba483b7f36a34960de814cb974f", "name": "c7900ba483b7f36a34960de814cb974f", "lat": 38.97496533333333, "fusion_lat": 0.0, "type": "electric_scooter", "lon": -77.016977, "is_disabled": 0, "fusion_lon": 0.0, "rental_uris": {"android": "https://dc.lft.to/lastmile_qr_scan", "ios": "https://dc.lft.to/lastmile_qr_scan"}, "is_reserved": 0}, {"bike_id": "5fec7dc007dcf5ed70c45799fb8ea0f2", "name": "5fec7dc007dcf5ed70c45799fb8ea0f2", "lat": 38.90575116666667, "fusion_lat": 0.0, "type": "electric_scooter", "lon": -77.04225366666667, "is_disabled": 0, "fusion_lon": 0.0, "rental_uris": {"android": "https://dc.lft.to/lastmile_qr_scan", "ios": "https://dc.lft.to/lastmile_qr_scan"}, "is_reserved": 0}, {"bike_id": "9893432b60312e479be5c84d7dfddca7", "name": "9893432b60312e479be5c84d7dfddca7", "lat": 38.89605983333333, "fusion_lat": 0.0, "type": "electric_scooter", "lon": -77.04486033333333, "is_disabled": 0, "fusion_lon": 0.0, "rental_uris": {"android": "https://dc.lft.to/lastmile_qr_scan", "ios": "https://dc.lft.to/lastmile_qr_scan"}, "is_reserved": 0}, {"bike_id": "a1fbfd44a3bbfe3933210a527f9449d4", "name": "a1fbfd44a3bbfe3933210a527f9449d4", "lat": 38.9133035, "fusion_lat": 0.0, "type": "electric_scooter", "lon": -77.04801066666667, "is_disabled": 0, "fusion_lon": 0.0, "rental_uris": {"android": "https://dc.lft.to/lastmile_qr_scan", "ios": "https://dc.lft.to/lastmile_qr_scan"}, "is_reserved": 0}, {"bike_id": "69958e71eff0be03e25891f198f75ce0", "name": "69958e71eff0be03e25891f198f75ce0", "lat": 38.9318175, "fusion_lat": 0.0, "type": "electric_scooter", "lon": -77.02350266666667, "is_disabled": 0, "fusion_lon": 0.0, "rental_uris": {"android": "https://dc.lft.to/lastmile_qr_scan", "ios": "https://dc.lft.to/lastmile_qr_scan"}, "is_reserved": 0}, {"bike_id": "fe8f25cebedefd020a23e9c178715de3", "name": "fe8f25cebedefd020a23e9c178715de3", "lat": 38.91405366666667, "fusion_lat": 0.0, "type": "electric_scooter", "lon": -77.03217833333333, "is_disabled": 0, "fusion_lon": 0.0, "rental_uris": {"android": "https://dc.lft.to/lastmile_qr_scan", "ios": "https://dc.lft.to/lastmile_qr_scan"}, "is_reserved": 0}, {"bike_id": "d9dd6cb5e0390ec82fed6984bffd06ac", "name": "d9dd6cb5e0390ec82fed6984bffd06ac", "lat": 38.92327933333333, "fusion_lat": 0.0, "type": "electric_scooter", "lon": -77.03661333333334, "is_disabled": 0, "fusion_lon": 0.0, "rental_uris": {"android": "https://dc.lft.to/lastmile_qr_scan", "ios": "https://dc.lft.to/lastmile_qr_scan"}, "is_reserved": 0}, {"bike_id": "1782ecbdb9997b5e148a9901d62b853e", "name": "1782ecbdb9997b5e148a9901d62b853e", "lat": 38.887875666666666, "fusion_lat": 0.0, "type": "electric_bike", "lon": -76.92349916666667, "is_disabled": 0, "fusion_lon": 0.0, "rental_uris": {"android": "https://dc.lft.to/lastmile_qr_scan", "ios": "https://dc.lft.to/lastmile_qr_scan"}, "is_reserved": 0}, {"bike_id": "96894f1c8666a6fa38ed9c4020ec5e3a", "name": "96894f1c8666a6fa38ed9c4020ec5e3a", "lat": 38.898709833333335, "fusion_lat": 0.0, "type": "electric_scooter", "lon": -77.02954616666666, "is_disabled": 0, "fusion_lon": 0.0, "rental_uris": {"android": "https://dc.lft.to/lastmile_qr_scan", "ios": "https://dc.lft.to/lastmile_qr_scan"}, "is_reserved": 0}, {"bike_id": "c75ee2580550b980440edad680c99230", "name": "c75ee2580550b980440edad680c99230", "lat": 38.90255666666667, "fusion_lat": 0.0, "type": "electric_scooter", "lon": -77.04747316666666, "is_disabled": 0, "fusion_lon": 0.0, "rental_uris": {"android": "https://dc.lft.to/lastmile_qr_scan", "ios": "https://dc.lft.to/lastmile_qr_scan"}, "is_reserved": 0}, {"bike_id": "5f39a63289c2b6b01967b82208275308", "name": "5f39a63289c2b6b01967b82208275308", "lat": 38.921145833333334, "fusion_lat": 0.0, "type": "electric_scooter", "lon": -77.04166916666667, "is_disabled": 0, "fusion_lon": 0.0, "rental_uris": {"android": "https://dc.lft.to/lastmile_qr_scan", "ios": "https://dc.lft.to/lastmile_qr_scan"}, "is_reserved": 0}, {"bike_id": "8c0456b732fabbf8cedc21ea59e6872f", "name": "8c0456b732fabbf8cedc21ea59e6872f", "lat": 38.911225, "fusion_lat": 0.0, "type": "electric_scooter", "lon": -77.04410733333333, "is_disabled": 0, "fusion_lon": 0.0, "rental_uris": {"android": "https://dc.lft.to/lastmile_qr_scan", "ios": "https://dc.lft.to/lastmile_qr_scan"}, "is_reserved": 0}, {"bike_id": "025d64c06656c5b394dfb9774301a016", "name": "025d64c06656c5b394dfb9774301a016", "lat": 38.9006235, "fusion_lat": 0.0, "type": "electric_scooter", "lon": -77.02169916666666, "is_disabled": 0, "fusion_lon": 0.0, "rental_uris": {"android": "https://dc.lft.to/lastmile_qr_scan", "ios": "https://dc.lft.to/lastmile_qr_scan"}, "is_reserved": 0}, {"bike_id": "f2daa4ed75c4bc227976ff19f1d2635d", "name": "f2daa4ed75c4bc227976ff19f1d2635d", "lat": 38.90568183333333, "fusion_lat": 0.0, "type": "electric_scooter", "lon": -77.0291285, "is_disabled": 0, "fusion_lon": 0.0, "rental_uris": {"android": "https://dc.lft.to/lastmile_qr_scan", "ios": "https://dc.lft.to/lastmile_qr_scan"}, "is_reserved": 0}, {"bike_id": "57db3ab94bc55deb23ed5afea7cb93fd", "name": "57db3ab94bc55deb23ed5afea7cb93fd", "lat": 38.9163175, "fusion_lat": 0.0, "type": "electric_scooter", "lon": -77.04623083333334, "is_disabled": 0, "fusion_lon": 0.0, "rental_uris": {"android": "https://dc.lft.to/lastmile_qr_scan", "ios": "https://dc.lft.to/lastmile_qr_scan"}, "is_reserved": 0}, {"bike_id": "e08df9d033cc07d6e38a0da49f0681f0", "name": "e08df9d033cc07d6e38a0da49f0681f0", "lat": 38.90269933333333, "fusion_lat": 0.0, "type": "electric_scooter", "lon": -77.01772183333334, "is_disabled": 0, "fusion_lon": 0.0, "rental_uris": {"android": "https://dc.lft.to/lastmile_qr_scan", "ios": "https://dc.lft.to/lastmile_qr_scan"}, "is_reserved": 0}, {"bike_id": "e74759d62421ed815cafa3c08b827709", "name": "e74759d62421ed815cafa3c08b827709", "lat": 38.896093, "fusion_lat": 0.0, "type": "electric_scooter", "lon": -77.04599033333334, "is_disabled": 0, "fusion_lon": 0.0, "rental_uris": {"android": "https://dc.lft.to/lastmile_qr_scan", "ios": "https://dc.lft.to/lastmile_qr_scan"}, "is_reserved": 0}, {"bike_id": "17ffcd333acefa64107d4bc969450d10", "name": "17ffcd333acefa64107d4bc969450d10", "lat": 38.90469183333333, "fusion_lat": 0.0, "type": "electric_scooter", "lon": -77.00631433333334, "is_disabled": 0, "fusion_lon": 0.0, "rental_uris": {"android": "https://dc.lft.to/lastmile_qr_scan", "ios": "https://dc.lft.to/lastmile_qr_scan"}, "is_reserved": 0}, {"bike_id": "50470ff603caf6fe5922f6e4b43e2dd8", "name": "50470ff603caf6fe5922f6e4b43e2dd8", "lat": 38.905370833333336, "fusion_lat": 0.0, "type": "electric_scooter", "lon": -77.041063, "is_disabled": 0, "fusion_lon": 0.0, "rental_uris": {"android": "https://dc.lft.to/lastmile_qr_scan", "ios": "https://dc.lft.to/lastmile_qr_scan"}, "is_reserved": 0}, {"bike_id": "827488a14548b5be430ae071c838c0e0", "name": "827488a14548b5be430ae071c838c0e0", "lat": 38.91797233333333, "fusion_lat": 0.0, "type": "electric_scooter", "lon": -77.0319885, "is_disabled": 0, "fusion_lon": 0.0, "rental_uris": {"android": "https://dc.lft.to/lastmile_qr_scan", "ios": "https://dc.lft.to/lastmile_qr_scan"}, "is_reserved": 0}, {"bike_id": "f7dc5c37e6e41c191431ec53a48c0942", "name": "f7dc5c37e6e41c191431ec53a48c0942", "lat": 38.936003166666666, "fusion_lat": 0.0, "type": "electric_scooter", "lon": -77.05894666666667, "is_disabled": 0, "fusion_lon": 0.0, "rental_uris": {"android": "https://dc.lft.to/lastmile_qr_scan", "ios": "https://dc.lft.to/lastmile_qr_scan"}, "is_reserved": 0}, {"bike_id": "b681cfeef4010533a6558e1873b80cce", "name": "b681cfeef4010533a6558e1873b80cce", "lat": 38.90268433333333, "fusion_lat": 0.0, "type": "electric_scooter", "lon": -77.01761866666666, "is_disabled": 0, "fusion_lon": 0.0, "rental_uris": {"android": "https://dc.lft.to/lastmile_qr_scan", "ios": "https://dc.lft.to/lastmile_qr_scan"}, "is_reserved": 0}, {"bike_id": "a4268edb34354cd0da7a51f930cfbb8c", "name": "a4268edb34354cd0da7a51f930cfbb8c", "lat": 38.898271, "fusion_lat": 0.0, "type": "electric_scooter", "lon": -77.00748233333333, "is_disabled": 0, "fusion_lon": 0.0, "rental_uris": {"android": "https://dc.lft.to/lastmile_qr_scan", "ios": "https://dc.lft.to/lastmile_qr_scan"}, "is_reserved": 0}, {"bike_id": "455ee7bd81c0303c20562422f8a1d326", "name": "455ee7bd81c0303c20562422f8a1d326", "lat": 38.89488733333334, "fusion_lat": 0.0, "type": "electric_scooter", "lon": -77.001917, "is_disabled": 0, "fusion_lon": 0.0, "rental_uris": {"android": "https://dc.lft.to/lastmile_qr_scan", "ios": "https://dc.lft.to/lastmile_qr_scan"}, "is_reserved": 0}, {"bike_id": "3e65bd63a56caa6c44e83fb08d933411", "name": "3e65bd63a56caa6c44e83fb08d933411", "lat": 38.8877345, "fusion_lat": 0.0, "type": "electric_scooter", "lon": -76.93263783333333, "is_disabled": 0, "fusion_lon": 0.0, "rental_uris": {"android": "https://dc.lft.to/lastmile_qr_scan", "ios": "https://dc.lft.to/lastmile_qr_scan"}, "is_reserved": 0}, {"bike_id": "d1e4ca70b8e264fdbce8c398f0f867ad", "name": "d1e4ca70b8e264fdbce8c398f0f867ad", "lat": 38.932514833333336, "fusion_lat": 0.0, "type": "electric_scooter", "lon": -77.03202216666666, "is_disabled": 0, "fusion_lon": 0.0, "rental_uris": {"android": "https://dc.lft.to/lastmile_qr_scan", "ios": "https://dc.lft.to/lastmile_qr_scan"}, "is_reserved": 0}, {"bike_id": "e21cac79c1233e7e5aa70cee96dbffd6", "name": "e21cac79c1233e7e5aa70cee96dbffd6", "lat": 38.91483983333333, "fusion_lat": 0.0, "type": "electric_scooter", "lon": -77.01854916666667, "is_disabled": 0, "fusion_lon": 0.0, "rental_uris": {"android": "https://dc.lft.to/lastmile_qr_scan", "ios": "https://dc.lft.to/lastmile_qr_scan"}, "is_reserved": 0}, {"bike_id": "2028bcdecb73c5a6dfa5b0434622c9d1", "name": "2028bcdecb73c5a6dfa5b0434622c9d1", "lat": 38.908398166666665, "fusion_lat": 0.0, "type": "electric_scooter", "lon": -77.06347533333333, "is_disabled": 0, "fusion_lon": 0.0, "rental_uris": {"android": "https://dc.lft.to/lastmile_qr_scan", "ios": "https://dc.lft.to/lastmile_qr_scan"}, "is_reserved": 0}, {"bike_id": "79d04ebc3acd2289490b2e67e2f260e3", "name": "79d04ebc3acd2289490b2e67e2f260e3", "lat": 38.90555466666667, "fusion_lat": 0.0, "type": "electric_scooter", "lon": -77.04072866666667, "is_disabled": 0, "fusion_lon": 0.0, "rental_uris": {"android": "https://dc.lft.to/lastmile_qr_scan", "ios": "https://dc.lft.to/lastmile_qr_scan"}, "is_reserved": 0}, {"bike_id": "4edf35ae86c1930b915e8507c50274de", "name": "4edf35ae86c1930b915e8507c50274de", "lat": 38.907308, "fusion_lat": 0.0, "type": "electric_scooter", "lon": -77.01139083333334, "is_disabled": 0, "fusion_lon": 0.0, "rental_uris": {"android": "https://dc.lft.to/lastmile_qr_scan", "ios": "https://dc.lft.to/lastmile_qr_scan"}, "is_reserved": 0}, {"bike_id": "3f40a09051d5db3c4cb58dac0563f976", "name": "3f40a09051d5db3c4cb58dac0563f976", "lat": 38.87397216666667, "fusion_lat": 0.0, "type": "electric_scooter", "lon": -77.00021566666666, "is_disabled": 0, "fusion_lon": 0.0, "rental_uris": {"android": "https://dc.lft.to/lastmile_qr_scan", "ios": "https://dc.lft.to/lastmile_qr_scan"}, "is_reserved": 0}, {"bike_id": "6bb1aebb15dcf4a59247562afd40ebd4", "name": "6bb1aebb15dcf4a59247562afd40ebd4", "lat": 38.899329, "fusion_lat": 0.0, "type": "electric_scooter", "lon": -77.02687066666667, "is_disabled": 0, "fusion_lon": 0.0, "rental_uris": {"android": "https://dc.lft.to/lastmile_qr_scan", "ios": "https://dc.lft.to/lastmile_qr_scan"}, "is_reserved": 0}, {"bike_id": "5e7c632f8dc545992f5eda9632678f68", "name": "5e7c632f8dc545992f5eda9632678f68", "lat": 38.9141985, "fusion_lat": 0.0, "type": "electric_scooter", "lon": -77.02198166666666, "is_disabled": 0, "fusion_lon": 0.0, "rental_uris": {"android": "https://dc.lft.to/lastmile_qr_scan", "ios": "https://dc.lft.to/lastmile_qr_scan"}, "is_reserved": 0}, {"bike_id": "b0339f526823011921702495f3387f12", "name": "b0339f526823011921702495f3387f12", "lat": 38.943080333333334, "fusion_lat": 0.0, "type": "electric_scooter", "lon": -77.02178766666667, "is_disabled": 0, "fusion_lon": 0.0, "rental_uris": {"android": "https://dc.lft.to/lastmile_qr_scan", "ios": "https://dc.lft.to/lastmile_qr_scan"}, "is_reserved": 0}, {"bike_id": "fc2dbdc05201d4491e0e8b4d305457a3", "name": "fc2dbdc05201d4491e0e8b4d305457a3", "lat": 38.8784365, "fusion_lat": 0.0, "type": "electric_scooter", "lon": -76.98295416666667, "is_disabled": 0, "fusion_lon": 0.0, "rental_uris": {"android": "https://dc.lft.to/lastmile_qr_scan", "ios": "https://dc.lft.to/lastmile_qr_scan"}, "is_reserved": 0}, {"bike_id": "2d80febfd5d455f9817e28b5e235164c", "name": "2d80febfd5d455f9817e28b5e235164c", "lat": 38.91751433333334, "fusion_lat": 0.0, "type": "electric_scooter", "lon": -77.04766833333333, "is_disabled": 0, "fusion_lon": 0.0, "rental_uris": {"android": "https://dc.lft.to/lastmile_qr_scan", "ios": "https://dc.lft.to/lastmile_qr_scan"}, "is_reserved": 0}, {"bike_id": "b64877fea0c01d849098284f2ac118ab", "name": "b64877fea0c01d849098284f2ac118ab", "lat": 38.918149666666665, "fusion_lat": 0.0, "type": "electric_scooter", "lon": -77.031575, "is_disabled": 0, "fusion_lon": 0.0, "rental_uris": {"android": "https://dc.lft.to/lastmile_qr_scan", "ios": "https://dc.lft.to/lastmile_qr_scan"}, "is_reserved": 0}, {"bike_id": "e0aeb7ba4f6ef5e8961f455d4ea75040", "name": "e0aeb7ba4f6ef5e8961f455d4ea75040", "lat": 38.92023666666667, "fusion_lat": 0.0, "type": "electric_scooter", "lon": -77.01029283333334, "is_disabled": 0, "fusion_lon": 0.0, "rental_uris": {"android": "https://dc.lft.to/lastmile_qr_scan", "ios": "https://dc.lft.to/lastmile_qr_scan"}, "is_reserved": 0}, {"bike_id": "b933da6b90e24f3231f4a791e2797e85", "name": "b933da6b90e24f3231f4a791e2797e85", "lat": 38.937719, "fusion_lat": 0.0, "type": "electric_scooter", "lon": -77.02355766666666, "is_disabled": 0, "fusion_lon": 0.0, "rental_uris": {"android": "https://dc.lft.to/lastmile_qr_scan", "ios": "https://dc.lft.to/lastmile_qr_scan"}, "is_reserved": 0}, {"bike_id": "8db2fbdf8ad29150a5f0d256d7b3c6fd", "name": "8db2fbdf8ad29150a5f0d256d7b3c6fd", "lat": 38.9085855, "fusion_lat": 0.0, "type": "electric_scooter", "lon": -77.03858433333333, "is_disabled": 0, "fusion_lon": 0.0, "rental_uris": {"android": "https://dc.lft.to/lastmile_qr_scan", "ios": "https://dc.lft.to/lastmile_qr_scan"}, "is_reserved": 0}, {"bike_id": "6b6e562931cf418e9a14b938fed23194", "name": "6b6e562931cf418e9a14b938fed23194", "lat": 38.909539, "fusion_lat": 0.0, "type": "electric_scooter", "lon": -77.04567216666666, "is_disabled": 0, "fusion_lon": 0.0, "rental_uris": {"android": "https://dc.lft.to/lastmile_qr_scan", "ios": "https://dc.lft.to/lastmile_qr_scan"}, "is_reserved": 0}, {"bike_id": "0758d9a237c88a6bdb74c0c7f885aa59", "name": "0758d9a237c88a6bdb74c0c7f885aa59", "lat": 38.901342, "fusion_lat": 0.0, "type": "electric_scooter", "lon": -77.0196965, "is_disabled": 0, "fusion_lon": 0.0, "rental_uris": {"android": "https://dc.lft.to/lastmile_qr_scan", "ios": "https://dc.lft.to/lastmile_qr_scan"}, "is_reserved": 0}, {"bike_id": "1efc521a1aa75fbd5da0bb4143ee4711", "name": "1efc521a1aa75fbd5da0bb4143ee4711", "lat": 38.89531933333333, "fusion_lat": 0.0, "type": "electric_scooter", "lon": -76.948912, "is_disabled": 0, "fusion_lon": 0.0, "rental_uris": {"android": "https://dc.lft.to/lastmile_qr_scan", "ios": "https://dc.lft.to/lastmile_qr_scan"}, "is_reserved": 0}, {"bike_id": "e280648d75db4509d3493cae448bc1a0", "name": "e280648d75db4509d3493cae448bc1a0", "lat": 38.923333, "fusion_lat": 0.0, "type": "electric_scooter", "lon": -77.04154733333333, "is_disabled": 0, "fusion_lon": 0.0, "rental_uris": {"android": "https://dc.lft.to/lastmile_qr_scan", "ios": "https://dc.lft.to/lastmile_qr_scan"}, "is_reserved": 0}, {"bike_id": "31e5411a6795366f95820159d15441c9", "name": "31e5411a6795366f95820159d15441c9", "lat": 38.8893115, "fusion_lat": 0.0, "type": "electric_bike", "lon": -76.91328316666667, "is_disabled": 0, "fusion_lon": 0.0, "rental_uris": {"android": "https://dc.lft.to/lastmile_qr_scan", "ios": "https://dc.lft.to/lastmile_qr_scan"}, "is_reserved": 0}, {"bike_id": "9cda6aa627a2a7e0a7c87af324143d6d", "name": "9cda6aa627a2a7e0a7c87af324143d6d", "lat": 38.9207065, "fusion_lat": 0.0, "type": "electric_scooter", "lon": -77.02325633333334, "is_disabled": 0, "fusion_lon": 0.0, "rental_uris": {"android": "https://dc.lft.to/lastmile_qr_scan", "ios": "https://dc.lft.to/lastmile_qr_scan"}, "is_reserved": 0}, {"bike_id": "1d010a820c96d11111b9389b023f930f", "name": "1d010a820c96d11111b9389b023f930f", "lat": 38.86341866666667, "fusion_lat": 0.0, "type": "electric_scooter", "lon": -76.98713616666667, "is_disabled": 0, "fusion_lon": 0.0, "rental_uris": {"android": "https://dc.lft.to/lastmile_qr_scan", "ios": "https://dc.lft.to/lastmile_qr_scan"}, "is_reserved": 0}, {"bike_id": "f29c416bd907c54c47476f17512d34a3", "name": "f29c416bd907c54c47476f17512d34a3", "lat": 38.92851433333333, "fusion_lat": 0.0, "type": "electric_scooter", "lon": -77.01427133333334, "is_disabled": 0, "fusion_lon": 0.0, "rental_uris": {"android": "https://dc.lft.to/lastmile_qr_scan", "ios": "https://dc.lft.to/lastmile_qr_scan"}, "is_reserved": 0}, {"bike_id": "74f4861da2221099dd11053fb949a1c9", "name": "74f4861da2221099dd11053fb949a1c9", "lat": 38.90180133333333, "fusion_lat": 0.0, "type": "electric_scooter", "lon": -76.93005283333333, "is_disabled": 0, "fusion_lon": 0.0, "rental_uris": {"android": "https://dc.lft.to/lastmile_qr_scan", "ios": "https://dc.lft.to/lastmile_qr_scan"}, "is_reserved": 0}, {"bike_id": "08b2252dd9b2c8b26eb6514da9561d42", "name": "08b2252dd9b2c8b26eb6514da9561d42", "lat": 38.898807833333336, "fusion_lat": 0.0, "type": "electric_scooter", "lon": -76.99615583333333, "is_disabled": 0, "fusion_lon": 0.0, "rental_uris": {"android": "https://dc.lft.to/lastmile_qr_scan", "ios": "https://dc.lft.to/lastmile_qr_scan"}, "is_reserved": 0}, {"bike_id": "81a9d9fbee7272e14e2b25221f5031ca", "name": "81a9d9fbee7272e14e2b25221f5031ca", "lat": 38.92494716666667, "fusion_lat": 0.0, "type": "electric_scooter", "lon": -77.02195466666667, "is_disabled": 0, "fusion_lon": 0.0, "rental_uris": {"android": "https://dc.lft.to/lastmile_qr_scan", "ios": "https://dc.lft.to/lastmile_qr_scan"}, "is_reserved": 0}, {"bike_id": "14f2f41f47c9b308e5e5805ec6e0b4d5", "name": "14f2f41f47c9b308e5e5805ec6e0b4d5", "lat": 38.865349, "fusion_lat": 0.0, "type": "electric_scooter", "lon": -76.974599, "is_disabled": 0, "fusion_lon": 0.0, "rental_uris": {"android": "https://dc.lft.to/lastmile_qr_scan", "ios": "https://dc.lft.to/lastmile_qr_scan"}, "is_reserved": 0}, {"bike_id": "ddac03fb383944240b499db6f7c7535e", "name": "ddac03fb383944240b499db6f7c7535e", "lat": 38.92071266666667, "fusion_lat": 0.0, "type": "electric_scooter", "lon": -77.02325883333333, "is_disabled": 0, "fusion_lon": 0.0, "rental_uris": {"android": "https://dc.lft.to/lastmile_qr_scan", "ios": "https://dc.lft.to/lastmile_qr_scan"}, "is_reserved": 0}, {"bike_id": "1eeccb5abb3e754b7e5561ae77a1b231", "name": "1eeccb5abb3e754b7e5561ae77a1b231", "lat": 38.924192166666664, "fusion_lat": 0.0, "type": "electric_scooter", "lon": -77.020139, "is_disabled": 0, "fusion_lon": 0.0, "rental_uris": {"android": "https://dc.lft.to/lastmile_qr_scan", "ios": "https://dc.lft.to/lastmile_qr_scan"}, "is_reserved": 0}, {"bike_id": "a665809f8fa61a59de8a6d3d44624ca0", "name": "a665809f8fa61a59de8a6d3d44624ca0", "lat": 38.902330166666665, "fusion_lat": 0.0, "type": "electric_scooter", "lon": -77.0268765, "is_disabled": 0, "fusion_lon": 0.0, "rental_uris": {"android": "https://dc.lft.to/lastmile_qr_scan", "ios": "https://dc.lft.to/lastmile_qr_scan"}, "is_reserved": 0}, {"bike_id": "4eeb2d77ffc77a98f3449978fa13c4fb", "name": "4eeb2d77ffc77a98f3449978fa13c4fb", "lat": 38.946824166666666, "fusion_lat": 0.0, "type": "electric_scooter", "lon": -77.06515533333334, "is_disabled": 0, "fusion_lon": 0.0, "rental_uris": {"android": "https://dc.lft.to/lastmile_qr_scan", "ios": "https://dc.lft.to/lastmile_qr_scan"}, "is_reserved": 0}, {"bike_id": "1e64c86dd90d7270b773a693ecfb8777", "name": "1e64c86dd90d7270b773a693ecfb8777", "lat": 38.92271366666667, "fusion_lat": 0.0, "type": "electric_scooter", "lon": -77.02127133333333, "is_disabled": 0, "fusion_lon": 0.0, "rental_uris": {"android": "https://dc.lft.to/lastmile_qr_scan", "ios": "https://dc.lft.to/lastmile_qr_scan"}, "is_reserved": 0}, {"bike_id": "9c5be3bf396a24470ab041320b85b48b", "name": "9c5be3bf396a24470ab041320b85b48b", "lat": 38.90744733333333, "fusion_lat": 0.0, "type": "electric_scooter", "lon": -77.031863, "is_disabled": 0, "fusion_lon": 0.0, "rental_uris": {"android": "https://dc.lft.to/lastmile_qr_scan", "ios": "https://dc.lft.to/lastmile_qr_scan"}, "is_reserved": 0}, {"bike_id": "3d37cbb3af032d1ba5ab757cc4366914", "name": "3d37cbb3af032d1ba5ab757cc4366914", "lat": 38.927531, "fusion_lat": 0.0, "type": "electric_scooter", "lon": -77.0330095, "is_disabled": 0, "fusion_lon": 0.0, "rental_uris": {"android": "https://dc.lft.to/lastmile_qr_scan", "ios": "https://dc.lft.to/lastmile_qr_scan"}, "is_reserved": 0}, {"bike_id": "3c2d7724df2662ba8fdc506e2dd7a5ba", "name": "3c2d7724df2662ba8fdc506e2dd7a5ba", "lat": 38.9051925, "fusion_lat": 0.0, "type": "electric_scooter", "lon": -77.0566395, "is_disabled": 0, "fusion_lon": 0.0, "rental_uris": {"android": "https://dc.lft.to/lastmile_qr_scan", "ios": "https://dc.lft.to/lastmile_qr_scan"}, "is_reserved": 0}, {"bike_id": "3c92d53e7a9ffc9e9072c3e966452c12", "name": "3c92d53e7a9ffc9e9072c3e966452c12", "lat": 38.912206833333336, "fusion_lat": 0.0, "type": "electric_scooter", "lon": -77.06403733333333, "is_disabled": 0, "fusion_lon": 0.0, "rental_uris": {"android": "https://dc.lft.to/lastmile_qr_scan", "ios": "https://dc.lft.to/lastmile_qr_scan"}, "is_reserved": 0}, {"bike_id": "ad0aad3ccf97d837e6a7b6488ffa7878", "name": "ad0aad3ccf97d837e6a7b6488ffa7878", "lat": 38.90573783333333, "fusion_lat": 0.0, "type": "electric_scooter", "lon": -77.00791633333333, "is_disabled": 0, "fusion_lon": 0.0, "rental_uris": {"android": "https://dc.lft.to/lastmile_qr_scan", "ios": "https://dc.lft.to/lastmile_qr_scan"}, "is_reserved": 0}, {"bike_id": "05c0b77d0540d7cf3c5ceab020ee0c53", "name": "05c0b77d0540d7cf3c5ceab020ee0c53", "lat": 38.903659, "fusion_lat": 0.0, "type": "electric_scooter", "lon": -76.984872, "is_disabled": 0, "fusion_lon": 0.0, "rental_uris": {"android": "https://dc.lft.to/lastmile_qr_scan", "ios": "https://dc.lft.to/lastmile_qr_scan"}, "is_reserved": 0}, {"bike_id": "e308873c47f1361667bf5bded0eeebbc", "name": "e308873c47f1361667bf5bded0eeebbc", "lat": 38.89917333333333, "fusion_lat": 0.0, "type": "electric_scooter", "lon": -77.04001733333334, "is_disabled": 0, "fusion_lon": 0.0, "rental_uris": {"android": "https://dc.lft.to/lastmile_qr_scan", "ios": "https://dc.lft.to/lastmile_qr_scan"}, "is_reserved": 0}, {"bike_id": "985724c1ab26185f4c2ad3c6de5f77a1", "name": "985724c1ab26185f4c2ad3c6de5f77a1", "lat": 38.9198285, "fusion_lat": 0.0, "type": "electric_scooter", "lon": -77.033115, "is_disabled": 0, "fusion_lon": 0.0, "rental_uris": {"android": "https://dc.lft.to/lastmile_qr_scan", "ios": "https://dc.lft.to/lastmile_qr_scan"}, "is_reserved": 0}, {"bike_id": "b3638ab6c84b59b58769a29d1327c66c", "name": "b3638ab6c84b59b58769a29d1327c66c", "lat": 38.9269195, "fusion_lat": 0.0, "type": "electric_scooter", "lon": -77.02575533333334, "is_disabled": 0, "fusion_lon": 0.0, "rental_uris": {"android": "https://dc.lft.to/lastmile_qr_scan", "ios": "https://dc.lft.to/lastmile_qr_scan"}, "is_reserved": 0}, {"bike_id": "a9b9eff1bef5b4841bcb330955835c95", "name": "a9b9eff1bef5b4841bcb330955835c95", "lat": 38.88364116666666, "fusion_lat": 0.0, "type": "electric_scooter", "lon": -76.98831433333334, "is_disabled": 0, "fusion_lon": 0.0, "rental_uris": {"android": "https://dc.lft.to/lastmile_qr_scan", "ios": "https://dc.lft.to/lastmile_qr_scan"}, "is_reserved": 0}, {"bike_id": "35c4302621dc59460581624e4f52559d", "name": "35c4302621dc59460581624e4f52559d", "lat": 38.904172833333334, "fusion_lat": 0.0, "type": "electric_scooter", "lon": -77.025863, "is_disabled": 0, "fusion_lon": 0.0, "rental_uris": {"android": "https://dc.lft.to/lastmile_qr_scan", "ios": "https://dc.lft.to/lastmile_qr_scan"}, "is_reserved": 0}, {"bike_id": "d3140118131b61d3f511a4db2aba9b6f", "name": "d3140118131b61d3f511a4db2aba9b6f", "lat": 38.93755516666667, "fusion_lat": 0.0, "type": "electric_scooter", "lon": -77.02463633333333, "is_disabled": 0, "fusion_lon": 0.0, "rental_uris": {"android": "https://dc.lft.to/lastmile_qr_scan", "ios": "https://dc.lft.to/lastmile_qr_scan"}, "is_reserved": 0}, {"bike_id": "e2a78a439562a79a78a7121bfe467ef8", "name": "e2a78a439562a79a78a7121bfe467ef8", "lat": 38.89486483333334, "fusion_lat": 0.0, "type": "electric_scooter", "lon": -77.0214245, "is_disabled": 0, "fusion_lon": 0.0, "rental_uris": {"android": "https://dc.lft.to/lastmile_qr_scan", "ios": "https://dc.lft.to/lastmile_qr_scan"}, "is_reserved": 0}, {"bike_id": "dc44f4894d7d845c1c505bb519683ac8", "name": "dc44f4894d7d845c1c505bb519683ac8", "lat": 38.93757766666667, "fusion_lat": 0.0, "type": "electric_scooter", "lon": -77.02837233333334, "is_disabled": 0, "fusion_lon": 0.0, "rental_uris": {"android": "https://dc.lft.to/lastmile_qr_scan", "ios": "https://dc.lft.to/lastmile_qr_scan"}, "is_reserved": 0}, {"bike_id": "c7057460cece91889da4a68ecd0a3a82", "name": "c7057460cece91889da4a68ecd0a3a82", "lat": 38.8935655, "fusion_lat": 0.0, "type": "electric_scooter", "lon": -77.0034035, "is_disabled": 0, "fusion_lon": 0.0, "rental_uris": {"android": "https://dc.lft.to/lastmile_qr_scan", "ios": "https://dc.lft.to/lastmile_qr_scan"}, "is_reserved": 0}, {"bike_id": "1f9dc6cdacc1ddf845b072a8918c9f31", "name": "1f9dc6cdacc1ddf845b072a8918c9f31", "lat": 38.92131033333333, "fusion_lat": 0.0, "type": "electric_scooter", "lon": -77.04588116666666, "is_disabled": 0, "fusion_lon": 0.0, "rental_uris": {"android": "https://dc.lft.to/lastmile_qr_scan", "ios": "https://dc.lft.to/lastmile_qr_scan"}, "is_reserved": 0}, {"bike_id": "e784e05d740102593c893e665358ac06", "name": "e784e05d740102593c893e665358ac06", "lat": 38.92042216666667, "fusion_lat": 0.0, "type": "electric_scooter", "lon": -77.01683233333333, "is_disabled": 0, "fusion_lon": 0.0, "rental_uris": {"android": "https://dc.lft.to/lastmile_qr_scan", "ios": "https://dc.lft.to/lastmile_qr_scan"}, "is_reserved": 0}, {"bike_id": "5aca9d4cfaf6552898f5f513031010d4", "name": "5aca9d4cfaf6552898f5f513031010d4", "lat": 38.95737166666667, "fusion_lat": 0.0, "type": "electric_scooter", "lon": -77.03025283333334, "is_disabled": 0, "fusion_lon": 0.0, "rental_uris": {"android": "https://dc.lft.to/lastmile_qr_scan", "ios": "https://dc.lft.to/lastmile_qr_scan"}, "is_reserved": 0}, {"bike_id": "1b13af39d2f997cd5f5778c35628852d", "name": "1b13af39d2f997cd5f5778c35628852d", "lat": 38.870132166666664, "fusion_lat": 0.0, "type": "electric_bike", "lon": -77.22998416666667, "is_disabled": 0, "fusion_lon": 0.0, "rental_uris": {"android": "https://dc.lft.to/lastmile_qr_scan", "ios": "https://dc.lft.to/lastmile_qr_scan"}, "is_reserved": 0}, {"bike_id": "f1d24fa8dd42be9a5f78df8d91ee24a8", "name": "f1d24fa8dd42be9a5f78df8d91ee24a8", "lat": 38.914805, "fusion_lat": 0.0, "type": "electric_scooter", "lon": -77.0323325, "is_disabled": 0, "fusion_lon": 0.0, "rental_uris": {"android": "https://dc.lft.to/lastmile_qr_scan", "ios": "https://dc.lft.to/lastmile_qr_scan"}, "is_reserved": 0}, {"bike_id": "17198faec4b51e329424a3cff2b15372", "name": "17198faec4b51e329424a3cff2b15372", "lat": 38.88527216666667, "fusion_lat": 0.0, "type": "electric_bike", "lon": -76.9982275, "is_disabled": 0, "fusion_lon": 0.0, "rental_uris": {"android": "https://dc.lft.to/lastmile_qr_scan", "ios": "https://dc.lft.to/lastmile_qr_scan"}, "is_reserved": 0}, {"bike_id": "682a5617e45129a8c384910ed6dd17d0", "name": "682a5617e45129a8c384910ed6dd17d0", "lat": 38.954752166666665, "fusion_lat": 0.0, "type": "electric_scooter", "lon": -77.01979166666666, "is_disabled": 0, "fusion_lon": 0.0, "rental_uris": {"android": "https://dc.lft.to/lastmile_qr_scan", "ios": "https://dc.lft.to/lastmile_qr_scan"}, "is_reserved": 0}, {"bike_id": "a89b7ba843dec15fee374a9be822d4ee", "name": "a89b7ba843dec15fee374a9be822d4ee", "lat": 38.883644833333335, "fusion_lat": 0.0, "type": "electric_scooter", "lon": -77.02007933333333, "is_disabled": 0, "fusion_lon": 0.0, "rental_uris": {"android": "https://dc.lft.to/lastmile_qr_scan", "ios": "https://dc.lft.to/lastmile_qr_scan"}, "is_reserved": 0}, {"bike_id": "8114297548d5902b14e44a41d5485040", "name": "8114297548d5902b14e44a41d5485040", "lat": 38.89526433333333, "fusion_lat": 0.0, "type": "electric_scooter", "lon": -77.04470883333333, "is_disabled": 0, "fusion_lon": 0.0, "rental_uris": {"android": "https://dc.lft.to/lastmile_qr_scan", "ios": "https://dc.lft.to/lastmile_qr_scan"}, "is_reserved": 0}, {"bike_id": "88a2a1f95c1f72913e7912b02face8b7", "name": "88a2a1f95c1f72913e7912b02face8b7", "lat": 38.906438, "fusion_lat": 0.0, "type": "electric_scooter", "lon": -76.99383016666667, "is_disabled": 0, "fusion_lon": 0.0, "rental_uris": {"android": "https://dc.lft.to/lastmile_qr_scan", "ios": "https://dc.lft.to/lastmile_qr_scan"}, "is_reserved": 0}, {"bike_id": "57a0b8a208a3833e717f731ea51adc1d", "name": "57a0b8a208a3833e717f731ea51adc1d", "lat": 39.08492183333333, "fusion_lat": 0.0, "type": "electric_bike", "lon": -76.95064683333334, "is_disabled": 0, "fusion_lon": 0.0, "rental_uris": {"android": "https://dc.lft.to/lastmile_qr_scan", "ios": "https://dc.lft.to/lastmile_qr_scan"}, "is_reserved": 0}, {"bike_id": "0117e340ca212605b17afac63ef57a57", "name": "0117e340ca212605b17afac63ef57a57", "lat": 38.94825383333333, "fusion_lat": 0.0, "type": "electric_scooter", "lon": -77.02617616666667, "is_disabled": 0, "fusion_lon": 0.0, "rental_uris": {"android": "https://dc.lft.to/lastmile_qr_scan", "ios": "https://dc.lft.to/lastmile_qr_scan"}, "is_reserved": 0}, {"bike_id": "b1a96af21477132775cda7b1b322720f", "name": "b1a96af21477132775cda7b1b322720f", "lat": 38.926039833333334, "fusion_lat": 0.0, "type": "electric_scooter", "lon": -77.021584, "is_disabled": 0, "fusion_lon": 0.0, "rental_uris": {"android": "https://dc.lft.to/lastmile_qr_scan", "ios": "https://dc.lft.to/lastmile_qr_scan"}, "is_reserved": 0}, {"bike_id": "809e767b85226c8e9924ed63c2d92612", "name": "809e767b85226c8e9924ed63c2d92612", "lat": 38.89917066666667, "fusion_lat": 0.0, "type": "electric_scooter", "lon": -76.978414, "is_disabled": 0, "fusion_lon": 0.0, "rental_uris": {"android": "https://dc.lft.to/lastmile_qr_scan", "ios": "https://dc.lft.to/lastmile_qr_scan"}, "is_reserved": 0}, {"bike_id": "1d1b4dbe8d2bbae3b7d5cf0d12e699c6", "name": "1d1b4dbe8d2bbae3b7d5cf0d12e699c6", "lat": 38.90133566666667, "fusion_lat": 0.0, "type": "electric_scooter", "lon": -77.028648, "is_disabled": 0, "fusion_lon": 0.0, "rental_uris": {"android": "https://dc.lft.to/lastmile_qr_scan", "ios": "https://dc.lft.to/lastmile_qr_scan"}, "is_reserved": 0}, {"bike_id": "0e280d01bd5d1455ad98310c942128a4", "name": "0e280d01bd5d1455ad98310c942128a4", "lat": 38.893449333333336, "fusion_lat": 0.0, "type": "electric_scooter", "lon": -77.011714, "is_disabled": 0, "fusion_lon": 0.0, "rental_uris": {"android": "https://dc.lft.to/lastmile_qr_scan", "ios": "https://dc.lft.to/lastmile_qr_scan"}, "is_reserved": 0}, {"bike_id": "39b187ce13b596d2b475934baa2262c8", "name": "39b187ce13b596d2b475934baa2262c8", "lat": 38.898301333333336, "fusion_lat": 0.0, "type": "electric_scooter", "lon": -77.04609266666667, "is_disabled": 0, "fusion_lon": 0.0, "rental_uris": {"android": "https://dc.lft.to/lastmile_qr_scan", "ios": "https://dc.lft.to/lastmile_qr_scan"}, "is_reserved": 0}, {"bike_id": "a343ee42be55cf7b445bf60902111a6a", "name": "a343ee42be55cf7b445bf60902111a6a", "lat": 38.916982833333336, "fusion_lat": 0.0, "type": "electric_scooter", "lon": -77.01075733333333, "is_disabled": 0, "fusion_lon": 0.0, "rental_uris": {"android": "https://dc.lft.to/lastmile_qr_scan", "ios": "https://dc.lft.to/lastmile_qr_scan"}, "is_reserved": 0}, {"bike_id": "17cecefade41442bb5aa5de1dd778c57", "name": "17cecefade41442bb5aa5de1dd778c57", "lat": 38.914190166666664, "fusion_lat": 0.0, "type": "electric_scooter", "lon": -77.02195183333333, "is_disabled": 0, "fusion_lon": 0.0, "rental_uris": {"android": "https://dc.lft.to/lastmile_qr_scan", "ios": "https://dc.lft.to/lastmile_qr_scan"}, "is_reserved": 0}, {"bike_id": "9e9a4404d012472e176932e45ec38607", "name": "9e9a4404d012472e176932e45ec38607", "lat": 38.91706333333333, "fusion_lat": 0.0, "type": "electric_scooter", "lon": -77.0372465, "is_disabled": 0, "fusion_lon": 0.0, "rental_uris": {"android": "https://dc.lft.to/lastmile_qr_scan", "ios": "https://dc.lft.to/lastmile_qr_scan"}, "is_reserved": 0}, {"bike_id": "9b3ab54de12c4a719b32bcfcf97d0b08", "name": "9b3ab54de12c4a719b32bcfcf97d0b08", "lat": 38.881255333333335, "fusion_lat": 0.0, "type": "electric_scooter", "lon": -76.99635716666667, "is_disabled": 0, "fusion_lon": 0.0, "rental_uris": {"android": "https://dc.lft.to/lastmile_qr_scan", "ios": "https://dc.lft.to/lastmile_qr_scan"}, "is_reserved": 0}, {"bike_id": "8a3cb2bd1708c4d91ac56f85601b6b08", "name": "8a3cb2bd1708c4d91ac56f85601b6b08", "lat": 38.883146333333336, "fusion_lat": 0.0, "type": "electric_scooter", "lon": -77.002009, "is_disabled": 0, "fusion_lon": 0.0, "rental_uris": {"android": "https://dc.lft.to/lastmile_qr_scan", "ios": "https://dc.lft.to/lastmile_qr_scan"}, "is_reserved": 0}, {"bike_id": "56825ec1baeda84c46b3efe4230c2ef3", "name": "56825ec1baeda84c46b3efe4230c2ef3", "lat": 38.956514166666665, "fusion_lat": 0.0, "type": "electric_scooter", "lon": -77.01282733333333, "is_disabled": 0, "fusion_lon": 0.0, "rental_uris": {"android": "https://dc.lft.to/lastmile_qr_scan", "ios": "https://dc.lft.to/lastmile_qr_scan"}, "is_reserved": 0}, {"bike_id": "e03790e7e5991cb5761821c2e9ccd7e5", "name": "e03790e7e5991cb5761821c2e9ccd7e5", "lat": 38.915304, "fusion_lat": 0.0, "type": "electric_scooter", "lon": -77.02178283333333, "is_disabled": 0, "fusion_lon": 0.0, "rental_uris": {"android": "https://dc.lft.to/lastmile_qr_scan", "ios": "https://dc.lft.to/lastmile_qr_scan"}, "is_reserved": 0}, {"bike_id": "f3c5d08f4d3a3028c7f3fb2abfd8b141", "name": "f3c5d08f4d3a3028c7f3fb2abfd8b141", "lat": 38.9071655, "fusion_lat": 0.0, "type": "electric_scooter", "lon": -77.00202683333333, "is_disabled": 0, "fusion_lon": 0.0, "rental_uris": {"android": "https://dc.lft.to/lastmile_qr_scan", "ios": "https://dc.lft.to/lastmile_qr_scan"}, "is_reserved": 0}, {"bike_id": "791f3032b26494aa3ffd99be90356aea", "name": "791f3032b26494aa3ffd99be90356aea", "lat": 38.881126333333334, "fusion_lat": 0.0, "type": "electric_scooter", "lon": -77.016903, "is_disabled": 0, "fusion_lon": 0.0, "rental_uris": {"android": "https://dc.lft.to/lastmile_qr_scan", "ios": "https://dc.lft.to/lastmile_qr_scan"}, "is_reserved": 0}, {"bike_id": "ef586d59f1159ae5dc1da6c283b3a573", "name": "ef586d59f1159ae5dc1da6c283b3a573", "lat": 38.831558666666666, "fusion_lat": 0.0, "type": "electric_bike", "lon": -76.9954685, "is_disabled": 0, "fusion_lon": 0.0, "rental_uris": {"android": "https://dc.lft.to/lastmile_qr_scan", "ios": "https://dc.lft.to/lastmile_qr_scan"}, "is_reserved": 0}, {"bike_id": "72a9058acc1cc02dfb4cf393d457ac01", "name": "72a9058acc1cc02dfb4cf393d457ac01", "lat": 38.921813666666665, "fusion_lat": 0.0, "type": "electric_scooter", "lon": -77.0423405, "is_disabled": 0, "fusion_lon": 0.0, "rental_uris": {"android": "https://dc.lft.to/lastmile_qr_scan", "ios": "https://dc.lft.to/lastmile_qr_scan"}, "is_reserved": 0}, {"bike_id": "46e167d62eb3a1f2d9eaafeecedd1994", "name": "46e167d62eb3a1f2d9eaafeecedd1994", "lat": 38.89541416666667, "fusion_lat": 0.0, "type": "electric_scooter", "lon": -76.98290366666667, "is_disabled": 0, "fusion_lon": 0.0, "rental_uris": {"android": "https://dc.lft.to/lastmile_qr_scan", "ios": "https://dc.lft.to/lastmile_qr_scan"}, "is_reserved": 0}, {"bike_id": "7a1631ce23653ab2cf176a8417e12349", "name": "7a1631ce23653ab2cf176a8417e12349", "lat": 38.89796666666667, "fusion_lat": 0.0, "type": "electric_scooter", "lon": -77.01192666666667, "is_disabled": 0, "fusion_lon": 0.0, "rental_uris": {"android": "https://dc.lft.to/lastmile_qr_scan", "ios": "https://dc.lft.to/lastmile_qr_scan"}, "is_reserved": 0}, {"bike_id": "4f993fc51c775fb64eadf5ab3ee0fa58", "name": "4f993fc51c775fb64eadf5ab3ee0fa58", "lat": 38.89740883333333, "fusion_lat": 0.0, "type": "electric_scooter", "lon": -77.018716, "is_disabled": 0, "fusion_lon": 0.0, "rental_uris": {"android": "https://dc.lft.to/lastmile_qr_scan", "ios": "https://dc.lft.to/lastmile_qr_scan"}, "is_reserved": 0}, {"bike_id": "4d49966547f620801f9774ee719e60b0", "name": "4d49966547f620801f9774ee719e60b0", "lat": 38.90260266666667, "fusion_lat": 0.0, "type": "electric_scooter", "lon": -77.038695, "is_disabled": 0, "fusion_lon": 0.0, "rental_uris": {"android": "https://dc.lft.to/lastmile_qr_scan", "ios": "https://dc.lft.to/lastmile_qr_scan"}, "is_reserved": 0}, {"bike_id": "58f99f9aadfec6f810583338bb5efd40", "name": "58f99f9aadfec6f810583338bb5efd40", "lat": 38.91623583333333, "fusion_lat": 0.0, "type": "electric_scooter", "lon": -77.02808666666667, "is_disabled": 0, "fusion_lon": 0.0, "rental_uris": {"android": "https://dc.lft.to/lastmile_qr_scan", "ios": "https://dc.lft.to/lastmile_qr_scan"}, "is_reserved": 0}, {"bike_id": "fda99f0b1f071d59a7760cfc298deca4", "name": "fda99f0b1f071d59a7760cfc298deca4", "lat": 38.90978483333333, "fusion_lat": 0.0, "type": "electric_scooter", "lon": -77.04884883333334, "is_disabled": 0, "fusion_lon": 0.0, "rental_uris": {"android": "https://dc.lft.to/lastmile_qr_scan", "ios": "https://dc.lft.to/lastmile_qr_scan"}, "is_reserved": 0}, {"bike_id": "91e0968b71cb8f23b2f1d5f2adf24b0b", "name": "91e0968b71cb8f23b2f1d5f2adf24b0b", "lat": 38.91712233333333, "fusion_lat": 0.0, "type": "electric_scooter", "lon": -77.02678066666667, "is_disabled": 0, "fusion_lon": 0.0, "rental_uris": {"android": "https://dc.lft.to/lastmile_qr_scan", "ios": "https://dc.lft.to/lastmile_qr_scan"}, "is_reserved": 0}, {"bike_id": "cd450c06d050264a2e730100d9c47927", "name": "cd450c06d050264a2e730100d9c47927", "lat": 38.91126966666667, "fusion_lat": 0.0, "type": "electric_scooter", "lon": -77.0318285, "is_disabled": 0, "fusion_lon": 0.0, "rental_uris": {"android": "https://dc.lft.to/lastmile_qr_scan", "ios": "https://dc.lft.to/lastmile_qr_scan"}, "is_reserved": 0}, {"bike_id": "817d7ff41a56eb08b3901ec007505323", "name": "817d7ff41a56eb08b3901ec007505323", "lat": 38.89883233333333, "fusion_lat": 0.0, "type": "electric_scooter", "lon": -76.98837483333334, "is_disabled": 0, "fusion_lon": 0.0, "rental_uris": {"android": "https://dc.lft.to/lastmile_qr_scan", "ios": "https://dc.lft.to/lastmile_qr_scan"}, "is_reserved": 0}, {"bike_id": "b9b2f9bafd4acba6e6d58791adc95c6f", "name": "b9b2f9bafd4acba6e6d58791adc95c6f", "lat": 38.940294333333334, "fusion_lat": 0.0, "type": "electric_scooter", "lon": -77.02514216666667, "is_disabled": 0, "fusion_lon": 0.0, "rental_uris": {"android": "https://dc.lft.to/lastmile_qr_scan", "ios": "https://dc.lft.to/lastmile_qr_scan"}, "is_reserved": 0}, {"bike_id": "cb649950752d469d413e6c6bb552b02d", "name": "cb649950752d469d413e6c6bb552b02d", "lat": 38.92414683333333, "fusion_lat": 0.0, "type": "electric_scooter", "lon": -77.01946633333333, "is_disabled": 0, "fusion_lon": 0.0, "rental_uris": {"android": "https://dc.lft.to/lastmile_qr_scan", "ios": "https://dc.lft.to/lastmile_qr_scan"}, "is_reserved": 0}, {"bike_id": "57123758b4ee3ca115673a62216f2c4e", "name": "57123758b4ee3ca115673a62216f2c4e", "lat": 38.92359916666667, "fusion_lat": 0.0, "type": "electric_scooter", "lon": -77.04333283333334, "is_disabled": 0, "fusion_lon": 0.0, "rental_uris": {"android": "https://dc.lft.to/lastmile_qr_scan", "ios": "https://dc.lft.to/lastmile_qr_scan"}, "is_reserved": 0}, {"bike_id": "0b8645c2df67543926145977d2148def", "name": "0b8645c2df67543926145977d2148def", "lat": 38.89545183333333, "fusion_lat": 0.0, "type": "electric_scooter", "lon": -76.983394, "is_disabled": 0, "fusion_lon": 0.0, "rental_uris": {"android": "https://dc.lft.to/lastmile_qr_scan", "ios": "https://dc.lft.to/lastmile_qr_scan"}, "is_reserved": 0}, {"bike_id": "df80070296c947e9f48020c951442cc9", "name": "df80070296c947e9f48020c951442cc9", "lat": 38.9337185, "fusion_lat": 0.0, "type": "electric_scooter", "lon": -77.02033216666666, "is_disabled": 0, "fusion_lon": 0.0, "rental_uris": {"android": "https://dc.lft.to/lastmile_qr_scan", "ios": "https://dc.lft.to/lastmile_qr_scan"}, "is_reserved": 0}, {"bike_id": "e80c9bee2bd2f5532307c7bb8c0f42ee", "name": "e80c9bee2bd2f5532307c7bb8c0f42ee", "lat": 38.89736166666667, "fusion_lat": 0.0, "type": "electric_scooter", "lon": -77.0336125, "is_disabled": 0, "fusion_lon": 0.0, "rental_uris": {"android": "https://dc.lft.to/lastmile_qr_scan", "ios": "https://dc.lft.to/lastmile_qr_scan"}, "is_reserved": 0}, {"bike_id": "0532a3efd25117876f5813eda69faa58", "name": "0532a3efd25117876f5813eda69faa58", "lat": 38.872892666666665, "fusion_lat": 0.0, "type": "electric_scooter", "lon": -77.00986383333333, "is_disabled": 0, "fusion_lon": 0.0, "rental_uris": {"android": "https://dc.lft.to/lastmile_qr_scan", "ios": "https://dc.lft.to/lastmile_qr_scan"}, "is_reserved": 0}, {"bike_id": "d122e432138a638ed84d1f5a22faee0f", "name": "d122e432138a638ed84d1f5a22faee0f", "lat": 38.90394666666667, "fusion_lat": 0.0, "type": "electric_scooter", "lon": -77.018625, "is_disabled": 0, "fusion_lon": 0.0, "rental_uris": {"android": "https://dc.lft.to/lastmile_qr_scan", "ios": "https://dc.lft.to/lastmile_qr_scan"}, "is_reserved": 0}, {"bike_id": "1d5ce309ef1b42abab57a863f39198e8", "name": "1d5ce309ef1b42abab57a863f39198e8", "lat": 38.92781766666667, "fusion_lat": 0.0, "type": "electric_scooter", "lon": -77.030826, "is_disabled": 0, "fusion_lon": 0.0, "rental_uris": {"android": "https://dc.lft.to/lastmile_qr_scan", "ios": "https://dc.lft.to/lastmile_qr_scan"}, "is_reserved": 0}, {"bike_id": "4a4a910d7d854885bc8b8b2ba972cf77", "name": "4a4a910d7d854885bc8b8b2ba972cf77", "lat": 38.902626, "fusion_lat": 0.0, "type": "electric_scooter", "lon": -77.04581633333333, "is_disabled": 0, "fusion_lon": 0.0, "rental_uris": {"android": "https://dc.lft.to/lastmile_qr_scan", "ios": "https://dc.lft.to/lastmile_qr_scan"}, "is_reserved": 0}, {"bike_id": "aa451f58fb48c12adb8d81a29b09ad28", "name": "aa451f58fb48c12adb8d81a29b09ad28", "lat": 38.916938, "fusion_lat": 0.0, "type": "electric_scooter", "lon": -77.05292716666666, "is_disabled": 0, "fusion_lon": 0.0, "rental_uris": {"android": "https://dc.lft.to/lastmile_qr_scan", "ios": "https://dc.lft.to/lastmile_qr_scan"}, "is_reserved": 0}, {"bike_id": "a9340a320881f06ed4630bf002cf2d83", "name": "a9340a320881f06ed4630bf002cf2d83", "lat": 38.925542666666665, "fusion_lat": 0.0, "type": "electric_scooter", "lon": -76.9814795, "is_disabled": 0, "fusion_lon": 0.0, "rental_uris": {"android": "https://dc.lft.to/lastmile_qr_scan", "ios": "https://dc.lft.to/lastmile_qr_scan"}, "is_reserved": 0}, {"bike_id": "2e44dd065c6c4ac8fc5beca9b2e86ee0", "name": "2e44dd065c6c4ac8fc5beca9b2e86ee0", "lat": 38.923732333333334, "fusion_lat": 0.0, "type": "electric_scooter", "lon": -77.0408, "is_disabled": 0, "fusion_lon": 0.0, "rental_uris": {"android": "https://dc.lft.to/lastmile_qr_scan", "ios": "https://dc.lft.to/lastmile_qr_scan"}, "is_reserved": 0}, {"bike_id": "330a5dfc95d5ed3e051f2d97d8109124", "name": "330a5dfc95d5ed3e051f2d97d8109124", "lat": 38.904031, "fusion_lat": 0.0, "type": "electric_scooter", "lon": -76.973501, "is_disabled": 0, "fusion_lon": 0.0, "rental_uris": {"android": "https://dc.lft.to/lastmile_qr_scan", "ios": "https://dc.lft.to/lastmile_qr_scan"}, "is_reserved": 0}, {"bike_id": "e5aab4b28c019be385a85c022458ae87", "name": "e5aab4b28c019be385a85c022458ae87", "lat": 38.90710266666667, "fusion_lat": 0.0, "type": "electric_scooter", "lon": -77.02388783333333, "is_disabled": 0, "fusion_lon": 0.0, "rental_uris": {"android": "https://dc.lft.to/lastmile_qr_scan", "ios": "https://dc.lft.to/lastmile_qr_scan"}, "is_reserved": 0}, {"bike_id": "ad381c2082179b8f685a3f7659423d5a", "name": "ad381c2082179b8f685a3f7659423d5a", "lat": 38.911276, "fusion_lat": 0.0, "type": "electric_scooter", "lon": -77.03836333333334, "is_disabled": 0, "fusion_lon": 0.0, "rental_uris": {"android": "https://dc.lft.to/lastmile_qr_scan", "ios": "https://dc.lft.to/lastmile_qr_scan"}, "is_reserved": 0}, {"bike_id": "c0f6edacb6a40c4a50e3e4b47bab05d3", "name": "c0f6edacb6a40c4a50e3e4b47bab05d3", "lat": 38.92419566666667, "fusion_lat": 0.0, "type": "electric_scooter", "lon": -77.0195175, "is_disabled": 0, "fusion_lon": 0.0, "rental_uris": {"android": "https://dc.lft.to/lastmile_qr_scan", "ios": "https://dc.lft.to/lastmile_qr_scan"}, "is_reserved": 0}, {"bike_id": "4f36144d94d85e49e759da0c15260d25", "name": "4f36144d94d85e49e759da0c15260d25", "lat": 38.913626666666666, "fusion_lat": 0.0, "type": "electric_scooter", "lon": -77.02001333333334, "is_disabled": 0, "fusion_lon": 0.0, "rental_uris": {"android": "https://dc.lft.to/lastmile_qr_scan", "ios": "https://dc.lft.to/lastmile_qr_scan"}, "is_reserved": 0}, {"bike_id": "25b1e1056b5e1b4646c4adb76c750a8d", "name": "25b1e1056b5e1b4646c4adb76c750a8d", "lat": 38.86015583333333, "fusion_lat": 0.0, "type": "electric_scooter", "lon": -76.97003566666666, "is_disabled": 0, "fusion_lon": 0.0, "rental_uris": {"android": "https://dc.lft.to/lastmile_qr_scan", "ios": "https://dc.lft.to/lastmile_qr_scan"}, "is_reserved": 0}, {"bike_id": "c3bb046b19aea27fcc5087295cdeb4ea", "name": "c3bb046b19aea27fcc5087295cdeb4ea", "lat": 38.966767, "fusion_lat": 0.0, "type": "electric_scooter", "lon": -77.0361135, "is_disabled": 0, "fusion_lon": 0.0, "rental_uris": {"android": "https://dc.lft.to/lastmile_qr_scan", "ios": "https://dc.lft.to/lastmile_qr_scan"}, "is_reserved": 0}, {"bike_id": "3824105f19bb07b310ad21ed3b41cc25", "name": "3824105f19bb07b310ad21ed3b41cc25", "lat": 38.9021945, "fusion_lat": 0.0, "type": "electric_scooter", "lon": -77.02370883333333, "is_disabled": 0, "fusion_lon": 0.0, "rental_uris": {"android": "https://dc.lft.to/lastmile_qr_scan", "ios": "https://dc.lft.to/lastmile_qr_scan"}, "is_reserved": 0}, {"bike_id": "5e960cb37757e3087d709135f5043ed3", "name": "5e960cb37757e3087d709135f5043ed3", "lat": 38.89536833333333, "fusion_lat": 0.0, "type": "electric_scooter", "lon": -76.92777383333333, "is_disabled": 0, "fusion_lon": 0.0, "rental_uris": {"android": "https://dc.lft.to/lastmile_qr_scan", "ios": "https://dc.lft.to/lastmile_qr_scan"}, "is_reserved": 0}, {"bike_id": "ba3035178d64b5ba01ba7a375ed57cd2", "name": "ba3035178d64b5ba01ba7a375ed57cd2", "lat": 38.91634283333333, "fusion_lat": 0.0, "type": "electric_scooter", "lon": -77.02550733333334, "is_disabled": 0, "fusion_lon": 0.0, "rental_uris": {"android": "https://dc.lft.to/lastmile_qr_scan", "ios": "https://dc.lft.to/lastmile_qr_scan"}, "is_reserved": 0}, {"bike_id": "bf568f8439cf7fd7f838b95ed29f7c36", "name": "bf568f8439cf7fd7f838b95ed29f7c36", "lat": 38.911223666666665, "fusion_lat": 0.0, "type": "electric_scooter", "lon": -77.02193733333333, "is_disabled": 0, "fusion_lon": 0.0, "rental_uris": {"android": "https://dc.lft.to/lastmile_qr_scan", "ios": "https://dc.lft.to/lastmile_qr_scan"}, "is_reserved": 0}, {"bike_id": "14841f413630f422b088bfd380c15863", "name": "14841f413630f422b088bfd380c15863", "lat": 38.951799333333334, "fusion_lat": 0.0, "type": "electric_scooter", "lon": -77.01261416666667, "is_disabled": 0, "fusion_lon": 0.0, "rental_uris": {"android": "https://dc.lft.to/lastmile_qr_scan", "ios": "https://dc.lft.to/lastmile_qr_scan"}, "is_reserved": 0}, {"bike_id": "fe4d4128f735d898adf121c267308ba8", "name": "fe4d4128f735d898adf121c267308ba8", "lat": 38.908961166666664, "fusion_lat": 0.0, "type": "electric_scooter", "lon": -76.99867733333333, "is_disabled": 0, "fusion_lon": 0.0, "rental_uris": {"android": "https://dc.lft.to/lastmile_qr_scan", "ios": "https://dc.lft.to/lastmile_qr_scan"}, "is_reserved": 0}, {"bike_id": "0eb872b0901359de0d30455c6e466a2a", "name": "0eb872b0901359de0d30455c6e466a2a", "lat": 38.89544583333333, "fusion_lat": 0.0, "type": "electric_scooter", "lon": -76.983356, "is_disabled": 0, "fusion_lon": 0.0, "rental_uris": {"android": "https://dc.lft.to/lastmile_qr_scan", "ios": "https://dc.lft.to/lastmile_qr_scan"}, "is_reserved": 0}, {"bike_id": "f4692d2e5bbfceec77ed6a3fb83b4eee", "name": "f4692d2e5bbfceec77ed6a3fb83b4eee", "lat": 38.93102066666667, "fusion_lat": 0.0, "type": "electric_scooter", "lon": -77.02402966666666, "is_disabled": 0, "fusion_lon": 0.0, "rental_uris": {"android": "https://dc.lft.to/lastmile_qr_scan", "ios": "https://dc.lft.to/lastmile_qr_scan"}, "is_reserved": 0}, {"bike_id": "c4ffea9e7c2b4e60199b031c73b85563", "name": "c4ffea9e7c2b4e60199b031c73b85563", "lat": 38.94241616666667, "fusion_lat": 0.0, "type": "electric_scooter", "lon": -77.03584383333333, "is_disabled": 0, "fusion_lon": 0.0, "rental_uris": {"android": "https://dc.lft.to/lastmile_qr_scan", "ios": "https://dc.lft.to/lastmile_qr_scan"}, "is_reserved": 0}, {"bike_id": "34a42436e753d9acaafdf8aad12d5d9b", "name": "34a42436e753d9acaafdf8aad12d5d9b", "lat": 38.86370066666667, "fusion_lat": 0.0, "type": "electric_bike", "lon": -76.97006466666667, "is_disabled": 0, "fusion_lon": 0.0, "rental_uris": {"android": "https://dc.lft.to/lastmile_qr_scan", "ios": "https://dc.lft.to/lastmile_qr_scan"}, "is_reserved": 0}, {"bike_id": "73c99e676ab72213d9d93b7ea359e0aa", "name": "73c99e676ab72213d9d93b7ea359e0aa", "lat": 38.88721833333334, "fusion_lat": 0.0, "type": "electric_scooter", "lon": -76.98362483333334, "is_disabled": 0, "fusion_lon": 0.0, "rental_uris": {"android": "https://dc.lft.to/lastmile_qr_scan", "ios": "https://dc.lft.to/lastmile_qr_scan"}, "is_reserved": 0}, {"bike_id": "679ba6b95c619965582bbe09567c8cb6", "name": "679ba6b95c619965582bbe09567c8cb6", "lat": 38.922799, "fusion_lat": 0.0, "type": "electric_scooter", "lon": -77.036596, "is_disabled": 0, "fusion_lon": 0.0, "rental_uris": {"android": "https://dc.lft.to/lastmile_qr_scan", "ios": "https://dc.lft.to/lastmile_qr_scan"}, "is_reserved": 0}, {"bike_id": "8ac86acfa571aeaed277b69e3609d575", "name": "8ac86acfa571aeaed277b69e3609d575", "lat": 38.909690499999996, "fusion_lat": 0.0, "type": "electric_scooter", "lon": -77.02582683333333, "is_disabled": 0, "fusion_lon": 0.0, "rental_uris": {"android": "https://dc.lft.to/lastmile_qr_scan", "ios": "https://dc.lft.to/lastmile_qr_scan"}, "is_reserved": 0}, {"bike_id": "9012689afe6eccb3a0ccf5ec4552e5ce", "name": "9012689afe6eccb3a0ccf5ec4552e5ce", "lat": 38.91817066666667, "fusion_lat": 0.0, "type": "electric_scooter", "lon": -77.03026616666666, "is_disabled": 0, "fusion_lon": 0.0, "rental_uris": {"android": "https://dc.lft.to/lastmile_qr_scan", "ios": "https://dc.lft.to/lastmile_qr_scan"}, "is_reserved": 0}, {"bike_id": "5cfb93bffb5ffa59d35d48beff7f6559", "name": "5cfb93bffb5ffa59d35d48beff7f6559", "lat": 38.896114833333336, "fusion_lat": 0.0, "type": "electric_scooter", "lon": -77.04415266666666, "is_disabled": 0, "fusion_lon": 0.0, "rental_uris": {"android": "https://dc.lft.to/lastmile_qr_scan", "ios": "https://dc.lft.to/lastmile_qr_scan"}, "is_reserved": 0}, {"bike_id": "0b1bb8fc70e40a93b8d027580524b695", "name": "0b1bb8fc70e40a93b8d027580524b695", "lat": 38.929438166666664, "fusion_lat": 0.0, "type": "electric_scooter", "lon": -77.00408283333333, "is_disabled": 0, "fusion_lon": 0.0, "rental_uris": {"android": "https://dc.lft.to/lastmile_qr_scan", "ios": "https://dc.lft.to/lastmile_qr_scan"}, "is_reserved": 0}, {"bike_id": "7429417419942b60b3d473055426779a", "name": "7429417419942b60b3d473055426779a", "lat": 38.91655683333333, "fusion_lat": 0.0, "type": "electric_scooter", "lon": -77.031965, "is_disabled": 0, "fusion_lon": 0.0, "rental_uris": {"android": "https://dc.lft.to/lastmile_qr_scan", "ios": "https://dc.lft.to/lastmile_qr_scan"}, "is_reserved": 0}, {"bike_id": "afceccc057ff2db345832ca9cc966269", "name": "afceccc057ff2db345832ca9cc966269", "lat": 38.90989283333333, "fusion_lat": 0.0, "type": "electric_scooter", "lon": -77.04003266666666, "is_disabled": 0, "fusion_lon": 0.0, "rental_uris": {"android": "https://dc.lft.to/lastmile_qr_scan", "ios": "https://dc.lft.to/lastmile_qr_scan"}, "is_reserved": 0}, {"bike_id": "871b62d37f4dca5d0fd1439fc1874082", "name": "871b62d37f4dca5d0fd1439fc1874082", "lat": 38.88118216666667, "fusion_lat": 0.0, "type": "electric_scooter", "lon": -77.016955, "is_disabled": 0, "fusion_lon": 0.0, "rental_uris": {"android": "https://dc.lft.to/lastmile_qr_scan", "ios": "https://dc.lft.to/lastmile_qr_scan"}, "is_reserved": 0}, {"bike_id": "38c644d62dc4bb11e242218f03865077", "name": "38c644d62dc4bb11e242218f03865077", "lat": 38.905606666666664, "fusion_lat": 0.0, "type": "electric_scooter", "lon": -77.00583316666666, "is_disabled": 0, "fusion_lon": 0.0, "rental_uris": {"android": "https://dc.lft.to/lastmile_qr_scan", "ios": "https://dc.lft.to/lastmile_qr_scan"}, "is_reserved": 0}, {"bike_id": "af38e3e237bdfe375e8e09f990e2c961", "name": "af38e3e237bdfe375e8e09f990e2c961", "lat": 38.90063633333333, "fusion_lat": 0.0, "type": "electric_scooter", "lon": -76.92744083333334, "is_disabled": 0, "fusion_lon": 0.0, "rental_uris": {"android": "https://dc.lft.to/lastmile_qr_scan", "ios": "https://dc.lft.to/lastmile_qr_scan"}, "is_reserved": 0}, {"bike_id": "a8507d1be92f7dac98ecfeceffe4c791", "name": "a8507d1be92f7dac98ecfeceffe4c791", "lat": 38.917909333333334, "fusion_lat": 0.0, "type": "electric_scooter", "lon": -77.03201883333334, "is_disabled": 0, "fusion_lon": 0.0, "rental_uris": {"android": "https://dc.lft.to/lastmile_qr_scan", "ios": "https://dc.lft.to/lastmile_qr_scan"}, "is_reserved": 0}, {"bike_id": "1adc1220ef6cf363c42405d4cf707323", "name": "1adc1220ef6cf363c42405d4cf707323", "lat": 38.92855616666667, "fusion_lat": 0.0, "type": "electric_scooter", "lon": -77.03054, "is_disabled": 0, "fusion_lon": 0.0, "rental_uris": {"android": "https://dc.lft.to/lastmile_qr_scan", "ios": "https://dc.lft.to/lastmile_qr_scan"}, "is_reserved": 0}, {"bike_id": "f5b646064b11b321d3565c6337aea8a3", "name": "f5b646064b11b321d3565c6337aea8a3", "lat": 38.915714333333334, "fusion_lat": 0.0, "type": "electric_scooter", "lon": -77.022059, "is_disabled": 0, "fusion_lon": 0.0, "rental_uris": {"android": "https://dc.lft.to/lastmile_qr_scan", "ios": "https://dc.lft.to/lastmile_qr_scan"}, "is_reserved": 0}, {"bike_id": "f076f3d52dea69bc40f23bb03c8830be", "name": "f076f3d52dea69bc40f23bb03c8830be", "lat": 38.9202585, "fusion_lat": 0.0, "type": "electric_scooter", "lon": -76.985459, "is_disabled": 0, "fusion_lon": 0.0, "rental_uris": {"android": "https://dc.lft.to/lastmile_qr_scan", "ios": "https://dc.lft.to/lastmile_qr_scan"}, "is_reserved": 0}, {"bike_id": "b851596239031cf87c893694799b6313", "name": "b851596239031cf87c893694799b6313", "lat": 38.887738666666664, "fusion_lat": 0.0, "type": "electric_scooter", "lon": -76.9326275, "is_disabled": 0, "fusion_lon": 0.0, "rental_uris": {"android": "https://dc.lft.to/lastmile_qr_scan", "ios": "https://dc.lft.to/lastmile_qr_scan"}, "is_reserved": 0}, {"bike_id": "1bc85526d0e70e7a93f7f8fb4f9f642d", "name": "1bc85526d0e70e7a93f7f8fb4f9f642d", "lat": 38.887612833333336, "fusion_lat": 0.0, "type": "electric_bike", "lon": -76.900832, "is_disabled": 0, "fusion_lon": 0.0, "rental_uris": {"android": "https://dc.lft.to/lastmile_qr_scan", "ios": "https://dc.lft.to/lastmile_qr_scan"}, "is_reserved": 0}, {"bike_id": "f2236a60bc98bfd1ece4b2bc73a28715", "name": "f2236a60bc98bfd1ece4b2bc73a28715", "lat": 38.919495833333336, "fusion_lat": 0.0, "type": "electric_scooter", "lon": -77.031959, "is_disabled": 0, "fusion_lon": 0.0, "rental_uris": {"android": "https://dc.lft.to/lastmile_qr_scan", "ios": "https://dc.lft.to/lastmile_qr_scan"}, "is_reserved": 0}, {"bike_id": "b832e68c3052437404001dbfee1ef19d", "name": "b832e68c3052437404001dbfee1ef19d", "lat": 38.9236485, "fusion_lat": 0.0, "type": "electric_scooter", "lon": -77.05030933333333, "is_disabled": 0, "fusion_lon": 0.0, "rental_uris": {"android": "https://dc.lft.to/lastmile_qr_scan", "ios": "https://dc.lft.to/lastmile_qr_scan"}, "is_reserved": 0}, {"bike_id": "d35b294806a3e3d590b65478fb69988d", "name": "d35b294806a3e3d590b65478fb69988d", "lat": 38.966716, "fusion_lat": 0.0, "type": "electric_bike", "lon": -77.0230945, "is_disabled": 0, "fusion_lon": 0.0, "rental_uris": {"android": "https://dc.lft.to/lastmile_qr_scan", "ios": "https://dc.lft.to/lastmile_qr_scan"}, "is_reserved": 0}, {"bike_id": "c27696589b0d9adbc60360f17e7bb52d", "name": "c27696589b0d9adbc60360f17e7bb52d", "lat": 38.897102333333336, "fusion_lat": 0.0, "type": "electric_scooter", "lon": -76.991191, "is_disabled": 0, "fusion_lon": 0.0, "rental_uris": {"android": "https://dc.lft.to/lastmile_qr_scan", "ios": "https://dc.lft.to/lastmile_qr_scan"}, "is_reserved": 0}, {"bike_id": "c8914cabecba1519bfd6a637964b0a16", "name": "c8914cabecba1519bfd6a637964b0a16", "lat": 38.936355666666664, "fusion_lat": 0.0, "type": "electric_scooter", "lon": -77.0600725, "is_disabled": 0, "fusion_lon": 0.0, "rental_uris": {"android": "https://dc.lft.to/lastmile_qr_scan", "ios": "https://dc.lft.to/lastmile_qr_scan"}, "is_reserved": 0}, {"bike_id": "cc0e5c9ef0196a1b2745928c6abfa0b1", "name": "cc0e5c9ef0196a1b2745928c6abfa0b1", "lat": 38.925465333333335, "fusion_lat": 0.0, "type": "electric_scooter", "lon": -77.0529805, "is_disabled": 0, "fusion_lon": 0.0, "rental_uris": {"android": "https://dc.lft.to/lastmile_qr_scan", "ios": "https://dc.lft.to/lastmile_qr_scan"}, "is_reserved": 0}, {"bike_id": "ba22c42228ad7ab5368864200410cdfa", "name": "ba22c42228ad7ab5368864200410cdfa", "lat": 38.903788666666664, "fusion_lat": 0.0, "type": "electric_scooter", "lon": -76.998553, "is_disabled": 0, "fusion_lon": 0.0, "rental_uris": {"android": "https://dc.lft.to/lastmile_qr_scan", "ios": "https://dc.lft.to/lastmile_qr_scan"}, "is_reserved": 0}, {"bike_id": "ae6bd737da0b5188b5e5ef3f09bd15f8", "name": "ae6bd737da0b5188b5e5ef3f09bd15f8", "lat": 38.901235666666665, "fusion_lat": 0.0, "type": "electric_bike", "lon": -77.03877233333333, "is_disabled": 0, "fusion_lon": 0.0, "rental_uris": {"android": "https://dc.lft.to/lastmile_qr_scan", "ios": "https://dc.lft.to/lastmile_qr_scan"}, "is_reserved": 0}, {"bike_id": "576f6001756372f6a1b473e168ddbbaf", "name": "576f6001756372f6a1b473e168ddbbaf", "lat": 38.86447866666666, "fusion_lat": 0.0, "type": "electric_scooter", "lon": -76.9911535, "is_disabled": 0, "fusion_lon": 0.0, "rental_uris": {"android": "https://dc.lft.to/lastmile_qr_scan", "ios": "https://dc.lft.to/lastmile_qr_scan"}, "is_reserved": 0}, {"bike_id": "3ef6fd60c8fd364244611f2072903093", "name": "3ef6fd60c8fd364244611f2072903093", "lat": 39.094437166666665, "fusion_lat": 0.0, "type": "electric_bike", "lon": -77.13461816666667, "is_disabled": 0, "fusion_lon": 0.0, "rental_uris": {"android": "https://dc.lft.to/lastmile_qr_scan", "ios": "https://dc.lft.to/lastmile_qr_scan"}, "is_reserved": 0}, {"bike_id": "218d077b05ba5dee36435d8c710b1adb", "name": "218d077b05ba5dee36435d8c710b1adb", "lat": 38.92070366666667, "fusion_lat": 0.0, "type": "electric_scooter", "lon": -77.04379066666667, "is_disabled": 0, "fusion_lon": 0.0, "rental_uris": {"android": "https://dc.lft.to/lastmile_qr_scan", "ios": "https://dc.lft.to/lastmile_qr_scan"}, "is_reserved": 0}, {"bike_id": "8bcdede4132105da00502c3619f1cc28", "name": "8bcdede4132105da00502c3619f1cc28", "lat": 38.9167715, "fusion_lat": 0.0, "type": "electric_scooter", "lon": -77.03199616666667, "is_disabled": 0, "fusion_lon": 0.0, "rental_uris": {"android": "https://dc.lft.to/lastmile_qr_scan", "ios": "https://dc.lft.to/lastmile_qr_scan"}, "is_reserved": 0}, {"bike_id": "80abed1a1cec915a538e7b1969242034", "name": "80abed1a1cec915a538e7b1969242034", "lat": 38.929968333333335, "fusion_lat": 0.0, "type": "electric_scooter", "lon": -77.037979, "is_disabled": 0, "fusion_lon": 0.0, "rental_uris": {"android": "https://dc.lft.to/lastmile_qr_scan", "ios": "https://dc.lft.to/lastmile_qr_scan"}, "is_reserved": 0}, {"bike_id": "a6bccf0fc0826807ef0da5a24d0aa768", "name": "a6bccf0fc0826807ef0da5a24d0aa768", "lat": 38.9318965, "fusion_lat": 0.0, "type": "electric_bike", "lon": -77.038725, "is_disabled": 0, "fusion_lon": 0.0, "rental_uris": {"android": "https://dc.lft.to/lastmile_qr_scan", "ios": "https://dc.lft.to/lastmile_qr_scan"}, "is_reserved": 0}, {"bike_id": "8f285873925fe8471e3c05121577e685", "name": "8f285873925fe8471e3c05121577e685", "lat": 38.914919, "fusion_lat": 0.0, "type": "electric_scooter", "lon": -77.01995033333333, "is_disabled": 0, "fusion_lon": 0.0, "rental_uris": {"android": "https://dc.lft.to/lastmile_qr_scan", "ios": "https://dc.lft.to/lastmile_qr_scan"}, "is_reserved": 0}, {"bike_id": "6159779c1d0fc60ff059c6f3d3014ec3", "name": "6159779c1d0fc60ff059c6f3d3014ec3", "lat": 38.91420933333333, "fusion_lat": 0.0, "type": "electric_scooter", "lon": -77.018076, "is_disabled": 0, "fusion_lon": 0.0, "rental_uris": {"android": "https://dc.lft.to/lastmile_qr_scan", "ios": "https://dc.lft.to/lastmile_qr_scan"}, "is_reserved": 0}, {"bike_id": "ab7afa280377e7b539cef1242c4fbd39", "name": "ab7afa280377e7b539cef1242c4fbd39", "lat": 38.92372983333333, "fusion_lat": 0.0, "type": "electric_scooter", "lon": -77.08051683333333, "is_disabled": 0, "fusion_lon": 0.0, "rental_uris": {"android": "https://dc.lft.to/lastmile_qr_scan", "ios": "https://dc.lft.to/lastmile_qr_scan"}, "is_reserved": 0}, {"bike_id": "4a5e1f863481761bab721c63da8b67ff", "name": "4a5e1f863481761bab721c63da8b67ff", "lat": 38.916991333333335, "fusion_lat": 0.0, "type": "electric_scooter", "lon": -77.01076416666666, "is_disabled": 0, "fusion_lon": 0.0, "rental_uris": {"android": "https://dc.lft.to/lastmile_qr_scan", "ios": "https://dc.lft.to/lastmile_qr_scan"}, "is_reserved": 0}, {"bike_id": "015027f671030d305d9cd589fad56b85", "name": "015027f671030d305d9cd589fad56b85", "lat": 38.97489933333333, "fusion_lat": 0.0, "type": "electric_scooter", "lon": -77.0169095, "is_disabled": 0, "fusion_lon": 0.0, "rental_uris": {"android": "https://dc.lft.to/lastmile_qr_scan", "ios": "https://dc.lft.to/lastmile_qr_scan"}, "is_reserved": 0}, {"bike_id": "e96d1a95d18ef52a0faca5512114ffd8", "name": "e96d1a95d18ef52a0faca5512114ffd8", "lat": 38.90366933333333, "fusion_lat": 0.0, "type": "electric_scooter", "lon": -77.0502215, "is_disabled": 0, "fusion_lon": 0.0, "rental_uris": {"android": "https://dc.lft.to/lastmile_qr_scan", "ios": "https://dc.lft.to/lastmile_qr_scan"}, "is_reserved": 0}, {"bike_id": "3e142fa8fd93388240678409a015374b", "name": "3e142fa8fd93388240678409a015374b", "lat": 38.92948833333333, "fusion_lat": 0.0, "type": "electric_scooter", "lon": -77.03774816666666, "is_disabled": 0, "fusion_lon": 0.0, "rental_uris": {"android": "https://dc.lft.to/lastmile_qr_scan", "ios": "https://dc.lft.to/lastmile_qr_scan"}, "is_reserved": 0}, {"bike_id": "566cdf6fa8c4f9b5b5a17de69e94ef43", "name": "566cdf6fa8c4f9b5b5a17de69e94ef43", "lat": 38.914181166666665, "fusion_lat": 0.0, "type": "electric_scooter", "lon": -77.02197883333334, "is_disabled": 0, "fusion_lon": 0.0, "rental_uris": {"android": "https://dc.lft.to/lastmile_qr_scan", "ios": "https://dc.lft.to/lastmile_qr_scan"}, "is_reserved": 0}, {"bike_id": "930d1c5710efbf493641e6e1f3d1d0b3", "name": "930d1c5710efbf493641e6e1f3d1d0b3", "lat": 38.9014125, "fusion_lat": 0.0, "type": "electric_scooter", "lon": -77.04659483333333, "is_disabled": 0, "fusion_lon": 0.0, "rental_uris": {"android": "https://dc.lft.to/lastmile_qr_scan", "ios": "https://dc.lft.to/lastmile_qr_scan"}, "is_reserved": 0}, {"bike_id": "c91be5a26384159916489b8bc4ec3152", "name": "c91be5a26384159916489b8bc4ec3152", "lat": 38.930256166666666, "fusion_lat": 0.0, "type": "electric_bike", "lon": -77.08298816666667, "is_disabled": 0, "fusion_lon": 0.0, "rental_uris": {"android": "https://dc.lft.to/lastmile_qr_scan", "ios": "https://dc.lft.to/lastmile_qr_scan"}, "is_reserved": 0}, {"bike_id": "dd69adcb0ab25f4eb90d3fcc0778150a", "name": "dd69adcb0ab25f4eb90d3fcc0778150a", "lat": 38.914069833333336, "fusion_lat": 0.0, "type": "electric_scooter", "lon": -77.03910783333333, "is_disabled": 0, "fusion_lon": 0.0, "rental_uris": {"android": "https://dc.lft.to/lastmile_qr_scan", "ios": "https://dc.lft.to/lastmile_qr_scan"}, "is_reserved": 0}, {"bike_id": "0a99b6b1d33f20e0cdc8b9d8605244ca", "name": "0a99b6b1d33f20e0cdc8b9d8605244ca", "lat": 38.973695666666664, "fusion_lat": 0.0, "type": "electric_scooter", "lon": -77.0186565, "is_disabled": 0, "fusion_lon": 0.0, "rental_uris": {"android": "https://dc.lft.to/lastmile_qr_scan", "ios": "https://dc.lft.to/lastmile_qr_scan"}, "is_reserved": 0}, {"bike_id": "1d3755f013d126a06a932477f5633d82", "name": "1d3755f013d126a06a932477f5633d82", "lat": 38.898322666666665, "fusion_lat": 0.0, "type": "electric_scooter", "lon": -77.02505383333333, "is_disabled": 0, "fusion_lon": 0.0, "rental_uris": {"android": "https://dc.lft.to/lastmile_qr_scan", "ios": "https://dc.lft.to/lastmile_qr_scan"}, "is_reserved": 0}, {"bike_id": "795e9844e3e1366e8d72145ea09b915d", "name": "795e9844e3e1366e8d72145ea09b915d", "lat": 38.92400333333333, "fusion_lat": 0.0, "type": "electric_scooter", "lon": -76.993683, "is_disabled": 0, "fusion_lon": 0.0, "rental_uris": {"android": "https://dc.lft.to/lastmile_qr_scan", "ios": "https://dc.lft.to/lastmile_qr_scan"}, "is_reserved": 0}, {"bike_id": "b5d7b6d6bbde7abcdc6e08daccd78528", "name": "b5d7b6d6bbde7abcdc6e08daccd78528", "lat": 38.95212033333333, "fusion_lat": 0.0, "type": "electric_scooter", "lon": -77.01601133333334, "is_disabled": 0, "fusion_lon": 0.0, "rental_uris": {"android": "https://dc.lft.to/lastmile_qr_scan", "ios": "https://dc.lft.to/lastmile_qr_scan"}, "is_reserved": 0}, {"bike_id": "1656d64ac562d3ffd319af3a14b16208", "name": "1656d64ac562d3ffd319af3a14b16208", "lat": 38.9009765, "fusion_lat": 0.0, "type": "electric_scooter", "lon": -77.034574, "is_disabled": 0, "fusion_lon": 0.0, "rental_uris": {"android": "https://dc.lft.to/lastmile_qr_scan", "ios": "https://dc.lft.to/lastmile_qr_scan"}, "is_reserved": 0},