{"data": {"bikes": [{"lat": 38.897732166666664, "fusion_lat": 0.0, "type": "electric_scooter", "bike_id": "664197895d3186e13f0e87be184c397c", "rental_uris": {"ios": "https://dc.lft.to/lastmile_qr_scan", "android": "https://dc.lft.to/lastmile_qr_scan"}, "fusion_lon": 0.0, "lon": -76.98462916666666, "name": "664197895d3186e13f0e87be184c397c", "is_reserved": 0, "is_disabled": 0}, {"lat": 38.902573333333336, "fusion_lat": 0.0, "type": "electric_scooter", "bike_id": "b82b46640390f0ddf8423fafcdc766e7", "rental_uris": {"ios": "https://dc.lft.to/lastmile_qr_scan", "android": "https://dc.lft.to/lastmile_qr_scan"}, "fusion_lon": 0.0, "lon": -77.05315433333334, "name": "b82b46640390f0ddf8423fafcdc766e7", "is_reserved": 0, "is_disabled": 0}, {"lat": 38.931102, "fusion_lat": 0.0, "type": "electric_scooter", "bike_id": "cd6241f51ac2e47201d94cb06f11ec7f", "rental_uris": {"ios": "https://dc.lft.to/lastmile_qr_scan", "android": "https://dc.lft.to/lastmile_qr_scan"}, "fusion_lon": 0.0, "lon": -77.0213975, "name": "cd6241f51ac2e47201d94cb06f11ec7f", "is_reserved": 0, "is_disabled": 0}, {"lat": 38.921775333333336, "fusion_lat": 0.0, "type": "electric_scooter", "bike_id": "0111836847d20d5b0feb5998c365265a", "rental_uris": {"ios": "https://dc.lft.to/lastmile_qr_scan", "android": "https://dc.lft.to/lastmile_qr_scan"}, "fusion_lon": 0.0, "lon": -77.037811, "name": "0111836847d20d5b0feb5998c365265a", "is_reserved": 0, "is_disabled": 0}, {"lat": 38.87764466666667, "fusion_lat": 0.0, "type": "electric_scooter", "bike_id": "b16dfd4611919f7b31e104b202da5c04", "rental_uris": {"ios": "https://dc.lft.to/lastmile_qr_scan", "android": "https://dc.lft.to/lastmile_qr_scan"}, "fusion_lon": 0.0, "lon": -77.017399, "name": "b16dfd4611919f7b31e104b202da5c04", "is_reserved": 0, "is_disabled": 0}, {"lat": 38.8606075, "fusion_lat": 0.0, "type": "electric_scooter", "bike_id": "69255590fc8748d2e375d57b90d083e4", "rental_uris": {"ios": "https://dc.lft.to/lastmile_qr_scan", "android": "https://dc.lft.to/lastmile_qr_scan"}, "fusion_lon": 0.0, "lon": -76.967185, "name": "69255590fc8748d2e375d57b90d083e4", "is_reserved": 0, "is_disabled": 0}, {"lat": 38.905124666666666, "fusion_lat": 0.0, "type": "electric_scooter", "bike_id": "05379923594668eea8f3e12d67fa1ff4", "rental_uris": {"ios": "https://dc.lft.to/lastmile_qr_scan", "android": "https://dc.lft.to/lastmile_qr_scan"}, "fusion_lon": 0.0, "lon": -77.0482445, "name": "05379923594668eea8f3e12d67fa1ff4", "is_reserved": 0, "is_disabled": 0}, {"lat": 38.92142616666667, "fusion_lat": 0.0, "type": "electric_scooter", "bike_id": "ef839b910a9ce05f90dcd3a97861b4e8", "rental_uris": {"ios": "https://dc.lft.to/lastmile_qr_scan", "android": "https://dc.lft.to/lastmile_qr_scan"}, "fusion_lon": 0.0, "lon": -77.01832166666667, "name": "ef839b910a9ce05f90dcd3a97861b4e8", "is_reserved": 0, "is_disabled": 0}, {"lat": 38.92333633333333, "fusion_lat": 0.0, "type": "electric_scooter", "bike_id": "da140be77af1cb0ac5ec284e0f37e118", "rental_uris": {"ios": "https://dc.lft.to/lastmile_qr_scan", "android": "https://dc.lft.to/lastmile_qr_scan"}, "fusion_lon": 0.0, "lon": -77.03539883333333, "name": "da140be77af1cb0ac5ec284e0f37e118", "is_reserved": 0, "is_disabled": 0}, {"lat": 39.03426916666667, "fusion_lat": 0.0, "type": "electric_bike", "bike_id": "9e5b8dc42edf5f262cbf6e6d85e56c7e", "rental_uris": {"ios": "https://dc.lft.to/lastmile_qr_scan", "android": "https://dc.lft.to/lastmile_qr_scan"}, "fusion_lon": 0.0, "lon": -77.04304033333334, "name": "9e5b8dc42edf5f262cbf6e6d85e56c7e", "is_reserved": 0, "is_disabled": 0}, {"lat": 38.91604366666667, "fusion_lat": 0.0, "type": "electric_scooter", "bike_id": "cfb4acf80bf3296c19c47ea79123a0c2", "rental_uris": {"ios": "https://dc.lft.to/lastmile_qr_scan", "android": "https://dc.lft.to/lastmile_qr_scan"}, "fusion_lon": 0.0, "lon": -77.01153533333333, "name": "cfb4acf80bf3296c19c47ea79123a0c2", "is_reserved": 0, "is_disabled": 0}, {"lat": 38.903738833333335, "fusion_lat": 0.0, "type": "electric_scooter", "bike_id": "67c702f046e6524a93275f823fab7a24", "rental_uris": {"ios": "https://dc.lft.to/lastmile_qr_scan", "android": "https://dc.lft.to/lastmile_qr_scan"}, "fusion_lon": 0.0, "lon": -77.048623, "name": "67c702f046e6524a93275f823fab7a24", "is_reserved": 0, "is_disabled": 0}, {"lat": 38.87711, "fusion_lat": 0.0, "type": "electric_scooter", "bike_id": "e3ca1a4053610cbebfadade98a37c82e", "rental_uris": {"ios": "https://dc.lft.to/lastmile_qr_scan", "android": "https://dc.lft.to/lastmile_qr_scan"}, "fusion_lon": 0.0, "lon": -77.0175985, "name": "e3ca1a4053610cbebfadade98a37c82e", "is_reserved": 0, "is_disabled": 0}, {"lat": 38.91797716666667, "fusion_lat": 0.0, "type": "electric_scooter", "bike_id": "430ef8ac3eb290f13d8549d33496cb0c", "rental_uris": {"ios": "https://dc.lft.to/lastmile_qr_scan", "android": "https://dc.lft.to/lastmile_qr_scan"}, "fusion_lon": 0.0, "lon": -77.022889, "name": "430ef8ac3eb290f13d8549d33496cb0c", "is_reserved": 0, "is_disabled": 0}, {"lat": 38.92052483333333, "fusion_lat": 0.0, "type": "electric_scooter", "bike_id": "ba955dc064c49961adfe861a8e99b203", "rental_uris": {"ios": "https://dc.lft.to/lastmile_qr_scan", "android": "https://dc.lft.to/lastmile_qr_scan"}, "fusion_lon": 0.0, "lon": -77.01712716666667, "name": "ba955dc064c49961adfe861a8e99b203", "is_reserved": 0, "is_disabled": 0}, {"lat": 38.915342333333335, "fusion_lat": 0.0, "type": "electric_scooter", "bike_id": "a5d035f2ce822fae56bdfb89f08d81ae", "rental_uris": {"ios": "https://dc.lft.to/lastmile_qr_scan", "android": "https://dc.lft.to/lastmile_qr_scan"}, "fusion_lon": 0.0, "lon": -77.0318765, "name": "a5d035f2ce822fae56bdfb89f08d81ae", "is_reserved": 0, "is_disabled": 0}, {"lat": 38.92637416666667, "fusion_lat": 0.0, "type": "electric_scooter", "bike_id": "f308d0db2049268e128896e6d14e3134", "rental_uris": {"ios": "https://dc.lft.to/lastmile_qr_scan", "android": "https://dc.lft.to/lastmile_qr_scan"}, "fusion_lon": 0.0, "lon": -77.03394566666667, "name": "f308d0db2049268e128896e6d14e3134", "is_reserved": 0, "is_disabled": 0}, {"lat": 38.90648016666667, "fusion_lat": 0.0, "type": "electric_scooter", "bike_id": "4c94b9cc0f784779252f179d3df6561b", "rental_uris": {"ios": "https://dc.lft.to/lastmile_qr_scan", "android": "https://dc.lft.to/lastmile_qr_scan"}, "fusion_lon": 0.0, "lon": -77.03863766666667, "name": "4c94b9cc0f784779252f179d3df6561b", "is_reserved": 0, "is_disabled": 0}, {"lat": 38.899118, "fusion_lat": 0.0, "type": "electric_scooter", "bike_id": "0d430ed5f95305950960bd8551633fec", "rental_uris": {"ios": "https://dc.lft.to/lastmile_qr_scan", "android": "https://dc.lft.to/lastmile_qr_scan"}, "fusion_lon": 0.0, "lon": -76.93380716666667, "name": "0d430ed5f95305950960bd8551633fec", "is_reserved": 0, "is_disabled": 0}, {"lat": 38.9139395, "fusion_lat": 0.0, "type": "electric_scooter", "bike_id": "66905159413c1b06ffee1d398b3cae35", "rental_uris": {"ios": "https://dc.lft.to/lastmile_qr_scan", "android": "https://dc.lft.to/lastmile_qr_scan"}, "fusion_lon": 0.0, "lon": -77.016583, "name": "66905159413c1b06ffee1d398b3cae35", "is_reserved": 0, "is_disabled": 0}, {"lat": 38.938229166666666, "fusion_lat": 0.0, "type": "electric_scooter", "bike_id": "644a49c43c41b31526fa7014bdd408db", "rental_uris": {"ios": "https://dc.lft.to/lastmile_qr_scan", "android": "https://dc.lft.to/lastmile_qr_scan"}, "fusion_lon": 0.0, "lon": -76.98926616666667, "name": "644a49c43c41b31526fa7014bdd408db", "is_reserved": 0, "is_disabled": 0}, {"lat": 38.919087833333336, "fusion_lat": 0.0, "type": "electric_scooter", "bike_id": "7c71924ef8e3ec5f8c13b32fff6a890e", "rental_uris": {"ios": "https://dc.lft.to/lastmile_qr_scan", "android": "https://dc.lft.to/lastmile_qr_scan"}, "fusion_lon": 0.0, "lon": -77.02501933333333, "name": "7c71924ef8e3ec5f8c13b32fff6a890e", "is_reserved": 0, "is_disabled": 0}, {"lat": 39.014868666666665, "fusion_lat": 0.0, "type": "electric_bike", "bike_id": "48e18295ff377d927ea1a6908cd6c47f", "rental_uris": {"ios": "https://dc.lft.to/lastmile_qr_scan", "android": "https://dc.lft.to/lastmile_qr_scan"}, "fusion_lon": 0.0, "lon": -77.0994955, "name": "48e18295ff377d927ea1a6908cd6c47f", "is_reserved": 0, "is_disabled": 0}, {"lat": 38.921399666666666, "fusion_lat": 0.0, "type": "electric_scooter", "bike_id": "3e1561a119042b2e7bf79d1f6498527b", "rental_uris": {"ios": "https://dc.lft.to/lastmile_qr_scan", "android": "https://dc.lft.to/lastmile_qr_scan"}, "fusion_lon": 0.0, "lon": -77.04133016666667, "name": "3e1561a119042b2e7bf79d1f6498527b", "is_reserved": 0, "is_disabled": 0}, {"lat": 38.9154425, "fusion_lat": 0.0, "type": "electric_scooter", "bike_id": "edb299408b63ea2174135b0f5a990a19", "rental_uris": {"ios": "https://dc.lft.to/lastmile_qr_scan", "android": "https://dc.lft.to/lastmile_qr_scan"}, "fusion_lon": 0.0, "lon": -77.02210766666667, "name": "edb299408b63ea2174135b0f5a990a19", "is_reserved": 0, "is_disabled": 0}, {"lat": 38.9101975, "fusion_lat": 0.0, "type": "electric_scooter", "bike_id": "aa96d4c2e74f60781485c3dd5021ff0d", "rental_uris": {"ios": "https://dc.lft.to/lastmile_qr_scan", "android": "https://dc.lft.to/lastmile_qr_scan"}, "fusion_lon": 0.0, "lon": -76.9972715, "name": "aa96d4c2e74f60781485c3dd5021ff0d", "is_reserved": 0, "is_disabled": 0}, {"lat": 38.91851883333333, "fusion_lat": 0.0, "type": "electric_scooter", "bike_id": "dcea78c64b7542462c917bb7bf541e79", "rental_uris": {"ios": "https://dc.lft.to/lastmile_qr_scan", "android": "https://dc.lft.to/lastmile_qr_scan"}, "fusion_lon": 0.0, "lon": -77.0164555, "name": "dcea78c64b7542462c917bb7bf541e79", "is_reserved": 0, "is_disabled": 0}, {"lat": 38.87934, "fusion_lat": 0.0, "type": "electric_scooter", "bike_id": "a9adb2b89e80f39ba6698067b906c2ac", "rental_uris": {"ios": "https://dc.lft.to/lastmile_qr_scan", "android": "https://dc.lft.to/lastmile_qr_scan"}, "fusion_lon": 0.0, "lon": -77.00554633333333, "name": "a9adb2b89e80f39ba6698067b906c2ac", "is_reserved": 0, "is_disabled": 0}, {"lat": 38.921022, "fusion_lat": 0.0, "type": "electric_scooter", "bike_id": "05f21ed63f422637a47d2385cb4c9df9", "rental_uris": {"ios": "https://dc.lft.to/lastmile_qr_scan", "android": "https://dc.lft.to/lastmile_qr_scan"}, "fusion_lon": 0.0, "lon": -77.04692033333333, "name": "05f21ed63f422637a47d2385cb4c9df9", "is_reserved": 0, "is_disabled": 0}, {"lat": 38.908647, "fusion_lat": 0.0, "type": "electric_scooter", "bike_id": "7867318e16722734d1942c5d19c9e94c", "rental_uris": {"ios": "https://dc.lft.to/lastmile_qr_scan", "android": "https://dc.lft.to/lastmile_qr_scan"}, "fusion_lon": 0.0, "lon": -77.02382966666667, "name": "7867318e16722734d1942c5d19c9e94c", "is_reserved": 0, "is_disabled": 0}, {"lat": 38.90974166666667, "fusion_lat": 0.0, "type": "electric_scooter", "bike_id": "87944c302a11ec8832eecb435d70a262", "rental_uris": {"ios": "https://dc.lft.to/lastmile_qr_scan", "android": "https://dc.lft.to/lastmile_qr_scan"}, "fusion_lon": 0.0, "lon": -77.03998483333334, "name": "87944c302a11ec8832eecb435d70a262", "is_reserved": 0, "is_disabled": 0}, {"lat": 38.917072, "fusion_lat": 0.0, "type": "electric_scooter", "bike_id": "6489d43e079103b2818343edf46b4728", "rental_uris": {"ios": "https://dc.lft.to/lastmile_qr_scan", "android": "https://dc.lft.to/lastmile_qr_scan"}, "fusion_lon": 0.0, "lon": -77.03864716666666, "name": "6489d43e079103b2818343edf46b4728", "is_reserved": 0, "is_disabled": 0}, {"lat": 38.90887016666667, "fusion_lat": 0.0, "type": "electric_scooter", "bike_id": "37b186f2583061c8b85f907d9d9a26b8", "rental_uris": {"ios": "https://dc.lft.to/lastmile_qr_scan", "android": "https://dc.lft.to/lastmile_qr_scan"}, "fusion_lon": 0.0, "lon": -76.99112233333334, "name": "37b186f2583061c8b85f907d9d9a26b8", "is_reserved": 0, "is_disabled": 0}, {"lat": 38.91892516666667, "fusion_lat": 0.0, "type": "electric_scooter", "bike_id": "677a2c144267211f76f310488e52e80e", "rental_uris": {"ios": "https://dc.lft.to/lastmile_qr_scan", "android": "https://dc.lft.to/lastmile_qr_scan"}, "fusion_lon": 0.0, "lon": -77.038307, "name": "677a2c144267211f76f310488e52e80e", "is_reserved": 0, "is_disabled": 0}, {"lat": 38.90214233333333, "fusion_lat": 0.0, "type": "electric_scooter", "bike_id": "327dab3f2cb2ef09ad9400be14289028", "rental_uris": {"ios": "https://dc.lft.to/lastmile_qr_scan", "android": "https://dc.lft.to/lastmile_qr_scan"}, "fusion_lon": 0.0, "lon": -77.02188266666667, "name": "327dab3f2cb2ef09ad9400be14289028", "is_reserved": 0, "is_disabled": 0}, {"lat": 38.91127866666667, "fusion_lat": 0.0, "type": "electric_bike", "bike_id": "20e8cef512b2490fe9d0d7664728f2c4", "rental_uris": {"ios": "https://dc.lft.to/lastmile_qr_scan", "android": "https://dc.lft.to/lastmile_qr_scan"}, "fusion_lon": 0.0, "lon": -77.0365335, "name": "20e8cef512b2490fe9d0d7664728f2c4", "is_reserved": 0, "is_disabled": 0}, {"lat": 38.86390766666667, "fusion_lat": 0.0, "type": "electric_bike", "bike_id": "077f23f3b3f2714369a166a80cd01335", "rental_uris": {"ios": "https://dc.lft.to/lastmile_qr_scan", "android": "https://dc.lft.to/lastmile_qr_scan"}, "fusion_lon": 0.0, "lon": -77.20109216666667, "name": "077f23f3b3f2714369a166a80cd01335", "is_reserved": 0, "is_disabled": 0}, {"lat": 38.84193783333333, "fusion_lat": 0.0, "type": "electric_bike", "bike_id": "614ccfa88403cbf94de811dc4cb4fce6", "rental_uris": {"ios": "https://dc.lft.to/lastmile_qr_scan", "android": "https://dc.lft.to/lastmile_qr_scan"}, "fusion_lon": 0.0, "lon": -77.0676175, "name": "614ccfa88403cbf94de811dc4cb4fce6", "is_reserved": 0, "is_disabled": 0}, {"lat": 38.909704833333336, "fusion_lat": 0.0, "type": "electric_scooter", "bike_id": "0d7e3e1949d0e23fe141b1e0a9c503b2", "rental_uris": {"ios": "https://dc.lft.to/lastmile_qr_scan", "android": "https://dc.lft.to/lastmile_qr_scan"}, "fusion_lon": 0.0, "lon": -77.05193333333334, "name": "0d7e3e1949d0e23fe141b1e0a9c503b2", "is_reserved": 0, "is_disabled": 0}, {"lat": 38.88540883333334, "fusion_lat": 0.0, "type": "electric_scooter", "bike_id": "a48eb641dc5ab0ef3bcc78681fc1a774", "rental_uris": {"ios": "https://dc.lft.to/lastmile_qr_scan", "android": "https://dc.lft.to/lastmile_qr_scan"}, "fusion_lon": 0.0, "lon": -77.02204716666667, "name": "a48eb641dc5ab0ef3bcc78681fc1a774", "is_reserved": 0, "is_disabled": 0}, {"lat": 38.973526666666665, "fusion_lat": 0.0, "type": "electric_scooter", "bike_id": "4e37483ca6b10f7df438bf9a7087d24f", "rental_uris": {"ios": "https://dc.lft.to/lastmile_qr_scan", "android": "https://dc.lft.to/lastmile_qr_scan"}, "fusion_lon": 0.0, "lon": -77.02787983333333, "name": "4e37483ca6b10f7df438bf9a7087d24f", "is_reserved": 0, "is_disabled": 0}, {"lat": 38.879305333333335, "fusion_lat": 0.0, "type": "electric_scooter", "bike_id": "f929eda7d1f8eef1d7ebf096de571426", "rental_uris": {"ios": "https://dc.lft.to/lastmile_qr_scan", "android": "https://dc.lft.to/lastmile_qr_scan"}, "fusion_lon": 0.0, "lon": -77.023854, "name": "f929eda7d1f8eef1d7ebf096de571426", "is_reserved": 0, "is_disabled": 0}, {"lat": 38.89825416666667, "fusion_lat": 0.0, "type": "electric_scooter", "bike_id": "84f797aa60ede3534edd9f3755c17c58", "rental_uris": {"ios": "https://dc.lft.to/lastmile_qr_scan", "android": "https://dc.lft.to/lastmile_qr_scan"}, "fusion_lon": 0.0, "lon": -76.94654, "name": "84f797aa60ede3534edd9f3755c17c58", "is_reserved": 0, "is_disabled": 0}, {"lat": 38.89225183333333, "fusion_lat": 0.0, "type": "electric_scooter", "bike_id": "6f397052759784ec3a1decb105da8d60", "rental_uris": {"ios": "https://dc.lft.to/lastmile_qr_scan", "android": "https://dc.lft.to/lastmile_qr_scan"}, "fusion_lon": 0.0, "lon": -77.0433755, "name": "6f397052759784ec3a1decb105da8d60", "is_reserved": 0, "is_disabled": 0}, {"lat": 38.86232283333333, "fusion_lat": 0.0, "type": "electric_scooter", "bike_id": "9809560e7b32a1d442707b4afcdb3ce7", "rental_uris": {"ios": "https://dc.lft.to/lastmile_qr_scan", "android": "https://dc.lft.to/lastmile_qr_scan"}, "fusion_lon": 0.0, "lon": -76.99554133333334, "name": "9809560e7b32a1d442707b4afcdb3ce7", "is_reserved": 0, "is_disabled": 0}, {"lat": 39.070666333333335, "fusion_lat": 0.0, "type": "electric_bike", "bike_id": "9efa4ed0c14a1d63536bbc4f06c2814c", "rental_uris": {"ios": "https://dc.lft.to/lastmile_qr_scan", "android": "https://dc.lft.to/lastmile_qr_scan"}, "fusion_lon": 0.0, "lon": -77.11518466666666, "name": "9efa4ed0c14a1d63536bbc4f06c2814c", "is_reserved": 0, "is_disabled": 0}, {"lat": 38.898809166666666, "fusion_lat": 0.0, "type": "electric_scooter", "bike_id": "b38f97958efc498b6b33163658421a3c", "rental_uris": {"ios": "https://dc.lft.to/lastmile_qr_scan", "android": "https://dc.lft.to/lastmile_qr_scan"}, "fusion_lon": 0.0, "lon": -77.048649, "name": "b38f97958efc498b6b33163658421a3c", "is_reserved": 0, "is_disabled": 0}, {"lat": 38.91228366666667, "fusion_lat": 0.0, "type": "electric_scooter", "bike_id": "0e127f7be08090fca372f6e9351a9c4a", "rental_uris": {"ios": "https://dc.lft.to/lastmile_qr_scan", "android": "https://dc.lft.to/lastmile_qr_scan"}, "fusion_lon": 0.0, "lon": -77.04879866666667, "name": "0e127f7be08090fca372f6e9351a9c4a", "is_reserved": 0, "is_disabled": 0}, {"lat": 38.957043666666664, "fusion_lat": 0.0, "type": "electric_scooter", "bike_id": "afbc035ab619c1785ad4095f18b9ff48", "rental_uris": {"ios": "https://dc.lft.to/lastmile_qr_scan", "android": "https://dc.lft.to/lastmile_qr_scan"}, "fusion_lon": 0.0, "lon": -77.0240015, "name": "afbc035ab619c1785ad4095f18b9ff48", "is_reserved": 0, "is_disabled": 0}, {"lat": 38.91869283333333, "fusion_lat": 0.0, "type": "electric_scooter", "bike_id": "75c985136ca784a8ff911ed17171b53e", "rental_uris": {"ios": "https://dc.lft.to/lastmile_qr_scan", "android": "https://dc.lft.to/lastmile_qr_scan"}, "fusion_lon": 0.0, "lon": -77.04706016666667, "name": "75c985136ca784a8ff911ed17171b53e", "is_reserved": 0, "is_disabled": 0}, {"lat": 38.91258883333333, "fusion_lat": 0.0, "type": "electric_scooter", "bike_id": "b0154047d8b21e0d7137f21e33026380", "rental_uris": {"ios": "https://dc.lft.to/lastmile_qr_scan", "android": "https://dc.lft.to/lastmile_qr_scan"}, "fusion_lon": 0.0, "lon": -77.03260983333334, "name": "b0154047d8b21e0d7137f21e33026380", "is_reserved": 0, "is_disabled": 0}, {"lat": 38.904121333333336, "fusion_lat": 0.0, "type": "electric_scooter", "bike_id": "038b78785345aa4e170aeec6ca17fa3b", "rental_uris": {"ios": "https://dc.lft.to/lastmile_qr_scan", "android": "https://dc.lft.to/lastmile_qr_scan"}, "fusion_lon": 0.0, "lon": -76.97332433333334, "name": "038b78785345aa4e170aeec6ca17fa3b", "is_reserved": 0, "is_disabled": 0}, {"lat": 38.938941666666665, "fusion_lat": 0.0, "type": "electric_scooter", "bike_id": "bb040769aa5baa2af3f4bd2d6082f73a", "rental_uris": {"ios": "https://dc.lft.to/lastmile_qr_scan", "android": "https://dc.lft.to/lastmile_qr_scan"}, "fusion_lon": 0.0, "lon": -77.01769133333333, "name": "bb040769aa5baa2af3f4bd2d6082f73a", "is_reserved": 0, "is_disabled": 0}, {"lat": 38.92001283333333, "fusion_lat": 0.0, "type": "electric_scooter", "bike_id": "a1aebe28883d6f0c44c4d5635c8e6e5b", "rental_uris": {"ios": "https://dc.lft.to/lastmile_qr_scan", "android": "https://dc.lft.to/lastmile_qr_scan"}, "fusion_lon": 0.0, "lon": -77.023992, "name": "a1aebe28883d6f0c44c4d5635c8e6e5b", "is_reserved": 0, "is_disabled": 0}, {"lat": 38.902114166666664, "fusion_lat": 0.0, "type": "electric_scooter", "bike_id": "be02a902389ca165aacd451ce75b5d68", "rental_uris": {"ios": "https://dc.lft.to/lastmile_qr_scan", "android": "https://dc.lft.to/lastmile_qr_scan"}, "fusion_lon": 0.0, "lon": -77.02184133333333, "name": "be02a902389ca165aacd451ce75b5d68", "is_reserved": 0, "is_disabled": 0}, {"lat": 38.9251835, "fusion_lat": 0.0, "type": "electric_scooter", "bike_id": "111f05940ea712591a1b0b2dba938faa", "rental_uris": {"ios": "https://dc.lft.to/lastmile_qr_scan", "android": "https://dc.lft.to/lastmile_qr_scan"}, "fusion_lon": 0.0, "lon": -76.99631133333334, "name": "111f05940ea712591a1b0b2dba938faa", "is_reserved": 0, "is_disabled": 0}, {"lat": 38.878915666666664, "fusion_lat": 0.0, "type": "electric_scooter", "bike_id": "b24d29e001a0507da2f64c41fa441b6b", "rental_uris": {"ios": "https://dc.lft.to/lastmile_qr_scan", "android": "https://dc.lft.to/lastmile_qr_scan"}, "fusion_lon": 0.0, "lon": -76.99499866666666, "name": "b24d29e001a0507da2f64c41fa441b6b", "is_reserved": 0, "is_disabled": 0}, {"lat": 38.8851115, "fusion_lat": 0.0, "type": "electric_scooter", "bike_id": "7ca943c23b2786801232b999bddceed3", "rental_uris": {"ios": "https://dc.lft.to/lastmile_qr_scan", "android": "https://dc.lft.to/lastmile_qr_scan"}, "fusion_lon": 0.0, "lon": -76.95272466666667, "name": "7ca943c23b2786801232b999bddceed3", "is_reserved": 0, "is_disabled": 0}, {"lat": 38.93309966666666, "fusion_lat": 0.0, "type": "electric_scooter", "bike_id": "a44cd3a4b8fc27fdb37595596cc6c8d8", "rental_uris": {"ios": "https://dc.lft.to/lastmile_qr_scan", "android": "https://dc.lft.to/lastmile_qr_scan"}, "fusion_lon": 0.0, "lon": -77.032691, "name": "a44cd3a4b8fc27fdb37595596cc6c8d8", "is_reserved": 0, "is_disabled": 0}, {"lat": 38.91765733333333, "fusion_lat": 0.0, "type": "electric_scooter", "bike_id": "d7fc033c7e02909c35d1f6b3228895b9", "rental_uris": {"ios": "https://dc.lft.to/lastmile_qr_scan", "android": "https://dc.lft.to/lastmile_qr_scan"}, "fusion_lon": 0.0, "lon": -77.04062766666667, "name": "d7fc033c7e02909c35d1f6b3228895b9", "is_reserved": 0, "is_disabled": 0}, {"lat": 38.884908833333334, "fusion_lat": 0.0, "type": "electric_scooter", "bike_id": "f3d079aad4e562662d52a60c5592b950", "rental_uris": {"ios": "https://dc.lft.to/lastmile_qr_scan", "android": "https://dc.lft.to/lastmile_qr_scan"}, "fusion_lon": 0.0, "lon": -77.00597883333333, "name": "f3d079aad4e562662d52a60c5592b950", "is_reserved": 0, "is_disabled": 0}, {"lat": 38.93465583333333, "fusion_lat": 0.0, "type": "electric_scooter", "bike_id": "f58496f69df96cb89b6c0f7660b53f40", "rental_uris": {"ios": "https://dc.lft.to/lastmile_qr_scan", "android": "https://dc.lft.to/lastmile_qr_scan"}, "fusion_lon": 0.0, "lon": -77.041463, "name": "f58496f69df96cb89b6c0f7660b53f40", "is_reserved": 0, "is_disabled": 0}, {"lat": 38.899223166666665, "fusion_lat": 0.0, "type": "electric_scooter", "bike_id": "0eeae6ddca3705d989003cb2e566bd1f", "rental_uris": {"ios": "https://dc.lft.to/lastmile_qr_scan", "android": "https://dc.lft.to/lastmile_qr_scan"}, "fusion_lon": 0.0, "lon": -77.04009483333333, "name": "0eeae6ddca3705d989003cb2e566bd1f", "is_reserved": 0, "is_disabled": 0}, {"lat": 38.92062216666667, "fusion_lat": 0.0, "type": "electric_scooter", "bike_id": "8610a3bb808f082bfb52d166e194e5b4", "rental_uris": {"ios": "https://dc.lft.to/lastmile_qr_scan", "android": "https://dc.lft.to/lastmile_qr_scan"}, "fusion_lon": 0.0, "lon": -77.02523016666666, "name": "8610a3bb808f082bfb52d166e194e5b4", "is_reserved": 0, "is_disabled": 0}, {"lat": 38.9292235, "fusion_lat": 0.0, "type": "electric_scooter", "bike_id": "72590dd5d3edcbabdcffaefa10bbf75b", "rental_uris": {"ios": "https://dc.lft.to/lastmile_qr_scan", "android": "https://dc.lft.to/lastmile_qr_scan"}, "fusion_lon": 0.0, "lon": -77.03261166666667, "name": "72590dd5d3edcbabdcffaefa10bbf75b", "is_reserved": 0, "is_disabled": 0}, {"lat": 38.9245925, "fusion_lat": 0.0, "type": "electric_scooter", "bike_id": "a36c371cde808214eddde1486e818ae7", "rental_uris": {"ios": "https://dc.lft.to/lastmile_qr_scan", "android": "https://dc.lft.to/lastmile_qr_scan"}, "fusion_lon": 0.0, "lon": -77.040519, "name": "a36c371cde808214eddde1486e818ae7", "is_reserved": 0, "is_disabled": 0}, {"lat": 38.896100833333335, "fusion_lat": 0.0, "type": "electric_scooter", "bike_id": "be404f87096e6bd4fc59a04fd7a22b3d", "rental_uris": {"ios": "https://dc.lft.to/lastmile_qr_scan", "android": "https://dc.lft.to/lastmile_qr_scan"}, "fusion_lon": 0.0, "lon": -77.04463866666667, "name": "be404f87096e6bd4fc59a04fd7a22b3d", "is_reserved": 0, "is_disabled": 0}, {"lat": 38.916957, "fusion_lat": 0.0, "type": "electric_scooter", "bike_id": "d8ba48eb4c46f0e72910c22437024f29", "rental_uris": {"ios": "https://dc.lft.to/lastmile_qr_scan", "android": "https://dc.lft.to/lastmile_qr_scan"}, "fusion_lon": 0.0, "lon": -77.03160316666667, "name": "d8ba48eb4c46f0e72910c22437024f29", "is_reserved": 0, "is_disabled": 0}, {"lat": 38.9360885, "fusion_lat": 0.0, "type": "electric_scooter", "bike_id": "6d4701153c3df40b962ffc828e8af051", "rental_uris": {"ios": "https://dc.lft.to/lastmile_qr_scan", "android": "https://dc.lft.to/lastmile_qr_scan"}, "fusion_lon": 0.0, "lon": -77.07306783333334, "name": "6d4701153c3df40b962ffc828e8af051", "is_reserved": 0, "is_disabled": 0}, {"lat": 38.922192833333334, "fusion_lat": 0.0, "type": "electric_scooter", "bike_id": "fd4205b1c4c5cd61b2b430661d259f61", "rental_uris": {"ios": "https://dc.lft.to/lastmile_qr_scan", "android": "https://dc.lft.to/lastmile_qr_scan"}, "fusion_lon": 0.0, "lon": -77.04337233333334, "name": "fd4205b1c4c5cd61b2b430661d259f61", "is_reserved": 0, "is_disabled": 0}, {"lat": 38.898787, "fusion_lat": 0.0, "type": "electric_scooter", "bike_id": "842821a7009b1ae1e758a0bbe14b7bc1", "rental_uris": {"ios": "https://dc.lft.to/lastmile_qr_scan", "android": "https://dc.lft.to/lastmile_qr_scan"}, "fusion_lon": 0.0, "lon": -76.93189566666666, "name": "842821a7009b1ae1e758a0bbe14b7bc1", "is_reserved": 0, "is_disabled": 0}, {"lat": 38.892361666666666, "fusion_lat": 0.0, "type": "electric_scooter", "bike_id": "6fb574ff06916d257fb2730b7a1e54bc", "rental_uris": {"ios": "https://dc.lft.to/lastmile_qr_scan", "android": "https://dc.lft.to/lastmile_qr_scan"}, "fusion_lon": 0.0, "lon": -77.04162016666666, "name": "6fb574ff06916d257fb2730b7a1e54bc", "is_reserved": 0, "is_disabled": 0}, {"lat": 38.90783283333333, "fusion_lat": 0.0, "type": "electric_scooter", "bike_id": "d3f58a56fcd6549135cac1972f4faf0f", "rental_uris": {"ios": "https://dc.lft.to/lastmile_qr_scan", "android": "https://dc.lft.to/lastmile_qr_scan"}, "fusion_lon": 0.0, "lon": -77.03186883333333, "name": "d3f58a56fcd6549135cac1972f4faf0f", "is_reserved": 0, "is_disabled": 0}, {"lat": 38.884504666666665, "fusion_lat": 0.0, "type": "electric_scooter", "bike_id": "3d8b92d7566c3f92158b45f21d642a6a", "rental_uris": {"ios": "https://dc.lft.to/lastmile_qr_scan", "android": "https://dc.lft.to/lastmile_qr_scan"}, "fusion_lon": 0.0, "lon": -77.017579, "name": "3d8b92d7566c3f92158b45f21d642a6a", "is_reserved": 0, "is_disabled": 0}, {"lat": 38.906504, "fusion_lat": 0.0, "type": "electric_scooter", "bike_id": "6429c734026ed1c77741de2bda31cd96", "rental_uris": {"ios": "https://dc.lft.to/lastmile_qr_scan", "android": "https://dc.lft.to/lastmile_qr_scan"}, "fusion_lon": 0.0, "lon": -77.02467566666667, "name": "6429c734026ed1c77741de2bda31cd96", "is_reserved": 0, "is_disabled": 0}, {"lat": 38.925329166666664, "fusion_lat": 0.0, "type": "electric_scooter", "bike_id": "ef17f3413b6cb3d82e5de0ab6cbf71d7", "rental_uris": {"ios": "https://dc.lft.to/lastmile_qr_scan", "android": "https://dc.lft.to/lastmile_qr_scan"}, "fusion_lon": 0.0, "lon": -77.03825816666667, "name": "ef17f3413b6cb3d82e5de0ab6cbf71d7", "is_reserved": 0, "is_disabled": 0}, {"lat": 38.904814333333334, "fusion_lat": 0.0, "type": "electric_scooter", "bike_id": "c8884d869a666e10083c6c089eb82c71", "rental_uris": {"ios": "https://dc.lft.to/lastmile_qr_scan", "android": "https://dc.lft.to/lastmile_qr_scan"}, "fusion_lon": 0.0, "lon": -76.97323633333333, "name": "c8884d869a666e10083c6c089eb82c71", "is_reserved": 0, "is_disabled": 0}, {"lat": 38.912379, "fusion_lat": 0.0, "type": "electric_scooter", "bike_id": "42ace928a0c5752fa573a19ee995dd99", "rental_uris": {"ios": "https://dc.lft.to/lastmile_qr_scan", "android": "https://dc.lft.to/lastmile_qr_scan"}, "fusion_lon": 0.0, "lon": -77.06105783333334, "name": "42ace928a0c5752fa573a19ee995dd99", "is_reserved": 0, "is_disabled": 0}, {"lat": 38.89731233333333, "fusion_lat": 0.0, "type": "electric_scooter", "bike_id": "361267599eceed9321a242149bc66ae8", "rental_uris": {"ios": "https://dc.lft.to/lastmile_qr_scan", "android": "https://dc.lft.to/lastmile_qr_scan"}, "fusion_lon": 0.0, "lon": -77.0434215, "name": "361267599eceed9321a242149bc66ae8", "is_reserved": 0, "is_disabled": 0}, {"lat": 38.908538166666666, "fusion_lat": 0.0, "type": "electric_scooter", "bike_id": "21d13851ec7e847343667adbb17edf6f", "rental_uris": {"ios": "https://dc.lft.to/lastmile_qr_scan", "android": "https://dc.lft.to/lastmile_qr_scan"}, "fusion_lon": 0.0, "lon": -76.99978166666666, "name": "21d13851ec7e847343667adbb17edf6f", "is_reserved": 0, "is_disabled": 0}, {"lat": 38.9126805, "fusion_lat": 0.0, "type": "electric_scooter", "bike_id": "ad6615fa59a4e64a2c226bac80ede6a6", "rental_uris": {"ios": "https://dc.lft.to/lastmile_qr_scan", "android": "https://dc.lft.to/lastmile_qr_scan"}, "fusion_lon": 0.0, "lon": -77.0221735, "name": "ad6615fa59a4e64a2c226bac80ede6a6", "is_reserved": 0, "is_disabled": 0}, {"lat": 38.996743, "fusion_lat": 0.0, "type": "electric_bike", "bike_id": "3393fbd9be9fb67b95a8510412b65a09", "rental_uris": {"ios": "https://dc.lft.to/lastmile_qr_scan", "android": "https://dc.lft.to/lastmile_qr_scan"}, "fusion_lon": 0.0, "lon": -77.037922, "name": "3393fbd9be9fb67b95a8510412b65a09", "is_reserved": 0, "is_disabled": 0}, {"lat": 38.923451166666666, "fusion_lat": 0.0, "type": "electric_scooter", "bike_id": "ba40b3debce554647b7decb4f7bbf1a1", "rental_uris": {"ios": "https://dc.lft.to/lastmile_qr_scan", "android": "https://dc.lft.to/lastmile_qr_scan"}, "fusion_lon": 0.0, "lon": -77.05182516666666, "name": "ba40b3debce554647b7decb4f7bbf1a1", "is_reserved": 0, "is_disabled": 0}, {"lat": 38.8927005, "fusion_lat": 0.0, "type": "electric_scooter", "bike_id": "a57af909360ea7e719364ced09fd577c", "rental_uris": {"ios": "https://dc.lft.to/lastmile_qr_scan", "android": "https://dc.lft.to/lastmile_qr_scan"}, "fusion_lon": 0.0, "lon": -77.04679383333334, "name": "a57af909360ea7e719364ced09fd577c", "is_reserved": 0, "is_disabled": 0}, {"lat": 38.891985, "fusion_lat": 0.0, "type": "electric_scooter", "bike_id": "e953eebe38bfc5b61a6ad6541f4049fa", "rental_uris": {"ios": "https://dc.lft.to/lastmile_qr_scan", "android": "https://dc.lft.to/lastmile_qr_scan"}, "fusion_lon": 0.0, "lon": -77.02383066666667, "name": "e953eebe38bfc5b61a6ad6541f4049fa", "is_reserved": 0, "is_disabled": 0}, {"lat": 38.9273225, "fusion_lat": 0.0, "type": "electric_scooter", "bike_id": "b3bdbf5147cb0628c4ed2650668ac212", "rental_uris": {"ios": "https://dc.lft.to/lastmile_qr_scan", "android": "https://dc.lft.to/lastmile_qr_scan"}, "fusion_lon": 0.0, "lon": -77.05346316666666, "name": "b3bdbf5147cb0628c4ed2650668ac212", "is_reserved": 0, "is_disabled": 0}, {"lat": 38.881783, "fusion_lat": 0.0, "type": "electric_scooter", "bike_id": "f0f637ab6094b71854531657c1042f9f", "rental_uris": {"ios": "https://dc.lft.to/lastmile_qr_scan", "android": "https://dc.lft.to/lastmile_qr_scan"}, "fusion_lon": 0.0, "lon": -76.99264566666666, "name": "f0f637ab6094b71854531657c1042f9f", "is_reserved": 0, "is_disabled": 0}, {"lat": 38.9131835, "fusion_lat": 0.0, "type": "electric_scooter", "bike_id": "3f144c2b6a51947bd10a1505930e3dbb", "rental_uris": {"ios": "https://dc.lft.to/lastmile_qr_scan", "android": "https://dc.lft.to/lastmile_qr_scan"}, "fusion_lon": 0.0, "lon": -77.01451766666666, "name": "3f144c2b6a51947bd10a1505930e3dbb", "is_reserved": 0, "is_disabled": 0}, {"lat": 38.898433, "fusion_lat": 0.0, "type": "electric_scooter", "bike_id": "2d2d515253e1c2cdfd2a150b0abe5a01", "rental_uris": {"ios": "https://dc.lft.to/lastmile_qr_scan", "android": "https://dc.lft.to/lastmile_qr_scan"}, "fusion_lon": 0.0, "lon": -76.94254733333334, "name": "2d2d515253e1c2cdfd2a150b0abe5a01", "is_reserved": 0, "is_disabled": 0}, {"lat": 38.90840433333334, "fusion_lat": 0.0, "type": "electric_scooter", "bike_id": "db837de86e8081e63bd35d2d55188923", "rental_uris": {"ios": "https://dc.lft.to/lastmile_qr_scan", "android": "https://dc.lft.to/lastmile_qr_scan"}, "fusion_lon": 0.0, "lon": -77.043212, "name": "db837de86e8081e63bd35d2d55188923", "is_reserved": 0, "is_disabled": 0}, {"lat": 38.8075725, "fusion_lat": 0.0, "type": "electric_bike", "bike_id": "575123fe8e8433208f13c71aa8700cfe", "rental_uris": {"ios": "https://dc.lft.to/lastmile_qr_scan", "android": "https://dc.lft.to/lastmile_qr_scan"}, "fusion_lon": 0.0, "lon": -77.129883, "name": "575123fe8e8433208f13c71aa8700cfe", "is_reserved": 0, "is_disabled": 0}, {"lat": 38.90376933333334, "fusion_lat": 0.0, "type": "electric_scooter", "bike_id": "68714ac009e71a39f5b5ca6a6ab2d7c8", "rental_uris": {"ios": "https://dc.lft.to/lastmile_qr_scan", "android": "https://dc.lft.to/lastmile_qr_scan"}, "fusion_lon": 0.0, "lon": -77.04474583333334, "name": "68714ac009e71a39f5b5ca6a6ab2d7c8", "is_reserved": 0, "is_disabled": 0}, {"lat": 38.91113216666667, "fusion_lat": 0.0, "type": "electric_scooter", "bike_id": "3cd476ab9f0dd48f07abcf0b4ff454a6", "rental_uris": {"ios": "https://dc.lft.to/lastmile_qr_scan", "android": "https://dc.lft.to/lastmile_qr_scan"}, "fusion_lon": 0.0, "lon": -77.04548983333333, "name": "3cd476ab9f0dd48f07abcf0b4ff454a6", "is_reserved": 0, "is_disabled": 0}, {"lat": 38.90818383333333, "fusion_lat": 0.0, "type": "electric_scooter", "bike_id": "2a918a9f7b398dc1c761e13e390720ef", "rental_uris": {"ios": "https://dc.lft.to/lastmile_qr_scan", "android": "https://dc.lft.to/lastmile_qr_scan"}, "fusion_lon": 0.0, "lon": -77.0368925, "name": "2a918a9f7b398dc1c761e13e390720ef", "is_reserved": 0, "is_disabled": 0}, {"lat": 38.927032, "fusion_lat": 0.0, "type": "electric_scooter", "bike_id": "8b05801199289b726f8c3f7cf85bd1d4", "rental_uris": {"ios": "https://dc.lft.to/lastmile_qr_scan", "android": "https://dc.lft.to/lastmile_qr_scan"}, "fusion_lon": 0.0, "lon": -77.0382225, "name": "8b05801199289b726f8c3f7cf85bd1d4", "is_reserved": 0, "is_disabled": 0}, {"lat": 38.892214, "fusion_lat": 0.0, "type": "electric_scooter", "bike_id": "e22819b0dcb61ff85650dd3d88b447c3", "rental_uris": {"ios": "https://dc.lft.to/lastmile_qr_scan", "android": "https://dc.lft.to/lastmile_qr_scan"}, "fusion_lon": 0.0, "lon": -77.04200766666666, "name": "e22819b0dcb61ff85650dd3d88b447c3", "is_reserved": 0, "is_disabled": 0}, {"lat": 38.895549, "fusion_lat": 0.0, "type": "electric_scooter", "bike_id": "cd706a9e938ee2f05f01806d21f89326", "rental_uris": {"ios": "https://dc.lft.to/lastmile_qr_scan", "android": "https://dc.lft.to/lastmile_qr_scan"}, "fusion_lon": 0.0, "lon": -76.94871483333333, "name": "cd706a9e938ee2f05f01806d21f89326", "is_reserved": 0, "is_disabled": 0}, {"lat": 38.92983483333333, "fusion_lat": 0.0, "type": "electric_scooter", "bike_id": "9cf463ba14b0f1515724e75a52fb3468", "rental_uris": {"ios": "https://dc.lft.to/lastmile_qr_scan", "android": "https://dc.lft.to/lastmile_qr_scan"}, "fusion_lon": 0.0, "lon": -77.0365475, "name": "9cf463ba14b0f1515724e75a52fb3468", "is_reserved": 0, "is_disabled": 0}, {"lat": 38.922888666666665, "fusion_lat": 0.0, "type": "electric_scooter", "bike_id": "1f566ff4281969f392ec8a32fc7c2065", "rental_uris": {"ios": "https://dc.lft.to/lastmile_qr_scan", "android": "https://dc.lft.to/lastmile_qr_scan"}, "fusion_lon": 0.0, "lon": -77.02245883333333, "name": "1f566ff4281969f392ec8a32fc7c2065", "is_reserved": 0, "is_disabled": 0}, {"lat": 38.908201, "fusion_lat": 0.0, "type": "electric_scooter", "bike_id": "3ed6e5373efcb30c068a1756bfe6fb40", "rental_uris": {"ios": "https://dc.lft.to/lastmile_qr_scan", "android": "https://dc.lft.to/lastmile_qr_scan"}, "fusion_lon": 0.0, "lon": -77.03550633333333, "name": "3ed6e5373efcb30c068a1756bfe6fb40", "is_reserved": 0, "is_disabled": 0}, {"lat": 38.87530816666667, "fusion_lat": 0.0, "type": "electric_scooter", "bike_id": "2ef22ff429532762c1d8104f8c3ad9b0", "rental_uris": {"ios": "https://dc.lft.to/lastmile_qr_scan", "android": "https://dc.lft.to/lastmile_qr_scan"}, "fusion_lon": 0.0, "lon": -77.00510433333334, "name": "2ef22ff429532762c1d8104f8c3ad9b0", "is_reserved": 0, "is_disabled": 0}, {"lat": 38.907188166666664, "fusion_lat": 0.0, "type": "electric_scooter", "bike_id": "3c5ff7405da160bd0212226f07f8e57b", "rental_uris": {"ios": "https://dc.lft.to/lastmile_qr_scan", "android": "https://dc.lft.to/lastmile_qr_scan"}, "fusion_lon": 0.0, "lon": -77.02970066666667, "name": "3c5ff7405da160bd0212226f07f8e57b", "is_reserved": 0, "is_disabled": 0}, {"lat": 38.9172055, "fusion_lat": 0.0, "type": "electric_scooter", "bike_id": "0b1d667be986ca3dde8e39ce7eda1bf2", "rental_uris": {"ios": "https://dc.lft.to/lastmile_qr_scan", "android": "https://dc.lft.to/lastmile_qr_scan"}, "fusion_lon": 0.0, "lon": -77.0366095, "name": "0b1d667be986ca3dde8e39ce7eda1bf2", "is_reserved": 0, "is_disabled": 0}, {"lat": 38.911811166666666, "fusion_lat": 0.0, "type": "electric_scooter", "bike_id": "43de6385e22f040ff73ea503bd0ccbd7", "rental_uris": {"ios": "https://dc.lft.to/lastmile_qr_scan", "android": "https://dc.lft.to/lastmile_qr_scan"}, "fusion_lon": 0.0, "lon": -77.01999083333334, "name": "43de6385e22f040ff73ea503bd0ccbd7", "is_reserved": 0, "is_disabled": 0}, {"lat": 38.92069883333333, "fusion_lat": 0.0, "type": "electric_scooter", "bike_id": "60211196729aea99ec5d7259621a9e9a", "rental_uris": {"ios": "https://dc.lft.to/lastmile_qr_scan", "android": "https://dc.lft.to/lastmile_qr_scan"}, "fusion_lon": 0.0, "lon": -77.02420066666667, "name": "60211196729aea99ec5d7259621a9e9a", "is_reserved": 0, "is_disabled": 0}, {"lat": 38.881096166666666, "fusion_lat": 0.0, "type": "electric_scooter", "bike_id": "73b95592b4d533de4debfee4e29bb59c", "rental_uris": {"ios": "https://dc.lft.to/lastmile_qr_scan", "android": "https://dc.lft.to/lastmile_qr_scan"}, "fusion_lon": 0.0, "lon": -77.01668166666667, "name": "73b95592b4d533de4debfee4e29bb59c", "is_reserved": 0, "is_disabled": 0}, {"lat": 38.92406016666666, "fusion_lat": 0.0, "type": "electric_scooter", "bike_id": "e0d51ff3fc13ec79d1001a93a08af0f3", "rental_uris": {"ios": "https://dc.lft.to/lastmile_qr_scan", "android": "https://dc.lft.to/lastmile_qr_scan"}, "fusion_lon": 0.0, "lon": -77.05178066666667, "name": "e0d51ff3fc13ec79d1001a93a08af0f3", "is_reserved": 0, "is_disabled": 0}, {"lat": 38.895459333333335, "fusion_lat": 0.0, "type": "electric_scooter", "bike_id": "c43648c07592202d6bd0f2b71130d35c", "rental_uris": {"ios": "https://dc.lft.to/lastmile_qr_scan", "android": "https://dc.lft.to/lastmile_qr_scan"}, "fusion_lon": 0.0, "lon": -76.94964933333333, "name": "c43648c07592202d6bd0f2b71130d35c", "is_reserved": 0, "is_disabled": 0}, {"lat": 38.935894, "fusion_lat": 0.0, "type": "electric_scooter", "bike_id": "ff11379a9b289c6b2520ae58afa72f48", "rental_uris": {"ios": "https://dc.lft.to/lastmile_qr_scan", "android": "https://dc.lft.to/lastmile_qr_scan"}, "fusion_lon": 0.0, "lon": -77.02851033333333, "name": "ff11379a9b289c6b2520ae58afa72f48", "is_reserved": 0, "is_disabled": 0}, {"lat": 38.90119933333333, "fusion_lat": 0.0, "type": "electric_scooter", "bike_id": "583dae4a43ae3ee1d270c44aaf95f01d", "rental_uris": {"ios": "https://dc.lft.to/lastmile_qr_scan", "android": "https://dc.lft.to/lastmile_qr_scan"}, "fusion_lon": 0.0, "lon": -77.04999533333333, "name": "583dae4a43ae3ee1d270c44aaf95f01d", "is_reserved": 0, "is_disabled": 0}, {"lat": 38.884504166666666, "fusion_lat": 0.0, "type": "electric_scooter", "bike_id": "f3eea67a52fe960396b06e42bea46a34", "rental_uris": {"ios": "https://dc.lft.to/lastmile_qr_scan", "android": "https://dc.lft.to/lastmile_qr_scan"}, "fusion_lon": 0.0, "lon": -76.9509895, "name": "f3eea67a52fe960396b06e42bea46a34", "is_reserved": 0, "is_disabled": 0}, {"lat": 38.9046075, "fusion_lat": 0.0, "type": "electric_scooter", "bike_id": "3c4e15738d018f191c13e7e3870dbe06", "rental_uris": {"ios": "https://dc.lft.to/lastmile_qr_scan", "android": "https://dc.lft.to/lastmile_qr_scan"}, "fusion_lon": 0.0, "lon": -77.02719183333333, "name": "3c4e15738d018f191c13e7e3870dbe06", "is_reserved": 0, "is_disabled": 0}, {"lat": 38.91706633333333, "fusion_lat": 0.0, "type": "electric_scooter", "bike_id": "5718635f6ef82e5b5afb531913d59401", "rental_uris": {"ios": "https://dc.lft.to/lastmile_qr_scan", "android": "https://dc.lft.to/lastmile_qr_scan"}, "fusion_lon": 0.0, "lon": -77.02782116666667, "name": "5718635f6ef82e5b5afb531913d59401", "is_reserved": 0, "is_disabled": 0}, {"lat": 38.916955333333334, "fusion_lat": 0.0, "type": "electric_scooter", "bike_id": "5c3299a577c76e8197444ebad6f9f8d4", "rental_uris": {"ios": "https://dc.lft.to/lastmile_qr_scan", "android": "https://dc.lft.to/lastmile_qr_scan"}, "fusion_lon": 0.0, "lon": -77.0260405, "name": "5c3299a577c76e8197444ebad6f9f8d4", "is_reserved": 0, "is_disabled": 0}, {"lat": 38.907826166666666, "fusion_lat": 0.0, "type": "electric_scooter", "bike_id": "c2f33c0796b4a591bac65b393f2ec67c", "rental_uris": {"ios": "https://dc.lft.to/lastmile_qr_scan", "android": "https://dc.lft.to/lastmile_qr_scan"}, "fusion_lon": 0.0, "lon": -77.0383715, "name": "c2f33c0796b4a591bac65b393f2ec67c", "is_reserved": 0, "is_disabled": 0}, {"lat": 38.90026116666667, "fusion_lat": 0.0, "type": "electric_scooter", "bike_id": "4fc1b91adf0a0954d82ed06012fc6656", "rental_uris": {"ios": "https://dc.lft.to/lastmile_qr_scan", "android": "https://dc.lft.to/lastmile_qr_scan"}, "fusion_lon": 0.0, "lon": -77.03675466666667, "name": "4fc1b91adf0a0954d82ed06012fc6656", "is_reserved": 0, "is_disabled": 0}, {"lat": 38.909909166666665, "fusion_lat": 0.0, "type": "electric_scooter", "bike_id": "3e04076c156fce6515328dbdc3f81d78", "rental_uris": {"ios": "https://dc.lft.to/lastmile_qr_scan", "android": "https://dc.lft.to/lastmile_qr_scan"}, "fusion_lon": 0.0, "lon": -77.03214466666667, "name": "3e04076c156fce6515328dbdc3f81d78", "is_reserved": 0, "is_disabled": 0}, {"lat": 38.923407833333336, "fusion_lat": 0.0, "type": "electric_scooter", "bike_id": "bf69ffd421cc10a6ab3728f990cdb1c3", "rental_uris": {"ios": "https://dc.lft.to/lastmile_qr_scan", "android": "https://dc.lft.to/lastmile_qr_scan"}, "fusion_lon": 0.0, "lon": -77.04150266666667, "name": "bf69ffd421cc10a6ab3728f990cdb1c3", "is_reserved": 0, "is_disabled": 0}, {"lat": 38.917108666666664, "fusion_lat": 0.0, "type": "electric_scooter", "bike_id": "814031eff7f6503f98a0dcea11190a20", "rental_uris": {"ios": "https://dc.lft.to/lastmile_qr_scan", "android": "https://dc.lft.to/lastmile_qr_scan"}, "fusion_lon": 0.0, "lon": -77.0291715, "name": "814031eff7f6503f98a0dcea11190a20", "is_reserved": 0, "is_disabled": 0}, {"lat": 38.9055305, "fusion_lat": 0.0, "type": "electric_scooter", "bike_id": "21624e336eb15df42eaa39f7d90d8a62", "rental_uris": {"ios": "https://dc.lft.to/lastmile_qr_scan", "android": "https://dc.lft.to/lastmile_qr_scan"}, "fusion_lon": 0.0, "lon": -77.006042, "name": "21624e336eb15df42eaa39f7d90d8a62", "is_reserved": 0, "is_disabled": 0}, {"lat": 38.88015083333333, "fusion_lat": 0.0, "type": "electric_scooter", "bike_id": "df993d96963a4523243b95445efbf9d1", "rental_uris": {"ios": "https://dc.lft.to/lastmile_qr_scan", "android": "https://dc.lft.to/lastmile_qr_scan"}, "fusion_lon": 0.0, "lon": -77.02475033333333, "name": "df993d96963a4523243b95445efbf9d1", "is_reserved": 0, "is_disabled": 0}, {"lat": 38.927907833333336, "fusion_lat": 0.0, "type": "electric_scooter", "bike_id": "742d128146598ee890a7263be411acca", "rental_uris": {"ios": "https://dc.lft.to/lastmile_qr_scan", "android": "https://dc.lft.to/lastmile_qr_scan"}, "fusion_lon": 0.0, "lon": -77.02213433333333, "name": "742d128146598ee890a7263be411acca", "is_reserved": 0, "is_disabled": 0}, {"lat": 38.920577, "fusion_lat": 0.0, "type": "electric_scooter", "bike_id": "24bae0d4cfbab00fa8691b7110f1bb86", "rental_uris": {"ios": "https://dc.lft.to/lastmile_qr_scan", "android": "https://dc.lft.to/lastmile_qr_scan"}, "fusion_lon": 0.0, "lon": -77.025099, "name": "24bae0d4cfbab00fa8691b7110f1bb86", "is_reserved": 0, "is_disabled": 0}, {"lat": 38.92820566666666, "fusion_lat": 0.0, "type": "electric_scooter", "bike_id": "05a66fa5fe7f91b9ed4cb46f97093e2e", "rental_uris": {"ios": "https://dc.lft.to/lastmile_qr_scan", "android": "https://dc.lft.to/lastmile_qr_scan"}, "fusion_lon": 0.0, "lon": -77.05409366666666, "name": "05a66fa5fe7f91b9ed4cb46f97093e2e", "is_reserved": 0, "is_disabled": 0}, {"lat": 38.9131845, "fusion_lat": 0.0, "type": "electric_scooter", "bike_id": "74e0125a93eaa480a651793cfac85259", "rental_uris": {"ios": "https://dc.lft.to/lastmile_qr_scan", "android": "https://dc.lft.to/lastmile_qr_scan"}, "fusion_lon": 0.0, "lon": -77.04542383333333, "name": "74e0125a93eaa480a651793cfac85259", "is_reserved": 0, "is_disabled": 0}, {"lat": 38.921245, "fusion_lat": 0.0, "type": "electric_scooter", "bike_id": "cc1bb1d69c90173e3791b76b89c75116", "rental_uris": {"ios": "https://dc.lft.to/lastmile_qr_scan", "android": "https://dc.lft.to/lastmile_qr_scan"}, "fusion_lon": 0.0, "lon": -77.029765, "name": "cc1bb1d69c90173e3791b76b89c75116", "is_reserved": 0, "is_disabled": 0}, {"lat": 38.895269666666664, "fusion_lat": 0.0, "type": "electric_scooter", "bike_id": "88e317e0c43f75cd0e9769b59e2646d0", "rental_uris": {"ios": "https://dc.lft.to/lastmile_qr_scan", "android": "https://dc.lft.to/lastmile_qr_scan"}, "fusion_lon": 0.0, "lon": -77.02822866666666, "name": "88e317e0c43f75cd0e9769b59e2646d0", "is_reserved": 0, "is_disabled": 0}, {"lat": 38.8746645, "fusion_lat": 0.0, "type": "electric_scooter", "bike_id": "201e600e33c9d04e78fcde0d119b63f4", "rental_uris": {"ios": "https://dc.lft.to/lastmile_qr_scan", "android": "https://dc.lft.to/lastmile_qr_scan"}, "fusion_lon": 0.0, "lon": -77.00468383333333, "name": "201e600e33c9d04e78fcde0d119b63f4", "is_reserved": 0, "is_disabled": 0}, {"lat": 38.88995283333333, "fusion_lat": 0.0, "type": "electric_scooter", "bike_id": "5714ce3aade4f37db1b3910f7d0f6961", "rental_uris": {"ios": "https://dc.lft.to/lastmile_qr_scan", "android": "https://dc.lft.to/lastmile_qr_scan"}, "fusion_lon": 0.0, "lon": -76.98374633333333, "name": "5714ce3aade4f37db1b3910f7d0f6961", "is_reserved": 0, "is_disabled": 0}, {"lat": 38.89837683333333, "fusion_lat": 0.0, "type": "electric_scooter", "bike_id": "b96872428f4e013623ade1e965973f79", "rental_uris": {"ios": "https://dc.lft.to/lastmile_qr_scan", "android": "https://dc.lft.to/lastmile_qr_scan"}, "fusion_lon": 0.0, "lon": -76.94617966666667, "name": "b96872428f4e013623ade1e965973f79", "is_reserved": 0, "is_disabled": 0}, {"lat": 38.9044995, "fusion_lat": 0.0, "type": "electric_scooter", "bike_id": "6e1c723fade3b129da41f16fd10f78f4", "rental_uris": {"ios": "https://dc.lft.to/lastmile_qr_scan", "android": "https://dc.lft.to/lastmile_qr_scan"}, "fusion_lon": 0.0, "lon": -77.02691283333333, "name": "6e1c723fade3b129da41f16fd10f78f4", "is_reserved": 0, "is_disabled": 0}, {"lat": 38.891701166666664, "fusion_lat": 0.0, "type": "electric_scooter", "bike_id": "7628c41736b4adc7e88226168a210f01", "rental_uris": {"ios": "https://dc.lft.to/lastmile_qr_scan", "android": "https://dc.lft.to/lastmile_qr_scan"}, "fusion_lon": 0.0, "lon": -77.01556566666666, "name": "7628c41736b4adc7e88226168a210f01", "is_reserved": 0, "is_disabled": 0}, {"lat": 38.91975266666667, "fusion_lat": 0.0, "type": "electric_scooter", "bike_id": "c96dd7d225dc0d872c0bae5869556f9b", "rental_uris": {"ios": "https://dc.lft.to/lastmile_qr_scan", "android": "https://dc.lft.to/lastmile_qr_scan"}, "fusion_lon": 0.0, "lon": -77.07093716666667, "name": "c96dd7d225dc0d872c0bae5869556f9b", "is_reserved": 0, "is_disabled": 0}, {"lat": 38.907192, "fusion_lat": 0.0, "type": "electric_scooter", "bike_id": "4d66eb751c726804c748410367034324", "rental_uris": {"ios": "https://dc.lft.to/lastmile_qr_scan", "android": "https://dc.lft.to/lastmile_qr_scan"}, "fusion_lon": 0.0, "lon": -77.041533, "name": "4d66eb751c726804c748410367034324", "is_reserved": 0, "is_disabled": 0}, {"lat": 38.87568916666667, "fusion_lat": 0.0, "type": "electric_scooter", "bike_id": "6cdab9c73daba47ec5465fa8b77cb12d", "rental_uris": {"ios": "https://dc.lft.to/lastmile_qr_scan", "android": "https://dc.lft.to/lastmile_qr_scan"}, "fusion_lon": 0.0, "lon": -77.00602433333333, "name": "6cdab9c73daba47ec5465fa8b77cb12d", "is_reserved": 0, "is_disabled": 0}, {"lat": 38.90829433333333, "fusion_lat": 0.0, "type": "electric_scooter", "bike_id": "5bf2bac26dfd18af1edf0aae42961b90", "rental_uris": {"ios": "https://dc.lft.to/lastmile_qr_scan", "android": "https://dc.lft.to/lastmile_qr_scan"}, "fusion_lon": 0.0, "lon": -77.0355715, "name": "5bf2bac26dfd18af1edf0aae42961b90", "is_reserved": 0, "is_disabled": 0}, {"lat": 38.836083, "fusion_lat": 0.0, "type": "electric_bike", "bike_id": "7db05c728d2157bb66d52406d2fec2cb", "rental_uris": {"ios": "https://dc.lft.to/lastmile_qr_scan", "android": "https://dc.lft.to/lastmile_qr_scan"}, "fusion_lon": 0.0, "lon": -77.00384233333334, "name": "7db05c728d2157bb66d52406d2fec2cb", "is_reserved": 0, "is_disabled": 0}, {"lat": 38.900293166666664, "fusion_lat": 0.0, "type": "electric_scooter", "bike_id": "cc87dd9e6f4efd4aeb8c53e4d1f31fe0", "rental_uris": {"ios": "https://dc.lft.to/lastmile_qr_scan", "android": "https://dc.lft.to/lastmile_qr_scan"}, "fusion_lon": 0.0, "lon": -77.01168666666666, "name": "cc87dd9e6f4efd4aeb8c53e4d1f31fe0", "is_reserved": 0, "is_disabled": 0}, {"lat": 38.92417, "fusion_lat": 0.0, "type": "electric_scooter", "bike_id": "d667992e76f64c7d84ec31d9796555d8", "rental_uris": {"ios": "https://dc.lft.to/lastmile_qr_scan", "android": "https://dc.lft.to/lastmile_qr_scan"}, "fusion_lon": 0.0, "lon": -77.01945666666667, "name": "d667992e76f64c7d84ec31d9796555d8", "is_reserved": 0, "is_disabled": 0}, {"lat": 38.904677, "fusion_lat": 0.0, "type": "electric_scooter", "bike_id": "5d0cd441137834a57359b0f714c24753", "rental_uris": {"ios": "https://dc.lft.to/lastmile_qr_scan", "android": "https://dc.lft.to/lastmile_qr_scan"}, "fusion_lon": 0.0, "lon": -76.99509516666667, "name": "5d0cd441137834a57359b0f714c24753", "is_reserved": 0, "is_disabled": 0}, {"lat": 38.92248216666667, "fusion_lat": 0.0, "type": "electric_scooter", "bike_id": "c9d380bdcdfe8941cefb33f26248f15e", "rental_uris": {"ios": "https://dc.lft.to/lastmile_qr_scan", "android": "https://dc.lft.to/lastmile_qr_scan"}, "fusion_lon": 0.0, "lon": -77.02983533333334, "name": "c9d380bdcdfe8941cefb33f26248f15e", "is_reserved": 0, "is_disabled": 0}, {"lat": 38.9207055, "fusion_lat": 0.0, "type": "electric_scooter", "bike_id": "046f0589743fbebe515974d5440c410a", "rental_uris": {"ios": "https://dc.lft.to/lastmile_qr_scan", "android": "https://dc.lft.to/lastmile_qr_scan"}, "fusion_lon": 0.0, "lon": -77.04571983333334, "name": "046f0589743fbebe515974d5440c410a", "is_reserved": 0, "is_disabled": 0}, {"lat": 38.8199935, "fusion_lat": 0.0, "type": "electric_bike", "bike_id": "8f248b7a32f8ef5aefda36782afcb1a0", "rental_uris": {"ios": "https://dc.lft.to/lastmile_qr_scan", "android": "https://dc.lft.to/lastmile_qr_scan"}, "fusion_lon": 0.0, "lon": -76.998207, "name": "8f248b7a32f8ef5aefda36782afcb1a0", "is_reserved": 0, "is_disabled": 0}, {"lat": 38.92444616666667, "fusion_lat": 0.0, "type": "electric_scooter", "bike_id": "ad9d06100da6d6260b6830442ab4a642", "rental_uris": {"ios": "https://dc.lft.to/lastmile_qr_scan", "android": "https://dc.lft.to/lastmile_qr_scan"}, "fusion_lon": 0.0, "lon": -76.98989933333333, "name": "ad9d06100da6d6260b6830442ab4a642", "is_reserved": 0, "is_disabled": 0}, {"lat": 38.912683666666666, "fusion_lat": 0.0, "type": "electric_scooter", "bike_id": "c4ab147866ff80331404ce05b0fcba2c", "rental_uris": {"ios": "https://dc.lft.to/lastmile_qr_scan", "android": "https://dc.lft.to/lastmile_qr_scan"}, "fusion_lon": 0.0, "lon": -77.0168195, "name": "c4ab147866ff80331404ce05b0fcba2c", "is_reserved": 0, "is_disabled": 0}, {"lat": 38.892214, "fusion_lat": 0.0, "type": "electric_scooter", "bike_id": "068c5e0844f4555a09d1944a4e808b06", "rental_uris": {"ios": "https://dc.lft.to/lastmile_qr_scan", "android": "https://dc.lft.to/lastmile_qr_scan"}, "fusion_lon": 0.0, "lon": -77.043302, "name": "068c5e0844f4555a09d1944a4e808b06", "is_reserved": 0, "is_disabled": 0}, {"lat": 38.9032775, "fusion_lat": 0.0, "type": "electric_scooter", "bike_id": "34abaa4b136f6aa5959a00b7c2284c09", "rental_uris": {"ios": "https://dc.lft.to/lastmile_qr_scan", "android": "https://dc.lft.to/lastmile_qr_scan"}, "fusion_lon": 0.0, "lon": -77.0401325, "name": "34abaa4b136f6aa5959a00b7c2284c09", "is_reserved": 0, "is_disabled": 0}, {"lat": 38.8917485, "fusion_lat": 0.0, "type": "electric_scooter", "bike_id": "dc22775023f2448f7008311ea5bf99ed", "rental_uris": {"ios": "https://dc.lft.to/lastmile_qr_scan", "android": "https://dc.lft.to/lastmile_qr_scan"}, "fusion_lon": 0.0, "lon": -76.92664583333334, "name": "dc22775023f2448f7008311ea5bf99ed", "is_reserved": 0, "is_disabled": 0}, {"lat": 38.9218475, "fusion_lat": 0.0, "type": "electric_scooter", "bike_id": "4b5f86d5a0c13c10bc81269c0a436e52", "rental_uris": {"ios": "https://dc.lft.to/lastmile_qr_scan", "android": "https://dc.lft.to/lastmile_qr_scan"}, "fusion_lon": 0.0, "lon": -77.042461, "name": "4b5f86d5a0c13c10bc81269c0a436e52", "is_reserved": 0, "is_disabled": 0}, {"lat": 38.9086495, "fusion_lat": 0.0, "type": "electric_scooter", "bike_id": "d925a3cc4431e728d4ae94cecd744f54", "rental_uris": {"ios": "https://dc.lft.to/lastmile_qr_scan", "android": "https://dc.lft.to/lastmile_qr_scan"}, "fusion_lon": 0.0, "lon": -77.02387716666667, "name": "d925a3cc4431e728d4ae94cecd744f54", "is_reserved": 0, "is_disabled": 0}, {"lat": 38.90352166666667, "fusion_lat": 0.0, "type": "electric_scooter", "bike_id": "597e2ee786e7340931c90f03d7237bba", "rental_uris": {"ios": "https://dc.lft.to/lastmile_qr_scan", "android": "https://dc.lft.to/lastmile_qr_scan"}, "fusion_lon": 0.0, "lon": -77.0502565, "name": "597e2ee786e7340931c90f03d7237bba", "is_reserved": 0, "is_disabled": 0}, {"lat": 38.909522, "fusion_lat": 0.0, "type": "electric_scooter", "bike_id": "b0c86fb6275c955d535e5c98458a364a", "rental_uris": {"ios": "https://dc.lft.to/lastmile_qr_scan", "android": "https://dc.lft.to/lastmile_qr_scan"}, "fusion_lon": 0.0, "lon": -77.03454766666667, "name": "b0c86fb6275c955d535e5c98458a364a", "is_reserved": 0, "is_disabled": 0}, {"lat": 38.8843885, "fusion_lat": 0.0, "type": "electric_scooter", "bike_id": "7a4aa6ea4e2b638783365639c5af1f59", "rental_uris": {"ios": "https://dc.lft.to/lastmile_qr_scan", "android": "https://dc.lft.to/lastmile_qr_scan"}, "fusion_lon": 0.0, "lon": -77.01771183333334, "name": "7a4aa6ea4e2b638783365639c5af1f59", "is_reserved": 0, "is_disabled": 0}, {"lat": 38.92517566666667, "fusion_lat": 0.0, "type": "electric_scooter", "bike_id": "12e9f1f27e7810fb8f2377d7f9b48dac", "rental_uris": {"ios": "https://dc.lft.to/lastmile_qr_scan", "android": "https://dc.lft.to/lastmile_qr_scan"}, "fusion_lon": 0.0, "lon": -77.05037166666666, "name": "12e9f1f27e7810fb8f2377d7f9b48dac", "is_reserved": 0, "is_disabled": 0}, {"lat": 38.90733266666667, "fusion_lat": 0.0, "type": "electric_scooter", "bike_id": "048e735199b4d82a1f208c37a277b1f0", "rental_uris": {"ios": "https://dc.lft.to/lastmile_qr_scan", "android": "https://dc.lft.to/lastmile_qr_scan"}, "fusion_lon": 0.0, "lon": -77.02972883333334, "name": "048e735199b4d82a1f208c37a277b1f0", "is_reserved": 0, "is_disabled": 0}, {"lat": 38.904108, "fusion_lat": 0.0, "type": "electric_scooter", "bike_id": "e9db6aac45872ea6f0bee6bd0e657794", "rental_uris": {"ios": "https://dc.lft.to/lastmile_qr_scan", "android": "https://dc.lft.to/lastmile_qr_scan"}, "fusion_lon": 0.0, "lon": -77.02594416666666, "name": "e9db6aac45872ea6f0bee6bd0e657794", "is_reserved": 0, "is_disabled": 0}, {"lat": 38.911969166666665, "fusion_lat": 0.0, "type": "electric_scooter", "bike_id": "b243e4eedfa0ad8b28ac86a46f72e655", "rental_uris": {"ios": "https://dc.lft.to/lastmile_qr_scan", "android": "https://dc.lft.to/lastmile_qr_scan"}, "fusion_lon": 0.0, "lon": -76.98776733333334, "name": "b243e4eedfa0ad8b28ac86a46f72e655", "is_reserved": 0, "is_disabled": 0}, {"lat": 38.927538, "fusion_lat": 0.0, "type": "electric_scooter", "bike_id": "7d1fd01e8784b8e011cb4e494be456a8", "rental_uris": {"ios": "https://dc.lft.to/lastmile_qr_scan", "android": "https://dc.lft.to/lastmile_qr_scan"}, "fusion_lon": 0.0, "lon": -77.05269, "name": "7d1fd01e8784b8e011cb4e494be456a8", "is_reserved": 0, "is_disabled": 0}, {"lat": 38.925014, "fusion_lat": 0.0, "type": "electric_scooter", "bike_id": "a96c9f0a6f1251e0d7a284f8aaf42467", "rental_uris": {"ios": "https://dc.lft.to/lastmile_qr_scan", "android": "https://dc.lft.to/lastmile_qr_scan"}, "fusion_lon": 0.0, "lon": -77.02150066666667, "name": "a96c9f0a6f1251e0d7a284f8aaf42467", "is_reserved": 0, "is_disabled": 0}, {"lat": 38.9002735, "fusion_lat": 0.0, "type": "electric_scooter", "bike_id": "698d5d09e2f996d3bb6737149932daad", "rental_uris": {"ios": "https://dc.lft.to/lastmile_qr_scan", "android": "https://dc.lft.to/lastmile_qr_scan"}, "fusion_lon": 0.0, "lon": -76.98964216666667, "name": "698d5d09e2f996d3bb6737149932daad", "is_reserved": 0, "is_disabled": 0}, {"lat": 38.929622333333334, "fusion_lat": 0.0, "type": "electric_scooter", "bike_id": "61004a1a902954d859de78bd56425b4d", "rental_uris": {"ios": "https://dc.lft.to/lastmile_qr_scan", "android": "https://dc.lft.to/lastmile_qr_scan"}, "fusion_lon": 0.0, "lon": -76.99163783333333, "name": "61004a1a902954d859de78bd56425b4d", "is_reserved": 0, "is_disabled": 0}, {"lat": 38.898738333333334, "fusion_lat": 0.0, "type": "electric_scooter", "bike_id": "c5a2f1ad8022938b30f5c2598ecf204e", "rental_uris": {"ios": "https://dc.lft.to/lastmile_qr_scan", "android": "https://dc.lft.to/lastmile_qr_scan"}, "fusion_lon": 0.0, "lon": -77.0534085, "name": "c5a2f1ad8022938b30f5c2598ecf204e", "is_reserved": 0, "is_disabled": 0}, {"lat": 38.916354166666665, "fusion_lat": 0.0, "type": "electric_scooter", "bike_id": "6e0fc539e6c851069bf6f24e6666272d", "rental_uris": {"ios": "https://dc.lft.to/lastmile_qr_scan", "android": "https://dc.lft.to/lastmile_qr_scan"}, "fusion_lon": 0.0, "lon": -77.02465316666667, "name": "6e0fc539e6c851069bf6f24e6666272d", "is_reserved": 0, "is_disabled": 0}, {"lat": 38.91987983333333, "fusion_lat": 0.0, "type": "electric_scooter", "bike_id": "7c036670d8c57b2736d24205ac7c06cf", "rental_uris": {"ios": "https://dc.lft.to/lastmile_qr_scan", "android": "https://dc.lft.to/lastmile_qr_scan"}, "fusion_lon": 0.0, "lon": -77.03217766666667, "name": "7c036670d8c57b2736d24205ac7c06cf", "is_reserved": 0, "is_disabled": 0}, {"lat": 38.8097705, "fusion_lat": 0.0, "type": "electric_bike", "bike_id": "a896286253ead0fe8673377fcc24dd2a", "rental_uris": {"ios": "https://dc.lft.to/lastmile_qr_scan", "android": "https://dc.lft.to/lastmile_qr_scan"}, "fusion_lon": 0.0, "lon": -77.07662716666667, "name": "a896286253ead0fe8673377fcc24dd2a", "is_reserved": 0, "is_disabled": 0}, {"lat": 38.84128833333333, "fusion_lat": 0.0, "type": "electric_bike", "bike_id": "acb95c31b787b5b474b43cf725564418", "rental_uris": {"ios": "https://dc.lft.to/lastmile_qr_scan", "android": "https://dc.lft.to/lastmile_qr_scan"}, "fusion_lon": 0.0, "lon": -77.0630955, "name": "acb95c31b787b5b474b43cf725564418", "is_reserved": 0, "is_disabled": 0}, {"lat": 38.90053966666667, "fusion_lat": 0.0, "type": "electric_scooter", "bike_id": "b3fd28627af6487d606c2eeddd505c1b", "rental_uris": {"ios": "https://dc.lft.to/lastmile_qr_scan", "android": "https://dc.lft.to/lastmile_qr_scan"}, "fusion_lon": 0.0, "lon": -77.016843, "name": "b3fd28627af6487d606c2eeddd505c1b", "is_reserved": 0, "is_disabled": 0}, {"lat": 38.94440783333334, "fusion_lat": 0.0, "type": "electric_scooter", "bike_id": "e9621f103fead77704a0faa1b7279178", "rental_uris": {"ios": "https://dc.lft.to/lastmile_qr_scan", "android": "https://dc.lft.to/lastmile_qr_scan"}, "fusion_lon": 0.0, "lon": -77.0634835, "name": "e9621f103fead77704a0faa1b7279178", "is_reserved": 0, "is_disabled": 0}, {"lat": 38.892611, "fusion_lat": 0.0, "type": "electric_scooter", "bike_id": "526a661de33d49e26a20a627990bcc91", "rental_uris": {"ios": "https://dc.lft.to/lastmile_qr_scan", "android": "https://dc.lft.to/lastmile_qr_scan"}, "fusion_lon": 0.0, "lon": -77.00370266666667, "name": "526a661de33d49e26a20a627990bcc91", "is_reserved": 0, "is_disabled": 0}, {"lat": 38.895564, "fusion_lat": 0.0, "type": "electric_scooter", "bike_id": "42de11f7b40d83cfded32cd9300e114c", "rental_uris": {"ios": "https://dc.lft.to/lastmile_qr_scan", "android": "https://dc.lft.to/lastmile_qr_scan"}, "fusion_lon": 0.0, "lon": -76.9822895, "name": "42de11f7b40d83cfded32cd9300e114c", "is_reserved": 0, "is_disabled": 0}, {"lat": 38.917702, "fusion_lat": 0.0, "type": "electric_scooter", "bike_id": "57b2758a6eb4b741cd5856e206907752", "rental_uris": {"ios": "https://dc.lft.to/lastmile_qr_scan", "android": "https://dc.lft.to/lastmile_qr_scan"}, "fusion_lon": 0.0, "lon": -77.02310216666666, "name": "57b2758a6eb4b741cd5856e206907752", "is_reserved": 0, "is_disabled": 0}, {"lat": 38.9245885, "fusion_lat": 0.0, "type": "electric_scooter", "bike_id": "fe608664e96e74da89be26fa0dd0a661", "rental_uris": {"ios": "https://dc.lft.to/lastmile_qr_scan", "android": "https://dc.lft.to/lastmile_qr_scan"}, "fusion_lon": 0.0, "lon": -77.03999583333334, "name": "fe608664e96e74da89be26fa0dd0a661", "is_reserved": 0, "is_disabled": 0}, {"lat": 38.9218775, "fusion_lat": 0.0, "type": "electric_scooter", "bike_id": "d1806f3c2fa36ed60eb3c2e530dce6ca", "rental_uris": {"ios": "https://dc.lft.to/lastmile_qr_scan", "android": "https://dc.lft.to/lastmile_qr_scan"}, "fusion_lon": 0.0, "lon": -77.04176983333333, "name": "d1806f3c2fa36ed60eb3c2e530dce6ca", "is_reserved": 0, "is_disabled": 0}, {"lat": 38.9241755, "fusion_lat": 0.0, "type": "electric_scooter", "bike_id": "87ea8fbd67a4beb33cec637493e2b110", "rental_uris": {"ios": "https://dc.lft.to/lastmile_qr_scan", "android": "https://dc.lft.to/lastmile_qr_scan"}, "fusion_lon": 0.0, "lon": -77.05757416666667, "name": "87ea8fbd67a4beb33cec637493e2b110", "is_reserved": 0, "is_disabled": 0}, {"lat": 38.86335116666667, "fusion_lat": 0.0, "type": "electric_bike", "bike_id": "bb72d8d6738c055d5c571128fe53b9c4", "rental_uris": {"ios": "https://dc.lft.to/lastmile_qr_scan", "android": "https://dc.lft.to/lastmile_qr_scan"}, "fusion_lon": 0.0, "lon": -76.9872655, "name": "bb72d8d6738c055d5c571128fe53b9c4", "is_reserved": 0, "is_disabled": 0}, {"lat": 38.89843716666667, "fusion_lat": 0.0, "type": "electric_scooter", "bike_id": "d0b142172ab7670aef5e5d5a6d9e18d4", "rental_uris": {"ios": "https://dc.lft.to/lastmile_qr_scan", "android": "https://dc.lft.to/lastmile_qr_scan"}, "fusion_lon": 0.0, "lon": -77.02280133333333, "name": "d0b142172ab7670aef5e5d5a6d9e18d4", "is_reserved": 0, "is_disabled": 0}, {"lat": 38.90794866666667, "fusion_lat": 0.0, "type": "electric_scooter", "bike_id": "a9c83bd36623267becfb85a9b077af54", "rental_uris": {"ios": "https://dc.lft.to/lastmile_qr_scan", "android": "https://dc.lft.to/lastmile_qr_scan"}, "fusion_lon": 0.0, "lon": -77.04325666666666, "name": "a9c83bd36623267becfb85a9b077af54", "is_reserved": 0, "is_disabled": 0}, {"lat": 38.945071666666664, "fusion_lat": 0.0, "type": "electric_bike", "bike_id": "1216ea5f3d73c2e7564cd56ff1cc41e1", "rental_uris": {"ios": "https://dc.lft.to/lastmile_qr_scan", "android": "https://dc.lft.to/lastmile_qr_scan"}, "fusion_lon": 0.0, "lon": -77.00670633333333, "name": "1216ea5f3d73c2e7564cd56ff1cc41e1", "is_reserved": 0, "is_disabled": 0}, {"lat": 38.9168365, "fusion_lat": 0.0, "type": "electric_scooter", "bike_id": "ca84a8409e40798debf833489658f001", "rental_uris": {"ios": "https://dc.lft.to/lastmile_qr_scan", "android": "https://dc.lft.to/lastmile_qr_scan"}, "fusion_lon": 0.0, "lon": -76.98038616666666, "name": "ca84a8409e40798debf833489658f001", "is_reserved": 0, "is_disabled": 0}, {"lat": 38.91548016666667, "fusion_lat": 0.0, "type": "electric_scooter", "bike_id": "a49cc14b8b7f86d1dfe748629b6490f0", "rental_uris": {"ios": "https://dc.lft.to/lastmile_qr_scan", "android": "https://dc.lft.to/lastmile_qr_scan"}, "fusion_lon": 0.0, "lon": -77.03151516666667, "name": "a49cc14b8b7f86d1dfe748629b6490f0", "is_reserved": 0, "is_disabled": 0}, {"lat": 38.90562716666667, "fusion_lat": 0.0, "type": "electric_scooter", "bike_id": "702251b4b6c676a395d17decbea80144", "rental_uris": {"ios": "https://dc.lft.to/lastmile_qr_scan", "android": "https://dc.lft.to/lastmile_qr_scan"}, "fusion_lon": 0.0, "lon": -77.04691466666667, "name": "702251b4b6c676a395d17decbea80144", "is_reserved": 0, "is_disabled": 0}, {"lat": 38.91260716666667, "fusion_lat": 0.0, "type": "electric_scooter", "bike_id": "259f1febe06fa44e98700633087bef53", "rental_uris": {"ios": "https://dc.lft.to/lastmile_qr_scan", "android": "https://dc.lft.to/lastmile_qr_scan"}, "fusion_lon": 0.0, "lon": -77.04477366666667, "name": "259f1febe06fa44e98700633087bef53", "is_reserved": 0, "is_disabled": 0}, {"lat": 38.897338500000004, "fusion_lat": 0.0, "type": "electric_scooter", "bike_id": "1300c5d26547cf57adc97123cdd79e56", "rental_uris": {"ios": "https://dc.lft.to/lastmile_qr_scan", "android": "https://dc.lft.to/lastmile_qr_scan"}, "fusion_lon": 0.0, "lon": -77.03350266666666, "name": "1300c5d26547cf57adc97123cdd79e56", "is_reserved": 0, "is_disabled": 0}, {"lat": 38.9060065, "fusion_lat": 0.0, "type": "electric_scooter", "bike_id": "5d7e6d5155e48bc9e077f3d9a88e4403", "rental_uris": {"ios": "https://dc.lft.to/lastmile_qr_scan", "android": "https://dc.lft.to/lastmile_qr_scan"}, "fusion_lon": 0.0, "lon": -77.0404335, "name": "5d7e6d5155e48bc9e077f3d9a88e4403", "is_reserved": 0, "is_disabled": 0}, {"lat": 38.931584666666666, "fusion_lat": 0.0, "type": "electric_scooter", "bike_id": "ec709e4e73f161521d4e78eb154f67f4", "rental_uris": {"ios": "https://dc.lft.to/lastmile_qr_scan", "android": "https://dc.lft.to/lastmile_qr_scan"}, "fusion_lon": 0.0, "lon": -77.035021, "name": "ec709e4e73f161521d4e78eb154f67f4", "is_reserved": 0, "is_disabled": 0}, {"lat": 38.91081166666667, "fusion_lat": 0.0, "type": "electric_scooter", "bike_id": "e55fc4a952d81675c28f62867d47de00", "rental_uris": {"ios": "https://dc.lft.to/lastmile_qr_scan", "android": "https://dc.lft.to/lastmile_qr_scan"}, "fusion_lon": 0.0, "lon": -77.03843583333334, "name": "e55fc4a952d81675c28f62867d47de00", "is_reserved": 0, "is_disabled": 0}, {"lat": 38.848651, "fusion_lat": 0.0, "type": "electric_bike", "bike_id": "b5125d260c60c3234223667c53f46a7e", "rental_uris": {"ios": "https://dc.lft.to/lastmile_qr_scan", "android": "https://dc.lft.to/lastmile_qr_scan"}, "fusion_lon": 0.0, "lon": -77.099026, "name": "b5125d260c60c3234223667c53f46a7e", "is_reserved": 0, "is_disabled": 0}, {"lat": 38.92988616666667, "fusion_lat": 0.0, "type": "electric_scooter", "bike_id": "fd2075f5514a6a57e37d16745319c281", "rental_uris": {"ios": "https://dc.lft.to/lastmile_qr_scan", "android": "https://dc.lft.to/lastmile_qr_scan"}, "fusion_lon": 0.0, "lon": -77.07948566666667, "name": "fd2075f5514a6a57e37d16745319c281", "is_reserved": 0, "is_disabled": 0}, {"lat": 38.79986866666667, "fusion_lat": 0.0, "type": "electric_bike", "bike_id": "00e01c10a4f084f24d21a4b8ba6bdc11", "rental_uris": {"ios": "https://dc.lft.to/lastmile_qr_scan", "android": "https://dc.lft.to/lastmile_qr_scan"}, "fusion_lon": 0.0, "lon": -77.12978633333333, "name": "00e01c10a4f084f24d21a4b8ba6bdc11", "is_reserved": 0, "is_disabled": 0}, {"lat": 38.94200416666666, "fusion_lat": 0.0, "type": "electric_scooter", "bike_id": "eeb0098fb6433e7c39e9fabaffbfe48e", "rental_uris": {"ios": "https://dc.lft.to/lastmile_qr_scan", "android": "https://dc.lft.to/lastmile_qr_scan"}, "fusion_lon": 0.0, "lon": -77.02590833333333, "name": "eeb0098fb6433e7c39e9fabaffbfe48e", "is_reserved": 0, "is_disabled": 0}, {"lat": 38.88675766666667, "fusion_lat": 0.0, "type": "electric_scooter", "bike_id": "ec1fe41db9991e627ffaeb6aec2bb10a", "rental_uris": {"ios": "https://dc.lft.to/lastmile_qr_scan", "android": "https://dc.lft.to/lastmile_qr_scan"}, "fusion_lon": 0.0, "lon": -77.01998633333334, "name": "ec1fe41db9991e627ffaeb6aec2bb10a", "is_reserved": 0, "is_disabled": 0}, {"lat": 38.934118, "fusion_lat": 0.0, "type": "electric_scooter", "bike_id": "928c861cd080286c658da2f968de3877", "rental_uris": {"ios": "https://dc.lft.to/lastmile_qr_scan", "android": "https://dc.lft.to/lastmile_qr_scan"}, "fusion_lon": 0.0, "lon": -77.04162616666666, "name": "928c861cd080286c658da2f968de3877", "is_reserved": 0, "is_disabled": 0}, {"lat": 38.9140615, "fusion_lat": 0.0, "type": "electric_scooter", "bike_id": "02ae55890fc8097c028cfd440a42000c", "rental_uris": {"ios": "https://dc.lft.to/lastmile_qr_scan", "android": "https://dc.lft.to/lastmile_qr_scan"}, "fusion_lon": 0.0, "lon": -77.03546016666667, "name": "02ae55890fc8097c028cfd440a42000c", "is_reserved": 0, "is_disabled": 0}, {"lat": 38.91028, "fusion_lat": 0.0, "type": "electric_scooter", "bike_id": "4b41f6acb3f0e5b51104858f1a9ddc1f", "rental_uris": {"ios": "https://dc.lft.to/lastmile_qr_scan", "android": "https://dc.lft.to/lastmile_qr_scan"}, "fusion_lon": 0.0, "lon": -77.02934666666667, "name": "4b41f6acb3f0e5b51104858f1a9ddc1f", "is_reserved": 0, "is_disabled": 0}, {"lat": 38.90695016666667, "fusion_lat": 0.0, "type": "electric_scooter", "bike_id": "c7a395cca46a0ea277a224abb2d0d110", "rental_uris": {"ios": "https://dc.lft.to/lastmile_qr_scan", "android": "https://dc.lft.to/lastmile_qr_scan"}, "fusion_lon": 0.0, "lon": -76.9997795, "name": "c7a395cca46a0ea277a224abb2d0d110", "is_reserved": 0, "is_disabled": 0}, {"lat": 38.90162333333333, "fusion_lat": 0.0, "type": "electric_scooter", "bike_id": "7cb34829c14475c3a967f17eea239e47", "rental_uris": {"ios": "https://dc.lft.to/lastmile_qr_scan", "android": "https://dc.lft.to/lastmile_qr_scan"}, "fusion_lon": 0.0, "lon": -77.01617366666666, "name": "7cb34829c14475c3a967f17eea239e47", "is_reserved": 0, "is_disabled": 0}, {"lat": 38.91278616666666, "fusion_lat": 0.0, "type": "electric_scooter", "bike_id": "afc3770893469498b74aa9973a615f82", "rental_uris": {"ios": "https://dc.lft.to/lastmile_qr_scan", "android": "https://dc.lft.to/lastmile_qr_scan"}, "fusion_lon": 0.0, "lon": -77.03654333333333, "name": "afc3770893469498b74aa9973a615f82", "is_reserved": 0, "is_disabled": 0}, {"lat": 38.906671, "fusion_lat": 0.0, "type": "electric_scooter", "bike_id": "6c07e84323111e9de5349e11ffcc140f", "rental_uris": {"ios": "https://dc.lft.to/lastmile_qr_scan", "android": "https://dc.lft.to/lastmile_qr_scan"}, "fusion_lon": 0.0, "lon": -77.038081, "name": "6c07e84323111e9de5349e11ffcc140f", "is_reserved": 0, "is_disabled": 0}, {"lat": 38.892190166666666, "fusion_lat": 0.0, "type": "electric_scooter", "bike_id": "a8635c51005e57fae4a0c593adfc11d5", "rental_uris": {"ios": "https://dc.lft.to/lastmile_qr_scan", "android": "https://dc.lft.to/lastmile_qr_scan"}, "fusion_lon": 0.0, "lon": -77.03163983333333, "name": "a8635c51005e57fae4a0c593adfc11d5", "is_reserved": 0, "is_disabled": 0}, {"lat": 39.00479083333333, "fusion_lat": 0.0, "type": "electric_bike", "bike_id": "01209fa728ad7adc3a5573eab820e6ab", "rental_uris": {"ios": "https://dc.lft.to/lastmile_qr_scan", "android": "https://dc.lft.to/lastmile_qr_scan"}, "fusion_lon": 0.0, "lon": -77.02185083333333, "name": "01209fa728ad7adc3a5573eab820e6ab", "is_reserved": 0, "is_disabled": 0}, {"lat": 38.909758, "fusion_lat": 0.0, "type": "electric_scooter", "bike_id": "bd3d7f3cbba3be382dffb914784e1ebd", "rental_uris": {"ios": "https://dc.lft.to/lastmile_qr_scan", "android": "https://dc.lft.to/lastmile_qr_scan"}, "fusion_lon": 0.0, "lon": -77.0238455, "name": "bd3d7f3cbba3be382dffb914784e1ebd", "is_reserved": 0, "is_disabled": 0}, {"lat": 38.922394833333335, "fusion_lat": 0.0, "type": "electric_scooter", "bike_id": "04813a6a402864d694a13a7e26b89605", "rental_uris": {"ios": "https://dc.lft.to/lastmile_qr_scan", "android": "https://dc.lft.to/lastmile_qr_scan"}, "fusion_lon": 0.0, "lon": -77.04486016666667, "name": "04813a6a402864d694a13a7e26b89605", "is_reserved": 0, "is_disabled": 0}, {"lat": 38.89240683333333, "fusion_lat": 0.0, "type": "electric_scooter", "bike_id": "9be923ddc26110ab6def35857a287627", "rental_uris": {"ios": "https://dc.lft.to/lastmile_qr_scan", "android": "https://dc.lft.to/lastmile_qr_scan"}, "fusion_lon": 0.0, "lon": -76.98840666666666, "name": "9be923ddc26110ab6def35857a287627", "is_reserved": 0, "is_disabled": 0}, {"lat": 38.936802666666665, "fusion_lat": 0.0, "type": "electric_scooter", "bike_id": "1402c0e297acea1d4c2290ab50d70690", "rental_uris": {"ios": "https://dc.lft.to/lastmile_qr_scan", "android": "https://dc.lft.to/lastmile_qr_scan"}, "fusion_lon": 0.0, "lon": -77.035943, "name": "1402c0e297acea1d4c2290ab50d70690", "is_reserved": 0, "is_disabled": 0}, {"lat": 38.83144633333333, "fusion_lat": 0.0, "type": "electric_bike", "bike_id": "2632b8ec2900296ff1b834a3c99e495e", "rental_uris": {"ios": "https://dc.lft.to/lastmile_qr_scan", "android": "https://dc.lft.to/lastmile_qr_scan"}, "fusion_lon": 0.0, "lon": -76.99409166666666, "name": "2632b8ec2900296ff1b834a3c99e495e", "is_reserved": 0, "is_disabled": 0}, {"lat": 38.91740033333333, "fusion_lat": 0.0, "type": "electric_scooter", "bike_id": "3fecf3932f407d4fd0c9d164640f52b6", "rental_uris": {"ios": "https://dc.lft.to/lastmile_qr_scan", "android": "https://dc.lft.to/lastmile_qr_scan"}, "fusion_lon": 0.0, "lon": -77.01694666666667, "name": "3fecf3932f407d4fd0c9d164640f52b6", "is_reserved": 0, "is_disabled": 0}, {"lat": 38.9281175, "fusion_lat": 0.0, "type": "electric_scooter", "bike_id": "51a46cfc255d8e5e08070d3f7d8c282f", "rental_uris": {"ios": "https://dc.lft.to/lastmile_qr_scan", "android": "https://dc.lft.to/lastmile_qr_scan"}, "fusion_lon": 0.0, "lon": -77.053947, "name": "51a46cfc255d8e5e08070d3f7d8c282f", "is_reserved": 0, "is_disabled": 0}, {"lat": 38.925663666666665, "fusion_lat": 0.0, "type": "electric_scooter", "bike_id": "000b797a611d865181479663b719ce15", "rental_uris": {"ios": "https://dc.lft.to/lastmile_qr_scan", "android": "https://dc.lft.to/lastmile_qr_scan"}, "fusion_lon": 0.0, "lon": -77.07786433333334, "name": "000b797a611d865181479663b719ce15", "is_reserved": 0, "is_disabled": 0}, {"lat": 38.91418566666667, "fusion_lat": 0.0, "type": "electric_scooter", "bike_id": "1a9113e9d8a6366886ab317e65e40dd5", "rental_uris": {"ios": "https://dc.lft.to/lastmile_qr_scan", "android": "https://dc.lft.to/lastmile_qr_scan"}, "fusion_lon": 0.0, "lon": -77.03176283333333, "name": "1a9113e9d8a6366886ab317e65e40dd5", "is_reserved": 0, "is_disabled": 0}, {"lat": 38.923033833333335, "fusion_lat": 0.0, "type": "electric_bike", "bike_id": "ea011e726e440486633cbb9b90af9473", "rental_uris": {"ios": "https://dc.lft.to/lastmile_qr_scan", "android": "https://dc.lft.to/lastmile_qr_scan"}, "fusion_lon": 0.0, "lon": -76.997805, "name": "ea011e726e440486633cbb9b90af9473", "is_reserved": 0, "is_disabled": 0}, {"lat": 38.91659283333333, "fusion_lat": 0.0, "type": "electric_scooter", "bike_id": "0b1d5523611e455bf30c8aaa85ee4373", "rental_uris": {"ios": "https://dc.lft.to/lastmile_qr_scan", "android": "https://dc.lft.to/lastmile_qr_scan"}, "fusion_lon": 0.0, "lon": -77.03854216666667, "name": "0b1d5523611e455bf30c8aaa85ee4373", "is_reserved": 0, "is_disabled": 0}, {"lat": 38.920308166666665, "fusion_lat": 0.0, "type": "electric_scooter", "bike_id": "1a5b89566541a92e8a29a92901c0ac2c", "rental_uris": {"ios": "https://dc.lft.to/lastmile_qr_scan", "android": "https://dc.lft.to/lastmile_qr_scan"}, "fusion_lon": 0.0, "lon": -77.0306135, "name": "1a5b89566541a92e8a29a92901c0ac2c", "is_reserved": 0, "is_disabled": 0}, {"lat": 38.917967, "fusion_lat": 0.0, "type": "electric_scooter", "bike_id": "2235e5499e63f56562375fa837cffba5", "rental_uris": {"ios": "https://dc.lft.to/lastmile_qr_scan", "android": "https://dc.lft.to/lastmile_qr_scan"}, "fusion_lon": 0.0, "lon": -77.03440983333333, "name": "2235e5499e63f56562375fa837cffba5", "is_reserved": 0, "is_disabled": 0}, {"lat": 38.89359016666667, "fusion_lat": 0.0, "type": "electric_scooter", "bike_id": "cad33834563e42b6f06e64c2bcdddde0", "rental_uris": {"ios": "https://dc.lft.to/lastmile_qr_scan", "android": "https://dc.lft.to/lastmile_qr_scan"}, "fusion_lon": 0.0, "lon": -77.00346616666667, "name": "cad33834563e42b6f06e64c2bcdddde0", "is_reserved": 0, "is_disabled": 0}, {"lat": 38.966674166666664, "fusion_lat": 0.0, "type": "electric_bike", "bike_id": "91c82a6b933eb63db960b66c47b32f9a", "rental_uris": {"ios": "https://dc.lft.to/lastmile_qr_scan", "android": "https://dc.lft.to/lastmile_qr_scan"}, "fusion_lon": 0.0, "lon": -76.9744865, "name": "91c82a6b933eb63db960b66c47b32f9a", "is_reserved": 0, "is_disabled": 0}, {"lat": 38.887234, "fusion_lat": 0.0, "type": "electric_scooter", "bike_id": "de83ecaf677c06ba56855c6276ee27f5", "rental_uris": {"ios": "https://dc.lft.to/lastmile_qr_scan", "android": "https://dc.lft.to/lastmile_qr_scan"}, "fusion_lon": 0.0, "lon": -77.022054, "name": "de83ecaf677c06ba56855c6276ee27f5", "is_reserved": 0, "is_disabled": 0}, {"lat": 38.88736183333333, "fusion_lat": 0.0, "type": "electric_scooter", "bike_id": "0d38dffecb095cc706e621d859d72c09", "rental_uris": {"ios": "https://dc.lft.to/lastmile_qr_scan", "android": "https://dc.lft.to/lastmile_qr_scan"}, "fusion_lon": 0.0, "lon": -77.02131983333334, "name": "0d38dffecb095cc706e621d859d72c09", "is_reserved": 0, "is_disabled": 0}, {"lat": 38.890383166666666, "fusion_lat": 0.0, "type": "electric_scooter", "bike_id": "b3bc62ebdf5b9a2c1bd6e9ec0eb6461c", "rental_uris": {"ios": "https://dc.lft.to/lastmile_qr_scan", "android": "https://dc.lft.to/lastmile_qr_scan"}, "fusion_lon": 0.0, "lon": -76.937573, "name": "b3bc62ebdf5b9a2c1bd6e9ec0eb6461c", "is_reserved": 0, "is_disabled": 0}, {"lat": 38.939865, "fusion_lat": 0.0, "type": "electric_scooter", "bike_id": "a569106f152af66a5e1d9ff59e946ebc", "rental_uris": {"ios": "https://dc.lft.to/lastmile_qr_scan", "android": "https://dc.lft.to/lastmile_qr_scan"}, "fusion_lon": 0.0, "lon": -77.02546433333333, "name": "a569106f152af66a5e1d9ff59e946ebc", "is_reserved": 0, "is_disabled": 0}, {"lat": 38.897220833333336, "fusion_lat": 0.0, "type": "electric_scooter", "bike_id": "d8ef3d6589e8d183ada0b333793e6454", "rental_uris": {"ios": "https://dc.lft.to/lastmile_qr_scan", "android": "https://dc.lft.to/lastmile_qr_scan"}, "fusion_lon": 0.0, "lon": -77.02723016666667, "name": "d8ef3d6589e8d183ada0b333793e6454", "is_reserved": 0, "is_disabled": 0}, {"lat": 38.892687333333335, "fusion_lat": 0.0, "type": "electric_scooter", "bike_id": "329cc66b629358976859d3c2d2ff54db", "rental_uris": {"ios": "https://dc.lft.to/lastmile_qr_scan", "android": "https://dc.lft.to/lastmile_qr_scan"}, "fusion_lon": 0.0, "lon": -77.04680466666667, "name": "329cc66b629358976859d3c2d2ff54db", "is_reserved": 0, "is_disabled": 0}, {"lat": 38.869689, "fusion_lat": 0.0, "type": "electric_scooter", "bike_id": "264f36105fb1ad8cc601c22046963af0", "rental_uris": {"ios": "https://dc.lft.to/lastmile_qr_scan", "android": "https://dc.lft.to/lastmile_qr_scan"}, "fusion_lon": 0.0, "lon": -77.012305, "name": "264f36105fb1ad8cc601c22046963af0", "is_reserved": 0, "is_disabled": 0}, {"lat": 38.91805433333333, "fusion_lat": 0.0, "type": "electric_scooter", "bike_id": "7182a0d3634fa07dbbf6f66ad784a1d2", "rental_uris": {"ios": "https://dc.lft.to/lastmile_qr_scan", "android": "https://dc.lft.to/lastmile_qr_scan"}, "fusion_lon": 0.0, "lon": -77.03441583333333, "name": "7182a0d3634fa07dbbf6f66ad784a1d2", "is_reserved": 0, "is_disabled": 0}, {"lat": 38.87152483333333, "fusion_lat": 0.0, "type": "electric_scooter", "bike_id": "7cdf356743e41dc01c957867543ace1d", "rental_uris": {"ios": "https://dc.lft.to/lastmile_qr_scan", "android": "https://dc.lft.to/lastmile_qr_scan"}, "fusion_lon": 0.0, "lon": -77.00709066666667, "name": "7cdf356743e41dc01c957867543ace1d", "is_reserved": 0, "is_disabled": 0}, {"lat": 38.869358, "fusion_lat": 0.0, "type": "electric_scooter", "bike_id": "89aa19788affcfc8f29f94bf5fa8f647", "rental_uris": {"ios": "https://dc.lft.to/lastmile_qr_scan", "android": "https://dc.lft.to/lastmile_qr_scan"}, "fusion_lon": 0.0, "lon": -77.013787, "name": "89aa19788affcfc8f29f94bf5fa8f647", "is_reserved": 0, "is_disabled": 0}, {"lat": 38.89602683333333, "fusion_lat": 0.0, "type": "electric_scooter", "bike_id": "1f3805ab2ddfd00bf9bd6559fd447a9b", "rental_uris": {"ios": "https://dc.lft.to/lastmile_qr_scan", "android": "https://dc.lft.to/lastmile_qr_scan"}, "fusion_lon": 0.0, "lon": -77.04275116666666, "name": "1f3805ab2ddfd00bf9bd6559fd447a9b", "is_reserved": 0, "is_disabled": 0}, {"lat": 38.955969333333336, "fusion_lat": 0.0, "type": "electric_bike", "bike_id": "77bb670ca219947497ceb0e09c0a8275", "rental_uris": {"ios": "https://dc.lft.to/lastmile_qr_scan", "android": "https://dc.lft.to/lastmile_qr_scan"}, "fusion_lon": 0.0, "lon": -77.01019733333334, "name": "77bb670ca219947497ceb0e09c0a8275", "is_reserved": 0, "is_disabled": 0}, {"lat": 38.87574016666667, "fusion_lat": 0.0, "type": "electric_scooter", "bike_id": "de84b53205220cf92cbef32d1ac9a753", "rental_uris": {"ios": "https://dc.lft.to/lastmile_qr_scan", "android": "https://dc.lft.to/lastmile_qr_scan"}, "fusion_lon": 0.0, "lon": -77.00589683333334, "name": "de84b53205220cf92cbef32d1ac9a753", "is_reserved": 0, "is_disabled": 0}, {"lat": 38.86424216666666, "fusion_lat": 0.0, "type": "electric_scooter", "bike_id": "f0f23bda502432c06d007ff2a7155aa4", "rental_uris": {"ios": "https://dc.lft.to/lastmile_qr_scan", "android": "https://dc.lft.to/lastmile_qr_scan"}, "fusion_lon": 0.0, "lon": -76.97452516666667, "name": "f0f23bda502432c06d007ff2a7155aa4", "is_reserved": 0, "is_disabled": 0}, {"lat": 38.9010925, "fusion_lat": 0.0, "type": "electric_scooter", "bike_id": "a8e721c8715ea2355137c8030488815e", "rental_uris": {"ios": "https://dc.lft.to/lastmile_qr_scan", "android": "https://dc.lft.to/lastmile_qr_scan"}, "fusion_lon": 0.0, "lon": -77.02183083333334, "name": "a8e721c8715ea2355137c8030488815e", "is_reserved": 0, "is_disabled": 0}, {"lat": 38.878703, "fusion_lat": 0.0, "type": "electric_scooter", "bike_id": "f01b7698ab3d2a0450b94ecef2934d32", "rental_uris": {"ios": "https://dc.lft.to/lastmile_qr_scan", "android": "https://dc.lft.to/lastmile_qr_scan"}, "fusion_lon": 0.0, "lon": -76.996823, "name": "f01b7698ab3d2a0450b94ecef2934d32", "is_reserved": 0, "is_disabled": 0}, {"lat": 38.894481166666665, "fusion_lat": 0.0, "type": "electric_bike", "bike_id": "fd7249649c14bca74fef2cd1d48f4576", "rental_uris": {"ios": "https://dc.lft.to/lastmile_qr_scan", "android": "https://dc.lft.to/lastmile_qr_scan"}, "fusion_lon": 0.0, "lon": -77.03166716666667, "name": "fd7249649c14bca74fef2cd1d48f4576", "is_reserved": 0, "is_disabled": 0}, {"lat": 38.89228266666667, "fusion_lat": 0.0, "type": "electric_scooter", "bike_id": "8e45146a4fce7ded7994ab187862d117", "rental_uris": {"ios": "https://dc.lft.to/lastmile_qr_scan", "android": "https://dc.lft.to/lastmile_qr_scan"}, "fusion_lon": 0.0, "lon": -77.021814, "name": "8e45146a4fce7ded7994ab187862d117", "is_reserved": 0, "is_disabled": 0}, {"lat": 38.9180395, "fusion_lat": 0.0, "type": "electric_scooter", "bike_id": "61a32cd0b9b69060c76f25bc4d2ae2ff", "rental_uris": {"ios": "https://dc.lft.to/lastmile_qr_scan", "android": "https://dc.lft.to/lastmile_qr_scan"}, "fusion_lon": 0.0, "lon": -77.02264, "name": "61a32cd0b9b69060c76f25bc4d2ae2ff", "is_reserved": 0, "is_disabled": 0}, {"lat": 38.912628, "fusion_lat": 0.0, "type": "electric_scooter", "bike_id": "77dfa9631448a7581adf51d9cad025d7", "rental_uris": {"ios": "https://dc.lft.to/lastmile_qr_scan", "android": "https://dc.lft.to/lastmile_qr_scan"}, "fusion_lon": 0.0, "lon": -77.03736033333334, "name": "77dfa9631448a7581adf51d9cad025d7", "is_reserved": 0, "is_disabled": 0}, {"lat": 38.9214865, "fusion_lat": 0.0, "type": "electric_scooter", "bike_id": "57b31aeae035ba2c7300cb59af4d35fd", "rental_uris": {"ios": "https://dc.lft.to/lastmile_qr_scan", "android": "https://dc.lft.to/lastmile_qr_scan"}, "fusion_lon": 0.0, "lon": -77.02393266666667, "name": "57b31aeae035ba2c7300cb59af4d35fd", "is_reserved": 0, "is_disabled": 0}, {"lat": 38.89926233333333, "fusion_lat": 0.0, "type": "electric_scooter", "bike_id": "3bd633e488cd29a920dd4771a9836e54", "rental_uris": {"ios": "https://dc.lft.to/lastmile_qr_scan", "android": "https://dc.lft.to/lastmile_qr_scan"}, "fusion_lon": 0.0, "lon": -77.05002966666666, "name": "3bd633e488cd29a920dd4771a9836e54", "is_reserved": 0, "is_disabled": 0}, {"lat": 38.91968633333333, "fusion_lat": 0.0, "type": "electric_scooter", "bike_id": "3581e13715bc81e33c7d46eff08ea449", "rental_uris": {"ios": "https://dc.lft.to/lastmile_qr_scan", "android": "https://dc.lft.to/lastmile_qr_scan"}, "fusion_lon": 0.0, "lon": -77.033808, "name": "3581e13715bc81e33c7d46eff08ea449", "is_reserved": 0, "is_disabled": 0}, {"lat": 38.919168, "fusion_lat": 0.0, "type": "electric_scooter", "bike_id": "47ad6815c7629c26a37c4059eb14650a", "rental_uris": {"ios": "https://dc.lft.to/lastmile_qr_scan", "android": "https://dc.lft.to/lastmile_qr_scan"}, "fusion_lon": 0.0, "lon": -77.04462566666666, "name": "47ad6815c7629c26a37c4059eb14650a", "is_reserved": 0, "is_disabled": 0}, {"lat": 38.906365, "fusion_lat": 0.0, "type": "electric_scooter", "bike_id": "3394b3cb5da176c017294ceac5c3f002", "rental_uris": {"ios": "https://dc.lft.to/lastmile_qr_scan", "android": "https://dc.lft.to/lastmile_qr_scan"}, "fusion_lon": 0.0, "lon": -77.038924, "name": "3394b3cb5da176c017294ceac5c3f002", "is_reserved": 0, "is_disabled": 0}, {"lat": 38.90827866666667, "fusion_lat": 0.0, "type": "electric_scooter", "bike_id": "7e2e3dd477869a54542c1934b0c16f53", "rental_uris": {"ios": "https://dc.lft.to/lastmile_qr_scan", "android": "https://dc.lft.to/lastmile_qr_scan"}, "fusion_lon": 0.0, "lon": -77.0345115, "name": "7e2e3dd477869a54542c1934b0c16f53", "is_reserved": 0, "is_disabled": 0}, {"lat": 38.886316666666666, "fusion_lat": 0.0, "type": "electric_scooter", "bike_id": "7d375a2bafec65c8c01420768380a868", "rental_uris": {"ios": "https://dc.lft.to/lastmile_qr_scan", "android": "https://dc.lft.to/lastmile_qr_scan"}, "fusion_lon": 0.0, "lon": -76.9259015, "name": "7d375a2bafec65c8c01420768380a868", "is_reserved": 0, "is_disabled": 0}, {"lat": 38.8786735, "fusion_lat": 0.0, "type": "electric_scooter", "bike_id": "d47c5b4e6ca5ed7b5f9b82373010f105", "rental_uris": {"ios": "https://dc.lft.to/lastmile_qr_scan", "android": "https://dc.lft.to/lastmile_qr_scan"}, "fusion_lon": 0.0, "lon": -76.96261, "name": "d47c5b4e6ca5ed7b5f9b82373010f105", "is_reserved": 0, "is_disabled": 0}, {"lat": 38.88738216666667, "fusion_lat": 0.0, "type": "electric_scooter", "bike_id": "166875566f22fc099f7875e331148884", "rental_uris": {"ios": "https://dc.lft.to/lastmile_qr_scan", "android": "https://dc.lft.to/lastmile_qr_scan"}, "fusion_lon": 0.0, "lon": -77.02830633333333, "name": "166875566f22fc099f7875e331148884", "is_reserved": 0, "is_disabled": 0}, {"lat": 38.92923733333333, "fusion_lat": 0.0, "type": "electric_scooter", "bike_id": "85438d1e287e134b5f4b4b332d5328b0", "rental_uris": {"ios": "https://dc.lft.to/lastmile_qr_scan", "android": "https://dc.lft.to/lastmile_qr_scan"}, "fusion_lon": 0.0, "lon": -77.03250983333334, "name": "85438d1e287e134b5f4b4b332d5328b0", "is_reserved": 0, "is_disabled": 0}, {"lat": 38.95615166666666, "fusion_lat": 0.0, "type": "electric_scooter", "bike_id": "e1b9496fe4d83a78da78d86fd6ab727c", "rental_uris": {"ios": "https://dc.lft.to/lastmile_qr_scan", "android": "https://dc.lft.to/lastmile_qr_scan"}, "fusion_lon": 0.0, "lon": -77.02760666666667, "name": "e1b9496fe4d83a78da78d86fd6ab727c", "is_reserved": 0, "is_disabled": 0}, {"lat": 38.910318333333336, "fusion_lat": 0.0, "type": "electric_scooter", "bike_id": "2d5707fbe8e308a03fb9dde4c0dfc228", "rental_uris": {"ios": "https://dc.lft.to/lastmile_qr_scan", "android": "https://dc.lft.to/lastmile_qr_scan"}, "fusion_lon": 0.0, "lon": -77.07395133333333, "name": "2d5707fbe8e308a03fb9dde4c0dfc228", "is_reserved": 0, "is_disabled": 0}, {"lat": 38.89726666666667, "fusion_lat": 0.0, "type": "electric_scooter", "bike_id": "ee5c9c0214f4d53629b98306ccbd0216", "rental_uris": {"ios": "https://dc.lft.to/lastmile_qr_scan", "android": "https://dc.lft.to/lastmile_qr_scan"}, "fusion_lon": 0.0, "lon": -77.04421833333333, "name": "ee5c9c0214f4d53629b98306ccbd0216", "is_reserved": 0, "is_disabled": 0}, {"lat": 38.910963333333335, "fusion_lat": 0.0, "type": "electric_scooter", "bike_id": "c219e3cf3335c87b29d561bb23aaaa0a", "rental_uris": {"ios": "https://dc.lft.to/lastmile_qr_scan", "android": "https://dc.lft.to/lastmile_qr_scan"}, "fusion_lon": 0.0, "lon": -77.03178116666666, "name": "c219e3cf3335c87b29d561bb23aaaa0a", "is_reserved": 0, "is_disabled": 0}, {"lat": 38.93347933333333, "fusion_lat": 0.0, "type": "electric_scooter", "bike_id": "4fb134b5470475af0d5fd0e0d533a894", "rental_uris": {"ios": "https://dc.lft.to/lastmile_qr_scan", "android": "https://dc.lft.to/lastmile_qr_scan"}, "fusion_lon": 0.0, "lon": -77.07350133333334, "name": "4fb134b5470475af0d5fd0e0d533a894", "is_reserved": 0, "is_disabled": 0}, {"lat": 38.909616, "fusion_lat": 0.0, "type": "electric_scooter", "bike_id": "7fdec3ebe3279b91a74bcbe92174d32f", "rental_uris": {"ios": "https://dc.lft.to/lastmile_qr_scan", "android": "https://dc.lft.to/lastmile_qr_scan"}, "fusion_lon": 0.0, "lon": -77.023798, "name": "7fdec3ebe3279b91a74bcbe92174d32f", "is_reserved": 0, "is_disabled": 0}, {"lat": 38.9192555, "fusion_lat": 0.0, "type": "electric_scooter", "bike_id": "f1535b370e669bab7b77123b0ba7ae2c", "rental_uris": {"ios": "https://dc.lft.to/lastmile_qr_scan", "android": "https://dc.lft.to/lastmile_qr_scan"}, "fusion_lon": 0.0, "lon": -77.03341416666666, "name": "f1535b370e669bab7b77123b0ba7ae2c", "is_reserved": 0, "is_disabled": 0}, {"lat": 38.897386833333336, "fusion_lat": 0.0, "type": "electric_scooter", "bike_id": "792ea6413b7945ebe04348590454ed81", "rental_uris": {"ios": "https://dc.lft.to/lastmile_qr_scan", "android": "https://dc.lft.to/lastmile_qr_scan"}, "fusion_lon": 0.0, "lon": -77.04681, "name": "792ea6413b7945ebe04348590454ed81", "is_reserved": 0, "is_disabled": 0}, {"lat": 38.9131995, "fusion_lat": 0.0, "type": "electric_scooter", "bike_id": "63fba75b19e0798a384d7071a71be928", "rental_uris": {"ios": "https://dc.lft.to/lastmile_qr_scan", "android": "https://dc.lft.to/lastmile_qr_scan"}, "fusion_lon": 0.0, "lon": -77.03206833333333, "name": "63fba75b19e0798a384d7071a71be928", "is_reserved": 0, "is_disabled": 0}, {"lat": 38.94174683333333, "fusion_lat": 0.0, "type": "electric_scooter", "bike_id": "71e474ade85f62974ea9753da69064ef", "rental_uris": {"ios": "https://dc.lft.to/lastmile_qr_scan", "android": "https://dc.lft.to/lastmile_qr_scan"}, "fusion_lon": 0.0, "lon": -77.02794983333334, "name": "71e474ade85f62974ea9753da69064ef", "is_reserved": 0, "is_disabled": 0}, {"lat": 38.899816666666666, "fusion_lat": 0.0, "type": "electric_scooter", "bike_id": "0ece13d0bb3562df50ebde1834e8a21d", "rental_uris": {"ios": "https://dc.lft.to/lastmile_qr_scan", "android": "https://dc.lft.to/lastmile_qr_scan"}, "fusion_lon": 0.0, "lon": -77.02186816666666, "name": "0ece13d0bb3562df50ebde1834e8a21d", "is_reserved": 0, "is_disabled": 0}, {"lat": 38.9147655, "fusion_lat": 0.0, "type": "electric_bike", "bike_id": "ff32a39575c31a047185a7a82c2a5364", "rental_uris": {"ios": "https://dc.lft.to/lastmile_qr_scan", "android": "https://dc.lft.to/lastmile_qr_scan"}, "fusion_lon": 0.0, "lon": -76.9858145, "name": "ff32a39575c31a047185a7a82c2a5364", "is_reserved": 0, "is_disabled": 0}, {"lat": 38.924206166666664, "fusion_lat": 0.0, "type": "electric_scooter", "bike_id": "054d26969e083641fe315ab0ee72351a", "rental_uris": {"ios": "https://dc.lft.to/lastmile_qr_scan", "android": "https://dc.lft.to/lastmile_qr_scan"}, "fusion_lon": 0.0, "lon": -77.02015033333333, "name": "054d26969e083641fe315ab0ee72351a", "is_reserved": 0, "is_disabled": 0}, {"lat": 38.899142166666664, "fusion_lat": 0.0, "type": "electric_scooter", "bike_id": "8d61384b0485673a537a8f23a9ab997d", "rental_uris": {"ios": "https://dc.lft.to/lastmile_qr_scan", "android": "https://dc.lft.to/lastmile_qr_scan"}, "fusion_lon": 0.0, "lon": -77.0137665, "name": "8d61384b0485673a537a8f23a9ab997d", "is_reserved": 0, "is_disabled": 0}, {"lat": 38.9102675, "fusion_lat": 0.0, "type": "electric_scooter", "bike_id": "3a70040df761794785ba6527b46eae40", "rental_uris": {"ios": "https://dc.lft.to/lastmile_qr_scan", "android": "https://dc.lft.to/lastmile_qr_scan"}, "fusion_lon": 0.0, "lon": -77.0211955, "name": "3a70040df761794785ba6527b46eae40", "is_reserved": 0, "is_disabled": 0}, {"lat": 38.9949395, "fusion_lat": 0.0, "type": "electric_bike", "bike_id": "14079d0f625855822bf190ed02e48621", "rental_uris": {"ios": "https://dc.lft.to/lastmile_qr_scan", "android": "https://dc.lft.to/lastmile_qr_scan"}, "fusion_lon": 0.0, "lon": -77.0779405, "name": "14079d0f625855822bf190ed02e48621", "is_reserved": 0, "is_disabled": 0}, {"lat": 38.934278, "fusion_lat": 0.0, "type": "electric_bike", "bike_id": "a6adab678960d464519db3efb2b45ceb", "rental_uris": {"ios": "https://dc.lft.to/lastmile_qr_scan", "android": "https://dc.lft.to/lastmile_qr_scan"}, "fusion_lon": 0.0, "lon": -77.0221845, "name": "a6adab678960d464519db3efb2b45ceb", "is_reserved": 0, "is_disabled": 0}, {"lat": 38.92057033333333, "fusion_lat": 0.0, "type": "electric_scooter", "bike_id": "11e319848a79dd0fcdac76144bdbad59", "rental_uris": {"ios": "https://dc.lft.to/lastmile_qr_scan", "android": "https://dc.lft.to/lastmile_qr_scan"}, "fusion_lon": 0.0, "lon": -77.02511083333333, "name": "11e319848a79dd0fcdac76144bdbad59", "is_reserved": 0, "is_disabled": 0}, {"lat": 38.87233233333333, "fusion_lat": 0.0, "type": "electric_scooter", "bike_id": "ded66022da17e2275eb613f6015e3b17", "rental_uris": {"ios": "https://dc.lft.to/lastmile_qr_scan", "android": "https://dc.lft.to/lastmile_qr_scan"}, "fusion_lon": 0.0, "lon": -77.0057375, "name": "ded66022da17e2275eb613f6015e3b17", "is_reserved": 0, "is_disabled": 0}, {"lat": 38.922827833333336, "fusion_lat": 0.0, "type": "electric_scooter", "bike_id": "88ae4a837e1ed7ae3619b8b30e90dac6", "rental_uris": {"ios": "https://dc.lft.to/lastmile_qr_scan", "android": "https://dc.lft.to/lastmile_qr_scan"}, "fusion_lon": 0.0, "lon": -77.036599, "name": "88ae4a837e1ed7ae3619b8b30e90dac6", "is_reserved": 0, "is_disabled": 0}, {"lat": 38.930945333333334, "fusion_lat": 0.0, "type": "electric_scooter", "bike_id": "15c4bf50e5413f0cce070e23560c9ede", "rental_uris": {"ios": "https://dc.lft.to/lastmile_qr_scan", "android": "https://dc.lft.to/lastmile_qr_scan"}, "fusion_lon": 0.0, "lon": -77.02558583333334, "name": "15c4bf50e5413f0cce070e23560c9ede", "is_reserved": 0, "is_disabled": 0}, {"lat": 38.92326716666667, "fusion_lat": 0.0, "type": "electric_scooter", "bike_id": "59be283005de40c45aef1142bbc6de25", "rental_uris": {"ios": "https://dc.lft.to/lastmile_qr_scan", "android": "https://dc.lft.to/lastmile_qr_scan"}, "fusion_lon": 0.0, "lon": -77.03538566666667, "name": "59be283005de40c45aef1142bbc6de25", "is_reserved": 0, "is_disabled": 0}, {"lat": 38.9214965, "fusion_lat": 0.0, "type": "electric_scooter", "bike_id": "cae41343089127663c262276c62d1ea3", "rental_uris": {"ios": "https://dc.lft.to/lastmile_qr_scan", "android": "https://dc.lft.to/lastmile_qr_scan"}, "fusion_lon": 0.0, "lon": -77.043545, "name": "cae41343089127663c262276c62d1ea3", "is_reserved": 0, "is_disabled": 0}, {"lat": 38.9543225, "fusion_lat": 0.0, "type": "electric_scooter", "bike_id": "112e630f8dbf31ed6ec8c7178aa2d024", "rental_uris": {"ios": "https://dc.lft.to/lastmile_qr_scan", "android": "https://dc.lft.to/lastmile_qr_scan"}, "fusion_lon": 0.0, "lon": -77.0185255, "name": "112e630f8dbf31ed6ec8c7178aa2d024", "is_reserved": 0, "is_disabled": 0}, {"lat": 38.846158, "fusion_lat": 0.0, "type": "electric_bike", "bike_id": "acd192efea4c33fdc55d21ee90c7d5ac", "rental_uris": {"ios": "https://dc.lft.to/lastmile_qr_scan", "android": "https://dc.lft.to/lastmile_qr_scan"}, "fusion_lon": 0.0, "lon": -76.96911783333333, "name": "acd192efea4c33fdc55d21ee90c7d5ac", "is_reserved": 0, "is_disabled": 0}, {"lat": 38.941073833333334, "fusion_lat": 0.0, "type": "electric_scooter", "bike_id": "19a7178a94118574dbdc65c476522513", "rental_uris": {"ios": "https://dc.lft.to/lastmile_qr_scan", "android": "https://dc.lft.to/lastmile_qr_scan"}, "fusion_lon": 0.0, "lon": -77.02649733333334, "name": "19a7178a94118574dbdc65c476522513", "is_reserved": 0, "is_disabled": 0}, {"lat": 38.8986295, "fusion_lat": 0.0, "type": "electric_scooter", "bike_id": "65c9cf5875ed05974555d516a9ae2cd6", "rental_uris": {"ios": "https://dc.lft.to/lastmile_qr_scan", "android": "https://dc.lft.to/lastmile_qr_scan"}, "fusion_lon": 0.0, "lon": -77.041113, "name": "65c9cf5875ed05974555d516a9ae2cd6", "is_reserved": 0, "is_disabled": 0}, {"lat": 38.92412383333333, "fusion_lat": 0.0, "type": "electric_scooter", "bike_id": "20b2a51bb2b5ad93c8586672401cc36c", "rental_uris": {"ios": "https://dc.lft.to/lastmile_qr_scan", "android": "https://dc.lft.to/lastmile_qr_scan"}, "fusion_lon": 0.0, "lon": -77.02011383333334, "name": "20b2a51bb2b5ad93c8586672401cc36c", "is_reserved": 0, "is_disabled": 0}, {"lat": 38.89992183333333, "fusion_lat": 0.0, "type": "electric_scooter", "bike_id": "8a52bec0e89ba8e0c4766fbdd457aeeb", "rental_uris": {"ios": "https://dc.lft.to/lastmile_qr_scan", "android": "https://dc.lft.to/lastmile_qr_scan"}, "fusion_lon": 0.0, "lon": -77.02310466666667, "name": "8a52bec0e89ba8e0c4766fbdd457aeeb", "is_reserved": 0, "is_disabled": 0}, {"lat": 38.89225066666667, "fusion_lat": 0.0, "type": "electric_scooter", "bike_id": "5b2159f2b2544b75bf1eeb921d738e29", "rental_uris": {"ios": "https://dc.lft.to/lastmile_qr_scan", "android": "https://dc.lft.to/lastmile_qr_scan"}, "fusion_lon": 0.0, "lon": -77.04331733333333, "name": "5b2159f2b2544b75bf1eeb921d738e29", "is_reserved": 0, "is_disabled": 0}, {"lat": 38.919923, "fusion_lat": 0.0, "type": "electric_scooter", "bike_id": "a20a9b783447b5e2d2dd5cd15dbd5769", "rental_uris": {"ios": "https://dc.lft.to/lastmile_qr_scan", "android": "https://dc.lft.to/lastmile_qr_scan"}, "fusion_lon": 0.0, "lon": -77.02173966666666, "name": "a20a9b783447b5e2d2dd5cd15dbd5769", "is_reserved": 0, "is_disabled": 0}, {"lat": 38.894723166666665, "fusion_lat": 0.0, "type": "electric_scooter", "bike_id": "c4a4872d47fbed9c70428fda68de514b", "rental_uris": {"ios": "https://dc.lft.to/lastmile_qr_scan", "android": "https://dc.lft.to/lastmile_qr_scan"}, "fusion_lon": 0.0, "lon": -76.98604783333333, "name": "c4a4872d47fbed9c70428fda68de514b", "is_reserved": 0, "is_disabled": 0}, {"lat": 38.909604, "fusion_lat": 0.0, "type": "electric_scooter", "bike_id": "a8e13b332066f4013af30db531f31513", "rental_uris": {"ios": "https://dc.lft.to/lastmile_qr_scan", "android": "https://dc.lft.to/lastmile_qr_scan"}, "fusion_lon": 0.0, "lon": -77.03434133333333, "name": "a8e13b332066f4013af30db531f31513", "is_reserved": 0, "is_disabled": 0}, {"lat": 38.835771666666666, "fusion_lat": 0.0, "type": "electric_bike", "bike_id": "68832e8a28f1cd1dcb7c1f593495bf1c", "rental_uris": {"ios": "https://dc.lft.to/lastmile_qr_scan", "android": "https://dc.lft.to/lastmile_qr_scan"}, "fusion_lon": 0.0, "lon": -77.00126333333333, "name": "68832e8a28f1cd1dcb7c1f593495bf1c", "is_reserved": 0, "is_disabled": 0}, {"lat": 38.885191166666665, "fusion_lat": 0.0, "type": "electric_scooter", "bike_id": "4f100f601ec45f568a95c0c6ff23dd5d", "rental_uris": {"ios": "https://dc.lft.to/lastmile_qr_scan", "android": "https://dc.lft.to/lastmile_qr_scan"}, "fusion_lon": 0.0, "lon": -77.01130516666667, "name": "4f100f601ec45f568a95c0c6ff23dd5d", "is_reserved": 0, "is_disabled": 0}, {"lat": 38.89239766666667, "fusion_lat": 0.0, "type": "electric_scooter", "bike_id": "3b455965d4c873e84f2d7438ec8e0779", "rental_uris": {"ios": "https://dc.lft.to/lastmile_qr_scan", "android": "https://dc.lft.to/lastmile_qr_scan"}, "fusion_lon": 0.0, "lon": -77.02800083333334, "name": "3b455965d4c873e84f2d7438ec8e0779", "is_reserved": 0, "is_disabled": 0}, {"lat": 38.916098833333336, "fusion_lat": 0.0, "type": "electric_scooter", "bike_id": "1be618a0d3b26300f61511cec230bb27", "rental_uris": {"ios": "https://dc.lft.to/lastmile_qr_scan", "android": "https://dc.lft.to/lastmile_qr_scan"}, "fusion_lon": 0.0, "lon": -77.03181133333334, "name": "1be618a0d3b26300f61511cec230bb27", "is_reserved": 0, "is_disabled": 0},