{"data": {"bikes": [{"rental_uris": {"ios": "https://dc.lft.to/lastmile_qr_scan", "android": "https://dc.lft.to/lastmile_qr_scan"}, "lon": -77.03966533333333, "type": "electric_scooter", "fusion_lat": 0.0, "lat": 38.908693166666666, "name": "eb2b2c377d7fc20529d08204686a4b5c", "fusion_lon": 0.0, "bike_id": "eb2b2c377d7fc20529d08204686a4b5c", "is_disabled": 0, "is_reserved": 0}, {"rental_uris": {"ios": "https://dc.lft.to/lastmile_qr_scan", "android": "https://dc.lft.to/lastmile_qr_scan"}, "lon": -77.00651383333333, "type": "electric_scooter", "fusion_lat": 0.0, "lat": 38.91198383333333, "name": "55ca5f7354f0a76e3c75a240f6c972a6", "fusion_lon": 0.0, "bike_id": "55ca5f7354f0a76e3c75a240f6c972a6", "is_disabled": 0, "is_reserved": 0}, {"rental_uris": {"ios": "https://dc.lft.to/lastmile_qr_scan", "android": "https://dc.lft.to/lastmile_qr_scan"}, "lon": -76.99676816666667, "type": "electric_scooter", "fusion_lat": 0.0, "lat": 38.91006516666667, "name": "22dbca6cb04ce60e9237a6d45e9d123d", "fusion_lon": 0.0, "bike_id": "22dbca6cb04ce60e9237a6d45e9d123d", "is_disabled": 0, "is_reserved": 0}, {"rental_uris": {"ios": "https://dc.lft.to/lastmile_qr_scan", "android": "https://dc.lft.to/lastmile_qr_scan"}, "lon": -77.0610695, "type": "electric_scooter", "fusion_lat": 0.0, "lat": 38.937136333333335, "name": "b863c55a11d3a93c853ce548d49358f2", "fusion_lon": 0.0, "bike_id": "b863c55a11d3a93c853ce548d49358f2", "is_disabled": 0, "is_reserved": 0}, {"rental_uris": {"ios": "https://dc.lft.to/lastmile_qr_scan", "android": "https://dc.lft.to/lastmile_qr_scan"}, "lon": -76.99516483333333, "type": "electric_scooter", "fusion_lat": 0.0, "lat": 38.894868, "name": "6319a7cfd269166287e5e61e6410de14", "fusion_lon": 0.0, "bike_id": "6319a7cfd269166287e5e61e6410de14", "is_disabled": 0, "is_reserved": 0}, {"rental_uris": {"ios": "https://dc.lft.to/lastmile_qr_scan", "android": "https://dc.lft.to/lastmile_qr_scan"}, "lon": -76.99558583333334, "type": "electric_scooter", "fusion_lat": 0.0, "lat": 38.92880916666667, "name": "98c56236736c6226d6d497630f2a43eb", "fusion_lon": 0.0, "bike_id": "98c56236736c6226d6d497630f2a43eb", "is_disabled": 0, "is_reserved": 0}, {"rental_uris": {"ios": "https://dc.lft.to/lastmile_qr_scan", "android": "https://dc.lft.to/lastmile_qr_scan"}, "lon": -76.93863166666667, "type": "electric_scooter", "fusion_lat": 0.0, "lat": 38.900851, "name": "4f0c11eb6e15e982a119648bce7c2631", "fusion_lon": 0.0, "bike_id": "4f0c11eb6e15e982a119648bce7c2631", "is_disabled": 0, "is_reserved": 0}, {"rental_uris": {"ios": "https://dc.lft.to/lastmile_qr_scan", "android": "https://dc.lft.to/lastmile_qr_scan"}, "lon": -76.9865475, "type": "electric_scooter", "fusion_lat": 0.0, "lat": 38.858073833333336, "name": "2c37913f7f5a93da08e3986e0f9232c7", "fusion_lon": 0.0, "bike_id": "2c37913f7f5a93da08e3986e0f9232c7", "is_disabled": 0, "is_reserved": 0}, {"rental_uris": {"ios": "https://dc.lft.to/lastmile_qr_scan", "android": "https://dc.lft.to/lastmile_qr_scan"}, "lon": -76.99614683333333, "type": "electric_scooter", "fusion_lat": 0.0, "lat": 38.897419166666666, "name": "62071c505241861e7e67dcd59577506f", "fusion_lon": 0.0, "bike_id": "62071c505241861e7e67dcd59577506f", "is_disabled": 0, "is_reserved": 0}, {"rental_uris": {"ios": "https://dc.lft.to/lastmile_qr_scan", "android": "https://dc.lft.to/lastmile_qr_scan"}, "lon": -77.04493033333334, "type": "electric_scooter", "fusion_lat": 0.0, "lat": 38.9000995, "name": "83581e6c649b92e3a7a6504741323d12", "fusion_lon": 0.0, "bike_id": "83581e6c649b92e3a7a6504741323d12", "is_disabled": 0, "is_reserved": 0}, {"rental_uris": {"ios": "https://dc.lft.to/lastmile_qr_scan", "android": "https://dc.lft.to/lastmile_qr_scan"}, "lon": -77.046586, "type": "electric_scooter", "fusion_lat": 0.0, "lat": 38.907575333333334, "name": "340084a1207ee2a06de1eaacbbdb9525", "fusion_lon": 0.0, "bike_id": "340084a1207ee2a06de1eaacbbdb9525", "is_disabled": 0, "is_reserved": 0}, {"rental_uris": {"ios": "https://dc.lft.to/lastmile_qr_scan", "android": "https://dc.lft.to/lastmile_qr_scan"}, "lon": -77.02757966666667, "type": "electric_scooter", "fusion_lat": 0.0, "lat": 38.956173666666665, "name": "beac86593bbc324d4091e9272476e599", "fusion_lon": 0.0, "bike_id": "beac86593bbc324d4091e9272476e599", "is_disabled": 0, "is_reserved": 0}, {"rental_uris": {"ios": "https://dc.lft.to/lastmile_qr_scan", "android": "https://dc.lft.to/lastmile_qr_scan"}, "lon": -77.0271895, "type": "electric_scooter", "fusion_lat": 0.0, "lat": 38.90907116666666, "name": "6d59d269c50d85d42eb0d188f3e29f05", "fusion_lon": 0.0, "bike_id": "6d59d269c50d85d42eb0d188f3e29f05", "is_disabled": 0, "is_reserved": 0}, {"rental_uris": {"ios": "https://dc.lft.to/lastmile_qr_scan", "android": "https://dc.lft.to/lastmile_qr_scan"}, "lon": -77.00368383333333, "type": "electric_scooter", "fusion_lat": 0.0, "lat": 38.838015, "name": "83c51d3f4471f507d2a4e3dc0e2e0ca6", "fusion_lon": 0.0, "bike_id": "83c51d3f4471f507d2a4e3dc0e2e0ca6", "is_disabled": 0, "is_reserved": 0}, {"rental_uris": {"ios": "https://dc.lft.to/lastmile_qr_scan", "android": "https://dc.lft.to/lastmile_qr_scan"}, "lon": -77.00373533333334, "type": "electric_bike", "fusion_lat": 0.0, "lat": 38.836066, "name": "4dacccff67bdc3510ee64458a78bb25d", "fusion_lon": 0.0, "bike_id": "4dacccff67bdc3510ee64458a78bb25d", "is_disabled": 0, "is_reserved": 0}, {"rental_uris": {"ios": "https://dc.lft.to/lastmile_qr_scan", "android": "https://dc.lft.to/lastmile_qr_scan"}, "lon": -77.09547933333333, "type": "electric_bike", "fusion_lat": 0.0, "lat": 38.837347666666666, "name": "8ab6b9c602304aed1d216e21d469bd9c", "fusion_lon": 0.0, "bike_id": "8ab6b9c602304aed1d216e21d469bd9c", "is_disabled": 0, "is_reserved": 0}, {"rental_uris": {"ios": "https://dc.lft.to/lastmile_qr_scan", "android": "https://dc.lft.to/lastmile_qr_scan"}, "lon": -76.94140633333333, "type": "electric_scooter", "fusion_lat": 0.0, "lat": 38.89680233333333, "name": "8e8097eb7e42dbab7ab289b0ea643422", "fusion_lon": 0.0, "bike_id": "8e8097eb7e42dbab7ab289b0ea643422", "is_disabled": 0, "is_reserved": 0}, {"rental_uris": {"ios": "https://dc.lft.to/lastmile_qr_scan", "android": "https://dc.lft.to/lastmile_qr_scan"}, "lon": -77.02888683333333, "type": "electric_scooter", "fusion_lat": 0.0, "lat": 38.9072675, "name": "7b4b8e2d824543e8b48095e7ffb86c4e", "fusion_lon": 0.0, "bike_id": "7b4b8e2d824543e8b48095e7ffb86c4e", "is_disabled": 0, "is_reserved": 0}, {"rental_uris": {"ios": "https://dc.lft.to/lastmile_qr_scan", "android": "https://dc.lft.to/lastmile_qr_scan"}, "lon": -76.99054333333333, "type": "electric_scooter", "fusion_lat": 0.0, "lat": 38.86349383333334, "name": "78994ebf87010d27acb4939f81e48da8", "fusion_lon": 0.0, "bike_id": "78994ebf87010d27acb4939f81e48da8", "is_disabled": 0, "is_reserved": 0}, {"rental_uris": {"ios": "https://dc.lft.to/lastmile_qr_scan", "android": "https://dc.lft.to/lastmile_qr_scan"}, "lon": -77.02329366666666, "type": "electric_scooter", "fusion_lat": 0.0, "lat": 38.9270685, "name": "d3537c6457415a2fd379c8b326d6c593", "fusion_lon": 0.0, "bike_id": "d3537c6457415a2fd379c8b326d6c593", "is_disabled": 0, "is_reserved": 0}, {"rental_uris": {"ios": "https://dc.lft.to/lastmile_qr_scan", "android": "https://dc.lft.to/lastmile_qr_scan"}, "lon": -77.0531915, "type": "electric_scooter", "fusion_lat": 0.0, "lat": 38.904701333333335, "name": "22b3ce5572f48cc178648acc5fb504b9", "fusion_lon": 0.0, "bike_id": "22b3ce5572f48cc178648acc5fb504b9", "is_disabled": 0, "is_reserved": 0}, {"rental_uris": {"ios": "https://dc.lft.to/lastmile_qr_scan", "android": "https://dc.lft.to/lastmile_qr_scan"}, "lon": -76.93159633333333, "type": "electric_bike", "fusion_lat": 0.0, "lat": 38.90863816666667, "name": "fd72b4727a215ce3a9810acd5a7f49aa", "fusion_lon": 0.0, "bike_id": "fd72b4727a215ce3a9810acd5a7f49aa", "is_disabled": 0, "is_reserved": 0}, {"rental_uris": {"ios": "https://dc.lft.to/lastmile_qr_scan", "android": "https://dc.lft.to/lastmile_qr_scan"}, "lon": -77.03643033333333, "type": "electric_scooter", "fusion_lat": 0.0, "lat": 38.91265833333333, "name": "881279371e9bc32548d20b5f0cfec25b", "fusion_lon": 0.0, "bike_id": "881279371e9bc32548d20b5f0cfec25b", "is_disabled": 0, "is_reserved": 0}, {"rental_uris": {"ios": "https://dc.lft.to/lastmile_qr_scan", "android": "https://dc.lft.to/lastmile_qr_scan"}, "lon": -77.04114066666666, "type": "electric_scooter", "fusion_lat": 0.0, "lat": 38.92358266666667, "name": "e46c6654ff2f1267261a0f3d14f3582f", "fusion_lon": 0.0, "bike_id": "e46c6654ff2f1267261a0f3d14f3582f", "is_disabled": 0, "is_reserved": 0}, {"rental_uris": {"ios": "https://dc.lft.to/lastmile_qr_scan", "android": "https://dc.lft.to/lastmile_qr_scan"}, "lon": -76.9535775, "type": "electric_bike", "fusion_lat": 0.0, "lat": 38.93952633333333, "name": "5b33a914143a7d75d01a1ca2f3a46050", "fusion_lon": 0.0, "bike_id": "5b33a914143a7d75d01a1ca2f3a46050", "is_disabled": 0, "is_reserved": 0}, {"rental_uris": {"ios": "https://dc.lft.to/lastmile_qr_scan", "android": "https://dc.lft.to/lastmile_qr_scan"}, "lon": -77.17835916666667, "type": "electric_bike", "fusion_lat": 0.0, "lat": 39.0885455, "name": "6ed1b99fe1a2704a044273105392e843", "fusion_lon": 0.0, "bike_id": "6ed1b99fe1a2704a044273105392e843", "is_disabled": 0, "is_reserved": 0}, {"rental_uris": {"ios": "https://dc.lft.to/lastmile_qr_scan", "android": "https://dc.lft.to/lastmile_qr_scan"}, "lon": -76.98714333333334, "type": "electric_scooter", "fusion_lat": 0.0, "lat": 38.86704916666667, "name": "e6c899b8d7922474e6cec6860ede415f", "fusion_lon": 0.0, "bike_id": "e6c899b8d7922474e6cec6860ede415f", "is_disabled": 0, "is_reserved": 0}, {"rental_uris": {"ios": "https://dc.lft.to/lastmile_qr_scan", "android": "https://dc.lft.to/lastmile_qr_scan"}, "lon": -77.03287083333333, "type": "electric_scooter", "fusion_lat": 0.0, "lat": 38.928565666666664, "name": "29ccfe0e35b02e1ecd4732f27408dbca", "fusion_lon": 0.0, "bike_id": "29ccfe0e35b02e1ecd4732f27408dbca", "is_disabled": 0, "is_reserved": 0}, {"rental_uris": {"ios": "https://dc.lft.to/lastmile_qr_scan", "android": "https://dc.lft.to/lastmile_qr_scan"}, "lon": -77.00119783333334, "type": "electric_scooter", "fusion_lat": 0.0, "lat": 38.877892333333335, "name": "18d502670e15e53e8dc4d8f78485179d", "fusion_lon": 0.0, "bike_id": "18d502670e15e53e8dc4d8f78485179d", "is_disabled": 0, "is_reserved": 0}, {"rental_uris": {"ios": "https://dc.lft.to/lastmile_qr_scan", "android": "https://dc.lft.to/lastmile_qr_scan"}, "lon": -76.98897916666667, "type": "electric_scooter", "fusion_lat": 0.0, "lat": 38.86695783333333, "name": "c9b65dced9de3b58587549ef111cac6c", "fusion_lon": 0.0, "bike_id": "c9b65dced9de3b58587549ef111cac6c", "is_disabled": 0, "is_reserved": 0}, {"rental_uris": {"ios": "https://dc.lft.to/lastmile_qr_scan", "android": "https://dc.lft.to/lastmile_qr_scan"}, "lon": -77.05699783333333, "type": "electric_scooter", "fusion_lat": 0.0, "lat": 38.905547166666665, "name": "2d57ffa5087f30c9fecfc6cd690f060e", "fusion_lon": 0.0, "bike_id": "2d57ffa5087f30c9fecfc6cd690f060e", "is_disabled": 0, "is_reserved": 0}, {"rental_uris": {"ios": "https://dc.lft.to/lastmile_qr_scan", "android": "https://dc.lft.to/lastmile_qr_scan"}, "lon": -77.01109516666666, "type": "electric_scooter", "fusion_lat": 0.0, "lat": 38.9079785, "name": "5681813922cca5ea29ac97b1742a94ea", "fusion_lon": 0.0, "bike_id": "5681813922cca5ea29ac97b1742a94ea", "is_disabled": 0, "is_reserved": 0}, {"rental_uris": {"ios": "https://dc.lft.to/lastmile_qr_scan", "android": "https://dc.lft.to/lastmile_qr_scan"}, "lon": -76.99001583333333, "type": "electric_scooter", "fusion_lat": 0.0, "lat": 38.865046, "name": "20b2955c4f4a3972ed842d2f70bd2f55", "fusion_lon": 0.0, "bike_id": "20b2955c4f4a3972ed842d2f70bd2f55", "is_disabled": 0, "is_reserved": 0}, {"rental_uris": {"ios": "https://dc.lft.to/lastmile_qr_scan", "android": "https://dc.lft.to/lastmile_qr_scan"}, "lon": -77.023854, "type": "electric_scooter", "fusion_lat": 0.0, "lat": 38.90290233333333, "name": "96d89212595ea7031b2382e3f71ae606", "fusion_lon": 0.0, "bike_id": "96d89212595ea7031b2382e3f71ae606", "is_disabled": 0, "is_reserved": 0}, {"rental_uris": {"ios": "https://dc.lft.to/lastmile_qr_scan", "android": "https://dc.lft.to/lastmile_qr_scan"}, "lon": -77.00623383333334, "type": "electric_scooter", "fusion_lat": 0.0, "lat": 38.8292535, "name": "0d977ca6bf5f1b8cd29c63d235bef682", "fusion_lon": 0.0, "bike_id": "0d977ca6bf5f1b8cd29c63d235bef682", "is_disabled": 0, "is_reserved": 0}, {"rental_uris": {"ios": "https://dc.lft.to/lastmile_qr_scan", "android": "https://dc.lft.to/lastmile_qr_scan"}, "lon": -77.01924783333334, "type": "electric_scooter", "fusion_lat": 0.0, "lat": 38.9568795, "name": "d819304820b2b0fb612f8d3ad4bfc975", "fusion_lon": 0.0, "bike_id": "d819304820b2b0fb612f8d3ad4bfc975", "is_disabled": 0, "is_reserved": 0}, {"rental_uris": {"ios": "https://dc.lft.to/lastmile_qr_scan", "android": "https://dc.lft.to/lastmile_qr_scan"}, "lon": -77.0279005, "type": "electric_scooter", "fusion_lat": 0.0, "lat": 38.9308585, "name": "402e209bc154347e6e34a2fdec876bb3", "fusion_lon": 0.0, "bike_id": "402e209bc154347e6e34a2fdec876bb3", "is_disabled": 0, "is_reserved": 0}, {"rental_uris": {"ios": "https://dc.lft.to/lastmile_qr_scan", "android": "https://dc.lft.to/lastmile_qr_scan"}, "lon": -77.030636, "type": "electric_scooter", "fusion_lat": 0.0, "lat": 38.894918833333335, "name": "8bcb830afbbed844bfe93fe2b70b9c73", "fusion_lon": 0.0, "bike_id": "8bcb830afbbed844bfe93fe2b70b9c73", "is_disabled": 0, "is_reserved": 0}, {"rental_uris": {"ios": "https://dc.lft.to/lastmile_qr_scan", "android": "https://dc.lft.to/lastmile_qr_scan"}, "lon": -76.990006, "type": "electric_scooter", "fusion_lat": 0.0, "lat": 38.90385, "name": "7c93a54990a4ce17d40487786f1d02af", "fusion_lon": 0.0, "bike_id": "7c93a54990a4ce17d40487786f1d02af", "is_disabled": 0, "is_reserved": 0}, {"rental_uris": {"ios": "https://dc.lft.to/lastmile_qr_scan", "android": "https://dc.lft.to/lastmile_qr_scan"}, "lon": -76.9955195, "type": "electric_scooter", "fusion_lat": 0.0, "lat": 38.8623165, "name": "2a4af2427d85761fa22b6e45855157ae", "fusion_lon": 0.0, "bike_id": "2a4af2427d85761fa22b6e45855157ae", "is_disabled": 0, "is_reserved": 0}, {"rental_uris": {"ios": "https://dc.lft.to/lastmile_qr_scan", "android": "https://dc.lft.to/lastmile_qr_scan"}, "lon": -77.0421085, "type": "electric_scooter", "fusion_lat": 0.0, "lat": 38.9066955, "name": "cbe9371d72b338d842bb614f488cac12", "fusion_lon": 0.0, "bike_id": "cbe9371d72b338d842bb614f488cac12", "is_disabled": 0, "is_reserved": 0}, {"rental_uris": {"ios": "https://dc.lft.to/lastmile_qr_scan", "android": "https://dc.lft.to/lastmile_qr_scan"}, "lon": -77.01994783333333, "type": "electric_scooter", "fusion_lat": 0.0, "lat": 38.937775, "name": "2159411b7b93782aea2def22e2ca903e", "fusion_lon": 0.0, "bike_id": "2159411b7b93782aea2def22e2ca903e", "is_disabled": 0, "is_reserved": 0}, {"rental_uris": {"ios": "https://dc.lft.to/lastmile_qr_scan", "android": "https://dc.lft.to/lastmile_qr_scan"}, "lon": -77.0283925, "type": "electric_scooter", "fusion_lat": 0.0, "lat": 38.9285855, "name": "fad2ea26743a6e6228a63ae417e1bb17", "fusion_lon": 0.0, "bike_id": "fad2ea26743a6e6228a63ae417e1bb17", "is_disabled": 0, "is_reserved": 0}, {"rental_uris": {"ios": "https://dc.lft.to/lastmile_qr_scan", "android": "https://dc.lft.to/lastmile_qr_scan"}, "lon": -77.01014333333333, "type": "electric_scooter", "fusion_lat": 0.0, "lat": 38.91814566666667, "name": "369955ca04e31f722ec2c4985a3c34f3", "fusion_lon": 0.0, "bike_id": "369955ca04e31f722ec2c4985a3c34f3", "is_disabled": 0, "is_reserved": 0}, {"rental_uris": {"ios": "https://dc.lft.to/lastmile_qr_scan", "android": "https://dc.lft.to/lastmile_qr_scan"}, "lon": -77.05929033333334, "type": "electric_scooter", "fusion_lat": 0.0, "lat": 38.909481166666666, "name": "800764634f8e27ebcfa62d90389541c1", "fusion_lon": 0.0, "bike_id": "800764634f8e27ebcfa62d90389541c1", "is_disabled": 0, "is_reserved": 0}, {"rental_uris": {"ios": "https://dc.lft.to/lastmile_qr_scan", "android": "https://dc.lft.to/lastmile_qr_scan"}, "lon": -77.03661666666666, "type": "electric_scooter", "fusion_lat": 0.0, "lat": 38.91808566666667, "name": "614180794e156c0de94c34d462b3cdb3", "fusion_lon": 0.0, "bike_id": "614180794e156c0de94c34d462b3cdb3", "is_disabled": 0, "is_reserved": 0}, {"rental_uris": {"ios": "https://dc.lft.to/lastmile_qr_scan", "android": "https://dc.lft.to/lastmile_qr_scan"}, "lon": -76.936272, "type": "electric_scooter", "fusion_lat": 0.0, "lat": 38.889910666666665, "name": "4150cd4843c417a5c5be9f2988ddc3dc", "fusion_lon": 0.0, "bike_id": "4150cd4843c417a5c5be9f2988ddc3dc", "is_disabled": 0, "is_reserved": 0}, {"rental_uris": {"ios": "https://dc.lft.to/lastmile_qr_scan", "android": "https://dc.lft.to/lastmile_qr_scan"}, "lon": -77.01428483333333, "type": "electric_scooter", "fusion_lat": 0.0, "lat": 38.917041833333336, "name": "a2767a8f767895ba10b1a682fa051ecd", "fusion_lon": 0.0, "bike_id": "a2767a8f767895ba10b1a682fa051ecd", "is_disabled": 0, "is_reserved": 0}, {"rental_uris": {"ios": "https://dc.lft.to/lastmile_qr_scan", "android": "https://dc.lft.to/lastmile_qr_scan"}, "lon": -76.93363066666667, "type": "electric_scooter", "fusion_lat": 0.0, "lat": 38.899158, "name": "2ebd9c674b004ca278d612263a0a3711", "fusion_lon": 0.0, "bike_id": "2ebd9c674b004ca278d612263a0a3711", "is_disabled": 0, "is_reserved": 0}, {"rental_uris": {"ios": "https://dc.lft.to/lastmile_qr_scan", "android": "https://dc.lft.to/lastmile_qr_scan"}, "lon": -77.03867283333334, "type": "electric_scooter", "fusion_lat": 0.0, "lat": 38.934343166666665, "name": "4fc9adb9ce32feb9281b55ba2d279998", "fusion_lon": 0.0, "bike_id": "4fc9adb9ce32feb9281b55ba2d279998", "is_disabled": 0, "is_reserved": 0}, {"rental_uris": {"ios": "https://dc.lft.to/lastmile_qr_scan", "android": "https://dc.lft.to/lastmile_qr_scan"}, "lon": -77.04266583333333, "type": "electric_scooter", "fusion_lat": 0.0, "lat": 38.90571516666667, "name": "51d3e659f728206434c3ed6b0a9c9002", "fusion_lon": 0.0, "bike_id": "51d3e659f728206434c3ed6b0a9c9002", "is_disabled": 0, "is_reserved": 0}, {"rental_uris": {"ios": "https://dc.lft.to/lastmile_qr_scan", "android": "https://dc.lft.to/lastmile_qr_scan"}, "lon": -77.001026, "type": "electric_scooter", "fusion_lat": 0.0, "lat": 38.87324616666667, "name": "d7515efcd208bf7bb9b939f822a3f213", "fusion_lon": 0.0, "bike_id": "d7515efcd208bf7bb9b939f822a3f213", "is_disabled": 0, "is_reserved": 0}, {"rental_uris": {"ios": "https://dc.lft.to/lastmile_qr_scan", "android": "https://dc.lft.to/lastmile_qr_scan"}, "lon": -76.93548033333333, "type": "electric_bike", "fusion_lat": 0.0, "lat": 38.95185033333333, "name": "201e7e0c21795e13873ae86f7dedd369", "fusion_lon": 0.0, "bike_id": "201e7e0c21795e13873ae86f7dedd369", "is_disabled": 0, "is_reserved": 0}, {"rental_uris": {"ios": "https://dc.lft.to/lastmile_qr_scan", "android": "https://dc.lft.to/lastmile_qr_scan"}, "lon": -77.04813583333333, "type": "electric_scooter", "fusion_lat": 0.0, "lat": 38.8973755, "name": "e645d2842750b069d0de31131fd4ce6f", "fusion_lon": 0.0, "bike_id": "e645d2842750b069d0de31131fd4ce6f", "is_disabled": 0, "is_reserved": 0}, {"rental_uris": {"ios": "https://dc.lft.to/lastmile_qr_scan", "android": "https://dc.lft.to/lastmile_qr_scan"}, "lon": -77.0568395, "type": "electric_scooter", "fusion_lat": 0.0, "lat": 38.937015333333335, "name": "10df51184c3e29a1d115bf4d792b5179", "fusion_lon": 0.0, "bike_id": "10df51184c3e29a1d115bf4d792b5179", "is_disabled": 0, "is_reserved": 0}, {"rental_uris": {"ios": "https://dc.lft.to/lastmile_qr_scan", "android": "https://dc.lft.to/lastmile_qr_scan"}, "lon": -77.05083216666667, "type": "electric_bike", "fusion_lat": 0.0, "lat": 38.813373166666665, "name": "e7b86f4e252210a86d36b53a4a040ef2", "fusion_lon": 0.0, "bike_id": "e7b86f4e252210a86d36b53a4a040ef2", "is_disabled": 0, "is_reserved": 0}, {"rental_uris": {"ios": "https://dc.lft.to/lastmile_qr_scan", "android": "https://dc.lft.to/lastmile_qr_scan"}, "lon": -76.97331883333334, "type": "electric_scooter", "fusion_lat": 0.0, "lat": 38.90482016666667, "name": "8b791c308e46be4ab581135edd5b3f60", "fusion_lon": 0.0, "bike_id": "8b791c308e46be4ab581135edd5b3f60", "is_disabled": 0, "is_reserved": 0}, {"rental_uris": {"ios": "https://dc.lft.to/lastmile_qr_scan", "android": "https://dc.lft.to/lastmile_qr_scan"}, "lon": -77.05801266666667, "type": "electric_scooter", "fusion_lat": 0.0, "lat": 38.902958, "name": "3ae3f5a94b2053ba128b47bffbae5f51", "fusion_lon": 0.0, "bike_id": "3ae3f5a94b2053ba128b47bffbae5f51", "is_disabled": 0, "is_reserved": 0}, {"rental_uris": {"ios": "https://dc.lft.to/lastmile_qr_scan", "android": "https://dc.lft.to/lastmile_qr_scan"}, "lon": -77.03559266666667, "type": "electric_scooter", "fusion_lat": 0.0, "lat": 38.91822233333333, "name": "ad19ad068a12b5f9d4b03f19ba4bcdb7", "fusion_lon": 0.0, "bike_id": "ad19ad068a12b5f9d4b03f19ba4bcdb7", "is_disabled": 0, "is_reserved": 0}, {"rental_uris": {"ios": "https://dc.lft.to/lastmile_qr_scan", "android": "https://dc.lft.to/lastmile_qr_scan"}, "lon": -77.033642, "type": "electric_scooter", "fusion_lat": 0.0, "lat": 38.91416616666667, "name": "5fcb33e627a19f2033027e555d6d36ff", "fusion_lon": 0.0, "bike_id": "5fcb33e627a19f2033027e555d6d36ff", "is_disabled": 0, "is_reserved": 0}, {"rental_uris": {"ios": "https://dc.lft.to/lastmile_qr_scan", "android": "https://dc.lft.to/lastmile_qr_scan"}, "lon": -77.030812, "type": "electric_scooter", "fusion_lat": 0.0, "lat": 38.922505666666666, "name": "d8db2ce9f1bc4c92f9f099b2e4eb0f00", "fusion_lon": 0.0, "bike_id": "d8db2ce9f1bc4c92f9f099b2e4eb0f00", "is_disabled": 0, "is_reserved": 0}, {"rental_uris": {"ios": "https://dc.lft.to/lastmile_qr_scan", "android": "https://dc.lft.to/lastmile_qr_scan"}, "lon": -76.99553783333333, "type": "electric_scooter", "fusion_lat": 0.0, "lat": 38.923204, "name": "0bad2d2e293b098c4958422e02084bd6", "fusion_lon": 0.0, "bike_id": "0bad2d2e293b098c4958422e02084bd6", "is_disabled": 0, "is_reserved": 0}, {"rental_uris": {"ios": "https://dc.lft.to/lastmile_qr_scan", "android": "https://dc.lft.to/lastmile_qr_scan"}, "lon": -76.9860685, "type": "electric_scooter", "fusion_lat": 0.0, "lat": 38.878423166666664, "name": "8a910dbb074bed6db3bef3ed3a2024f0", "fusion_lon": 0.0, "bike_id": "8a910dbb074bed6db3bef3ed3a2024f0", "is_disabled": 0, "is_reserved": 0}, {"rental_uris": {"ios": "https://dc.lft.to/lastmile_qr_scan", "android": "https://dc.lft.to/lastmile_qr_scan"}, "lon": -77.02818066666667, "type": "electric_scooter", "fusion_lat": 0.0, "lat": 38.91759866666666, "name": "5975abe73c1b0ef548026f3491c87f9d", "fusion_lon": 0.0, "bike_id": "5975abe73c1b0ef548026f3491c87f9d", "is_disabled": 0, "is_reserved": 0}, {"rental_uris": {"ios": "https://dc.lft.to/lastmile_qr_scan", "android": "https://dc.lft.to/lastmile_qr_scan"}, "lon": -76.957511, "type": "electric_scooter", "fusion_lat": 0.0, "lat": 38.8842635, "name": "7e287e0e59f6996c34ab7440a56af474", "fusion_lon": 0.0, "bike_id": "7e287e0e59f6996c34ab7440a56af474", "is_disabled": 0, "is_reserved": 0}, {"rental_uris": {"ios": "https://dc.lft.to/lastmile_qr_scan", "android": "https://dc.lft.to/lastmile_qr_scan"}, "lon": -77.05558033333334, "type": "electric_scooter", "fusion_lat": 0.0, "lat": 38.925339, "name": "12a45c62d59d223123a96aeefc54ec51", "fusion_lon": 0.0, "bike_id": "12a45c62d59d223123a96aeefc54ec51", "is_disabled": 0, "is_reserved": 0}, {"rental_uris": {"ios": "https://dc.lft.to/lastmile_qr_scan", "android": "https://dc.lft.to/lastmile_qr_scan"}, "lon": -77.03623716666667, "type": "electric_scooter", "fusion_lat": 0.0, "lat": 38.924195, "name": "5bc0f94ec8c69a92a4e49354b2fac3d0", "fusion_lon": 0.0, "bike_id": "5bc0f94ec8c69a92a4e49354b2fac3d0", "is_disabled": 0, "is_reserved": 0}, {"rental_uris": {"ios": "https://dc.lft.to/lastmile_qr_scan", "android": "https://dc.lft.to/lastmile_qr_scan"}, "lon": -77.05474466666666, "type": "electric_scooter", "fusion_lat": 0.0, "lat": 38.910662, "name": "12cadd6af34f13b983ffc8c21673187b", "fusion_lon": 0.0, "bike_id": "12cadd6af34f13b983ffc8c21673187b", "is_disabled": 0, "is_reserved": 0}, {"rental_uris": {"ios": "https://dc.lft.to/lastmile_qr_scan", "android": "https://dc.lft.to/lastmile_qr_scan"}, "lon": -77.02618833333334, "type": "electric_scooter", "fusion_lat": 0.0, "lat": 38.915287, "name": "b46126a8d1d1c4e7492bd1f0374b25f6", "fusion_lon": 0.0, "bike_id": "b46126a8d1d1c4e7492bd1f0374b25f6", "is_disabled": 0, "is_reserved": 0}, {"rental_uris": {"ios": "https://dc.lft.to/lastmile_qr_scan", "android": "https://dc.lft.to/lastmile_qr_scan"}, "lon": -77.03562233333334, "type": "electric_scooter", "fusion_lat": 0.0, "lat": 38.93983466666667, "name": "08da6de361ff3d1505641bee62757001", "fusion_lon": 0.0, "bike_id": "08da6de361ff3d1505641bee62757001", "is_disabled": 0, "is_reserved": 0}, {"rental_uris": {"ios": "https://dc.lft.to/lastmile_qr_scan", "android": "https://dc.lft.to/lastmile_qr_scan"}, "lon": -76.98126316666666, "type": "electric_scooter", "fusion_lat": 0.0, "lat": 38.85707, "name": "ff8fadc45150587867818574ea0560e3", "fusion_lon": 0.0, "bike_id": "ff8fadc45150587867818574ea0560e3", "is_disabled": 0, "is_reserved": 0}, {"rental_uris": {"ios": "https://dc.lft.to/lastmile_qr_scan", "android": "https://dc.lft.to/lastmile_qr_scan"}, "lon": -76.93874016666666, "type": "electric_scooter", "fusion_lat": 0.0, "lat": 38.900769, "name": "3c730abf0ddf4da75c9799a50c2ba053", "fusion_lon": 0.0, "bike_id": "3c730abf0ddf4da75c9799a50c2ba053", "is_disabled": 0, "is_reserved": 0}, {"rental_uris": {"ios": "https://dc.lft.to/lastmile_qr_scan", "android": "https://dc.lft.to/lastmile_qr_scan"}, "lon": -77.03820816666666, "type": "electric_scooter", "fusion_lat": 0.0, "lat": 38.90788716666667, "name": "e7a865fd09b2db0dc3ac50e17159f04f", "fusion_lon": 0.0, "bike_id": "e7a865fd09b2db0dc3ac50e17159f04f", "is_disabled": 0, "is_reserved": 0}, {"rental_uris": {"ios": "https://dc.lft.to/lastmile_qr_scan", "android": "https://dc.lft.to/lastmile_qr_scan"}, "lon": -77.05567233333333, "type": "electric_scooter", "fusion_lat": 0.0, "lat": 38.89969083333333, "name": "d486ae77813283cb27a52d9d796083b2", "fusion_lon": 0.0, "bike_id": "d486ae77813283cb27a52d9d796083b2", "is_disabled": 0, "is_reserved": 0}, {"rental_uris": {"ios": "https://dc.lft.to/lastmile_qr_scan", "android": "https://dc.lft.to/lastmile_qr_scan"}, "lon": -76.98752933333333, "type": "electric_scooter", "fusion_lat": 0.0, "lat": 38.91021683333334, "name": "a95f92b1ab4dee0052d2ac0042a1de41", "fusion_lon": 0.0, "bike_id": "a95f92b1ab4dee0052d2ac0042a1de41", "is_disabled": 0, "is_reserved": 0}, {"rental_uris": {"ios": "https://dc.lft.to/lastmile_qr_scan", "android": "https://dc.lft.to/lastmile_qr_scan"}, "lon": -76.9396245, "type": "electric_scooter", "fusion_lat": 0.0, "lat": 38.89968733333333, "name": "057d1a92031d93e1aa0178c2a7f08fc4", "fusion_lon": 0.0, "bike_id": "057d1a92031d93e1aa0178c2a7f08fc4", "is_disabled": 0, "is_reserved": 0}, {"rental_uris": {"ios": "https://dc.lft.to/lastmile_qr_scan", "android": "https://dc.lft.to/lastmile_qr_scan"}, "lon": -77.08048466666666, "type": "electric_bike", "fusion_lat": 0.0, "lat": 38.84842316666666, "name": "430827a9b0ae8cc4c81135fc9f2248a5", "fusion_lon": 0.0, "bike_id": "430827a9b0ae8cc4c81135fc9f2248a5", "is_disabled": 0, "is_reserved": 0}, {"rental_uris": {"ios": "https://dc.lft.to/lastmile_qr_scan", "android": "https://dc.lft.to/lastmile_qr_scan"}, "lon": -76.99458866666667, "type": "electric_scooter", "fusion_lat": 0.0, "lat": 38.85162716666667, "name": "7d95315732bcd98bc36e0a6e091a8eaa", "fusion_lon": 0.0, "bike_id": "7d95315732bcd98bc36e0a6e091a8eaa", "is_disabled": 0, "is_reserved": 0}, {"rental_uris": {"ios": "https://dc.lft.to/lastmile_qr_scan", "android": "https://dc.lft.to/lastmile_qr_scan"}, "lon": -77.04489933333333, "type": "electric_scooter", "fusion_lat": 0.0, "lat": 38.911053833333334, "name": "32dbf24fc2232f88de629ad1339caa39", "fusion_lon": 0.0, "bike_id": "32dbf24fc2232f88de629ad1339caa39", "is_disabled": 0, "is_reserved": 0}, {"rental_uris": {"ios": "https://dc.lft.to/lastmile_qr_scan", "android": "https://dc.lft.to/lastmile_qr_scan"}, "lon": -77.027899, "type": "electric_scooter", "fusion_lat": 0.0, "lat": 38.896360333333334, "name": "822825f31696a3af9e7948de234c7c03", "fusion_lon": 0.0, "bike_id": "822825f31696a3af9e7948de234c7c03", "is_disabled": 0, "is_reserved": 0}, {"rental_uris": {"ios": "https://dc.lft.to/lastmile_qr_scan", "android": "https://dc.lft.to/lastmile_qr_scan"}, "lon": -77.03667733333333, "type": "electric_scooter", "fusion_lat": 0.0, "lat": 38.9293905, "name": "a0ad2861fb1428151e8e2b09dc99ed4a", "fusion_lon": 0.0, "bike_id": "a0ad2861fb1428151e8e2b09dc99ed4a", "is_disabled": 0, "is_reserved": 0}, {"rental_uris": {"ios": "https://dc.lft.to/lastmile_qr_scan", "android": "https://dc.lft.to/lastmile_qr_scan"}, "lon": -77.0383865, "type": "electric_scooter", "fusion_lat": 0.0, "lat": 38.9111445, "name": "479fdf41b0c52db8605c72d7291ada6e", "fusion_lon": 0.0, "bike_id": "479fdf41b0c52db8605c72d7291ada6e", "is_disabled": 0, "is_reserved": 0}, {"rental_uris": {"ios": "https://dc.lft.to/lastmile_qr_scan", "android": "https://dc.lft.to/lastmile_qr_scan"}, "lon": -77.0193305, "type": "electric_scooter", "fusion_lat": 0.0, "lat": 38.949273166666664, "name": "4f3fd364455295167e6f8c527b74432e", "fusion_lon": 0.0, "bike_id": "4f3fd364455295167e6f8c527b74432e", "is_disabled": 0, "is_reserved": 0}, {"rental_uris": {"ios": "https://dc.lft.to/lastmile_qr_scan", "android": "https://dc.lft.to/lastmile_qr_scan"}, "lon": -77.0732705, "type": "electric_scooter", "fusion_lat": 0.0, "lat": 38.9249885, "name": "0fd8cb5c8b99d1f9d1134f16b865e8ff", "fusion_lon": 0.0, "bike_id": "0fd8cb5c8b99d1f9d1134f16b865e8ff", "is_disabled": 0, "is_reserved": 0}, {"rental_uris": {"ios": "https://dc.lft.to/lastmile_qr_scan", "android": "https://dc.lft.to/lastmile_qr_scan"}, "lon": -77.0755745, "type": "electric_scooter", "fusion_lat": 0.0, "lat": 38.91426766666667, "name": "8383f2552755d8ab4b88f0ddc0164bf4", "fusion_lon": 0.0, "bike_id": "8383f2552755d8ab4b88f0ddc0164bf4", "is_disabled": 0, "is_reserved": 0}, {"rental_uris": {"ios": "https://dc.lft.to/lastmile_qr_scan", "android": "https://dc.lft.to/lastmile_qr_scan"}, "lon": -77.03225483333334, "type": "electric_scooter", "fusion_lat": 0.0, "lat": 38.925827, "name": "4cfc802affda02cc228c195974d76b4c", "fusion_lon": 0.0, "bike_id": "4cfc802affda02cc228c195974d76b4c", "is_disabled": 0, "is_reserved": 0}, {"rental_uris": {"ios": "https://dc.lft.to/lastmile_qr_scan", "android": "https://dc.lft.to/lastmile_qr_scan"}, "lon": -77.0448025, "type": "electric_bike", "fusion_lat": 0.0, "lat": 38.912907833333335, "name": "cdb66cabcefbe7b57f4e48b004ea1efa", "fusion_lon": 0.0, "bike_id": "cdb66cabcefbe7b57f4e48b004ea1efa", "is_disabled": 0, "is_reserved": 0}, {"rental_uris": {"ios": "https://dc.lft.to/lastmile_qr_scan", "android": "https://dc.lft.to/lastmile_qr_scan"}, "lon": -77.03644666666666, "type": "electric_scooter", "fusion_lat": 0.0, "lat": 38.917355666666666, "name": "4cc78f496bb14e94974e3e4c2984209d", "fusion_lon": 0.0, "bike_id": "4cc78f496bb14e94974e3e4c2984209d", "is_disabled": 0, "is_reserved": 0}, {"rental_uris": {"ios": "https://dc.lft.to/lastmile_qr_scan", "android": "https://dc.lft.to/lastmile_qr_scan"}, "lon": -77.02461066666666, "type": "electric_scooter", "fusion_lat": 0.0, "lat": 38.93820383333333, "name": "b942ed62c5de145fbe0af029836144fa", "fusion_lon": 0.0, "bike_id": "b942ed62c5de145fbe0af029836144fa", "is_disabled": 0, "is_reserved": 0}, {"rental_uris": {"ios": "https://dc.lft.to/lastmile_qr_scan", "android": "https://dc.lft.to/lastmile_qr_scan"}, "lon": -76.96527733333333, "type": "electric_scooter", "fusion_lat": 0.0, "lat": 38.87630166666667, "name": "04d7dbb19d96cba1d925e39ce2b467d7", "fusion_lon": 0.0, "bike_id": "04d7dbb19d96cba1d925e39ce2b467d7", "is_disabled": 0, "is_reserved": 0}, {"rental_uris": {"ios": "https://dc.lft.to/lastmile_qr_scan", "android": "https://dc.lft.to/lastmile_qr_scan"}, "lon": -76.94760016666666, "type": "electric_scooter", "fusion_lat": 0.0, "lat": 38.90057316666667, "name": "5ddb8a3f95fde08fc097fc5f23d8ad5c", "fusion_lon": 0.0, "bike_id": "5ddb8a3f95fde08fc097fc5f23d8ad5c", "is_disabled": 0, "is_reserved": 0}, {"rental_uris": {"ios": "https://dc.lft.to/lastmile_qr_scan", "android": "https://dc.lft.to/lastmile_qr_scan"}, "lon": -77.02789483333333, "type": "electric_scooter", "fusion_lat": 0.0, "lat": 38.9180225, "name": "dc0efe9314532ffb7845f0a7d52c4901", "fusion_lon": 0.0, "bike_id": "dc0efe9314532ffb7845f0a7d52c4901", "is_disabled": 0, "is_reserved": 0}, {"rental_uris": {"ios": "https://dc.lft.to/lastmile_qr_scan", "android": "https://dc.lft.to/lastmile_qr_scan"}, "lon": -77.01113033333333, "type": "electric_scooter", "fusion_lat": 0.0, "lat": 38.9036, "name": "23b17347505eaabc2e3492d7fc33cf6b", "fusion_lon": 0.0, "bike_id": "23b17347505eaabc2e3492d7fc33cf6b", "is_disabled": 0, "is_reserved": 0}, {"rental_uris": {"ios": "https://dc.lft.to/lastmile_qr_scan", "android": "https://dc.lft.to/lastmile_qr_scan"}, "lon": -77.02395516666667, "type": "electric_scooter", "fusion_lat": 0.0, "lat": 38.9309175, "name": "2de608b927c75647cad68849587ef589", "fusion_lon": 0.0, "bike_id": "2de608b927c75647cad68849587ef589", "is_disabled": 0, "is_reserved": 0}, {"rental_uris": {"ios": "https://dc.lft.to/lastmile_qr_scan", "android": "https://dc.lft.to/lastmile_qr_scan"}, "lon": -77.01542433333333, "type": "electric_scooter", "fusion_lat": 0.0, "lat": 38.892036166666664, "name": "524ec985356a39e9e93d8a95a6577dd6", "fusion_lon": 0.0, "bike_id": "524ec985356a39e9e93d8a95a6577dd6", "is_disabled": 0, "is_reserved": 0}, {"rental_uris": {"ios": "https://dc.lft.to/lastmile_qr_scan", "android": "https://dc.lft.to/lastmile_qr_scan"}, "lon": -77.12505083333333, "type": "electric_bike", "fusion_lat": 0.0, "lat": 39.0242335, "name": "3a08e6c1415a8146543a5f8f2c1d6f16", "fusion_lon": 0.0, "bike_id": "3a08e6c1415a8146543a5f8f2c1d6f16", "is_disabled": 0, "is_reserved": 0}, {"rental_uris": {"ios": "https://dc.lft.to/lastmile_qr_scan", "android": "https://dc.lft.to/lastmile_qr_scan"}, "lon": -77.02136166666666, "type": "electric_scooter", "fusion_lat": 0.0, "lat": 38.933071, "name": "fc8a9e2b9280e3d7a670d6051a1985da", "fusion_lon": 0.0, "bike_id": "fc8a9e2b9280e3d7a670d6051a1985da", "is_disabled": 0, "is_reserved": 0}, {"rental_uris": {"ios": "https://dc.lft.to/lastmile_qr_scan", "android": "https://dc.lft.to/lastmile_qr_scan"}, "lon": -77.0246365, "type": "electric_scooter", "fusion_lat": 0.0, "lat": 38.930989, "name": "04cb317a1d561b5e310c260b13e36700", "fusion_lon": 0.0, "bike_id": "04cb317a1d561b5e310c260b13e36700", "is_disabled": 0, "is_reserved": 0}, {"rental_uris": {"ios": "https://dc.lft.to/lastmile_qr_scan", "android": "https://dc.lft.to/lastmile_qr_scan"}, "lon": -77.04515383333333, "type": "electric_scooter", "fusion_lat": 0.0, "lat": 38.9128885, "name": "af9e230dac1e45ce6bb524437cde2b9b", "fusion_lon": 0.0, "bike_id": "af9e230dac1e45ce6bb524437cde2b9b", "is_disabled": 0, "is_reserved": 0}, {"rental_uris": {"ios": "https://dc.lft.to/lastmile_qr_scan", "android": "https://dc.lft.to/lastmile_qr_scan"}, "lon": -77.03199933333333, "type": "electric_scooter", "fusion_lat": 0.0, "lat": 38.92282133333333, "name": "ea317fd6be3f5f59c12e4cc5af01bedb", "fusion_lon": 0.0, "bike_id": "ea317fd6be3f5f59c12e4cc5af01bedb", "is_disabled": 0, "is_reserved": 0}, {"rental_uris": {"ios": "https://dc.lft.to/lastmile_qr_scan", "android": "https://dc.lft.to/lastmile_qr_scan"}, "lon": -77.03701016666666, "type": "electric_scooter", "fusion_lat": 0.0, "lat": 38.9262735, "name": "799a8206117f0da935f8bb3e0f426319", "fusion_lon": 0.0, "bike_id": "799a8206117f0da935f8bb3e0f426319", "is_disabled": 0, "is_reserved": 0}, {"rental_uris": {"ios": "https://dc.lft.to/lastmile_qr_scan", "android": "https://dc.lft.to/lastmile_qr_scan"}, "lon": -77.00592316666666, "type": "electric_scooter", "fusion_lat": 0.0, "lat": 38.91564433333333, "name": "828e2467056425c2acf52cb861461bb6", "fusion_lon": 0.0, "bike_id": "828e2467056425c2acf52cb861461bb6", "is_disabled": 0, "is_reserved": 0}, {"rental_uris": {"ios": "https://dc.lft.to/lastmile_qr_scan", "android": "https://dc.lft.to/lastmile_qr_scan"}, "lon": -77.06111333333334, "type": "electric_scooter", "fusion_lat": 0.0, "lat": 38.9129295, "name": "22e25bb99bc821baa5f6f0dd69a8e0ac", "fusion_lon": 0.0, "bike_id": "22e25bb99bc821baa5f6f0dd69a8e0ac", "is_disabled": 0, "is_reserved": 0}, {"rental_uris": {"ios": "https://dc.lft.to/lastmile_qr_scan", "android": "https://dc.lft.to/lastmile_qr_scan"}, "lon": -77.00216766666667, "type": "electric_scooter", "fusion_lat": 0.0, "lat": 38.90074416666667, "name": "ac48d8b903bc9641c426a13a4ea9d1f9", "fusion_lon": 0.0, "bike_id": "ac48d8b903bc9641c426a13a4ea9d1f9", "is_disabled": 0, "is_reserved": 0}, {"rental_uris": {"ios": "https://dc.lft.to/lastmile_qr_scan", "android": "https://dc.lft.to/lastmile_qr_scan"}, "lon": -77.02484566666666, "type": "electric_scooter", "fusion_lat": 0.0, "lat": 38.941849833333336, "name": "6d51366d437f47985584c470f0a57cfc", "fusion_lon": 0.0, "bike_id": "6d51366d437f47985584c470f0a57cfc", "is_disabled": 0, "is_reserved": 0}, {"rental_uris": {"ios": "https://dc.lft.to/lastmile_qr_scan", "android": "https://dc.lft.to/lastmile_qr_scan"}, "lon": -77.03245333333334, "type": "electric_scooter", "fusion_lat": 0.0, "lat": 38.91252866666667, "name": "4494e280cf14dbce78109a7957b88c08", "fusion_lon": 0.0, "bike_id": "4494e280cf14dbce78109a7957b88c08", "is_disabled": 0, "is_reserved": 0}, {"rental_uris": {"ios": "https://dc.lft.to/lastmile_qr_scan", "android": "https://dc.lft.to/lastmile_qr_scan"}, "lon": -76.9899985, "type": "electric_scooter", "fusion_lat": 0.0, "lat": 38.86510083333334, "name": "5bba8ca74fa78b4ea3a353f757e056c2", "fusion_lon": 0.0, "bike_id": "5bba8ca74fa78b4ea3a353f757e056c2", "is_disabled": 0, "is_reserved": 0}, {"rental_uris": {"ios": "https://dc.lft.to/lastmile_qr_scan", "android": "https://dc.lft.to/lastmile_qr_scan"}, "lon": -77.04871383333334, "type": "electric_scooter", "fusion_lat": 0.0, "lat": 38.9060005, "name": "87844c0d49a8b2a95a473e11498d4298", "fusion_lon": 0.0, "bike_id": "87844c0d49a8b2a95a473e11498d4298", "is_disabled": 0, "is_reserved": 0}, {"rental_uris": {"ios": "https://dc.lft.to/lastmile_qr_scan", "android": "https://dc.lft.to/lastmile_qr_scan"}, "lon": -77.03348633333333, "type": "electric_scooter", "fusion_lat": 0.0, "lat": 38.93517766666667, "name": "1f9af839eb74509ce768e79fd5fb3020", "fusion_lon": 0.0, "bike_id": "1f9af839eb74509ce768e79fd5fb3020", "is_disabled": 0, "is_reserved": 0}, {"rental_uris": {"ios": "https://dc.lft.to/lastmile_qr_scan", "android": "https://dc.lft.to/lastmile_qr_scan"}, "lon": -77.04244933333334, "type": "electric_scooter", "fusion_lat": 0.0, "lat": 38.92155133333333, "name": "4d89c8116934725a0aa73ba7af2a6d8e", "fusion_lon": 0.0, "bike_id": "4d89c8116934725a0aa73ba7af2a6d8e", "is_disabled": 0, "is_reserved": 0}, {"rental_uris": {"ios": "https://dc.lft.to/lastmile_qr_scan", "android": "https://dc.lft.to/lastmile_qr_scan"}, "lon": -77.00204616666667, "type": "electric_scooter", "fusion_lat": 0.0, "lat": 38.8998205, "name": "89aa55a187ba0904f4102a1ce8a16340", "fusion_lon": 0.0, "bike_id": "89aa55a187ba0904f4102a1ce8a16340", "is_disabled": 0, "is_reserved": 0}, {"rental_uris": {"ios": "https://dc.lft.to/lastmile_qr_scan", "android": "https://dc.lft.to/lastmile_qr_scan"}, "lon": -76.93230966666667, "type": "electric_bike", "fusion_lat": 0.0, "lat": 38.865976833333335, "name": "d5f810e444deaf0da0ec517f0f5fcf57", "fusion_lon": 0.0, "bike_id": "d5f810e444deaf0da0ec517f0f5fcf57", "is_disabled": 0, "is_reserved": 0}, {"rental_uris": {"ios": "https://dc.lft.to/lastmile_qr_scan", "android": "https://dc.lft.to/lastmile_qr_scan"}, "lon": -76.947829, "type": "electric_scooter", "fusion_lat": 0.0, "lat": 38.90081716666667, "name": "8f3bd7040a93bd7f4537fe9f82a11ad2", "fusion_lon": 0.0, "bike_id": "8f3bd7040a93bd7f4537fe9f82a11ad2", "is_disabled": 0, "is_reserved": 0}, {"rental_uris": {"ios": "https://dc.lft.to/lastmile_qr_scan", "android": "https://dc.lft.to/lastmile_qr_scan"}, "lon": -76.97288083333333, "type": "electric_scooter", "fusion_lat": 0.0, "lat": 38.90336466666667, "name": "36323ed82019e9370bfa21551f4f299e", "fusion_lon": 0.0, "bike_id": "36323ed82019e9370bfa21551f4f299e", "is_disabled": 0, "is_reserved": 0}, {"rental_uris": {"ios": "https://dc.lft.to/lastmile_qr_scan", "android": "https://dc.lft.to/lastmile_qr_scan"}, "lon": -77.06600183333333, "type": "electric_scooter", "fusion_lat": 0.0, "lat": 38.905813333333334, "name": "a22af8f504f997ffee6ffffcd7e2be6f", "fusion_lon": 0.0, "bike_id": "a22af8f504f997ffee6ffffcd7e2be6f", "is_disabled": 0, "is_reserved": 0}, {"rental_uris": {"ios": "https://dc.lft.to/lastmile_qr_scan", "android": "https://dc.lft.to/lastmile_qr_scan"}, "lon": -77.05475416666667, "type": "electric_scooter", "fusion_lat": 0.0, "lat": 38.893905, "name": "4db9566f2408f4e03ee6d7f4ef6f6b54", "fusion_lon": 0.0, "bike_id": "4db9566f2408f4e03ee6d7f4ef6f6b54", "is_disabled": 0, "is_reserved": 0}, {"rental_uris": {"ios": "https://dc.lft.to/lastmile_qr_scan", "android": "https://dc.lft.to/lastmile_qr_scan"}, "lon": -77.12954933333333, "type": "electric_bike", "fusion_lat": 0.0, "lat": 38.85214933333334, "name": "0d3532e5fda91f296e72648b8b2eae10", "fusion_lon": 0.0, "bike_id": "0d3532e5fda91f296e72648b8b2eae10", "is_disabled": 0, "is_reserved": 0}, {"rental_uris": {"ios": "https://dc.lft.to/lastmile_qr_scan", "android": "https://dc.lft.to/lastmile_qr_scan"}, "lon": -76.98370466666667, "type": "electric_scooter", "fusion_lat": 0.0, "lat": 38.895425333333336, "name": "268d3531c890baf579882900e12ec28e", "fusion_lon": 0.0, "bike_id": "268d3531c890baf579882900e12ec28e", "is_disabled": 0, "is_reserved": 0}, {"rental_uris": {"ios": "https://dc.lft.to/lastmile_qr_scan", "android": "https://dc.lft.to/lastmile_qr_scan"}, "lon": -76.95990733333333, "type": "electric_scooter", "fusion_lat": 0.0, "lat": 38.8804145, "name": "345fb659f6f21456b34504fcc27bc2cf", "fusion_lon": 0.0, "bike_id": "345fb659f6f21456b34504fcc27bc2cf", "is_disabled": 0, "is_reserved": 0}, {"rental_uris": {"ios": "https://dc.lft.to/lastmile_qr_scan", "android": "https://dc.lft.to/lastmile_qr_scan"}, "lon": -77.0305045, "type": "electric_scooter", "fusion_lat": 0.0, "lat": 38.91707866666667, "name": "d1b7cb5c35601e46f265d5d9954483a0", "fusion_lon": 0.0, "bike_id": "d1b7cb5c35601e46f265d5d9954483a0", "is_disabled": 0, "is_reserved": 0}, {"rental_uris": {"ios": "https://dc.lft.to/lastmile_qr_scan", "android": "https://dc.lft.to/lastmile_qr_scan"}, "lon": -77.02597566666667, "type": "electric_bike", "fusion_lat": 0.0, "lat": 38.9626575, "name": "8ce06153921d4968cdfe62010b732284", "fusion_lon": 0.0, "bike_id": "8ce06153921d4968cdfe62010b732284", "is_disabled": 0, "is_reserved": 0}, {"rental_uris": {"ios": "https://dc.lft.to/lastmile_qr_scan", "android": "https://dc.lft.to/lastmile_qr_scan"}, "lon": -76.99694466666666, "type": "electric_scooter", "fusion_lat": 0.0, "lat": 38.90102816666667, "name": "f16ed4d92d7a2375e2a0052f08074cb7", "fusion_lon": 0.0, "bike_id": "f16ed4d92d7a2375e2a0052f08074cb7", "is_disabled": 0, "is_reserved": 0}, {"rental_uris": {"ios": "https://dc.lft.to/lastmile_qr_scan", "android": "https://dc.lft.to/lastmile_qr_scan"}, "lon": -77.032227, "type": "electric_scooter", "fusion_lat": 0.0, "lat": 38.925747, "name": "c493886db8ce08cf696b4898f73516c9", "fusion_lon": 0.0, "bike_id": "c493886db8ce08cf696b4898f73516c9", "is_disabled": 0, "is_reserved": 0}, {"rental_uris": {"ios": "https://dc.lft.to/lastmile_qr_scan", "android": "https://dc.lft.to/lastmile_qr_scan"}, "lon": -77.029584, "type": "electric_scooter", "fusion_lat": 0.0, "lat": 38.907256, "name": "e9ef8d5465eea35016ed4e9ea6f0ea57", "fusion_lon": 0.0, "bike_id": "e9ef8d5465eea35016ed4e9ea6f0ea57", "is_disabled": 0, "is_reserved": 0}, {"rental_uris": {"ios": "https://dc.lft.to/lastmile_qr_scan", "android": "https://dc.lft.to/lastmile_qr_scan"}, "lon": -77.03213866666667, "type": "electric_scooter", "fusion_lat": 0.0, "lat": 38.91995416666666, "name": "8134941ad9cbb8a665b447c5b2c4baba", "fusion_lon": 0.0, "bike_id": "8134941ad9cbb8a665b447c5b2c4baba", "is_disabled": 0, "is_reserved": 0}, {"rental_uris": {"ios": "https://dc.lft.to/lastmile_qr_scan", "android": "https://dc.lft.to/lastmile_qr_scan"}, "lon": -77.03319266666666, "type": "electric_scooter", "fusion_lat": 0.0, "lat": 38.92050483333333, "name": "f1f8afa1f8f9db7dfa7e4b60d7bc8c32", "fusion_lon": 0.0, "bike_id": "f1f8afa1f8f9db7dfa7e4b60d7bc8c32", "is_disabled": 0, "is_reserved": 0}, {"rental_uris": {"ios": "https://dc.lft.to/lastmile_qr_scan", "android": "https://dc.lft.to/lastmile_qr_scan"}, "lon": -77.11209266666667, "type": "electric_bike", "fusion_lat": 0.0, "lat": 38.813094, "name": "983ba40667c0ca419cb5bda12c049a4d", "fusion_lon": 0.0, "bike_id": "983ba40667c0ca419cb5bda12c049a4d", "is_disabled": 0, "is_reserved": 0}, {"rental_uris": {"ios": "https://dc.lft.to/lastmile_qr_scan", "android": "https://dc.lft.to/lastmile_qr_scan"}, "lon": -77.04381683333334, "type": "electric_scooter", "fusion_lat": 0.0, "lat": 38.920713166666665, "name": "4bd4bba1efb7708ffaebd2bbbf18cd0e", "fusion_lon": 0.0, "bike_id": "4bd4bba1efb7708ffaebd2bbbf18cd0e", "is_disabled": 0, "is_reserved": 0}, {"rental_uris": {"ios": "https://dc.lft.to/lastmile_qr_scan", "android": "https://dc.lft.to/lastmile_qr_scan"}, "lon": -77.04333566666666, "type": "electric_scooter", "fusion_lat": 0.0, "lat": 38.9147955, "name": "5428ddbb6ae02de8ed9e02b9769b1bfa", "fusion_lon": 0.0, "bike_id": "5428ddbb6ae02de8ed9e02b9769b1bfa", "is_disabled": 0, "is_reserved": 0}, {"rental_uris": {"ios": "https://dc.lft.to/lastmile_qr_scan", "android": "https://dc.lft.to/lastmile_qr_scan"}, "lon": -76.93521333333334, "type": "electric_bike", "fusion_lat": 0.0, "lat": 38.955511, "name": "67d3c482941b9a1ddb1f0f3c8096aa97", "fusion_lon": 0.0, "bike_id": "67d3c482941b9a1ddb1f0f3c8096aa97", "is_disabled": 0, "is_reserved": 0}, {"rental_uris": {"ios": "https://dc.lft.to/lastmile_qr_scan", "android": "https://dc.lft.to/lastmile_qr_scan"}, "lon": -77.04810966666666, "type": "electric_scooter", "fusion_lat": 0.0, "lat": 38.89601966666667, "name": "b6edf28d733bb558de62944c0e2d428d", "fusion_lon": 0.0, "bike_id": "b6edf28d733bb558de62944c0e2d428d", "is_disabled": 0, "is_reserved": 0}, {"rental_uris": {"ios": "https://dc.lft.to/lastmile_qr_scan", "android": "https://dc.lft.to/lastmile_qr_scan"}, "lon": -77.12258816666667, "type": "electric_bike", "fusion_lat": 0.0, "lat": 38.89189566666667, "name": "9e1524aa9f65341e2b1b7126fd04c6ef", "fusion_lon": 0.0, "bike_id": "9e1524aa9f65341e2b1b7126fd04c6ef", "is_disabled": 0, "is_reserved": 0}, {"rental_uris": {"ios": "https://dc.lft.to/lastmile_qr_scan", "android": "https://dc.lft.to/lastmile_qr_scan"}, "lon": -77.04745316666667, "type": "electric_scooter", "fusion_lat": 0.0, "lat": 38.9021545, "name": "ae3d887c32b6b38d3e40c50aef8ffb22", "fusion_lon": 0.0, "bike_id": "ae3d887c32b6b38d3e40c50aef8ffb22", "is_disabled": 0, "is_reserved": 0}, {"rental_uris": {"ios": "https://dc.lft.to/lastmile_qr_scan", "android": "https://dc.lft.to/lastmile_qr_scan"}, "lon": -77.076841, "type": "electric_bike", "fusion_lat": 0.0, "lat": 38.83194116666667, "name": "254bb0c37747534cd4d50c5a018a1247", "fusion_lon": 0.0, "bike_id": "254bb0c37747534cd4d50c5a018a1247", "is_disabled": 0, "is_reserved": 0}, {"rental_uris": {"ios": "https://dc.lft.to/lastmile_qr_scan", "android": "https://dc.lft.to/lastmile_qr_scan"}, "lon": -77.0295665, "type": "electric_scooter", "fusion_lat": 0.0, "lat": 38.884372, "name": "cdb90fa74d8e0783feb38c03373ddf3b", "fusion_lon": 0.0, "bike_id": "cdb90fa74d8e0783feb38c03373ddf3b", "is_disabled": 0, "is_reserved": 0}, {"rental_uris": {"ios": "https://dc.lft.to/lastmile_qr_scan", "android": "https://dc.lft.to/lastmile_qr_scan"}, "lon": -77.03717316666666, "type": "electric_scooter", "fusion_lat": 0.0, "lat": 38.93365033333333, "name": "6011fbb138a7a9a9d167fffaf2c778e0", "fusion_lon": 0.0, "bike_id": "6011fbb138a7a9a9d167fffaf2c778e0", "is_disabled": 0, "is_reserved": 0}, {"rental_uris": {"ios": "https://dc.lft.to/lastmile_qr_scan", "android": "https://dc.lft.to/lastmile_qr_scan"}, "lon": -76.97812583333334, "type": "electric_scooter", "fusion_lat": 0.0, "lat": 38.90676766666667, "name": "ae63b7fa0cde2eaf41baea0bff0de629", "fusion_lon": 0.0, "bike_id": "ae63b7fa0cde2eaf41baea0bff0de629", "is_disabled": 0, "is_reserved": 0}, {"rental_uris": {"ios": "https://dc.lft.to/lastmile_qr_scan", "android": "https://dc.lft.to/lastmile_qr_scan"}, "lon": -76.997724, "type": "electric_scooter", "fusion_lat": 0.0, "lat": 38.8442405, "name": "9cbe4fb2078986af7288ecb473835a37", "fusion_lon": 0.0, "bike_id": "9cbe4fb2078986af7288ecb473835a37", "is_disabled": 0, "is_reserved": 0}, {"rental_uris": {"ios": "https://dc.lft.to/lastmile_qr_scan", "android": "https://dc.lft.to/lastmile_qr_scan"}, "lon": -77.0178795, "type": "electric_scooter", "fusion_lat": 0.0, "lat": 38.941181666666665, "name": "89b9a1cb76838974db1e435bd59bd1fa", "fusion_lon": 0.0, "bike_id": "89b9a1cb76838974db1e435bd59bd1fa", "is_disabled": 0, "is_reserved": 0}, {"rental_uris": {"ios": "https://dc.lft.to/lastmile_qr_scan", "android": "https://dc.lft.to/lastmile_qr_scan"}, "lon": -77.033369, "type": "electric_scooter", "fusion_lat": 0.0, "lat": 38.89827966666667, "name": "095a5855a99248cbea405d517e9a55d8", "fusion_lon": 0.0, "bike_id": "095a5855a99248cbea405d517e9a55d8", "is_disabled": 0, "is_reserved": 0}, {"rental_uris": {"ios": "https://dc.lft.to/lastmile_qr_scan", "android": "https://dc.lft.to/lastmile_qr_scan"}, "lon": -77.0660565, "type": "electric_scooter", "fusion_lat": 0.0, "lat": 38.90528483333333, "name": "4cbc2b620840c16affee3a7e1e7781ac", "fusion_lon": 0.0, "bike_id": "4cbc2b620840c16affee3a7e1e7781ac", "is_disabled": 0, "is_reserved": 0}, {"rental_uris": {"ios": "https://dc.lft.to/lastmile_qr_scan", "android": "https://dc.lft.to/lastmile_qr_scan"}, "lon": -77.04794333333334, "type": "electric_scooter", "fusion_lat": 0.0, "lat": 38.91616416666667, "name": "c814248157e663a84aaaefc682cd7f13", "fusion_lon": 0.0, "bike_id": "c814248157e663a84aaaefc682cd7f13", "is_disabled": 0, "is_reserved": 0}, {"rental_uris": {"ios": "https://dc.lft.to/lastmile_qr_scan", "android": "https://dc.lft.to/lastmile_qr_scan"}, "lon": -76.99950283333334, "type": "electric_bike", "fusion_lat": 0.0, "lat": 38.923428666666666, "name": "9b5ebbdf05e773422bc38b62bb37403f", "fusion_lon": 0.0, "bike_id": "9b5ebbdf05e773422bc38b62bb37403f", "is_disabled": 0, "is_reserved": 0}, {"rental_uris": {"ios": "https://dc.lft.to/lastmile_qr_scan", "android": "https://dc.lft.to/lastmile_qr_scan"}, "lon": -77.03266133333334, "type": "electric_scooter", "fusion_lat": 0.0, "lat": 38.94414, "name": "fa6e81a2aa4091c6a653eab722908548", "fusion_lon": 0.0, "bike_id": "fa6e81a2aa4091c6a653eab722908548", "is_disabled": 0, "is_reserved": 0}, {"rental_uris": {"ios": "https://dc.lft.to/lastmile_qr_scan", "android": "https://dc.lft.to/lastmile_qr_scan"}, "lon": -77.03031866666667, "type": "electric_scooter", "fusion_lat": 0.0, "lat": 38.922508666666666, "name": "68bf1c9aad6f337f70d06deac15e8ecd", "fusion_lon": 0.0, "bike_id": "68bf1c9aad6f337f70d06deac15e8ecd", "is_disabled": 0, "is_reserved": 0}, {"rental_uris": {"ios": "https://dc.lft.to/lastmile_qr_scan", "android": "https://dc.lft.to/lastmile_qr_scan"}, "lon": -77.0342285, "type": "electric_scooter", "fusion_lat": 0.0, "lat": 38.93549433333333, "name": "5e30c94b9310119984a3f0dd811f1bef", "fusion_lon": 0.0, "bike_id": "5e30c94b9310119984a3f0dd811f1bef", "is_disabled": 0, "is_reserved": 0}, {"rental_uris": {"ios": "https://dc.lft.to/lastmile_qr_scan", "android": "https://dc.lft.to/lastmile_qr_scan"}, "lon": -77.02713133333333, "type": "electric_scooter", "fusion_lat": 0.0, "lat": 38.924716333333336, "name": "197e48d5ba672e56b700f9ee52fd0212", "fusion_lon": 0.0, "bike_id": "197e48d5ba672e56b700f9ee52fd0212", "is_disabled": 0, "is_reserved": 0}, {"rental_uris": {"ios": "https://dc.lft.to/lastmile_qr_scan", "android": "https://dc.lft.to/lastmile_qr_scan"}, "lon": -77.056234, "type": "electric_bike", "fusion_lat": 0.0, "lat": 38.924067666666666, "name": "9792a46e15f2a53f68674f7ad606ca86", "fusion_lon": 0.0, "bike_id": "9792a46e15f2a53f68674f7ad606ca86", "is_disabled": 0, "is_reserved": 0}, {"rental_uris": {"ios": "https://dc.lft.to/lastmile_qr_scan", "android": "https://dc.lft.to/lastmile_qr_scan"}, "lon": -77.02941283333334, "type": "electric_scooter", "fusion_lat": 0.0, "lat": 38.90527383333333, "name": "508420306c210c27cdd627b9b0aa279c", "fusion_lon": 0.0, "bike_id": "508420306c210c27cdd627b9b0aa279c", "is_disabled": 0, "is_reserved": 0}, {"rental_uris": {"ios": "https://dc.lft.to/lastmile_qr_scan", "android": "https://dc.lft.to/lastmile_qr_scan"}, "lon": -77.032268, "type": "electric_scooter", "fusion_lat": 0.0, "lat": 38.926734, "name": "9815aa3430f69141258aa9f6f428a00e", "fusion_lon": 0.0, "bike_id": "9815aa3430f69141258aa9f6f428a00e", "is_disabled": 0, "is_reserved": 0}, {"rental_uris": {"ios": "https://dc.lft.to/lastmile_qr_scan", "android": "https://dc.lft.to/lastmile_qr_scan"}, "lon": -76.97496433333333, "type": "electric_bike", "fusion_lat": 0.0, "lat": 38.920106, "name": "b5719ac582c0cd0c998af8a4051cc08a", "fusion_lon": 0.0, "bike_id": "b5719ac582c0cd0c998af8a4051cc08a", "is_disabled": 0, "is_reserved": 0}, {"rental_uris": {"ios": "https://dc.lft.to/lastmile_qr_scan", "android": "https://dc.lft.to/lastmile_qr_scan"}, "lon": -77.04109216666667, "type": "electric_scooter", "fusion_lat": 0.0, "lat": 38.9244505, "name": "fd269ea269d81c554ecb3f6e1b1b6161", "fusion_lon": 0.0, "bike_id": "fd269ea269d81c554ecb3f6e1b1b6161", "is_disabled": 0, "is_reserved": 0}, {"rental_uris": {"ios": "https://dc.lft.to/lastmile_qr_scan", "android": "https://dc.lft.to/lastmile_qr_scan"}, "lon": -77.040072, "type": "electric_scooter", "fusion_lat": 0.0, "lat": 38.910022, "name": "d523b8534ab41e9db9254195e04307a3", "fusion_lon": 0.0, "bike_id": "d523b8534ab41e9db9254195e04307a3", "is_disabled": 0, "is_reserved": 0}, {"rental_uris": {"ios": "https://dc.lft.to/lastmile_qr_scan", "android": "https://dc.lft.to/lastmile_qr_scan"}, "lon": -77.04768583333333, "type": "electric_scooter", "fusion_lat": 0.0, "lat": 38.90870366666667, "name": "a33bcba45e60b73983d8e30719a6af5e", "fusion_lon": 0.0, "bike_id": "a33bcba45e60b73983d8e30719a6af5e", "is_disabled": 0, "is_reserved": 0}, {"rental_uris": {"ios": "https://dc.lft.to/lastmile_qr_scan", "android": "https://dc.lft.to/lastmile_qr_scan"}, "lon": -76.97405683333334, "type": "electric_scooter", "fusion_lat": 0.0, "lat": 38.9015745, "name": "99f2ccaf074844a1b2212326658176f3", "fusion_lon": 0.0, "bike_id": "99f2ccaf074844a1b2212326658176f3", "is_disabled": 0, "is_reserved": 0}, {"rental_uris": {"ios": "https://dc.lft.to/lastmile_qr_scan", "android": "https://dc.lft.to/lastmile_qr_scan"}, "lon": -76.93718583333333, "type": "electric_scooter", "fusion_lat": 0.0, "lat": 38.895919166666665, "name": "3fa0dc93746afdaf98c3733aade81019", "fusion_lon": 0.0, "bike_id": "3fa0dc93746afdaf98c3733aade81019", "is_disabled": 0, "is_reserved": 0}, {"rental_uris": {"ios": "https://dc.lft.to/lastmile_qr_scan", "android": "https://dc.lft.to/lastmile_qr_scan"}, "lon": -77.00253466666666, "type": "electric_scooter", "fusion_lat": 0.0, "lat": 38.9118755, "name": "dd34cd487983258f8df446e4332e32c6", "fusion_lon": 0.0, "bike_id": "dd34cd487983258f8df446e4332e32c6", "is_disabled": 0, "is_reserved": 0}, {"rental_uris": {"ios": "https://dc.lft.to/lastmile_qr_scan", "android": "https://dc.lft.to/lastmile_qr_scan"}, "lon": -77.03860233333333, "type": "electric_scooter", "fusion_lat": 0.0, "lat": 38.907774, "name": "5884a93ce7474fefc44ab1d8f8d746d4", "fusion_lon": 0.0, "bike_id": "5884a93ce7474fefc44ab1d8f8d746d4", "is_disabled": 0, "is_reserved": 0}, {"rental_uris": {"ios": "https://dc.lft.to/lastmile_qr_scan", "android": "https://dc.lft.to/lastmile_qr_scan"}, "lon": -77.069444, "type": "electric_scooter", "fusion_lat": 0.0, "lat": 38.90505566666667, "name": "2a349472c2da0feaf67a1b91151e27a4", "fusion_lon": 0.0, "bike_id": "2a349472c2da0feaf67a1b91151e27a4", "is_disabled": 0, "is_reserved": 0}, {"rental_uris": {"ios": "https://dc.lft.to/lastmile_qr_scan", "android": "https://dc.lft.to/lastmile_qr_scan"}, "lon": -77.04423216666666, "type": "electric_scooter", "fusion_lat": 0.0, "lat": 38.911289, "name": "aa68862f650187aff3d9570616dbc0a7", "fusion_lon": 0.0, "bike_id": "aa68862f650187aff3d9570616dbc0a7", "is_disabled": 0, "is_reserved": 0}, {"rental_uris": {"ios": "https://dc.lft.to/lastmile_qr_scan", "android": "https://dc.lft.to/lastmile_qr_scan"}, "lon": -77.0462115, "type": "electric_scooter", "fusion_lat": 0.0, "lat": 38.915190833333334, "name": "a29fe510c5e9ea2f4d6dbc44d652fdd5", "fusion_lon": 0.0, "bike_id": "a29fe510c5e9ea2f4d6dbc44d652fdd5", "is_disabled": 0, "is_reserved": 0}, {"rental_uris": {"ios": "https://dc.lft.to/lastmile_qr_scan", "android": "https://dc.lft.to/lastmile_qr_scan"}, "lon": -77.0163975, "type": "electric_scooter", "fusion_lat": 0.0, "lat": 38.929349, "name": "d56e4924ab3517abb55c0b350ff29da1", "fusion_lon": 0.0, "bike_id": "d56e4924ab3517abb55c0b350ff29da1", "is_disabled": 0, "is_reserved": 0}, {"rental_uris": {"ios": "https://dc.lft.to/lastmile_qr_scan", "android": "https://dc.lft.to/lastmile_qr_scan"}, "lon": -77.01506383333333, "type": "electric_scooter", "fusion_lat": 0.0, "lat": 38.87264166666667, "name": "be9c74bb87c32b87ab059545dbdac0af", "fusion_lon": 0.0, "bike_id": "be9c74bb87c32b87ab059545dbdac0af", "is_disabled": 0, "is_reserved": 0}, {"rental_uris": {"ios": "https://dc.lft.to/lastmile_qr_scan", "android": "https://dc.lft.to/lastmile_qr_scan"}, "lon": -77.04838866666667, "type": "electric_scooter", "fusion_lat": 0.0, "lat": 38.90723366666667, "name": "fd61e39f015b8140bbe0b14e8c998c03", "fusion_lon": 0.0, "bike_id": "fd61e39f015b8140bbe0b14e8c998c03", "is_disabled": 0, "is_reserved": 0}, {"rental_uris": {"ios": "https://dc.lft.to/lastmile_qr_scan", "android": "https://dc.lft.to/lastmile_qr_scan"}, "lon": -77.039767, "type": "electric_scooter", "fusion_lat": 0.0, "lat": 38.923148, "name": "6a9e962bc6454d3a2da9a2eb5fcbe41e", "fusion_lon": 0.0, "bike_id": "6a9e962bc6454d3a2da9a2eb5fcbe41e", "is_disabled": 0, "is_reserved": 0}, {"rental_uris": {"ios": "https://dc.lft.to/lastmile_qr_scan", "android": "https://dc.lft.to/lastmile_qr_scan"}, "lon": -77.06878166666667, "type": "electric_scooter", "fusion_lat": 0.0, "lat": 38.90504266666667, "name": "15bdc03276fd373f67db7b9726c9d061", "fusion_lon": 0.0, "bike_id": "15bdc03276fd373f67db7b9726c9d061", "is_disabled": 0, "is_reserved": 0}, {"rental_uris": {"ios": "https://dc.lft.to/lastmile_qr_scan", "android": "https://dc.lft.to/lastmile_qr_scan"}, "lon": -77.03090333333333, "type": "electric_bike", "fusion_lat": 0.0, "lat": 38.94080183333333, "name": "24ec4a3e9d0bdbf9260385360adea131", "fusion_lon": 0.0, "bike_id": "24ec4a3e9d0bdbf9260385360adea131", "is_disabled": 0, "is_reserved": 0}, {"rental_uris": {"ios": "https://dc.lft.to/lastmile_qr_scan", "android": "https://dc.lft.to/lastmile_qr_scan"}, "lon": -77.02402333333333, "type": "electric_scooter", "fusion_lat": 0.0, "lat": 38.9096365, "name": "3a5acfdde6488f28b971a1fcd2704855", "fusion_lon": 0.0, "bike_id": "3a5acfdde6488f28b971a1fcd2704855", "is_disabled": 0, "is_reserved": 0}, {"rental_uris": {"ios": "https://dc.lft.to/lastmile_qr_scan", "android": "https://dc.lft.to/lastmile_qr_scan"}, "lon": -76.99482116666667, "type": "electric_scooter", "fusion_lat": 0.0, "lat": 38.9022845, "name": "fc7b3ad271c9cc03da9614fabd45790e", "fusion_lon": 0.0, "bike_id": "fc7b3ad271c9cc03da9614fabd45790e", "is_disabled": 0, "is_reserved": 0}, {"rental_uris": {"ios": "https://dc.lft.to/lastmile_qr_scan", "android": "https://dc.lft.to/lastmile_qr_scan"}, "lon": -77.0402075, "type": "electric_scooter", "fusion_lat": 0.0, "lat": 38.92436983333333, "name": "2748ccb8b100283f45f2a91bbde1737b", "fusion_lon": 0.0, "bike_id": "2748ccb8b100283f45f2a91bbde1737b", "is_disabled": 0, "is_reserved": 0}, {"rental_uris": {"ios": "https://dc.lft.to/lastmile_qr_scan", "android": "https://dc.lft.to/lastmile_qr_scan"}, "lon": -77.07068783333334, "type": "electric_scooter", "fusion_lat": 0.0, "lat": 38.952159, "name": "4b824cc6114f6505c2624ca4562b3579", "fusion_lon": 0.0, "bike_id": "4b824cc6114f6505c2624ca4562b3579", "is_disabled": 0, "is_reserved": 0}, {"rental_uris": {"ios": "https://dc.lft.to/lastmile_qr_scan", "android": "https://dc.lft.to/lastmile_qr_scan"}, "lon": -76.98552266666667, "type": "electric_scooter", "fusion_lat": 0.0, "lat": 38.855860166666666, "name": "f485ec7900f7084c13831d69f231ce6e", "fusion_lon": 0.0, "bike_id": "f485ec7900f7084c13831d69f231ce6e", "is_disabled": 0, "is_reserved": 0}, {"rental_uris": {"ios": "https://dc.lft.to/lastmile_qr_scan", "android": "https://dc.lft.to/lastmile_qr_scan"}, "lon": -77.05493916666667, "type": "electric_scooter", "fusion_lat": 0.0, "lat": 38.92977316666666, "name": "92e5f7495247c9a5530cb9e15b99732e", "fusion_lon": 0.0, "bike_id": "92e5f7495247c9a5530cb9e15b99732e", "is_disabled": 0, "is_reserved": 0}, {"rental_uris": {"ios": "https://dc.lft.to/lastmile_qr_scan", "android": "https://dc.lft.to/lastmile_qr_scan"}, "lon": -77.052918, "type": "electric_scooter", "fusion_lat": 0.0, "lat": 38.918934166666666, "name": "10133f4f901e02e2fce0de6b88dcc2a6", "fusion_lon": 0.0, "bike_id": "10133f4f901e02e2fce0de6b88dcc2a6", "is_disabled": 0, "is_reserved": 0}, {"rental_uris": {"ios": "https://dc.lft.to/lastmile_qr_scan", "android": "https://dc.lft.to/lastmile_qr_scan"}, "lon": -76.94892183333333, "type": "electric_scooter", "fusion_lat": 0.0, "lat": 38.895319666666666, "name": "4a4a01d62c85f7c69894957761f8a2ef", "fusion_lon": 0.0, "bike_id": "4a4a01d62c85f7c69894957761f8a2ef", "is_disabled": 0, "is_reserved": 0}, {"rental_uris": {"ios": "https://dc.lft.to/lastmile_qr_scan", "android": "https://dc.lft.to/lastmile_qr_scan"}, "lon": -77.04169566666667, "type": "electric_scooter", "fusion_lat": 0.0, "lat": 38.903527833333335, "name": "7a3bef957a409ca603559375a7b78c82", "fusion_lon": 0.0, "bike_id": "7a3bef957a409ca603559375a7b78c82", "is_disabled": 0, "is_reserved": 0}, {"rental_uris": {"ios": "https://dc.lft.to/lastmile_qr_scan", "android": "https://dc.lft.to/lastmile_qr_scan"}, "lon": -76.98999916666666, "type": "electric_scooter", "fusion_lat": 0.0, "lat": 38.8650605, "name": "f3a07593593ff8c10bc0f2b810ce36ec", "fusion_lon": 0.0, "bike_id": "f3a07593593ff8c10bc0f2b810ce36ec", "is_disabled": 0, "is_reserved": 0}, {"rental_uris": {"ios": "https://dc.lft.to/lastmile_qr_scan", "android": "https://dc.lft.to/lastmile_qr_scan"}, "lon": -77.01941633333334, "type": "electric_scooter", "fusion_lat": 0.0, "lat": 38.92414816666667, "name": "4eeef18a6fb298c11642d2d13fd4337a", "fusion_lon": 0.0, "bike_id": "4eeef18a6fb298c11642d2d13fd4337a", "is_disabled": 0, "is_reserved": 0}, {"rental_uris": {"ios": "https://dc.lft.to/lastmile_qr_scan", "android": "https://dc.lft.to/lastmile_qr_scan"}, "lon": -77.02731416666667, "type": "electric_scooter", "fusion_lat": 0.0, "lat": 38.917011, "name": "12f1d9b2c4b48f6490f5e735b61aaccb", "fusion_lon": 0.0, "bike_id": "12f1d9b2c4b48f6490f5e735b61aaccb", "is_disabled": 0, "is_reserved": 0}, {"rental_uris": {"ios": "https://dc.lft.to/lastmile_qr_scan", "android": "https://dc.lft.to/lastmile_qr_scan"}, "lon": -77.00863216666667, "type": "electric_bike", "fusion_lat": 0.0, "lat": 38.8273255, "name": "1ebc556d018cd06f3a0bbbb6b0eb3192", "fusion_lon": 0.0, "bike_id": "1ebc556d018cd06f3a0bbbb6b0eb3192", "is_disabled": 0, "is_reserved": 0}, {"rental_uris": {"ios": "https://dc.lft.to/lastmile_qr_scan", "android": "https://dc.lft.to/lastmile_qr_scan"}, "lon": -77.0350735, "type": "electric_scooter", "fusion_lat": 0.0, "lat": 38.92152633333333, "name": "0fc3f50dda6271b6c446dd1ff435a05b", "fusion_lon": 0.0, "bike_id": "0fc3f50dda6271b6c446dd1ff435a05b", "is_disabled": 0, "is_reserved": 0}, {"rental_uris": {"ios": "https://dc.lft.to/lastmile_qr_scan", "android": "https://dc.lft.to/lastmile_qr_scan"}, "lon": -77.031474, "type": "electric_scooter", "fusion_lat": 0.0, "lat": 38.914177333333335, "name": "952d1df675cd61f3e5fe5d8b01fe3b1d", "fusion_lon": 0.0, "bike_id": "952d1df675cd61f3e5fe5d8b01fe3b1d", "is_disabled": 0, "is_reserved": 0}, {"rental_uris": {"ios": "https://dc.lft.to/lastmile_qr_scan", "android": "https://dc.lft.to/lastmile_qr_scan"}, "lon": -77.0542515, "type": "electric_scooter", "fusion_lat": 0.0, "lat": 38.902542, "name": "b8f4279772dbeeead7e0cfb16e6f43d6", "fusion_lon": 0.0, "bike_id": "b8f4279772dbeeead7e0cfb16e6f43d6", "is_disabled": 0, "is_reserved": 0}, {"rental_uris": {"ios": "https://dc.lft.to/lastmile_qr_scan", "android": "https://dc.lft.to/lastmile_qr_scan"}, "lon": -77.04720816666666, "type": "electric_scooter", "fusion_lat": 0.0, "lat": 38.92242366666667, "name": "9e65cde9bf51c557843783ee56842bf9", "fusion_lon": 0.0, "bike_id": "9e65cde9bf51c557843783ee56842bf9", "is_disabled": 0, "is_reserved": 0}, {"rental_uris": {"ios": "https://dc.lft.to/lastmile_qr_scan", "android": "https://dc.lft.to/lastmile_qr_scan"}, "lon": -77.01770983333333, "type": "electric_scooter", "fusion_lat": 0.0, "lat": 38.920996333333335, "name": "d386af5dd10cff9901d6f4268a74eb09", "fusion_lon": 0.0, "bike_id": "d386af5dd10cff9901d6f4268a74eb09", "is_disabled": 0, "is_reserved": 0}, {"rental_uris": {"ios": "https://dc.lft.to/lastmile_qr_scan", "android": "https://dc.lft.to/lastmile_qr_scan"}, "lon": -77.03280066666666, "type": "electric_scooter", "fusion_lat": 0.0, "lat": 38.892179, "name": "25470e0b22ff98b51942422443b5cade", "fusion_lon": 0.0, "bike_id": "25470e0b22ff98b51942422443b5cade", "is_disabled": 0, "is_reserved": 0}, {"rental_uris": {"ios": "https://dc.lft.to/lastmile_qr_scan", "android": "https://dc.lft.to/lastmile_qr_scan"}, "lon": -77.021789, "type": "electric_scooter", "fusion_lat": 0.0, "lat": 38.905454666666664, "name": "55ad3f8c09ce260a3ea09dfa0da54d1d", "fusion_lon": 0.0, "bike_id": "55ad3f8c09ce260a3ea09dfa0da54d1d", "is_disabled": 0, "is_reserved": 0}, {"rental_uris": {"ios": "https://dc.lft.to/lastmile_qr_scan", "android": "https://dc.lft.to/lastmile_qr_scan"}, "lon": -77.03823716666666, "type": "electric_scooter", "fusion_lat": 0.0, "lat": 38.90125533333333, "name": "560e5f28e702c76ad9eaace95683c5c9", "fusion_lon": 0.0, "bike_id": "560e5f28e702c76ad9eaace95683c5c9", "is_disabled": 0, "is_reserved": 0}, {"rental_uris": {"ios": "https://dc.lft.to/lastmile_qr_scan", "android": "https://dc.lft.to/lastmile_qr_scan"}, "lon": -77.03820016666667, "type": "electric_scooter", "fusion_lat": 0.0, "lat": 38.93106683333333, "name": "954a58d59a052ff9cb3b4fd85a4f6fbb", "fusion_lon": 0.0, "bike_id": "954a58d59a052ff9cb3b4fd85a4f6fbb", "is_disabled": 0, "is_reserved": 0}, {"rental_uris": {"ios": "https://dc.lft.to/lastmile_qr_scan", "android": "https://dc.lft.to/lastmile_qr_scan"}, "lon": -77.0647525, "type": "electric_bike", "fusion_lat": 0.0, "lat": 38.97386, "name": "1fd8e190f9f2722638bec860b4d69deb", "fusion_lon": 0.0, "bike_id": "1fd8e190f9f2722638bec860b4d69deb", "is_disabled": 0, "is_reserved": 0}, {"rental_uris": {"ios": "https://dc.lft.to/lastmile_qr_scan", "android": "https://dc.lft.to/lastmile_qr_scan"}, "lon": -77.03191016666666, "type": "electric_scooter", "fusion_lat": 0.0, "lat": 38.920046166666665, "name": "e1e07998166e5503aa02fa7d3062e130", "fusion_lon": 0.0, "bike_id": "e1e07998166e5503aa02fa7d3062e130", "is_disabled": 0, "is_reserved": 0}, {"rental_uris": {"ios": "https://dc.lft.to/lastmile_qr_scan", "android": "https://dc.lft.to/lastmile_qr_scan"}, "lon": -77.09620833333334, "type": "electric_bike", "fusion_lat": 0.0, "lat": 38.845708333333334, "name": "2aeddd371af6403e8f61b8d2555e7038", "fusion_lon": 0.0, "bike_id": "2aeddd371af6403e8f61b8d2555e7038", "is_disabled": 0, "is_reserved": 0}, {"rental_uris": {"ios": "https://dc.lft.to/lastmile_qr_scan", "android": "https://dc.lft.to/lastmile_qr_scan"}, "lon": -77.04618383333333, "type": "electric_bike", "fusion_lat": 0.0, "lat": 38.99906933333333, "name": "117b2b94400017d56b372259e0fe605b", "fusion_lon": 0.0, "bike_id": "117b2b94400017d56b372259e0fe605b", "is_disabled": 0, "is_reserved": 0}, {"rental_uris": {"ios": "https://dc.lft.to/lastmile_qr_scan", "android": "https://dc.lft.to/lastmile_qr_scan"}, "lon": -77.00129966666667, "type": "electric_scooter", "fusion_lat": 0.0, "lat": 38.924451833333336, "name": "d8cad4baf0e79c76f4696af004c379e7", "fusion_lon": 0.0, "bike_id": "d8cad4baf0e79c76f4696af004c379e7", "is_disabled": 0, "is_reserved": 0}, {"rental_uris": {"ios": "https://dc.lft.to/lastmile_qr_scan", "android": "https://dc.lft.to/lastmile_qr_scan"}, "lon": -77.0641805, "type": "electric_bike", "fusion_lat": 0.0, "lat": 38.90510233333333, "name": "bf8c4654e0be06a754086edce3943e27", "fusion_lon": 0.0, "bike_id": "bf8c4654e0be06a754086edce3943e27", "is_disabled": 0, "is_reserved": 0}, {"rental_uris": {"ios": "https://dc.lft.to/lastmile_qr_scan", "android": "https://dc.lft.to/lastmile_qr_scan"}, "lon": -77.098674, "type": "electric_bike", "fusion_lat": 0.0, "lat": 38.8537355, "name": "69676b37d8d96eec984c390c72e5fe92", "fusion_lon": 0.0, "bike_id": "69676b37d8d96eec984c390c72e5fe92", "is_disabled": 0, "is_reserved": 0}, {"rental_uris": {"ios": "https://dc.lft.to/lastmile_qr_scan", "android": "https://dc.lft.to/lastmile_qr_scan"}, "lon": -77.036801, "type": "electric_scooter", "fusion_lat": 0.0, "lat": 38.9180755, "name": "238420d95a4944e37f51704b7e3f6c3e", "fusion_lon": 0.0, "bike_id": "238420d95a4944e37f51704b7e3f6c3e", "is_disabled": 0, "is_reserved": 0}, {"rental_uris": {"ios": "https://dc.lft.to/lastmile_qr_scan", "android": "https://dc.lft.to/lastmile_qr_scan"}, "lon": -77.0694135, "type": "electric_scooter", "fusion_lat": 0.0, "lat": 38.9050745, "name": "92c2825ca6f14cd2f96717b2ebce4840", "fusion_lon": 0.0, "bike_id": "92c2825ca6f14cd2f96717b2ebce4840", "is_disabled": 0, "is_reserved": 0}, {"rental_uris": {"ios": "https://dc.lft.to/lastmile_qr_scan", "android": "https://dc.lft.to/lastmile_qr_scan"}, "lon": -77.03380716666666, "type": "electric_scooter", "fusion_lat": 0.0, "lat": 38.93851866666667, "name": "e636c4b301cb7d34eae21a90c0aa1f70", "fusion_lon": 0.0, "bike_id": "e636c4b301cb7d34eae21a90c0aa1f70", "is_disabled": 0, "is_reserved": 0}, {"rental_uris": {"ios": "https://dc.lft.to/lastmile_qr_scan", "android": "https://dc.lft.to/lastmile_qr_scan"}, "lon": -77.0268325, "type": "electric_scooter", "fusion_lat": 0.0, "lat": 38.901645, "name": "ec65e0cc501d5d1ddf59275ceb0185bc", "fusion_lon": 0.0, "bike_id": "ec65e0cc501d5d1ddf59275ceb0185bc", "is_disabled": 0, "is_reserved": 0}, {"rental_uris": {"ios": "https://dc.lft.to/lastmile_qr_scan", "android": "https://dc.lft.to/lastmile_qr_scan"}, "lon": -77.02486333333333, "type": "electric_scooter", "fusion_lat": 0.0, "lat": 38.94189166666666, "name": "4d28e40e766c4786ebb73dd3f5fe4771", "fusion_lon": 0.0, "bike_id": "4d28e40e766c4786ebb73dd3f5fe4771", "is_disabled": 0, "is_reserved": 0}, {"rental_uris": {"ios": "https://dc.lft.to/lastmile_qr_scan", "android": "https://dc.lft.to/lastmile_qr_scan"}, "lon": -77.03458733333333, "type": "electric_scooter", "fusion_lat": 0.0, "lat": 38.918203, "name": "82a4e9c45f75b03d5168c9176582cc19", "fusion_lon": 0.0, "bike_id": "82a4e9c45f75b03d5168c9176582cc19", "is_disabled": 0, "is_reserved": 0}, {"rental_uris": {"ios": "https://dc.lft.to/lastmile_qr_scan", "android": "https://dc.lft.to/lastmile_qr_scan"}, "lon": -77.03906266666667, "type": "electric_scooter", "fusion_lat": 0.0, "lat": 38.93423633333333, "name": "21517c57bb52f9d79df9cb2d0aadc145", "fusion_lon": 0.0, "bike_id": "21517c57bb52f9d79df9cb2d0aadc145", "is_disabled": 0, "is_reserved": 0}, {"rental_uris": {"ios": "https://dc.lft.to/lastmile_qr_scan", "android": "https://dc.lft.to/lastmile_qr_scan"}, "lon": -77.02370033333334, "type": "electric_scooter", "fusion_lat": 0.0, "lat": 38.9198435, "name": "a61d742fd2363f9e7ee9c8c31e6f99ba", "fusion_lon": 0.0, "bike_id": "a61d742fd2363f9e7ee9c8c31e6f99ba", "is_disabled": 0, "is_reserved": 0}, {"rental_uris": {"ios": "https://dc.lft.to/lastmile_qr_scan", "android": "https://dc.lft.to/lastmile_qr_scan"}, "lon": -77.040472, "type": "electric_scooter", "fusion_lat": 0.0, "lat": 38.92707633333333, "name": "1be61fd72ecb11cfa079c70a2e007c27", "fusion_lon": 0.0, "bike_id": "1be61fd72ecb11cfa079c70a2e007c27", "is_disabled": 0, "is_reserved": 0}, {"rental_uris": {"ios": "https://dc.lft.to/lastmile_qr_scan", "android": "https://dc.lft.to/lastmile_qr_scan"}, "lon": -77.09750983333333, "type": "electric_bike", "fusion_lat": 0.0, "lat": 38.858512833333336, "name": "51ee170b260a58c90bdc9d2de860c480", "fusion_lon": 0.0, "bike_id": "51ee170b260a58c90bdc9d2de860c480", "is_disabled": 0, "is_reserved": 0}, {"rental_uris": {"ios": "https://dc.lft.to/lastmile_qr_scan", "android": "https://dc.lft.to/lastmile_qr_scan"}, "lon": -77.0457385, "type": "electric_scooter", "fusion_lat": 0.0, "lat": 38.908561166666665, "name": "d3f95db77f4cc7e1f63eb322137e87e1", "fusion_lon": 0.0, "bike_id": "d3f95db77f4cc7e1f63eb322137e87e1", "is_disabled": 0, "is_reserved": 0}, {"rental_uris": {"ios": "https://dc.lft.to/lastmile_qr_scan", "android": "https://dc.lft.to/lastmile_qr_scan"}, "lon": -77.005948, "type": "electric_scooter", "fusion_lat": 0.0, "lat": 38.9054685, "name": "e915fbd9af9108ba2b2c3f6209adaa4a", "fusion_lon": 0.0, "bike_id": "e915fbd9af9108ba2b2c3f6209adaa4a", "is_disabled": 0, "is_reserved": 0}, {"rental_uris": {"ios": "https://dc.lft.to/lastmile_qr_scan", "android": "https://dc.lft.to/lastmile_qr_scan"}, "lon": -77.03171866666666, "type": "electric_scooter", "fusion_lat": 0.0, "lat": 38.919997, "name": "f149cc7329452016a4ce073b3e33c9d9", "fusion_lon": 0.0, "bike_id": "f149cc7329452016a4ce073b3e33c9d9", "is_disabled": 0, "is_reserved": 0}, {"rental_uris": {"ios": "https://dc.lft.to/lastmile_qr_scan", "android": "https://dc.lft.to/lastmile_qr_scan"}, "lon": -77.00505133333333, "type": "electric_scooter", "fusion_lat": 0.0, "lat": 38.87858283333333, "name": "b3396b365add49c23e74e23d4a5e9a2e", "fusion_lon": 0.0, "bike_id": "b3396b365add49c23e74e23d4a5e9a2e", "is_disabled": 0, "is_reserved": 0}, {"rental_uris": {"ios": "https://dc.lft.to/lastmile_qr_scan", "android": "https://dc.lft.to/lastmile_qr_scan"}, "lon": -77.04702766666666, "type": "electric_scooter", "fusion_lat": 0.0, "lat": 38.9059325, "name": "ba72604e2b2649115ee3e1650443c9b3", "fusion_lon": 0.0, "bike_id": "ba72604e2b2649115ee3e1650443c9b3", "is_disabled": 0, "is_reserved": 0}, {"rental_uris": {"ios": "https://dc.lft.to/lastmile_qr_scan", "android": "https://dc.lft.to/lastmile_qr_scan"}, "lon": -77.03852833333333, "type": "electric_scooter", "fusion_lat": 0.0, "lat": 38.91327916666667, "name": "edf30f84fa84d007ec7cd5b340931fcc", "fusion_lon": 0.0, "bike_id": "edf30f84fa84d007ec7cd5b340931fcc", "is_disabled": 0, "is_reserved": 0}, {"rental_uris": {"ios": "https://dc.lft.to/lastmile_qr_scan", "android": "https://dc.lft.to/lastmile_qr_scan"}, "lon": -77.03207666666667, "type": "electric_scooter", "fusion_lat": 0.0, "lat": 38.90738116666667, "name": "c8219cc3642ee72863f99d4788a68006", "fusion_lon": 0.0, "bike_id": "c8219cc3642ee72863f99d4788a68006", "is_disabled": 0, "is_reserved": 0}, {"rental_uris": {"ios": "https://dc.lft.to/lastmile_qr_scan", "android": "https://dc.lft.to/lastmile_qr_scan"}, "lon": -77.0269175, "type": "electric_scooter", "fusion_lat": 0.0, "lat": 38.8809555, "name": "4c1aab1369b382bfacabe9cebf1a546a", "fusion_lon": 0.0, "bike_id": "4c1aab1369b382bfacabe9cebf1a546a", "is_disabled": 0, "is_reserved": 0}, {"rental_uris": {"ios": "https://dc.lft.to/lastmile_qr_scan", "android": "https://dc.lft.to/lastmile_qr_scan"}, "lon": -77.01277683333333, "type": "electric_bike", "fusion_lat": 0.0, "lat": 38.88121016666667, "name": "630622c25861fb3b264fe7c27e125d82", "fusion_lon": 0.0, "bike_id": "630622c25861fb3b264fe7c27e125d82", "is_disabled": 0, "is_reserved": 0}, {"rental_uris": {"ios": "https://dc.lft.to/lastmile_qr_scan", "android": "https://dc.lft.to/lastmile_qr_scan"}, "lon": -77.02974466666667, "type": "electric_scooter", "fusion_lat": 0.0, "lat": 38.962286666666664, "name": "e5e519349285ec0895c83809b4c15cbf", "fusion_lon": 0.0, "bike_id": "e5e519349285ec0895c83809b4c15cbf", "is_disabled": 0, "is_reserved": 0}, {"rental_uris": {"ios": "https://dc.lft.to/lastmile_qr_scan", "android": "https://dc.lft.to/lastmile_qr_scan"}, "lon": -77.00872516666666, "type": "electric_scooter", "fusion_lat": 0.0, "lat": 38.914033, "name": "fd0f6ba4704a784c339b1200321287c6", "fusion_lon": 0.0, "bike_id": "fd0f6ba4704a784c339b1200321287c6", "is_disabled": 0, "is_reserved": 0}, {"rental_uris": {"ios": "https://dc.lft.to/lastmile_qr_scan", "android": "https://dc.lft.to/lastmile_qr_scan"}, "lon": -76.92720833333334, "type": "electric_scooter", "fusion_lat": 0.0, "lat": 38.88039633333333, "name": "8fd996713161a6d8eaffb23f94a437f0", "fusion_lon": 0.0, "bike_id": "8fd996713161a6d8eaffb23f94a437f0", "is_disabled": 0, "is_reserved": 0}, {"rental_uris": {"ios": "https://dc.lft.to/lastmile_qr_scan", "android": "https://dc.lft.to/lastmile_qr_scan"}, "lon": -77.0013315, "type": "electric_scooter", "fusion_lat": 0.0, "lat": 38.904119666666666, "name": "bb28e535d4e2b457fd941fb3c33509f5", "fusion_lon": 0.0, "bike_id": "bb28e535d4e2b457fd941fb3c33509f5", "is_disabled": 0, "is_reserved": 0}, {"rental_uris": {"ios": "https://dc.lft.to/lastmile_qr_scan", "android": "https://dc.lft.to/lastmile_qr_scan"}, "lon": -76.94662783333334, "type": "electric_scooter", "fusion_lat": 0.0, "lat": 38.89800683333333, "name": "b4d0171bec73d7837432f524c028d341", "fusion_lon": 0.0, "bike_id": "b4d0171bec73d7837432f524c028d341", "is_disabled": 0, "is_reserved": 0}, {"rental_uris": {"ios": "https://dc.lft.to/lastmile_qr_scan", "android": "https://dc.lft.to/lastmile_qr_scan"}, "lon": -77.04008683333333, "type": "electric_scooter", "fusion_lat": 0.0, "lat": 38.9324625, "name": "cb4792b7bc7fa04661c682de0fdd8f39", "fusion_lon": 0.0, "bike_id": "cb4792b7bc7fa04661c682de0fdd8f39", "is_disabled": 0, "is_reserved": 0}, {"rental_uris": {"ios": "https://dc.lft.to/lastmile_qr_scan", "android": "https://dc.lft.to/lastmile_qr_scan"}, "lon": -77.03726316666666, "type": "electric_scooter", "fusion_lat": 0.0, "lat": 38.91040016666667, "name": "dc3e5887c6e65fa8572450b159e935b6", "fusion_lon": 0.0, "bike_id": "dc3e5887c6e65fa8572450b159e935b6", "is_disabled": 0, "is_reserved": 0}, {"rental_uris": {"ios": "https://dc.lft.to/lastmile_qr_scan", "android": "https://dc.lft.to/lastmile_qr_scan"}, "lon": -77.00582166666666, "type": "electric_scooter", "fusion_lat": 0.0, "lat": 38.90555, "name": "20457dd673b777a499a005abf54009e9", "fusion_lon": 0.0, "bike_id": "20457dd673b777a499a005abf54009e9", "is_disabled": 0, "is_reserved": 0}, {"rental_uris": {"ios": "https://dc.lft.to/lastmile_qr_scan", "android": "https://dc.lft.to/lastmile_qr_scan"}, "lon": -77.04814033333334, "type": "electric_scooter", "fusion_lat": 0.0, "lat": 38.9203585, "name": "c605b444421fa6595a8b0a82b98e003f", "fusion_lon": 0.0, "bike_id": "c605b444421fa6595a8b0a82b98e003f", "is_disabled": 0, "is_reserved": 0}, {"rental_uris": {"ios": "https://dc.lft.to/lastmile_qr_scan", "android": "https://dc.lft.to/lastmile_qr_scan"}, "lon": -76.99670533333334, "type": "electric_scooter", "fusion_lat": 0.0, "lat": 38.90026866666667, "name": "7d89b9749033df11a47bb2eb1216192f", "fusion_lon": 0.0, "bike_id": "7d89b9749033df11a47bb2eb1216192f", "is_disabled": 0, "is_reserved": 0}, {"rental_uris": {"ios": "https://dc.lft.to/lastmile_qr_scan", "android": "https://dc.lft.to/lastmile_qr_scan"}, "lon": -76.985936, "type": "electric_scooter", "fusion_lat": 0.0, "lat": 38.8992075, "name": "f26f0bb062c6bd267246eda40b85f9b6", "fusion_lon": 0.0, "bike_id": "f26f0bb062c6bd267246eda40b85f9b6", "is_disabled": 0, "is_reserved": 0}, {"rental_uris": {"ios": "https://dc.lft.to/lastmile_qr_scan", "android": "https://dc.lft.to/lastmile_qr_scan"}, "lon": -76.99823466666666, "type": "electric_bike", "fusion_lat": 0.0, "lat": 38.844367166666665, "name": "4c9ca050bde4b8c2e26b18053ab69511", "fusion_lon": 0.0, "bike_id": "4c9ca050bde4b8c2e26b18053ab69511", "is_disabled": 0, "is_reserved": 0}, {"rental_uris": {"ios": "https://dc.lft.to/lastmile_qr_scan", "android": "https://dc.lft.to/lastmile_qr_scan"}, "lon": -77.02966116666667, "type": "electric_scooter", "fusion_lat": 0.0, "lat": 38.9073015, "name": "67e4270421ff183a86e40efef439ab8f", "fusion_lon": 0.0, "bike_id": "67e4270421ff183a86e40efef439ab8f", "is_disabled": 0, "is_reserved": 0}, {"rental_uris": {"ios": "https://dc.lft.to/lastmile_qr_scan", "android": "https://dc.lft.to/lastmile_qr_scan"}, "lon": -77.0233705, "type": "electric_scooter", "fusion_lat": 0.0, "lat": 38.930510166666664, "name": "11796c6e6823403af4604ed29b5e7123", "fusion_lon": 0.0, "bike_id": "11796c6e6823403af4604ed29b5e7123", "is_disabled": 0, "is_reserved": 0}, {"rental_uris": {"ios": "https://dc.lft.to/lastmile_qr_scan", "android": "https://dc.lft.to/lastmile_qr_scan"}, "lon": -77.00068566666667, "type": "electric_scooter", "fusion_lat": 0.0, "lat": 38.925512, "name": "9e64fa644303473ff80388677c733b1c", "fusion_lon": 0.0, "bike_id": "9e64fa644303473ff80388677c733b1c", "is_disabled": 0, "is_reserved": 0}, {"rental_uris": {"ios": "https://dc.lft.to/lastmile_qr_scan", "android": "https://dc.lft.to/lastmile_qr_scan"}, "lon": -76.985952, "type": "electric_scooter", "fusion_lat": 0.0, "lat": 38.90662066666667, "name": "2f68bf786d7ecaa164c32595e3bc00fd", "fusion_lon": 0.0, "bike_id": "2f68bf786d7ecaa164c32595e3bc00fd", "is_disabled": 0, "is_reserved": 0}, {"rental_uris": {"ios": "https://dc.lft.to/lastmile_qr_scan", "android": "https://dc.lft.to/lastmile_qr_scan"}, "lon": -77.043833, "type": "electric_scooter", "fusion_lat": 0.0, "lat": 38.92358433333333, "name": "72aa59296947e8d40aadeab89a355e01", "fusion_lon": 0.0, "bike_id": "72aa59296947e8d40aadeab89a355e01", "is_disabled": 0, "is_reserved": 0}, {"rental_uris": {"ios": "https://dc.lft.to/lastmile_qr_scan", "android": "https://dc.lft.to/lastmile_qr_scan"}, "lon": -77.01758416666667, "type": "electric_scooter", "fusion_lat": 0.0, "lat": 38.87692233333333, "name": "55f4d1c7dc77d3c2ad7412399142c0e7", "fusion_lon": 0.0, "bike_id": "55f4d1c7dc77d3c2ad7412399142c0e7", "is_disabled": 0, "is_reserved": 0}, {"rental_uris": {"ios": "https://dc.lft.to/lastmile_qr_scan", "android": "https://dc.lft.to/lastmile_qr_scan"}, "lon": -76.98821033333333, "type": "electric_scooter", "fusion_lat": 0.0, "lat": 38.90334216666667, "name": "35d65a81f21e99ebf01650a90717a440", "fusion_lon": 0.0, "bike_id": "35d65a81f21e99ebf01650a90717a440", "is_disabled": 0, "is_reserved": 0}, {"rental_uris": {"ios": "https://dc.lft.to/lastmile_qr_scan", "android": "https://dc.lft.to/lastmile_qr_scan"}, "lon": -77.05322716666667, "type": "electric_scooter", "fusion_lat": 0.0, "lat": 38.939678, "name": "db9e225f5fef29507e61ef526930e6f2", "fusion_lon": 0.0, "bike_id": "db9e225f5fef29507e61ef526930e6f2", "is_disabled": 0, "is_reserved": 0}, {"rental_uris": {"ios": "https://dc.lft.to/lastmile_qr_scan", "android": "https://dc.lft.to/lastmile_qr_scan"}, "lon": -77.0117865, "type": "electric_scooter", "fusion_lat": 0.0, "lat": 38.906520666666665, "name": "9d714b55ddc1c90a7c27e7104d6c2e3e", "fusion_lon": 0.0, "bike_id": "9d714b55ddc1c90a7c27e7104d6c2e3e", "is_disabled": 0, "is_reserved": 0}, {"rental_uris": {"ios": "https://dc.lft.to/lastmile_qr_scan", "android": "https://dc.lft.to/lastmile_qr_scan"}, "lon": -76.9330195, "type": "electric_scooter", "fusion_lat": 0.0, "lat": 38.89886716666667, "name": "35bdbcd7ca1de8810d01d6a0c45c7aaf", "fusion_lon": 0.0, "bike_id": "35bdbcd7ca1de8810d01d6a0c45c7aaf", "is_disabled": 0, "is_reserved": 0}, {"rental_uris": {"ios": "https://dc.lft.to/lastmile_qr_scan", "android": "https://dc.lft.to/lastmile_qr_scan"}, "lon": -77.09554016666667, "type": "electric_scooter", "fusion_lat": 0.0, "lat": 38.916580833333335, "name": "934b94fae3e591d65368b978abd06cfe", "fusion_lon": 0.0, "bike_id": "934b94fae3e591d65368b978abd06cfe", "is_disabled": 0, "is_reserved": 0}, {"rental_uris": {"ios": "https://dc.lft.to/lastmile_qr_scan", "android": "https://dc.lft.to/lastmile_qr_scan"}, "lon": -77.027496, "type": "electric_scooter", "fusion_lat": 0.0, "lat": 38.92382533333333, "name": "637aede658c3a691fcaea72092ce45e0", "fusion_lon": 0.0, "bike_id": "637aede658c3a691fcaea72092ce45e0", "is_disabled": 0, "is_reserved": 0}, {"rental_uris": {"ios": "https://dc.lft.to/lastmile_qr_scan", "android": "https://dc.lft.to/lastmile_qr_scan"}, "lon": -77.01217766666667, "type": "electric_scooter", "fusion_lat": 0.0, "lat": 38.9097685, "name": "7132cb774f4352ca386bf44ff8672b5b", "fusion_lon": 0.0, "bike_id": "7132cb774f4352ca386bf44ff8672b5b", "is_disabled": 0, "is_reserved": 0}, {"rental_uris": {"ios": "https://dc.lft.to/lastmile_qr_scan", "android": "https://dc.lft.to/lastmile_qr_scan"}, "lon": -77.02711116666667, "type": "electric_scooter", "fusion_lat": 0.0, "lat": 38.924714333333334, "name": "c3f2b74be2adbe93974f36700c6e8212", "fusion_lon": 0.0, "bike_id": "c3f2b74be2adbe93974f36700c6e8212", "is_disabled": 0, "is_reserved": 0}, {"rental_uris": {"ios": "https://dc.lft.to/lastmile_qr_scan", "android": "https://dc.lft.to/lastmile_qr_scan"}, "lon": -77.03632066666667, "type": "electric_scooter", "fusion_lat": 0.0, "lat": 38.918173333333336, "name": "a1ee61867aabdd1dc3917e35dbe17c53", "fusion_lon": 0.0, "bike_id": "a1ee61867aabdd1dc3917e35dbe17c53", "is_disabled": 0, "is_reserved": 0}, {"rental_uris": {"ios": "https://dc.lft.to/lastmile_qr_scan", "android": "https://dc.lft.to/lastmile_qr_scan"}, "lon": -77.002314, "type": "electric_scooter", "fusion_lat": 0.0, "lat": 38.9056135, "name": "51e6d289811ac678d50570a3604a5417", "fusion_lon": 0.0, "bike_id": "51e6d289811ac678d50570a3604a5417", "is_disabled": 0, "is_reserved": 0}, {"rental_uris": {"ios": "https://dc.lft.to/lastmile_qr_scan", "android": "https://dc.lft.to/lastmile_qr_scan"}, "lon": -77.11426833333333, "type": "electric_bike", "fusion_lat": 0.0, "lat": 38.8524375, "name": "710b47d09ea76ef78ec14d1cd1170302", "fusion_lon": 0.0, "bike_id": "710b47d09ea76ef78ec14d1cd1170302", "is_disabled": 0, "is_reserved": 0}, {"rental_uris": {"ios": "https://dc.lft.to/lastmile_qr_scan", "android": "https://dc.lft.to/lastmile_qr_scan"}, "lon": -76.984174, "type": "electric_scooter", "fusion_lat": 0.0, "lat": 38.91385833333333, "name": "22ff09f29804a0d53bd49b844d26eeae", "fusion_lon": 0.0, "bike_id": "22ff09f29804a0d53bd49b844d26eeae", "is_disabled": 0, "is_reserved": 0}, {"rental_uris": {"ios": "https://dc.lft.to/lastmile_qr_scan", "android": "https://dc.lft.to/lastmile_qr_scan"}, "lon": -77.03173666666666, "type": "electric_scooter", "fusion_lat": 0.0, "lat": 38.8996815, "name": "23c699046ed885b452832b3a328a88da", "fusion_lon": 0.0, "bike_id": "23c699046ed885b452832b3a328a88da", "is_disabled": 0, "is_reserved": 0}, {"rental_uris": {"ios": "https://dc.lft.to/lastmile_qr_scan", "android": "https://dc.lft.to/lastmile_qr_scan"}, "lon": -77.02692316666666, "type": "electric_scooter", "fusion_lat": 0.0, "lat": 38.9084745, "name": "6caf379fbdc88599003c0704dec1cd7c", "fusion_lon": 0.0, "bike_id": "6caf379fbdc88599003c0704dec1cd7c", "is_disabled": 0, "is_reserved": 0}, {"rental_uris": {"ios": "https://dc.lft.to/lastmile_qr_scan", "android": "https://dc.lft.to/lastmile_qr_scan"}, "lon": -77.07493966666667, "type": "electric_scooter", "fusion_lat": 0.0, "lat": 38.914913166666665, "name": "4f426125fedaba5ceccd2d7bb742e8d0", "fusion_lon": 0.0, "bike_id": "4f426125fedaba5ceccd2d7bb742e8d0", "is_disabled": 0, "is_reserved": 0}, {"rental_uris": {"ios": "https://dc.lft.to/lastmile_qr_scan", "android": "https://dc.lft.to/lastmile_qr_scan"}, "lon": -77.00325583333333, "type": "electric_scooter", "fusion_lat": 0.0, "lat": 38.909074, "name": "8a6521bf8772cd2db0418e846cb72708", "fusion_lon": 0.0, "bike_id": "8a6521bf8772cd2db0418e846cb72708", "is_disabled": 0, "is_reserved": 0}, {"rental_uris": {"ios": "https://dc.lft.to/lastmile_qr_scan", "android": "https://dc.lft.to/lastmile_qr_scan"}, "lon": -77.05024366666666, "type": "electric_scooter", "fusion_lat": 0.0, "lat": 38.89655066666667, "name": "ce36c20d429c22f6b1bf4c686b39462e", "fusion_lon": 0.0, "bike_id": "ce36c20d429c22f6b1bf4c686b39462e", "is_disabled": 0, "is_reserved": 0}, {"rental_uris": {"ios": "https://dc.lft.to/lastmile_qr_scan", "android": "https://dc.lft.to/lastmile_qr_scan"}, "lon": -76.96789283333334, "type": "electric_scooter", "fusion_lat": 0.0, "lat": 38.861465, "name": "15c24333456a5b1286761a082479b4e2", "fusion_lon": 0.0, "bike_id": "15c24333456a5b1286761a082479b4e2", "is_disabled": 0, "is_reserved": 0}, {"rental_uris": {"ios": "https://dc.lft.to/lastmile_qr_scan", "android": "https://dc.lft.to/lastmile_qr_scan"}, "lon": -77.03445566666667, "type": "electric_scooter", "fusion_lat": 0.0, "lat": 38.9026285, "name": "b135d94e15e39255b91b23f69e674470", "fusion_lon": 0.0, "bike_id": "b135d94e15e39255b91b23f69e674470", "is_disabled": 0, "is_reserved": 0}, {"rental_uris": {"ios": "https://dc.lft.to/lastmile_qr_scan", "android": "https://dc.lft.to/lastmile_qr_scan"}, "lon": -76.99384116666667, "type": "electric_scooter", "fusion_lat": 0.0, "lat": 38.88722083333333, "name": "db7efa04481e075be8a8afdba156e4ee", "fusion_lon": 0.0, "bike_id": "db7efa04481e075be8a8afdba156e4ee", "is_disabled": 0, "is_reserved": 0}, {"rental_uris": {"ios": "https://dc.lft.to/lastmile_qr_scan", "android": "https://dc.lft.to/lastmile_qr_scan"}, "lon": -77.03322316666667, "type": "electric_scooter", "fusion_lat": 0.0, "lat": 38.92154583333333, "name": "82fcb10f08c268a48b6c7d55d9255495", "fusion_lon": 0.0, "bike_id": "82fcb10f08c268a48b6c7d55d9255495", "is_disabled": 0, "is_reserved": 0}, {"rental_uris": {"ios": "https://dc.lft.to/lastmile_qr_scan", "android": "https://dc.lft.to/lastmile_qr_scan"}, "lon": -77.02220666666666, "type": "electric_scooter", "fusion_lat": 0.0, "lat": 38.93873716666667, "name": "31fb7a626d8a9e1f337bc8695d47dd2f", "fusion_lon": 0.0, "bike_id": "31fb7a626d8a9e1f337bc8695d47dd2f", "is_disabled": 0, "is_reserved": 0}, {"rental_uris": {"ios": "https://dc.lft.to/lastmile_qr_scan", "android": "https://dc.lft.to/lastmile_qr_scan"}, "lon": -77.04256766666667, "type": "electric_scooter", "fusion_lat": 0.0, "lat": 38.915896000000004, "name": "a4493f551e9c1a418aa5f780c86993dc", "fusion_lon": 0.0, "bike_id": "a4493f551e9c1a418aa5f780c86993dc", "is_disabled": 0, "is_reserved": 0}, {"rental_uris": {"ios": "https://dc.lft.to/lastmile_qr_scan", "android": "https://dc.lft.to/lastmile_qr_scan"}, "lon": -77.02300033333333, "type": "electric_scooter", "fusion_lat": 0.0, "lat": 38.92758083333333, "name": "c7f4ad6e3f6d3d80a54bc552f8cb5008", "fusion_lon": 0.0, "bike_id": "c7f4ad6e3f6d3d80a54bc552f8cb5008", "is_disabled": 0, "is_reserved": 0}, {"rental_uris": {"ios": "https://dc.lft.to/lastmile_qr_scan", "android": "https://dc.lft.to/lastmile_qr_scan"}, "lon": -77.0587795, "type": "electric_scooter", "fusion_lat": 0.0, "lat": 38.9363575, "name": "148d77be5ec62dc1c2c2b2ac9762304c", "fusion_lon": 0.0, "bike_id": "148d77be5ec62dc1c2c2b2ac9762304c", "is_disabled": 0, "is_reserved": 0}, {"rental_uris": {"ios": "https://dc.lft.to/lastmile_qr_scan", "android": "https://dc.lft.to/lastmile_qr_scan"}, "lon": -77.0481225, "type": "electric_scooter", "fusion_lat": 0.0, "lat": 38.896234166666666, "name": "72df5ccbec0a3b5b7ddcbe297cc910b7", "fusion_lon": 0.0, "bike_id": "72df5ccbec0a3b5b7ddcbe297cc910b7", "is_disabled": 0, "is_reserved": 0}, {"rental_uris": {"ios": "https://dc.lft.to/lastmile_qr_scan", "android": "https://dc.lft.to/lastmile_qr_scan"}, "lon": -76.98706416666667, "type": "electric_scooter", "fusion_lat": 0.0, "lat": 38.867054333333336, "name": "b56a36ccd800b252ba4c583dbe9a89cc", "fusion_lon": 0.0, "bike_id": "b56a36ccd800b252ba4c583dbe9a89cc", "is_disabled": 0, "is_reserved": 0}, {"rental_uris": {"ios": "https://dc.lft.to/lastmile_qr_scan", "android": "https://dc.lft.to/lastmile_qr_scan"}, "lon": -77.0379705, "type": "electric_scooter", "fusion_lat": 0.0, "lat": 38.90557966666667, "name": "662e4b54cbd30f95265ad40a484399e9", "fusion_lon": 0.0, "bike_id": "662e4b54cbd30f95265ad40a484399e9", "is_disabled": 0, "is_reserved": 0}, {"rental_uris": {"ios": "https://dc.lft.to/lastmile_qr_scan", "android": "https://dc.lft.to/lastmile_qr_scan"}, "lon": -77.02162966666667, "type": "electric_scooter", "fusion_lat": 0.0, "lat": 38.92615, "name": "2f16baf5883aab02fcb00a5658a167e1", "fusion_lon": 0.0, "bike_id": "2f16baf5883aab02fcb00a5658a167e1", "is_disabled": 0, "is_reserved": 0}, {"rental_uris": {"ios": "https://dc.lft.to/lastmile_qr_scan", "android": "https://dc.lft.to/lastmile_qr_scan"}, "lon": -77.0223365, "type": "electric_scooter", "fusion_lat": 0.0, "lat": 38.91427266666667, "name": "34be2aa992cf3bd90ee1ea0e63d32bed", "fusion_lon": 0.0, "bike_id": "34be2aa992cf3bd90ee1ea0e63d32bed", "is_disabled": 0, "is_reserved": 0}, {"rental_uris": {"ios": "https://dc.lft.to/lastmile_qr_scan", "android": "https://dc.lft.to/lastmile_qr_scan"}, "lon": -77.030179, "type": "electric_scooter", "fusion_lat": 0.0, "lat": 38.920465, "name": "2824f0f2fb0d5a35b14730fc8cfc13e3", "fusion_lon": 0.0, "bike_id": "2824f0f2fb0d5a35b14730fc8cfc13e3", "is_disabled": 0, "is_reserved": 0}, {"rental_uris": {"ios": "https://dc.lft.to/lastmile_qr_scan", "android": "https://dc.lft.to/lastmile_qr_scan"}, "lon": -77.037859, "type": "electric_scooter", "fusion_lat": 0.0, "lat": 38.93019783333333, "name": "45dbc62ddc05c4524584d6bfdc8fdada", "fusion_lon": 0.0, "bike_id": "45dbc62ddc05c4524584d6bfdc8fdada", "is_disabled": 0, "is_reserved": 0}, {"rental_uris": {"ios": "https://dc.lft.to/lastmile_qr_scan", "android": "https://dc.lft.to/lastmile_qr_scan"}, "lon": -77.00211366666667, "type": "electric_scooter", "fusion_lat": 0.0, "lat": 38.91104283333333, "name": "8b0e41f1ee05dd09544a359b61bed75a", "fusion_lon": 0.0, "bike_id": "8b0e41f1ee05dd09544a359b61bed75a", "is_disabled": 0, "is_reserved": 0}, {"rental_uris": {"ios": "https://dc.lft.to/lastmile_qr_scan", "android": "https://dc.lft.to/lastmile_qr_scan"}, "lon": -77.03219216666666, "type": "electric_scooter", "fusion_lat": 0.0, "lat": 38.9169355, "name": "5efaad9ed5aaa736a28b7f52d1ef0ba3", "fusion_lon": 0.0, "bike_id": "5efaad9ed5aaa736a28b7f52d1ef0ba3", "is_disabled": 0, "is_reserved": 0}, {"rental_uris": {"ios": "https://dc.lft.to/lastmile_qr_scan", "android": "https://dc.lft.to/lastmile_qr_scan"}, "lon": -77.03652583333333, "type": "electric_scooter", "fusion_lat": 0.0, "lat": 38.9033335, "name": "27daf489200cf93b4ef709490a5bc7f7", "fusion_lon": 0.0, "bike_id": "27daf489200cf93b4ef709490a5bc7f7", "is_disabled": 0, "is_reserved": 0}, {"rental_uris": {"ios": "https://dc.lft.to/lastmile_qr_scan", "android": "https://dc.lft.to/lastmile_qr_scan"}, "lon": -77.03199183333334, "type": "electric_scooter", "fusion_lat": 0.0, "lat": 38.92069816666667, "name": "5e25bb7568ce41d9c8ad79a77eee5f52", "fusion_lon": 0.0, "bike_id": "5e25bb7568ce41d9c8ad79a77eee5f52", "is_disabled": 0, "is_reserved": 0}, {"rental_uris": {"ios": "https://dc.lft.to/lastmile_qr_scan", "android": "https://dc.lft.to/lastmile_qr_scan"}, "lon": -77.03955666666667, "type": "electric_scooter", "fusion_lat": 0.0, "lat": 38.92607566666667, "name": "a007c2ab703714cb07babc1fc382ae90", "fusion_lon": 0.0, "bike_id": "a007c2ab703714cb07babc1fc382ae90", "is_disabled": 0, "is_reserved": 0}, {"rental_uris": {"ios": "https://dc.lft.to/lastmile_qr_scan", "android": "https://dc.lft.to/lastmile_qr_scan"}, "lon": -77.041758, "type": "electric_scooter", "fusion_lat": 0.0, "lat": 38.921982166666666, "name": "f6d14200bfb206f7d88323514f89e5b5", "fusion_lon": 0.0, "bike_id": "f6d14200bfb206f7d88323514f89e5b5", "is_disabled": 0, "is_reserved": 0}, {"rental_uris": {"ios": "https://dc.lft.to/lastmile_qr_scan", "android": "https://dc.lft.to/lastmile_qr_scan"}, "lon": -77.053021, "type": "electric_scooter", "fusion_lat": 0.0, "lat": 38.9015215, "name": "0e768b3189e66ae0f9d86a27d12b5f26", "fusion_lon": 0.0, "bike_id": "0e768b3189e66ae0f9d86a27d12b5f26", "is_disabled": 0, "is_reserved": 0}, {"rental_uris": {"ios": "https://dc.lft.to/lastmile_qr_scan", "android": "https://dc.lft.to/lastmile_qr_scan"}, "lon": -77.02760716666667, "type": "electric_scooter", "fusion_lat": 0.0, "lat": 38.9715335, "name": "4b03800b045e2a72c0dda7754e9ad263", "fusion_lon": 0.0, "bike_id": "4b03800b045e2a72c0dda7754e9ad263", "is_disabled": 0, "is_reserved": 0}, {"rental_uris": {"ios": "https://dc.lft.to/lastmile_qr_scan", "android": "https://dc.lft.to/lastmile_qr_scan"}, "lon": -77.05055233333333, "type": "electric_scooter", "fusion_lat": 0.0, "lat": 38.923616, "name": "b6a2b2dd13c2606c657d4040a549ce8f", "fusion_lon": 0.0, "bike_id": "b6a2b2dd13c2606c657d4040a549ce8f", "is_disabled": 0, "is_reserved": 0}, {"rental_uris": {"ios": "https://dc.lft.to/lastmile_qr_scan", "android": "https://dc.lft.to/lastmile_qr_scan"}, "lon": -76.99615966666667, "type": "electric_scooter", "fusion_lat": 0.0, "lat": 38.89743033333333, "name": "29c4c96cadedc0c536558b7032680ce2", "fusion_lon": 0.0, "bike_id": "29c4c96cadedc0c536558b7032680ce2", "is_disabled": 0, "is_reserved": 0}, {"rental_uris": {"ios": "https://dc.lft.to/lastmile_qr_scan", "android": "https://dc.lft.to/lastmile_qr_scan"}, "lon": -77.03657916666667, "type": "electric_scooter", "fusion_lat": 0.0, "lat": 38.92120633333333, "name": "2f5a6c2db2bf225e3705d1c73c0803fe", "fusion_lon": 0.0, "bike_id": "2f5a6c2db2bf225e3705d1c73c0803fe", "is_disabled": 0, "is_reserved": 0}, {"rental_uris": {"ios": "https://dc.lft.to/lastmile_qr_scan", "android": "https://dc.lft.to/lastmile_qr_scan"}, "lon": -77.070932, "type": "electric_scooter", "fusion_lat": 0.0, "lat": 38.93371233333333, "name": "8b85ee2462280f881008d91047b888d8", "fusion_lon": 0.0, "bike_id": "8b85ee2462280f881008d91047b888d8", "is_disabled": 0, "is_reserved": 0}, {"rental_uris": {"ios": "https://dc.lft.to/lastmile_qr_scan", "android": "https://dc.lft.to/lastmile_qr_scan"}, "lon": -76.982015, "type": "electric_scooter", "fusion_lat": 0.0, "lat": 38.89093366666667, "name": "2a4ebbe5d926a95aea465c9954b0a1c4", "fusion_lon": 0.0, "bike_id": "2a4ebbe5d926a95aea465c9954b0a1c4", "is_disabled": 0, "is_reserved": 0}, {"rental_uris": {"ios": "https://dc.lft.to/lastmile_qr_scan", "android": "https://dc.lft.to/lastmile_qr_scan"}, "lon": -77.05494883333333, "type": "electric_scooter", "fusion_lat": 0.0, "lat": 38.92970066666667, "name": "4301d52472d8184385ac7432ce204eef", "fusion_lon": 0.0, "bike_id": "4301d52472d8184385ac7432ce204eef", "is_disabled": 0, "is_reserved": 0}, {"rental_uris": {"ios": "https://dc.lft.to/lastmile_qr_scan", "android": "https://dc.lft.to/lastmile_qr_scan"}, "lon": -76.9323895, "type": "electric_bike", "fusion_lat": 0.0, "lat": 38.882723166666665, "name": "c069e6efdcb696e8206edafb8ace0d52", "fusion_lon": 0.0, "bike_id": "c069e6efdcb696e8206edafb8ace0d52", "is_disabled": 0, "is_reserved": 0}, {"rental_uris": {"ios": "https://dc.lft.to/lastmile_qr_scan", "android": "https://dc.lft.to/lastmile_qr_scan"}, "lon": -77.03659666666667, "type": "electric_scooter", "fusion_lat": 0.0, "lat": 38.90272683333333, "name": "f7ec6329240ddeb25a2da15c52064473", "fusion_lon": 0.0, "bike_id": "f7ec6329240ddeb25a2da15c52064473", "is_disabled": 0, "is_reserved": 0}, {"rental_uris": {"ios": "https://dc.lft.to/lastmile_qr_scan", "android": "https://dc.lft.to/lastmile_qr_scan"}, "lon": -77.0716065, "type": "electric_scooter", "fusion_lat": 0.0, "lat": 38.91454866666667, "name": "b023f56d13ef598746cbaf956333f2a8", "fusion_lon": 0.0, "bike_id": "b023f56d13ef598746cbaf956333f2a8", "is_disabled": 0, "is_reserved": 0}, {"rental_uris": {"ios": "https://dc.lft.to/lastmile_qr_scan", "android": "https://dc.lft.to/lastmile_qr_scan"},