{"data": {"bikes": [{"lat": 38.88694266666667, "is_disabled": 0, "type": "electric_scooter", "lon": -77.017645, "bike_id": "4dbbb54a69063ec3d519c8efddddb226", "fusion_lat": 0.0, "name": "4dbbb54a69063ec3d519c8efddddb226", "is_reserved": 0, "rental_uris": {"android": "https://dc.lft.to/lastmile_qr_scan", "ios": "https://dc.lft.to/lastmile_qr_scan"}, "fusion_lon": 0.0}, {"lat": 38.9134185, "is_disabled": 0, "type": "electric_scooter", "lon": -77.012645, "bike_id": "6969042efb8352c9c119f0adc067e9f3", "fusion_lat": 0.0, "name": "6969042efb8352c9c119f0adc067e9f3", "is_reserved": 0, "rental_uris": {"android": "https://dc.lft.to/lastmile_qr_scan", "ios": "https://dc.lft.to/lastmile_qr_scan"}, "fusion_lon": 0.0}, {"lat": 38.93195016666667, "is_disabled": 0, "type": "electric_scooter", "lon": -77.02351616666667, "bike_id": "fff821ec92b6ff307c101b743a25e2a5", "fusion_lat": 0.0, "name": "fff821ec92b6ff307c101b743a25e2a5", "is_reserved": 0, "rental_uris": {"android": "https://dc.lft.to/lastmile_qr_scan", "ios": "https://dc.lft.to/lastmile_qr_scan"}, "fusion_lon": 0.0}, {"lat": 38.89494, "is_disabled": 0, "type": "electric_scooter", "lon": -77.00220183333333, "bike_id": "796799931f2aa71ea0660b37790af62e", "fusion_lat": 0.0, "name": "796799931f2aa71ea0660b37790af62e", "is_reserved": 0, "rental_uris": {"android": "https://dc.lft.to/lastmile_qr_scan", "ios": "https://dc.lft.to/lastmile_qr_scan"}, "fusion_lon": 0.0}, {"lat": 38.898388, "is_disabled": 0, "type": "electric_scooter", "lon": -76.99504233333333, "bike_id": "183810173dc27d59bd7bf32270df2261", "fusion_lat": 0.0, "name": "183810173dc27d59bd7bf32270df2261", "is_reserved": 0, "rental_uris": {"android": "https://dc.lft.to/lastmile_qr_scan", "ios": "https://dc.lft.to/lastmile_qr_scan"}, "fusion_lon": 0.0}, {"lat": 38.90866533333333, "is_disabled": 0, "type": "electric_scooter", "lon": -77.00370316666667, "bike_id": "bbdf18824e06c755a06d0dbbfd493531", "fusion_lat": 0.0, "name": "bbdf18824e06c755a06d0dbbfd493531", "is_reserved": 0, "rental_uris": {"android": "https://dc.lft.to/lastmile_qr_scan", "ios": "https://dc.lft.to/lastmile_qr_scan"}, "fusion_lon": 0.0}, {"lat": 38.90396233333333, "is_disabled": 0, "type": "electric_scooter", "lon": -76.98462983333333, "bike_id": "bf13496124021a8e28393def5526ecea", "fusion_lat": 0.0, "name": "bf13496124021a8e28393def5526ecea", "is_reserved": 0, "rental_uris": {"android": "https://dc.lft.to/lastmile_qr_scan", "ios": "https://dc.lft.to/lastmile_qr_scan"}, "fusion_lon": 0.0}, {"lat": 38.9171, "is_disabled": 0, "type": "electric_scooter", "lon": -77.03861916666666, "bike_id": "1cee7382087a4ac2029a3317f6f6723e", "fusion_lat": 0.0, "name": "1cee7382087a4ac2029a3317f6f6723e", "is_reserved": 0, "rental_uris": {"android": "https://dc.lft.to/lastmile_qr_scan", "ios": "https://dc.lft.to/lastmile_qr_scan"}, "fusion_lon": 0.0}, {"lat": 38.96222316666667, "is_disabled": 0, "type": "electric_bike", "lon": -77.026307, "bike_id": "b800c9e9af3299a476ea6b669cfec0a7", "fusion_lat": 0.0, "name": "b800c9e9af3299a476ea6b669cfec0a7", "is_reserved": 0, "rental_uris": {"android": "https://dc.lft.to/lastmile_qr_scan", "ios": "https://dc.lft.to/lastmile_qr_scan"}, "fusion_lon": 0.0}, {"lat": 38.9267685, "is_disabled": 0, "type": "electric_scooter", "lon": -77.00741833333333, "bike_id": "fb444dac217a30883102319828a17ca6", "fusion_lat": 0.0, "name": "fb444dac217a30883102319828a17ca6", "is_reserved": 0, "rental_uris": {"android": "https://dc.lft.to/lastmile_qr_scan", "ios": "https://dc.lft.to/lastmile_qr_scan"}, "fusion_lon": 0.0}, {"lat": 38.893489833333334, "is_disabled": 0, "type": "electric_scooter", "lon": -77.03987933333333, "bike_id": "c18c706fd3bd5d54b6d2e39db4df0976", "fusion_lat": 0.0, "name": "c18c706fd3bd5d54b6d2e39db4df0976", "is_reserved": 0, "rental_uris": {"android": "https://dc.lft.to/lastmile_qr_scan", "ios": "https://dc.lft.to/lastmile_qr_scan"}, "fusion_lon": 0.0}, {"lat": 38.9025, "is_disabled": 0, "type": "electric_scooter", "lon": -77.02806633333333, "bike_id": "986bd874690756a8f2ba06597ea28584", "fusion_lat": 0.0, "name": "986bd874690756a8f2ba06597ea28584", "is_reserved": 0, "rental_uris": {"android": "https://dc.lft.to/lastmile_qr_scan", "ios": "https://dc.lft.to/lastmile_qr_scan"}, "fusion_lon": 0.0}, {"lat": 38.8922165, "is_disabled": 0, "type": "electric_bike", "lon": -77.1078095, "bike_id": "82a3ceb9c5438dd3127502d29adc25e9", "fusion_lat": 0.0, "name": "82a3ceb9c5438dd3127502d29adc25e9", "is_reserved": 0, "rental_uris": {"android": "https://dc.lft.to/lastmile_qr_scan", "ios": "https://dc.lft.to/lastmile_qr_scan"}, "fusion_lon": 0.0}, {"lat": 38.87238416666667, "is_disabled": 0, "type": "electric_bike", "lon": -77.0116655, "bike_id": "8c52d0edf6de73074dddc720ae0648b9", "fusion_lat": 0.0, "name": "8c52d0edf6de73074dddc720ae0648b9", "is_reserved": 0, "rental_uris": {"android": "https://dc.lft.to/lastmile_qr_scan", "ios": "https://dc.lft.to/lastmile_qr_scan"}, "fusion_lon": 0.0}, {"lat": 38.91921033333333, "is_disabled": 0, "type": "electric_scooter", "lon": -77.0479975, "bike_id": "8b712a08426c7ccd862876c4a698ad09", "fusion_lat": 0.0, "name": "8b712a08426c7ccd862876c4a698ad09", "is_reserved": 0, "rental_uris": {"android": "https://dc.lft.to/lastmile_qr_scan", "ios": "https://dc.lft.to/lastmile_qr_scan"}, "fusion_lon": 0.0}, {"lat": 38.899339, "is_disabled": 0, "type": "electric_scooter", "lon": -77.03211816666666, "bike_id": "9053f162f6e0137f615b03c3b1680eaf", "fusion_lat": 0.0, "name": "9053f162f6e0137f615b03c3b1680eaf", "is_reserved": 0, "rental_uris": {"android": "https://dc.lft.to/lastmile_qr_scan", "ios": "https://dc.lft.to/lastmile_qr_scan"}, "fusion_lon": 0.0}, {"lat": 38.9177995, "is_disabled": 0, "type": "electric_scooter", "lon": -77.04303833333333, "bike_id": "9c56e211dc68ece2311728c71e2606d0", "fusion_lat": 0.0, "name": "9c56e211dc68ece2311728c71e2606d0", "is_reserved": 0, "rental_uris": {"android": "https://dc.lft.to/lastmile_qr_scan", "ios": "https://dc.lft.to/lastmile_qr_scan"}, "fusion_lon": 0.0}, {"lat": 38.89686533333333, "is_disabled": 0, "type": "electric_scooter", "lon": -76.935361, "bike_id": "36032be38b65317db8f8d391eb3958e0", "fusion_lat": 0.0, "name": "36032be38b65317db8f8d391eb3958e0", "is_reserved": 0, "rental_uris": {"android": "https://dc.lft.to/lastmile_qr_scan", "ios": "https://dc.lft.to/lastmile_qr_scan"}, "fusion_lon": 0.0}, {"lat": 38.9006835, "is_disabled": 0, "type": "electric_scooter", "lon": -77.00207166666667, "bike_id": "266d5da2c1ef80457fe92b5ff257b6bf", "fusion_lat": 0.0, "name": "266d5da2c1ef80457fe92b5ff257b6bf", "is_reserved": 0, "rental_uris": {"android": "https://dc.lft.to/lastmile_qr_scan", "ios": "https://dc.lft.to/lastmile_qr_scan"}, "fusion_lon": 0.0}, {"lat": 38.892241166666665, "is_disabled": 0, "type": "electric_scooter", "lon": -77.0487485, "bike_id": "a9fe888a97dfdac930de2acbbdda40bf", "fusion_lat": 0.0, "name": "a9fe888a97dfdac930de2acbbdda40bf", "is_reserved": 0, "rental_uris": {"android": "https://dc.lft.to/lastmile_qr_scan", "ios": "https://dc.lft.to/lastmile_qr_scan"}, "fusion_lon": 0.0}, {"lat": 38.91861816666667, "is_disabled": 0, "type": "electric_scooter", "lon": -77.045929, "bike_id": "35bfeb675e1e7ddaa43cf60061a20c0b", "fusion_lat": 0.0, "name": "35bfeb675e1e7ddaa43cf60061a20c0b", "is_reserved": 0, "rental_uris": {"android": "https://dc.lft.to/lastmile_qr_scan", "ios": "https://dc.lft.to/lastmile_qr_scan"}, "fusion_lon": 0.0}, {"lat": 38.9614575, "is_disabled": 0, "type": "electric_scooter", "lon": -77.02810266666667, "bike_id": "f32c8689c9dd2e1cb1bd04378ec66f27", "fusion_lat": 0.0, "name": "f32c8689c9dd2e1cb1bd04378ec66f27", "is_reserved": 0, "rental_uris": {"android": "https://dc.lft.to/lastmile_qr_scan", "ios": "https://dc.lft.to/lastmile_qr_scan"}, "fusion_lon": 0.0}, {"lat": 38.914913166666665, "is_disabled": 0, "type": "electric_scooter", "lon": -77.03269366666666, "bike_id": "256dcbd3dd9bdee0f13e1f17398461f6", "fusion_lat": 0.0, "name": "256dcbd3dd9bdee0f13e1f17398461f6", "is_reserved": 0, "rental_uris": {"android": "https://dc.lft.to/lastmile_qr_scan", "ios": "https://dc.lft.to/lastmile_qr_scan"}, "fusion_lon": 0.0}, {"lat": 38.9206265, "is_disabled": 0, "type": "electric_scooter", "lon": -77.04334733333333, "bike_id": "b7c832bc6dbc0fc2d1c3d056850c4a77", "fusion_lat": 0.0, "name": "b7c832bc6dbc0fc2d1c3d056850c4a77", "is_reserved": 0, "rental_uris": {"android": "https://dc.lft.to/lastmile_qr_scan", "ios": "https://dc.lft.to/lastmile_qr_scan"}, "fusion_lon": 0.0}, {"lat": 38.91331316666667, "is_disabled": 0, "type": "electric_scooter", "lon": -77.0326425, "bike_id": "14c1f9cb464784a93d91e180e4e8aae8", "fusion_lat": 0.0, "name": "14c1f9cb464784a93d91e180e4e8aae8", "is_reserved": 0, "rental_uris": {"android": "https://dc.lft.to/lastmile_qr_scan", "ios": "https://dc.lft.to/lastmile_qr_scan"}, "fusion_lon": 0.0}, {"lat": 38.90878166666667, "is_disabled": 0, "type": "electric_scooter", "lon": -77.043927, "bike_id": "6c4052d53bbbafb94db67c6cfb050591", "fusion_lat": 0.0, "name": "6c4052d53bbbafb94db67c6cfb050591", "is_reserved": 0, "rental_uris": {"android": "https://dc.lft.to/lastmile_qr_scan", "ios": "https://dc.lft.to/lastmile_qr_scan"}, "fusion_lon": 0.0}, {"lat": 38.91678, "is_disabled": 0, "type": "electric_scooter", "lon": -77.0335285, "bike_id": "1dcd9f265cf5546bc1bb1f15a6b6bd4e", "fusion_lat": 0.0, "name": "1dcd9f265cf5546bc1bb1f15a6b6bd4e", "is_reserved": 0, "rental_uris": {"android": "https://dc.lft.to/lastmile_qr_scan", "ios": "https://dc.lft.to/lastmile_qr_scan"}, "fusion_lon": 0.0}, {"lat": 38.892325166666666, "is_disabled": 0, "type": "electric_scooter", "lon": -77.05002866666666, "bike_id": "869afecec25dfb64c53b90239232a883", "fusion_lat": 0.0, "name": "869afecec25dfb64c53b90239232a883", "is_reserved": 0, "rental_uris": {"android": "https://dc.lft.to/lastmile_qr_scan", "ios": "https://dc.lft.to/lastmile_qr_scan"}, "fusion_lon": 0.0}, {"lat": 38.8661895, "is_disabled": 0, "type": "electric_bike", "lon": -76.9457105, "bike_id": "b2fb96d2cde8d9210d34df2e3e86421d", "fusion_lat": 0.0, "name": "b2fb96d2cde8d9210d34df2e3e86421d", "is_reserved": 0, "rental_uris": {"android": "https://dc.lft.to/lastmile_qr_scan", "ios": "https://dc.lft.to/lastmile_qr_scan"}, "fusion_lon": 0.0}, {"lat": 38.93099766666667, "is_disabled": 0, "type": "electric_scooter", "lon": -77.032781, "bike_id": "bd86f87506c9075ab8842b7173d066f7", "fusion_lat": 0.0, "name": "bd86f87506c9075ab8842b7173d066f7", "is_reserved": 0, "rental_uris": {"android": "https://dc.lft.to/lastmile_qr_scan", "ios": "https://dc.lft.to/lastmile_qr_scan"}, "fusion_lon": 0.0}, {"lat": 38.959557833333335, "is_disabled": 0, "type": "electric_bike", "lon": -77.10095, "bike_id": "270e9213dfc89cc9015477446cb05ce8", "fusion_lat": 0.0, "name": "270e9213dfc89cc9015477446cb05ce8", "is_reserved": 0, "rental_uris": {"android": "https://dc.lft.to/lastmile_qr_scan", "ios": "https://dc.lft.to/lastmile_qr_scan"}, "fusion_lon": 0.0}, {"lat": 38.8596955, "is_disabled": 0, "type": "electric_bike", "lon": -77.05671833333334, "bike_id": "9061dc7b23e30f2a4944ba3734b6dc05", "fusion_lat": 0.0, "name": "9061dc7b23e30f2a4944ba3734b6dc05", "is_reserved": 0, "rental_uris": {"android": "https://dc.lft.to/lastmile_qr_scan", "ios": "https://dc.lft.to/lastmile_qr_scan"}, "fusion_lon": 0.0}, {"lat": 38.906462, "is_disabled": 0, "type": "electric_scooter", "lon": -77.033776, "bike_id": "f5d89a3c4aed179040d6903be5ac7f3b", "fusion_lat": 0.0, "name": "f5d89a3c4aed179040d6903be5ac7f3b", "is_reserved": 0, "rental_uris": {"android": "https://dc.lft.to/lastmile_qr_scan", "ios": "https://dc.lft.to/lastmile_qr_scan"}, "fusion_lon": 0.0}, {"lat": 38.918192833333336, "is_disabled": 0, "type": "electric_scooter", "lon": -77.01389883333333, "bike_id": "0e1a31422b6328145b7288ab36acf1f2", "fusion_lat": 0.0, "name": "0e1a31422b6328145b7288ab36acf1f2", "is_reserved": 0, "rental_uris": {"android": "https://dc.lft.to/lastmile_qr_scan", "ios": "https://dc.lft.to/lastmile_qr_scan"}, "fusion_lon": 0.0}, {"lat": 38.911238166666664, "is_disabled": 0, "type": "electric_scooter", "lon": -77.03820383333333, "bike_id": "ee2b0ab8ddbf6621d3ed4b966991a9fd", "fusion_lat": 0.0, "name": "ee2b0ab8ddbf6621d3ed4b966991a9fd", "is_reserved": 0, "rental_uris": {"android": "https://dc.lft.to/lastmile_qr_scan", "ios": "https://dc.lft.to/lastmile_qr_scan"}, "fusion_lon": 0.0}, {"lat": 38.91465983333333, "is_disabled": 0, "type": "electric_scooter", "lon": -77.02800433333333, "bike_id": "6a08c1e2ce7f681ddf570f59b971408e", "fusion_lat": 0.0, "name": "6a08c1e2ce7f681ddf570f59b971408e", "is_reserved": 0, "rental_uris": {"android": "https://dc.lft.to/lastmile_qr_scan", "ios": "https://dc.lft.to/lastmile_qr_scan"}, "fusion_lon": 0.0}, {"lat": 38.94913316666667, "is_disabled": 0, "type": "electric_scooter", "lon": -77.00864366666667, "bike_id": "2849e11fb08586fb01d028159736af01", "fusion_lat": 0.0, "name": "2849e11fb08586fb01d028159736af01", "is_reserved": 0, "rental_uris": {"android": "https://dc.lft.to/lastmile_qr_scan", "ios": "https://dc.lft.to/lastmile_qr_scan"}, "fusion_lon": 0.0}, {"lat": 38.924467666666665, "is_disabled": 0, "type": "electric_scooter", "lon": -77.02031966666667, "bike_id": "debbe1236fd432ef5cf8419d3fe6a4d7", "fusion_lat": 0.0, "name": "debbe1236fd432ef5cf8419d3fe6a4d7", "is_reserved": 0, "rental_uris": {"android": "https://dc.lft.to/lastmile_qr_scan", "ios": "https://dc.lft.to/lastmile_qr_scan"}, "fusion_lon": 0.0}, {"lat": 38.8546165, "is_disabled": 0, "type": "electric_scooter", "lon": -76.972397, "bike_id": "d29cb1a34e11434f2b3fac969cb37bba", "fusion_lat": 0.0, "name": "d29cb1a34e11434f2b3fac969cb37bba", "is_reserved": 0, "rental_uris": {"android": "https://dc.lft.to/lastmile_qr_scan", "ios": "https://dc.lft.to/lastmile_qr_scan"}, "fusion_lon": 0.0}, {"lat": 38.88501433333333, "is_disabled": 0, "type": "electric_scooter", "lon": -77.00563216666667, "bike_id": "50a1da28e9d2a4022d12cfffedf3cb05", "fusion_lat": 0.0, "name": "50a1da28e9d2a4022d12cfffedf3cb05", "is_reserved": 0, "rental_uris": {"android": "https://dc.lft.to/lastmile_qr_scan", "ios": "https://dc.lft.to/lastmile_qr_scan"}, "fusion_lon": 0.0}, {"lat": 38.97839166666667, "is_disabled": 0, "type": "electric_bike", "lon": -77.02645283333334, "bike_id": "dc1494d2a12d3658edf4ffdc814b345f", "fusion_lat": 0.0, "name": "dc1494d2a12d3658edf4ffdc814b345f", "is_reserved": 0, "rental_uris": {"android": "https://dc.lft.to/lastmile_qr_scan", "ios": "https://dc.lft.to/lastmile_qr_scan"}, "fusion_lon": 0.0}, {"lat": 38.927874333333335, "is_disabled": 0, "type": "electric_bike", "lon": -76.9722365, "bike_id": "9dfc1ced02f0c3b9d19dec5d9d93fa45", "fusion_lat": 0.0, "name": "9dfc1ced02f0c3b9d19dec5d9d93fa45", "is_reserved": 0, "rental_uris": {"android": "https://dc.lft.to/lastmile_qr_scan", "ios": "https://dc.lft.to/lastmile_qr_scan"}, "fusion_lon": 0.0}, {"lat": 38.9178935, "is_disabled": 0, "type": "electric_scooter", "lon": -77.04406566666667, "bike_id": "af789f1084aef67b02b9eab16651cbc5", "fusion_lat": 0.0, "name": "af789f1084aef67b02b9eab16651cbc5", "is_reserved": 0, "rental_uris": {"android": "https://dc.lft.to/lastmile_qr_scan", "ios": "https://dc.lft.to/lastmile_qr_scan"}, "fusion_lon": 0.0}, {"lat": 38.89005216666666, "is_disabled": 0, "type": "electric_scooter", "lon": -77.04893683333333, "bike_id": "6c064ca41db2bc925c1e5f2ffae7169f", "fusion_lat": 0.0, "name": "6c064ca41db2bc925c1e5f2ffae7169f", "is_reserved": 0, "rental_uris": {"android": "https://dc.lft.to/lastmile_qr_scan", "ios": "https://dc.lft.to/lastmile_qr_scan"}, "fusion_lon": 0.0}, {"lat": 38.863850166666666, "is_disabled": 0, "type": "electric_scooter", "lon": -76.99250716666667, "bike_id": "3c2cb9967f911e0a312182b828d51007", "fusion_lat": 0.0, "name": "3c2cb9967f911e0a312182b828d51007", "is_reserved": 0, "rental_uris": {"android": "https://dc.lft.to/lastmile_qr_scan", "ios": "https://dc.lft.to/lastmile_qr_scan"}, "fusion_lon": 0.0}, {"lat": 38.855086666666665, "is_disabled": 0, "type": "electric_bike", "lon": -77.12027233333333, "bike_id": "c0e556a3af6c09de818c75b7a8971c3e", "fusion_lat": 0.0, "name": "c0e556a3af6c09de818c75b7a8971c3e", "is_reserved": 0, "rental_uris": {"android": "https://dc.lft.to/lastmile_qr_scan", "ios": "https://dc.lft.to/lastmile_qr_scan"}, "fusion_lon": 0.0}, {"lat": 38.92359066666667, "is_disabled": 0, "type": "electric_scooter", "lon": -77.04389333333333, "bike_id": "0d2d7bd6b00c717cb685d469cfa6eda8", "fusion_lat": 0.0, "name": "0d2d7bd6b00c717cb685d469cfa6eda8", "is_reserved": 0, "rental_uris": {"android": "https://dc.lft.to/lastmile_qr_scan", "ios": "https://dc.lft.to/lastmile_qr_scan"}, "fusion_lon": 0.0}, {"lat": 38.943087, "is_disabled": 0, "type": "electric_scooter", "lon": -77.05924416666667, "bike_id": "5deaf99ccc49633d422d0d2866425895", "fusion_lat": 0.0, "name": "5deaf99ccc49633d422d0d2866425895", "is_reserved": 0, "rental_uris": {"android": "https://dc.lft.to/lastmile_qr_scan", "ios": "https://dc.lft.to/lastmile_qr_scan"}, "fusion_lon": 0.0}, {"lat": 38.865540833333334, "is_disabled": 0, "type": "electric_bike", "lon": -76.97350283333333, "bike_id": "178eac36dde1531abddb9a6c07dadda6", "fusion_lat": 0.0, "name": "178eac36dde1531abddb9a6c07dadda6", "is_reserved": 0, "rental_uris": {"android": "https://dc.lft.to/lastmile_qr_scan", "ios": "https://dc.lft.to/lastmile_qr_scan"}, "fusion_lon": 0.0}, {"lat": 38.866451833333336, "is_disabled": 0, "type": "electric_scooter", "lon": -76.98884416666667, "bike_id": "cb1c3a1df6c0cfc4fda7466c0151e29c", "fusion_lat": 0.0, "name": "cb1c3a1df6c0cfc4fda7466c0151e29c", "is_reserved": 0, "rental_uris": {"android": "https://dc.lft.to/lastmile_qr_scan", "ios": "https://dc.lft.to/lastmile_qr_scan"}, "fusion_lon": 0.0}, {"lat": 38.92148133333333, "is_disabled": 0, "type": "electric_scooter", "lon": -77.03342866666667, "bike_id": "a33284ac9f81f2ecec821ea4784c7d08", "fusion_lat": 0.0, "name": "a33284ac9f81f2ecec821ea4784c7d08", "is_reserved": 0, "rental_uris": {"android": "https://dc.lft.to/lastmile_qr_scan", "ios": "https://dc.lft.to/lastmile_qr_scan"}, "fusion_lon": 0.0}, {"lat": 38.923078833333335, "is_disabled": 0, "type": "electric_scooter", "lon": -77.0396585, "bike_id": "d661523b7426050d01f2564d4aef699b", "fusion_lat": 0.0, "name": "d661523b7426050d01f2564d4aef699b", "is_reserved": 0, "rental_uris": {"android": "https://dc.lft.to/lastmile_qr_scan", "ios": "https://dc.lft.to/lastmile_qr_scan"}, "fusion_lon": 0.0}, {"lat": 38.90560133333334, "is_disabled": 0, "type": "electric_scooter", "lon": -77.02969366666666, "bike_id": "f35fafd7d9cb13fece290dfdab333c7a", "fusion_lat": 0.0, "name": "f35fafd7d9cb13fece290dfdab333c7a", "is_reserved": 0, "rental_uris": {"android": "https://dc.lft.to/lastmile_qr_scan", "ios": "https://dc.lft.to/lastmile_qr_scan"}, "fusion_lon": 0.0}, {"lat": 38.91355383333333, "is_disabled": 0, "type": "electric_scooter", "lon": -77.069228, "bike_id": "bd087d5becc65852cc660f1e04dd458b", "fusion_lat": 0.0, "name": "bd087d5becc65852cc660f1e04dd458b", "is_reserved": 0, "rental_uris": {"android": "https://dc.lft.to/lastmile_qr_scan", "ios": "https://dc.lft.to/lastmile_qr_scan"}, "fusion_lon": 0.0}, {"lat": 38.9314215, "is_disabled": 0, "type": "electric_scooter", "lon": -77.04145066666666, "bike_id": "0e48764877fb00d5b962b1a738a0b58c", "fusion_lat": 0.0, "name": "0e48764877fb00d5b962b1a738a0b58c", "is_reserved": 0, "rental_uris": {"android": "https://dc.lft.to/lastmile_qr_scan", "ios": "https://dc.lft.to/lastmile_qr_scan"}, "fusion_lon": 0.0}, {"lat": 38.90732116666667, "is_disabled": 0, "type": "electric_scooter", "lon": -77.042045, "bike_id": "72dc15bdaaf808d25986b6e774fac8ab", "fusion_lat": 0.0, "name": "72dc15bdaaf808d25986b6e774fac8ab", "is_reserved": 0, "rental_uris": {"android": "https://dc.lft.to/lastmile_qr_scan", "ios": "https://dc.lft.to/lastmile_qr_scan"}, "fusion_lon": 0.0}, {"lat": 38.87731083333333, "is_disabled": 0, "type": "electric_bike", "lon": -77.11851, "bike_id": "52ef875cf4235db982ba7ec34af4e3ec", "fusion_lat": 0.0, "name": "52ef875cf4235db982ba7ec34af4e3ec", "is_reserved": 0, "rental_uris": {"android": "https://dc.lft.to/lastmile_qr_scan", "ios": "https://dc.lft.to/lastmile_qr_scan"}, "fusion_lon": 0.0}, {"lat": 38.86258133333333, "is_disabled": 0, "type": "electric_scooter", "lon": -76.98693866666666, "bike_id": "04b3654d0fd4770d6b178c48ca169fd9", "fusion_lat": 0.0, "name": "04b3654d0fd4770d6b178c48ca169fd9", "is_reserved": 0, "rental_uris": {"android": "https://dc.lft.to/lastmile_qr_scan", "ios": "https://dc.lft.to/lastmile_qr_scan"}, "fusion_lon": 0.0}, {"lat": 38.9105125, "is_disabled": 0, "type": "electric_scooter", "lon": -77.01522183333333, "bike_id": "312316406aeab0ff7467a74d69cee481", "fusion_lat": 0.0, "name": "312316406aeab0ff7467a74d69cee481", "is_reserved": 0, "rental_uris": {"android": "https://dc.lft.to/lastmile_qr_scan", "ios": "https://dc.lft.to/lastmile_qr_scan"}, "fusion_lon": 0.0}, {"lat": 38.93907216666667, "is_disabled": 0, "type": "electric_scooter", "lon": -77.02464366666666, "bike_id": "16a3f1fe89480f597fdabca8a54fdc58", "fusion_lat": 0.0, "name": "16a3f1fe89480f597fdabca8a54fdc58", "is_reserved": 0, "rental_uris": {"android": "https://dc.lft.to/lastmile_qr_scan", "ios": "https://dc.lft.to/lastmile_qr_scan"}, "fusion_lon": 0.0}, {"lat": 38.9035815, "is_disabled": 0, "type": "electric_scooter", "lon": -77.01639966666667, "bike_id": "cc6a6720465d46d2d3015ccda8ad636e", "fusion_lat": 0.0, "name": "cc6a6720465d46d2d3015ccda8ad636e", "is_reserved": 0, "rental_uris": {"android": "https://dc.lft.to/lastmile_qr_scan", "ios": "https://dc.lft.to/lastmile_qr_scan"}, "fusion_lon": 0.0}, {"lat": 38.95182666666667, "is_disabled": 0, "type": "electric_bike", "lon": -76.9354275, "bike_id": "76b05de70a0e2406de2f6f2f1410c3e5", "fusion_lat": 0.0, "name": "76b05de70a0e2406de2f6f2f1410c3e5", "is_reserved": 0, "rental_uris": {"android": "https://dc.lft.to/lastmile_qr_scan", "ios": "https://dc.lft.to/lastmile_qr_scan"}, "fusion_lon": 0.0}, {"lat": 38.90664783333333, "is_disabled": 0, "type": "electric_scooter", "lon": -77.01532483333334, "bike_id": "fad5f7e841115e16ee1bc28903632b90", "fusion_lat": 0.0, "name": "fad5f7e841115e16ee1bc28903632b90", "is_reserved": 0, "rental_uris": {"android": "https://dc.lft.to/lastmile_qr_scan", "ios": "https://dc.lft.to/lastmile_qr_scan"}, "fusion_lon": 0.0}, {"lat": 38.86676533333333, "is_disabled": 0, "type": "electric_scooter", "lon": -76.98540683333333, "bike_id": "91781fc94f89224b23dfb6f0a246171b", "fusion_lat": 0.0, "name": "91781fc94f89224b23dfb6f0a246171b", "is_reserved": 0, "rental_uris": {"android": "https://dc.lft.to/lastmile_qr_scan", "ios": "https://dc.lft.to/lastmile_qr_scan"}, "fusion_lon": 0.0}, {"lat": 38.920576833333335, "is_disabled": 0, "type": "electric_scooter", "lon": -77.04811233333334, "bike_id": "4c50acdb3321e7acfc9a23806e947bf3", "fusion_lat": 0.0, "name": "4c50acdb3321e7acfc9a23806e947bf3", "is_reserved": 0, "rental_uris": {"android": "https://dc.lft.to/lastmile_qr_scan", "ios": "https://dc.lft.to/lastmile_qr_scan"}, "fusion_lon": 0.0}, {"lat": 38.832334333333336, "is_disabled": 0, "type": "electric_bike", "lon": -77.04975016666667, "bike_id": "a3f8b6af99011d38563797f1e376604c", "fusion_lat": 0.0, "name": "a3f8b6af99011d38563797f1e376604c", "is_reserved": 0, "rental_uris": {"android": "https://dc.lft.to/lastmile_qr_scan", "ios": "https://dc.lft.to/lastmile_qr_scan"}, "fusion_lon": 0.0}, {"lat": 38.89739466666666, "is_disabled": 0, "type": "electric_scooter", "lon": -77.0007755, "bike_id": "b754e47e5a832cbc9c1b652d68aa2dad", "fusion_lat": 0.0, "name": "b754e47e5a832cbc9c1b652d68aa2dad", "is_reserved": 0, "rental_uris": {"android": "https://dc.lft.to/lastmile_qr_scan", "ios": "https://dc.lft.to/lastmile_qr_scan"}, "fusion_lon": 0.0}, {"lat": 38.9001235, "is_disabled": 0, "type": "electric_scooter", "lon": -77.011983, "bike_id": "a96ddd79e11d9ffb08671be466c8ce63", "fusion_lat": 0.0, "name": "a96ddd79e11d9ffb08671be466c8ce63", "is_reserved": 0, "rental_uris": {"android": "https://dc.lft.to/lastmile_qr_scan", "ios": "https://dc.lft.to/lastmile_qr_scan"}, "fusion_lon": 0.0}, {"lat": 38.917663, "is_disabled": 0, "type": "electric_scooter", "lon": -77.02804633333334, "bike_id": "befc030ff20d143b0a4d8ac7eb54134e", "fusion_lat": 0.0, "name": "befc030ff20d143b0a4d8ac7eb54134e", "is_reserved": 0, "rental_uris": {"android": "https://dc.lft.to/lastmile_qr_scan", "ios": "https://dc.lft.to/lastmile_qr_scan"}, "fusion_lon": 0.0}, {"lat": 38.93314383333333, "is_disabled": 0, "type": "electric_scooter", "lon": -77.045214, "bike_id": "18731269d57c727ff26558df4ae82ad2", "fusion_lat": 0.0, "name": "18731269d57c727ff26558df4ae82ad2", "is_reserved": 0, "rental_uris": {"android": "https://dc.lft.to/lastmile_qr_scan", "ios": "https://dc.lft.to/lastmile_qr_scan"}, "fusion_lon": 0.0}, {"lat": 38.909650166666665, "is_disabled": 0, "type": "electric_scooter", "lon": -77.039391, "bike_id": "928d76c66aea436b551c718bed0fb3c5", "fusion_lat": 0.0, "name": "928d76c66aea436b551c718bed0fb3c5", "is_reserved": 0, "rental_uris": {"android": "https://dc.lft.to/lastmile_qr_scan", "ios": "https://dc.lft.to/lastmile_qr_scan"}, "fusion_lon": 0.0}, {"lat": 38.872941833333336, "is_disabled": 0, "type": "electric_scooter", "lon": -77.00988716666667, "bike_id": "41351cbb5b457244f358a7b16087fbda", "fusion_lat": 0.0, "name": "41351cbb5b457244f358a7b16087fbda", "is_reserved": 0, "rental_uris": {"android": "https://dc.lft.to/lastmile_qr_scan", "ios": "https://dc.lft.to/lastmile_qr_scan"}, "fusion_lon": 0.0}, {"lat": 38.878700333333335, "is_disabled": 0, "type": "electric_scooter", "lon": -77.007416, "bike_id": "6c9d857e88935d861549a5d18500490c", "fusion_lat": 0.0, "name": "6c9d857e88935d861549a5d18500490c", "is_reserved": 0, "rental_uris": {"android": "https://dc.lft.to/lastmile_qr_scan", "ios": "https://dc.lft.to/lastmile_qr_scan"}, "fusion_lon": 0.0}, {"lat": 38.898740333333336, "is_disabled": 0, "type": "electric_scooter", "lon": -77.01992983333334, "bike_id": "84f56da7a9ae6dc7e643083fe7308b5c", "fusion_lat": 0.0, "name": "84f56da7a9ae6dc7e643083fe7308b5c", "is_reserved": 0, "rental_uris": {"android": "https://dc.lft.to/lastmile_qr_scan", "ios": "https://dc.lft.to/lastmile_qr_scan"}, "fusion_lon": 0.0}, {"lat": 38.8773425, "is_disabled": 0, "type": "electric_bike", "lon": -76.98105966666667, "bike_id": "f85f1985288fb27aafd88227156d463a", "fusion_lat": 0.0, "name": "f85f1985288fb27aafd88227156d463a", "is_reserved": 0, "rental_uris": {"android": "https://dc.lft.to/lastmile_qr_scan", "ios": "https://dc.lft.to/lastmile_qr_scan"}, "fusion_lon": 0.0}, {"lat": 38.92590633333333, "is_disabled": 0, "type": "electric_scooter", "lon": -77.02291583333333, "bike_id": "2b39aefe9f76433c3331ca8b2ba9664b", "fusion_lat": 0.0, "name": "2b39aefe9f76433c3331ca8b2ba9664b", "is_reserved": 0, "rental_uris": {"android": "https://dc.lft.to/lastmile_qr_scan", "ios": "https://dc.lft.to/lastmile_qr_scan"}, "fusion_lon": 0.0}, {"lat": 38.90067416666667, "is_disabled": 0, "type": "electric_scooter", "lon": -77.0492815, "bike_id": "2b549f121b3f1602bdd5f39bdb4f8edb", "fusion_lat": 0.0, "name": "2b549f121b3f1602bdd5f39bdb4f8edb", "is_reserved": 0, "rental_uris": {"android": "https://dc.lft.to/lastmile_qr_scan", "ios": "https://dc.lft.to/lastmile_qr_scan"}, "fusion_lon": 0.0}, {"lat": 38.93972983333333, "is_disabled": 0, "type": "electric_scooter", "lon": -77.03592466666667, "bike_id": "b4f056c8c916510939b5b20cfd92dfbf", "fusion_lat": 0.0, "name": "b4f056c8c916510939b5b20cfd92dfbf", "is_reserved": 0, "rental_uris": {"android": "https://dc.lft.to/lastmile_qr_scan", "ios": "https://dc.lft.to/lastmile_qr_scan"}, "fusion_lon": 0.0}, {"lat": 38.920252166666664, "is_disabled": 0, "type": "electric_scooter", "lon": -77.0372865, "bike_id": "6028352ef09c1f96c7414dd3f6f2d485", "fusion_lat": 0.0, "name": "6028352ef09c1f96c7414dd3f6f2d485", "is_reserved": 0, "rental_uris": {"android": "https://dc.lft.to/lastmile_qr_scan", "ios": "https://dc.lft.to/lastmile_qr_scan"}, "fusion_lon": 0.0}, {"lat": 38.907786, "is_disabled": 0, "type": "electric_scooter", "lon": -77.03858016666666, "bike_id": "a102936095e4def7a8d0c84549b5f487", "fusion_lat": 0.0, "name": "a102936095e4def7a8d0c84549b5f487", "is_reserved": 0, "rental_uris": {"android": "https://dc.lft.to/lastmile_qr_scan", "ios": "https://dc.lft.to/lastmile_qr_scan"}, "fusion_lon": 0.0}, {"lat": 38.93287816666667, "is_disabled": 0, "type": "electric_scooter", "lon": -77.03548233333333, "bike_id": "cfc95c687d9b6d38451403e2efa930c6", "fusion_lat": 0.0, "name": "cfc95c687d9b6d38451403e2efa930c6", "is_reserved": 0, "rental_uris": {"android": "https://dc.lft.to/lastmile_qr_scan", "ios": "https://dc.lft.to/lastmile_qr_scan"}, "fusion_lon": 0.0}, {"lat": 38.95779983333333, "is_disabled": 0, "type": "electric_scooter", "lon": -77.027531, "bike_id": "b05de14de026d34f1646f501e52fa17c", "fusion_lat": 0.0, "name": "b05de14de026d34f1646f501e52fa17c", "is_reserved": 0, "rental_uris": {"android": "https://dc.lft.to/lastmile_qr_scan", "ios": "https://dc.lft.to/lastmile_qr_scan"}, "fusion_lon": 0.0}, {"lat": 38.908802, "is_disabled": 0, "type": "electric_scooter", "lon": -77.03643783333334, "bike_id": "7e8baaddd34ae7def7e574997411250d", "fusion_lat": 0.0, "name": "7e8baaddd34ae7def7e574997411250d", "is_reserved": 0, "rental_uris": {"android": "https://dc.lft.to/lastmile_qr_scan", "ios": "https://dc.lft.to/lastmile_qr_scan"}, "fusion_lon": 0.0}, {"lat": 38.925391833333336, "is_disabled": 0, "type": "electric_scooter", "lon": -77.03337016666667, "bike_id": "5b1fefd921462381911ed7ed11faebb9", "fusion_lat": 0.0, "name": "5b1fefd921462381911ed7ed11faebb9", "is_reserved": 0, "rental_uris": {"android": "https://dc.lft.to/lastmile_qr_scan", "ios": "https://dc.lft.to/lastmile_qr_scan"}, "fusion_lon": 0.0}, {"lat": 38.908350166666665, "is_disabled": 0, "type": "electric_scooter", "lon": -77.00233166666666, "bike_id": "e581fcf68809cd8e6e5069c73c615db0", "fusion_lat": 0.0, "name": "e581fcf68809cd8e6e5069c73c615db0", "is_reserved": 0, "rental_uris": {"android": "https://dc.lft.to/lastmile_qr_scan", "ios": "https://dc.lft.to/lastmile_qr_scan"}, "fusion_lon": 0.0}, {"lat": 38.8981715, "is_disabled": 0, "type": "electric_scooter", "lon": -76.996946, "bike_id": "b6da7c4df50701415ed975647d734a8d", "fusion_lat": 0.0, "name": "b6da7c4df50701415ed975647d734a8d", "is_reserved": 0, "rental_uris": {"android": "https://dc.lft.to/lastmile_qr_scan", "ios": "https://dc.lft.to/lastmile_qr_scan"}, "fusion_lon": 0.0}, {"lat": 38.92478216666667, "is_disabled": 0, "type": "electric_scooter", "lon": -77.02838283333334, "bike_id": "31549207f0d411105d5d741e8e6e1b01", "fusion_lat": 0.0, "name": "31549207f0d411105d5d741e8e6e1b01", "is_reserved": 0, "rental_uris": {"android": "https://dc.lft.to/lastmile_qr_scan", "ios": "https://dc.lft.to/lastmile_qr_scan"}, "fusion_lon": 0.0}, {"lat": 38.91972966666667, "is_disabled": 0, "type": "electric_scooter", "lon": -77.01222566666667, "bike_id": "9b87a5ff46b46b43b99c3851bbd3578e", "fusion_lat": 0.0, "name": "9b87a5ff46b46b43b99c3851bbd3578e", "is_reserved": 0, "rental_uris": {"android": "https://dc.lft.to/lastmile_qr_scan", "ios": "https://dc.lft.to/lastmile_qr_scan"}, "fusion_lon": 0.0}, {"lat": 38.88405083333333, "is_disabled": 0, "type": "electric_bike", "lon": -76.95415533333333, "bike_id": "69dcc8c14bb846a962dc81310b92aa37", "fusion_lat": 0.0, "name": "69dcc8c14bb846a962dc81310b92aa37", "is_reserved": 0, "rental_uris": {"android": "https://dc.lft.to/lastmile_qr_scan", "ios": "https://dc.lft.to/lastmile_qr_scan"}, "fusion_lon": 0.0}, {"lat": 38.88738566666667, "is_disabled": 0, "type": "electric_scooter", "lon": -77.01531433333334, "bike_id": "6368d5d2d5fbc19c4d80d16469038583", "fusion_lat": 0.0, "name": "6368d5d2d5fbc19c4d80d16469038583", "is_reserved": 0, "rental_uris": {"android": "https://dc.lft.to/lastmile_qr_scan", "ios": "https://dc.lft.to/lastmile_qr_scan"}, "fusion_lon": 0.0}, {"lat": 38.888876, "is_disabled": 0, "type": "electric_scooter", "lon": -76.931533, "bike_id": "e7058e533008251979538ea1cf78c4a5", "fusion_lat": 0.0, "name": "e7058e533008251979538ea1cf78c4a5", "is_reserved": 0, "rental_uris": {"android": "https://dc.lft.to/lastmile_qr_scan", "ios": "https://dc.lft.to/lastmile_qr_scan"}, "fusion_lon": 0.0}, {"lat": 38.931763333333336, "is_disabled": 0, "type": "electric_scooter", "lon": -77.02816016666667, "bike_id": "577c92fb52a5488342a59a3136a79738", "fusion_lat": 0.0, "name": "577c92fb52a5488342a59a3136a79738", "is_reserved": 0, "rental_uris": {"android": "https://dc.lft.to/lastmile_qr_scan", "ios": "https://dc.lft.to/lastmile_qr_scan"}, "fusion_lon": 0.0}, {"lat": 38.90725616666667, "is_disabled": 0, "type": "electric_scooter", "lon": -77.04646083333333, "bike_id": "cc76a7928b3dc5066de87598268be02e", "fusion_lat": 0.0, "name": "cc76a7928b3dc5066de87598268be02e", "is_reserved": 0, "rental_uris": {"android": "https://dc.lft.to/lastmile_qr_scan", "ios": "https://dc.lft.to/lastmile_qr_scan"}, "fusion_lon": 0.0}, {"lat": 38.961340666666665, "is_disabled": 0, "type": "electric_scooter", "lon": -77.02805183333334, "bike_id": "4ea01a00723e27bc8527990f1ca28aba", "fusion_lat": 0.0, "name": "4ea01a00723e27bc8527990f1ca28aba", "is_reserved": 0, "rental_uris": {"android": "https://dc.lft.to/lastmile_qr_scan", "ios": "https://dc.lft.to/lastmile_qr_scan"}, "fusion_lon": 0.0}, {"lat": 39.05634833333333, "is_disabled": 0, "type": "electric_bike", "lon": -77.12526666666666, "bike_id": "3ef86611056863c2acf79eb4f48fc036", "fusion_lat": 0.0, "name": "3ef86611056863c2acf79eb4f48fc036", "is_reserved": 0, "rental_uris": {"android": "https://dc.lft.to/lastmile_qr_scan", "ios": "https://dc.lft.to/lastmile_qr_scan"}, "fusion_lon": 0.0}, {"lat": 38.91183083333333, "is_disabled": 0, "type": "electric_scooter", "lon": -77.04297283333334, "bike_id": "1547a853457bb7be835a6a4fad134cfc", "fusion_lat": 0.0, "name": "1547a853457bb7be835a6a4fad134cfc", "is_reserved": 0, "rental_uris": {"android": "https://dc.lft.to/lastmile_qr_scan", "ios": "https://dc.lft.to/lastmile_qr_scan"}, "fusion_lon": 0.0}, {"lat": 38.9321035, "is_disabled": 0, "type": "electric_scooter", "lon": -77.0224745, "bike_id": "f360711f56069b5e8ab341d326540d39", "fusion_lat": 0.0, "name": "f360711f56069b5e8ab341d326540d39", "is_reserved": 0, "rental_uris": {"android": "https://dc.lft.to/lastmile_qr_scan", "ios": "https://dc.lft.to/lastmile_qr_scan"}, "fusion_lon": 0.0}, {"lat": 38.89041566666667, "is_disabled": 0, "type": "electric_scooter", "lon": -76.95245833333334, "bike_id": "7f14dcd8dd893b15c01984a40b9999b0", "fusion_lat": 0.0, "name": "7f14dcd8dd893b15c01984a40b9999b0", "is_reserved": 0, "rental_uris": {"android": "https://dc.lft.to/lastmile_qr_scan", "ios": "https://dc.lft.to/lastmile_qr_scan"}, "fusion_lon": 0.0}, {"lat": 38.9394955, "is_disabled": 0, "type": "electric_bike", "lon": -77.36095166666667, "bike_id": "a72ce4a75a4f723b5d9b7dcffc5e1167", "fusion_lat": 0.0, "name": "a72ce4a75a4f723b5d9b7dcffc5e1167", "is_reserved": 0, "rental_uris": {"android": "https://dc.lft.to/lastmile_qr_scan", "ios": "https://dc.lft.to/lastmile_qr_scan"}, "fusion_lon": 0.0}, {"lat": 38.952928666666665, "is_disabled": 0, "type": "electric_bike", "lon": -76.945987, "bike_id": "001770ab5aa62f9b4b45efe4576a2e03", "fusion_lat": 0.0, "name": "001770ab5aa62f9b4b45efe4576a2e03", "is_reserved": 0, "rental_uris": {"android": "https://dc.lft.to/lastmile_qr_scan", "ios": "https://dc.lft.to/lastmile_qr_scan"}, "fusion_lon": 0.0}, {"lat": 38.9564975, "is_disabled": 0, "type": "electric_bike", "lon": -77.02253833333333, "bike_id": "61f46a84298ea3b77223d441ecf754ca", "fusion_lat": 0.0, "name": "61f46a84298ea3b77223d441ecf754ca", "is_reserved": 0, "rental_uris": {"android": "https://dc.lft.to/lastmile_qr_scan", "ios": "https://dc.lft.to/lastmile_qr_scan"}, "fusion_lon": 0.0}, {"lat": 38.9226765, "is_disabled": 0, "type": "electric_scooter", "lon": -77.04138983333333, "bike_id": "580c84abfa1a548fabbfe3333449caf7", "fusion_lat": 0.0, "name": "580c84abfa1a548fabbfe3333449caf7", "is_reserved": 0, "rental_uris": {"android": "https://dc.lft.to/lastmile_qr_scan", "ios": "https://dc.lft.to/lastmile_qr_scan"}, "fusion_lon": 0.0}, {"lat": 38.917061, "is_disabled": 0, "type": "electric_scooter", "lon": -77.00115266666667, "bike_id": "6076d3311dc8e07e9f35ab6cee977adf", "fusion_lat": 0.0, "name": "6076d3311dc8e07e9f35ab6cee977adf", "is_reserved": 0, "rental_uris": {"android": "https://dc.lft.to/lastmile_qr_scan", "ios": "https://dc.lft.to/lastmile_qr_scan"}, "fusion_lon": 0.0}, {"lat": 38.88491966666667, "is_disabled": 0, "type": "electric_scooter", "lon": -77.00721233333333, "bike_id": "c655ed32e92d9727400f8ba993b01643", "fusion_lat": 0.0, "name": "c655ed32e92d9727400f8ba993b01643", "is_reserved": 0, "rental_uris": {"android": "https://dc.lft.to/lastmile_qr_scan", "ios": "https://dc.lft.to/lastmile_qr_scan"}, "fusion_lon": 0.0}, {"lat": 38.8955605, "is_disabled": 0, "type": "electric_scooter", "lon": -76.93074866666667, "bike_id": "803f8221a77d3f8ce3a64a1356f91fc2", "fusion_lat": 0.0, "name": "803f8221a77d3f8ce3a64a1356f91fc2", "is_reserved": 0, "rental_uris": {"android": "https://dc.lft.to/lastmile_qr_scan", "ios": "https://dc.lft.to/lastmile_qr_scan"}, "fusion_lon": 0.0}, {"lat": 38.902659666666665, "is_disabled": 0, "type": "electric_scooter", "lon": -77.00325383333333, "bike_id": "e4e30f5494f4b52cf6c68391d3ba0750", "fusion_lat": 0.0, "name": "e4e30f5494f4b52cf6c68391d3ba0750", "is_reserved": 0, "rental_uris": {"android": "https://dc.lft.to/lastmile_qr_scan", "ios": "https://dc.lft.to/lastmile_qr_scan"}, "fusion_lon": 0.0}, {"lat": 38.928232333333334, "is_disabled": 0, "type": "electric_scooter", "lon": -77.02624016666667, "bike_id": "1c076942a673a0d05e07b6ed612cefa7", "fusion_lat": 0.0, "name": "1c076942a673a0d05e07b6ed612cefa7", "is_reserved": 0, "rental_uris": {"android": "https://dc.lft.to/lastmile_qr_scan", "ios": "https://dc.lft.to/lastmile_qr_scan"}, "fusion_lon": 0.0}, {"lat": 38.91918, "is_disabled": 0, "type": "electric_scooter", "lon": -77.03186533333333, "bike_id": "e721b44a373291f34ac981ffd637ec66", "fusion_lat": 0.0, "name": "e721b44a373291f34ac981ffd637ec66", "is_reserved": 0, "rental_uris": {"android": "https://dc.lft.to/lastmile_qr_scan", "ios": "https://dc.lft.to/lastmile_qr_scan"}, "fusion_lon": 0.0}, {"lat": 38.90286783333333, "is_disabled": 0, "type": "electric_scooter", "lon": -77.0385985, "bike_id": "7eb98936bad0be6fcf090a7e42a79efa", "fusion_lat": 0.0, "name": "7eb98936bad0be6fcf090a7e42a79efa", "is_reserved": 0, "rental_uris": {"android": "https://dc.lft.to/lastmile_qr_scan", "ios": "https://dc.lft.to/lastmile_qr_scan"}, "fusion_lon": 0.0}, {"lat": 38.907373, "is_disabled": 0, "type": "electric_scooter", "lon": -77.0294965, "bike_id": "04112fd33fedd9dbb5f7cf679da1ef0a", "fusion_lat": 0.0, "name": "04112fd33fedd9dbb5f7cf679da1ef0a", "is_reserved": 0, "rental_uris": {"android": "https://dc.lft.to/lastmile_qr_scan", "ios": "https://dc.lft.to/lastmile_qr_scan"}, "fusion_lon": 0.0}, {"lat": 38.932951333333335, "is_disabled": 0, "type": "electric_scooter", "lon": -77.02191983333333, "bike_id": "c356030e236ada8373530697d57ef1d8", "fusion_lat": 0.0, "name": "c356030e236ada8373530697d57ef1d8", "is_reserved": 0, "rental_uris": {"android": "https://dc.lft.to/lastmile_qr_scan", "ios": "https://dc.lft.to/lastmile_qr_scan"}, "fusion_lon": 0.0}, {"lat": 38.898821833333336, "is_disabled": 0, "type": "electric_scooter", "lon": -77.0723285, "bike_id": "c77635d805c0256791040e783e3fdbe2", "fusion_lat": 0.0, "name": "c77635d805c0256791040e783e3fdbe2", "is_reserved": 0, "rental_uris": {"android": "https://dc.lft.to/lastmile_qr_scan", "ios": "https://dc.lft.to/lastmile_qr_scan"}, "fusion_lon": 0.0}, {"lat": 38.873106166666666, "is_disabled": 0, "type": "electric_scooter", "lon": -77.00935516666667, "bike_id": "6cadb17422fafa069de762189070ef08", "fusion_lat": 0.0, "name": "6cadb17422fafa069de762189070ef08", "is_reserved": 0, "rental_uris": {"android": "https://dc.lft.to/lastmile_qr_scan", "ios": "https://dc.lft.to/lastmile_qr_scan"}, "fusion_lon": 0.0}, {"lat": 38.912464, "is_disabled": 0, "type": "electric_scooter", "lon": -77.046652, "bike_id": "5f1cb25deb14169daeb2db89502caa5b", "fusion_lat": 0.0, "name": "5f1cb25deb14169daeb2db89502caa5b", "is_reserved": 0, "rental_uris": {"android": "https://dc.lft.to/lastmile_qr_scan", "ios": "https://dc.lft.to/lastmile_qr_scan"}, "fusion_lon": 0.0}, {"lat": 38.901067, "is_disabled": 0, "type": "electric_scooter", "lon": -77.03341383333333, "bike_id": "dabfcdb36d7dcbf37bdd5a9c59919aa8", "fusion_lat": 0.0, "name": "dabfcdb36d7dcbf37bdd5a9c59919aa8", "is_reserved": 0, "rental_uris": {"android": "https://dc.lft.to/lastmile_qr_scan", "ios": "https://dc.lft.to/lastmile_qr_scan"}, "fusion_lon": 0.0}, {"lat": 38.901079333333335, "is_disabled": 0, "type": "electric_scooter", "lon": -77.05902, "bike_id": "459d150b89fee3b14efd1f46ca301056", "fusion_lat": 0.0, "name": "459d150b89fee3b14efd1f46ca301056", "is_reserved": 0, "rental_uris": {"android": "https://dc.lft.to/lastmile_qr_scan", "ios": "https://dc.lft.to/lastmile_qr_scan"}, "fusion_lon": 0.0}, {"lat": 38.91696483333333, "is_disabled": 0, "type": "electric_scooter", "lon": -77.04589533333333, "bike_id": "a3e83167a23bca27ba90c2defc88b157", "fusion_lat": 0.0, "name": "a3e83167a23bca27ba90c2defc88b157", "is_reserved": 0, "rental_uris": {"android": "https://dc.lft.to/lastmile_qr_scan", "ios": "https://dc.lft.to/lastmile_qr_scan"}, "fusion_lon": 0.0}, {"lat": 38.922998666666665, "is_disabled": 0, "type": "electric_scooter", "lon": -77.0233215, "bike_id": "561363a9c47538c7d882955dc2b85f0b", "fusion_lat": 0.0, "name": "561363a9c47538c7d882955dc2b85f0b", "is_reserved": 0, "rental_uris": {"android": "https://dc.lft.to/lastmile_qr_scan", "ios": "https://dc.lft.to/lastmile_qr_scan"}, "fusion_lon": 0.0}, {"lat": 38.93980366666667, "is_disabled": 0, "type": "electric_scooter", "lon": -77.0263215, "bike_id": "d5b894fc9c522ada8dffe196a18feff5", "fusion_lat": 0.0, "name": "d5b894fc9c522ada8dffe196a18feff5", "is_reserved": 0, "rental_uris": {"android": "https://dc.lft.to/lastmile_qr_scan", "ios": "https://dc.lft.to/lastmile_qr_scan"}, "fusion_lon": 0.0}, {"lat": 38.961351, "is_disabled": 0, "type": "electric_scooter", "lon": -77.0223485, "bike_id": "8b57b2b90f7eb9ae335d87ec5f9253be", "fusion_lat": 0.0, "name": "8b57b2b90f7eb9ae335d87ec5f9253be", "is_reserved": 0, "rental_uris": {"android": "https://dc.lft.to/lastmile_qr_scan", "ios": "https://dc.lft.to/lastmile_qr_scan"}, "fusion_lon": 0.0}, {"lat": 38.8607265, "is_disabled": 0, "type": "electric_scooter", "lon": -76.99265733333333, "bike_id": "755d96cebc0433557026f00feefb9201", "fusion_lat": 0.0, "name": "755d96cebc0433557026f00feefb9201", "is_reserved": 0, "rental_uris": {"android": "https://dc.lft.to/lastmile_qr_scan", "ios": "https://dc.lft.to/lastmile_qr_scan"}, "fusion_lon": 0.0}, {"lat": 38.85719, "is_disabled": 0, "type": "electric_bike", "lon": -76.97129816666667, "bike_id": "758592462bd450af2facbcdf0148119e", "fusion_lat": 0.0, "name": "758592462bd450af2facbcdf0148119e", "is_reserved": 0, "rental_uris": {"android": "https://dc.lft.to/lastmile_qr_scan", "ios": "https://dc.lft.to/lastmile_qr_scan"}, "fusion_lon": 0.0}, {"lat": 38.92976516666667, "is_disabled": 0, "type": "electric_scooter", "lon": -77.01300433333333, "bike_id": "5229d2b4ff95f566d183aaa9569e1474", "fusion_lat": 0.0, "name": "5229d2b4ff95f566d183aaa9569e1474", "is_reserved": 0, "rental_uris": {"android": "https://dc.lft.to/lastmile_qr_scan", "ios": "https://dc.lft.to/lastmile_qr_scan"}, "fusion_lon": 0.0}, {"lat": 38.923741166666666, "is_disabled": 0, "type": "electric_scooter", "lon": -77.03156733333333, "bike_id": "57145301d16d6b705fb535b7411a365d", "fusion_lat": 0.0, "name": "57145301d16d6b705fb535b7411a365d", "is_reserved": 0, "rental_uris": {"android": "https://dc.lft.to/lastmile_qr_scan", "ios": "https://dc.lft.to/lastmile_qr_scan"}, "fusion_lon": 0.0}, {"lat": 38.89738533333333, "is_disabled": 0, "type": "electric_scooter", "lon": -77.0475575, "bike_id": "705f15291b4a2270d69e0153d5e094d9", "fusion_lat": 0.0, "name": "705f15291b4a2270d69e0153d5e094d9", "is_reserved": 0, "rental_uris": {"android": "https://dc.lft.to/lastmile_qr_scan", "ios": "https://dc.lft.to/lastmile_qr_scan"}, "fusion_lon": 0.0}, {"lat": 38.8971915, "is_disabled": 0, "type": "electric_scooter", "lon": -77.047591, "bike_id": "0e62b16e9002a9e3bb465eb43cd2961f", "fusion_lat": 0.0, "name": "0e62b16e9002a9e3bb465eb43cd2961f", "is_reserved": 0, "rental_uris": {"android": "https://dc.lft.to/lastmile_qr_scan", "ios": "https://dc.lft.to/lastmile_qr_scan"}, "fusion_lon": 0.0}, {"lat": 38.87147383333333, "is_disabled": 0, "type": "electric_bike", "lon": -76.93701816666666, "bike_id": "82d57990b7772d3b78eda5aece3462e1", "fusion_lat": 0.0, "name": "82d57990b7772d3b78eda5aece3462e1", "is_reserved": 0, "rental_uris": {"android": "https://dc.lft.to/lastmile_qr_scan", "ios": "https://dc.lft.to/lastmile_qr_scan"}, "fusion_lon": 0.0}, {"lat": 38.90731666666667, "is_disabled": 0, "type": "electric_scooter", "lon": -77.0344185, "bike_id": "6f46215f89799d6321422bb9288072b2", "fusion_lat": 0.0, "name": "6f46215f89799d6321422bb9288072b2", "is_reserved": 0, "rental_uris": {"android": "https://dc.lft.to/lastmile_qr_scan", "ios": "https://dc.lft.to/lastmile_qr_scan"}, "fusion_lon": 0.0}, {"lat": 38.9900475, "is_disabled": 0, "type": "electric_bike", "lon": -77.00442666666666, "bike_id": "b41b4639aab25db3f8a3aa546a83e38d", "fusion_lat": 0.0, "name": "b41b4639aab25db3f8a3aa546a83e38d", "is_reserved": 0, "rental_uris": {"android": "https://dc.lft.to/lastmile_qr_scan", "ios": "https://dc.lft.to/lastmile_qr_scan"}, "fusion_lon": 0.0}, {"lat": 38.855070833333336, "is_disabled": 0, "type": "electric_bike", "lon": -77.12003233333333, "bike_id": "748890bae691c3ce429a6d935911e09b", "fusion_lat": 0.0, "name": "748890bae691c3ce429a6d935911e09b", "is_reserved": 0, "rental_uris": {"android": "https://dc.lft.to/lastmile_qr_scan", "ios": "https://dc.lft.to/lastmile_qr_scan"}, "fusion_lon": 0.0}, {"lat": 38.901178, "is_disabled": 0, "type": "electric_scooter", "lon": -77.025328, "bike_id": "b3182c236d8b065e68c3bc12064d0eed", "fusion_lat": 0.0, "name": "b3182c236d8b065e68c3bc12064d0eed", "is_reserved": 0, "rental_uris": {"android": "https://dc.lft.to/lastmile_qr_scan", "ios": "https://dc.lft.to/lastmile_qr_scan"}, "fusion_lon": 0.0}, {"lat": 38.93182, "is_disabled": 0, "type": "electric_scooter", "lon": -77.03653933333334, "bike_id": "f0a2fe287a4dde4314a23466f5e73ac3", "fusion_lat": 0.0, "name": "f0a2fe287a4dde4314a23466f5e73ac3", "is_reserved": 0, "rental_uris": {"android": "https://dc.lft.to/lastmile_qr_scan", "ios": "https://dc.lft.to/lastmile_qr_scan"}, "fusion_lon": 0.0}, {"lat": 38.9439445, "is_disabled": 0, "type": "electric_scooter", "lon": -77.01981316666667, "bike_id": "d2172098dbcd9e5fc316dff52582c160", "fusion_lat": 0.0, "name": "d2172098dbcd9e5fc316dff52582c160", "is_reserved": 0, "rental_uris": {"android": "https://dc.lft.to/lastmile_qr_scan", "ios": "https://dc.lft.to/lastmile_qr_scan"}, "fusion_lon": 0.0}, {"lat": 38.9187825, "is_disabled": 0, "type": "electric_scooter", "lon": -77.03494166666667, "bike_id": "13dced0ba732f5933f8e6f7e727cbd2a", "fusion_lat": 0.0, "name": "13dced0ba732f5933f8e6f7e727cbd2a", "is_reserved": 0, "rental_uris": {"android": "https://dc.lft.to/lastmile_qr_scan", "ios": "https://dc.lft.to/lastmile_qr_scan"}, "fusion_lon": 0.0}, {"lat": 38.851914, "is_disabled": 0, "type": "electric_bike", "lon": -76.9610845, "bike_id": "6ec9218a3d6aefd738cb5704d493e9a5", "fusion_lat": 0.0, "name": "6ec9218a3d6aefd738cb5704d493e9a5", "is_reserved": 0, "rental_uris": {"android": "https://dc.lft.to/lastmile_qr_scan", "ios": "https://dc.lft.to/lastmile_qr_scan"}, "fusion_lon": 0.0}, {"lat": 38.92347216666667, "is_disabled": 0, "type": "electric_scooter", "lon": -77.03392166666667, "bike_id": "50b1df2a01e4342a502bd48e54210d70", "fusion_lat": 0.0, "name": "50b1df2a01e4342a502bd48e54210d70", "is_reserved": 0, "rental_uris": {"android": "https://dc.lft.to/lastmile_qr_scan", "ios": "https://dc.lft.to/lastmile_qr_scan"}, "fusion_lon": 0.0}, {"lat": 38.944393166666664, "is_disabled": 0, "type": "electric_scooter", "lon": -77.015046, "bike_id": "2aa55ec9858be00e038067754b721b0d", "fusion_lat": 0.0, "name": "2aa55ec9858be00e038067754b721b0d", "is_reserved": 0, "rental_uris": {"android": "https://dc.lft.to/lastmile_qr_scan", "ios": "https://dc.lft.to/lastmile_qr_scan"}, "fusion_lon": 0.0}, {"lat": 38.9004345, "is_disabled": 0, "type": "electric_scooter", "lon": -77.00197216666666, "bike_id": "2ede839a906d16c25fb5b8630212aa80", "fusion_lat": 0.0, "name": "2ede839a906d16c25fb5b8630212aa80", "is_reserved": 0, "rental_uris": {"android": "https://dc.lft.to/lastmile_qr_scan", "ios": "https://dc.lft.to/lastmile_qr_scan"}, "fusion_lon": 0.0}, {"lat": 38.8966145, "is_disabled": 0, "type": "electric_scooter", "lon": -77.03974583333333, "bike_id": "d32e7d4de601e788c2a9c1b9d9570ea3", "fusion_lat": 0.0, "name": "d32e7d4de601e788c2a9c1b9d9570ea3", "is_reserved": 0, "rental_uris": {"android": "https://dc.lft.to/lastmile_qr_scan", "ios": "https://dc.lft.to/lastmile_qr_scan"}, "fusion_lon": 0.0}, {"lat": 38.90577116666667, "is_disabled": 0, "type": "electric_scooter", "lon": -77.00887983333334, "bike_id": "3544ff1e290639ba493230d40728f930", "fusion_lat": 0.0, "name": "3544ff1e290639ba493230d40728f930", "is_reserved": 0, "rental_uris": {"android": "https://dc.lft.to/lastmile_qr_scan", "ios": "https://dc.lft.to/lastmile_qr_scan"}, "fusion_lon": 0.0}, {"lat": 38.93008833333333, "is_disabled": 0, "type": "electric_scooter", "lon": -77.02118566666667, "bike_id": "4e495333028aa52c7ce3ebcb8d23ad3f", "fusion_lat": 0.0, "name": "4e495333028aa52c7ce3ebcb8d23ad3f", "is_reserved": 0, "rental_uris": {"android": "https://dc.lft.to/lastmile_qr_scan", "ios": "https://dc.lft.to/lastmile_qr_scan"}, "fusion_lon": 0.0}, {"lat": 38.9212795, "is_disabled": 0, "type": "electric_scooter", "lon": -77.04129683333333, "bike_id": "5b2425cc041dc3ef62edf11b139c1b33", "fusion_lat": 0.0, "name": "5b2425cc041dc3ef62edf11b139c1b33", "is_reserved": 0, "rental_uris": {"android": "https://dc.lft.to/lastmile_qr_scan", "ios": "https://dc.lft.to/lastmile_qr_scan"}, "fusion_lon": 0.0}, {"lat": 38.92048783333333, "is_disabled": 0, "type": "electric_scooter", "lon": -77.034657, "bike_id": "cf53889cb898f1988d77e36252a48428", "fusion_lat": 0.0, "name": "cf53889cb898f1988d77e36252a48428", "is_reserved": 0, "rental_uris": {"android": "https://dc.lft.to/lastmile_qr_scan", "ios": "https://dc.lft.to/lastmile_qr_scan"}, "fusion_lon": 0.0}, {"lat": 38.904561666666666, "is_disabled": 0, "type": "electric_scooter", "lon": -76.99455883333333, "bike_id": "0a354973d00cda6854d78e907bcf13a3", "fusion_lat": 0.0, "name": "0a354973d00cda6854d78e907bcf13a3", "is_reserved": 0, "rental_uris": {"android": "https://dc.lft.to/lastmile_qr_scan", "ios": "https://dc.lft.to/lastmile_qr_scan"}, "fusion_lon": 0.0}, {"lat": 38.918958833333335, "is_disabled": 0, "type": "electric_scooter", "lon": -77.0390245, "bike_id": "dd1d0681f8a4bab9858e0c12973eb397", "fusion_lat": 0.0, "name": "dd1d0681f8a4bab9858e0c12973eb397", "is_reserved": 0, "rental_uris": {"android": "https://dc.lft.to/lastmile_qr_scan", "ios": "https://dc.lft.to/lastmile_qr_scan"}, "fusion_lon": 0.0}, {"lat": 38.91286, "is_disabled": 0, "type": "electric_scooter", "lon": -77.02384, "bike_id": "1087b2f4304c62c8b9d3f0ec413bb29c", "fusion_lat": 0.0, "name": "1087b2f4304c62c8b9d3f0ec413bb29c", "is_reserved": 0, "rental_uris": {"android": "https://dc.lft.to/lastmile_qr_scan", "ios": "https://dc.lft.to/lastmile_qr_scan"}, "fusion_lon": 0.0}, {"lat": 38.90407733333333, "is_disabled": 0, "type": "electric_scooter", "lon": -77.06894733333333, "bike_id": "0cca7cf65cae5e19ddd8160f9976781c", "fusion_lat": 0.0, "name": "0cca7cf65cae5e19ddd8160f9976781c", "is_reserved": 0, "rental_uris": {"android": "https://dc.lft.to/lastmile_qr_scan", "ios": "https://dc.lft.to/lastmile_qr_scan"}, "fusion_lon": 0.0}, {"lat": 38.8955775, "is_disabled": 0, "type": "electric_bike", "lon": -77.12735116666667, "bike_id": "cc5a07feca469104e7d4de547f47340d", "fusion_lat": 0.0, "name": "cc5a07feca469104e7d4de547f47340d", "is_reserved": 0, "rental_uris": {"android": "https://dc.lft.to/lastmile_qr_scan", "ios": "https://dc.lft.to/lastmile_qr_scan"}, "fusion_lon": 0.0}, {"lat": 38.902961, "is_disabled": 0, "type": "electric_scooter", "lon": -77.00045833333333, "bike_id": "c9cd91810ddee6dd385ea6ac0e4f8d22", "fusion_lat": 0.0, "name": "c9cd91810ddee6dd385ea6ac0e4f8d22", "is_reserved": 0, "rental_uris": {"android": "https://dc.lft.to/lastmile_qr_scan", "ios": "https://dc.lft.to/lastmile_qr_scan"}, "fusion_lon": 0.0}, {"lat": 38.92477933333333, "is_disabled": 0, "type": "electric_scooter", "lon": -77.02833966666667, "bike_id": "7484d7588709b8113abe7927828c2f15", "fusion_lat": 0.0, "name": "7484d7588709b8113abe7927828c2f15", "is_reserved": 0, "rental_uris": {"android": "https://dc.lft.to/lastmile_qr_scan", "ios": "https://dc.lft.to/lastmile_qr_scan"}, "fusion_lon": 0.0}, {"lat": 38.92205533333333, "is_disabled": 0, "type": "electric_scooter", "lon": -77.0398485, "bike_id": "a596b067225b3f4ec070f8c71edc45a1", "fusion_lat": 0.0, "name": "a596b067225b3f4ec070f8c71edc45a1", "is_reserved": 0, "rental_uris": {"android": "https://dc.lft.to/lastmile_qr_scan", "ios": "https://dc.lft.to/lastmile_qr_scan"}, "fusion_lon": 0.0}, {"lat": 38.986564666666666, "is_disabled": 0, "type": "electric_bike", "lon": -77.056346, "bike_id": "126aad3b26320b99d30030d0c3a8f7b2", "fusion_lat": 0.0, "name": "126aad3b26320b99d30030d0c3a8f7b2", "is_reserved": 0, "rental_uris": {"android": "https://dc.lft.to/lastmile_qr_scan", "ios": "https://dc.lft.to/lastmile_qr_scan"}, "fusion_lon": 0.0}, {"lat": 38.906686, "is_disabled": 0, "type": "electric_scooter", "lon": -77.06276166666666, "bike_id": "9e65dd81da26843ffdd3c9ced1754190", "fusion_lat": 0.0, "name": "9e65dd81da26843ffdd3c9ced1754190", "is_reserved": 0, "rental_uris": {"android": "https://dc.lft.to/lastmile_qr_scan", "ios": "https://dc.lft.to/lastmile_qr_scan"}, "fusion_lon": 0.0}, {"lat": 38.914729666666666, "is_disabled": 0, "type": "electric_scooter", "lon": -77.0034885, "bike_id": "c80f62a768c6e286df5cd062f06685b4", "fusion_lat": 0.0, "name": "c80f62a768c6e286df5cd062f06685b4", "is_reserved": 0, "rental_uris": {"android": "https://dc.lft.to/lastmile_qr_scan", "ios": "https://dc.lft.to/lastmile_qr_scan"}, "fusion_lon": 0.0}, {"lat": 38.915516833333335, "is_disabled": 0, "type": "electric_scooter", "lon": -77.012356, "bike_id": "2469605f5a5e3c7c276384080028f855", "fusion_lat": 0.0, "name": "2469605f5a5e3c7c276384080028f855", "is_reserved": 0, "rental_uris": {"android": "https://dc.lft.to/lastmile_qr_scan", "ios": "https://dc.lft.to/lastmile_qr_scan"}, "fusion_lon": 0.0}, {"lat": 38.95027316666667, "is_disabled": 0, "type": "electric_bike", "lon": -77.0296105, "bike_id": "a4aaa45991216a54e26552ff450b3f4c", "fusion_lat": 0.0, "name": "a4aaa45991216a54e26552ff450b3f4c", "is_reserved": 0, "rental_uris": {"android": "https://dc.lft.to/lastmile_qr_scan", "ios": "https://dc.lft.to/lastmile_qr_scan"}, "fusion_lon": 0.0}, {"lat": 38.92297666666666, "is_disabled": 0, "type": "electric_bike", "lon": -76.9938065, "bike_id": "e40d0a435b8053fbfbcae6c3512e4d52", "fusion_lat": 0.0, "name": "e40d0a435b8053fbfbcae6c3512e4d52", "is_reserved": 0, "rental_uris": {"android": "https://dc.lft.to/lastmile_qr_scan", "ios": "https://dc.lft.to/lastmile_qr_scan"}, "fusion_lon": 0.0}, {"lat": 38.924052333333336, "is_disabled": 0, "type": "electric_scooter", "lon": -77.0354375, "bike_id": "ef2c7e261c76da03d6a2a6fb305e074b", "fusion_lat": 0.0, "name": "ef2c7e261c76da03d6a2a6fb305e074b", "is_reserved": 0, "rental_uris": {"android": "https://dc.lft.to/lastmile_qr_scan", "ios": "https://dc.lft.to/lastmile_qr_scan"}, "fusion_lon": 0.0}, {"lat": 38.9077345, "is_disabled": 0, "type": "electric_scooter", "lon": -77.03855466666667, "bike_id": "cb12f999fb72e858fd4c0d52f928d8a4", "fusion_lat": 0.0, "name": "cb12f999fb72e858fd4c0d52f928d8a4", "is_reserved": 0, "rental_uris": {"android": "https://dc.lft.to/lastmile_qr_scan", "ios": "https://dc.lft.to/lastmile_qr_scan"}, "fusion_lon": 0.0}, {"lat": 38.844236, "is_disabled": 0, "type": "electric_scooter", "lon": -76.99776983333334, "bike_id": "67817f8fa13f53ac672351b83ba28fc5", "fusion_lat": 0.0, "name": "67817f8fa13f53ac672351b83ba28fc5", "is_reserved": 0, "rental_uris": {"android": "https://dc.lft.to/lastmile_qr_scan", "ios": "https://dc.lft.to/lastmile_qr_scan"}, "fusion_lon": 0.0}, {"lat": 38.919635166666666, "is_disabled": 0, "type": "electric_scooter", "lon": -77.01206466666666, "bike_id": "4ffc0049d6d33107a61f72fdd508740e", "fusion_lat": 0.0, "name": "4ffc0049d6d33107a61f72fdd508740e", "is_reserved": 0, "rental_uris": {"android": "https://dc.lft.to/lastmile_qr_scan", "ios": "https://dc.lft.to/lastmile_qr_scan"}, "fusion_lon": 0.0}, {"lat": 38.90364833333334, "is_disabled": 0, "type": "electric_scooter", "lon": -77.03087266666667, "bike_id": "7663bf20fed61b16a8f4b6e0c22cdf35", "fusion_lat": 0.0, "name": "7663bf20fed61b16a8f4b6e0c22cdf35", "is_reserved": 0, "rental_uris": {"android": "https://dc.lft.to/lastmile_qr_scan", "ios": "https://dc.lft.to/lastmile_qr_scan"}, "fusion_lon": 0.0}, {"lat": 38.89762533333333, "is_disabled": 0, "type": "electric_bike", "lon": -76.9043195, "bike_id": "9b49861f9613da68122101d9b1b206e8", "fusion_lat": 0.0, "name": "9b49861f9613da68122101d9b1b206e8", "is_reserved": 0, "rental_uris": {"android": "https://dc.lft.to/lastmile_qr_scan", "ios": "https://dc.lft.to/lastmile_qr_scan"}, "fusion_lon": 0.0}, {"lat": 38.92748233333333, "is_disabled": 0, "type": "electric_scooter", "lon": -76.99714133333333, "bike_id": "7471aa70a2c74314b9e3d3b9ffd51cce", "fusion_lat": 0.0, "name": "7471aa70a2c74314b9e3d3b9ffd51cce", "is_reserved": 0, "rental_uris": {"android": "https://dc.lft.to/lastmile_qr_scan", "ios": "https://dc.lft.to/lastmile_qr_scan"}, "fusion_lon": 0.0}, {"lat": 38.9061155, "is_disabled": 0, "type": "electric_scooter", "lon": -77.015324, "bike_id": "f4f57c54e5599d589e765518ac75b368", "fusion_lat": 0.0, "name": "f4f57c54e5599d589e765518ac75b368", "is_reserved": 0, "rental_uris": {"android": "https://dc.lft.to/lastmile_qr_scan", "ios": "https://dc.lft.to/lastmile_qr_scan"}, "fusion_lon": 0.0}, {"lat": 38.9257455, "is_disabled": 0, "type": "electric_scooter", "lon": -77.0574355, "bike_id": "17008484c50ceae10cda129b0076ef8a", "fusion_lat": 0.0, "name": "17008484c50ceae10cda129b0076ef8a", "is_reserved": 0, "rental_uris": {"android": "https://dc.lft.to/lastmile_qr_scan", "ios": "https://dc.lft.to/lastmile_qr_scan"}, "fusion_lon": 0.0}, {"lat": 38.90155716666666, "is_disabled": 0, "type": "electric_scooter", "lon": -76.98631783333333, "bike_id": "3278f758368812d44f1431cb46e54b3f", "fusion_lat": 0.0, "name": "3278f758368812d44f1431cb46e54b3f", "is_reserved": 0, "rental_uris": {"android": "https://dc.lft.to/lastmile_qr_scan", "ios": "https://dc.lft.to/lastmile_qr_scan"}, "fusion_lon": 0.0}, {"lat": 38.898037, "is_disabled": 0, "type": "electric_scooter", "lon": -77.00055533333334, "bike_id": "4a80468518c76eff90003ba382797dcd", "fusion_lat": 0.0, "name": "4a80468518c76eff90003ba382797dcd", "is_reserved": 0, "rental_uris": {"android": "https://dc.lft.to/lastmile_qr_scan", "ios": "https://dc.lft.to/lastmile_qr_scan"}, "fusion_lon": 0.0}, {"lat": 38.84272966666666, "is_disabled": 0, "type": "electric_bike", "lon": -76.98844683333333, "bike_id": "15047ab31f33406cb9136598c0e1f773", "fusion_lat": 0.0, "name": "15047ab31f33406cb9136598c0e1f773", "is_reserved": 0, "rental_uris": {"android": "https://dc.lft.to/lastmile_qr_scan", "ios": "https://dc.lft.to/lastmile_qr_scan"}, "fusion_lon": 0.0}, {"lat": 38.880961, "is_disabled": 0, "type": "electric_scooter", "lon": -76.998506, "bike_id": "43a6abcea989fc9a7aa3a8ac8d7f37a3", "fusion_lat": 0.0, "name": "43a6abcea989fc9a7aa3a8ac8d7f37a3", "is_reserved": 0, "rental_uris": {"android": "https://dc.lft.to/lastmile_qr_scan", "ios": "https://dc.lft.to/lastmile_qr_scan"}, "fusion_lon": 0.0}, {"lat": 38.95632783333333, "is_disabled": 0, "type": "electric_bike", "lon": -76.93891766666667, "bike_id": "5e9525a863c55bfeceb98fdb557c2de3", "fusion_lat": 0.0, "name": "5e9525a863c55bfeceb98fdb557c2de3", "is_reserved": 0, "rental_uris": {"android": "https://dc.lft.to/lastmile_qr_scan", "ios": "https://dc.lft.to/lastmile_qr_scan"}, "fusion_lon": 0.0}, {"lat": 38.9175845, "is_disabled": 0, "type": "electric_scooter", "lon": -77.01601116666667, "bike_id": "eb96394a7822da6ed0e91453a05d381c", "fusion_lat": 0.0, "name": "eb96394a7822da6ed0e91453a05d381c", "is_reserved": 0, "rental_uris": {"android": "https://dc.lft.to/lastmile_qr_scan", "ios": "https://dc.lft.to/lastmile_qr_scan"}, "fusion_lon": 0.0}, {"lat": 38.900630666666665, "is_disabled": 0, "type": "electric_scooter", "lon": -77.04956433333334, "bike_id": "d728477377f11317806dc8fd4b5b420d", "fusion_lat": 0.0, "name": "d728477377f11317806dc8fd4b5b420d", "is_reserved": 0, "rental_uris": {"android": "https://dc.lft.to/lastmile_qr_scan", "ios": "https://dc.lft.to/lastmile_qr_scan"}, "fusion_lon": 0.0}, {"lat": 38.9233425, "is_disabled": 0, "type": "electric_scooter", "lon": -77.03573533333334, "bike_id": "f3eeb90bc3b3484ccac180df908fd936", "fusion_lat": 0.0, "name": "f3eeb90bc3b3484ccac180df908fd936", "is_reserved": 0, "rental_uris": {"android": "https://dc.lft.to/lastmile_qr_scan", "ios": "https://dc.lft.to/lastmile_qr_scan"}, "fusion_lon": 0.0}, {"lat": 38.895145166666666, "is_disabled": 0, "type": "electric_scooter", "lon": -76.9490155, "bike_id": "edd9b6811c029cdea4be9007673df7cb", "fusion_lat": 0.0, "name": "edd9b6811c029cdea4be9007673df7cb", "is_reserved": 0, "rental_uris": {"android": "https://dc.lft.to/lastmile_qr_scan", "ios": "https://dc.lft.to/lastmile_qr_scan"}, "fusion_lon": 0.0}, {"lat": 38.910116333333335, "is_disabled": 0, "type": "electric_scooter", "lon": -77.02691283333333, "bike_id": "fec2b9224650040b579ed27b877e2a73", "fusion_lat": 0.0, "name": "fec2b9224650040b579ed27b877e2a73", "is_reserved": 0, "rental_uris": {"android": "https://dc.lft.to/lastmile_qr_scan", "ios": "https://dc.lft.to/lastmile_qr_scan"}, "fusion_lon": 0.0}, {"lat": 38.9129, "is_disabled": 0, "type": "electric_scooter", "lon": -77.04005216666667, "bike_id": "3cc3336598a4c486b9f0120f29ba7866", "fusion_lat": 0.0, "name": "3cc3336598a4c486b9f0120f29ba7866", "is_reserved": 0, "rental_uris": {"android": "https://dc.lft.to/lastmile_qr_scan", "ios": "https://dc.lft.to/lastmile_qr_scan"}, "fusion_lon": 0.0}, {"lat": 38.91711016666667, "is_disabled": 0, "type": "electric_scooter", "lon": -77.03472066666667, "bike_id": "bc53b2c90e63780f0b08f891e6e29503", "fusion_lat": 0.0, "name": "bc53b2c90e63780f0b08f891e6e29503", "is_reserved": 0, "rental_uris": {"android": "https://dc.lft.to/lastmile_qr_scan", "ios": "https://dc.lft.to/lastmile_qr_scan"}, "fusion_lon": 0.0}, {"lat": 38.97093183333333, "is_disabled": 0, "type": "electric_bike", "lon": -77.069633, "bike_id": "278eb429f20a1c4e68fbcc6417a138a7", "fusion_lat": 0.0, "name": "278eb429f20a1c4e68fbcc6417a138a7", "is_reserved": 0, "rental_uris": {"android": "https://dc.lft.to/lastmile_qr_scan", "ios": "https://dc.lft.to/lastmile_qr_scan"}, "fusion_lon": 0.0}, {"lat": 38.9267405, "is_disabled": 0, "type": "electric_scooter", "lon": -77.02861966666667, "bike_id": "2d98a525fe04af602721d87253d981c5", "fusion_lat": 0.0, "name": "2d98a525fe04af602721d87253d981c5", "is_reserved": 0, "rental_uris": {"android": "https://dc.lft.to/lastmile_qr_scan", "ios": "https://dc.lft.to/lastmile_qr_scan"}, "fusion_lon": 0.0}, {"lat": 38.852055, "is_disabled": 0, "type": "electric_bike", "lon": -77.10131983333333, "bike_id": "7382dea0658c8ffe3721ad539b390d97", "fusion_lat": 0.0, "name": "7382dea0658c8ffe3721ad539b390d97", "is_reserved": 0, "rental_uris": {"android": "https://dc.lft.to/lastmile_qr_scan", "ios": "https://dc.lft.to/lastmile_qr_scan"}, "fusion_lon": 0.0}, {"lat": 38.8573545, "is_disabled": 0, "type": "electric_scooter", "lon": -76.99434933333333, "bike_id": "b58355bcc91d8b794a2cdf6c918ec57e", "fusion_lat": 0.0, "name": "b58355bcc91d8b794a2cdf6c918ec57e", "is_reserved": 0, "rental_uris": {"android": "https://dc.lft.to/lastmile_qr_scan", "ios": "https://dc.lft.to/lastmile_qr_scan"}, "fusion_lon": 0.0}, {"lat": 38.90955366666667, "is_disabled": 0, "type": "electric_scooter", "lon": -77.03421633333333, "bike_id": "3ff7bf3386983c63bab47d048a78ece5", "fusion_lat": 0.0, "name": "3ff7bf3386983c63bab47d048a78ece5", "is_reserved": 0, "rental_uris": {"android": "https://dc.lft.to/lastmile_qr_scan", "ios": "https://dc.lft.to/lastmile_qr_scan"}, "fusion_lon": 0.0}, {"lat": 38.91706683333334, "is_disabled": 0, "type": "electric_scooter", "lon": -77.03056933333333, "bike_id": "a55a775bd033b5a4951ee1a8fd6b8637", "fusion_lat": 0.0, "name": "a55a775bd033b5a4951ee1a8fd6b8637", "is_reserved": 0, "rental_uris": {"android": "https://dc.lft.to/lastmile_qr_scan", "ios": "https://dc.lft.to/lastmile_qr_scan"}, "fusion_lon": 0.0}, {"lat": 38.9444035, "is_disabled": 0, "type": "electric_scooter", "lon": -77.023408, "bike_id": "c6290c89c11404822bc32ccb3431c85a", "fusion_lat": 0.0, "name": "c6290c89c11404822bc32ccb3431c85a", "is_reserved": 0, "rental_uris": {"android": "https://dc.lft.to/lastmile_qr_scan", "ios": "https://dc.lft.to/lastmile_qr_scan"}, "fusion_lon": 0.0}, {"lat": 38.92063533333334, "is_disabled": 0, "type": "electric_scooter", "lon": -77.04234366666667, "bike_id": "c67576240f5b2e60fcfd61e5239d56dd", "fusion_lat": 0.0, "name": "c67576240f5b2e60fcfd61e5239d56dd", "is_reserved": 0, "rental_uris": {"android": "https://dc.lft.to/lastmile_qr_scan", "ios": "https://dc.lft.to/lastmile_qr_scan"}, "fusion_lon": 0.0}, {"lat": 38.901522, "is_disabled": 0, "type": "electric_scooter", "lon": -77.04146733333333, "bike_id": "d21caeaecd1364ef8a8cf6deb13ec287", "fusion_lat": 0.0, "name": "d21caeaecd1364ef8a8cf6deb13ec287", "is_reserved": 0, "rental_uris": {"android": "https://dc.lft.to/lastmile_qr_scan", "ios": "https://dc.lft.to/lastmile_qr_scan"}, "fusion_lon": 0.0}, {"lat": 38.901779166666664, "is_disabled": 0, "type": "electric_scooter", "lon": -77.02481183333333, "bike_id": "b4766e75c7f37287e34f645277d81ae8", "fusion_lat": 0.0, "name": "b4766e75c7f37287e34f645277d81ae8", "is_reserved": 0, "rental_uris": {"android": "https://dc.lft.to/lastmile_qr_scan", "ios": "https://dc.lft.to/lastmile_qr_scan"}, "fusion_lon": 0.0}, {"lat": 38.908677833333336, "is_disabled": 0, "type": "electric_bike", "lon": -77.00175666666667, "bike_id": "432c0878adeb3554e2a9581d5dd82287", "fusion_lat": 0.0, "name": "432c0878adeb3554e2a9581d5dd82287", "is_reserved": 0, "rental_uris": {"android": "https://dc.lft.to/lastmile_qr_scan", "ios": "https://dc.lft.to/lastmile_qr_scan"}, "fusion_lon": 0.0}, {"lat": 38.906229833333335, "is_disabled": 0, "type": "electric_scooter", "lon": -77.0628575, "bike_id": "ff6d8565c31a96ad3ed66735837dc0d2", "fusion_lat": 0.0, "name": "ff6d8565c31a96ad3ed66735837dc0d2", "is_reserved": 0, "rental_uris": {"android": "https://dc.lft.to/lastmile_qr_scan", "ios": "https://dc.lft.to/lastmile_qr_scan"}, "fusion_lon": 0.0}, {"lat": 38.93254666666667, "is_disabled": 0, "type": "electric_scooter", "lon": -77.03296283333333, "bike_id": "ea13dd70573d1a27745a1d1845aa1bf6", "fusion_lat": 0.0, "name": "ea13dd70573d1a27745a1d1845aa1bf6", "is_reserved": 0, "rental_uris": {"android": "https://dc.lft.to/lastmile_qr_scan", "ios": "https://dc.lft.to/lastmile_qr_scan"}, "fusion_lon": 0.0}, {"lat": 38.915189833333336, "is_disabled": 0, "type": "electric_scooter", "lon": -77.02955566666667, "bike_id": "412166fc3ce615ac237a989d47929b70", "fusion_lat": 0.0, "name": "412166fc3ce615ac237a989d47929b70", "is_reserved": 0, "rental_uris": {"android": "https://dc.lft.to/lastmile_qr_scan", "ios": "https://dc.lft.to/lastmile_qr_scan"}, "fusion_lon": 0.0}, {"lat": 38.9882475, "is_disabled": 0, "type": "electric_bike", "lon": -76.99647433333334, "bike_id": "5091847814d0a02bdb2c24f7a72004fe", "fusion_lat": 0.0, "name": "5091847814d0a02bdb2c24f7a72004fe", "is_reserved": 0, "rental_uris": {"android": "https://dc.lft.to/lastmile_qr_scan", "ios": "https://dc.lft.to/lastmile_qr_scan"}, "fusion_lon": 0.0}, {"lat": 38.88363783333333, "is_disabled": 0, "type": "electric_scooter", "lon": -76.94156233333334, "bike_id": "04a95272e6e118b4dbb7bb4aad2e8373", "fusion_lat": 0.0, "name": "04a95272e6e118b4dbb7bb4aad2e8373", "is_reserved": 0, "rental_uris": {"android": "https://dc.lft.to/lastmile_qr_scan", "ios": "https://dc.lft.to/lastmile_qr_scan"}, "fusion_lon": 0.0}, {"lat": 38.904802, "is_disabled": 0, "type": "electric_scooter", "lon": -77.002081, "bike_id": "490be07e09966240747e8e36e2a9e276", "fusion_lat": 0.0, "name": "490be07e09966240747e8e36e2a9e276", "is_reserved": 0, "rental_uris": {"android": "https://dc.lft.to/lastmile_qr_scan", "ios": "https://dc.lft.to/lastmile_qr_scan"}, "fusion_lon": 0.0}, {"lat": 38.91682316666667, "is_disabled": 0, "type": "electric_scooter", "lon": -77.0019635, "bike_id": "6e5b39dda1d23688cc3d508169b0d509", "fusion_lat": 0.0, "name": "6e5b39dda1d23688cc3d508169b0d509", "is_reserved": 0, "rental_uris": {"android": "https://dc.lft.to/lastmile_qr_scan", "ios": "https://dc.lft.to/lastmile_qr_scan"}, "fusion_lon": 0.0}, {"lat": 38.91762383333333, "is_disabled": 0, "type": "electric_scooter", "lon": -76.97622316666667, "bike_id": "3e9bc48cab3c86030ca24e5e28d8e602", "fusion_lat": 0.0, "name": "3e9bc48cab3c86030ca24e5e28d8e602", "is_reserved": 0, "rental_uris": {"android": "https://dc.lft.to/lastmile_qr_scan", "ios": "https://dc.lft.to/lastmile_qr_scan"}, "fusion_lon": 0.0}, {"lat": 38.919187666666666, "is_disabled": 0, "type": "electric_scooter", "lon": -77.03192066666666, "bike_id": "1281a897aa724bdae132f79d8acacd28", "fusion_lat": 0.0, "name": "1281a897aa724bdae132f79d8acacd28", "is_reserved": 0, "rental_uris": {"android": "https://dc.lft.to/lastmile_qr_scan", "ios": "https://dc.lft.to/lastmile_qr_scan"}, "fusion_lon": 0.0}, {"lat": 38.95885833333333, "is_disabled": 0, "type": "electric_bike", "lon": -76.9248505, "bike_id": "86329e3faf3b1ac4bfeafb31d8bb479b", "fusion_lat": 0.0, "name": "86329e3faf3b1ac4bfeafb31d8bb479b", "is_reserved": 0, "rental_uris": {"android": "https://dc.lft.to/lastmile_qr_scan", "ios": "https://dc.lft.to/lastmile_qr_scan"}, "fusion_lon": 0.0}, {"lat": 38.941224, "is_disabled": 0, "type": "electric_scooter", "lon": -77.00062683333333, "bike_id": "ee1e090ec6f14f7ace6563df24e91386", "fusion_lat": 0.0, "name": "ee1e090ec6f14f7ace6563df24e91386", "is_reserved": 0, "rental_uris": {"android": "https://dc.lft.to/lastmile_qr_scan", "ios": "https://dc.lft.to/lastmile_qr_scan"}, "fusion_lon": 0.0}, {"lat": 38.93249466666666, "is_disabled": 0, "type": "electric_scooter", "lon": -77.0665485, "bike_id": "d9bb10628490d7cb50f27af18a05c8c9", "fusion_lat": 0.0, "name": "d9bb10628490d7cb50f27af18a05c8c9", "is_reserved": 0, "rental_uris": {"android": "https://dc.lft.to/lastmile_qr_scan", "ios": "https://dc.lft.to/lastmile_qr_scan"}, "fusion_lon": 0.0}, {"lat": 38.943229, "is_disabled": 0, "type": "electric_scooter", "lon": -77.07381633333334, "bike_id": "b8a5831dc8528072a286b92c317fcf9e", "fusion_lat": 0.0, "name": "b8a5831dc8528072a286b92c317fcf9e", "is_reserved": 0, "rental_uris": {"android": "https://dc.lft.to/lastmile_qr_scan", "ios": "https://dc.lft.to/lastmile_qr_scan"}, "fusion_lon": 0.0}, {"lat": 38.93608866666667, "is_disabled": 0, "type": "electric_scooter", "lon": -77.05759133333333, "bike_id": "54b792e0654f0d13c67fcc08081d3355", "fusion_lat": 0.0, "name": "54b792e0654f0d13c67fcc08081d3355", "is_reserved": 0, "rental_uris": {"android": "https://dc.lft.to/lastmile_qr_scan", "ios": "https://dc.lft.to/lastmile_qr_scan"}, "fusion_lon": 0.0}, {"lat": 38.87988983333334, "is_disabled": 0, "type": "electric_scooter", "lon": -76.98671933333333, "bike_id": "298a9baeffc4743ee53a336d31556935", "fusion_lat": 0.0, "name": "298a9baeffc4743ee53a336d31556935", "is_reserved": 0, "rental_uris": {"android": "https://dc.lft.to/lastmile_qr_scan", "ios": "https://dc.lft.to/lastmile_qr_scan"}, "fusion_lon": 0.0}, {"lat": 38.867016666666665, "is_disabled": 0, "type": "electric_scooter", "lon": -76.987103, "bike_id": "09ea5789c7dc1b74fd7ccda55536e23b", "fusion_lat": 0.0, "name": "09ea5789c7dc1b74fd7ccda55536e23b", "is_reserved": 0, "rental_uris": {"android": "https://dc.lft.to/lastmile_qr_scan", "ios": "https://dc.lft.to/lastmile_qr_scan"}, "fusion_lon": 0.0}, {"lat": 38.90271166666667, "is_disabled": 0, "type": "electric_scooter", "lon": -77.0176055, "bike_id": "5241984eeab658db948ae36b7b20dfb3", "fusion_lat": 0.0, "name": "5241984eeab658db948ae36b7b20dfb3", "is_reserved": 0, "rental_uris": {"android": "https://dc.lft.to/lastmile_qr_scan", "ios": "https://dc.lft.to/lastmile_qr_scan"}, "fusion_lon": 0.0}, {"lat": 38.92500916666667, "is_disabled": 0, "type": "electric_scooter", "lon": -77.0764695, "bike_id": "36b28c13871275f1e54c0f5a1fd536c0", "fusion_lat": 0.0, "name": "36b28c13871275f1e54c0f5a1fd536c0", "is_reserved": 0, "rental_uris": {"android": "https://dc.lft.to/lastmile_qr_scan", "ios": "https://dc.lft.to/lastmile_qr_scan"}, "fusion_lon": 0.0}, {"lat": 38.904975, "is_disabled": 0, "type": "electric_scooter", "lon": -77.02952883333333, "bike_id": "e4d719379230a731bc8600bb89548624", "fusion_lat": 0.0, "name": "e4d719379230a731bc8600bb89548624", "is_reserved": 0, "rental_uris": {"android": "https://dc.lft.to/lastmile_qr_scan", "ios": "https://dc.lft.to/lastmile_qr_scan"}, "fusion_lon": 0.0}, {"lat": 38.924044, "is_disabled": 0, "type": "electric_scooter", "lon": -77.0274315, "bike_id": "bb15628cb31bfff3b08b1bb8cbb874b1", "fusion_lat": 0.0, "name": "bb15628cb31bfff3b08b1bb8cbb874b1", "is_reserved": 0, "rental_uris": {"android": "https://dc.lft.to/lastmile_qr_scan", "ios": "https://dc.lft.to/lastmile_qr_scan"}, "fusion_lon": 0.0}, {"lat": 38.86996833333333, "is_disabled": 0, "type": "electric_bike", "lon": -77.06568466666667, "bike_id": "9fc6584408dfe650613af19a88997c85", "fusion_lat": 0.0, "name": "9fc6584408dfe650613af19a88997c85", "is_reserved": 0, "rental_uris": {"android": "https://dc.lft.to/lastmile_qr_scan", "ios": "https://dc.lft.to/lastmile_qr_scan"}, "fusion_lon": 0.0}, {"lat": 38.8763015, "is_disabled": 0, "type": "electric_scooter", "lon": -76.96526416666667, "bike_id": "e326ab52a6d0cc1aeaa3ece37257a492", "fusion_lat": 0.0, "name": "e326ab52a6d0cc1aeaa3ece37257a492", "is_reserved": 0, "rental_uris": {"android": "https://dc.lft.to/lastmile_qr_scan", "ios": "https://dc.lft.to/lastmile_qr_scan"}, "fusion_lon": 0.0}, {"lat": 38.898506, "is_disabled": 0, "type": "electric_scooter", "lon": -76.9902935, "bike_id": "f403ac5017f2bf6a6a3a92927381e82e", "fusion_lat": 0.0, "name": "f403ac5017f2bf6a6a3a92927381e82e", "is_reserved": 0, "rental_uris": {"android": "https://dc.lft.to/lastmile_qr_scan", "ios": "https://dc.lft.to/lastmile_qr_scan"}, "fusion_lon": 0.0}, {"lat": 38.9059485, "is_disabled": 0, "type": "electric_scooter", "lon": -76.989873, "bike_id": "6554bdfc6a295f00f96bb36b2a500113", "fusion_lat": 0.0, "name": "6554bdfc6a295f00f96bb36b2a500113", "is_reserved": 0, "rental_uris": {"android": "https://dc.lft.to/lastmile_qr_scan", "ios": "https://dc.lft.to/lastmile_qr_scan"}, "fusion_lon": 0.0}, {"lat": 38.903744833333334, "is_disabled": 0, "type": "electric_scooter", "lon": -77.04228433333333, "bike_id": "6a2c81acdd2a8210ddecbed8a8ff138c", "fusion_lat": 0.0, "name": "6a2c81acdd2a8210ddecbed8a8ff138c", "is_reserved": 0, "rental_uris": {"android": "https://dc.lft.to/lastmile_qr_scan", "ios": "https://dc.lft.to/lastmile_qr_scan"}, "fusion_lon": 0.0}, {"lat": 38.834164, "is_disabled": 0, "type": "electric_bike", "lon": -77.10377966666667, "bike_id": "ea14b314998d5f1f8091cbcb1e2623d1", "fusion_lat": 0.0, "name": "ea14b314998d5f1f8091cbcb1e2623d1", "is_reserved": 0, "rental_uris": {"android": "https://dc.lft.to/lastmile_qr_scan", "ios": "https://dc.lft.to/lastmile_qr_scan"}, "fusion_lon": 0.0}, {"lat": 38.93443633333333, "is_disabled": 0, "type": "electric_scooter", "lon": -77.0309755, "bike_id": "dbc8f4067999fe9bdf17dc1d3ff91bb7", "fusion_lat": 0.0, "name": "dbc8f4067999fe9bdf17dc1d3ff91bb7", "is_reserved": 0, "rental_uris": {"android": "https://dc.lft.to/lastmile_qr_scan", "ios": "https://dc.lft.to/lastmile_qr_scan"}, "fusion_lon": 0.0}, {"lat": 38.84463083333333, "is_disabled": 0, "type": "electric_bike", "lon": -76.98751983333334, "bike_id": "1fde06a4e305ccde3343b34f43ac1f4d", "fusion_lat": 0.0, "name": "1fde06a4e305ccde3343b34f43ac1f4d", "is_reserved": 0, "rental_uris": {"android": "https://dc.lft.to/lastmile_qr_scan", "ios": "https://dc.lft.to/lastmile_qr_scan"}, "fusion_lon": 0.0}, {"lat": 38.90021216666667, "is_disabled": 0, "type": "electric_scooter", "lon": -76.983745, "bike_id": "4cabadb2c476814c3e0ce917229e53ac", "fusion_lat": 0.0, "name": "4cabadb2c476814c3e0ce917229e53ac", "is_reserved": 0, "rental_uris": {"android": "https://dc.lft.to/lastmile_qr_scan", "ios": "https://dc.lft.to/lastmile_qr_scan"}, "fusion_lon": 0.0}, {"lat": 38.85926766666667, "is_disabled": 0, "type": "electric_scooter", "lon": -76.9971685, "bike_id": "39d6417c660bef9ffd7a1875ea40c5e1", "fusion_lat": 0.0, "name": "39d6417c660bef9ffd7a1875ea40c5e1", "is_reserved": 0, "rental_uris": {"android": "https://dc.lft.to/lastmile_qr_scan", "ios": "https://dc.lft.to/lastmile_qr_scan"}, "fusion_lon": 0.0}, {"lat": 38.86526083333333, "is_disabled": 0, "type": "electric_scooter", "lon": -76.99026366666666, "bike_id": "e679278c01c8f23af4555a2941e6acfe", "fusion_lat": 0.0, "name": "e679278c01c8f23af4555a2941e6acfe", "is_reserved": 0, "rental_uris": {"android": "https://dc.lft.to/lastmile_qr_scan", "ios": "https://dc.lft.to/lastmile_qr_scan"}, "fusion_lon": 0.0}, {"lat": 38.93381933333333, "is_disabled": 0, "type": "electric_scooter", "lon": -77.03793033333334, "bike_id": "f914dde0cb1caad9e3c08762c0adea0b", "fusion_lat": 0.0, "name": "f914dde0cb1caad9e3c08762c0adea0b", "is_reserved": 0, "rental_uris": {"android": "https://dc.lft.to/lastmile_qr_scan", "ios": "https://dc.lft.to/lastmile_qr_scan"}, "fusion_lon": 0.0}, {"lat": 38.8922355, "is_disabled": 0, "type": "electric_scooter", "lon": -77.02098233333334, "bike_id": "e0129ecea2154852007adb5fb0f2c028", "fusion_lat": 0.0, "name": "e0129ecea2154852007adb5fb0f2c028", "is_reserved": 0, "rental_uris": {"android": "https://dc.lft.to/lastmile_qr_scan", "ios": "https://dc.lft.to/lastmile_qr_scan"}, "fusion_lon": 0.0}, {"lat": 38.923511833333336, "is_disabled": 0, "type": "electric_scooter", "lon": -77.024424, "bike_id": "65f83075be92aa7dd1d32bcf630030d2", "fusion_lat": 0.0, "name": "65f83075be92aa7dd1d32bcf630030d2", "is_reserved": 0, "rental_uris": {"android": "https://dc.lft.to/lastmile_qr_scan", "ios": "https://dc.lft.to/lastmile_qr_scan"}, "fusion_lon": 0.0}, {"lat": 38.922360833333336, "is_disabled": 0, "type": "electric_scooter", "lon": -77.04573116666667, "bike_id": "640840bb94593556c028c8e54bce186c", "fusion_lat": 0.0, "name": "640840bb94593556c028c8e54bce186c", "is_reserved": 0, "rental_uris": {"android": "https://dc.lft.to/lastmile_qr_scan", "ios": "https://dc.lft.to/lastmile_qr_scan"}, "fusion_lon": 0.0}, {"lat": 38.903322833333334, "is_disabled": 0, "type": "electric_scooter", "lon": -77.0375845, "bike_id": "23eda73b97d92892100360b03eaf7ccb", "fusion_lat": 0.0, "name": "23eda73b97d92892100360b03eaf7ccb", "is_reserved": 0, "rental_uris": {"android": "https://dc.lft.to/lastmile_qr_scan", "ios": "https://dc.lft.to/lastmile_qr_scan"}, "fusion_lon": 0.0}, {"lat": 38.972265666666665, "is_disabled": 0, "type": "electric_bike", "lon": -76.99345816666667, "bike_id": "d6397c3369c061ba5628dc7029050170", "fusion_lat": 0.0, "name": "d6397c3369c061ba5628dc7029050170", "is_reserved": 0, "rental_uris": {"android": "https://dc.lft.to/lastmile_qr_scan", "ios": "https://dc.lft.to/lastmile_qr_scan"}, "fusion_lon": 0.0}, {"lat": 38.93320166666667, "is_disabled": 0, "type": "electric_scooter", "lon": -77.045215, "bike_id": "5112e0c913ed3bd3ddc43729dbba6ffa", "fusion_lat": 0.0, "name": "5112e0c913ed3bd3ddc43729dbba6ffa", "is_reserved": 0, "rental_uris": {"android": "https://dc.lft.to/lastmile_qr_scan", "ios": "https://dc.lft.to/lastmile_qr_scan"}, "fusion_lon": 0.0}, {"lat": 38.948971666666665, "is_disabled": 0, "type": "electric_scooter", "lon": -77.03045266666666, "bike_id": "572d02d3cfab43f81d0e2e573a048c0c", "fusion_lat": 0.0, "name": "572d02d3cfab43f81d0e2e573a048c0c", "is_reserved": 0, "rental_uris": {"android": "https://dc.lft.to/lastmile_qr_scan", "ios": "https://dc.lft.to/lastmile_qr_scan"}, "fusion_lon": 0.0}, {"lat": 38.88547333333333, "is_disabled": 0, "type": "electric_bike", "lon": -77.11785033333334, "bike_id": "80a2c212ebcb7c0c4e131342710b71c9", "fusion_lat": 0.0, "name": "80a2c212ebcb7c0c4e131342710b71c9", "is_reserved": 0, "rental_uris": {"android": "https://dc.lft.to/lastmile_qr_scan", "ios": "https://dc.lft.to/lastmile_qr_scan"}, "fusion_lon": 0.0}, {"lat": 38.9054605, "is_disabled": 0, "type": "electric_scooter", "lon": -77.0049495, "bike_id": "834de22d478162b09a3b2fc626e17199", "fusion_lat": 0.0, "name": "834de22d478162b09a3b2fc626e17199", "is_reserved": 0, "rental_uris": {"android": "https://dc.lft.to/lastmile_qr_scan", "ios": "https://dc.lft.to/lastmile_qr_scan"}, "fusion_lon": 0.0}, {"lat": 38.94821666666667, "is_disabled": 0, "type": "electric_scooter", "lon": -76.99904833333333, "bike_id": "4df0c20dff4c8772eed7af8239d833e9", "fusion_lat": 0.0, "name": "4df0c20dff4c8772eed7af8239d833e9", "is_reserved": 0, "rental_uris": {"android": "https://dc.lft.to/lastmile_qr_scan", "ios": "https://dc.lft.to/lastmile_qr_scan"}, "fusion_lon": 0.0}, {"lat": 38.88440516666667, "is_disabled": 0, "type": "electric_scooter", "lon": -76.929539, "bike_id": "d7846b5319a93d9a515286529f7061b6", "fusion_lat": 0.0, "name": "d7846b5319a93d9a515286529f7061b6", "is_reserved": 0, "rental_uris": {"android": "https://dc.lft.to/lastmile_qr_scan", "ios": "https://dc.lft.to/lastmile_qr_scan"}, "fusion_lon": 0.0}, {"lat": 38.9063705, "is_disabled": 0, "type": "electric_scooter", "lon": -77.00836333333334, "bike_id": "e1f2e9e5080c36c8919815a985f13688", "fusion_lat": 0.0, "name": "e1f2e9e5080c36c8919815a985f13688", "is_reserved": 0, "rental_uris": {"android": "https://dc.lft.to/lastmile_qr_scan", "ios": "https://dc.lft.to/lastmile_qr_scan"}, "fusion_lon": 0.0}, {"lat": 38.88677966666667, "is_disabled": 0, "type": "electric_bike", "lon": -77.16235966666666, "bike_id": "641a1d36cb792da4fb78bc10effa3c90", "fusion_lat": 0.0, "name": "641a1d36cb792da4fb78bc10effa3c90", "is_reserved": 0, "rental_uris": {"android": "https://dc.lft.to/lastmile_qr_scan", "ios": "https://dc.lft.to/lastmile_qr_scan"}, "fusion_lon": 0.0}, {"lat": 38.9337595, "is_disabled": 0, "type": "electric_scooter", "lon": -77.03558883333334, "bike_id": "2bb0f678b9e8c0903038a1a19b076ba8", "fusion_lat": 0.0, "name": "2bb0f678b9e8c0903038a1a19b076ba8", "is_reserved": 0, "rental_uris": {"android": "https://dc.lft.to/lastmile_qr_scan", "ios": "https://dc.lft.to/lastmile_qr_scan"}, "fusion_lon": 0.0}, {"lat": 38.90395733333333, "is_disabled": 0, "type": "electric_scooter", "lon": -76.99002783333333, "bike_id": "0786ff3a7561f2979dca511ef2d3b63a", "fusion_lat": 0.0, "name": "0786ff3a7561f2979dca511ef2d3b63a", "is_reserved": 0, "rental_uris": {"android": "https://dc.lft.to/lastmile_qr_scan", "ios": "https://dc.lft.to/lastmile_qr_scan"}, "fusion_lon": 0.0}, {"lat": 38.886007666666664, "is_disabled": 0, "type": "electric_scooter", "lon": -77.018914, "bike_id": "8b2c96e2198a1c4e73292d7b3db101c7", "fusion_lat": 0.0, "name": "8b2c96e2198a1c4e73292d7b3db101c7", "is_reserved": 0, "rental_uris": {"android": "https://dc.lft.to/lastmile_qr_scan", "ios": "https://dc.lft.to/lastmile_qr_scan"}, "fusion_lon": 0.0}, {"lat": 38.919628333333335, "is_disabled": 0, "type": "electric_scooter", "lon": -77.01437416666667, "bike_id": "2d20486c3b923cbf58187ea1cb854d88", "fusion_lat": 0.0, "name": "2d20486c3b923cbf58187ea1cb854d88", "is_reserved": 0, "rental_uris": {"android": "https://dc.lft.to/lastmile_qr_scan", "ios": "https://dc.lft.to/lastmile_qr_scan"}, "fusion_lon": 0.0}, {"lat": 38.957064333333335, "is_disabled": 0, "type": "electric_scooter", "lon": -77.02395983333334, "bike_id": "3ebde9b300e43f300048f7467cdb6c1c", "fusion_lat": 0.0, "name": "3ebde9b300e43f300048f7467cdb6c1c", "is_reserved": 0, "rental_uris": {"android": "https://dc.lft.to/lastmile_qr_scan", "ios": "https://dc.lft.to/lastmile_qr_scan"}, "fusion_lon": 0.0}, {"lat": 38.915320333333334, "is_disabled": 0, "type": "electric_scooter", "lon": -77.03205166666666, "bike_id": "d1c8792a99427803245e3bb7e0648a44", "fusion_lat": 0.0, "name": "d1c8792a99427803245e3bb7e0648a44", "is_reserved": 0, "rental_uris": {"android": "https://dc.lft.to/lastmile_qr_scan", "ios": "https://dc.lft.to/lastmile_qr_scan"}, "fusion_lon": 0.0}, {"lat": 38.89996416666666, "is_disabled": 0, "type": "electric_scooter", "lon": -77.04226683333333, "bike_id": "e6755c49edd518751c6172ed2294d32d", "fusion_lat": 0.0, "name": "e6755c49edd518751c6172ed2294d32d", "is_reserved": 0, "rental_uris": {"android": "https://dc.lft.to/lastmile_qr_scan", "ios": "https://dc.lft.to/lastmile_qr_scan"}, "fusion_lon": 0.0}, {"lat": 38.9342815, "is_disabled": 0, "type": "electric_scooter", "lon": -76.965064, "bike_id": "8067c3bd10a12afab8d74ec3e2293948", "fusion_lat": 0.0, "name": "8067c3bd10a12afab8d74ec3e2293948", "is_reserved": 0, "rental_uris": {"android": "https://dc.lft.to/lastmile_qr_scan", "ios": "https://dc.lft.to/lastmile_qr_scan"}, "fusion_lon": 0.0}, {"lat": 38.926081833333335, "is_disabled": 0, "type": "electric_scooter", "lon": -77.05686233333333, "bike_id": "a13186fc22bd0f5c48492617855b054e", "fusion_lat": 0.0, "name": "a13186fc22bd0f5c48492617855b054e", "is_reserved": 0, "rental_uris": {"android": "https://dc.lft.to/lastmile_qr_scan", "ios": "https://dc.lft.to/lastmile_qr_scan"}, "fusion_lon": 0.0}, {"lat": 38.9218455, "is_disabled": 0, "type": "electric_scooter", "lon": -77.04705516666667, "bike_id": "c4fb12717e4f0e86d625afe276a719b0", "fusion_lat": 0.0, "name": "c4fb12717e4f0e86d625afe276a719b0", "is_reserved": 0, "rental_uris": {"android": "https://dc.lft.to/lastmile_qr_scan", "ios": "https://dc.lft.to/lastmile_qr_scan"}, "fusion_lon": 0.0}, {"lat": 38.937433666666664, "is_disabled": 0, "type": "electric_scooter", "lon": -77.03470716666666, "bike_id": "1f33c38295bab85e8a9a78f56b680d63", "fusion_lat": 0.0, "name": "1f33c38295bab85e8a9a78f56b680d63", "is_reserved": 0, "rental_uris": {"android": "https://dc.lft.to/lastmile_qr_scan", "ios": "https://dc.lft.to/lastmile_qr_scan"}, "fusion_lon": 0.0}, {"lat": 38.88578033333334, "is_disabled": 0, "type": "electric_scooter", "lon": -76.9190605, "bike_id": "866bb85d59981130d4e83b6ed768f218", "fusion_lat": 0.0, "name": "866bb85d59981130d4e83b6ed768f218", "is_reserved": 0, "rental_uris": {"android": "https://dc.lft.to/lastmile_qr_scan", "ios": "https://dc.lft.to/lastmile_qr_scan"}, "fusion_lon": 0.0}, {"lat": 38.9540135, "is_disabled": 0, "type": "electric_scooter", "lon": -77.02747083333334, "bike_id": "d2c5a5d4da41e5a0b4602ec5c5dfc3c3", "fusion_lat": 0.0, "name": "d2c5a5d4da41e5a0b4602ec5c5dfc3c3", "is_reserved": 0, "rental_uris": {"android": "https://dc.lft.to/lastmile_qr_scan", "ios": "https://dc.lft.to/lastmile_qr_scan"}, "fusion_lon": 0.0}, {"lat": 38.92250833333333, "is_disabled": 0, "type": "electric_scooter", "lon": -77.03082433333333, "bike_id": "36fc1ea8d5b521d43c0eda91bf4c6f37", "fusion_lat": 0.0, "name": "36fc1ea8d5b521d43c0eda91bf4c6f37", "is_reserved": 0, "rental_uris": {"android": "https://dc.lft.to/lastmile_qr_scan", "ios": "https://dc.lft.to/lastmile_qr_scan"}, "fusion_lon": 0.0}, {"lat": 38.927308333333336, "is_disabled": 0, "type": "electric_scooter", "lon": -77.0259665, "bike_id": "17cda8e7293ed6a751e22ac025d1db9f", "fusion_lat": 0.0, "name": "17cda8e7293ed6a751e22ac025d1db9f", "is_reserved": 0, "rental_uris": {"android": "https://dc.lft.to/lastmile_qr_scan", "ios": "https://dc.lft.to/lastmile_qr_scan"}, "fusion_lon": 0.0}, {"lat": 38.9140255, "is_disabled": 0, "type": "electric_scooter", "lon": -77.02606583333333, "bike_id": "e45e45e504a84c0d4a61d0f14a4d265a", "fusion_lat": 0.0, "name": "e45e45e504a84c0d4a61d0f14a4d265a", "is_reserved": 0, "rental_uris": {"android": "https://dc.lft.to/lastmile_qr_scan", "ios": "https://dc.lft.to/lastmile_qr_scan"}, "fusion_lon": 0.0}, {"lat": 38.92083566666667, "is_disabled": 0, "type": "electric_scooter", "lon": -77.04198016666666, "bike_id": "d8578e439025f86e8eda5cf8772f480d", "fusion_lat": 0.0, "name": "d8578e439025f86e8eda5cf8772f480d", "is_reserved": 0, "rental_uris": {"android": "https://dc.lft.to/lastmile_qr_scan", "ios": "https://dc.lft.to/lastmile_qr_scan"}, "fusion_lon": 0.0}, {"lat": 38.89846933333333, "is_disabled": 0, "type": "electric_scooter", "lon": -76.9817965, "bike_id": "8c59b2c0a59e9922f3855e5038c6eaf7", "fusion_lat": 0.0, "name": "8c59b2c0a59e9922f3855e5038c6eaf7", "is_reserved": 0, "rental_uris": {"android": "https://dc.lft.to/lastmile_qr_scan", "ios": "https://dc.lft.to/lastmile_qr_scan"}, "fusion_lon": 0.0}, {"lat": 38.90309833333333, "is_disabled": 0, "type": "electric_scooter", "lon": -76.99353916666666, "bike_id": "852c91041c2ab33ad4bc666fdcdeff2f", "fusion_lat": 0.0, "name": "852c91041c2ab33ad4bc666fdcdeff2f", "is_reserved": 0, "rental_uris": {"android": "https://dc.lft.to/lastmile_qr_scan", "ios": "https://dc.lft.to/lastmile_qr_scan"}, "fusion_lon": 0.0}, {"lat": 38.88489583333333, "is_disabled": 0, "type": "electric_scooter", "lon": -77.00719266666667, "bike_id": "52568890b01b06ac1e5dd4c5e5ad7842", "fusion_lat": 0.0, "name": "52568890b01b06ac1e5dd4c5e5ad7842", "is_reserved": 0, "rental_uris": {"android": "https://dc.lft.to/lastmile_qr_scan", "ios": "https://dc.lft.to/lastmile_qr_scan"}, "fusion_lon": 0.0}, {"lat": 38.92152266666667, "is_disabled": 0, "type": "electric_scooter", "lon": -77.0350275, "bike_id": "59e431f15213047fa292838badce3722", "fusion_lat": 0.0, "name": "59e431f15213047fa292838badce3722", "is_reserved": 0, "rental_uris": {"android": "https://dc.lft.to/lastmile_qr_scan", "ios": "https://dc.lft.to/lastmile_qr_scan"}, "fusion_lon": 0.0}, {"lat": 38.87300583333333, "is_disabled": 0, "type": "electric_scooter", "lon": -77.0093075, "bike_id": "9224763f7040d6008d0f298583b2a723", "fusion_lat": 0.0, "name": "9224763f7040d6008d0f298583b2a723", "is_reserved": 0, "rental_uris": {"android": "https://dc.lft.to/lastmile_qr_scan", "ios": "https://dc.lft.to/lastmile_qr_scan"}, "fusion_lon": 0.0}, {"lat": 38.95328, "is_disabled": 0, "type": "electric_scooter", "lon": -77.0275545, "bike_id": "cb588dd71d33dfdf39771e4d5a7225a3", "fusion_lat": 0.0, "name": "cb588dd71d33dfdf39771e4d5a7225a3", "is_reserved": 0, "rental_uris": {"android": "https://dc.lft.to/lastmile_qr_scan", "ios": "https://dc.lft.to/lastmile_qr_scan"}, "fusion_lon": 0.0}, {"lat": 38.90558216666667, "is_disabled": 0, "type": "electric_scooter", "lon": -77.02975683333334, "bike_id": "66d258ea31b7e72e3f9c3ee1bc7a9018", "fusion_lat": 0.0, "name": "66d258ea31b7e72e3f9c3ee1bc7a9018", "is_reserved": 0, "rental_uris": {"android": "https://dc.lft.to/lastmile_qr_scan", "ios": "https://dc.lft.to/lastmile_qr_scan"}, "fusion_lon": 0.0}, {"lat": 38.96021866666667, "is_disabled": 0, "type": "electric_bike", "lon": -77.0172525, "bike_id": "896e547507cb468e2b38d5261fc03400", "fusion_lat": 0.0, "name": "896e547507cb468e2b38d5261fc03400", "is_reserved": 0, "rental_uris": {"android": "https://dc.lft.to/lastmile_qr_scan", "ios": "https://dc.lft.to/lastmile_qr_scan"}, "fusion_lon": 0.0}, {"lat": 38.807503, "is_disabled": 0, "type": "electric_bike", "lon": -77.09478883333334, "bike_id": "55c2dd08c91b567c3325908611877194", "fusion_lat": 0.0, "name": "55c2dd08c91b567c3325908611877194", "is_reserved": 0, "rental_uris": {"android": "https://dc.lft.to/lastmile_qr_scan", "ios": "https://dc.lft.to/lastmile_qr_scan"}, "fusion_lon": 0.0}, {"lat": 38.9343225, "is_disabled": 0, "type": "electric_scooter", "lon": -77.03448066666667, "bike_id": "a1ef202ed01b5cbbc5f637ac0ba0c3ff", "fusion_lat": 0.0, "name": "a1ef202ed01b5cbbc5f637ac0ba0c3ff", "is_reserved": 0, "rental_uris": {"android": "https://dc.lft.to/lastmile_qr_scan", "ios": "https://dc.lft.to/lastmile_qr_scan"}, "fusion_lon": 0.0}, {"lat": 39.02933616666667, "is_disabled": 0, "type": "electric_bike", "lon": -77.0492675, "bike_id": "9bbfe0d77b8e67e6f8eaa69e2368096f", "fusion_lat": 0.0, "name": "9bbfe0d77b8e67e6f8eaa69e2368096f", "is_reserved": 0, "rental_uris": {"android": "https://dc.lft.to/lastmile_qr_scan", "ios": "https://dc.lft.to/lastmile_qr_scan"}, "fusion_lon": 0.0}, {"lat": 38.935308, "is_disabled": 0, "type": "electric_bike", "lon": -77.05693966666666, "bike_id": "3e68e1313b936587292902a0414bc1c8", "fusion_lat": 0.0, "name": "3e68e1313b936587292902a0414bc1c8", "is_reserved": 0, "rental_uris": {"android": "https://dc.lft.to/lastmile_qr_scan", "ios": "https://dc.lft.to/lastmile_qr_scan"}, "fusion_lon": 0.0}, {"lat": 38.884684666666665, "is_disabled": 0, "type": "electric_scooter", "lon": -76.992587, "bike_id": "dbc1f585675ce50d319f804926b60fe4", "fusion_lat": 0.0, "name": "dbc1f585675ce50d319f804926b60fe4", "is_reserved": 0, "rental_uris": {"android": "https://dc.lft.to/lastmile_qr_scan", "ios": "https://dc.lft.to/lastmile_qr_scan"}, "fusion_lon": 0.0}, {"lat": 38.909740666666664, "is_disabled": 0, "type": "electric_bike", "lon": -77.08821766666667, "bike_id": "9592e5f42089053dca90813f68877d25", "fusion_lat": 0.0, "name": "9592e5f42089053dca90813f68877d25", "is_reserved": 0, "rental_uris": {"android": "https://dc.lft.to/lastmile_qr_scan", "ios": "https://dc.lft.to/lastmile_qr_scan"}, "fusion_lon": 0.0}, {"lat": 38.9155785, "is_disabled": 0, "type": "electric_scooter", "lon": -77.0104875, "bike_id": "a36d49ec80363dac110eae681eb8fb20", "fusion_lat": 0.0, "name": "a36d49ec80363dac110eae681eb8fb20", "is_reserved": 0, "rental_uris": {"android": "https://dc.lft.to/lastmile_qr_scan", "ios": "https://dc.lft.to/lastmile_qr_scan"}, "fusion_lon": 0.0}, {"lat": 38.92472816666667, "is_disabled": 0, "type": "electric_bike", "lon": -77.0375885, "bike_id": "7098e6f96fea544b439e2252349c2e24", "fusion_lat": 0.0, "name": "7098e6f96fea544b439e2252349c2e24", "is_reserved": 0, "rental_uris": {"android": "https://dc.lft.to/lastmile_qr_scan", "ios": "https://dc.lft.to/lastmile_qr_scan"}, "fusion_lon": 0.0}, {"lat": 38.932969166666666, "is_disabled": 0, "type": "electric_scooter", "lon": -77.0453505, "bike_id": "75ea7f94ddca157c975bed99d8b78c57", "fusion_lat": 0.0, "name": "75ea7f94ddca157c975bed99d8b78c57", "is_reserved": 0, "rental_uris": {"android": "https://dc.lft.to/lastmile_qr_scan", "ios": "https://dc.lft.to/lastmile_qr_scan"}, "fusion_lon": 0.0}, {"lat": 38.98430666666667, "is_disabled": 0, "type": "electric_scooter", "lon": -77.02673616666667, "bike_id": "95b3cb23c27de98ecf1c84d21f8ca057", "fusion_lat": 0.0, "name": "95b3cb23c27de98ecf1c84d21f8ca057", "is_reserved": 0, "rental_uris": {"android": "https://dc.lft.to/lastmile_qr_scan", "ios": "https://dc.lft.to/lastmile_qr_scan"}, "fusion_lon": 0.0}, {"lat": 38.91463783333333, "is_disabled": 0, "type": "electric_scooter", "lon": -77.01433966666667, "bike_id": "45ca66e40a67d06cda3f518db36ec5e9", "fusion_lat": 0.0, "name": "45ca66e40a67d06cda3f518db36ec5e9", "is_reserved": 0, "rental_uris": {"android": "https://dc.lft.to/lastmile_qr_scan", "ios": "https://dc.lft.to/lastmile_qr_scan"}, "fusion_lon": 0.0}, {"lat": 38.877292, "is_disabled": 0, "type": "electric_scooter", "lon": -77.00273666666666, "bike_id": "b5395156f308b4841438de74bc2c665d", "fusion_lat": 0.0, "name": "b5395156f308b4841438de74bc2c665d", "is_reserved": 0, "rental_uris": {"android": "https://dc.lft.to/lastmile_qr_scan", "ios": "https://dc.lft.to/lastmile_qr_scan"}, "fusion_lon": 0.0}, {"lat": 38.87074716666667, "is_disabled": 0, "type": "electric_bike", "lon": -76.97841666666666, "bike_id": "69393b05d9704bfef4a095194d962504", "fusion_lat": 0.0, "name": "69393b05d9704bfef4a095194d962504", "is_reserved": 0, "rental_uris": {"android": "https://dc.lft.to/lastmile_qr_scan", "ios": "https://dc.lft.to/lastmile_qr_scan"}, "fusion_lon": 0.0}, {"lat": 38.88796283333333, "is_disabled": 0, "type": "electric_scooter", "lon": -76.9336075, "bike_id": "027f9df080e5079832ed85ee1b72ca3c", "fusion_lat": 0.0, "name": "027f9df080e5079832ed85ee1b72ca3c", "is_reserved": 0, "rental_uris": {"android": "https://dc.lft.to/lastmile_qr_scan", "ios": "https://dc.lft.to/lastmile_qr_scan"}, "fusion_lon": 0.0}, {"lat": 38.92349683333333, "is_disabled": 0, "type": "electric_scooter", "lon": -77.05426366666667, "bike_id": "c3730aecda19ab385e925e9710930d46", "fusion_lat": 0.0, "name": "c3730aecda19ab385e925e9710930d46", "is_reserved": 0, "rental_uris": {"android": "https://dc.lft.to/lastmile_qr_scan", "ios": "https://dc.lft.to/lastmile_qr_scan"}, "fusion_lon": 0.0}, {"lat": 38.82786766666667, "is_disabled": 0, "type": "electric_bike", "lon": -77.00912983333333, "bike_id": "ffc1104861e302900d258f76f90ec3cf", "fusion_lat": 0.0, "name": "ffc1104861e302900d258f76f90ec3cf", "is_reserved": 0, "rental_uris": {"android": "https://dc.lft.to/lastmile_qr_scan", "ios": "https://dc.lft.to/lastmile_qr_scan"}, "fusion_lon": 0.0}, {"lat": 38.912580166666665, "is_disabled": 0, "type": "electric_scooter", "lon": -77.07113083333333, "bike_id": "45567e973b06ec2cea507244835cd6c7", "fusion_lat": 0.0, "name": "45567e973b06ec2cea507244835cd6c7", "is_reserved": 0, "rental_uris": {"android": "https://dc.lft.to/lastmile_qr_scan", "ios": "https://dc.lft.to/lastmile_qr_scan"}, "fusion_lon": 0.0}, {"lat": 38.894959666666665, "is_disabled": 0, "type": "electric_scooter", "lon": -77.00209166666667, "bike_id": "5b45edc5521064e78c7b3e165f940961", "fusion_lat": 0.0, "name": "5b45edc5521064e78c7b3e165f940961", "is_reserved": 0, "rental_uris": {"android": "https://dc.lft.to/lastmile_qr_scan", "ios": "https://dc.lft.to/lastmile_qr_scan"}, "fusion_lon": 0.0}, {"lat": 38.92030183333333, "is_disabled": 0, "type": "electric_scooter", "lon": -77.013205, "bike_id": "c6b58d56c70081e5643fd5343295e0ea", "fusion_lat": 0.0, "name": "c6b58d56c70081e5643fd5343295e0ea", "is_reserved": 0, "rental_uris": {"android": "https://dc.lft.to/lastmile_qr_scan", "ios": "https://dc.lft.to/lastmile_qr_scan"}, "fusion_lon": 0.0}, {"lat": 38.9260545, "is_disabled": 0, "type": "electric_scooter", "lon": -77.0418735, "bike_id": "e31df16f3afd59f1dc315483e0fa1d72", "fusion_lat": 0.0, "name": "e31df16f3afd59f1dc315483e0fa1d72", "is_reserved": 0, "rental_uris": {"android": "https://dc.lft.to/lastmile_qr_scan", "ios": "https://dc.lft.to/lastmile_qr_scan"}, "fusion_lon": 0.0}, {"lat": 38.8973995, "is_disabled": 0, "type": "electric_scooter", "lon": -77.023846, "bike_id": "d80d8d3360b89235c60ad10b98f657d6", "fusion_lat": 0.0, "name": "d80d8d3360b89235c60ad10b98f657d6", "is_reserved": 0, "rental_uris": {"android": "https://dc.lft.to/lastmile_qr_scan", "ios": "https://dc.lft.to/lastmile_qr_scan"}, "fusion_lon": 0.0}, {"lat": 38.90829933333333, "is_disabled": 0, "type": "electric_scooter", "lon": -77.03487516666667, "bike_id": "86a8fab85bf61bc9d2b60f87c0605d84", "fusion_lat": 0.0, "name": "86a8fab85bf61bc9d2b60f87c0605d84", "is_reserved": 0, "rental_uris": {"android": "https://dc.lft.to/lastmile_qr_scan", "ios": "https://dc.lft.to/lastmile_qr_scan"}, "fusion_lon": 0.0}, {"lat": 38.911902833333336, "is_disabled": 0, "type": "electric_scooter", "lon": -77.02334816666666, "bike_id": "1c996a9d760f1c9b2c8cdc2675a66701", "fusion_lat": 0.0, "name": "1c996a9d760f1c9b2c8cdc2675a66701", "is_reserved": 0, "rental_uris": {"android": "https://dc.lft.to/lastmile_qr_scan", "ios": "https://dc.lft.to/lastmile_qr_scan"}, "fusion_lon": 0.0},