{"data": {"bikes": [{"name": "2fa9f03eb26e528c8a540dbbf73e6b00", "fusion_lat": 0.0, "fusion_lon": 0.0, "bike_id": "2fa9f03eb26e528c8a540dbbf73e6b00", "rental_uris": {"ios": "https://dc.lft.to/lastmile_qr_scan", "android": "https://dc.lft.to/lastmile_qr_scan"}, "type": "electric_scooter", "lat": 38.921541166666664, "is_disabled": 0, "lon": -77.04589466666667, "is_reserved": 0}, {"name": "7092c84b4b299ecf2c88f4dccf08cfc8", "fusion_lat": 0.0, "fusion_lon": 0.0, "bike_id": "7092c84b4b299ecf2c88f4dccf08cfc8", "rental_uris": {"ios": "https://dc.lft.to/lastmile_qr_scan", "android": "https://dc.lft.to/lastmile_qr_scan"}, "type": "electric_scooter", "lat": 38.9026735, "is_disabled": 0, "lon": -77.03626583333333, "is_reserved": 0}, {"name": "1bcee9f03238deb4311c7d15f3f365d9", "fusion_lat": 0.0, "fusion_lon": 0.0, "bike_id": "1bcee9f03238deb4311c7d15f3f365d9", "rental_uris": {"ios": "https://dc.lft.to/lastmile_qr_scan", "android": "https://dc.lft.to/lastmile_qr_scan"}, "type": "electric_scooter", "lat": 38.8910175, "is_disabled": 0, "lon": -77.00618433333334, "is_reserved": 0}, {"name": "f7fc2ebd9f1b338c214b33d31ff25589", "fusion_lat": 0.0, "fusion_lon": 0.0, "bike_id": "f7fc2ebd9f1b338c214b33d31ff25589", "rental_uris": {"ios": "https://dc.lft.to/lastmile_qr_scan", "android": "https://dc.lft.to/lastmile_qr_scan"}, "type": "electric_scooter", "lat": 38.90968816666667, "is_disabled": 0, "lon": -77.0483055, "is_reserved": 0}, {"name": "aadad583b2b6015d4113b2c7ece1568c", "fusion_lat": 0.0, "fusion_lon": 0.0, "bike_id": "aadad583b2b6015d4113b2c7ece1568c", "rental_uris": {"ios": "https://dc.lft.to/lastmile_qr_scan", "android": "https://dc.lft.to/lastmile_qr_scan"}, "type": "electric_scooter", "lat": 38.91567783333333, "is_disabled": 0, "lon": -77.038617, "is_reserved": 0}, {"name": "aeb08ad101b2603af4124b79bab29f10", "fusion_lat": 0.0, "fusion_lon": 0.0, "bike_id": "aeb08ad101b2603af4124b79bab29f10", "rental_uris": {"ios": "https://dc.lft.to/lastmile_qr_scan", "android": "https://dc.lft.to/lastmile_qr_scan"}, "type": "electric_bike", "lat": 38.984990333333336, "is_disabled": 0, "lon": -76.98196566666667, "is_reserved": 0}, {"name": "0565cf5ba7928a6783bd88ad09793d47", "fusion_lat": 0.0, "fusion_lon": 0.0, "bike_id": "0565cf5ba7928a6783bd88ad09793d47", "rental_uris": {"ios": "https://dc.lft.to/lastmile_qr_scan", "android": "https://dc.lft.to/lastmile_qr_scan"}, "type": "electric_scooter", "lat": 38.8995925, "is_disabled": 0, "lon": -77.029814, "is_reserved": 0}, {"name": "134aff171e7eed39987e55a964701d03", "fusion_lat": 0.0, "fusion_lon": 0.0, "bike_id": "134aff171e7eed39987e55a964701d03", "rental_uris": {"ios": "https://dc.lft.to/lastmile_qr_scan", "android": "https://dc.lft.to/lastmile_qr_scan"}, "type": "electric_scooter", "lat": 38.91579333333333, "is_disabled": 0, "lon": -77.046739, "is_reserved": 0}, {"name": "113cdb93ffe622669e4fe75535517ff1", "fusion_lat": 0.0, "fusion_lon": 0.0, "bike_id": "113cdb93ffe622669e4fe75535517ff1", "rental_uris": {"ios": "https://dc.lft.to/lastmile_qr_scan", "android": "https://dc.lft.to/lastmile_qr_scan"}, "type": "electric_scooter", "lat": 38.89868083333333, "is_disabled": 0, "lon": -77.01626966666667, "is_reserved": 0}, {"name": "f2a393a7e28a31df67f8ccfab6e46bdb", "fusion_lat": 0.0, "fusion_lon": 0.0, "bike_id": "f2a393a7e28a31df67f8ccfab6e46bdb", "rental_uris": {"ios": "https://dc.lft.to/lastmile_qr_scan", "android": "https://dc.lft.to/lastmile_qr_scan"}, "type": "electric_scooter", "lat": 38.924612833333335, "is_disabled": 0, "lon": -76.99737466666667, "is_reserved": 0}, {"name": "0f6ae1eb08f44e887b3558ee2d8e0c4c", "fusion_lat": 0.0, "fusion_lon": 0.0, "bike_id": "0f6ae1eb08f44e887b3558ee2d8e0c4c", "rental_uris": {"ios": "https://dc.lft.to/lastmile_qr_scan", "android": "https://dc.lft.to/lastmile_qr_scan"}, "type": "electric_scooter", "lat": 38.93907516666667, "is_disabled": 0, "lon": -77.0246325, "is_reserved": 0}, {"name": "1c17686074407d2a73d49a4324497557", "fusion_lat": 0.0, "fusion_lon": 0.0, "bike_id": "1c17686074407d2a73d49a4324497557", "rental_uris": {"ios": "https://dc.lft.to/lastmile_qr_scan", "android": "https://dc.lft.to/lastmile_qr_scan"}, "type": "electric_scooter", "lat": 38.901370666666665, "is_disabled": 0, "lon": -77.0439755, "is_reserved": 0}, {"name": "eea7f04f67a9aa0ba4aad1c4f4e12c8b", "fusion_lat": 0.0, "fusion_lon": 0.0, "bike_id": "eea7f04f67a9aa0ba4aad1c4f4e12c8b", "rental_uris": {"ios": "https://dc.lft.to/lastmile_qr_scan", "android": "https://dc.lft.to/lastmile_qr_scan"}, "type": "electric_bike", "lat": 38.950047833333336, "is_disabled": 0, "lon": -77.35308733333333, "is_reserved": 0}, {"name": "a6892d3c72990511a35c4196264b03a3", "fusion_lat": 0.0, "fusion_lon": 0.0, "bike_id": "a6892d3c72990511a35c4196264b03a3", "rental_uris": {"ios": "https://dc.lft.to/lastmile_qr_scan", "android": "https://dc.lft.to/lastmile_qr_scan"}, "type": "electric_scooter", "lat": 38.912202, "is_disabled": 0, "lon": -77.03859266666667, "is_reserved": 0}, {"name": "ff51d4d2b94254e93637069af6ebe688", "fusion_lat": 0.0, "fusion_lon": 0.0, "bike_id": "ff51d4d2b94254e93637069af6ebe688", "rental_uris": {"ios": "https://dc.lft.to/lastmile_qr_scan", "android": "https://dc.lft.to/lastmile_qr_scan"}, "type": "electric_scooter", "lat": 38.892256833333334, "is_disabled": 0, "lon": -77.02585416666666, "is_reserved": 0}, {"name": "ba4868f79fb01d6c378a4125b1933ac3", "fusion_lat": 0.0, "fusion_lon": 0.0, "bike_id": "ba4868f79fb01d6c378a4125b1933ac3", "rental_uris": {"ios": "https://dc.lft.to/lastmile_qr_scan", "android": "https://dc.lft.to/lastmile_qr_scan"}, "type": "electric_scooter", "lat": 38.9057685, "is_disabled": 0, "lon": -77.0088735, "is_reserved": 0}, {"name": "c16e272dda2e0daa73953b0a912e8cc4", "fusion_lat": 0.0, "fusion_lon": 0.0, "bike_id": "c16e272dda2e0daa73953b0a912e8cc4", "rental_uris": {"ios": "https://dc.lft.to/lastmile_qr_scan", "android": "https://dc.lft.to/lastmile_qr_scan"}, "type": "electric_scooter", "lat": 38.9181555, "is_disabled": 0, "lon": -77.026923, "is_reserved": 0}, {"name": "10f85986a86c1155db739877b4f13198", "fusion_lat": 0.0, "fusion_lon": 0.0, "bike_id": "10f85986a86c1155db739877b4f13198", "rental_uris": {"ios": "https://dc.lft.to/lastmile_qr_scan", "android": "https://dc.lft.to/lastmile_qr_scan"}, "type": "electric_scooter", "lat": 38.92782016666666, "is_disabled": 0, "lon": -77.02728366666666, "is_reserved": 0}, {"name": "139284b817959a63af4d7a399c5a8f68", "fusion_lat": 0.0, "fusion_lon": 0.0, "bike_id": "139284b817959a63af4d7a399c5a8f68", "rental_uris": {"ios": "https://dc.lft.to/lastmile_qr_scan", "android": "https://dc.lft.to/lastmile_qr_scan"}, "type": "electric_scooter", "lat": 38.92784916666667, "is_disabled": 0, "lon": -77.02745516666667, "is_reserved": 0}, {"name": "89d7187112853f62fa391abba8c1a475", "fusion_lat": 0.0, "fusion_lon": 0.0, "bike_id": "89d7187112853f62fa391abba8c1a475", "rental_uris": {"ios": "https://dc.lft.to/lastmile_qr_scan", "android": "https://dc.lft.to/lastmile_qr_scan"}, "type": "electric_scooter", "lat": 38.900039666666665, "is_disabled": 0, "lon": -77.032916, "is_reserved": 0}, {"name": "78f5a85e8703f271570b1a457d48be25", "fusion_lat": 0.0, "fusion_lon": 0.0, "bike_id": "78f5a85e8703f271570b1a457d48be25", "rental_uris": {"ios": "https://dc.lft.to/lastmile_qr_scan", "android": "https://dc.lft.to/lastmile_qr_scan"}, "type": "electric_scooter", "lat": 38.87457216666667, "is_disabled": 0, "lon": -77.00505066666666, "is_reserved": 0}, {"name": "6009590807103fc6affbfa0747fdb4d9", "fusion_lat": 0.0, "fusion_lon": 0.0, "bike_id": "6009590807103fc6affbfa0747fdb4d9", "rental_uris": {"ios": "https://dc.lft.to/lastmile_qr_scan", "android": "https://dc.lft.to/lastmile_qr_scan"}, "type": "electric_scooter", "lat": 38.898490833333334, "is_disabled": 0, "lon": -76.99037266666667, "is_reserved": 0}, {"name": "f4807149c4d43a09f98980aabdbec0cf", "fusion_lat": 0.0, "fusion_lon": 0.0, "bike_id": "f4807149c4d43a09f98980aabdbec0cf", "rental_uris": {"ios": "https://dc.lft.to/lastmile_qr_scan", "android": "https://dc.lft.to/lastmile_qr_scan"}, "type": "electric_scooter", "lat": 38.92741816666667, "is_disabled": 0, "lon": -77.05377516666667, "is_reserved": 0}, {"name": "ae2c27a3310c3658068e4d46fcb690f3", "fusion_lat": 0.0, "fusion_lon": 0.0, "bike_id": "ae2c27a3310c3658068e4d46fcb690f3", "rental_uris": {"ios": "https://dc.lft.to/lastmile_qr_scan", "android": "https://dc.lft.to/lastmile_qr_scan"}, "type": "electric_scooter", "lat": 38.91378816666667, "is_disabled": 0, "lon": -77.01710866666667, "is_reserved": 0}, {"name": "8824c9a7549f52b2a9d9dc797d970303", "fusion_lat": 0.0, "fusion_lon": 0.0, "bike_id": "8824c9a7549f52b2a9d9dc797d970303", "rental_uris": {"ios": "https://dc.lft.to/lastmile_qr_scan", "android": "https://dc.lft.to/lastmile_qr_scan"}, "type": "electric_scooter", "lat": 38.90719433333334, "is_disabled": 0, "lon": -77.0385915, "is_reserved": 0}, {"name": "e7716ca32a46050ad7db3980a638c237", "fusion_lat": 0.0, "fusion_lon": 0.0, "bike_id": "e7716ca32a46050ad7db3980a638c237", "rental_uris": {"ios": "https://dc.lft.to/lastmile_qr_scan", "android": "https://dc.lft.to/lastmile_qr_scan"}, "type": "electric_scooter", "lat": 38.91906433333333, "is_disabled": 0, "lon": -77.0175525, "is_reserved": 0}, {"name": "16c284d55abec9ccf312e9a984d283cd", "fusion_lat": 0.0, "fusion_lon": 0.0, "bike_id": "16c284d55abec9ccf312e9a984d283cd", "rental_uris": {"ios": "https://dc.lft.to/lastmile_qr_scan", "android": "https://dc.lft.to/lastmile_qr_scan"}, "type": "electric_scooter", "lat": 38.905153, "is_disabled": 0, "lon": -77.01709, "is_reserved": 0}, {"name": "e0fb8e12e949b51624a6272d0b1457be", "fusion_lat": 0.0, "fusion_lon": 0.0, "bike_id": "e0fb8e12e949b51624a6272d0b1457be", "rental_uris": {"ios": "https://dc.lft.to/lastmile_qr_scan", "android": "https://dc.lft.to/lastmile_qr_scan"}, "type": "electric_scooter", "lat": 38.918146666666665, "is_disabled": 0, "lon": -77.04169816666666, "is_reserved": 0}, {"name": "b34fbe0dc758351fc7d4d110e143566e", "fusion_lat": 0.0, "fusion_lon": 0.0, "bike_id": "b34fbe0dc758351fc7d4d110e143566e", "rental_uris": {"ios": "https://dc.lft.to/lastmile_qr_scan", "android": "https://dc.lft.to/lastmile_qr_scan"}, "type": "electric_scooter", "lat": 38.8997715, "is_disabled": 0, "lon": -77.05013783333334, "is_reserved": 0}, {"name": "28072378d50454180f43c85cd50b1c3a", "fusion_lat": 0.0, "fusion_lon": 0.0, "bike_id": "28072378d50454180f43c85cd50b1c3a", "rental_uris": {"ios": "https://dc.lft.to/lastmile_qr_scan", "android": "https://dc.lft.to/lastmile_qr_scan"}, "type": "electric_scooter", "lat": 38.92607683333333, "is_disabled": 0, "lon": -77.0241705, "is_reserved": 0}, {"name": "81a0cb7911dbae1e2ffd8942c7b1f0a8", "fusion_lat": 0.0, "fusion_lon": 0.0, "bike_id": "81a0cb7911dbae1e2ffd8942c7b1f0a8", "rental_uris": {"ios": "https://dc.lft.to/lastmile_qr_scan", "android": "https://dc.lft.to/lastmile_qr_scan"}, "type": "electric_scooter", "lat": 38.93315716666667, "is_disabled": 0, "lon": -77.0327285, "is_reserved": 0}, {"name": "e1876941c97c520ef288cef2406cd66d", "fusion_lat": 0.0, "fusion_lon": 0.0, "bike_id": "e1876941c97c520ef288cef2406cd66d", "rental_uris": {"ios": "https://dc.lft.to/lastmile_qr_scan", "android": "https://dc.lft.to/lastmile_qr_scan"}, "type": "electric_scooter", "lat": 38.91421616666667, "is_disabled": 0, "lon": -77.031981, "is_reserved": 0}, {"name": "6e0e0d1b6dca4e2b0ab02b599a95ef97", "fusion_lat": 0.0, "fusion_lon": 0.0, "bike_id": "6e0e0d1b6dca4e2b0ab02b599a95ef97", "rental_uris": {"ios": "https://dc.lft.to/lastmile_qr_scan", "android": "https://dc.lft.to/lastmile_qr_scan"}, "type": "electric_scooter", "lat": 38.875947333333336, "is_disabled": 0, "lon": -77.005801, "is_reserved": 0}, {"name": "4881fadb96ee496891f8d620632ef591", "fusion_lat": 0.0, "fusion_lon": 0.0, "bike_id": "4881fadb96ee496891f8d620632ef591", "rental_uris": {"ios": "https://dc.lft.to/lastmile_qr_scan", "android": "https://dc.lft.to/lastmile_qr_scan"}, "type": "electric_scooter", "lat": 38.915709, "is_disabled": 0, "lon": -77.04699833333333, "is_reserved": 0}, {"name": "aa2de8dc471cfe8cc4966c4ba4152e14", "fusion_lat": 0.0, "fusion_lon": 0.0, "bike_id": "aa2de8dc471cfe8cc4966c4ba4152e14", "rental_uris": {"ios": "https://dc.lft.to/lastmile_qr_scan", "android": "https://dc.lft.to/lastmile_qr_scan"}, "type": "electric_scooter", "lat": 38.89916233333334, "is_disabled": 0, "lon": -77.05421983333333, "is_reserved": 0}, {"name": "1a7b81b9413e7386118e088cef117931", "fusion_lat": 0.0, "fusion_lon": 0.0, "bike_id": "1a7b81b9413e7386118e088cef117931", "rental_uris": {"ios": "https://dc.lft.to/lastmile_qr_scan", "android": "https://dc.lft.to/lastmile_qr_scan"}, "type": "electric_scooter", "lat": 38.900515166666665, "is_disabled": 0, "lon": -77.00191583333333, "is_reserved": 0}, {"name": "b58fb26d109ce19dd9f1b3f267121a99", "fusion_lat": 0.0, "fusion_lon": 0.0, "bike_id": "b58fb26d109ce19dd9f1b3f267121a99", "rental_uris": {"ios": "https://dc.lft.to/lastmile_qr_scan", "android": "https://dc.lft.to/lastmile_qr_scan"}, "type": "electric_bike", "lat": 38.925885, "is_disabled": 0, "lon": -76.889098, "is_reserved": 0}, {"name": "c01e269252f0c7e953e64fb06ebec9b5", "fusion_lat": 0.0, "fusion_lon": 0.0, "bike_id": "c01e269252f0c7e953e64fb06ebec9b5", "rental_uris": {"ios": "https://dc.lft.to/lastmile_qr_scan", "android": "https://dc.lft.to/lastmile_qr_scan"}, "type": "electric_scooter", "lat": 38.954159833333335, "is_disabled": 0, "lon": -77.0284395, "is_reserved": 0}, {"name": "a8c7ad17966338824298d68c52245b9c", "fusion_lat": 0.0, "fusion_lon": 0.0, "bike_id": "a8c7ad17966338824298d68c52245b9c", "rental_uris": {"ios": "https://dc.lft.to/lastmile_qr_scan", "android": "https://dc.lft.to/lastmile_qr_scan"}, "type": "electric_bike", "lat": 38.892346, "is_disabled": 0, "lon": -76.95223216666666, "is_reserved": 0}, {"name": "9eea2d511bf9efdb6f73f4a42ee7b40a", "fusion_lat": 0.0, "fusion_lon": 0.0, "bike_id": "9eea2d511bf9efdb6f73f4a42ee7b40a", "rental_uris": {"ios": "https://dc.lft.to/lastmile_qr_scan", "android": "https://dc.lft.to/lastmile_qr_scan"}, "type": "electric_scooter", "lat": 38.915026, "is_disabled": 0, "lon": -77.01563716666666, "is_reserved": 0}, {"name": "df2ee0b4446dce19d7ae537f57c472be", "fusion_lat": 0.0, "fusion_lon": 0.0, "bike_id": "df2ee0b4446dce19d7ae537f57c472be", "rental_uris": {"ios": "https://dc.lft.to/lastmile_qr_scan", "android": "https://dc.lft.to/lastmile_qr_scan"}, "type": "electric_scooter", "lat": 38.928381, "is_disabled": 0, "lon": -77.01412316666666, "is_reserved": 0}, {"name": "ab979e0c5629612f948800b31d2ec5b3", "fusion_lat": 0.0, "fusion_lon": 0.0, "bike_id": "ab979e0c5629612f948800b31d2ec5b3", "rental_uris": {"ios": "https://dc.lft.to/lastmile_qr_scan", "android": "https://dc.lft.to/lastmile_qr_scan"}, "type": "electric_scooter", "lat": 38.924812333333335, "is_disabled": 0, "lon": -77.02724033333334, "is_reserved": 0}, {"name": "460ac24ebf30317bad164d269a050caf", "fusion_lat": 0.0, "fusion_lon": 0.0, "bike_id": "460ac24ebf30317bad164d269a050caf", "rental_uris": {"ios": "https://dc.lft.to/lastmile_qr_scan", "android": "https://dc.lft.to/lastmile_qr_scan"}, "type": "electric_bike", "lat": 38.97677, "is_disabled": 0, "lon": -76.97170233333334, "is_reserved": 0}, {"name": "83856cc2846c79d96a56cf743c70fbc7", "fusion_lat": 0.0, "fusion_lon": 0.0, "bike_id": "83856cc2846c79d96a56cf743c70fbc7", "rental_uris": {"ios": "https://dc.lft.to/lastmile_qr_scan", "android": "https://dc.lft.to/lastmile_qr_scan"}, "type": "electric_scooter", "lat": 38.91264316666667, "is_disabled": 0, "lon": -77.00832116666666, "is_reserved": 0}, {"name": "2ae415d5ba44d54276c015cdfb864473", "fusion_lat": 0.0, "fusion_lon": 0.0, "bike_id": "2ae415d5ba44d54276c015cdfb864473", "rental_uris": {"ios": "https://dc.lft.to/lastmile_qr_scan", "android": "https://dc.lft.to/lastmile_qr_scan"}, "type": "electric_scooter", "lat": 38.9057275, "is_disabled": 0, "lon": -77.0516405, "is_reserved": 0}, {"name": "1b864568cabe93d4759472cb1bb01b1e", "fusion_lat": 0.0, "fusion_lon": 0.0, "bike_id": "1b864568cabe93d4759472cb1bb01b1e", "rental_uris": {"ios": "https://dc.lft.to/lastmile_qr_scan", "android": "https://dc.lft.to/lastmile_qr_scan"}, "type": "electric_scooter", "lat": 38.897361833333335, "is_disabled": 0, "lon": -77.0037575, "is_reserved": 0}, {"name": "0e5a01e5a23c0964c2a0b43582601d16", "fusion_lat": 0.0, "fusion_lon": 0.0, "bike_id": "0e5a01e5a23c0964c2a0b43582601d16", "rental_uris": {"ios": "https://dc.lft.to/lastmile_qr_scan", "android": "https://dc.lft.to/lastmile_qr_scan"}, "type": "electric_scooter", "lat": 38.896009666666664, "is_disabled": 0, "lon": -77.00924066666667, "is_reserved": 0}, {"name": "11359666dc53a88d048786c318591294", "fusion_lat": 0.0, "fusion_lon": 0.0, "bike_id": "11359666dc53a88d048786c318591294", "rental_uris": {"ios": "https://dc.lft.to/lastmile_qr_scan", "android": "https://dc.lft.to/lastmile_qr_scan"}, "type": "electric_bike", "lat": 38.904621666666664, "is_disabled": 0, "lon": -77.0074245, "is_reserved": 0}, {"name": "f21ebfdbf8be6e23e184b021b7eacc93", "fusion_lat": 0.0, "fusion_lon": 0.0, "bike_id": "f21ebfdbf8be6e23e184b021b7eacc93", "rental_uris": {"ios": "https://dc.lft.to/lastmile_qr_scan", "android": "https://dc.lft.to/lastmile_qr_scan"}, "type": "electric_scooter", "lat": 38.92786916666667, "is_disabled": 0, "lon": -77.05338733333333, "is_reserved": 0}, {"name": "fe5b2ef10c844a520eed6bbbf263db47", "fusion_lat": 0.0, "fusion_lon": 0.0, "bike_id": "fe5b2ef10c844a520eed6bbbf263db47", "rental_uris": {"ios": "https://dc.lft.to/lastmile_qr_scan", "android": "https://dc.lft.to/lastmile_qr_scan"}, "type": "electric_scooter", "lat": 38.924264, "is_disabled": 0, "lon": -77.04483783333333, "is_reserved": 0}, {"name": "1c6e8a98cd10e5ddbbe1d1843941a10c", "fusion_lat": 0.0, "fusion_lon": 0.0, "bike_id": "1c6e8a98cd10e5ddbbe1d1843941a10c", "rental_uris": {"ios": "https://dc.lft.to/lastmile_qr_scan", "android": "https://dc.lft.to/lastmile_qr_scan"}, "type": "electric_scooter", "lat": 38.91688883333333, "is_disabled": 0, "lon": -77.0359665, "is_reserved": 0}, {"name": "2836669b2284cdd048fccdda9cd6d52f", "fusion_lat": 0.0, "fusion_lon": 0.0, "bike_id": "2836669b2284cdd048fccdda9cd6d52f", "rental_uris": {"ios": "https://dc.lft.to/lastmile_qr_scan", "android": "https://dc.lft.to/lastmile_qr_scan"}, "type": "electric_scooter", "lat": 38.89565833333333, "is_disabled": 0, "lon": -77.02323466666667, "is_reserved": 0}, {"name": "ff4e59c9f032bad7d9a5b02c4b5384d0", "fusion_lat": 0.0, "fusion_lon": 0.0, "bike_id": "ff4e59c9f032bad7d9a5b02c4b5384d0", "rental_uris": {"ios": "https://dc.lft.to/lastmile_qr_scan", "android": "https://dc.lft.to/lastmile_qr_scan"}, "type": "electric_scooter", "lat": 38.93525833333333, "is_disabled": 0, "lon": -77.03260083333333, "is_reserved": 0}, {"name": "7ffec5fc0c4febe92315c9022a89c475", "fusion_lat": 0.0, "fusion_lon": 0.0, "bike_id": "7ffec5fc0c4febe92315c9022a89c475", "rental_uris": {"ios": "https://dc.lft.to/lastmile_qr_scan", "android": "https://dc.lft.to/lastmile_qr_scan"}, "type": "electric_scooter", "lat": 38.914857166666664, "is_disabled": 0, "lon": -77.03237516666667, "is_reserved": 0}, {"name": "c0c2388b1da96d9e58829074fd3ccff7", "fusion_lat": 0.0, "fusion_lon": 0.0, "bike_id": "c0c2388b1da96d9e58829074fd3ccff7", "rental_uris": {"ios": "https://dc.lft.to/lastmile_qr_scan", "android": "https://dc.lft.to/lastmile_qr_scan"}, "type": "electric_scooter", "lat": 38.90054033333333, "is_disabled": 0, "lon": -77.00198566666667, "is_reserved": 0}, {"name": "1a5f7136963008a9b21df1e10cba98b4", "fusion_lat": 0.0, "fusion_lon": 0.0, "bike_id": "1a5f7136963008a9b21df1e10cba98b4", "rental_uris": {"ios": "https://dc.lft.to/lastmile_qr_scan", "android": "https://dc.lft.to/lastmile_qr_scan"}, "type": "electric_scooter", "lat": 38.92304466666667, "is_disabled": 0, "lon": -77.042077, "is_reserved": 0}, {"name": "f6a0278841257275d420ecccda2d16b9", "fusion_lat": 0.0, "fusion_lon": 0.0, "bike_id": "f6a0278841257275d420ecccda2d16b9", "rental_uris": {"ios": "https://dc.lft.to/lastmile_qr_scan", "android": "https://dc.lft.to/lastmile_qr_scan"}, "type": "electric_scooter", "lat": 38.88500916666667, "is_disabled": 0, "lon": -77.00894266666667, "is_reserved": 0}, {"name": "0454687a5cfa3eb4054fd2b59a243b3c", "fusion_lat": 0.0, "fusion_lon": 0.0, "bike_id": "0454687a5cfa3eb4054fd2b59a243b3c", "rental_uris": {"ios": "https://dc.lft.to/lastmile_qr_scan", "android": "https://dc.lft.to/lastmile_qr_scan"}, "type": "electric_scooter", "lat": 38.935421166666664, "is_disabled": 0, "lon": -77.058153, "is_reserved": 0}, {"name": "0ddb02b4f2831c92e89173ccaa845c9b", "fusion_lat": 0.0, "fusion_lon": 0.0, "bike_id": "0ddb02b4f2831c92e89173ccaa845c9b", "rental_uris": {"ios": "https://dc.lft.to/lastmile_qr_scan", "android": "https://dc.lft.to/lastmile_qr_scan"}, "type": "electric_scooter", "lat": 38.91261683333333, "is_disabled": 0, "lon": -77.04155416666667, "is_reserved": 0}, {"name": "392cd511b2d3046eaa94e53f5b09d271", "fusion_lat": 0.0, "fusion_lon": 0.0, "bike_id": "392cd511b2d3046eaa94e53f5b09d271", "rental_uris": {"ios": "https://dc.lft.to/lastmile_qr_scan", "android": "https://dc.lft.to/lastmile_qr_scan"}, "type": "electric_scooter", "lat": 38.91826783333333, "is_disabled": 0, "lon": -77.03220116666667, "is_reserved": 0}, {"name": "b422a4834437e60f5f00226053c604c7", "fusion_lat": 0.0, "fusion_lon": 0.0, "bike_id": "b422a4834437e60f5f00226053c604c7", "rental_uris": {"ios": "https://dc.lft.to/lastmile_qr_scan", "android": "https://dc.lft.to/lastmile_qr_scan"}, "type": "electric_scooter", "lat": 38.909920666666665, "is_disabled": 0, "lon": -77.03180566666667, "is_reserved": 0}, {"name": "001191ce8fa8f512a653a406e2b307a2", "fusion_lat": 0.0, "fusion_lon": 0.0, "bike_id": "001191ce8fa8f512a653a406e2b307a2", "rental_uris": {"ios": "https://dc.lft.to/lastmile_qr_scan", "android": "https://dc.lft.to/lastmile_qr_scan"}, "type": "electric_scooter", "lat": 38.8924595, "is_disabled": 0, "lon": -77.04662133333333, "is_reserved": 0}, {"name": "5320a21aebd9206ec321ff3e05d2d96a", "fusion_lat": 0.0, "fusion_lon": 0.0, "bike_id": "5320a21aebd9206ec321ff3e05d2d96a", "rental_uris": {"ios": "https://dc.lft.to/lastmile_qr_scan", "android": "https://dc.lft.to/lastmile_qr_scan"}, "type": "electric_scooter", "lat": 38.9095775, "is_disabled": 0, "lon": -77.03441333333333, "is_reserved": 0}, {"name": "29825d606a459f5b151b54fe223ebb13", "fusion_lat": 0.0, "fusion_lon": 0.0, "bike_id": "29825d606a459f5b151b54fe223ebb13", "rental_uris": {"ios": "https://dc.lft.to/lastmile_qr_scan", "android": "https://dc.lft.to/lastmile_qr_scan"}, "type": "electric_scooter", "lat": 38.89794033333333, "is_disabled": 0, "lon": -76.93053833333333, "is_reserved": 0}, {"name": "920228ccff95034786bd8946799d73a7", "fusion_lat": 0.0, "fusion_lon": 0.0, "bike_id": "920228ccff95034786bd8946799d73a7", "rental_uris": {"ios": "https://dc.lft.to/lastmile_qr_scan", "android": "https://dc.lft.to/lastmile_qr_scan"}, "type": "electric_scooter", "lat": 38.899755166666665, "is_disabled": 0, "lon": -77.01948166666666, "is_reserved": 0}, {"name": "1cff24b291f6da633abef525f1447099", "fusion_lat": 0.0, "fusion_lon": 0.0, "bike_id": "1cff24b291f6da633abef525f1447099", "rental_uris": {"ios": "https://dc.lft.to/lastmile_qr_scan", "android": "https://dc.lft.to/lastmile_qr_scan"}, "type": "electric_bike", "lat": 38.831544666666666, "is_disabled": 0, "lon": -76.99695866666667, "is_reserved": 0}, {"name": "79d386fcd7c343dc2ace071df6ee711e", "fusion_lat": 0.0, "fusion_lon": 0.0, "bike_id": "79d386fcd7c343dc2ace071df6ee711e", "rental_uris": {"ios": "https://dc.lft.to/lastmile_qr_scan", "android": "https://dc.lft.to/lastmile_qr_scan"}, "type": "electric_scooter", "lat": 38.92403816666667, "is_disabled": 0, "lon": -77.04052133333333, "is_reserved": 0}, {"name": "5011135bf256d4d352277ab0df9ba57f", "fusion_lat": 0.0, "fusion_lon": 0.0, "bike_id": "5011135bf256d4d352277ab0df9ba57f", "rental_uris": {"ios": "https://dc.lft.to/lastmile_qr_scan", "android": "https://dc.lft.to/lastmile_qr_scan"}, "type": "electric_scooter", "lat": 38.890135, "is_disabled": 0, "lon": -76.937399, "is_reserved": 0}, {"name": "75da4b17d1c70cbeee5a7cceb0d986a7", "fusion_lat": 0.0, "fusion_lon": 0.0, "bike_id": "75da4b17d1c70cbeee5a7cceb0d986a7", "rental_uris": {"ios": "https://dc.lft.to/lastmile_qr_scan", "android": "https://dc.lft.to/lastmile_qr_scan"}, "type": "electric_bike", "lat": 38.88680383333333, "is_disabled": 0, "lon": -77.16241533333333, "is_reserved": 0}, {"name": "37a1abbf10f23f84398c54675e816220", "fusion_lat": 0.0, "fusion_lon": 0.0, "bike_id": "37a1abbf10f23f84398c54675e816220", "rental_uris": {"ios": "https://dc.lft.to/lastmile_qr_scan", "android": "https://dc.lft.to/lastmile_qr_scan"}, "type": "electric_scooter", "lat": 38.901949333333334, "is_disabled": 0, "lon": -77.02401666666667, "is_reserved": 0}, {"name": "a446db890b6f9e679d3d6e2542ca7e9c", "fusion_lat": 0.0, "fusion_lon": 0.0, "bike_id": "a446db890b6f9e679d3d6e2542ca7e9c", "rental_uris": {"ios": "https://dc.lft.to/lastmile_qr_scan", "android": "https://dc.lft.to/lastmile_qr_scan"}, "type": "electric_scooter", "lat": 38.921443, "is_disabled": 0, "lon": -77.03484433333334, "is_reserved": 0}, {"name": "94c03b186555e599b7d59462a6844cf5", "fusion_lat": 0.0, "fusion_lon": 0.0, "bike_id": "94c03b186555e599b7d59462a6844cf5", "rental_uris": {"ios": "https://dc.lft.to/lastmile_qr_scan", "android": "https://dc.lft.to/lastmile_qr_scan"}, "type": "electric_scooter", "lat": 38.895172333333335, "is_disabled": 0, "lon": -77.02196666666667, "is_reserved": 0}, {"name": "1a1eef50ee3e19d3ac610ba4f772b64a", "fusion_lat": 0.0, "fusion_lon": 0.0, "bike_id": "1a1eef50ee3e19d3ac610ba4f772b64a", "rental_uris": {"ios": "https://dc.lft.to/lastmile_qr_scan", "android": "https://dc.lft.to/lastmile_qr_scan"}, "type": "electric_scooter", "lat": 38.846189, "is_disabled": 0, "lon": -76.9963255, "is_reserved": 0}, {"name": "2b1f3f050b2156788218d81c5b21c913", "fusion_lat": 0.0, "fusion_lon": 0.0, "bike_id": "2b1f3f050b2156788218d81c5b21c913", "rental_uris": {"ios": "https://dc.lft.to/lastmile_qr_scan", "android": "https://dc.lft.to/lastmile_qr_scan"}, "type": "electric_scooter", "lat": 38.899179833333335, "is_disabled": 0, "lon": -77.01505333333333, "is_reserved": 0}, {"name": "ca3f3d002be0bd6d7eda6d04158f44a1", "fusion_lat": 0.0, "fusion_lon": 0.0, "bike_id": "ca3f3d002be0bd6d7eda6d04158f44a1", "rental_uris": {"ios": "https://dc.lft.to/lastmile_qr_scan", "android": "https://dc.lft.to/lastmile_qr_scan"}, "type": "electric_scooter", "lat": 38.92237316666667, "is_disabled": 0, "lon": -77.03895166666666, "is_reserved": 0}, {"name": "23bf530038afcf2d3d02a55e61a0e0d7", "fusion_lat": 0.0, "fusion_lon": 0.0, "bike_id": "23bf530038afcf2d3d02a55e61a0e0d7", "rental_uris": {"ios": "https://dc.lft.to/lastmile_qr_scan", "android": "https://dc.lft.to/lastmile_qr_scan"}, "type": "electric_scooter", "lat": 38.90961566666667, "is_disabled": 0, "lon": -77.04459, "is_reserved": 0}, {"name": "6d783ae4e6b05b4aef1c11b03c36d632", "fusion_lat": 0.0, "fusion_lon": 0.0, "bike_id": "6d783ae4e6b05b4aef1c11b03c36d632", "rental_uris": {"ios": "https://dc.lft.to/lastmile_qr_scan", "android": "https://dc.lft.to/lastmile_qr_scan"}, "type": "electric_scooter", "lat": 38.902403166666666, "is_disabled": 0, "lon": -77.0020085, "is_reserved": 0}, {"name": "aaf7322f4cf0e074e2af608bb4c37476", "fusion_lat": 0.0, "fusion_lon": 0.0, "bike_id": "aaf7322f4cf0e074e2af608bb4c37476", "rental_uris": {"ios": "https://dc.lft.to/lastmile_qr_scan", "android": "https://dc.lft.to/lastmile_qr_scan"}, "type": "electric_bike", "lat": 38.97396616666666, "is_disabled": 0, "lon": -77.024957, "is_reserved": 0}, {"name": "d9a4690e75d09a34d5e976feb62a99ec", "fusion_lat": 0.0, "fusion_lon": 0.0, "bike_id": "d9a4690e75d09a34d5e976feb62a99ec", "rental_uris": {"ios": "https://dc.lft.to/lastmile_qr_scan", "android": "https://dc.lft.to/lastmile_qr_scan"}, "type": "electric_scooter", "lat": 38.878923666666665, "is_disabled": 0, "lon": -76.93525016666666, "is_reserved": 0}, {"name": "f358c9bb0e158efb438efdacbda74119", "fusion_lat": 0.0, "fusion_lon": 0.0, "bike_id": "f358c9bb0e158efb438efdacbda74119", "rental_uris": {"ios": "https://dc.lft.to/lastmile_qr_scan", "android": "https://dc.lft.to/lastmile_qr_scan"}, "type": "electric_scooter", "lat": 38.905528833333335, "is_disabled": 0, "lon": -77.0434715, "is_reserved": 0}, {"name": "53d7e6be85ecc70fbdb019823aef66fc", "fusion_lat": 0.0, "fusion_lon": 0.0, "bike_id": "53d7e6be85ecc70fbdb019823aef66fc", "rental_uris": {"ios": "https://dc.lft.to/lastmile_qr_scan", "android": "https://dc.lft.to/lastmile_qr_scan"}, "type": "electric_scooter", "lat": 38.916854666666666, "is_disabled": 0, "lon": -77.03571466666666, "is_reserved": 0}, {"name": "a4a5bd76127d9bcb712ea2a2e06bde46", "fusion_lat": 0.0, "fusion_lon": 0.0, "bike_id": "a4a5bd76127d9bcb712ea2a2e06bde46", "rental_uris": {"ios": "https://dc.lft.to/lastmile_qr_scan", "android": "https://dc.lft.to/lastmile_qr_scan"}, "type": "electric_scooter", "lat": 38.9073305, "is_disabled": 0, "lon": -76.93547016666666, "is_reserved": 0}, {"name": "098ca2ca3485667cbdce2dddebb8fe41", "fusion_lat": 0.0, "fusion_lon": 0.0, "bike_id": "098ca2ca3485667cbdce2dddebb8fe41", "rental_uris": {"ios": "https://dc.lft.to/lastmile_qr_scan", "android": "https://dc.lft.to/lastmile_qr_scan"}, "type": "electric_scooter", "lat": 38.897244, "is_disabled": 0, "lon": -77.04647566666667, "is_reserved": 0}, {"name": "cb47c01765582e5244a32a89e6230e7c", "fusion_lat": 0.0, "fusion_lon": 0.0, "bike_id": "cb47c01765582e5244a32a89e6230e7c", "rental_uris": {"ios": "https://dc.lft.to/lastmile_qr_scan", "android": "https://dc.lft.to/lastmile_qr_scan"}, "type": "electric_scooter", "lat": 38.91113333333333, "is_disabled": 0, "lon": -77.04341733333334, "is_reserved": 0}, {"name": "8b5903a0695bd88f36c2f6173ba1ae03", "fusion_lat": 0.0, "fusion_lon": 0.0, "bike_id": "8b5903a0695bd88f36c2f6173ba1ae03", "rental_uris": {"ios": "https://dc.lft.to/lastmile_qr_scan", "android": "https://dc.lft.to/lastmile_qr_scan"}, "type": "electric_scooter", "lat": 38.908524, "is_disabled": 0, "lon": -77.02389883333333, "is_reserved": 0}, {"name": "a414cd9d6f5cbed2cfc193430babbe37", "fusion_lat": 0.0, "fusion_lon": 0.0, "bike_id": "a414cd9d6f5cbed2cfc193430babbe37", "rental_uris": {"ios": "https://dc.lft.to/lastmile_qr_scan", "android": "https://dc.lft.to/lastmile_qr_scan"}, "type": "electric_scooter", "lat": 38.91017083333333, "is_disabled": 0, "lon": -77.03186566666666, "is_reserved": 0}, {"name": "fea8ec53f62cde73be054d2022413856", "fusion_lat": 0.0, "fusion_lon": 0.0, "bike_id": "fea8ec53f62cde73be054d2022413856", "rental_uris": {"ios": "https://dc.lft.to/lastmile_qr_scan", "android": "https://dc.lft.to/lastmile_qr_scan"}, "type": "electric_scooter", "lat": 38.908344666666665, "is_disabled": 0, "lon": -77.04164466666667, "is_reserved": 0}, {"name": "45c63c1d408c807ca1f78a4b49c5c6c7", "fusion_lat": 0.0, "fusion_lon": 0.0, "bike_id": "45c63c1d408c807ca1f78a4b49c5c6c7", "rental_uris": {"ios": "https://dc.lft.to/lastmile_qr_scan", "android": "https://dc.lft.to/lastmile_qr_scan"}, "type": "electric_scooter", "lat": 38.87471816666667, "is_disabled": 0, "lon": -77.0123455, "is_reserved": 0}, {"name": "7ed464d2759b8c852770d542261b9724", "fusion_lat": 0.0, "fusion_lon": 0.0, "bike_id": "7ed464d2759b8c852770d542261b9724", "rental_uris": {"ios": "https://dc.lft.to/lastmile_qr_scan", "android": "https://dc.lft.to/lastmile_qr_scan"}, "type": "electric_scooter", "lat": 38.9531135, "is_disabled": 0, "lon": -77.03601166666667, "is_reserved": 0}, {"name": "ced7d12e582a8330ae77ed70fea0dc8d", "fusion_lat": 0.0, "fusion_lon": 0.0, "bike_id": "ced7d12e582a8330ae77ed70fea0dc8d", "rental_uris": {"ios": "https://dc.lft.to/lastmile_qr_scan", "android": "https://dc.lft.to/lastmile_qr_scan"}, "type": "electric_scooter", "lat": 38.89840616666667, "is_disabled": 0, "lon": -76.9463825, "is_reserved": 0}, {"name": "6be83cc867dd0eca8ca357e2525f5e81", "fusion_lat": 0.0, "fusion_lon": 0.0, "bike_id": "6be83cc867dd0eca8ca357e2525f5e81", "rental_uris": {"ios": "https://dc.lft.to/lastmile_qr_scan", "android": "https://dc.lft.to/lastmile_qr_scan"}, "type": "electric_scooter", "lat": 38.89298633333333, "is_disabled": 0, "lon": -77.012203, "is_reserved": 0}, {"name": "6e0526dabe0bbc337ad3302d2748ff47", "fusion_lat": 0.0, "fusion_lon": 0.0, "bike_id": "6e0526dabe0bbc337ad3302d2748ff47", "rental_uris": {"ios": "https://dc.lft.to/lastmile_qr_scan", "android": "https://dc.lft.to/lastmile_qr_scan"}, "type": "electric_scooter", "lat": 38.8997255, "is_disabled": 0, "lon": -77.04612683333333, "is_reserved": 0}, {"name": "29c372a8c700980bd5bb01566ddc5b53", "fusion_lat": 0.0, "fusion_lon": 0.0, "bike_id": "29c372a8c700980bd5bb01566ddc5b53", "rental_uris": {"ios": "https://dc.lft.to/lastmile_qr_scan", "android": "https://dc.lft.to/lastmile_qr_scan"}, "type": "electric_scooter", "lat": 38.931396166666666, "is_disabled": 0, "lon": -77.03458916666666, "is_reserved": 0}, {"name": "97758d7533b2690bf0bbcbbfbbc52319", "fusion_lat": 0.0, "fusion_lon": 0.0, "bike_id": "97758d7533b2690bf0bbcbbfbbc52319", "rental_uris": {"ios": "https://dc.lft.to/lastmile_qr_scan", "android": "https://dc.lft.to/lastmile_qr_scan"}, "type": "electric_scooter", "lat": 38.9342245, "is_disabled": 0, "lon": -77.0414325, "is_reserved": 0}, {"name": "4dde51405b2b141e6ecdc71be3bc5ac8", "fusion_lat": 0.0, "fusion_lon": 0.0, "bike_id": "4dde51405b2b141e6ecdc71be3bc5ac8", "rental_uris": {"ios": "https://dc.lft.to/lastmile_qr_scan", "android": "https://dc.lft.to/lastmile_qr_scan"}, "type": "electric_scooter", "lat": 38.911375666666665, "is_disabled": 0, "lon": -77.0419585, "is_reserved": 0}, {"name": "3c756302a84faab4e0b924bc6be5065f", "fusion_lat": 0.0, "fusion_lon": 0.0, "bike_id": "3c756302a84faab4e0b924bc6be5065f", "rental_uris": {"ios": "https://dc.lft.to/lastmile_qr_scan", "android": "https://dc.lft.to/lastmile_qr_scan"}, "type": "electric_bike", "lat": 38.893329333333334, "is_disabled": 0, "lon": -77.124096, "is_reserved": 0}, {"name": "44fab6d1683511bd6301c375be1aaa73", "fusion_lat": 0.0, "fusion_lon": 0.0, "bike_id": "44fab6d1683511bd6301c375be1aaa73", "rental_uris": {"ios": "https://dc.lft.to/lastmile_qr_scan", "android": "https://dc.lft.to/lastmile_qr_scan"}, "type": "electric_scooter", "lat": 38.920002333333336, "is_disabled": 0, "lon": -77.02394966666667, "is_reserved": 0}, {"name": "ecba0ff94e628321adddc59412602b5c", "fusion_lat": 0.0, "fusion_lon": 0.0, "bike_id": "ecba0ff94e628321adddc59412602b5c", "rental_uris": {"ios": "https://dc.lft.to/lastmile_qr_scan", "android": "https://dc.lft.to/lastmile_qr_scan"}, "type": "electric_scooter", "lat": 38.90875416666667, "is_disabled": 0, "lon": -77.0433595, "is_reserved": 0}, {"name": "02649c49ac55d3aa2a0ab5ecf668c54c", "fusion_lat": 0.0, "fusion_lon": 0.0, "bike_id": "02649c49ac55d3aa2a0ab5ecf668c54c", "rental_uris": {"ios": "https://dc.lft.to/lastmile_qr_scan", "android": "https://dc.lft.to/lastmile_qr_scan"}, "type": "electric_scooter", "lat": 38.90395383333333, "is_disabled": 0, "lon": -77.02806883333334, "is_reserved": 0}, {"name": "ad96ce855f0f38f59df1a2481eee0592", "fusion_lat": 0.0, "fusion_lon": 0.0, "bike_id": "ad96ce855f0f38f59df1a2481eee0592", "rental_uris": {"ios": "https://dc.lft.to/lastmile_qr_scan", "android": "https://dc.lft.to/lastmile_qr_scan"}, "type": "electric_scooter", "lat": 38.912218833333334, "is_disabled": 0, "lon": -77.03194833333333, "is_reserved": 0}, {"name": "0353659c9e635ed47e100f04419d51c8", "fusion_lat": 0.0, "fusion_lon": 0.0, "bike_id": "0353659c9e635ed47e100f04419d51c8", "rental_uris": {"ios": "https://dc.lft.to/lastmile_qr_scan", "android": "https://dc.lft.to/lastmile_qr_scan"}, "type": "electric_scooter", "lat": 38.91543866666667, "is_disabled": 0, "lon": -77.02232916666667, "is_reserved": 0}, {"name": "56e76617c90293509da0d6a241a803aa", "fusion_lat": 0.0, "fusion_lon": 0.0, "bike_id": "56e76617c90293509da0d6a241a803aa", "rental_uris": {"ios": "https://dc.lft.to/lastmile_qr_scan", "android": "https://dc.lft.to/lastmile_qr_scan"}, "type": "electric_scooter", "lat": 38.88219083333333, "is_disabled": 0, "lon": -76.990833, "is_reserved": 0}, {"name": "43c98fc64b6cc267843dc5d402ca78f2", "fusion_lat": 0.0, "fusion_lon": 0.0, "bike_id": "43c98fc64b6cc267843dc5d402ca78f2", "rental_uris": {"ios": "https://dc.lft.to/lastmile_qr_scan", "android": "https://dc.lft.to/lastmile_qr_scan"}, "type": "electric_scooter", "lat": 38.88364816666667, "is_disabled": 0, "lon": -76.9952005, "is_reserved": 0}, {"name": "eb932634261a93a9cbef21854db9fb91", "fusion_lat": 0.0, "fusion_lon": 0.0, "bike_id": "eb932634261a93a9cbef21854db9fb91", "rental_uris": {"ios": "https://dc.lft.to/lastmile_qr_scan", "android": "https://dc.lft.to/lastmile_qr_scan"}, "type": "electric_scooter", "lat": 38.908204, "is_disabled": 0, "lon": -77.036541, "is_reserved": 0}, {"name": "fccbbf74e3bde90c6a08f86d41c3e375", "fusion_lat": 0.0, "fusion_lon": 0.0, "bike_id": "fccbbf74e3bde90c6a08f86d41c3e375", "rental_uris": {"ios": "https://dc.lft.to/lastmile_qr_scan", "android": "https://dc.lft.to/lastmile_qr_scan"}, "type": "electric_bike", "lat": 38.865929333333334, "is_disabled": 0, "lon": -76.9323045, "is_reserved": 0}, {"name": "4f0a5bec957471c2024fc33d0baacf3d", "fusion_lat": 0.0, "fusion_lon": 0.0, "bike_id": "4f0a5bec957471c2024fc33d0baacf3d", "rental_uris": {"ios": "https://dc.lft.to/lastmile_qr_scan", "android": "https://dc.lft.to/lastmile_qr_scan"}, "type": "electric_scooter", "lat": 38.8900785, "is_disabled": 0, "lon": -76.9373395, "is_reserved": 0}, {"name": "ec55dd0dfe69e60c973fc61dfbe53556", "fusion_lat": 0.0, "fusion_lon": 0.0, "bike_id": "ec55dd0dfe69e60c973fc61dfbe53556", "rental_uris": {"ios": "https://dc.lft.to/lastmile_qr_scan", "android": "https://dc.lft.to/lastmile_qr_scan"}, "type": "electric_scooter", "lat": 38.9012245, "is_disabled": 0, "lon": -77.03377883333333, "is_reserved": 0}, {"name": "7caa5ff3849052f7b0adcdeeaa283719", "fusion_lat": 0.0, "fusion_lon": 0.0, "bike_id": "7caa5ff3849052f7b0adcdeeaa283719", "rental_uris": {"ios": "https://dc.lft.to/lastmile_qr_scan", "android": "https://dc.lft.to/lastmile_qr_scan"}, "type": "electric_scooter", "lat": 38.919951833333336, "is_disabled": 0, "lon": -76.98399616666667, "is_reserved": 0}, {"name": "99ee7da763e6a9cfc2580e2d9141015e", "fusion_lat": 0.0, "fusion_lon": 0.0, "bike_id": "99ee7da763e6a9cfc2580e2d9141015e", "rental_uris": {"ios": "https://dc.lft.to/lastmile_qr_scan", "android": "https://dc.lft.to/lastmile_qr_scan"}, "type": "electric_scooter", "lat": 38.917451, "is_disabled": 0, "lon": -77.04161933333333, "is_reserved": 0}, {"name": "c0be8ed68355ef2b10965e163e8cbc24", "fusion_lat": 0.0, "fusion_lon": 0.0, "bike_id": "c0be8ed68355ef2b10965e163e8cbc24", "rental_uris": {"ios": "https://dc.lft.to/lastmile_qr_scan", "android": "https://dc.lft.to/lastmile_qr_scan"}, "type": "electric_scooter", "lat": 38.89740783333333, "is_disabled": 0, "lon": -77.05143866666667, "is_reserved": 0}, {"name": "a5aabf278dc3e5d6a1bd147dd53edc03", "fusion_lat": 0.0, "fusion_lon": 0.0, "bike_id": "a5aabf278dc3e5d6a1bd147dd53edc03", "rental_uris": {"ios": "https://dc.lft.to/lastmile_qr_scan", "android": "https://dc.lft.to/lastmile_qr_scan"}, "type": "electric_bike", "lat": 38.8521005, "is_disabled": 0, "lon": -77.12757283333333, "is_reserved": 0}, {"name": "17799fd804ed7fbf78f2bb76b8e27e0a", "fusion_lat": 0.0, "fusion_lon": 0.0, "bike_id": "17799fd804ed7fbf78f2bb76b8e27e0a", "rental_uris": {"ios": "https://dc.lft.to/lastmile_qr_scan", "android": "https://dc.lft.to/lastmile_qr_scan"}, "type": "electric_scooter", "lat": 38.897224, "is_disabled": 0, "lon": -77.04717216666667, "is_reserved": 0}, {"name": "da5693867a7da6697fe01e2b9f66dbf3", "fusion_lat": 0.0, "fusion_lon": 0.0, "bike_id": "da5693867a7da6697fe01e2b9f66dbf3", "rental_uris": {"ios": "https://dc.lft.to/lastmile_qr_scan", "android": "https://dc.lft.to/lastmile_qr_scan"}, "type": "electric_scooter", "lat": 38.91751433333334, "is_disabled": 0, "lon": -77.03217466666666, "is_reserved": 0}, {"name": "ac1a93e06132f49dc7ac9fa33eb92dbd", "fusion_lat": 0.0, "fusion_lon": 0.0, "bike_id": "ac1a93e06132f49dc7ac9fa33eb92dbd", "rental_uris": {"ios": "https://dc.lft.to/lastmile_qr_scan", "android": "https://dc.lft.to/lastmile_qr_scan"}, "type": "electric_scooter", "lat": 38.911859, "is_disabled": 0, "lon": -77.037346, "is_reserved": 0}, {"name": "8c635f79e4d05fa25f56f8ff811bbff9", "fusion_lat": 0.0, "fusion_lon": 0.0, "bike_id": "8c635f79e4d05fa25f56f8ff811bbff9", "rental_uris": {"ios": "https://dc.lft.to/lastmile_qr_scan", "android": "https://dc.lft.to/lastmile_qr_scan"}, "type": "electric_scooter", "lat": 38.91541733333333, "is_disabled": 0, "lon": -77.022073, "is_reserved": 0}, {"name": "5b063be16059cfa7401f2414bc0f88ac", "fusion_lat": 0.0, "fusion_lon": 0.0, "bike_id": "5b063be16059cfa7401f2414bc0f88ac", "rental_uris": {"ios": "https://dc.lft.to/lastmile_qr_scan", "android": "https://dc.lft.to/lastmile_qr_scan"}, "type": "electric_scooter", "lat": 38.91805016666667, "is_disabled": 0, "lon": -77.03566883333333, "is_reserved": 0}, {"name": "c606e65ae2531d143cef51ab6218df17", "fusion_lat": 0.0, "fusion_lon": 0.0, "bike_id": "c606e65ae2531d143cef51ab6218df17", "rental_uris": {"ios": "https://dc.lft.to/lastmile_qr_scan", "android": "https://dc.lft.to/lastmile_qr_scan"}, "type": "electric_scooter", "lat": 38.89975966666667, "is_disabled": 0, "lon": -77.016825, "is_reserved": 0}, {"name": "a04848acec51754e80089b21f8bdef5d", "fusion_lat": 0.0, "fusion_lon": 0.0, "bike_id": "a04848acec51754e80089b21f8bdef5d", "rental_uris": {"ios": "https://dc.lft.to/lastmile_qr_scan", "android": "https://dc.lft.to/lastmile_qr_scan"}, "type": "electric_scooter", "lat": 38.907198666666666, "is_disabled": 0, "lon": -77.0339755, "is_reserved": 0}, {"name": "33a876ad9df959c583826bce14c31e25", "fusion_lat": 0.0, "fusion_lon": 0.0, "bike_id": "33a876ad9df959c583826bce14c31e25", "rental_uris": {"ios": "https://dc.lft.to/lastmile_qr_scan", "android": "https://dc.lft.to/lastmile_qr_scan"}, "type": "electric_scooter", "lat": 38.917158, "is_disabled": 0, "lon": -77.02723233333333, "is_reserved": 0}, {"name": "c7ac529d79d23172e8b3cf9011fffdaa", "fusion_lat": 0.0, "fusion_lon": 0.0, "bike_id": "c7ac529d79d23172e8b3cf9011fffdaa", "rental_uris": {"ios": "https://dc.lft.to/lastmile_qr_scan", "android": "https://dc.lft.to/lastmile_qr_scan"}, "type": "electric_bike", "lat": 38.881858, "is_disabled": 0, "lon": -77.11483766666667, "is_reserved": 0}, {"name": "47f4cd17045886c19ba2231df8cf453a", "fusion_lat": 0.0, "fusion_lon": 0.0, "bike_id": "47f4cd17045886c19ba2231df8cf453a", "rental_uris": {"ios": "https://dc.lft.to/lastmile_qr_scan", "android": "https://dc.lft.to/lastmile_qr_scan"}, "type": "electric_scooter", "lat": 38.899919833333335, "is_disabled": 0, "lon": -77.015063, "is_reserved": 0}, {"name": "4ed5204edc2d957868a67109396ec0ad", "fusion_lat": 0.0, "fusion_lon": 0.0, "bike_id": "4ed5204edc2d957868a67109396ec0ad", "rental_uris": {"ios": "https://dc.lft.to/lastmile_qr_scan", "android": "https://dc.lft.to/lastmile_qr_scan"}, "type": "electric_scooter", "lat": 38.908086, "is_disabled": 0, "lon": -77.03391833333333, "is_reserved": 0}, {"name": "976942059a0810e34df1fbdd275cff81", "fusion_lat": 0.0, "fusion_lon": 0.0, "bike_id": "976942059a0810e34df1fbdd275cff81", "rental_uris": {"ios": "https://dc.lft.to/lastmile_qr_scan", "android": "https://dc.lft.to/lastmile_qr_scan"}, "type": "electric_scooter", "lat": 38.90137083333333, "is_disabled": 0, "lon": -77.03981316666666, "is_reserved": 0}, {"name": "745a918e54aa89a9b2e09e059ec2e44c", "fusion_lat": 0.0, "fusion_lon": 0.0, "bike_id": "745a918e54aa89a9b2e09e059ec2e44c", "rental_uris": {"ios": "https://dc.lft.to/lastmile_qr_scan", "android": "https://dc.lft.to/lastmile_qr_scan"}, "type": "electric_scooter", "lat": 38.893551333333335, "is_disabled": 0, "lon": -76.98467683333334, "is_reserved": 0}, {"name": "ef085197d19d4498d55e85f8432cb75f", "fusion_lat": 0.0, "fusion_lon": 0.0, "bike_id": "ef085197d19d4498d55e85f8432cb75f", "rental_uris": {"ios": "https://dc.lft.to/lastmile_qr_scan", "android": "https://dc.lft.to/lastmile_qr_scan"}, "type": "electric_scooter", "lat": 38.905214, "is_disabled": 0, "lon": -77.06530333333333, "is_reserved": 0}, {"name": "710dfd30d1c12ecf6cc72059f0ed2fbc", "fusion_lat": 0.0, "fusion_lon": 0.0, "bike_id": "710dfd30d1c12ecf6cc72059f0ed2fbc", "rental_uris": {"ios": "https://dc.lft.to/lastmile_qr_scan", "android": "https://dc.lft.to/lastmile_qr_scan"}, "type": "electric_scooter", "lat": 38.90116583333333, "is_disabled": 0, "lon": -76.9915015, "is_reserved": 0}, {"name": "8b8e8fbbba5e4891469bfb944d30c18f", "fusion_lat": 0.0, "fusion_lon": 0.0, "bike_id": "8b8e8fbbba5e4891469bfb944d30c18f", "rental_uris": {"ios": "https://dc.lft.to/lastmile_qr_scan", "android": "https://dc.lft.to/lastmile_qr_scan"}, "type": "electric_scooter", "lat": 38.91816933333333, "is_disabled": 0, "lon": -77.02477033333334, "is_reserved": 0}, {"name": "90ab3059759dbba039b44377ee174b04", "fusion_lat": 0.0, "fusion_lon": 0.0, "bike_id": "90ab3059759dbba039b44377ee174b04", "rental_uris": {"ios": "https://dc.lft.to/lastmile_qr_scan", "android": "https://dc.lft.to/lastmile_qr_scan"}, "type": "electric_scooter", "lat": 38.901311, "is_disabled": 0, "lon": -77.04350483333333, "is_reserved": 0}, {"name": "101a28d7088311a0d4ec1f008182c6c6", "fusion_lat": 0.0, "fusion_lon": 0.0, "bike_id": "101a28d7088311a0d4ec1f008182c6c6", "rental_uris": {"ios": "https://dc.lft.to/lastmile_qr_scan", "android": "https://dc.lft.to/lastmile_qr_scan"}, "type": "electric_scooter", "lat": 38.88428616666667, "is_disabled": 0, "lon": -77.027927, "is_reserved": 0}, {"name": "851fd85692f881ac2d1996059d29ce5a", "fusion_lat": 0.0, "fusion_lon": 0.0, "bike_id": "851fd85692f881ac2d1996059d29ce5a", "rental_uris": {"ios": "https://dc.lft.to/lastmile_qr_scan", "android": "https://dc.lft.to/lastmile_qr_scan"}, "type": "electric_scooter", "lat": 38.931861, "is_disabled": 0, "lon": -77.0283615, "is_reserved": 0}, {"name": "e32de5d610569b4aab0804dabf55eb6d", "fusion_lat": 0.0, "fusion_lon": 0.0, "bike_id": "e32de5d610569b4aab0804dabf55eb6d", "rental_uris": {"ios": "https://dc.lft.to/lastmile_qr_scan", "android": "https://dc.lft.to/lastmile_qr_scan"}, "type": "electric_scooter", "lat": 38.90595016666666, "is_disabled": 0, "lon": -77.07012733333333, "is_reserved": 0}, {"name": "8b3f996e6743844779f2f8bf37018514", "fusion_lat": 0.0, "fusion_lon": 0.0, "bike_id": "8b3f996e6743844779f2f8bf37018514", "rental_uris": {"ios": "https://dc.lft.to/lastmile_qr_scan", "android": "https://dc.lft.to/lastmile_qr_scan"}, "type": "electric_scooter", "lat": 38.90915566666666, "is_disabled": 0, "lon": -76.99253616666667, "is_reserved": 0}, {"name": "e938a857f6576a755451e099fcf26a89", "fusion_lat": 0.0, "fusion_lon": 0.0, "bike_id": "e938a857f6576a755451e099fcf26a89", "rental_uris": {"ios": "https://dc.lft.to/lastmile_qr_scan", "android": "https://dc.lft.to/lastmile_qr_scan"}, "type": "electric_scooter", "lat": 38.89782183333333, "is_disabled": 0, "lon": -76.97100983333333, "is_reserved": 0}, {"name": "f8d8e0f749ff90653ef6b10e30ff4a4d", "fusion_lat": 0.0, "fusion_lon": 0.0, "bike_id": "f8d8e0f749ff90653ef6b10e30ff4a4d", "rental_uris": {"ios": "https://dc.lft.to/lastmile_qr_scan", "android": "https://dc.lft.to/lastmile_qr_scan"}, "type": "electric_scooter", "lat": 38.8952575, "is_disabled": 0, "lon": -77.003487, "is_reserved": 0}, {"name": "8e95b666d8d25ff54b138a4db096cce1", "fusion_lat": 0.0, "fusion_lon": 0.0, "bike_id": "8e95b666d8d25ff54b138a4db096cce1", "rental_uris": {"ios": "https://dc.lft.to/lastmile_qr_scan", "android": "https://dc.lft.to/lastmile_qr_scan"}, "type": "electric_scooter", "lat": 38.8972835, "is_disabled": 0, "lon": -77.02672183333334, "is_reserved": 0}, {"name": "4f34c7350de65ecf010d20835a6e6664", "fusion_lat": 0.0, "fusion_lon": 0.0, "bike_id": "4f34c7350de65ecf010d20835a6e6664", "rental_uris": {"ios": "https://dc.lft.to/lastmile_qr_scan", "android": "https://dc.lft.to/lastmile_qr_scan"}, "type": "electric_scooter", "lat": 38.900721833333336, "is_disabled": 0, "lon": -77.03943, "is_reserved": 0}, {"name": "f1d1d4dd70f9c79e12858e7bc8cfba9e", "fusion_lat": 0.0, "fusion_lon": 0.0, "bike_id": "f1d1d4dd70f9c79e12858e7bc8cfba9e", "rental_uris": {"ios": "https://dc.lft.to/lastmile_qr_scan", "android": "https://dc.lft.to/lastmile_qr_scan"}, "type": "electric_scooter", "lat": 38.91761283333334, "is_disabled": 0, "lon": -77.04775583333333, "is_reserved": 0}, {"name": "39fa5353940b27857ae0403c7bf891bf", "fusion_lat": 0.0, "fusion_lon": 0.0, "bike_id": "39fa5353940b27857ae0403c7bf891bf", "rental_uris": {"ios": "https://dc.lft.to/lastmile_qr_scan", "android": "https://dc.lft.to/lastmile_qr_scan"}, "type": "electric_bike", "lat": 38.936947333333336, "is_disabled": 0, "lon": -77.02697116666667, "is_reserved": 0}, {"name": "05f6d37cfffa30e9b582b58b2f323f32", "fusion_lat": 0.0, "fusion_lon": 0.0, "bike_id": "05f6d37cfffa30e9b582b58b2f323f32", "rental_uris": {"ios": "https://dc.lft.to/lastmile_qr_scan", "android": "https://dc.lft.to/lastmile_qr_scan"}, "type": "electric_scooter", "lat": 38.9107725, "is_disabled": 0, "lon": -77.00150183333334, "is_reserved": 0}, {"name": "cfd8b6dd0a12b929c69bba82090b0dba", "fusion_lat": 0.0, "fusion_lon": 0.0, "bike_id": "cfd8b6dd0a12b929c69bba82090b0dba", "rental_uris": {"ios": "https://dc.lft.to/lastmile_qr_scan", "android": "https://dc.lft.to/lastmile_qr_scan"}, "type": "electric_scooter", "lat": 38.91639333333333, "is_disabled": 0, "lon": -77.05064433333334, "is_reserved": 0}, {"name": "c7f260bd25f460d073209e6812d7bcf1", "fusion_lat": 0.0, "fusion_lon": 0.0, "bike_id": "c7f260bd25f460d073209e6812d7bcf1", "rental_uris": {"ios": "https://dc.lft.to/lastmile_qr_scan", "android": "https://dc.lft.to/lastmile_qr_scan"}, "type": "electric_scooter", "lat": 38.91884116666667, "is_disabled": 0, "lon": -77.041574, "is_reserved": 0}, {"name": "2e7245c0ca581cfe04056d903624201b", "fusion_lat": 0.0, "fusion_lon": 0.0, "bike_id": "2e7245c0ca581cfe04056d903624201b", "rental_uris": {"ios": "https://dc.lft.to/lastmile_qr_scan", "android": "https://dc.lft.to/lastmile_qr_scan"}, "type": "electric_bike", "lat": 38.831936166666665, "is_disabled": 0, "lon": -77.076928, "is_reserved": 0}, {"name": "4b9916e59fd542eaa8f7f48d36253bf8", "fusion_lat": 0.0, "fusion_lon": 0.0, "bike_id": "4b9916e59fd542eaa8f7f48d36253bf8", "rental_uris": {"ios": "https://dc.lft.to/lastmile_qr_scan", "android": "https://dc.lft.to/lastmile_qr_scan"}, "type": "electric_scooter", "lat": 38.912226833333335, "is_disabled": 0, "lon": -77.05126, "is_reserved": 0}, {"name": "4377bbc8753e8d1dbb3e2405955e538d", "fusion_lat": 0.0, "fusion_lon": 0.0, "bike_id": "4377bbc8753e8d1dbb3e2405955e538d", "rental_uris": {"ios": "https://dc.lft.to/lastmile_qr_scan", "android": "https://dc.lft.to/lastmile_qr_scan"}, "type": "electric_scooter", "lat": 38.901908, "is_disabled": 0, "lon": -77.0241145, "is_reserved": 0}, {"name": "41e9869fdddaf606308d48f2635ee0ac", "fusion_lat": 0.0, "fusion_lon": 0.0, "bike_id": "41e9869fdddaf606308d48f2635ee0ac", "rental_uris": {"ios": "https://dc.lft.to/lastmile_qr_scan", "android": "https://dc.lft.to/lastmile_qr_scan"}, "type": "electric_scooter", "lat": 38.913414333333336, "is_disabled": 0, "lon": -77.04858516666667, "is_reserved": 0}, {"name": "6d6dd9ce6f522dc4a5e92be2e5bc9311", "fusion_lat": 0.0, "fusion_lon": 0.0, "bike_id": "6d6dd9ce6f522dc4a5e92be2e5bc9311", "rental_uris": {"ios": "https://dc.lft.to/lastmile_qr_scan", "android": "https://dc.lft.to/lastmile_qr_scan"}, "type": "electric_scooter", "lat": 38.90558583333333, "is_disabled": 0, "lon": -77.01095383333333, "is_reserved": 0}, {"name": "a291ddc7ae010acdc6d2519b12cc73c7", "fusion_lat": 0.0, "fusion_lon": 0.0, "bike_id": "a291ddc7ae010acdc6d2519b12cc73c7", "rental_uris": {"ios": "https://dc.lft.to/lastmile_qr_scan", "android": "https://dc.lft.to/lastmile_qr_scan"}, "type": "electric_scooter", "lat": 38.925897166666665, "is_disabled": 0, "lon": -77.055281, "is_reserved": 0}, {"name": "71e2b607f67237d907ec7c57c1225795", "fusion_lat": 0.0, "fusion_lon": 0.0, "bike_id": "71e2b607f67237d907ec7c57c1225795", "rental_uris": {"ios": "https://dc.lft.to/lastmile_qr_scan", "android": "https://dc.lft.to/lastmile_qr_scan"}, "type": "electric_scooter", "lat": 38.899302166666665, "is_disabled": 0, "lon": -77.04075833333333, "is_reserved": 0}, {"name": "915bca0025b5eb997b562e82aba6752a", "fusion_lat": 0.0, "fusion_lon": 0.0, "bike_id": "915bca0025b5eb997b562e82aba6752a", "rental_uris": {"ios": "https://dc.lft.to/lastmile_qr_scan", "android": "https://dc.lft.to/lastmile_qr_scan"}, "type": "electric_scooter", "lat": 38.8767465, "is_disabled": 0, "lon": -77.0199685, "is_reserved": 0}, {"name": "58113ec76f1ce24560da4941967db978", "fusion_lat": 0.0, "fusion_lon": 0.0, "bike_id": "58113ec76f1ce24560da4941967db978", "rental_uris": {"ios": "https://dc.lft.to/lastmile_qr_scan", "android": "https://dc.lft.to/lastmile_qr_scan"}, "type": "electric_scooter", "lat": 38.904460666666665, "is_disabled": 0, "lon": -77.029, "is_reserved": 0}, {"name": "89ca981838becb0e30c31d006e5746ca", "fusion_lat": 0.0, "fusion_lon": 0.0, "bike_id": "89ca981838becb0e30c31d006e5746ca", "rental_uris": {"ios": "https://dc.lft.to/lastmile_qr_scan", "android": "https://dc.lft.to/lastmile_qr_scan"}, "type": "electric_scooter", "lat": 38.917080166666665, "is_disabled": 0, "lon": -77.02439233333334, "is_reserved": 0}, {"name": "719930648ca2d3c8417547fa659a3e2a", "fusion_lat": 0.0, "fusion_lon": 0.0, "bike_id": "719930648ca2d3c8417547fa659a3e2a", "rental_uris": {"ios": "https://dc.lft.to/lastmile_qr_scan", "android": "https://dc.lft.to/lastmile_qr_scan"}, "type": "electric_bike", "lat": 38.9555625, "is_disabled": 0, "lon": -76.93541633333334, "is_reserved": 0}, {"name": "88b62a98290cadda832d9fbf3856bc72", "fusion_lat": 0.0, "fusion_lon": 0.0, "bike_id": "88b62a98290cadda832d9fbf3856bc72", "rental_uris": {"ios": "https://dc.lft.to/lastmile_qr_scan", "android": "https://dc.lft.to/lastmile_qr_scan"}, "type": "electric_bike", "lat": 38.82872066666667, "is_disabled": 0, "lon": -77.11225216666666, "is_reserved": 0}, {"name": "64795c207ea682adfff9bcd51bfa6fca", "fusion_lat": 0.0, "fusion_lon": 0.0, "bike_id": "64795c207ea682adfff9bcd51bfa6fca", "rental_uris": {"ios": "https://dc.lft.to/lastmile_qr_scan", "android": "https://dc.lft.to/lastmile_qr_scan"}, "type": "electric_scooter", "lat": 38.9206335, "is_disabled": 0, "lon": -76.99534133333333, "is_reserved": 0}, {"name": "7712b8f79e8fbcb20b53b80afb3bf2de", "fusion_lat": 0.0, "fusion_lon": 0.0, "bike_id": "7712b8f79e8fbcb20b53b80afb3bf2de", "rental_uris": {"ios": "https://dc.lft.to/lastmile_qr_scan", "android": "https://dc.lft.to/lastmile_qr_scan"}, "type": "electric_scooter", "lat": 38.93157516666667, "is_disabled": 0, "lon": -77.02912016666667, "is_reserved": 0}, {"name": "5669dd1a9d48f67dfc5fb85fe7c91361", "fusion_lat": 0.0, "fusion_lon": 0.0, "bike_id": "5669dd1a9d48f67dfc5fb85fe7c91361", "rental_uris": {"ios": "https://dc.lft.to/lastmile_qr_scan", "android": "https://dc.lft.to/lastmile_qr_scan"}, "type": "electric_bike", "lat": 38.88769666666666, "is_disabled": 0, "lon": -77.12258616666666, "is_reserved": 0}, {"name": "618a4c8b7fec690b45aa774de0656d07", "fusion_lat": 0.0, "fusion_lon": 0.0, "bike_id": "618a4c8b7fec690b45aa774de0656d07", "rental_uris": {"ios": "https://dc.lft.to/lastmile_qr_scan", "android": "https://dc.lft.to/lastmile_qr_scan"}, "type": "electric_scooter", "lat": 38.91943166666667, "is_disabled": 0, "lon": -77.0416845, "is_reserved": 0}, {"name": "a71ef9aa1f009cee1d6be3b8465d4cb8", "fusion_lat": 0.0, "fusion_lon": 0.0, "bike_id": "a71ef9aa1f009cee1d6be3b8465d4cb8", "rental_uris": {"ios": "https://dc.lft.to/lastmile_qr_scan", "android": "https://dc.lft.to/lastmile_qr_scan"}, "type": "electric_scooter", "lat": 38.863505833333335, "is_disabled": 0, "lon": -76.990571, "is_reserved": 0}, {"name": "65440fea7e30f53d2dbb532d18d83519", "fusion_lat": 0.0, "fusion_lon": 0.0, "bike_id": "65440fea7e30f53d2dbb532d18d83519", "rental_uris": {"ios": "https://dc.lft.to/lastmile_qr_scan", "android": "https://dc.lft.to/lastmile_qr_scan"}, "type": "electric_scooter", "lat": 38.84620916666667, "is_disabled": 0, "lon": -76.9963255, "is_reserved": 0}, {"name": "6c04fba2185328aa7fe6b8be9e2072c0", "fusion_lat": 0.0, "fusion_lon": 0.0, "bike_id": "6c04fba2185328aa7fe6b8be9e2072c0", "rental_uris": {"ios": "https://dc.lft.to/lastmile_qr_scan", "android": "https://dc.lft.to/lastmile_qr_scan"}, "type": "electric_scooter", "lat": 38.901513666666666, "is_disabled": 0, "lon": -77.04167183333334, "is_reserved": 0}, {"name": "a7fd2c39f19e07dfcab425eeca590575", "fusion_lat": 0.0, "fusion_lon": 0.0, "bike_id": "a7fd2c39f19e07dfcab425eeca590575", "rental_uris": {"ios": "https://dc.lft.to/lastmile_qr_scan", "android": "https://dc.lft.to/lastmile_qr_scan"}, "type": "electric_scooter", "lat": 38.898231, "is_disabled": 0, "lon": -77.0312565, "is_reserved": 0}, {"name": "24239d11de77a34af1c15a2d866e7930", "fusion_lat": 0.0, "fusion_lon": 0.0, "bike_id": "24239d11de77a34af1c15a2d866e7930", "rental_uris": {"ios": "https://dc.lft.to/lastmile_qr_scan", "android": "https://dc.lft.to/lastmile_qr_scan"}, "type": "electric_scooter", "lat": 38.9451695, "is_disabled": 0, "lon": -77.0299095, "is_reserved": 0}, {"name": "9754bf73d97ac24465d72606c05754de", "fusion_lat": 0.0, "fusion_lon": 0.0, "bike_id": "9754bf73d97ac24465d72606c05754de", "rental_uris": {"ios": "https://dc.lft.to/lastmile_qr_scan", "android": "https://dc.lft.to/lastmile_qr_scan"}, "type": "electric_bike", "lat": 38.83095, "is_disabled": 0, "lon": -77.042957, "is_reserved": 0}, {"name": "52b3b4be26bed5b251a67ec508c01b95", "fusion_lat": 0.0, "fusion_lon": 0.0, "bike_id": "52b3b4be26bed5b251a67ec508c01b95", "rental_uris": {"ios": "https://dc.lft.to/lastmile_qr_scan", "android": "https://dc.lft.to/lastmile_qr_scan"}, "type": "electric_scooter", "lat": 38.92327016666667, "is_disabled": 0, "lon": -76.99899466666666, "is_reserved": 0}, {"name": "6257c79c05f8ca20e2a5fd5349160b73", "fusion_lat": 0.0, "fusion_lon": 0.0, "bike_id": "6257c79c05f8ca20e2a5fd5349160b73", "rental_uris": {"ios": "https://dc.lft.to/lastmile_qr_scan", "android": "https://dc.lft.to/lastmile_qr_scan"}, "type": "electric_scooter", "lat": 38.89948433333333, "is_disabled": 0, "lon": -77.003511, "is_reserved": 0}, {"name": "fc5e854f63e9d866eac0169932af3e49", "fusion_lat": 0.0, "fusion_lon": 0.0, "bike_id": "fc5e854f63e9d866eac0169932af3e49", "rental_uris": {"ios": "https://dc.lft.to/lastmile_qr_scan", "android": "https://dc.lft.to/lastmile_qr_scan"}, "type": "electric_scooter", "lat": 38.915382, "is_disabled": 0, "lon": -77.02198233333333, "is_reserved": 0}, {"name": "6e911c7a8badf773b64d2f77bfe0a108", "fusion_lat": 0.0, "fusion_lon": 0.0, "bike_id": "6e911c7a8badf773b64d2f77bfe0a108", "rental_uris": {"ios": "https://dc.lft.to/lastmile_qr_scan", "android": "https://dc.lft.to/lastmile_qr_scan"}, "type": "electric_scooter", "lat": 38.90016933333333, "is_disabled": 0, "lon": -77.0441745, "is_reserved": 0}, {"name": "0276d95b02e2597628fc41cf05ffe4dc", "fusion_lat": 0.0, "fusion_lon": 0.0, "bike_id": "0276d95b02e2597628fc41cf05ffe4dc", "rental_uris": {"ios": "https://dc.lft.to/lastmile_qr_scan", "android": "https://dc.lft.to/lastmile_qr_scan"}, "type": "electric_bike", "lat": 38.94479116666667, "is_disabled": 0, "lon": -77.006481, "is_reserved": 0}, {"name": "c786aefa556f243acbe0a3176ed7fda3", "fusion_lat": 0.0, "fusion_lon": 0.0, "bike_id": "c786aefa556f243acbe0a3176ed7fda3", "rental_uris": {"ios": "https://dc.lft.to/lastmile_qr_scan", "android": "https://dc.lft.to/lastmile_qr_scan"}, "type": "electric_scooter", "lat": 38.914149333333334, "is_disabled": 0, "lon": -77.0282925, "is_reserved": 0}, {"name": "a6a2739e76770f861055446b6ca76995", "fusion_lat": 0.0, "fusion_lon": 0.0, "bike_id": "a6a2739e76770f861055446b6ca76995", "rental_uris": {"ios": "https://dc.lft.to/lastmile_qr_scan", "android": "https://dc.lft.to/lastmile_qr_scan"}, "type": "electric_scooter", "lat": 38.90479066666666, "is_disabled": 0, "lon": -77.0612895, "is_reserved": 0}, {"name": "f83740cfccf25be38f8efe187fd3d28a", "fusion_lat": 0.0, "fusion_lon": 0.0, "bike_id": "f83740cfccf25be38f8efe187fd3d28a", "rental_uris": {"ios": "https://dc.lft.to/lastmile_qr_scan", "android": "https://dc.lft.to/lastmile_qr_scan"}, "type": "electric_scooter", "lat": 38.92807633333334, "is_disabled": 0, "lon": -77.0234865, "is_reserved": 0}, {"name": "ede4c4e864764e485dcad62c263d0e87", "fusion_lat": 0.0, "fusion_lon": 0.0, "bike_id": "ede4c4e864764e485dcad62c263d0e87", "rental_uris": {"ios": "https://dc.lft.to/lastmile_qr_scan", "android": "https://dc.lft.to/lastmile_qr_scan"}, "type": "electric_scooter", "lat": 38.89821766666667, "is_disabled": 0, "lon": -77.04363666666667, "is_reserved": 0}, {"name": "16818ed6a9edfb1cee280d086c4186ae", "fusion_lat": 0.0, "fusion_lon": 0.0, "bike_id": "16818ed6a9edfb1cee280d086c4186ae", "rental_uris": {"ios": "https://dc.lft.to/lastmile_qr_scan", "android": "https://dc.lft.to/lastmile_qr_scan"}, "type": "electric_scooter", "lat": 38.914663166666664, "is_disabled": 0, "lon": -77.03197966666667, "is_reserved": 0}, {"name": "0953b61c2d246f2a298377ab307f581f", "fusion_lat": 0.0, "fusion_lon": 0.0, "bike_id": "0953b61c2d246f2a298377ab307f581f", "rental_uris": {"ios": "https://dc.lft.to/lastmile_qr_scan", "android": "https://dc.lft.to/lastmile_qr_scan"}, "type": "electric_bike", "lat": 38.9455845, "is_disabled": 0, "lon": -77.0511295, "is_reserved": 0}, {"name": "ae32549efd8e97a768e5299e1a3f02d5", "fusion_lat": 0.0, "fusion_lon": 0.0, "bike_id": "ae32549efd8e97a768e5299e1a3f02d5", "rental_uris": {"ios": "https://dc.lft.to/lastmile_qr_scan", "android": "https://dc.lft.to/lastmile_qr_scan"}, "type": "electric_scooter", "lat": 38.934281666666664, "is_disabled": 0, "lon": -77.05841233333334, "is_reserved": 0}, {"name": "5726f911861adf426fa405f576d0adcf", "fusion_lat": 0.0, "fusion_lon": 0.0, "bike_id": "5726f911861adf426fa405f576d0adcf", "rental_uris": {"ios": "https://dc.lft.to/lastmile_qr_scan", "android": "https://dc.lft.to/lastmile_qr_scan"}, "type": "electric_scooter", "lat": 38.903368, "is_disabled": 0, "lon": -76.99952716666667, "is_reserved": 0}, {"name": "c61dccad76764312d539d12b6f717040", "fusion_lat": 0.0, "fusion_lon": 0.0, "bike_id": "c61dccad76764312d539d12b6f717040", "rental_uris": {"ios": "https://dc.lft.to/lastmile_qr_scan", "android": "https://dc.lft.to/lastmile_qr_scan"}, "type": "electric_scooter", "lat": 38.921655333333334, "is_disabled": 0, "lon": -76.9940135, "is_reserved": 0}, {"name": "ca9bdc36fda3f061731652af62560988", "fusion_lat": 0.0, "fusion_lon": 0.0, "bike_id": "ca9bdc36fda3f061731652af62560988", "rental_uris": {"ios": "https://dc.lft.to/lastmile_qr_scan", "android": "https://dc.lft.to/lastmile_qr_scan"}, "type": "electric_scooter", "lat": 38.899756333333336, "is_disabled": 0, "lon": -77.012068, "is_reserved": 0}, {"name": "19495ab3e651f35dcde134cedc8397ce", "fusion_lat": 0.0, "fusion_lon": 0.0, "bike_id": "19495ab3e651f35dcde134cedc8397ce", "rental_uris": {"ios": "https://dc.lft.to/lastmile_qr_scan", "android": "https://dc.lft.to/lastmile_qr_scan"}, "type": "electric_scooter", "lat": 38.90568716666667, "is_disabled": 0, "lon": -77.0253315, "is_reserved": 0}, {"name": "c36a6d057b3ee5160b81c18adde2fdec", "fusion_lat": 0.0, "fusion_lon": 0.0, "bike_id": "c36a6d057b3ee5160b81c18adde2fdec", "rental_uris": {"ios": "https://dc.lft.to/lastmile_qr_scan", "android": "https://dc.lft.to/lastmile_qr_scan"}, "type": "electric_scooter", "lat": 38.93912383333333, "is_disabled": 0, "lon": -77.02463083333333, "is_reserved": 0}, {"name": "444282ea4087a59f4fbf39cf1c4a6368", "fusion_lat": 0.0, "fusion_lon": 0.0, "bike_id": "444282ea4087a59f4fbf39cf1c4a6368", "rental_uris": {"ios": "https://dc.lft.to/lastmile_qr_scan", "android": "https://dc.lft.to/lastmile_qr_scan"}, "type": "electric_scooter", "lat": 38.8624825, "is_disabled": 0, "lon": -76.99532516666666, "is_reserved": 0}, {"name": "994e66ad89fe0fb24a0b1a937c590e37", "fusion_lat": 0.0, "fusion_lon": 0.0, "bike_id": "994e66ad89fe0fb24a0b1a937c590e37", "rental_uris": {"ios": "https://dc.lft.to/lastmile_qr_scan", "android": "https://dc.lft.to/lastmile_qr_scan"}, "type": "electric_scooter", "lat": 38.903590333333334, "is_disabled": 0, "lon": -77.0322875, "is_reserved": 0}, {"name": "79a23d217cba4c37a0a9661b57c8aafd", "fusion_lat": 0.0, "fusion_lon": 0.0, "bike_id": "79a23d217cba4c37a0a9661b57c8aafd", "rental_uris": {"ios": "https://dc.lft.to/lastmile_qr_scan", "android": "https://dc.lft.to/lastmile_qr_scan"}, "type": "electric_bike", "lat": 38.988301666666665, "is_disabled": 0, "lon": -76.9876335, "is_reserved": 0}, {"name": "d52e600387f302f370c3a9368ad68020", "fusion_lat": 0.0, "fusion_lon": 0.0, "bike_id": "d52e600387f302f370c3a9368ad68020", "rental_uris": {"ios": "https://dc.lft.to/lastmile_qr_scan", "android": "https://dc.lft.to/lastmile_qr_scan"}, "type": "electric_scooter", "lat": 38.921791999999996, "is_disabled": 0, "lon": -77.04234933333333, "is_reserved": 0}, {"name": "cc1073af575cec18f3560ad31b3b24c4", "fusion_lat": 0.0, "fusion_lon": 0.0, "bike_id": "cc1073af575cec18f3560ad31b3b24c4", "rental_uris": {"ios": "https://dc.lft.to/lastmile_qr_scan", "android": "https://dc.lft.to/lastmile_qr_scan"}, "type": "electric_scooter", "lat": 38.88010766666667, "is_disabled": 0, "lon": -76.93117216666667, "is_reserved": 0}, {"name": "d3a60fd4b1e84f0644ad527adaef0dc7", "fusion_lat": 0.0, "fusion_lon": 0.0, "bike_id": "d3a60fd4b1e84f0644ad527adaef0dc7", "rental_uris": {"ios": "https://dc.lft.to/lastmile_qr_scan", "android": "https://dc.lft.to/lastmile_qr_scan"}, "type": "electric_scooter", "lat": 38.8952745, "is_disabled": 0, "lon": -77.0284045, "is_reserved": 0}, {"name": "81e8a7e9026ee429e984a12e3c52114c", "fusion_lat": 0.0, "fusion_lon": 0.0, "bike_id": "81e8a7e9026ee429e984a12e3c52114c", "rental_uris": {"ios": "https://dc.lft.to/lastmile_qr_scan", "android": "https://dc.lft.to/lastmile_qr_scan"}, "type": "electric_scooter", "lat": 38.85320933333333, "is_disabled": 0, "lon": -76.96581933333333, "is_reserved": 0}, {"name": "0876c93ff8bedc481735a07999c849f8", "fusion_lat": 0.0, "fusion_lon": 0.0, "bike_id": "0876c93ff8bedc481735a07999c849f8", "rental_uris": {"ios": "https://dc.lft.to/lastmile_qr_scan", "android": "https://dc.lft.to/lastmile_qr_scan"}, "type": "electric_scooter", "lat": 38.9036405, "is_disabled": 0, "lon": -77.01949683333333, "is_reserved": 0}, {"name": "4beb14241372a5316f1c0d31ff942e14", "fusion_lat": 0.0, "fusion_lon": 0.0, "bike_id": "4beb14241372a5316f1c0d31ff942e14", "rental_uris": {"ios": "https://dc.lft.to/lastmile_qr_scan", "android": "https://dc.lft.to/lastmile_qr_scan"}, "type": "electric_scooter", "lat": 38.8978045, "is_disabled": 0, "lon": -77.05109183333333, "is_reserved": 0}, {"name": "6acb2e99174c327fecd692fa8b513543", "fusion_lat": 0.0, "fusion_lon": 0.0, "bike_id": "6acb2e99174c327fecd692fa8b513543", "rental_uris": {"ios": "https://dc.lft.to/lastmile_qr_scan", "android": "https://dc.lft.to/lastmile_qr_scan"}, "type": "electric_scooter", "lat": 38.892077, "is_disabled": 0, "lon": -76.98813816666667, "is_reserved": 0}, {"name": "9c6b0ebbd5866177e6753c0ac2fdbe9a", "fusion_lat": 0.0, "fusion_lon": 0.0, "bike_id": "9c6b0ebbd5866177e6753c0ac2fdbe9a", "rental_uris": {"ios": "https://dc.lft.to/lastmile_qr_scan", "android": "https://dc.lft.to/lastmile_qr_scan"}, "type": "electric_scooter", "lat": 38.898323500000004, "is_disabled": 0, "lon": -77.043664, "is_reserved": 0}, {"name": "6c82dfccad4c3dce041099ae69dd7f7c", "fusion_lat": 0.0, "fusion_lon": 0.0, "bike_id": "6c82dfccad4c3dce041099ae69dd7f7c", "rental_uris": {"ios": "https://dc.lft.to/lastmile_qr_scan", "android": "https://dc.lft.to/lastmile_qr_scan"}, "type": "electric_scooter", "lat": 38.906016666666666, "is_disabled": 0, "lon": -77.04137816666666, "is_reserved": 0}, {"name": "1a92b849c475539ae414324908a09551", "fusion_lat": 0.0, "fusion_lon": 0.0, "bike_id": "1a92b849c475539ae414324908a09551", "rental_uris": {"ios": "https://dc.lft.to/lastmile_qr_scan", "android": "https://dc.lft.to/lastmile_qr_scan"}, "type": "electric_scooter", "lat": 38.866761, "is_disabled": 0, "lon": -76.98888333333333, "is_reserved": 0}, {"name": "7e9ee1de93837339497a839584d3fa57", "fusion_lat": 0.0, "fusion_lon": 0.0, "bike_id": "7e9ee1de93837339497a839584d3fa57", "rental_uris": {"ios": "https://dc.lft.to/lastmile_qr_scan", "android": "https://dc.lft.to/lastmile_qr_scan"}, "type": "electric_scooter", "lat": 38.88402716666667, "is_disabled": 0, "lon": -76.95411116666666, "is_reserved": 0}, {"name": "87673500eee52289fe9ec6b35ee4f053", "fusion_lat": 0.0, "fusion_lon": 0.0, "bike_id": "87673500eee52289fe9ec6b35ee4f053", "rental_uris": {"ios": "https://dc.lft.to/lastmile_qr_scan", "android": "https://dc.lft.to/lastmile_qr_scan"}, "type": "electric_scooter", "lat": 38.8650965, "is_disabled": 0, "lon": -76.99005133333333, "is_reserved": 0}, {"name": "ad92ad7f9ae0fb18599c53c09d7dcae4", "fusion_lat": 0.0, "fusion_lon": 0.0, "bike_id": "ad92ad7f9ae0fb18599c53c09d7dcae4", "rental_uris": {"ios": "https://dc.lft.to/lastmile_qr_scan", "android": "https://dc.lft.to/lastmile_qr_scan"}, "type": "electric_scooter", "lat": 38.91479616666667, "is_disabled": 0, "lon": -77.03469983333333, "is_reserved": 0}, {"name": "ea2841d52341171842f3e6f8d3a85b9c", "fusion_lat": 0.0, "fusion_lon": 0.0, "bike_id": "ea2841d52341171842f3e6f8d3a85b9c", "rental_uris": {"ios": "https://dc.lft.to/lastmile_qr_scan", "android": "https://dc.lft.to/lastmile_qr_scan"}, "type": "electric_bike", "lat": 39.0884055, "is_disabled": 0, "lon": -77.1780445, "is_reserved": 0}, {"name": "61f5f6ef7abc1ea7dbce95e7510c2119", "fusion_lat": 0.0, "fusion_lon": 0.0, "bike_id": "61f5f6ef7abc1ea7dbce95e7510c2119", "rental_uris": {"ios": "https://dc.lft.to/lastmile_qr_scan", "android": "https://dc.lft.to/lastmile_qr_scan"}, "type": "electric_scooter", "lat": 38.9105185, "is_disabled": 0, "lon": -77.015153, "is_reserved": 0}, {"name": "6d3e9dc2a9c5010a8fbd643a6d0766c6", "fusion_lat": 0.0, "fusion_lon": 0.0, "bike_id": "6d3e9dc2a9c5010a8fbd643a6d0766c6", "rental_uris": {"ios": "https://dc.lft.to/lastmile_qr_scan", "android": "https://dc.lft.to/lastmile_qr_scan"}, "type": "electric_scooter", "lat": 38.91338733333333, "is_disabled": 0, "lon": -77.03262816666667, "is_reserved": 0}, {"name": "2a702c6305ce062e8e5d08faeba2dabf", "fusion_lat": 0.0, "fusion_lon": 0.0, "bike_id": "2a702c6305ce062e8e5d08faeba2dabf", "rental_uris": {"ios": "https://dc.lft.to/lastmile_qr_scan", "android": "https://dc.lft.to/lastmile_qr_scan"}, "type": "electric_scooter", "lat": 38.91791633333333, "is_disabled": 0, "lon": -77.034629, "is_reserved": 0}, {"name": "2533e1c4814950f14859bc138bfa7089", "fusion_lat": 0.0, "fusion_lon": 0.0, "bike_id": "2533e1c4814950f14859bc138bfa7089", "rental_uris": {"ios": "https://dc.lft.to/lastmile_qr_scan", "android": "https://dc.lft.to/lastmile_qr_scan"}, "type": "electric_scooter", "lat": 38.931886666666664, "is_disabled": 0, "lon": -77.0283415, "is_reserved": 0}, {"name": "fada3be898b7f6ab6a137a51929cc0e2", "fusion_lat": 0.0, "fusion_lon": 0.0, "bike_id": "fada3be898b7f6ab6a137a51929cc0e2", "rental_uris": {"ios": "https://dc.lft.to/lastmile_qr_scan", "android": "https://dc.lft.to/lastmile_qr_scan"}, "type": "electric_scooter", "lat": 38.923328166666664, "is_disabled": 0, "lon": -77.03513833333334, "is_reserved": 0}, {"name": "6c02a4e48a42e6a636b096eba9f0f944", "fusion_lat": 0.0, "fusion_lon": 0.0, "bike_id": "6c02a4e48a42e6a636b096eba9f0f944", "rental_uris": {"ios": "https://dc.lft.to/lastmile_qr_scan", "android": "https://dc.lft.to/lastmile_qr_scan"}, "type": "electric_scooter", "lat": 38.898676333333334, "is_disabled": 0, "lon": -77.01626166666667, "is_reserved": 0}, {"name": "4ee6602130ae2596d50f3527b936a0fd", "fusion_lat": 0.0, "fusion_lon": 0.0, "bike_id": "4ee6602130ae2596d50f3527b936a0fd", "rental_uris": {"ios": "https://dc.lft.to/lastmile_qr_scan", "android": "https://dc.lft.to/lastmile_qr_scan"}, "type": "electric_bike", "lat": 38.839377166666665, "is_disabled": 0, "lon": -77.079077, "is_reserved": 0}, {"name": "822cc3a5106f89a3cb6bdc310cb2a231", "fusion_lat": 0.0, "fusion_lon": 0.0, "bike_id": "822cc3a5106f89a3cb6bdc310cb2a231", "rental_uris": {"ios": "https://dc.lft.to/lastmile_qr_scan", "android": "https://dc.lft.to/lastmile_qr_scan"}, "type": "electric_bike", "lat": 38.8126965, "is_disabled": 0, "lon": -77.06176533333333, "is_reserved": 0}, {"name": "b2943072b6cdf742e3d3b38ce408f09d", "fusion_lat": 0.0, "fusion_lon": 0.0, "bike_id": "b2943072b6cdf742e3d3b38ce408f09d", "rental_uris": {"ios": "https://dc.lft.to/lastmile_qr_scan", "android": "https://dc.lft.to/lastmile_qr_scan"}, "type": "electric_scooter", "lat": 38.87933316666667, "is_disabled": 0, "lon": -77.014725, "is_reserved": 0}, {"name": "7fa920779b2e7865bee63bdce975dd46", "fusion_lat": 0.0, "fusion_lon": 0.0, "bike_id": "7fa920779b2e7865bee63bdce975dd46", "rental_uris": {"ios": "https://dc.lft.to/lastmile_qr_scan", "android": "https://dc.lft.to/lastmile_qr_scan"}, "type": "electric_scooter", "lat": 38.913531166666665, "is_disabled": 0, "lon": -77.01756833333333, "is_reserved": 0}, {"name": "a321dfcd649a7538d6091f3614f3262e", "fusion_lat": 0.0, "fusion_lon": 0.0, "bike_id": "a321dfcd649a7538d6091f3614f3262e", "rental_uris": {"ios": "https://dc.lft.to/lastmile_qr_scan", "android": "https://dc.lft.to/lastmile_qr_scan"}, "type": "electric_scooter", "lat": 38.905531833333335, "is_disabled": 0, "lon": -77.00595733333333, "is_reserved": 0}, {"name": "18f3f1937b47cd8e291965997703451c", "fusion_lat": 0.0, "fusion_lon": 0.0, "bike_id": "18f3f1937b47cd8e291965997703451c", "rental_uris": {"ios": "https://dc.lft.to/lastmile_qr_scan", "android": "https://dc.lft.to/lastmile_qr_scan"}, "type": "electric_scooter", "lat": 38.9175965, "is_disabled": 0, "lon": -77.02798833333334, "is_reserved": 0}, {"name": "20995799f8881291650c0f659e1c76dd", "fusion_lat": 0.0, "fusion_lon": 0.0, "bike_id": "20995799f8881291650c0f659e1c76dd", "rental_uris": {"ios": "https://dc.lft.to/lastmile_qr_scan", "android": "https://dc.lft.to/lastmile_qr_scan"}, "type": "electric_scooter", "lat": 38.919937166666664, "is_disabled": 0, "lon": -77.0331035, "is_reserved": 0}, {"name": "43a2a1efdc094eb133dc5d27efb1b275", "fusion_lat": 0.0, "fusion_lon": 0.0, "bike_id": "43a2a1efdc094eb133dc5d27efb1b275", "rental_uris": {"ios": "https://dc.lft.to/lastmile_qr_scan", "android": "https://dc.lft.to/lastmile_qr_scan"}, "type": "electric_scooter", "lat": 38.932296, "is_disabled": 0, "lon": -76.99486983333334, "is_reserved": 0}, {"name": "34560a859f707098e89c19bf8b00db99", "fusion_lat": 0.0, "fusion_lon": 0.0, "bike_id": "34560a859f707098e89c19bf8b00db99", "rental_uris": {"ios": "https://dc.lft.to/lastmile_qr_scan", "android": "https://dc.lft.to/lastmile_qr_scan"}, "type": "electric_bike", "lat": 38.97261183333333, "is_disabled": 0, "lon": -76.99171633333333, "is_reserved": 0}, {"name": "cda4dedf252be61359d4513adac4f49f", "fusion_lat": 0.0, "fusion_lon": 0.0, "bike_id": "cda4dedf252be61359d4513adac4f49f", "rental_uris": {"ios": "https://dc.lft.to/lastmile_qr_scan", "android": "https://dc.lft.to/lastmile_qr_scan"}, "type": "electric_scooter", "lat": 38.897384833333334, "is_disabled": 0, "lon": -77.01009733333333, "is_reserved": 0}, {"name": "12faa9c86e2b13bd6d8f3957029aa73c", "fusion_lat": 0.0, "fusion_lon": 0.0, "bike_id": "12faa9c86e2b13bd6d8f3957029aa73c", "rental_uris": {"ios": "https://dc.lft.to/lastmile_qr_scan", "android": "https://dc.lft.to/lastmile_qr_scan"}, "type": "electric_scooter", "lat": 38.93465616666667, "is_disabled": 0, "lon": -77.06879616666667, "is_reserved": 0}, {"name": "e98c68d089c84e6579c6d5d98e0a6043", "fusion_lat": 0.0, "fusion_lon": 0.0, "bike_id": "e98c68d089c84e6579c6d5d98e0a6043", "rental_uris": {"ios": "https://dc.lft.to/lastmile_qr_scan", "android": "https://dc.lft.to/lastmile_qr_scan"}, "type": "electric_scooter", "lat": 38.898538333333335, "is_disabled": 0, "lon": -77.0292805, "is_reserved": 0}, {"name": "dd46691f9ebf19f423f46216d72ccb4c", "fusion_lat": 0.0, "fusion_lon": 0.0, "bike_id": "dd46691f9ebf19f423f46216d72ccb4c", "rental_uris": {"ios": "https://dc.lft.to/lastmile_qr_scan", "android": "https://dc.lft.to/lastmile_qr_scan"}, "type": "electric_scooter", "lat": 38.93635783333333, "is_disabled": 0, "lon": -77.027003, "is_reserved": 0}, {"name": "38fd0201b414f39c9b68f4bb2d08ec88", "fusion_lat": 0.0, "fusion_lon": 0.0, "bike_id": "38fd0201b414f39c9b68f4bb2d08ec88", "rental_uris": {"ios": "https://dc.lft.to/lastmile_qr_scan", "android": "https://dc.lft.to/lastmile_qr_scan"}, "type": "electric_scooter", "lat": 38.909555, "is_disabled": 0, "lon": -77.0486275, "is_reserved": 0}, {"name": "edfeb27f87cfaa09aef2311b8c9c76f1", "fusion_lat": 0.0, "fusion_lon": 0.0, "bike_id": "edfeb27f87cfaa09aef2311b8c9c76f1", "rental_uris": {"ios": "https://dc.lft.to/lastmile_qr_scan", "android": "https://dc.lft.to/lastmile_qr_scan"}, "type": "electric_scooter", "lat": 38.90477166666667, "is_disabled": 0, "lon": -77.06222616666666, "is_reserved": 0}, {"name": "5312c62cede2f643175a47511922a94a", "fusion_lat": 0.0, "fusion_lon": 0.0, "bike_id": "5312c62cede2f643175a47511922a94a", "rental_uris": {"ios": "https://dc.lft.to/lastmile_qr_scan", "android": "https://dc.lft.to/lastmile_qr_scan"}, "type": "electric_scooter", "lat": 38.925284833333336, "is_disabled": 0, "lon": -77.04102783333333, "is_reserved": 0}, {"name": "9ca0d4895c38bbf74636ae679cc1be41", "fusion_lat": 0.0, "fusion_lon": 0.0, "bike_id": "9ca0d4895c38bbf74636ae679cc1be41", "rental_uris": {"ios": "https://dc.lft.to/lastmile_qr_scan", "android": "https://dc.lft.to/lastmile_qr_scan"}, "type": "electric_scooter", "lat": 38.908555166666666, "is_disabled": 0, "lon": -77.04765883333333, "is_reserved": 0}, {"name": "ecd40fa54400344b5d0cf07316da1f03", "fusion_lat": 0.0, "fusion_lon": 0.0, "bike_id": "ecd40fa54400344b5d0cf07316da1f03", "rental_uris": {"ios": "https://dc.lft.to/lastmile_qr_scan", "android": "https://dc.lft.to/lastmile_qr_scan"}, "type": "electric_scooter", "lat": 38.92169916666667, "is_disabled": 0, "lon": -77.03829416666666, "is_reserved": 0}, {"name": "555e64d5447c08dbc4142fd0cb0722d9", "fusion_lat": 0.0, "fusion_lon": 0.0, "bike_id": "555e64d5447c08dbc4142fd0cb0722d9", "rental_uris": {"ios": "https://dc.lft.to/lastmile_qr_scan", "android": "https://dc.lft.to/lastmile_qr_scan"}, "type": "electric_bike", "lat": 38.9938585, "is_disabled": 0, "lon": -77.02403366666667, "is_reserved": 0}, {"name": "4c34d7392638ac392c95fa324d96bcef", "fusion_lat": 0.0, "fusion_lon": 0.0, "bike_id": "4c34d7392638ac392c95fa324d96bcef", "rental_uris": {"ios": "https://dc.lft.to/lastmile_qr_scan", "android": "https://dc.lft.to/lastmile_qr_scan"}, "type": "electric_scooter", "lat": 38.906120333333334, "is_disabled": 0, "lon": -77.04346583333333, "is_reserved": 0}, {"name": "1837f74e5d0ddbb003f48211f52b38d9", "fusion_lat": 0.0, "fusion_lon": 0.0, "bike_id": "1837f74e5d0ddbb003f48211f52b38d9", "rental_uris": {"ios": "https://dc.lft.to/lastmile_qr_scan", "android": "https://dc.lft.to/lastmile_qr_scan"}, "type": "electric_scooter", "lat": 38.89841033333333, "is_disabled": 0, "lon": -76.94635966666667, "is_reserved": 0}, {"name": "60ea43e59ac8524a3f4506a9a8e74103", "fusion_lat": 0.0, "fusion_lon": 0.0, "bike_id": "60ea43e59ac8524a3f4506a9a8e74103", "rental_uris": {"ios": "https://dc.lft.to/lastmile_qr_scan", "android": "https://dc.lft.to/lastmile_qr_scan"}, "type": "electric_scooter", "lat": 38.90849933333333, "is_disabled": 0, "lon": -77.060828, "is_reserved": 0}, {"name": "9e70ebacc3175ac26844e7bbd16d6e91", "fusion_lat": 0.0, "fusion_lon": 0.0, "bike_id": "9e70ebacc3175ac26844e7bbd16d6e91", "rental_uris": {"ios": "https://dc.lft.to/lastmile_qr_scan", "android": "https://dc.lft.to/lastmile_qr_scan"}, "type": "electric_scooter", "lat": 38.88747083333333, "is_disabled": 0, "lon": -77.02230483333334, "is_reserved": 0}, {"name": "293789a507b20963ebd67c2116393c29", "fusion_lat": 0.0, "fusion_lon": 0.0, "bike_id": "293789a507b20963ebd67c2116393c29", "rental_uris": {"ios": "https://dc.lft.to/lastmile_qr_scan", "android": "https://dc.lft.to/lastmile_qr_scan"}, "type": "electric_scooter", "lat": 38.92370116666667, "is_disabled": 0, "lon": -77.0313395, "is_reserved": 0}, {"name": "89412e1fc3fe473f061d6f4a4363064e", "fusion_lat": 0.0, "fusion_lon": 0.0, "bike_id": "89412e1fc3fe473f061d6f4a4363064e", "rental_uris": {"ios": "https://dc.lft.to/lastmile_qr_scan", "android": "https://dc.lft.to/lastmile_qr_scan"}, "type": "electric_scooter", "lat": 38.8858625, "is_disabled": 0, "lon": -77.03168716666667, "is_reserved": 0}, {"name": "47d803c0c1b09afc091b4d6dabb9bae9", "fusion_lat": 0.0, "fusion_lon": 0.0, "bike_id": "47d803c0c1b09afc091b4d6dabb9bae9", "rental_uris": {"ios": "https://dc.lft.to/lastmile_qr_scan", "android": "https://dc.lft.to/lastmile_qr_scan"}, "type": "electric_scooter", "lat": 38.90223966666667, "is_disabled": 0, "lon": -77.019136, "is_reserved": 0}, {"name": "15504975e4e91bd7f8da726be261ba16", "fusion_lat": 0.0, "fusion_lon": 0.0, "bike_id": "15504975e4e91bd7f8da726be261ba16", "rental_uris": {"ios": "https://dc.lft.to/lastmile_qr_scan", "android": "https://dc.lft.to/lastmile_qr_scan"}, "type": "electric_scooter", "lat": 38.918681666666664, "is_disabled": 0, "lon": -77.04031566666667, "is_reserved": 0}, {"name": "4f7088e52baa27f57a96aaf4c8c0202c", "fusion_lat": 0.0, "fusion_lon": 0.0, "bike_id": "4f7088e52baa27f57a96aaf4c8c0202c", "rental_uris": {"ios": "https://dc.lft.to/lastmile_qr_scan", "android": "https://dc.lft.to/lastmile_qr_scan"}, "type": "electric_scooter", "lat": 38.897238333333334, "is_disabled": 0, "lon": -76.99262016666667, "is_reserved": 0}, {"name": "ccdd36b8323bfb9df2a37e3c0ef22103", "fusion_lat": 0.0, "fusion_lon": 0.0, "bike_id": "ccdd36b8323bfb9df2a37e3c0ef22103", "rental_uris": {"ios": "https://dc.lft.to/lastmile_qr_scan", "android": "https://dc.lft.to/lastmile_qr_scan"}, "type": "electric_scooter", "lat": 38.92252, "is_disabled": 0, "lon": -77.03072716666667, "is_reserved": 0}, {"name": "88dff9e2867cfde3b5bd392ceda48073", "fusion_lat": 0.0, "fusion_lon": 0.0, "bike_id": "88dff9e2867cfde3b5bd392ceda48073", "rental_uris": {"ios": "https://dc.lft.to/lastmile_qr_scan", "android": "https://dc.lft.to/lastmile_qr_scan"}, "type": "electric_scooter", "lat": 38.91558583333333, "is_disabled": 0, "lon": -77.03252383333333, "is_reserved": 0}, {"name": "4cb47efedee8fd32b7cc994f2403b46f", "fusion_lat": 0.0, "fusion_lon": 0.0, "bike_id": "4cb47efedee8fd32b7cc994f2403b46f", "rental_uris": {"ios": "https://dc.lft.to/lastmile_qr_scan", "android": "https://dc.lft.to/lastmile_qr_scan"}, "type": "electric_scooter", "lat": 38.899438333333336, "is_disabled": 0, "lon": -77.04350683333334, "is_reserved": 0}, {"name": "9e79cc5e565d42ede3ad8163e9f2cb83", "fusion_lat": 0.0, "fusion_lon": 0.0, "bike_id": "9e79cc5e565d42ede3ad8163e9f2cb83", "rental_uris": {"ios": "https://dc.lft.to/lastmile_qr_scan", "android": "https://dc.lft.to/lastmile_qr_scan"}, "type": "electric_scooter", "lat": 38.915668333333336, "is_disabled": 0, "lon": -77.03274933333333, "is_reserved": 0}, {"name": "1d4710449b2b6aaaa3dab6f6f10fb31a", "fusion_lat": 0.0, "fusion_lon": 0.0, "bike_id": "1d4710449b2b6aaaa3dab6f6f10fb31a", "rental_uris": {"ios": "https://dc.lft.to/lastmile_qr_scan", "android": "https://dc.lft.to/lastmile_qr_scan"}, "type": "electric_scooter", "lat": 38.899591, "is_disabled": 0, "lon": -77.046108, "is_reserved": 0}, {"name": "d5b2e961e8ae926ab249001fc9b1a30a", "fusion_lat": 0.0, "fusion_lon": 0.0, "bike_id": "d5b2e961e8ae926ab249001fc9b1a30a", "rental_uris": {"ios": "https://dc.lft.to/lastmile_qr_scan", "android": "https://dc.lft.to/lastmile_qr_scan"}, "type": "electric_scooter", "lat": 38.8971375, "is_disabled": 0, "lon": -77.008027, "is_reserved": 0}, {"name": "9f040ce6ab9d46653fc2d20441f75c59", "fusion_lat": 0.0, "fusion_lon": 0.0, "bike_id": "9f040ce6ab9d46653fc2d20441f75c59", "rental_uris": {"ios": "https://dc.lft.to/lastmile_qr_scan", "android": "https://dc.lft.to/lastmile_qr_scan"}, "type": "electric_scooter", "lat": 38.89617533333333, "is_disabled": 0, "lon": -76.99638533333334, "is_reserved": 0}, {"name": "81d96d4176010446dc5a5c34b0c563e9", "fusion_lat": 0.0, "fusion_lon": 0.0, "bike_id": "81d96d4176010446dc5a5c34b0c563e9", "rental_uris": {"ios": "https://dc.lft.to/lastmile_qr_scan", "android": "https://dc.lft.to/lastmile_qr_scan"}, "type": "electric_scooter", "lat": 38.932527666666665, "is_disabled": 0, "lon": -77.03282116666666, "is_reserved": 0}, {"name": "e4fc89d2593ea3ce5039480317a784ce", "fusion_lat": 0.0, "fusion_lon": 0.0, "bike_id": "e4fc89d2593ea3ce5039480317a784ce", "rental_uris": {"ios": "https://dc.lft.to/lastmile_qr_scan", "android": "https://dc.lft.to/lastmile_qr_scan"}, "type": "electric_scooter", "lat": 38.901775, "is_disabled": 0, "lon": -76.9282985, "is_reserved": 0}, {"name": "65680408a58341fd9eca2fe0f2654b77", "fusion_lat": 0.0, "fusion_lon": 0.0, "bike_id": "65680408a58341fd9eca2fe0f2654b77", "rental_uris": {"ios": "https://dc.lft.to/lastmile_qr_scan", "android": "https://dc.lft.to/lastmile_qr_scan"}, "type": "electric_scooter", "lat": 38.920792666666664, "is_disabled": 0, "lon": -77.0251565, "is_reserved": 0}, {"name": "738eba4de428cec79fcd29cd0f21ba53", "fusion_lat": 0.0, "fusion_lon": 0.0, "bike_id": "738eba4de428cec79fcd29cd0f21ba53", "rental_uris": {"ios": "https://dc.lft.to/lastmile_qr_scan", "android": "https://dc.lft.to/lastmile_qr_scan"}, "type": "electric_scooter", "lat": 38.901276833333334, "is_disabled": 0, "lon": -77.03973433333333, "is_reserved": 0}, {"name": "098b0b204e019f8cf210c512feb44d41", "fusion_lat": 0.0, "fusion_lon": 0.0, "bike_id": "098b0b204e019f8cf210c512feb44d41", "rental_uris": {"ios": "https://dc.lft.to/lastmile_qr_scan", "android": "https://dc.lft.to/lastmile_qr_scan"}, "type": "electric_bike", "lat": 38.9575585, "is_disabled": 0, "lon": -76.98021766666666, "is_reserved": 0}, {"name": "886b59aca1195f9267776a6394ea8ae4", "fusion_lat": 0.0, "fusion_lon": 0.0, "bike_id": "886b59aca1195f9267776a6394ea8ae4", "rental_uris": {"ios": "https://dc.lft.to/lastmile_qr_scan", "android": "https://dc.lft.to/lastmile_qr_scan"}, "type": "electric_scooter", "lat": 38.91075133333333, "is_disabled": 0, "lon": -77.00153783333333, "is_reserved": 0}, {"name": "18593853f12ec76baa35a37d9be97199", "fusion_lat": 0.0, "fusion_lon": 0.0, "bike_id": "18593853f12ec76baa35a37d9be97199", "rental_uris": {"ios": "https://dc.lft.to/lastmile_qr_scan", "android": "https://dc.lft.to/lastmile_qr_scan"}, "type": "electric_scooter", "lat": 38.931447, "is_disabled": 0, "lon": -77.0361165, "is_reserved": 0}, {"name": "9963c7f60f911deebdc92387071ab134", "fusion_lat": 0.0, "fusion_lon": 0.0, "bike_id": "9963c7f60f911deebdc92387071ab134", "rental_uris": {"ios": "https://dc.lft.to/lastmile_qr_scan", "android": "https://dc.lft.to/lastmile_qr_scan"}, "type": "electric_scooter", "lat": 38.90024833333333, "is_disabled": 0, "lon": -76.99607133333333, "is_reserved": 0}, {"name": "26a8347832df0d8983daa97fb47190ed", "fusion_lat": 0.0, "fusion_lon": 0.0, "bike_id": "26a8347832df0d8983daa97fb47190ed", "rental_uris": {"ios": "https://dc.lft.to/lastmile_qr_scan", "android": "https://dc.lft.to/lastmile_qr_scan"}, "type": "electric_scooter", "lat": 38.89842083333333, "is_disabled": 0, "lon": -77.01961983333334, "is_reserved": 0}, {"name": "5ca852ba72457228d54680939faa39a7", "fusion_lat": 0.0, "fusion_lon": 0.0, "bike_id": "5ca852ba72457228d54680939faa39a7", "rental_uris": {"ios": "https://dc.lft.to/lastmile_qr_scan", "android": "https://dc.lft.to/lastmile_qr_scan"}, "type": "electric_scooter", "lat": 38.9058395, "is_disabled": 0, "lon": -77.00547933333333, "is_reserved": 0}, {"name": "3735ca0a6d1f324fe0ea9f197afbf375", "fusion_lat": 0.0, "fusion_lon": 0.0, "bike_id": "3735ca0a6d1f324fe0ea9f197afbf375", "rental_uris": {"ios": "https://dc.lft.to/lastmile_qr_scan", "android": "https://dc.lft.to/lastmile_qr_scan"}, "type": "electric_scooter", "lat": 38.895096833333334, "is_disabled": 0, "lon": -76.94888933333333, "is_reserved": 0}, {"name": "515623e6e049917220ca1fd4a006711d", "fusion_lat": 0.0, "fusion_lon": 0.0, "bike_id": "515623e6e049917220ca1fd4a006711d", "rental_uris": {"ios": "https://dc.lft.to/lastmile_qr_scan", "android": "https://dc.lft.to/lastmile_qr_scan"}, "type": "electric_scooter", "lat": 38.89948966666667, "is_disabled": 0, "lon": -77.0257715, "is_reserved": 0}, {"name": "cdb6254397261c9f9a8364da12742883", "fusion_lat": 0.0, "fusion_lon": 0.0, "bike_id": "cdb6254397261c9f9a8364da12742883", "rental_uris": {"ios": "https://dc.lft.to/lastmile_qr_scan", "android": "https://dc.lft.to/lastmile_qr_scan"}, "type": "electric_scooter", "lat": 38.8603385, "is_disabled": 0, "lon": -76.99689933333333, "is_reserved": 0}, {"name": "539fd6429e32d74dac15b536d9b0085f", "fusion_lat": 0.0, "fusion_lon": 0.0, "bike_id": "539fd6429e32d74dac15b536d9b0085f", "rental_uris": {"ios": "https://dc.lft.to/lastmile_qr_scan", "android": "https://dc.lft.to/lastmile_qr_scan"}, "type": "electric_bike", "lat": 39.0959145, "is_disabled": 0, "lon": -77.14780966666666, "is_reserved": 0}, {"name": "1868b81c3607dee8da7bb4f5c2fa96c1", "fusion_lat": 0.0, "fusion_lon": 0.0, "bike_id": "1868b81c3607dee8da7bb4f5c2fa96c1", "rental_uris": {"ios": "https://dc.lft.to/lastmile_qr_scan", "android": "https://dc.lft.to/lastmile_qr_scan"}, "type": "electric_scooter", "lat": 38.9560655, "is_disabled": 0, "lon": -77.03630183333334, "is_reserved": 0}, {"name": "bcb83751d6cb360b580074b9f2fb1a9f", "fusion_lat": 0.0, "fusion_lon": 0.0, "bike_id": "bcb83751d6cb360b580074b9f2fb1a9f", "rental_uris": {"ios": "https://dc.lft.to/lastmile_qr_scan", "android": "https://dc.lft.to/lastmile_qr_scan"}, "type": "electric_bike", "lat": 38.99933216666667, "is_disabled": 0, "lon": -77.00126066666667, "is_reserved": 0}, {"name": "924cf93a75a16609731e3f170b576bd1", "fusion_lat": 0.0, "fusion_lon": 0.0, "bike_id": "924cf93a75a16609731e3f170b576bd1", "rental_uris": {"ios": "https://dc.lft.to/lastmile_qr_scan", "android": "https://dc.lft.to/lastmile_qr_scan"}, "type": "electric_scooter", "lat": 38.8972745, "is_disabled": 0, "lon": -76.94705966666666, "is_reserved": 0}, {"name": "d0b6314be404229dc87432c6fc97345d", "fusion_lat": 0.0, "fusion_lon": 0.0, "bike_id": "d0b6314be404229dc87432c6fc97345d", "rental_uris": {"ios": "https://dc.lft.to/lastmile_qr_scan", "android": "https://dc.lft.to/lastmile_qr_scan"}, "type": "electric_bike", "lat": 38.855329, "is_disabled": 0, "lon": -77.10722583333333, "is_reserved": 0}, {"name": "7cd462a5e65d8e15bb1ed5f9e72ec2d9", "fusion_lat": 0.0, "fusion_lon": 0.0, "bike_id": "7cd462a5e65d8e15bb1ed5f9e72ec2d9", "rental_uris": {"ios": "https://dc.lft.to/lastmile_qr_scan", "android": "https://dc.lft.to/lastmile_qr_scan"}, "type": "electric_bike", "lat": 38.84194383333333, "is_disabled": 0, "lon": -77.07750433333334, "is_reserved": 0}, {"name": "725a0b4dce2b639225cc47c4ed60b72b", "fusion_lat": 0.0, "fusion_lon": 0.0, "bike_id": "725a0b4dce2b639225cc47c4ed60b72b", "rental_uris": {"ios": "https://dc.lft.to/lastmile_qr_scan", "android": "https://dc.lft.to/lastmile_qr_scan"}, "type": "electric_scooter", "lat": 38.876264, "is_disabled": 0, "lon": -76.9652735, "is_reserved": 0}, {"name": "bcb3cea44225994503af928d1d74badc", "fusion_lat": 0.0, "fusion_lon": 0.0, "bike_id": "bcb3cea44225994503af928d1d74badc", "rental_uris": {"ios": "https://dc.lft.to/lastmile_qr_scan", "android": "https://dc.lft.to/lastmile_qr_scan"}, "type": "electric_scooter", "lat": 38.9090155, "is_disabled": 0, "lon": -77.043399, "is_reserved": 0}, {"name": "869ed83e4fc351d7862acbfdb26d4294", "fusion_lat": 0.0, "fusion_lon": 0.0, "bike_id": "869ed83e4fc351d7862acbfdb26d4294", "rental_uris": {"ios": "https://dc.lft.to/lastmile_qr_scan", "android": "https://dc.lft.to/lastmile_qr_scan"}, "type": "electric_scooter", "lat": 38.88641, "is_disabled": 0, "lon": -77.02250666666667, "is_reserved": 0}, {"name": "7d9f99bca100b50f8269291d26df03db", "fusion_lat": 0.0, "fusion_lon": 0.0, "bike_id": "7d9f99bca100b50f8269291d26df03db", "rental_uris": {"ios": "https://dc.lft.to/lastmile_qr_scan", "android": "https://dc.lft.to/lastmile_qr_scan"}, "type": "electric_scooter", "lat": 38.922374, "is_disabled": 0, "lon": -77.02847733333333, "is_reserved": 0}, {"name": "7d8f037906e1f5703dae1a1d8fff5a69", "fusion_lat": 0.0, "fusion_lon": 0.0, "bike_id": "7d8f037906e1f5703dae1a1d8fff5a69", "rental_uris": {"ios": "https://dc.lft.to/lastmile_qr_scan", "android": "https://dc.lft.to/lastmile_qr_scan"}, "type": "electric_scooter", "lat": 38.89916616666667, "is_disabled": 0, "lon": -76.9336655, "is_reserved": 0}, {"name": "3b2dac69d459ee4e4dc8df9415d582f3", "fusion_lat": 0.0, "fusion_lon": 0.0, "bike_id": "3b2dac69d459ee4e4dc8df9415d582f3", "rental_uris": {"ios": "https://dc.lft.to/lastmile_qr_scan", "android": "https://dc.lft.to/lastmile_qr_scan"}, "type": "electric_bike", "lat": 38.966215166666665, "is_disabled": 0, "lon": -77.0342905, "is_reserved": 0}, {"name": "5d3b1e017ac7de2204009c590937022e", "fusion_lat": 0.0, "fusion_lon": 0.0, "bike_id": "5d3b1e017ac7de2204009c590937022e", "rental_uris": {"ios": "https://dc.lft.to/lastmile_qr_scan", "android": "https://dc.lft.to/lastmile_qr_scan"}, "type": "electric_scooter", "lat": 38.89559066666666, "is_disabled": 0, "lon": -77.00920516666666, "is_reserved": 0}, {"name": "3e06b2746b3965edece9aacc1b61a5e9", "fusion_lat": 0.0, "fusion_lon": 0.0, "bike_id": "3e06b2746b3965edece9aacc1b61a5e9", "rental_uris": {"ios": "https://dc.lft.to/lastmile_qr_scan", "android": "https://dc.lft.to/lastmile_qr_scan"}, "type": "electric_scooter", "lat": 38.917439333333334, "is_disabled": 0, "lon": -77.03660783333333, "is_reserved": 0}, {"name": "b64aaa5aed4e0dc1cc1bfd0a42a41704", "fusion_lat": 0.0, "fusion_lon": 0.0, "bike_id": "b64aaa5aed4e0dc1cc1bfd0a42a41704", "rental_uris": {"ios": "https://dc.lft.to/lastmile_qr_scan", "android": "https://dc.lft.to/lastmile_qr_scan"}, "type": "electric_scooter", "lat": 38.8925935, "is_disabled": 0, "lon": -76.94158666666667, "is_reserved": 0}, {"name": "77667ee6148da42cf25d277267c082fe", "fusion_lat": 0.0, "fusion_lon": 0.0, "bike_id": "77667ee6148da42cf25d277267c082fe", "rental_uris": {"ios": "https://dc.lft.to/lastmile_qr_scan", "android": "https://dc.lft.to/lastmile_qr_scan"}, "type": "electric_scooter", "lat": 38.865051, "is_disabled": 0, "lon": -76.990022, "is_reserved": 0}, {"name": "16b5e721eebbfae2666fdc0c622e1ed0", "fusion_lat": 0.0, "fusion_lon": 0.0, "bike_id": "16b5e721eebbfae2666fdc0c622e1ed0", "rental_uris": {"ios": "https://dc.lft.to/lastmile_qr_scan", "android": "https://dc.lft.to/lastmile_qr_scan"}, "type": "electric_scooter", "lat": 38.93954733333333, "is_disabled": 0, "lon": -77.02774083333334, "is_reserved": 0}, {"name": "1c29b635e917da1d818567d6189322c1", "fusion_lat": 0.0, "fusion_lon": 0.0, "bike_id": "1c29b635e917da1d818567d6189322c1", "rental_uris": {"ios": "https://dc.lft.to/lastmile_qr_scan", "android": "https://dc.lft.to/lastmile_qr_scan"}, "type": "electric_scooter", "lat": 38.9024775, "is_disabled": 0, "lon": -77.02946166666666, "is_reserved": 0}, {"name": "a2d880f6b7a4263c4d7915c4d78a7827", "fusion_lat": 0.0, "fusion_lon": 0.0, "bike_id": "a2d880f6b7a4263c4d7915c4d78a7827", "rental_uris": {"ios": "https://dc.lft.to/lastmile_qr_scan", "android": "https://dc.lft.to/lastmile_qr_scan"}, "type": "electric_scooter", "lat": 38.90882466666667, "is_disabled": 0, "lon": -77.04056366666667, "is_reserved": 0}, {"name": "a4c5df5a127d63872b5a35857188cd73", "fusion_lat": 0.0, "fusion_lon": 0.0, "bike_id": "a4c5df5a127d63872b5a35857188cd73", "rental_uris": {"ios": "https://dc.lft.to/lastmile_qr_scan", "android": "https://dc.lft.to/lastmile_qr_scan"}, "type": "electric_scooter", "lat": 38.883669166666664, "is_disabled": 0, "lon": -76.99522266666666, "is_reserved": 0}, {"name": "c5f4a915ffb98802a47a580c531174a7", "fusion_lat": 0.0, "fusion_lon": 0.0, "bike_id": "c5f4a915ffb98802a47a580c531174a7", "rental_uris": {"ios": "https://dc.lft.to/lastmile_qr_scan", "android": "https://dc.lft.to/lastmile_qr_scan"}, "type": "electric_scooter", "lat": 38.9012505, "is_disabled": 0, "lon": -77.0119965, "is_reserved": 0}, {"name": "2afbde9ac1239fe5fdf66ef916b5e91d", "fusion_lat": 0.0, "fusion_lon": 0.0, "bike_id": "2afbde9ac1239fe5fdf66ef916b5e91d", "rental_uris": {"ios": "https://dc.lft.to/lastmile_qr_scan", "android": "https://dc.lft.to/lastmile_qr_scan"}, "type": "electric_bike", "lat": 38.96753133333333, "is_disabled": 0, "lon": -77.09165266666666, "is_reserved": 0}, {"name": "a0947c38b93da0593e54c892ddee5882", "fusion_lat": 0.0, "fusion_lon": 0.0, "bike_id": "a0947c38b93da0593e54c892ddee5882", "rental_uris": {"ios": "https://dc.lft.to/lastmile_qr_scan", "android": "https://dc.lft.to/lastmile_qr_scan"}, "type": "electric_scooter", "lat": 38.89481833333333, "is_disabled": 0, "lon": -76.99515916666667, "is_reserved": 0}, {"name": "2c27b01a6ee0fc8827222f3a18775653", "fusion_lat": 0.0, "fusion_lon": 0.0, "bike_id": "2c27b01a6ee0fc8827222f3a18775653", "rental_uris": {"ios": "https://dc.lft.to/lastmile_qr_scan", "android": "https://dc.lft.to/lastmile_qr_scan"}, "type": "electric_scooter", "lat": 38.917655, "is_disabled": 0, "lon": -77.02313683333334, "is_reserved": 0}, {"name": "1653fc272bb13d25bf4820565e4b0627", "fusion_lat": 0.0, "fusion_lon": 0.0, "bike_id": "1653fc272bb13d25bf4820565e4b0627", "rental_uris": {"ios": "https://dc.lft.to/lastmile_qr_scan", "android": "https://dc.lft.to/lastmile_qr_scan"}, "type": "electric_scooter", "lat": 38.895166833333334, "is_disabled": 0, "lon": -77.02938133333333, "is_reserved": 0}, {"name": "1a969fb4569800c9e9a0a6affcda0c19", "fusion_lat": 0.0, "fusion_lon": 0.0, "bike_id": "1a969fb4569800c9e9a0a6affcda0c19", "rental_uris": {"ios": "https://dc.lft.to/lastmile_qr_scan", "android": "https://dc.lft.to/lastmile_qr_scan"}, "type": "electric_scooter", "lat": 38.858097666666666, "is_disabled": 0, "lon": -76.9865545, "is_reserved": 0}, {"name": "5fe0bd8df6ba333a5bca060eb8e9e4ae", "fusion_lat": 0.0, "fusion_lon": 0.0, "bike_id": "5fe0bd8df6ba333a5bca060eb8e9e4ae", "rental_uris": {"ios": "https://dc.lft.to/lastmile_qr_scan", "android": "https://dc.lft.to/lastmile_qr_scan"}, "type": "electric_scooter", "lat": 38.89296866666667, "is_disabled": 0, "lon": -77.046619, "is_reserved": 0}, {"name": "5ba0b9772af02091bc82b1d2d0a3b349", "fusion_lat": 0.0, "fusion_lon": 0.0, "bike_id": "5ba0b9772af02091bc82b1d2d0a3b349", "rental_uris": {"ios": "https://dc.lft.to/lastmile_qr_scan", "android": "https://dc.lft.to/lastmile_qr_scan"}, "type": "electric_scooter", "lat": 38.94088, "is_disabled": 0, "lon": -77.02737383333333, "is_reserved": 0}, {"name": "ea8acd7a9f54730da1ba3d8fec33b7c4", "fusion_lat": 0.0, "fusion_lon": 0.0, "bike_id": "ea8acd7a9f54730da1ba3d8fec33b7c4", "rental_uris": {"ios": "https://dc.lft.to/lastmile_qr_scan", "android": "https://dc.lft.to/lastmile_qr_scan"}, "type": "electric_scooter", "lat": 38.931285, "is_disabled": 0, "lon": -77.0384825, "is_reserved": 0}, {"name": "3eb01bd29f866338fe5a05075d60b54c", "fusion_lat": 0.0, "fusion_lon": 0.0, "bike_id": "3eb01bd29f866338fe5a05075d60b54c", "rental_uris": {"ios": "https://dc.lft.to/lastmile_qr_scan", "android": "https://dc.lft.to/lastmile_qr_scan"}, "type": "electric_bike", "lat": 38.99891916666667, "is_disabled": 0, "lon": -77.02871866666666, "is_reserved": 0}, {"name": "13f25f608f13bff11cd9cfd651f18f20", "fusion_lat": 0.0, "fusion_lon": 0.0, "bike_id": "13f25f608f13bff11cd9cfd651f18f20", "rental_uris": {"ios": "https://dc.lft.to/lastmile_qr_scan", "android": "https://dc.lft.to/lastmile_qr_scan"}, "type": "electric_scooter", "lat": 38.912614166666664, "is_disabled": 0, "lon": -77.01697433333334, "is_reserved": 0}, {"name": "2d8aae50d97e48a0063fc1bd4261fdc8", "fusion_lat": 0.0, "fusion_lon": 0.0, "bike_id": "2d8aae50d97e48a0063fc1bd4261fdc8", "rental_uris": {"ios": "https://dc.lft.to/lastmile_qr_scan", "android": "https://dc.lft.to/lastmile_qr_scan"},